~Version Information
 VERS.                  2.0:   CWLS log ASCII Standard -VERSION 2.0
 WRAP.                   NO:   One line per depth step
~Well Information Block
#MNEM.UNIT     VALUE/NAME     DESCRIPTION
#---------     -----------    ---------------------------
 STRT.S             22:02:54 23-Mar-20: START TIME 22:02:54 23-Mar-20
 STOP.S             22:09:24 23-Mar-20: STOP TIME  22:09:24 23-Mar-20
 STEP.S                   0.00: STEP TIME
 NULL.                 -999.25: NULL VALUE
 DFWT.                        :  DIST FWL TEXT
 DFST.                        :  DIST FSL TEXT
 DMF .             Drill Floor:  DRILL MEAS FROM
 STIM.      22.30.00 15-Feb-20:  START TIME
 DATE.      17.00.00 25-Mar-20:  END TIME
 SPUD.               15-Feb-20:  SPUD DATE
 NREF.                    Grid:  NORTH REFERENCE
 HPTY.       Minimum Curvature:  HOLE POS TYPE
 DMOD.             Drill Model:  DRILL MOD DESC
 SVYD.                  Survey:  SURVEY DESC
 ILTD.               Lithology:  INTERP LTH DESC
 FTOP.          Formation Tops:  FORM TOPS DESC
 SON .        AZ-XX-0906019077:  JOB NUMBER
 PDAT.          Mean Sea Level:  PERMANENT DATUM
 WTYP.                Deviated:  WELL TYPE
 MDS .        Operator Entered:  MAG DATA SOURCE
 COMP.     BP Exploration (Caspian sea) Ltd.:  COMPANY
 UWI .                     N/A:  UNIQUE WELL IDENTIFIER
 API .                     N/A:  API NUMBER
 BASE.              Azerbaijan:  LOGGING EQUIPMENT BASE LOCATION
 REGN.                   EESSA:  REGION
 PROV.                     N/A:  PROVINCE
 STAT.                     N/A:  STATE NAME
 CTRY.              Azerbaijan:  COUNTRY NAME
 FLD .                     ACG:  FIELD NAME
 SRVC.          Turan Drilling:  CONTRACTOR
 MWDS.                    Baku:  MWD SHOP
 WELL.                    E16W:  WELL NAME
 JOBN.        AZ-XX-0906019077:  JOB TICKET NUMB
 RIG .                     DWG:  RIG NAME
 CNTY.                     N/A:  COUNTY NAME
 DCON.         Sperry Drilling:  DIRECTNL CONTR
 UNIT.                     N/A:  LOGGING EQUIPMENT ID
 LOC .                        :  LOCATION
 LMF .             Drill Floor:  LOG MEASURED FROM
 TVDS.m                  43.16:  TVDSS CORRECTN
 LATI.deg                40.17:  LATITUDE
 LONG.deg                51.17:  LONGITUDE
 WHNS.m                 -15.30:  WELL HEAD N/S
 WHEW.m                  -1.29:  WELL HEAD E/W
 UTMX.m              514337.95:  UTM X
 UTMY.m             4448627.46:  UTM Y
 DFWL.m                   0.00:  DISTANCE FWL
 DFSL.m                   0.00:  DISTANCE FSL
 SDEP.m                3499.01:  START DEPTH
 TDD .m                4606.01:  TOTAL DEPTH (DRILLER)
 VSDR.deg               151.14:  VERT SEC DIRECT
 GVFD.g                   1.00:  GRAVITY FIELD
 MFLD.nT              50334.00:  MAGNETIC FIELD
 MDIP.deg                59.62:  MAGNETIC DIP
 MDEC.deg                 6.46:  MAGNETIC DECL
 GRDC.deg                 0.12:  GRID CORRECTION
 AZTC.deg                 6.34:  AZM TOTAL CORR
 EPD .m                   0.00:  ELEVATION
 EGL .m                   0.00:  GROUND ELEVATION
 WDMS.m                 176.20:  WD ELEV
 APD .m                  43.16:  DEPTH ABOVE PD
 VSEW.m                  -1.29:  VERT SEC E/W
 VSNS.m                 -15.30:  VERT SEC N/S
 AGAP.m                  43.16:  AIR GAP
 EKB .m                   0.00:  KB ELEVATION
 EDF .m                  43.16:  DF ELEVATION
 TDL .m                 103.00:  TOTAL DEPTH (LOGGER)
 VSC .                       0:  VS TO CLOSURE
 MAGU.                 1852525:  MAGUTM CHECKSUM
~Parameter Information Block
#MNEM.UNIT       Value        Description
#---------     -----------    ---------------------------
 AV  .mps                 1.01:  Ann Velocity 
 AVMX.mps                 1.32:  Max Ann Veloc 
 AZIF.deg               140.63:  Azm, Final 
 BHAT.        Rotary Steerable:  BHA Type 
 BREV.rev            151000.00:  Rev Bit Total 
 BROT.°/30m               0.65:  Build Rotating 
 BS  .in                  6.50:  Bit Size 
 BSZ .in                  6.50:  Bit Size 
 BTPL.psig              222.00:  Bit Press Loss 
 CABU.                      No:  Customer Abuse 
 CGEO.           Emin Aliyarov:  Customer Geo 
 COMM.                     L5S:  Run Comments 1 
 TCS .hr                 22.89:  Time Ciculation Ended 
 CV  .mps                 2.20:  Crit Velocity 
 CVMX.mps                 3.04:  Max Crit Veloc 
 DD1 .         Intigam Rahimov:  Direct Drillr 1 
 DDSV.               Geo-Pilot:  DD Service 
 DEFF.%                  91.50:  % Det Eff 
 DLRX.°/30m               1.15:  Dogleg Rot Max 
 DLSO.°/30m               0.86:  Dogleg Oriented 
 DLSX.°/30m               1.15:  Dogleg Str Max 
 DRET.      13.10.00 24-Mar-20:  Drill End Time 
 DRST.      17.00.00 23-Mar-20:  Drill Start Tim 
 DTIM.hr                 11.87:  Time Drilling 
 EDEP.m                4606.01:  End Depth 
 ENG1.          Rasim Hashimov:  Engineer 1 
 ENG2.            Alan Tuganov:  Engineer 2 
 ENG3.         Yevgeniy Ulikov:  Engineer 3 
 ETIM.      16.00.00 25-Mar-20:  End Time 
 FLOI.gpm               400.00:  Flow In 
 FLON.gpm               350.00:  Flow In Min 
 FLOS.cptm                0.00:  Fluid Loss 
 FLOX.gpm               400.00:  Flow In Max 
 FTRO.       Formation Presure:  FTWD Run Obj 
 HFLO.                      No:  High Flow 
 HPRE.                      No:  High Pressure 
 HTEM.                      No:  High Temp 
 HYDO.m                   1.80:  Hydro Offset 
 IFIN.deg                79.55:  Inc, Final 
 IMAX.deg                79.55:  Inc Max 
 IMIN.deg                78.04:  Inc Min 
 IMND.m                4502.50:  Inc Min Depth 
 IMXD.m                4587.87:  Inc Max Depth 
 JARR.                      No:  Jarring 
 LETM.      13.10.00 24-Mar-20:  Log End Time 
 LOST.hr                     0:  Lost Rig Time 
 LSTM.      17.00.00 23-Mar-20:  Log Start Time 
 MDCL.ppm             39000.00:  Mud Chlorides 
 MDES.     Inversion Oil/Synthetic:  Mud Desc 
 DFD .sg                  1.40:  Mud Density 
 MDMN.sg                  1.40:  Dens Mud Min 
 MDMX.sg                  1.40:  Dens Mud Max 
 MOIL.                    55.2:  Run Mud Oil % 
 MOWR.                   68:32:  Run Mud OWR 
 MSND.                     0.1:  Run Mud Sand % 
 MSOL.                    17.8:  Run Mud Solids% 
 DFV .spqt               76.00:  Mud Viscosity 
 MWOD.in                  4.75:  MWD Tool OD 
 MWSI.                      No:  Serv Intrp, MWD 
 OTIM.hr                 64.35:  Time Operating 
 PCON.           Look Like New:  Pad Condition 
 PMAX.psia             5350.00:  Press Op, Max 
 PV  .cP                 26.00:  Mud PV 
 RUN .                     900:  Run Number 
 ROPA.m/hr                9.00:  ROP Avg 
 ROPN.m/hr                7.00:  ROP Min 
 ROPX.m/hr               13.00:  ROP Max 
 RPMA.rpm               140.00:  RPM Surface Avg 
 RPMN.rpm               140.00:  RPM Surface Min 
 RPMX.rpm               140.00:  RPM Surface Max 
 RRUN.                    L204:  Rig Run Number 
 RTIM.hr                  4.50:  Time Reaming 
 SAZI.deg               141.40:  Azm, Start 
 SDEP.m                4503.01:  Start Depth 
 SIDD.                      No:  Serv Intrp, DD 
 SINC.deg                78.04:  Inc, Start 
 SPPA.psig             5300.00:  SPP Avg 
 SPPN.psig             5100.00:  SPP Min 
 SPPX.psig             5500.00:  SPP Max 
 STIM.      18.00.00 22-Mar-20:  Start Time 
 SVCS.                 DD, MWD:  Services 
 SVER.                    9.20:  Sperry Version 
 TDAT.m                 103.00:  Tot Depth Attmp 
 TDDF.                      No:  Trip for DD 
 TDLG.m                 103.00:  Tot Depth Loggd 
 TFF .                      No:  Trip for Fail 
 TQAA.f-kp               14.00:  Torque Abs Avg 
 TQAN.f-kp               12.00:  Torque Abs Min 
 TQAX.f-kp               16.00:  Torque Abs Max 
 TRRT.°/30m               0.45:  Turn Rotating 
 MRT .                    HCIM:  Maximum Recorded Temperature 
 TTMX.degC               90.20:  Max Tool Temp 
 VS01.         90577859G12V7D4:  Virtual Str1 SN 
 VS02.            90519330D5C4:  Virtual Str2 SN 
 VS03.             90603450F11:  Virtual Str3 SN 
 VS04.           90515383R12C4:  Virtual Str4 SN 
 VS05.          90522017N2L2C4:  Virtual Str5 SN 
 VS06.            90512682Z1W1:  Virtual Str6 SN 
 WBMN.klb                 5.00:  WOB Min 
 WITN.        Elmaddin Rahimov:  Customer Rep 
 WITN.           Adil Mammadov:  Customer Rep 2 
 WOBA.klb                 8.00:  WOB Avg 
 WOBX.klb                13.00:  WOB Max 
 YP  .lhf2               31.00:  Yield Point 
~Curve Information Block
#MNEM.UNIT                 API CODE     Curve Description
#---------               -----------    ---------------------------
 TIME.HHMMSS            00 000 000 000:  GT Time & Date
 GTDEPTH.m              00 000 000 000:  GT Depth
 GTPQH.psia             00 000 000 000:  GT HR Quartz Pressure
 GTTQ.degC              00 000 000 000:  GT Quartz Temperature
 GTTN.NONE              00 000 000 000:  GT Test Number
 GTET.sec               00 000 000 000:  GT Elapsed Test Time
 GTTVD.m                00 000 000 000:  GT True Vertical Depth
#Other Information
#
#WARRANTY: Halliburton will use its best efforts to furnish customers with 
#accurate information and interpretations that are part of, and incident to, the services 
#provided.  However, Halliburton cannot and does not warrant the accuracy 
#or correctness of such information and interpretations.  Under no circumstances should any 
#such information or interpretation be relied upon as the sole basis for any drilling, 
#completion, production, or financial decision or any procedure involving any risk to the 
#safety of any drilling venture, drilling rig or its crew or any other third party.  The 
#Customer has full responsibility for all drilling, completion and production operation.  
#Halliburton makes no representations or warranties, either expressed or 
#implied, including, but not limited to, the implied warranties of merchantability or fitness 
#for a particular purpose, with respect to the services rendered.  In no event will 
#Halliburton be liable for failure to obtain any particular results or for 
#any damages, including, but not limited to, indirect, special or consequential damages, 
#resulting from the use of any information or interpretation provided by Halliburton.
#
~A           TIME           GTDEPTH  GTPQH  GTTQ  GTTN  GTET   GTTVD  
# ...
   22:06:21.936.23-Mar-2020 4483.01 4531.62 76.49 1.00 207.04 3155.68
   22:06:22.136.23-Mar-2020 4483.01 4531.62 76.49 1.00 207.24 3155.68
   22:06:22.336.23-Mar-2020 4483.01 4531.61 76.49 1.00 207.44 3155.68
   22:06:22.536.23-Mar-2020 4483.01 4531.61 76.49 1.00 207.64 3155.68
   22:06:22.736.23-Mar-2020 4483.01 4531.60 76.49 1.00 207.84 3155.68
   22:06:22.936.23-Mar-2020 4483.01 4531.61 76.48 1.00 208.04 3155.68
   22:06:23.136.23-Mar-2020 4483.01 4531.61 76.48 1.00 208.24 3155.68
   22:06:23.336.23-Mar-2020 4483.01 4531.53 76.48 1.00 208.44 3155.68
   22:06:23.536.23-Mar-2020 4483.01 4531.65 76.48 1.00 208.64 3155.68
   22:06:23.736.23-Mar-2020 4483.01 4531.64 76.48 1.00 208.84 3155.68
   22:06:23.936.23-Mar-2020 4483.01 4531.61 76.48 1.00 209.04 3155.68
   22:06:24.136.23-Mar-2020 4483.01 4531.61 76.48 1.00 209.24 3155.68
   22:06:24.336.23-Mar-2020 4483.01 4531.61 76.48 1.00 209.44 3155.68
   22:06:24.536.23-Mar-2020 4483.01 4531.61 76.48 1.00 209.64 3155.68
   22:06:24.737.23-Mar-2020 4483.01 4531.61 76.48 1.00 209.84 3155.68
   22:06:24.937.23-Mar-2020 4483.01 4531.60 76.48 1.00 210.04 3155.68
   22:06:25.137.23-Mar-2020 4483.01 4531.61 76.48 1.00 210.24 3155.68
   22:06:25.337.23-Mar-2020 4483.01 4531.60 76.48 1.00 210.44 3155.68
   22:06:25.537.23-Mar-2020 4483.01 4531.60 76.48 1.00 210.64 3155.68
   22:06:25.737.23-Mar-2020 4483.01 4531.60 76.48 1.00 210.84 3155.68
   22:06:25.937.23-Mar-2020 4483.01 4531.60 76.47 1.00 211.04 3155.68
   22:06:26.137.23-Mar-2020 4483.01 4531.60 76.47 1.00 211.24 3155.68
   22:06:26.337.23-Mar-2020 4483.01 4531.59 76.47 1.00 211.44 3155.68
   22:06:26.537.23-Mar-2020 4483.01 4531.61 76.47 1.00 211.64 3155.68
   22:06:26.737.23-Mar-2020 4483.01 4531.61 76.47 1.00 211.84 3155.68
   22:06:26.937.23-Mar-2020 4483.01 4531.60 76.47 1.00 212.04 3155.68
   22:06:27.137.23-Mar-2020 4483.01 4531.60 76.47 1.00 212.24 3155.68
   22:06:27.337.23-Mar-2020 4483.01 4531.61 76.47 1.00 212.44 3155.68
   22:06:27.537.23-Mar-2020 4483.01 4531.62 76.47 1.00 212.64 3155.68
   22:06:27.737.23-Mar-2020 4483.01 4531.60 76.47 1.00 212.84 3155.68
   22:06:27.937.23-Mar-2020 4483.01 4531.56 76.47 1.00 213.04 3155.68
   22:06:28.137.23-Mar-2020 4483.01 4531.56 76.47 1.00 213.24 3155.68
   22:06:28.337.23-Mar-2020 4483.01 4531.63 76.47 1.00 213.44 3155.68
   22:06:28.537.23-Mar-2020 4483.01 4531.60 76.47 1.00 213.64 3155.68
   22:06:28.737.23-Mar-2020 4483.01 4531.60 76.47 1.00 213.84 3155.68
   22:06:28.937.23-Mar-2020 4483.01 4531.60 76.47 1.00 214.04 3155.68
   22:06:29.137.23-Mar-2020 4483.01 4531.56 76.46 1.00 214.24 3155.68
   22:06:29.337.23-Mar-2020 4483.01 4531.61 76.46 1.00 214.44 3155.68
   22:06:29.537.23-Mar-2020 4483.01 4531.63 76.46 1.00 214.64 3155.68
   22:06:29.737.23-Mar-2020 4483.01 4531.59 76.46 1.00 214.84 3155.68
   22:06:29.937.23-Mar-2020 4483.01 4531.60 76.46 1.00 215.04 3155.68
   22:06:30.137.23-Mar-2020 4483.01 4531.60 76.46 1.00 215.24 3155.68
   22:06:30.337.23-Mar-2020 4483.01 4531.59 76.46 1.00 215.44 3155.68
   22:06:30.538.23-Mar-2020 4483.01 4531.60 76.46 1.00 215.64 3155.68
   22:06:30.738.23-Mar-2020 4483.01 4531.58 76.46 1.00 215.84 3155.68
   22:06:30.938.23-Mar-2020 4483.01 4531.58 76.46 1.00 216.04 3155.68
   22:06:31.138.23-Mar-2020 4483.01 4531.58 76.46 1.00 216.24 3155.68
   22:06:31.338.23-Mar-2020 4483.01 4531.58 76.46 1.00 216.44 3155.68
   22:06:31.538.23-Mar-2020 4483.01 4531.59 76.46 1.00 216.64 3155.68
   22:06:31.738.23-Mar-2020 4483.01 4531.60 76.46 1.00 216.84 3155.68
   22:06:31.938.23-Mar-2020 4483.01 4531.59 76.46 1.00 217.04 3155.68
   22:06:32.138.23-Mar-2020 4483.01 4531.59 76.46 1.00 217.24 3155.68
   22:06:32.338.23-Mar-2020 4483.01 4531.58 76.45 1.00 217.44 3155.68
   22:06:32.538.23-Mar-2020 4483.01 4531.58 76.45 1.00 217.64 3155.68
   22:06:32.738.23-Mar-2020 4483.01 4531.58 76.45 1.00 217.84 3155.68
   22:06:32.938.23-Mar-2020 4483.01 4531.59 76.45 1.00 218.04 3155.68
   22:06:33.138.23-Mar-2020 4483.01 4531.59 76.45 1.00 218.24 3155.68
   22:06:33.338.23-Mar-2020 4483.01 4531.59 76.45 1.00 218.44 3155.68
   22:06:33.538.23-Mar-2020 4483.01 4531.58 76.45 1.00 218.64 3155.68
   22:06:33.738.23-Mar-2020 4483.01 4531.54 76.45 1.00 218.84 3155.68
   22:06:33.938.23-Mar-2020 4483.01 4531.58 76.45 1.00 219.04 3155.68
   22:06:34.138.23-Mar-2020 4483.01 4531.58 76.45 1.00 219.24 3155.68
   22:06:34.338.23-Mar-2020 4483.01 4531.58 76.45 1.00 219.44 3155.68
   22:06:34.538.23-Mar-2020 4483.01 4531.58 76.45 1.00 219.64 3155.68
   22:06:34.738.23-Mar-2020 4483.01 4531.57 76.45 1.00 219.84 3155.68
   22:06:34.938.23-Mar-2020 4483.01 4531.52 76.45 1.00 220.04 3155.68
   22:06:35.138.23-Mar-2020 4483.01 4531.52 76.45 1.00 220.24 3155.68
   22:06:35.338.23-Mar-2020 4483.01 4531.62 76.44 1.00 220.44 3155.68
   22:06:35.538.23-Mar-2020 4483.01 4531.59 76.44 1.00 220.64 3155.68
   22:06:35.738.23-Mar-2020 4483.01 4531.52 76.44 1.00 220.84 3155.68
   22:06:35.938.23-Mar-2020 4483.01 4531.59 76.44 1.00 221.04 3155.68
   22:06:36.138.23-Mar-2020 4483.01 4531.59 76.44 1.00 221.24 3155.68
   22:06:36.339.23-Mar-2020 4483.01 4531.60 76.44 1.00 221.44 3155.68
   22:06:36.539.23-Mar-2020 4483.01 4531.58 76.44 1.00 221.64 3155.68
   22:06:36.739.23-Mar-2020 4483.01 4531.58 76.44 1.00 221.84 3155.68
   22:06:36.939.23-Mar-2020 4483.01 4531.51 76.44 1.00 222.04 3155.68
   22:06:37.139.23-Mar-2020 4483.01 4531.51 76.44 1.00 222.24 3155.68
   22:06:37.339.23-Mar-2020 4483.01 4531.61 76.44 1.00 222.44 3155.68
   22:06:37.539.23-Mar-2020 4483.01 4531.58 76.44 1.00 222.64 3155.68
   22:06:37.739.23-Mar-2020 4483.01 4531.59 76.44 1.00 222.84 3155.68
   22:06:37.939.23-Mar-2020 4483.01 4531.58 76.44 1.00 223.04 3155.68
   22:06:38.139.23-Mar-2020 4483.01 4531.58 76.44 1.00 223.24 3155.68
   22:06:38.339.23-Mar-2020 4483.01 4531.57 76.43 1.00 223.44 3155.68
   22:06:38.539.23-Mar-2020 4483.01 4531.57 76.43 1.00 223.64 3155.68
   22:06:38.739.23-Mar-2020 4483.01 4531.53 76.43 1.00 223.84 3155.68
   22:06:38.939.23-Mar-2020 4483.01 4531.58 76.43 1.00 224.04 3155.68
   22:06:39.139.23-Mar-2020 4483.01 4531.58 76.43 1.00 224.24 3155.68
   22:06:39.339.23-Mar-2020 4483.01 4531.57 76.43 1.00 224.44 3155.68
   22:06:39.539.23-Mar-2020 4483.01 4531.57 76.43 1.00 224.64 3155.68
   22:06:39.739.23-Mar-2020 4483.01 4531.56 76.43 1.00 224.84 3155.68
   22:06:39.939.23-Mar-2020 4483.01 4531.58 76.43 1.00 225.04 3155.68
   22:06:40.139.23-Mar-2020 4483.01 4531.57 76.43 1.00 225.24 3155.68
   22:06:40.339.23-Mar-2020 4483.01 4531.57 76.43 1.00 225.44 3155.68
   22:06:40.539.23-Mar-2020 4483.01 4531.56 76.43 1.00 225.64 3155.68
   22:06:40.739.23-Mar-2020 4483.01 4531.57 76.43 1.00 225.84 3155.68
   22:06:40.939.23-Mar-2020 4483.01 4531.58 76.43 1.00 226.04 3155.68
   22:06:41.139.23-Mar-2020 4483.01 4531.55 76.43 1.00 226.24 3155.68
   22:06:41.339.23-Mar-2020 4483.01 4531.58 76.43 1.00 226.44 3155.68
   22:06:41.539.23-Mar-2020 4483.01 4531.50 76.42 1.00 226.64 3155.68
   22:06:41.739.23-Mar-2020 4483.01 4531.59 76.42 1.00 226.84 3155.68
   22:06:41.939.23-Mar-2020 4483.01 4531.58 76.42 1.00 227.04 3155.68
   22:06:42.140.23-Mar-2020 4483.01 4531.58 76.42 1.00 227.24 3155.68
   22:06:42.340.23-Mar-2020 4483.01 4531.57 76.42 1.00 227.44 3155.68
   22:06:42.540.23-Mar-2020 4483.01 4531.55 76.42 1.00 227.64 3155.68
   22:06:42.740.23-Mar-2020 4483.01 4531.56 76.42 1.00 227.84 3155.68
   22:06:42.940.23-Mar-2020 4483.01 4531.56 76.42 1.00 228.04 3155.68
   22:06:43.140.23-Mar-2020 4483.01 4531.56 76.42 1.00 228.24 3155.68
   22:06:43.340.23-Mar-2020 4483.01 4531.56 76.42 1.00 228.44 3155.68
   22:06:43.540.23-Mar-2020 4483.01 4531.56 76.42 1.00 228.64 3155.68
   22:06:43.740.23-Mar-2020 4483.01 4531.59 76.42 1.00 228.84 3155.68
   22:06:43.940.23-Mar-2020 4483.01 4531.56 76.42 1.00 229.04 3155.68
   22:06:44.140.23-Mar-2020 4483.01 4531.56 76.42 1.00 229.24 3155.68
   22:06:44.340.23-Mar-2020 4483.01 4531.55 76.42 1.00 229.44 3155.68
   22:06:44.540.23-Mar-2020 4483.01 4531.55 76.42 1.00 229.64 3155.68
   22:06:44.740.23-Mar-2020 4483.01 4531.56 76.41 1.00 229.84 3155.68
