~Version Information
 VERS.                  2.0:   CWLS log ASCII Standard -VERSION 2.0
 WRAP.                   NO:   One line per depth step
~Well Information Block
#MNEM.UNIT     VALUE/NAME     DESCRIPTION
#---------     -----------    ---------------------------
 STRT.S             06:00:18 24-Mar-20: START TIME 06:00:18 24-Mar-20
 STOP.S             06:06:47 24-Mar-20: STOP TIME  06:06:47 24-Mar-20
 STEP.S                   0.00: STEP TIME
 NULL.                 -999.25: NULL VALUE
 DFWT.                        :  DIST FWL TEXT
 DFST.                        :  DIST FSL TEXT
 DMF .             Drill Floor:  DRILL MEAS FROM
 STIM.      22.30.00 15-Feb-20:  START TIME
 DATE.      17.00.00 25-Mar-20:  END TIME
 SPUD.               15-Feb-20:  SPUD DATE
 NREF.                    Grid:  NORTH REFERENCE
 HPTY.       Minimum Curvature:  HOLE POS TYPE
 DMOD.             Drill Model:  DRILL MOD DESC
 SVYD.                  Survey:  SURVEY DESC
 ILTD.               Lithology:  INTERP LTH DESC
 FTOP.          Formation Tops:  FORM TOPS DESC
 SON .        AZ-XX-0906019077:  JOB NUMBER
 PDAT.          Mean Sea Level:  PERMANENT DATUM
 WTYP.                Deviated:  WELL TYPE
 MDS .        Operator Entered:  MAG DATA SOURCE
 COMP.     BP Exploration (Caspian sea) Ltd.:  COMPANY
 UWI .                     N/A:  UNIQUE WELL IDENTIFIER
 API .                     N/A:  API NUMBER
 BASE.              Azerbaijan:  LOGGING EQUIPMENT BASE LOCATION
 REGN.                   EESSA:  REGION
 PROV.                     N/A:  PROVINCE
 STAT.                     N/A:  STATE NAME
 CTRY.              Azerbaijan:  COUNTRY NAME
 FLD .                     ACG:  FIELD NAME
 SRVC.          Turan Drilling:  CONTRACTOR
 MWDS.                    Baku:  MWD SHOP
 WELL.                    E16W:  WELL NAME
 JOBN.        AZ-XX-0906019077:  JOB TICKET NUMB
 RIG .                     DWG:  RIG NAME
 CNTY.                     N/A:  COUNTY NAME
 DCON.         Sperry Drilling:  DIRECTNL CONTR
 UNIT.                     N/A:  LOGGING EQUIPMENT ID
 LOC .                        :  LOCATION
 LMF .             Drill Floor:  LOG MEASURED FROM
 TVDS.m                  43.16:  TVDSS CORRECTN
 LATI.deg                40.17:  LATITUDE
 LONG.deg                51.17:  LONGITUDE
 WHNS.m                 -15.30:  WELL HEAD N/S
 WHEW.m                  -1.29:  WELL HEAD E/W
 UTMX.m              514337.95:  UTM X
 UTMY.m             4448627.46:  UTM Y
 DFWL.m                   0.00:  DISTANCE FWL
 DFSL.m                   0.00:  DISTANCE FSL
 SDEP.m                3499.01:  START DEPTH
 TDD .m                4606.01:  TOTAL DEPTH (DRILLER)
 VSDR.deg               151.14:  VERT SEC DIRECT
 GVFD.g                   1.00:  GRAVITY FIELD
 MFLD.nT              50334.00:  MAGNETIC FIELD
 MDIP.deg                59.62:  MAGNETIC DIP
 MDEC.deg                 6.46:  MAGNETIC DECL
 GRDC.deg                 0.12:  GRID CORRECTION
 AZTC.deg                 6.34:  AZM TOTAL CORR
 EPD .m                   0.00:  ELEVATION
 EGL .m                   0.00:  GROUND ELEVATION
 WDMS.m                 176.20:  WD ELEV
 APD .m                  43.16:  DEPTH ABOVE PD
 VSEW.m                  -1.29:  VERT SEC E/W
 VSNS.m                 -15.30:  VERT SEC N/S
 AGAP.m                  43.16:  AIR GAP
 EKB .m                   0.00:  KB ELEVATION
 EDF .m                  43.16:  DF ELEVATION
 TDL .m                 103.00:  TOTAL DEPTH (LOGGER)
 VSC .                       0:  VS TO CLOSURE
 MAGU.                 1852525:  MAGUTM CHECKSUM
~Parameter Information Block
#MNEM.UNIT       Value        Description
#---------     -----------    ---------------------------
 AV  .mps                 1.01:  Ann Velocity 
 AVMX.mps                 1.32:  Max Ann Veloc 
 AZIF.deg               140.63:  Azm, Final 
 BHAT.        Rotary Steerable:  BHA Type 
 BREV.rev            151000.00:  Rev Bit Total 
 BROT.°/30m               0.65:  Build Rotating 
 BS  .in                  6.50:  Bit Size 
 BSZ .in                  6.50:  Bit Size 
 BTPL.psig              222.00:  Bit Press Loss 
 CABU.                      No:  Customer Abuse 
 CGEO.           Emin Aliyarov:  Customer Geo 
 COMM.                     öU:  Run Comments 1 
 TCS .hr                 22.89:  Time Ciculation Ended 
 CV  .mps                 2.20:  Crit Velocity 
 CVMX.mps                 3.04:  Max Crit Veloc 
 DD1 .         Intigam Rahimov:  Direct Drillr 1 
 DDSV.               Geo-Pilot:  DD Service 
 DEFF.%                  91.50:  % Det Eff 
 DLRX.°/30m               1.15:  Dogleg Rot Max 
 DLSO.°/30m               0.86:  Dogleg Oriented 
 DLSX.°/30m               1.15:  Dogleg Str Max 
 DRET.      13.10.00 24-Mar-20:  Drill End Time 
 DRST.      17.00.00 23-Mar-20:  Drill Start Tim 
 DTIM.hr                 11.87:  Time Drilling 
 EDEP.m                4606.01:  End Depth 
 ENG1.          Rasim Hashimov:  Engineer 1 
 ENG2.            Alan Tuganov:  Engineer 2 
 ENG3.         Yevgeniy Ulikov:  Engineer 3 
 ETIM.      16.00.00 25-Mar-20:  End Time 
 FLOI.gpm               400.00:  Flow In 
 FLON.gpm               350.00:  Flow In Min 
 FLOS.cptm                0.00:  Fluid Loss 
 FLOX.gpm               400.00:  Flow In Max 
 FTRO.       Formation Presure:  FTWD Run Obj 
 HFLO.                      No:  High Flow 
 HPRE.                      No:  High Pressure 
 HTEM.                      No:  High Temp 
 HYDO.m                   1.80:  Hydro Offset 
 IFIN.deg                79.55:  Inc, Final 
 IMAX.deg                79.55:  Inc Max 
 IMIN.deg                78.04:  Inc Min 
 IMND.m                4502.50:  Inc Min Depth 
 IMXD.m                4587.87:  Inc Max Depth 
 JARR.                      No:  Jarring 
 LETM.      13.10.00 24-Mar-20:  Log End Time 
 LOST.hr                     0:  Lost Rig Time 
 LSTM.      17.00.00 23-Mar-20:  Log Start Time 
 MDCL.ppm             39000.00:  Mud Chlorides 
 MDES.     Inversion Oil/Synthetic:  Mud Desc 
 DFD .sg                  1.40:  Mud Density 
 MDMN.sg                  1.40:  Dens Mud Min 
 MDMX.sg                  1.40:  Dens Mud Max 
 MOIL.                    55.2:  Run Mud Oil % 
 MOWR.                   68:32:  Run Mud OWR 
 MSND.                     0.1:  Run Mud Sand % 
 MSOL.                    17.8:  Run Mud Solids% 
 DFV .spqt               76.00:  Mud Viscosity 
 MWOD.in                  4.75:  MWD Tool OD 
 MWSI.                      No:  Serv Intrp, MWD 
 OTIM.hr                 64.35:  Time Operating 
 PCON.           Look Like New:  Pad Condition 
 PMAX.psia             5350.00:  Press Op, Max 
 PV  .cP                 26.00:  Mud PV 
 RUN .                     900:  Run Number 
 ROPA.m/hr                9.00:  ROP Avg 
 ROPN.m/hr                7.00:  ROP Min 
 ROPX.m/hr               13.00:  ROP Max 
 RPMA.rpm               140.00:  RPM Surface Avg 
 RPMN.rpm               140.00:  RPM Surface Min 
 RPMX.rpm               140.00:  RPM Surface Max 
 RRUN.                    L204:  Rig Run Number 
 RTIM.hr                  4.50:  Time Reaming 
 SAZI.deg               141.40:  Azm, Start 
 SDEP.m                4503.01:  Start Depth 
 SIDD.                      No:  Serv Intrp, DD 
 SINC.deg                78.04:  Inc, Start 
 SPPA.psig             5300.00:  SPP Avg 
 SPPN.psig             5100.00:  SPP Min 
 SPPX.psig             5500.00:  SPP Max 
 STIM.      18.00.00 22-Mar-20:  Start Time 
 SVCS.                 DD, MWD:  Services 
 SVER.                    9.20:  Sperry Version 
 TDAT.m                 103.00:  Tot Depth Attmp 
 TDDF.                      No:  Trip for DD 
 TDLG.m                 103.00:  Tot Depth Loggd 
 TFF .                      No:  Trip for Fail 
 TQAA.f-kp               14.00:  Torque Abs Avg 
 TQAN.f-kp               12.00:  Torque Abs Min 
 TQAX.f-kp               16.00:  Torque Abs Max 
 TRRT.°/30m               0.45:  Turn Rotating 
 MRT .                    HCIM:  Maximum Recorded Temperature 
 TTMX.degC               90.20:  Max Tool Temp 
 VS01.         90577859G12V7D4:  Virtual Str1 SN 
 VS02.            90519330D5C4:  Virtual Str2 SN 
 VS03.             90603450F11:  Virtual Str3 SN 
 VS04.           90515383R12C4:  Virtual Str4 SN 
 VS05.          90522017N2L2C4:  Virtual Str5 SN 
 VS06.            90512682Z1W1:  Virtual Str6 SN 
 WBMN.klb                 5.00:  WOB Min 
 WITN.        Elmaddin Rahimov:  Customer Rep 
 WITN.           Adil Mammadov:  Customer Rep 2 
 WOBA.klb                 8.00:  WOB Avg 
 WOBX.klb                13.00:  WOB Max 
 YP  .lhf2               31.00:  Yield Point 
~Curve Information Block
#MNEM.UNIT                 API CODE     Curve Description
#---------               -----------    ---------------------------
 TIME.HHMMSS            00 000 000 000:  GT Time & Date
 GTDEPTH.m              00 000 000 000:  GT Depth
 GTPQH.psia             00 000 000 000:  GT HR Quartz Pressure
 GTTQ.degC              00 000 000 000:  GT Quartz Temperature
 GTTN.NONE              00 000 000 000:  GT Test Number
 GTET.sec               00 000 000 000:  GT Elapsed Test Time
 GTTVD.m                00 000 000 000:  GT True Vertical Depth
#Other Information
#
#WARRANTY: Halliburton will use its best efforts to furnish customers with 
#accurate information and interpretations that are part of, and incident to, the services 
#provided.  However, Halliburton cannot and does not warrant the accuracy 
#or correctness of such information and interpretations.  Under no circumstances should any 
#such information or interpretation be relied upon as the sole basis for any drilling, 
#completion, production, or financial decision or any procedure involving any risk to the 
#safety of any drilling venture, drilling rig or its crew or any other third party.  The 
#Customer has full responsibility for all drilling, completion and production operation.  
#Halliburton makes no representations or warranties, either expressed or 
#implied, including, but not limited to, the implied warranties of merchantability or fitness 
#for a particular purpose, with respect to the services rendered.  In no event will 
#Halliburton be liable for failure to obtain any particular results or for 
#any damages, including, but not limited to, indirect, special or consequential damages, 
#resulting from the use of any information or interpretation provided by Halliburton.
#
~A           TIME           GTDEPTH  GTPQH  GTTQ  GTTN  GTET   GTTVD  
# ...
   06:02:59.774.24-Mar-2020 4533.01 4451.04 83.08 4.00 161.03 3165.89
   06:02:59.974.24-Mar-2020 4533.01 4451.04 83.08 4.00 161.23 3165.89
   06:03:00.174.24-Mar-2020 4533.01 4451.00 83.08 4.00 161.43 3165.89
   06:03:00.374.24-Mar-2020 4533.01 4451.03 83.08 4.00 161.63 3165.89
   06:03:00.574.24-Mar-2020 4533.01 4451.06 83.08 4.00 161.83 3165.89
   06:03:00.774.24-Mar-2020 4533.01 4450.99 83.08 4.00 162.03 3165.89
   06:03:00.974.24-Mar-2020 4533.01 4450.99 83.08 4.00 162.23 3165.89
   06:03:01.174.24-Mar-2020 4533.01 4451.01 83.08 4.00 162.43 3165.89
   06:03:01.374.24-Mar-2020 4533.01 4451.06 83.08 4.00 162.63 3165.89
   06:03:01.574.24-Mar-2020 4533.01 4451.01 83.08 4.00 162.83 3165.89
   06:03:01.774.24-Mar-2020 4533.01 4451.04 83.07 4.00 163.03 3165.89
   06:03:01.974.24-Mar-2020 4533.01 4451.04 83.07 4.00 163.23 3165.89
   06:03:02.174.24-Mar-2020 4533.01 4451.02 83.07 4.00 163.43 3165.89
   06:03:02.374.24-Mar-2020 4533.01 4451.02 83.07 4.00 163.63 3165.89
   06:03:02.575.24-Mar-2020 4533.01 4451.02 83.07 4.00 163.83 3165.89
   06:03:02.775.24-Mar-2020 4533.01 4450.96 83.07 4.00 164.03 3165.89
   06:03:02.975.24-Mar-2020 4533.01 4450.96 83.07 4.00 164.23 3165.89
   06:03:03.175.24-Mar-2020 4533.01 4451.03 83.07 4.00 164.43 3165.89
   06:03:03.375.24-Mar-2020 4533.01 4451.01 83.07 4.00 164.63 3165.89
   06:03:03.575.24-Mar-2020 4533.01 4451.03 83.07 4.00 164.83 3165.89
   06:03:03.775.24-Mar-2020 4533.01 4451.00 83.07 4.00 165.03 3165.89
   06:03:03.975.24-Mar-2020 4533.01 4451.00 83.07 4.00 165.23 3165.89
   06:03:04.175.24-Mar-2020 4533.01 4451.00 83.07 4.00 165.43 3165.89
   06:03:04.375.24-Mar-2020 4533.01 4451.01 83.07 4.00 165.63 3165.89
   06:03:04.575.24-Mar-2020 4533.01 4451.00 83.07 4.00 165.83 3165.89
   06:03:04.775.24-Mar-2020 4533.01 4451.01 83.07 4.00 166.03 3165.89
   06:03:04.975.24-Mar-2020 4533.01 4451.01 83.07 4.00 166.23 3165.89
   06:03:05.175.24-Mar-2020 4533.01 4451.01 83.06 4.00 166.43 3165.89
   06:03:05.375.24-Mar-2020 4533.01 4450.97 83.06 4.00 166.63 3165.89
   06:03:05.575.24-Mar-2020 4533.01 4451.00 83.06 4.00 166.83 3165.89
   06:03:05.775.24-Mar-2020 4533.01 4450.99 83.06 4.00 167.03 3165.89
   06:03:05.975.24-Mar-2020 4533.01 4450.99 83.06 4.00 167.23 3165.89
   06:03:06.175.24-Mar-2020 4533.01 4450.97 83.06 4.00 167.43 3165.89
   06:03:06.375.24-Mar-2020 4533.01 4451.02 83.06 4.00 167.63 3165.89
   06:03:06.575.24-Mar-2020 4533.01 4450.98 83.06 4.00 167.83 3165.89
   06:03:06.775.24-Mar-2020 4533.01 4451.03 83.06 4.00 168.03 3165.89
   06:03:06.975.24-Mar-2020 4533.01 4451.03 83.06 4.00 168.23 3165.89
   06:03:07.175.24-Mar-2020 4533.01 4450.95 83.06 4.00 168.43 3165.89
   06:03:07.375.24-Mar-2020 4533.01 4451.04 83.06 4.00 168.63 3165.89
   06:03:07.575.24-Mar-2020 4533.01 4450.99 83.06 4.00 168.83 3165.89
   06:03:07.775.24-Mar-2020 4533.01 4451.03 83.06 4.00 169.03 3165.89
   06:03:07.975.24-Mar-2020 4533.01 4451.03 83.06 4.00 169.23 3165.89
   06:03:08.175.24-Mar-2020 4533.01 4451.05 83.05 4.00 169.43 3165.89
   06:03:08.375.24-Mar-2020 4533.01 4450.99 83.05 4.00 169.63 3165.89
   06:03:08.575.24-Mar-2020 4533.01 4451.01 83.05 4.00 169.83 3165.89
   06:03:08.776.24-Mar-2020 4533.01 4451.02 83.05 4.00 170.03 3165.89
   06:03:08.976.24-Mar-2020 4533.01 4451.02 83.05 4.00 170.23 3165.89
   06:03:09.176.24-Mar-2020 4533.01 4451.00 83.05 4.00 170.43 3165.89
   06:03:09.376.24-Mar-2020 4533.01 4451.00 83.05 4.00 170.63 3165.89
   06:03:09.576.24-Mar-2020 4533.01 4450.99 83.05 4.00 170.83 3165.89
   06:03:09.776.24-Mar-2020 4533.01 4450.98 83.05 4.00 171.03 3165.89
   06:03:09.976.24-Mar-2020 4533.01 4450.98 83.05 4.00 171.23 3165.89
   06:03:10.176.24-Mar-2020 4533.01 4450.99 83.05 4.00 171.43 3165.89
   06:03:10.376.24-Mar-2020 4533.01 4451.01 83.05 4.00 171.63 3165.89
   06:03:10.576.24-Mar-2020 4533.01 4451.00 83.05 4.00 171.83 3165.89
   06:03:10.776.24-Mar-2020 4533.01 4450.98 83.05 4.00 172.03 3165.89
   06:03:10.976.24-Mar-2020 4533.01 4450.98 83.05 4.00 172.23 3165.89
   06:03:11.176.24-Mar-2020 4533.01 4450.98 83.04 4.00 172.43 3165.89
   06:03:11.376.24-Mar-2020 4533.01 4450.98 83.04 4.00 172.63 3165.89
   06:03:11.576.24-Mar-2020 4533.01 4450.98 83.04 4.00 172.83 3165.89
   06:03:11.776.24-Mar-2020 4533.01 4450.98 83.04 4.00 173.03 3165.89
   06:03:11.976.24-Mar-2020 4533.01 4450.98 83.04 4.00 173.23 3165.89
   06:03:12.176.24-Mar-2020 4533.01 4450.98 83.04 4.00 173.43 3165.89
   06:03:12.376.24-Mar-2020 4533.01 4450.98 83.04 4.00 173.63 3165.89
   06:03:12.576.24-Mar-2020 4533.01 4450.90 83.04 4.00 173.83 3165.89
   06:03:12.776.24-Mar-2020 4533.01 4451.04 83.04 4.00 174.03 3165.89
   06:03:12.976.24-Mar-2020 4533.01 4451.04 83.04 4.00 174.23 3165.89
   06:03:13.176.24-Mar-2020 4533.01 4450.99 83.04 4.00 174.43 3165.89
   06:03:13.376.24-Mar-2020 4533.01 4450.92 83.04 4.00 174.63 3165.89
   06:03:13.576.24-Mar-2020 4533.01 4451.04 83.04 4.00 174.83 3165.89
   06:03:13.776.24-Mar-2020 4533.01 4450.97 83.04 4.00 175.03 3165.89
   06:03:13.976.24-Mar-2020 4533.01 4450.97 83.04 4.00 175.23 3165.89
   06:03:14.176.24-Mar-2020 4533.01 4450.99 83.03 4.00 175.43 3165.89
   06:03:14.376.24-Mar-2020 4533.01 4450.93 83.03 4.00 175.63 3165.89
   06:03:14.576.24-Mar-2020 4533.01 4451.01 83.03 4.00 175.83 3165.89
   06:03:14.777.24-Mar-2020 4533.01 4451.01 83.03 4.00 176.03 3165.89
   06:03:14.977.24-Mar-2020 4533.01 4451.01 83.03 4.00 176.23 3165.89
   06:03:15.177.24-Mar-2020 4533.01 4450.97 83.03 4.00 176.43 3165.89
   06:03:15.377.24-Mar-2020 4533.01 4450.98 83.03 4.00 176.63 3165.89
   06:03:15.577.24-Mar-2020 4533.01 4451.01 83.03 4.00 176.83 3165.89
   06:03:15.777.24-Mar-2020 4533.01 4450.97 83.03 4.00 177.03 3165.89
   06:03:15.977.24-Mar-2020 4533.01 4450.97 83.03 4.00 177.23 3165.89
   06:03:16.177.24-Mar-2020 4533.01 4450.97 83.03 4.00 177.43 3165.89
   06:03:16.377.24-Mar-2020 4533.01 4450.98 83.03 4.00 177.63 3165.89
   06:03:16.577.24-Mar-2020 4533.01 4450.97 83.03 4.00 177.83 3165.89
   06:03:16.777.24-Mar-2020 4533.01 4450.98 83.03 4.00 178.03 3165.89
   06:03:16.977.24-Mar-2020 4533.01 4450.98 83.03 4.00 178.23 3165.89
   06:03:17.177.24-Mar-2020 4533.01 4451.02 83.03 4.00 178.43 3165.89
   06:03:17.377.24-Mar-2020 4533.01 4450.98 83.02 4.00 178.63 3165.89
   06:03:17.577.24-Mar-2020 4533.01 4450.97 83.02 4.00 178.83 3165.89
   06:03:17.777.24-Mar-2020 4533.01 4450.99 83.02 4.00 179.03 3165.89
   06:03:17.977.24-Mar-2020 4533.01 4450.99 83.02 4.00 179.23 3165.89
   06:03:18.177.24-Mar-2020 4533.01 4450.97 83.02 4.00 179.43 3165.89
   06:03:18.377.24-Mar-2020 4533.01 4450.96 83.02 4.00 179.63 3165.89
   06:03:18.577.24-Mar-2020 4533.01 4450.97 83.02 4.00 179.83 3165.89
   06:03:18.777.24-Mar-2020 4533.01 4450.95 83.02 4.00 180.03 3165.89
   06:03:18.977.24-Mar-2020 4533.01 4450.95 83.02 4.00 180.23 3165.89
   06:03:19.177.24-Mar-2020 4533.01 4450.95 83.02 4.00 180.43 3165.89
   06:03:19.377.24-Mar-2020 4533.01 4450.95 83.02 4.00 180.63 3165.89
   06:03:19.577.24-Mar-2020 4533.01 4450.95 83.02 4.00 180.83 3165.89
   06:03:19.777.24-Mar-2020 4533.01 4450.94 83.02 4.00 181.03 3165.89
   06:03:19.977.24-Mar-2020 4533.01 4450.94 83.02 4.00 181.23 3165.89
   06:03:20.177.24-Mar-2020 4533.01 4450.99 83.02 4.00 181.43 3165.89
   06:03:20.377.24-Mar-2020 4533.01 4450.95 83.02 4.00 181.63 3165.89
   06:03:20.577.24-Mar-2020 4533.01 4450.95 83.01 4.00 181.83 3165.89
   06:03:20.778.24-Mar-2020 4533.01 4450.96 83.01 4.00 182.03 3165.89
   06:03:20.978.24-Mar-2020 4533.01 4450.99 83.01 4.00 182.23 3165.89
   06:03:21.178.24-Mar-2020 4533.01 4450.96 83.01 4.00 182.43 3165.89
   06:03:21.378.24-Mar-2020 4533.01 4450.92 83.01 4.00 182.63 3165.89
   06:03:21.578.24-Mar-2020 4533.01 4451.00 83.01 4.00 182.83 3165.89
   06:03:21.778.24-Mar-2020 4533.01 4450.96 83.01 4.00 183.03 3165.89
   06:03:21.978.24-Mar-2020 4533.01 4450.96 83.01 4.00 183.23 3165.89
   06:03:22.178.24-Mar-2020 4533.01 4450.95 83.01 4.00 183.43 3165.89
   06:03:22.378.24-Mar-2020 4533.01 4450.97 83.01 4.00 183.63 3165.89
   06:03:22.578.24-Mar-2020 4533.01 4450.96 83.01 4.00 183.83 3165.89
