~Version Information
 VERS.                  2.0:   CWLS log ASCII Standard -VERSION 2.0
 WRAP.                   NO:   One line per depth step
~Well Information Block
#MNEM.UNIT     VALUE/NAME     DESCRIPTION
#---------     -----------    ---------------------------
 STRT.S             22:02:54 23-Mar-20: START TIME 22:02:54 23-Mar-20
 STOP.S             22:09:24 23-Mar-20: STOP TIME  22:09:24 23-Mar-20
 STEP.S                   0.00: STEP TIME
 NULL.                 -999.25: NULL VALUE
 DFWT.                        :  DIST FWL TEXT
 DFST.                        :  DIST FSL TEXT
 DMF .             Drill Floor:  DRILL MEAS FROM
 STIM.      22.30.00 15-Feb-20:  START TIME
 DATE.      17.00.00 25-Mar-20:  END TIME
 SPUD.               15-Feb-20:  SPUD DATE
 NREF.                    Grid:  NORTH REFERENCE
 HPTY.       Minimum Curvature:  HOLE POS TYPE
 DMOD.             Drill Model:  DRILL MOD DESC
 SVYD.                  Survey:  SURVEY DESC
 ILTD.               Lithology:  INTERP LTH DESC
 FTOP.          Formation Tops:  FORM TOPS DESC
 SON .        AZ-XX-0906019077:  JOB NUMBER
 PDAT.          Mean Sea Level:  PERMANENT DATUM
 WTYP.                Deviated:  WELL TYPE
 MDS .        Operator Entered:  MAG DATA SOURCE
 COMP.     BP Exploration (Caspian sea) Ltd.:  COMPANY
 UWI .                     N/A:  UNIQUE WELL IDENTIFIER
 API .                     N/A:  API NUMBER
 BASE.              Azerbaijan:  LOGGING EQUIPMENT BASE LOCATION
 REGN.                   EESSA:  REGION
 PROV.                     N/A:  PROVINCE
 STAT.                     N/A:  STATE NAME
 CTRY.              Azerbaijan:  COUNTRY NAME
 FLD .                     ACG:  FIELD NAME
 SRVC.          Turan Drilling:  CONTRACTOR
 MWDS.                    Baku:  MWD SHOP
 WELL.                    E16W:  WELL NAME
 JOBN.        AZ-XX-0906019077:  JOB TICKET NUMB
 RIG .                     DWG:  RIG NAME
 CNTY.                     N/A:  COUNTY NAME
 DCON.         Sperry Drilling:  DIRECTNL CONTR
 UNIT.                     N/A:  LOGGING EQUIPMENT ID
 LOC .                        :  LOCATION
 LMF .             Drill Floor:  LOG MEASURED FROM
 TVDS.m                  43.16:  TVDSS CORRECTN
 LATI.deg                40.17:  LATITUDE
 LONG.deg                51.17:  LONGITUDE
 WHNS.m                 -15.30:  WELL HEAD N/S
 WHEW.m                  -1.29:  WELL HEAD E/W
 UTMX.m              514337.95:  UTM X
 UTMY.m             4448627.46:  UTM Y
 DFWL.m                   0.00:  DISTANCE FWL
 DFSL.m                   0.00:  DISTANCE FSL
 SDEP.m                3499.01:  START DEPTH
 TDD .m                4606.01:  TOTAL DEPTH (DRILLER)
 VSDR.deg               151.14:  VERT SEC DIRECT
 GVFD.g                   1.00:  GRAVITY FIELD
 MFLD.nT              50334.00:  MAGNETIC FIELD
 MDIP.deg                59.62:  MAGNETIC DIP
 MDEC.deg                 6.46:  MAGNETIC DECL
 GRDC.deg                 0.12:  GRID CORRECTION
 AZTC.deg                 6.34:  AZM TOTAL CORR
 EPD .m                   0.00:  ELEVATION
 EGL .m                   0.00:  GROUND ELEVATION
 WDMS.m                 176.20:  WD ELEV
 APD .m                  43.16:  DEPTH ABOVE PD
 VSEW.m                  -1.29:  VERT SEC E/W
 VSNS.m                 -15.30:  VERT SEC N/S
 AGAP.m                  43.16:  AIR GAP
 EKB .m                   0.00:  KB ELEVATION
 EDF .m                  43.16:  DF ELEVATION
 TDL .m                 103.00:  TOTAL DEPTH (LOGGER)
 VSC .                       0:  VS TO CLOSURE
 MAGU.                 1852525:  MAGUTM CHECKSUM
~Parameter Information Block
#MNEM.UNIT       Value        Description
#---------     -----------    ---------------------------
 AV  .mps                 1.01:  Ann Velocity 
 AVMX.mps                 1.32:  Max Ann Veloc 
 AZIF.deg               140.63:  Azm, Final 
 BHAT.        Rotary Steerable:  BHA Type 
 BREV.rev            151000.00:  Rev Bit Total 
 BROT.°/30m               0.65:  Build Rotating 
 BS  .in                  6.50:  Bit Size 
 BSZ .in                  6.50:  Bit Size 
 BTPL.psig              222.00:  Bit Press Loss 
 CABU.                      No:  Customer Abuse 
 CGEO.           Emin Aliyarov:  Customer Geo 
 COMM.                     L5S:  Run Comments 1 
 TCS .hr                 22.89:  Time Ciculation Ended 
 CV  .mps                 2.20:  Crit Velocity 
 CVMX.mps                 3.04:  Max Crit Veloc 
 DD1 .         Intigam Rahimov:  Direct Drillr 1 
 DDSV.               Geo-Pilot:  DD Service 
 DEFF.%                  91.50:  % Det Eff 
 DLRX.°/30m               1.15:  Dogleg Rot Max 
 DLSO.°/30m               0.86:  Dogleg Oriented 
 DLSX.°/30m               1.15:  Dogleg Str Max 
 DRET.      13.10.00 24-Mar-20:  Drill End Time 
 DRST.      17.00.00 23-Mar-20:  Drill Start Tim 
 DTIM.hr                 11.87:  Time Drilling 
 EDEP.m                4606.01:  End Depth 
 ENG1.          Rasim Hashimov:  Engineer 1 
 ENG2.            Alan Tuganov:  Engineer 2 
 ENG3.         Yevgeniy Ulikov:  Engineer 3 
 ETIM.      16.00.00 25-Mar-20:  End Time 
 FLOI.gpm               400.00:  Flow In 
 FLON.gpm               350.00:  Flow In Min 
 FLOS.cptm                0.00:  Fluid Loss 
 FLOX.gpm               400.00:  Flow In Max 
 FTRO.       Formation Presure:  FTWD Run Obj 
 HFLO.                      No:  High Flow 
 HPRE.                      No:  High Pressure 
 HTEM.                      No:  High Temp 
 HYDO.m                   1.80:  Hydro Offset 
 IFIN.deg                79.55:  Inc, Final 
 IMAX.deg                79.55:  Inc Max 
 IMIN.deg                78.04:  Inc Min 
 IMND.m                4502.50:  Inc Min Depth 
 IMXD.m                4587.87:  Inc Max Depth 
 JARR.                      No:  Jarring 
 LETM.      13.10.00 24-Mar-20:  Log End Time 
 LOST.hr                     0:  Lost Rig Time 
 LSTM.      17.00.00 23-Mar-20:  Log Start Time 
 MDCL.ppm             39000.00:  Mud Chlorides 
 MDES.     Inversion Oil/Synthetic:  Mud Desc 
 DFD .sg                  1.40:  Mud Density 
 MDMN.sg                  1.40:  Dens Mud Min 
 MDMX.sg                  1.40:  Dens Mud Max 
 MOIL.                    55.2:  Run Mud Oil % 
 MOWR.                   68:32:  Run Mud OWR 
 MSND.                     0.1:  Run Mud Sand % 
 MSOL.                    17.8:  Run Mud Solids% 
 DFV .spqt               76.00:  Mud Viscosity 
 MWOD.in                  4.75:  MWD Tool OD 
 MWSI.                      No:  Serv Intrp, MWD 
 OTIM.hr                 64.35:  Time Operating 
 PCON.           Look Like New:  Pad Condition 
 PMAX.psia             5350.00:  Press Op, Max 
 PV  .cP                 26.00:  Mud PV 
 RUN .                     900:  Run Number 
 ROPA.m/hr                9.00:  ROP Avg 
 ROPN.m/hr                7.00:  ROP Min 
 ROPX.m/hr               13.00:  ROP Max 
 RPMA.rpm               140.00:  RPM Surface Avg 
 RPMN.rpm               140.00:  RPM Surface Min 
 RPMX.rpm               140.00:  RPM Surface Max 
 RRUN.                    L204:  Rig Run Number 
 RTIM.hr                  4.50:  Time Reaming 
 SAZI.deg               141.40:  Azm, Start 
 SDEP.m                4503.01:  Start Depth 
 SIDD.                      No:  Serv Intrp, DD 
 SINC.deg                78.04:  Inc, Start 
 SPPA.psig             5300.00:  SPP Avg 
 SPPN.psig             5100.00:  SPP Min 
 SPPX.psig             5500.00:  SPP Max 
 STIM.      18.00.00 22-Mar-20:  Start Time 
 SVCS.                 DD, MWD:  Services 
 SVER.                    9.20:  Sperry Version 
 TDAT.m                 103.00:  Tot Depth Attmp 
 TDDF.                      No:  Trip for DD 
 TDLG.m                 103.00:  Tot Depth Loggd 
 TFF .                      No:  Trip for Fail 
 TQAA.f-kp               14.00:  Torque Abs Avg 
 TQAN.f-kp               12.00:  Torque Abs Min 
 TQAX.f-kp               16.00:  Torque Abs Max 
 TRRT.°/30m               0.45:  Turn Rotating 
 MRT .                    HCIM:  Maximum Recorded Temperature 
 TTMX.degC               90.20:  Max Tool Temp 
 VS01.         90577859G12V7D4:  Virtual Str1 SN 
 VS02.            90519330D5C4:  Virtual Str2 SN 
 VS03.             90603450F11:  Virtual Str3 SN 
 VS04.           90515383R12C4:  Virtual Str4 SN 
 VS05.          90522017N2L2C4:  Virtual Str5 SN 
 VS06.            90512682Z1W1:  Virtual Str6 SN 
 WBMN.klb                 5.00:  WOB Min 
 WITN.        Elmaddin Rahimov:  Customer Rep 
 WITN.           Adil Mammadov:  Customer Rep 2 
 WOBA.klb                 8.00:  WOB Avg 
 WOBX.klb                13.00:  WOB Max 
 YP  .lhf2               31.00:  Yield Point 
~Curve Information Block
#MNEM.UNIT                 API CODE     Curve Description
#---------               -----------    ---------------------------
 TIME.HHMMSS            00 000 000 000:  GT Time & Date
 GTDEPTH.m              00 000 000 000:  GT Depth
 GTPQH.psia             00 000 000 000:  GT HR Quartz Pressure
 GTTQ.degC              00 000 000 000:  GT Quartz Temperature
 GTTN.NONE              00 000 000 000:  GT Test Number
 GTET.sec               00 000 000 000:  GT Elapsed Test Time
 GTTVD.m                00 000 000 000:  GT True Vertical Depth
#Other Information
#
#WARRANTY: Halliburton will use its best efforts to furnish customers with 
#accurate information and interpretations that are part of, and incident to, the services 
#provided.  However, Halliburton cannot and does not warrant the accuracy 
#or correctness of such information and interpretations.  Under no circumstances should any 
#such information or interpretation be relied upon as the sole basis for any drilling, 
#completion, production, or financial decision or any procedure involving any risk to the 
#safety of any drilling venture, drilling rig or its crew or any other third party.  The 
#Customer has full responsibility for all drilling, completion and production operation.  
#Halliburton makes no representations or warranties, either expressed or 
#implied, including, but not limited to, the implied warranties of merchantability or fitness 
#for a particular purpose, with respect to the services rendered.  In no event will 
#Halliburton be liable for failure to obtain any particular results or for 
#any damages, including, but not limited to, indirect, special or consequential damages, 
#resulting from the use of any information or interpretation provided by Halliburton.
#
~A           TIME           GTDEPTH  GTPQH  GTTQ  GTTN  GTET   GTTVD  
# ...
   22:04:49.920.23-Mar-2020 4483.01 4531.93 76.81 1.00 115.02 3155.68
   22:04:50.120.23-Mar-2020 4483.01 4531.93 76.81 1.00 115.22 3155.68
   22:04:50.320.23-Mar-2020 4483.01 4531.94 76.81 1.00 115.42 3155.68
   22:04:50.520.23-Mar-2020 4483.01 4531.93 76.81 1.00 115.62 3155.68
   22:04:50.720.23-Mar-2020 4483.01 4531.92 76.81 1.00 115.82 3155.68
   22:04:50.920.23-Mar-2020 4483.01 4531.92 76.81 1.00 116.02 3155.68
   22:04:51.120.23-Mar-2020 4483.01 4531.92 76.81 1.00 116.22 3155.68
   22:04:51.320.23-Mar-2020 4483.01 4531.90 76.81 1.00 116.42 3155.68
   22:04:51.520.23-Mar-2020 4483.01 4531.91 76.81 1.00 116.62 3155.68
   22:04:51.720.23-Mar-2020 4483.01 4531.93 76.81 1.00 116.82 3155.68
   22:04:51.920.23-Mar-2020 4483.01 4531.93 76.81 1.00 117.02 3155.68
   22:04:52.120.23-Mar-2020 4483.01 4531.93 76.81 1.00 117.22 3155.68
   22:04:52.321.23-Mar-2020 4483.01 4531.92 76.80 1.00 117.42 3155.68
   22:04:52.521.23-Mar-2020 4483.01 4531.92 76.80 1.00 117.62 3155.68
   22:04:52.721.23-Mar-2020 4483.01 4531.91 76.80 1.00 117.82 3155.68
   22:04:52.921.23-Mar-2020 4483.01 4531.92 76.80 1.00 118.02 3155.68
   22:04:53.121.23-Mar-2020 4483.01 4531.92 76.80 1.00 118.22 3155.68
   22:04:53.321.23-Mar-2020 4483.01 4531.93 76.80 1.00 118.42 3155.68
   22:04:53.521.23-Mar-2020 4483.01 4531.90 76.80 1.00 118.62 3155.68
   22:04:53.721.23-Mar-2020 4483.01 4531.92 76.80 1.00 118.82 3155.68
   22:04:53.921.23-Mar-2020 4483.01 4531.88 76.80 1.00 119.02 3155.68
   22:04:54.121.23-Mar-2020 4483.01 4531.88 76.80 1.00 119.22 3155.68
   22:04:54.321.23-Mar-2020 4483.01 4531.92 76.80 1.00 119.42 3155.68
   22:04:54.521.23-Mar-2020 4483.01 4531.90 76.80 1.00 119.62 3155.68
   22:04:54.721.23-Mar-2020 4483.01 4531.91 76.80 1.00 119.82 3155.68
   22:04:54.921.23-Mar-2020 4483.01 4531.91 76.79 1.00 120.02 3155.68
   22:04:55.121.23-Mar-2020 4483.01 4531.91 76.79 1.00 120.22 3155.68
   22:04:55.321.23-Mar-2020 4483.01 4531.92 76.79 1.00 120.42 3155.68
   22:04:55.521.23-Mar-2020 4483.01 4531.92 76.79 1.00 120.62 3155.68
   22:04:55.721.23-Mar-2020 4483.01 4531.92 76.79 1.00 120.82 3155.68
   22:04:55.921.23-Mar-2020 4483.01 4531.86 76.79 1.00 121.02 3155.68
   22:04:56.121.23-Mar-2020 4483.01 4531.86 76.79 1.00 121.22 3155.68
   22:04:56.321.23-Mar-2020 4483.01 4531.94 76.79 1.00 121.42 3155.68
   22:04:56.521.23-Mar-2020 4483.01 4531.92 76.79 1.00 121.62 3155.68
   22:04:56.721.23-Mar-2020 4483.01 4531.91 76.79 1.00 121.82 3155.68
   22:04:56.921.23-Mar-2020 4483.01 4531.89 76.79 1.00 122.02 3155.68
   22:04:57.121.23-Mar-2020 4483.01 4531.89 76.79 1.00 122.22 3155.68
   22:04:57.321.23-Mar-2020 4483.01 4531.91 76.79 1.00 122.42 3155.68
   22:04:57.521.23-Mar-2020 4483.01 4531.93 76.78 1.00 122.62 3155.68
   22:04:57.721.23-Mar-2020 4483.01 4531.91 76.78 1.00 122.82 3155.68
   22:04:57.921.23-Mar-2020 4483.01 4531.89 76.78 1.00 123.02 3155.68
   22:04:58.122.23-Mar-2020 4483.01 4531.89 76.78 1.00 123.22 3155.68
   22:04:58.322.23-Mar-2020 4483.01 4531.88 76.78 1.00 123.42 3155.68
   22:04:58.522.23-Mar-2020 4483.01 4531.90 76.78 1.00 123.62 3155.68
   22:04:58.722.23-Mar-2020 4483.01 4531.87 76.78 1.00 123.82 3155.68
   22:04:58.922.23-Mar-2020 4483.01 4531.85 76.78 1.00 124.02 3155.68
   22:04:59.122.23-Mar-2020 4483.01 4531.85 76.78 1.00 124.22 3155.68
   22:04:59.322.23-Mar-2020 4483.01 4531.90 76.78 1.00 124.42 3155.68
   22:04:59.522.23-Mar-2020 4483.01 4531.87 76.78 1.00 124.62 3155.68
   22:04:59.722.23-Mar-2020 4483.01 4531.90 76.78 1.00 124.82 3155.68
   22:04:59.922.23-Mar-2020 4483.01 4531.88 76.78 1.00 125.02 3155.68
   22:05:00.122.23-Mar-2020 4483.01 4531.88 76.77 1.00 125.22 3155.68
   22:05:00.322.23-Mar-2020 4483.01 4531.87 76.77 1.00 125.42 3155.68
   22:05:00.522.23-Mar-2020 4483.01 4531.88 76.77 1.00 125.62 3155.68
   22:05:00.722.23-Mar-2020 4483.01 4531.88 76.77 1.00 125.82 3155.68
   22:05:00.922.23-Mar-2020 4483.01 4531.88 76.77 1.00 126.02 3155.68
   22:05:01.122.23-Mar-2020 4483.01 4531.88 76.77 1.00 126.22 3155.68
   22:05:01.322.23-Mar-2020 4483.01 4531.88 76.77 1.00 126.42 3155.68
   22:05:01.522.23-Mar-2020 4483.01 4531.87 76.77 1.00 126.62 3155.68
   22:05:01.722.23-Mar-2020 4483.01 4531.82 76.77 1.00 126.82 3155.68
   22:05:01.922.23-Mar-2020 4483.01 4531.88 76.77 1.00 127.02 3155.68
   22:05:02.122.23-Mar-2020 4483.01 4531.88 76.77 1.00 127.22 3155.68
   22:05:02.322.23-Mar-2020 4483.01 4531.89 76.77 1.00 127.42 3155.68
   22:05:02.522.23-Mar-2020 4483.01 4531.87 76.77 1.00 127.62 3155.68
   22:05:02.722.23-Mar-2020 4483.01 4531.86 76.76 1.00 127.82 3155.68
   22:05:02.922.23-Mar-2020 4483.01 4531.86 76.76 1.00 128.02 3155.68
   22:05:03.122.23-Mar-2020 4483.01 4531.86 76.76 1.00 128.22 3155.68
   22:05:03.322.23-Mar-2020 4483.01 4531.86 76.76 1.00 128.42 3155.68
   22:05:03.522.23-Mar-2020 4483.01 4531.86 76.76 1.00 128.62 3155.68
   22:05:03.723.23-Mar-2020 4483.01 4531.87 76.76 1.00 128.82 3155.68
   22:05:03.923.23-Mar-2020 4483.01 4531.87 76.76 1.00 129.02 3155.68
   22:05:04.123.23-Mar-2020 4483.01 4531.87 76.76 1.00 129.22 3155.68
   22:05:04.323.23-Mar-2020 4483.01 4531.87 76.76 1.00 129.42 3155.68
   22:05:04.523.23-Mar-2020 4483.01 4531.87 76.76 1.00 129.62 3155.68
   22:05:04.723.23-Mar-2020 4483.01 4531.84 76.76 1.00 129.82 3155.68
   22:05:04.923.23-Mar-2020 4483.01 4531.85 76.76 1.00 130.02 3155.68
   22:05:05.123.23-Mar-2020 4483.01 4531.85 76.76 1.00 130.22 3155.68
   22:05:05.323.23-Mar-2020 4483.01 4531.86 76.76 1.00 130.42 3155.68
   22:05:05.523.23-Mar-2020 4483.01 4531.86 76.75 1.00 130.62 3155.68
   22:05:05.723.23-Mar-2020 4483.01 4531.88 76.75 1.00 130.82 3155.68
   22:05:05.923.23-Mar-2020 4483.01 4531.85 76.75 1.00 131.02 3155.68
   22:05:06.123.23-Mar-2020 4483.01 4531.85 76.75 1.00 131.22 3155.68
   22:05:06.323.23-Mar-2020 4483.01 4531.84 76.75 1.00 131.42 3155.68
   22:05:06.523.23-Mar-2020 4483.01 4531.86 76.75 1.00 131.62 3155.68
   22:05:06.723.23-Mar-2020 4483.01 4531.78 76.75 1.00 131.82 3155.68
   22:05:06.923.23-Mar-2020 4483.01 4531.87 76.75 1.00 132.02 3155.68
   22:05:07.123.23-Mar-2020 4483.01 4531.87 76.75 1.00 132.22 3155.68
   22:05:07.323.23-Mar-2020 4483.01 4531.86 76.75 1.00 132.42 3155.68
   22:05:07.523.23-Mar-2020 4483.01 4531.85 76.75 1.00 132.62 3155.68
   22:05:07.723.23-Mar-2020 4483.01 4531.85 76.75 1.00 132.82 3155.68
   22:05:07.923.23-Mar-2020 4483.01 4531.85 76.75 1.00 133.02 3155.68
   22:05:08.123.23-Mar-2020 4483.01 4531.85 76.75 1.00 133.22 3155.68
   22:05:08.323.23-Mar-2020 4483.01 4531.84 76.74 1.00 133.42 3155.68
   22:05:08.523.23-Mar-2020 4483.01 4522.57 76.74 1.00 133.62 3155.68
   22:05:08.723.23-Mar-2020 4483.01 4517.07 76.74 1.00 133.82 3155.68
   22:05:08.923.23-Mar-2020 4483.01 4517.08 76.74 1.00 134.02 3155.68
   22:05:09.123.23-Mar-2020 4483.01 4517.08 76.74 1.00 134.22 3155.68
   22:05:09.323.23-Mar-2020 4483.01 4516.79 76.74 1.00 134.42 3155.68
   22:05:09.524.23-Mar-2020 4483.01 4516.75 76.74 1.00 134.62 3155.68
   22:05:09.724.23-Mar-2020 4483.01 4516.87 76.74 1.00 134.82 3155.68
   22:05:09.924.23-Mar-2020 4483.01 4516.88 76.74 1.00 135.02 3155.68
   22:05:10.124.23-Mar-2020 4483.01 4516.88 76.74 1.00 135.22 3155.68
   22:05:10.324.23-Mar-2020 4483.01 4516.91 76.74 1.00 135.42 3155.68
   22:05:10.524.23-Mar-2020 4483.01 4516.65 76.74 1.00 135.62 3155.68
   22:05:10.724.23-Mar-2020 4483.01 4516.93 76.74 1.00 135.82 3155.68
   22:05:10.924.23-Mar-2020 4483.01 4516.91 76.73 1.00 136.02 3155.68
   22:05:11.124.23-Mar-2020 4483.01 4516.91 76.73 1.00 136.22 3155.68
   22:05:11.324.23-Mar-2020 4483.01 4516.67 76.73 1.00 136.42 3155.68
   22:05:11.524.23-Mar-2020 4483.01 4516.91 76.73 1.00 136.62 3155.68
   22:05:11.724.23-Mar-2020 4483.01 4516.91 76.73 1.00 136.82 3155.68
   22:05:11.924.23-Mar-2020 4483.01 4516.79 76.73 1.00 137.02 3155.68
   22:05:12.124.23-Mar-2020 4483.01 4516.79 76.73 1.00 137.22 3155.68
   22:05:12.324.23-Mar-2020 4483.01 4516.77 76.73 1.00 137.42 3155.68
   22:05:12.524.23-Mar-2020 4483.01 4516.69 76.73 1.00 137.62 3155.68
   22:05:12.724.23-Mar-2020 4483.01 4516.85 76.73 1.00 137.82 3155.68
