~Version Information
 VERS.                  2.0:   CWLS log ASCII Standard -VERSION 2.0
 WRAP.                   NO:   One line per depth step
~Well Information Block
#MNEM.UNIT     VALUE/NAME     DESCRIPTION
#---------     -----------    ---------------------------
 STRT.S             00:58:12 24-Mar-20: START TIME 00:58:12 24-Mar-20
 STOP.S             01:04:43 24-Mar-20: STOP TIME  01:04:43 24-Mar-20
 STEP.S                   0.00: STEP TIME
 NULL.                 -999.25: NULL VALUE
 DFWT.                        :  DIST FWL TEXT
 DFST.                        :  DIST FSL TEXT
 DMF .             Drill Floor:  DRILL MEAS FROM
 STIM.      22.30.00 15-Feb-20:  START TIME
 DATE.      17.00.00 25-Mar-20:  END TIME
 SPUD.               15-Feb-20:  SPUD DATE
 NREF.                    Grid:  NORTH REFERENCE
 HPTY.       Minimum Curvature:  HOLE POS TYPE
 DMOD.             Drill Model:  DRILL MOD DESC
 SVYD.                  Survey:  SURVEY DESC
 ILTD.               Lithology:  INTERP LTH DESC
 FTOP.          Formation Tops:  FORM TOPS DESC
 SON .        AZ-XX-0906019077:  JOB NUMBER
 PDAT.          Mean Sea Level:  PERMANENT DATUM
 WTYP.                Deviated:  WELL TYPE
 MDS .        Operator Entered:  MAG DATA SOURCE
 COMP.     BP Exploration (Caspian sea) Ltd.:  COMPANY
 UWI .                     N/A:  UNIQUE WELL IDENTIFIER
 API .                     N/A:  API NUMBER
 BASE.              Azerbaijan:  LOGGING EQUIPMENT BASE LOCATION
 REGN.                   EESSA:  REGION
 PROV.                     N/A:  PROVINCE
 STAT.                     N/A:  STATE NAME
 CTRY.              Azerbaijan:  COUNTRY NAME
 FLD .                     ACG:  FIELD NAME
 SRVC.          Turan Drilling:  CONTRACTOR
 MWDS.                    Baku:  MWD SHOP
 WELL.                    E16W:  WELL NAME
 JOBN.        AZ-XX-0906019077:  JOB TICKET NUMB
 RIG .                     DWG:  RIG NAME
 CNTY.                     N/A:  COUNTY NAME
 DCON.         Sperry Drilling:  DIRECTNL CONTR
 UNIT.                     N/A:  LOGGING EQUIPMENT ID
 LOC .                        :  LOCATION
 LMF .             Drill Floor:  LOG MEASURED FROM
 TVDS.m                  43.16:  TVDSS CORRECTN
 LATI.deg                40.17:  LATITUDE
 LONG.deg                51.17:  LONGITUDE
 WHNS.m                 -15.30:  WELL HEAD N/S
 WHEW.m                  -1.29:  WELL HEAD E/W
 UTMX.m              514337.95:  UTM X
 UTMY.m             4448627.46:  UTM Y
 DFWL.m                   0.00:  DISTANCE FWL
 DFSL.m                   0.00:  DISTANCE FSL
 SDEP.m                3499.01:  START DEPTH
 TDD .m                4606.01:  TOTAL DEPTH (DRILLER)
 VSDR.deg               151.14:  VERT SEC DIRECT
 GVFD.g                   1.00:  GRAVITY FIELD
 MFLD.nT              50334.00:  MAGNETIC FIELD
 MDIP.deg                59.62:  MAGNETIC DIP
 MDEC.deg                 6.46:  MAGNETIC DECL
 GRDC.deg                 0.12:  GRID CORRECTION
 AZTC.deg                 6.34:  AZM TOTAL CORR
 EPD .m                   0.00:  ELEVATION
 EGL .m                   0.00:  GROUND ELEVATION
 WDMS.m                 176.20:  WD ELEV
 APD .m                  43.16:  DEPTH ABOVE PD
 VSEW.m                  -1.29:  VERT SEC E/W
 VSNS.m                 -15.30:  VERT SEC N/S
 AGAP.m                  43.16:  AIR GAP
 EKB .m                   0.00:  KB ELEVATION
 EDF .m                  43.16:  DF ELEVATION
 TDL .m                 103.00:  TOTAL DEPTH (LOGGER)
 VSC .                       0:  VS TO CLOSURE
 MAGU.                 1852525:  MAGUTM CHECKSUM
~Parameter Information Block
#MNEM.UNIT       Value        Description
#---------     -----------    ---------------------------
 AV  .mps                 1.01:  Ann Velocity 
 AVMX.mps                 1.32:  Max Ann Veloc 
 AZIF.deg               140.63:  Azm, Final 
 BHAT.        Rotary Steerable:  BHA Type 
 BREV.rev            151000.00:  Rev Bit Total 
 BROT.°/30m               0.65:  Build Rotating 
 BS  .in                  6.50:  Bit Size 
 BSZ .in                  6.50:  Bit Size 
 BTPL.psig              222.00:  Bit Press Loss 
 CABU.                      No:  Customer Abuse 
 CGEO.           Emin Aliyarov:  Customer Geo 
 COMM.                     lx{:  Run Comments 1 
 TCS .hr                 22.89:  Time Ciculation Ended 
 CV  .mps                 2.20:  Crit Velocity 
 CVMX.mps                 3.04:  Max Crit Veloc 
 DD1 .         Intigam Rahimov:  Direct Drillr 1 
 DDSV.               Geo-Pilot:  DD Service 
 DEFF.%                  91.50:  % Det Eff 
 DLRX.°/30m               1.15:  Dogleg Rot Max 
 DLSO.°/30m               0.86:  Dogleg Oriented 
 DLSX.°/30m               1.15:  Dogleg Str Max 
 DRET.      13.10.00 24-Mar-20:  Drill End Time 
 DRST.      17.00.00 23-Mar-20:  Drill Start Tim 
 DTIM.hr                 11.87:  Time Drilling 
 EDEP.m                4606.01:  End Depth 
 ENG1.          Rasim Hashimov:  Engineer 1 
 ENG2.            Alan Tuganov:  Engineer 2 
 ENG3.         Yevgeniy Ulikov:  Engineer 3 
 ETIM.      16.00.00 25-Mar-20:  End Time 
 FLOI.gpm               400.00:  Flow In 
 FLON.gpm               350.00:  Flow In Min 
 FLOS.cptm                0.00:  Fluid Loss 
 FLOX.gpm               400.00:  Flow In Max 
 FTRO.       Formation Presure:  FTWD Run Obj 
 HFLO.                      No:  High Flow 
 HPRE.                      No:  High Pressure 
 HTEM.                      No:  High Temp 
 HYDO.m                   1.80:  Hydro Offset 
 IFIN.deg                79.55:  Inc, Final 
 IMAX.deg                79.55:  Inc Max 
 IMIN.deg                78.04:  Inc Min 
 IMND.m                4502.50:  Inc Min Depth 
 IMXD.m                4587.87:  Inc Max Depth 
 JARR.                      No:  Jarring 
 LETM.      13.10.00 24-Mar-20:  Log End Time 
 LOST.hr                     0:  Lost Rig Time 
 LSTM.      17.00.00 23-Mar-20:  Log Start Time 
 MDCL.ppm             39000.00:  Mud Chlorides 
 MDES.     Inversion Oil/Synthetic:  Mud Desc 
 DFD .sg                  1.40:  Mud Density 
 MDMN.sg                  1.40:  Dens Mud Min 
 MDMX.sg                  1.40:  Dens Mud Max 
 MOIL.                    55.2:  Run Mud Oil % 
 MOWR.                   68:32:  Run Mud OWR 
 MSND.                     0.1:  Run Mud Sand % 
 MSOL.                    17.8:  Run Mud Solids% 
 DFV .spqt               76.00:  Mud Viscosity 
 MWOD.in                  4.75:  MWD Tool OD 
 MWSI.                      No:  Serv Intrp, MWD 
 OTIM.hr                 64.35:  Time Operating 
 PCON.           Look Like New:  Pad Condition 
 PMAX.psia             5350.00:  Press Op, Max 
 PV  .cP                 26.00:  Mud PV 
 RUN .                     900:  Run Number 
 ROPA.m/hr                9.00:  ROP Avg 
 ROPN.m/hr                7.00:  ROP Min 
 ROPX.m/hr               13.00:  ROP Max 
 RPMA.rpm               140.00:  RPM Surface Avg 
 RPMN.rpm               140.00:  RPM Surface Min 
 RPMX.rpm               140.00:  RPM Surface Max 
 RRUN.                    L204:  Rig Run Number 
 RTIM.hr                  4.50:  Time Reaming 
 SAZI.deg               141.40:  Azm, Start 
 SDEP.m                4503.01:  Start Depth 
 SIDD.                      No:  Serv Intrp, DD 
 SINC.deg                78.04:  Inc, Start 
 SPPA.psig             5300.00:  SPP Avg 
 SPPN.psig             5100.00:  SPP Min 
 SPPX.psig             5500.00:  SPP Max 
 STIM.      18.00.00 22-Mar-20:  Start Time 
 SVCS.                 DD, MWD:  Services 
 SVER.                    9.20:  Sperry Version 
 TDAT.m                 103.00:  Tot Depth Attmp 
 TDDF.                      No:  Trip for DD 
 TDLG.m                 103.00:  Tot Depth Loggd 
 TFF .                      No:  Trip for Fail 
 TQAA.f-kp               14.00:  Torque Abs Avg 
 TQAN.f-kp               12.00:  Torque Abs Min 
 TQAX.f-kp               16.00:  Torque Abs Max 
 TRRT.°/30m               0.45:  Turn Rotating 
 MRT .                    HCIM:  Maximum Recorded Temperature 
 TTMX.degC               90.20:  Max Tool Temp 
 VS01.         90577859G12V7D4:  Virtual Str1 SN 
 VS02.            90519330D5C4:  Virtual Str2 SN 
 VS03.             90603450F11:  Virtual Str3 SN 
 VS04.           90515383R12C4:  Virtual Str4 SN 
 VS05.          90522017N2L2C4:  Virtual Str5 SN 
 VS06.            90512682Z1W1:  Virtual Str6 SN 
 WBMN.klb                 5.00:  WOB Min 
 WITN.        Elmaddin Rahimov:  Customer Rep 
 WITN.           Adil Mammadov:  Customer Rep 2 
 WOBA.klb                 8.00:  WOB Avg 
 WOBX.klb                13.00:  WOB Max 
 YP  .lhf2               31.00:  Yield Point 
~Curve Information Block
#MNEM.UNIT                 API CODE     Curve Description
#---------               -----------    ---------------------------
 TIME.HHMMSS            00 000 000 000:  GT Time & Date
 GTDEPTH.m              00 000 000 000:  GT Depth
 GTPQH.psia             00 000 000 000:  GT HR Quartz Pressure
 GTTQ.degC              00 000 000 000:  GT Quartz Temperature
 GTTN.NONE              00 000 000 000:  GT Test Number
 GTET.sec               00 000 000 000:  GT Elapsed Test Time
 GTTVD.m                00 000 000 000:  GT True Vertical Depth
#Other Information
#
#WARRANTY: Halliburton will use its best efforts to furnish customers with 
#accurate information and interpretations that are part of, and incident to, the services 
#provided.  However, Halliburton cannot and does not warrant the accuracy 
#or correctness of such information and interpretations.  Under no circumstances should any 
#such information or interpretation be relied upon as the sole basis for any drilling, 
#completion, production, or financial decision or any procedure involving any risk to the 
#safety of any drilling venture, drilling rig or its crew or any other third party.  The 
#Customer has full responsibility for all drilling, completion and production operation.  
#Halliburton makes no representations or warranties, either expressed or 
#implied, including, but not limited to, the implied warranties of merchantability or fitness 
#for a particular purpose, with respect to the services rendered.  In no event will 
#Halliburton be liable for failure to obtain any particular results or for 
#any damages, including, but not limited to, indirect, special or consequential damages, 
#resulting from the use of any information or interpretation provided by Halliburton.
#
~A           TIME           GTDEPTH  GTPQH  GTTQ  GTTN  GTET   GTTVD  
# ...
   01:02:02.759.24-Mar-2020 4501.51 4469.80 80.28 2.00 230.04 3159.43
   01:02:02.959.24-Mar-2020 4501.51 4469.80 80.28 2.00 230.24 3159.43
   01:02:03.159.24-Mar-2020 4501.51 4469.84 80.28 2.00 230.44 3159.43
   01:02:03.359.24-Mar-2020 4501.51 4469.84 80.28 2.00 230.64 3159.43
   01:02:03.559.24-Mar-2020 4501.51 4469.81 80.28 2.00 230.84 3159.43
   01:02:03.759.24-Mar-2020 4501.51 4469.82 80.28 2.00 231.04 3159.43
   01:02:03.959.24-Mar-2020 4501.51 4469.82 80.28 2.00 231.24 3159.43
   01:02:04.159.24-Mar-2020 4501.51 4469.86 80.27 2.00 231.44 3159.43
   01:02:04.359.24-Mar-2020 4501.51 4469.77 80.27 2.00 231.64 3159.43
   01:02:04.559.24-Mar-2020 4501.51 4469.82 80.27 2.00 231.84 3159.43
   01:02:04.759.24-Mar-2020 4501.51 4469.85 80.27 2.00 232.04 3159.43
   01:02:04.959.24-Mar-2020 4501.51 4469.83 80.27 2.00 232.24 3159.43
   01:02:05.159.24-Mar-2020 4501.51 4469.79 80.27 2.00 232.44 3159.43
   01:02:05.359.24-Mar-2020 4501.51 4469.81 80.27 2.00 232.64 3159.43
   01:02:05.559.24-Mar-2020 4501.51 4469.81 80.27 2.00 232.84 3159.43
   01:02:05.759.24-Mar-2020 4501.51 4469.82 80.27 2.00 233.04 3159.43
   01:02:05.959.24-Mar-2020 4501.51 4469.82 80.27 2.00 233.24 3159.43
   01:02:06.159.24-Mar-2020 4501.51 4469.83 80.27 2.00 233.44 3159.43
   01:02:06.359.24-Mar-2020 4501.51 4469.81 80.27 2.00 233.64 3159.43
   01:02:06.559.24-Mar-2020 4501.51 4469.82 80.27 2.00 233.84 3159.43
   01:02:06.759.24-Mar-2020 4501.51 4469.67 80.26 2.00 234.04 3159.43
   01:02:06.959.24-Mar-2020 4501.51 4469.67 80.26 2.00 234.24 3159.43
   01:02:07.160.24-Mar-2020 4501.51 4469.87 80.26 2.00 234.44 3159.43
   01:02:07.360.24-Mar-2020 4501.51 4469.79 80.26 2.00 234.64 3159.43
   01:02:07.560.24-Mar-2020 4501.51 4469.72 80.26 2.00 234.84 3159.43
   01:02:07.760.24-Mar-2020 4501.51 4469.85 80.26 2.00 235.04 3159.43
   01:02:07.960.24-Mar-2020 4501.51 4469.85 80.26 2.00 235.24 3159.43
   01:02:08.160.24-Mar-2020 4501.51 4469.81 80.26 2.00 235.44 3159.43
   01:02:08.360.24-Mar-2020 4501.51 4469.81 80.26 2.00 235.64 3159.43
   01:02:08.560.24-Mar-2020 4501.51 4469.82 80.26 2.00 235.84 3159.43
   01:02:08.760.24-Mar-2020 4501.51 4469.72 80.26 2.00 236.04 3159.43
   01:02:08.960.24-Mar-2020 4501.51 4469.72 80.26 2.00 236.24 3159.43
   01:02:09.160.24-Mar-2020 4501.51 4469.88 80.26 2.00 236.44 3159.43
   01:02:09.360.24-Mar-2020 4501.51 4469.83 80.26 2.00 236.64 3159.43
   01:02:09.560.24-Mar-2020 4501.51 4469.82 80.25 2.00 236.84 3159.43
   01:02:09.760.24-Mar-2020 4501.51 4469.71 80.25 2.00 237.04 3159.43
   01:02:09.960.24-Mar-2020 4501.51 4469.71 80.25 2.00 237.24 3159.43
   01:02:10.160.24-Mar-2020 4501.51 4469.84 80.25 2.00 237.44 3159.43
   01:02:10.360.24-Mar-2020 4501.51 4469.80 80.25 2.00 237.64 3159.43
   01:02:10.560.24-Mar-2020 4501.51 4469.82 80.25 2.00 237.84 3159.43
   01:02:10.760.24-Mar-2020 4501.51 4469.82 80.25 2.00 238.04 3159.43
   01:02:10.960.24-Mar-2020 4501.51 4469.82 80.25 2.00 238.24 3159.43
   01:02:11.160.24-Mar-2020 4501.51 4469.80 80.25 2.00 238.44 3159.43
   01:02:11.360.24-Mar-2020 4501.51 4469.81 80.25 2.00 238.64 3159.43
   01:02:11.560.24-Mar-2020 4501.51 4469.81 80.25 2.00 238.84 3159.43
   01:02:11.760.24-Mar-2020 4501.51 4469.80 80.25 2.00 239.04 3159.43
   01:02:11.960.24-Mar-2020 4501.51 4469.80 80.25 2.00 239.24 3159.43
   01:02:12.160.24-Mar-2020 4501.51 4469.86 80.25 2.00 239.44 3159.43
   01:02:12.360.24-Mar-2020 4501.51 4469.85 80.24 2.00 239.64 3159.43
   01:02:12.560.24-Mar-2020 4501.51 4469.82 80.24 2.00 239.84 3159.43
   01:02:12.760.24-Mar-2020 4501.51 4469.80 80.24 2.00 240.04 3159.43
   01:02:12.961.24-Mar-2020 4501.51 4469.80 80.24 2.00 240.24 3159.43
   01:02:13.161.24-Mar-2020 4501.51 4469.80 80.24 2.00 240.44 3159.43
   01:02:13.361.24-Mar-2020 4501.51 4469.81 80.24 2.00 240.64 3159.43
   01:02:13.561.24-Mar-2020 4501.51 4446.55 80.24 2.00 240.84 3159.43
   01:02:13.761.24-Mar-2020 4501.51 4408.89 80.24 2.00 241.04 3159.43
   01:02:13.961.24-Mar-2020 4501.51 4408.89 80.24 2.00 241.24 3159.43
   01:02:14.161.24-Mar-2020 4501.51 4408.32 80.24 2.00 241.44 3159.43
   01:02:14.361.24-Mar-2020 4501.51 4407.91 80.24 2.00 241.64 3159.43
   01:02:14.561.24-Mar-2020 4501.51 4408.38 80.24 2.00 241.84 3159.43
   01:02:14.761.24-Mar-2020 4501.51 4408.20 80.24 2.00 242.04 3159.43
   01:02:14.961.24-Mar-2020 4501.51 4408.20 80.24 2.00 242.24 3159.43
   01:02:15.161.24-Mar-2020 4501.51 4407.46 80.24 2.00 242.44 3159.43
   01:02:15.361.24-Mar-2020 4501.51 4408.61 80.23 2.00 242.64 3159.43
   01:02:15.561.24-Mar-2020 4501.51 4408.63 80.23 2.00 242.84 3159.43
   01:02:15.761.24-Mar-2020 4501.51 4408.17 80.23 2.00 243.04 3159.43
   01:02:15.961.24-Mar-2020 4501.51 4408.17 80.23 2.00 243.24 3159.43
   01:02:16.161.24-Mar-2020 4501.51 4408.29 80.23 2.00 243.44 3159.43
   01:02:16.361.24-Mar-2020 4501.51 4407.28 80.23 2.00 243.64 3159.43
   01:02:16.561.24-Mar-2020 4501.51 4408.46 80.23 2.00 243.84 3159.43
   01:02:16.761.24-Mar-2020 4501.51 4408.60 80.23 2.00 244.04 3159.43
   01:02:16.961.24-Mar-2020 4501.51 4408.60 80.23 2.00 244.24 3159.43
   01:02:17.161.24-Mar-2020 4501.51 4408.56 80.23 2.00 244.44 3159.43
   01:02:17.361.24-Mar-2020 4501.51 4408.49 80.23 2.00 244.64 3159.43
   01:02:17.561.24-Mar-2020 4501.51 4408.42 80.23 2.00 244.84 3159.43
   01:02:17.761.24-Mar-2020 4501.51 4408.26 80.23 2.00 245.04 3159.43
   01:02:17.961.24-Mar-2020 4501.51 4408.26 80.23 2.00 245.24 3159.43
   01:02:18.161.24-Mar-2020 4501.51 4408.71 80.22 2.00 245.44 3159.43
   01:02:18.361.24-Mar-2020 4501.51 4408.64 80.22 2.00 245.64 3159.43
   01:02:18.561.24-Mar-2020 4501.51 4408.73 80.22 2.00 245.84 3159.43
   01:02:18.762.24-Mar-2020 4501.51 4408.90 80.22 2.00 246.04 3159.43
   01:02:18.962.24-Mar-2020 4501.51 4408.90 80.22 2.00 246.24 3159.43
   01:02:19.162.24-Mar-2020 4501.51 4408.50 80.22 2.00 246.44 3159.43
   01:02:19.362.24-Mar-2020 4501.51 4407.71 80.22 2.00 246.64 3159.43
   01:02:19.562.24-Mar-2020 4501.51 4409.18 80.22 2.00 246.84 3159.43
   01:02:19.762.24-Mar-2020 4501.51 4409.32 80.22 2.00 247.04 3159.43
   01:02:19.962.24-Mar-2020 4501.51 4409.32 80.22 2.00 247.24 3159.43
   01:02:20.162.24-Mar-2020 4501.51 4408.77 80.22 2.00 247.44 3159.43
   01:02:20.362.24-Mar-2020 4501.51 4409.00 80.22 2.00 247.64 3159.43
   01:02:20.562.24-Mar-2020 4501.51 4408.55 80.22 2.00 247.84 3159.43
   01:02:20.762.24-Mar-2020 4501.51 4408.63 80.22 2.00 248.04 3159.43
   01:02:20.962.24-Mar-2020 4501.51 4408.73 80.21 2.00 248.24 3159.43
   01:02:21.162.24-Mar-2020 4501.51 4409.02 80.21 2.00 248.44 3159.43
   01:02:21.362.24-Mar-2020 4501.51 4408.82 80.21 2.00 248.64 3159.43
   01:02:21.562.24-Mar-2020 4501.51 4408.81 80.21 2.00 248.84 3159.43
   01:02:21.762.24-Mar-2020 4501.51 4408.68 80.21 2.00 249.04 3159.43
   01:02:21.962.24-Mar-2020 4501.51 4408.68 80.21 2.00 249.24 3159.43
   01:02:22.162.24-Mar-2020 4501.51 4408.77 80.21 2.00 249.44 3159.43
   01:02:22.362.24-Mar-2020 4501.51 4408.43 80.21 2.00 249.64 3159.43
   01:02:22.562.24-Mar-2020 4501.51 4409.10 80.21 2.00 249.84 3159.43
   01:02:22.762.24-Mar-2020 4501.51 4408.75 80.21 2.00 250.04 3159.43
   01:02:22.962.24-Mar-2020 4501.51 4408.75 80.21 2.00 250.24 3159.43
   01:02:23.162.24-Mar-2020 4501.51 4409.46 80.21 2.00 250.44 3159.43
   01:02:23.362.24-Mar-2020 4501.51 4409.34 80.21 2.00 250.64 3159.43
   01:02:23.562.24-Mar-2020 4501.51 4409.23 80.21 2.00 250.84 3159.43
   01:02:23.762.24-Mar-2020 4501.51 4411.10 80.20 2.00 251.04 3159.43
   01:02:23.962.24-Mar-2020 4501.51 4411.10 80.20 2.00 251.24 3159.43
   01:02:24.162.24-Mar-2020 4501.51 4469.08 80.20 2.00 251.44 3159.43
   01:02:24.362.24-Mar-2020 4501.51 4469.20 80.20 2.00 251.64 3159.43
   01:02:24.563.24-Mar-2020 4501.51 4469.22 80.20 2.00 251.84 3159.43
   01:02:24.763.24-Mar-2020 4501.51 4469.28 80.20 2.00 252.04 3159.43
   01:02:24.963.24-Mar-2020 4501.51 4469.34 80.20 2.00 252.24 3159.43
   01:02:25.163.24-Mar-2020 4501.51 4469.39 80.20 2.00 252.44 3159.43
   01:02:25.363.24-Mar-2020 4501.51 4469.35 80.20 2.00 252.64 3159.43
   01:02:25.563.24-Mar-2020 4501.51 4469.47 80.20 2.00 252.84 3159.43
