~Version Information
 VERS.                  2.0:   CWLS log ASCII Standard -VERSION 2.0
 WRAP.                   NO:   One line per depth step
~Well Information Block
#MNEM.UNIT     VALUE/NAME     DESCRIPTION
#---------     -----------    ---------------------------
 STRT.S             06:00:18 24-Mar-20: START TIME 06:00:18 24-Mar-20
 STOP.S             06:06:47 24-Mar-20: STOP TIME  06:06:47 24-Mar-20
 STEP.S                   0.00: STEP TIME
 NULL.                 -999.25: NULL VALUE
 DFWT.                        :  DIST FWL TEXT
 DFST.                        :  DIST FSL TEXT
 DMF .             Drill Floor:  DRILL MEAS FROM
 STIM.      22.30.00 15-Feb-20:  START TIME
 DATE.      17.00.00 25-Mar-20:  END TIME
 SPUD.               15-Feb-20:  SPUD DATE
 NREF.                    Grid:  NORTH REFERENCE
 HPTY.       Minimum Curvature:  HOLE POS TYPE
 DMOD.             Drill Model:  DRILL MOD DESC
 SVYD.                  Survey:  SURVEY DESC
 ILTD.               Lithology:  INTERP LTH DESC
 FTOP.          Formation Tops:  FORM TOPS DESC
 SON .        AZ-XX-0906019077:  JOB NUMBER
 PDAT.          Mean Sea Level:  PERMANENT DATUM
 WTYP.                Deviated:  WELL TYPE
 MDS .        Operator Entered:  MAG DATA SOURCE
 COMP.     BP Exploration (Caspian sea) Ltd.:  COMPANY
 UWI .                     N/A:  UNIQUE WELL IDENTIFIER
 API .                     N/A:  API NUMBER
 BASE.              Azerbaijan:  LOGGING EQUIPMENT BASE LOCATION
 REGN.                   EESSA:  REGION
 PROV.                     N/A:  PROVINCE
 STAT.                     N/A:  STATE NAME
 CTRY.              Azerbaijan:  COUNTRY NAME
 FLD .                     ACG:  FIELD NAME
 SRVC.          Turan Drilling:  CONTRACTOR
 MWDS.                    Baku:  MWD SHOP
 WELL.                    E16W:  WELL NAME
 JOBN.        AZ-XX-0906019077:  JOB TICKET NUMB
 RIG .                     DWG:  RIG NAME
 CNTY.                     N/A:  COUNTY NAME
 DCON.         Sperry Drilling:  DIRECTNL CONTR
 UNIT.                     N/A:  LOGGING EQUIPMENT ID
 LOC .                        :  LOCATION
 LMF .             Drill Floor:  LOG MEASURED FROM
 TVDS.m                  43.16:  TVDSS CORRECTN
 LATI.deg                40.17:  LATITUDE
 LONG.deg                51.17:  LONGITUDE
 WHNS.m                 -15.30:  WELL HEAD N/S
 WHEW.m                  -1.29:  WELL HEAD E/W
 UTMX.m              514337.95:  UTM X
 UTMY.m             4448627.46:  UTM Y
 DFWL.m                   0.00:  DISTANCE FWL
 DFSL.m                   0.00:  DISTANCE FSL
 SDEP.m                3499.01:  START DEPTH
 TDD .m                4606.01:  TOTAL DEPTH (DRILLER)
 VSDR.deg               151.14:  VERT SEC DIRECT
 GVFD.g                   1.00:  GRAVITY FIELD
 MFLD.nT              50334.00:  MAGNETIC FIELD
 MDIP.deg                59.62:  MAGNETIC DIP
 MDEC.deg                 6.46:  MAGNETIC DECL
 GRDC.deg                 0.12:  GRID CORRECTION
 AZTC.deg                 6.34:  AZM TOTAL CORR
 EPD .m                   0.00:  ELEVATION
 EGL .m                   0.00:  GROUND ELEVATION
 WDMS.m                 176.20:  WD ELEV
 APD .m                  43.16:  DEPTH ABOVE PD
 VSEW.m                  -1.29:  VERT SEC E/W
 VSNS.m                 -15.30:  VERT SEC N/S
 AGAP.m                  43.16:  AIR GAP
 EKB .m                   0.00:  KB ELEVATION
 EDF .m                  43.16:  DF ELEVATION
 TDL .m                 103.00:  TOTAL DEPTH (LOGGER)
 VSC .                       0:  VS TO CLOSURE
 MAGU.                 1852525:  MAGUTM CHECKSUM
~Parameter Information Block
#MNEM.UNIT       Value        Description
#---------     -----------    ---------------------------
 AV  .mps                 1.01:  Ann Velocity 
 AVMX.mps                 1.32:  Max Ann Veloc 
 AZIF.deg               140.63:  Azm, Final 
 BHAT.        Rotary Steerable:  BHA Type 
 BREV.rev            151000.00:  Rev Bit Total 
 BROT.°/30m               0.65:  Build Rotating 
 BS  .in                  6.50:  Bit Size 
 BSZ .in                  6.50:  Bit Size 
 BTPL.psig              222.00:  Bit Press Loss 
 CABU.                      No:  Customer Abuse 
 CGEO.           Emin Aliyarov:  Customer Geo 
 COMM.                     öU:  Run Comments 1 
 TCS .hr                 22.89:  Time Ciculation Ended 
 CV  .mps                 2.20:  Crit Velocity 
 CVMX.mps                 3.04:  Max Crit Veloc 
 DD1 .         Intigam Rahimov:  Direct Drillr 1 
 DDSV.               Geo-Pilot:  DD Service 
 DEFF.%                  91.50:  % Det Eff 
 DLRX.°/30m               1.15:  Dogleg Rot Max 
 DLSO.°/30m               0.86:  Dogleg Oriented 
 DLSX.°/30m               1.15:  Dogleg Str Max 
 DRET.      13.10.00 24-Mar-20:  Drill End Time 
 DRST.      17.00.00 23-Mar-20:  Drill Start Tim 
 DTIM.hr                 11.87:  Time Drilling 
 EDEP.m                4606.01:  End Depth 
 ENG1.          Rasim Hashimov:  Engineer 1 
 ENG2.            Alan Tuganov:  Engineer 2 
 ENG3.         Yevgeniy Ulikov:  Engineer 3 
 ETIM.      16.00.00 25-Mar-20:  End Time 
 FLOI.gpm               400.00:  Flow In 
 FLON.gpm               350.00:  Flow In Min 
 FLOS.cptm                0.00:  Fluid Loss 
 FLOX.gpm               400.00:  Flow In Max 
 FTRO.       Formation Presure:  FTWD Run Obj 
 HFLO.                      No:  High Flow 
 HPRE.                      No:  High Pressure 
 HTEM.                      No:  High Temp 
 HYDO.m                   1.80:  Hydro Offset 
 IFIN.deg                79.55:  Inc, Final 
 IMAX.deg                79.55:  Inc Max 
 IMIN.deg                78.04:  Inc Min 
 IMND.m                4502.50:  Inc Min Depth 
 IMXD.m                4587.87:  Inc Max Depth 
 JARR.                      No:  Jarring 
 LETM.      13.10.00 24-Mar-20:  Log End Time 
 LOST.hr                     0:  Lost Rig Time 
 LSTM.      17.00.00 23-Mar-20:  Log Start Time 
 MDCL.ppm             39000.00:  Mud Chlorides 
 MDES.     Inversion Oil/Synthetic:  Mud Desc 
 DFD .sg                  1.40:  Mud Density 
 MDMN.sg                  1.40:  Dens Mud Min 
 MDMX.sg                  1.40:  Dens Mud Max 
 MOIL.                    55.2:  Run Mud Oil % 
 MOWR.                   68:32:  Run Mud OWR 
 MSND.                     0.1:  Run Mud Sand % 
 MSOL.                    17.8:  Run Mud Solids% 
 DFV .spqt               76.00:  Mud Viscosity 
 MWOD.in                  4.75:  MWD Tool OD 
 MWSI.                      No:  Serv Intrp, MWD 
 OTIM.hr                 64.35:  Time Operating 
 PCON.           Look Like New:  Pad Condition 
 PMAX.psia             5350.00:  Press Op, Max 
 PV  .cP                 26.00:  Mud PV 
 RUN .                     900:  Run Number 
 ROPA.m/hr                9.00:  ROP Avg 
 ROPN.m/hr                7.00:  ROP Min 
 ROPX.m/hr               13.00:  ROP Max 
 RPMA.rpm               140.00:  RPM Surface Avg 
 RPMN.rpm               140.00:  RPM Surface Min 
 RPMX.rpm               140.00:  RPM Surface Max 
 RRUN.                    L204:  Rig Run Number 
 RTIM.hr                  4.50:  Time Reaming 
 SAZI.deg               141.40:  Azm, Start 
 SDEP.m                4503.01:  Start Depth 
 SIDD.                      No:  Serv Intrp, DD 
 SINC.deg                78.04:  Inc, Start 
 SPPA.psig             5300.00:  SPP Avg 
 SPPN.psig             5100.00:  SPP Min 
 SPPX.psig             5500.00:  SPP Max 
 STIM.      18.00.00 22-Mar-20:  Start Time 
 SVCS.                 DD, MWD:  Services 
 SVER.                    9.20:  Sperry Version 
 TDAT.m                 103.00:  Tot Depth Attmp 
 TDDF.                      No:  Trip for DD 
 TDLG.m                 103.00:  Tot Depth Loggd 
 TFF .                      No:  Trip for Fail 
 TQAA.f-kp               14.00:  Torque Abs Avg 
 TQAN.f-kp               12.00:  Torque Abs Min 
 TQAX.f-kp               16.00:  Torque Abs Max 
 TRRT.°/30m               0.45:  Turn Rotating 
 MRT .                    HCIM:  Maximum Recorded Temperature 
 TTMX.degC               90.20:  Max Tool Temp 
 VS01.         90577859G12V7D4:  Virtual Str1 SN 
 VS02.            90519330D5C4:  Virtual Str2 SN 
 VS03.             90603450F11:  Virtual Str3 SN 
 VS04.           90515383R12C4:  Virtual Str4 SN 
 VS05.          90522017N2L2C4:  Virtual Str5 SN 
 VS06.            90512682Z1W1:  Virtual Str6 SN 
 WBMN.klb                 5.00:  WOB Min 
 WITN.        Elmaddin Rahimov:  Customer Rep 
 WITN.           Adil Mammadov:  Customer Rep 2 
 WOBA.klb                 8.00:  WOB Avg 
 WOBX.klb                13.00:  WOB Max 
 YP  .lhf2               31.00:  Yield Point 
~Curve Information Block
#MNEM.UNIT                 API CODE     Curve Description
#---------               -----------    ---------------------------
 TIME.HHMMSS            00 000 000 000:  GT Time & Date
 GTDEPTH.m              00 000 000 000:  GT Depth
 GTPQH.psia             00 000 000 000:  GT HR Quartz Pressure
 GTTQ.degC              00 000 000 000:  GT Quartz Temperature
 GTTN.NONE              00 000 000 000:  GT Test Number
 GTET.sec               00 000 000 000:  GT Elapsed Test Time
 GTTVD.m                00 000 000 000:  GT True Vertical Depth
#Other Information
#
#WARRANTY: Halliburton will use its best efforts to furnish customers with 
#accurate information and interpretations that are part of, and incident to, the services 
#provided.  However, Halliburton cannot and does not warrant the accuracy 
#or correctness of such information and interpretations.  Under no circumstances should any 
#such information or interpretation be relied upon as the sole basis for any drilling, 
#completion, production, or financial decision or any procedure involving any risk to the 
#safety of any drilling venture, drilling rig or its crew or any other third party.  The 
#Customer has full responsibility for all drilling, completion and production operation.  
#Halliburton makes no representations or warranties, either expressed or 
#implied, including, but not limited to, the implied warranties of merchantability or fitness 
#for a particular purpose, with respect to the services rendered.  In no event will 
#Halliburton be liable for failure to obtain any particular results or for 
#any damages, including, but not limited to, indirect, special or consequential damages, 
#resulting from the use of any information or interpretation provided by Halliburton.
#
~A           TIME           GTDEPTH  GTPQH  GTTQ  GTTN  GTET   GTTVD  
# ...
   06:05:40.801.24-Mar-2020 4533.01 4450.75 82.61 4.00 322.05 3165.89
   06:05:41.001.24-Mar-2020 4533.01 4450.75 82.61 4.00 322.25 3165.89
   06:05:41.201.24-Mar-2020 4533.01 4450.74 82.61 4.00 322.45 3165.89
   06:05:41.401.24-Mar-2020 4533.01 4450.71 82.61 4.00 322.65 3165.89
   06:05:41.601.24-Mar-2020 4533.01 4450.73 82.61 4.00 322.85 3165.89
   06:05:41.801.24-Mar-2020 4533.01 4450.70 82.61 4.00 323.05 3165.89
   06:05:42.001.24-Mar-2020 4533.01 4450.70 82.61 4.00 323.25 3165.89
   06:05:42.201.24-Mar-2020 4533.01 4450.70 82.60 4.00 323.45 3165.89
   06:05:42.401.24-Mar-2020 4533.01 4450.71 82.60 4.00 323.65 3165.89
   06:05:42.601.24-Mar-2020 4533.01 4450.70 82.60 4.00 323.85 3165.89
   06:05:42.801.24-Mar-2020 4533.01 4450.72 82.60 4.00 324.05 3165.89
   06:05:43.001.24-Mar-2020 4533.01 4450.72 82.60 4.00 324.25 3165.89
   06:05:43.201.24-Mar-2020 4533.01 4450.79 82.60 4.00 324.45 3165.89
   06:05:43.401.24-Mar-2020 4533.01 4450.71 82.60 4.00 324.65 3165.89
   06:05:43.601.24-Mar-2020 4533.01 4450.73 82.60 4.00 324.85 3165.89
   06:05:43.801.24-Mar-2020 4533.01 4450.65 82.60 4.00 325.05 3165.89
   06:05:44.001.24-Mar-2020 4533.01 4450.65 82.60 4.00 325.25 3165.89
   06:05:44.201.24-Mar-2020 4533.01 4450.71 82.60 4.00 325.45 3165.89
   06:05:44.401.24-Mar-2020 4533.01 4450.73 82.60 4.00 325.65 3165.89
   06:05:44.601.24-Mar-2020 4533.01 4450.73 82.60 4.00 325.85 3165.89
   06:05:44.802.24-Mar-2020 4533.01 4450.67 82.60 4.00 326.05 3165.89
   06:05:45.002.24-Mar-2020 4533.01 4450.67 82.60 4.00 326.25 3165.89
   06:05:45.202.24-Mar-2020 4533.01 4450.75 82.60 4.00 326.45 3165.89
   06:05:45.402.24-Mar-2020 4533.01 4450.72 82.60 4.00 326.65 3165.89
   06:05:45.602.24-Mar-2020 4533.01 4450.67 82.60 4.00 326.85 3165.89
   06:05:45.802.24-Mar-2020 4533.01 4450.77 82.60 4.00 327.05 3165.89
   06:05:46.002.24-Mar-2020 4533.01 4450.77 82.60 4.00 327.25 3165.89
   06:05:46.202.24-Mar-2020 4533.01 4450.73 82.59 4.00 327.45 3165.89
   06:05:46.402.24-Mar-2020 4533.01 4450.73 82.59 4.00 327.65 3165.89
   06:05:46.602.24-Mar-2020 4533.01 4450.72 82.59 4.00 327.85 3165.89
   06:05:46.802.24-Mar-2020 4533.01 4450.71 82.59 4.00 328.05 3165.89
   06:05:47.002.24-Mar-2020 4533.01 4450.71 82.59 4.00 328.25 3165.89
   06:05:47.202.24-Mar-2020 4533.01 4450.69 82.59 4.00 328.45 3165.89
   06:05:47.402.24-Mar-2020 4533.01 4450.69 82.59 4.00 328.65 3165.89
   06:05:47.602.24-Mar-2020 4533.01 4450.74 82.59 4.00 328.85 3165.89
   06:05:47.802.24-Mar-2020 4533.01 4450.71 82.59 4.00 329.05 3165.89
   06:05:48.002.24-Mar-2020 4533.01 4450.71 82.59 4.00 329.25 3165.89
   06:05:48.202.24-Mar-2020 4533.01 4450.73 82.59 4.00 329.45 3165.89
   06:05:48.402.24-Mar-2020 4533.01 4450.70 82.59 4.00 329.65 3165.89
   06:05:48.602.24-Mar-2020 4533.01 4450.72 82.59 4.00 329.85 3165.89
   06:05:48.802.24-Mar-2020 4533.01 4450.69 82.59 4.00 330.05 3165.89
   06:05:49.002.24-Mar-2020 4533.01 4450.69 82.59 4.00 330.25 3165.89
   06:05:49.202.24-Mar-2020 4533.01 4450.70 82.59 4.00 330.46 3165.89
   06:05:49.402.24-Mar-2020 4533.01 4450.69 82.59 4.00 330.66 3165.89
   06:05:49.602.24-Mar-2020 4533.01 4450.71 82.59 4.00 330.86 3165.89
   06:05:49.802.24-Mar-2020 4533.01 4450.70 82.58 4.00 331.06 3165.89
   06:05:50.002.24-Mar-2020 4533.01 4450.70 82.58 4.00 331.26 3165.89
   06:05:50.202.24-Mar-2020 4533.01 4450.64 82.58 4.00 331.46 3165.89
   06:05:50.402.24-Mar-2020 4533.01 4450.76 82.58 4.00 331.66 3165.89
   06:05:50.602.24-Mar-2020 4533.01 4450.73 82.58 4.00 331.86 3165.89
   06:05:50.803.24-Mar-2020 4533.01 4450.72 82.58 4.00 332.06 3165.89
   06:05:51.003.24-Mar-2020 4533.01 4450.72 82.58 4.00 332.26 3165.89
   06:05:51.203.24-Mar-2020 4533.01 4450.78 82.58 4.00 332.46 3165.89
   06:05:51.403.24-Mar-2020 4533.01 4450.73 82.58 4.00 332.66 3165.89
   06:05:51.603.24-Mar-2020 4533.01 4450.72 82.58 4.00 332.86 3165.89
   06:05:51.803.24-Mar-2020 4533.01 4450.71 82.58 4.00 333.06 3165.89
   06:05:52.003.24-Mar-2020 4533.01 4450.71 82.58 4.00 333.26 3165.89
   06:05:52.203.24-Mar-2020 4533.01 4450.69 82.58 4.00 333.46 3165.89
   06:05:52.403.24-Mar-2020 4533.01 4450.77 82.58 4.00 333.66 3165.89
   06:05:52.603.24-Mar-2020 4533.01 4450.70 82.58 4.00 333.86 3165.89
   06:05:52.803.24-Mar-2020 4533.01 4450.68 82.58 4.00 334.06 3165.89
   06:05:53.003.24-Mar-2020 4533.01 4450.68 82.58 4.00 334.26 3165.89
   06:05:53.203.24-Mar-2020 4533.01 4450.75 82.58 4.00 334.46 3165.89
   06:05:53.403.24-Mar-2020 4533.01 4450.70 82.58 4.00 334.66 3165.89
   06:05:53.603.24-Mar-2020 4533.01 4450.74 82.57 4.00 334.86 3165.89
   06:05:53.803.24-Mar-2020 4533.01 4450.70 82.57 4.00 335.06 3165.89
   06:05:54.003.24-Mar-2020 4533.01 4450.70 82.57 4.00 335.26 3165.89
   06:05:54.203.24-Mar-2020 4533.01 4450.71 82.57 4.00 335.46 3165.89
   06:05:54.403.24-Mar-2020 4533.01 4450.71 82.57 4.00 335.66 3165.89
   06:05:54.603.24-Mar-2020 4533.01 4450.63 82.57 4.00 335.86 3165.89
   06:05:54.803.24-Mar-2020 4533.01 4450.76 82.57 4.00 336.06 3165.89
   06:05:55.003.24-Mar-2020 4533.01 4450.76 82.57 4.00 336.26 3165.89
   06:05:55.203.24-Mar-2020 4533.01 4450.71 82.57 4.00 336.46 3165.89
   06:05:55.403.24-Mar-2020 4533.01 4450.71 82.57 4.00 336.66 3165.89
   06:05:55.603.24-Mar-2020 4533.01 4450.69 82.57 4.00 336.86 3165.89
   06:05:55.803.24-Mar-2020 4533.01 4450.71 82.57 4.00 337.06 3165.89
   06:05:56.003.24-Mar-2020 4533.01 4450.71 82.57 4.00 337.26 3165.89
   06:05:56.203.24-Mar-2020 4533.01 4450.72 82.57 4.00 337.46 3165.89
   06:05:56.403.24-Mar-2020 4533.01 4450.68 82.57 4.00 337.66 3165.89
   06:05:56.603.24-Mar-2020 4533.01 4450.72 82.57 4.00 337.86 3165.89
   06:05:56.804.24-Mar-2020 4533.01 4450.67 82.57 4.00 338.06 3165.89
   06:05:57.004.24-Mar-2020 4533.01 4450.67 82.57 4.00 338.26 3165.89
   06:05:57.204.24-Mar-2020 4533.01 4450.68 82.56 4.00 338.46 3165.89
   06:05:57.404.24-Mar-2020 4533.01 4450.66 82.56 4.00 338.66 3165.89
   06:05:57.604.24-Mar-2020 4533.01 4450.72 82.56 4.00 338.86 3165.89
   06:05:57.804.24-Mar-2020 4533.01 4450.73 82.56 4.00 339.06 3165.89
   06:05:58.004.24-Mar-2020 4533.01 4450.73 82.56 4.00 339.26 3165.89
   06:05:58.204.24-Mar-2020 4533.01 4450.68 82.56 4.00 339.46 3165.89
   06:05:58.404.24-Mar-2020 4533.01 4450.72 82.56 4.00 339.66 3165.89
   06:05:58.604.24-Mar-2020 4533.01 4450.73 82.56 4.00 339.86 3165.89
   06:05:58.804.24-Mar-2020 4533.01 4450.70 82.56 4.00 340.06 3165.89
   06:05:59.004.24-Mar-2020 4533.01 4450.70 82.56 4.00 340.26 3165.89
   06:05:59.204.24-Mar-2020 4533.01 4450.73 82.56 4.00 340.46 3165.89
   06:05:59.404.24-Mar-2020 4533.01 4450.68 82.56 4.00 340.66 3165.89
   06:05:59.604.24-Mar-2020 4533.01 4450.73 82.56 4.00 340.86 3165.89
   06:05:59.804.24-Mar-2020 4533.01 4450.69 82.56 4.00 341.06 3165.89
   06:06:00.004.24-Mar-2020 4533.01 4450.69 82.56 4.00 341.26 3165.89
   06:06:00.204.24-Mar-2020 4533.01 4450.69 82.56 4.00 341.46 3165.89
   06:06:00.404.24-Mar-2020 4533.01 4450.74 82.56 4.00 341.66 3165.89
   06:06:00.604.24-Mar-2020 4533.01 4450.68 82.56 4.00 341.86 3165.89
   06:06:00.804.24-Mar-2020 4533.01 4450.72 82.56 4.00 342.06 3165.89
   06:06:01.004.24-Mar-2020 4533.01 4450.72 82.55 4.00 342.26 3165.89
   06:06:01.204.24-Mar-2020 4533.01 4450.71 82.55 4.00 342.46 3165.89
   06:06:01.404.24-Mar-2020 4533.01 4450.68 82.55 4.00 342.66 3165.89
   06:06:01.604.24-Mar-2020 4533.01 4450.71 82.55 4.00 342.86 3165.89
   06:06:01.804.24-Mar-2020 4533.01 4450.61 82.55 4.00 343.06 3165.89
   06:06:02.004.24-Mar-2020 4533.01 4450.61 82.55 4.00 343.26 3165.89
   06:06:02.204.24-Mar-2020 4533.01 4450.69 82.55 4.00 343.46 3165.89
   06:06:02.404.24-Mar-2020 4533.01 4450.71 82.55 4.00 343.66 3165.89
   06:06:02.604.24-Mar-2020 4533.01 4450.69 82.55 4.00 343.86 3165.89
   06:06:02.805.24-Mar-2020 4533.01 4450.71 82.55 4.00 344.06 3165.89
   06:06:03.005.24-Mar-2020 4533.01 4450.67 82.55 4.00 344.26 3165.89
   06:06:03.205.24-Mar-2020 4533.01 4450.70 82.55 4.00 344.46 3165.89
   06:06:03.405.24-Mar-2020 4533.01 4450.67 82.55 4.00 344.66 3165.89
   06:06:03.605.24-Mar-2020 4533.01 4450.70 82.55 4.00 344.86 3165.89
