~Version Information
 VERS.                  2.0:   CWLS log ASCII Standard -VERSION 2.0
 WRAP.                   NO:   One line per depth step
~Well Information Block
#MNEM.UNIT     VALUE/NAME     DESCRIPTION
#---------     -----------    ---------------------------
 STRT.S             00:58:12 24-Mar-20: START TIME 00:58:12 24-Mar-20
 STOP.S             01:04:43 24-Mar-20: STOP TIME  01:04:43 24-Mar-20
 STEP.S                   0.00: STEP TIME
 NULL.                 -999.25: NULL VALUE
 DFWT.                        :  DIST FWL TEXT
 DFST.                        :  DIST FSL TEXT
 DMF .             Drill Floor:  DRILL MEAS FROM
 STIM.      22.30.00 15-Feb-20:  START TIME
 DATE.      17.00.00 25-Mar-20:  END TIME
 SPUD.               15-Feb-20:  SPUD DATE
 NREF.                    Grid:  NORTH REFERENCE
 HPTY.       Minimum Curvature:  HOLE POS TYPE
 DMOD.             Drill Model:  DRILL MOD DESC
 SVYD.                  Survey:  SURVEY DESC
 ILTD.               Lithology:  INTERP LTH DESC
 FTOP.          Formation Tops:  FORM TOPS DESC
 SON .        AZ-XX-0906019077:  JOB NUMBER
 PDAT.          Mean Sea Level:  PERMANENT DATUM
 WTYP.                Deviated:  WELL TYPE
 MDS .        Operator Entered:  MAG DATA SOURCE
 COMP.     BP Exploration (Caspian sea) Ltd.:  COMPANY
 UWI .                     N/A:  UNIQUE WELL IDENTIFIER
 API .                     N/A:  API NUMBER
 BASE.              Azerbaijan:  LOGGING EQUIPMENT BASE LOCATION
 REGN.                   EESSA:  REGION
 PROV.                     N/A:  PROVINCE
 STAT.                     N/A:  STATE NAME
 CTRY.              Azerbaijan:  COUNTRY NAME
 FLD .                     ACG:  FIELD NAME
 SRVC.          Turan Drilling:  CONTRACTOR
 MWDS.                    Baku:  MWD SHOP
 WELL.                    E16W:  WELL NAME
 JOBN.        AZ-XX-0906019077:  JOB TICKET NUMB
 RIG .                     DWG:  RIG NAME
 CNTY.                     N/A:  COUNTY NAME
 DCON.         Sperry Drilling:  DIRECTNL CONTR
 UNIT.                     N/A:  LOGGING EQUIPMENT ID
 LOC .                        :  LOCATION
 LMF .             Drill Floor:  LOG MEASURED FROM
 TVDS.m                  43.16:  TVDSS CORRECTN
 LATI.deg                40.17:  LATITUDE
 LONG.deg                51.17:  LONGITUDE
 WHNS.m                 -15.30:  WELL HEAD N/S
 WHEW.m                  -1.29:  WELL HEAD E/W
 UTMX.m              514337.95:  UTM X
 UTMY.m             4448627.46:  UTM Y
 DFWL.m                   0.00:  DISTANCE FWL
 DFSL.m                   0.00:  DISTANCE FSL
 SDEP.m                3499.01:  START DEPTH
 TDD .m                4606.01:  TOTAL DEPTH (DRILLER)
 VSDR.deg               151.14:  VERT SEC DIRECT
 GVFD.g                   1.00:  GRAVITY FIELD
 MFLD.nT              50334.00:  MAGNETIC FIELD
 MDIP.deg                59.62:  MAGNETIC DIP
 MDEC.deg                 6.46:  MAGNETIC DECL
 GRDC.deg                 0.12:  GRID CORRECTION
 AZTC.deg                 6.34:  AZM TOTAL CORR
 EPD .m                   0.00:  ELEVATION
 EGL .m                   0.00:  GROUND ELEVATION
 WDMS.m                 176.20:  WD ELEV
 APD .m                  43.16:  DEPTH ABOVE PD
 VSEW.m                  -1.29:  VERT SEC E/W
 VSNS.m                 -15.30:  VERT SEC N/S
 AGAP.m                  43.16:  AIR GAP
 EKB .m                   0.00:  KB ELEVATION
 EDF .m                  43.16:  DF ELEVATION
 TDL .m                 103.00:  TOTAL DEPTH (LOGGER)
 VSC .                       0:  VS TO CLOSURE
 MAGU.                 1852525:  MAGUTM CHECKSUM
~Parameter Information Block
#MNEM.UNIT       Value        Description
#---------     -----------    ---------------------------
 AV  .mps                 1.01:  Ann Velocity 
 AVMX.mps                 1.32:  Max Ann Veloc 
 AZIF.deg               140.63:  Azm, Final 
 BHAT.        Rotary Steerable:  BHA Type 
 BREV.rev            151000.00:  Rev Bit Total 
 BROT.°/30m               0.65:  Build Rotating 
 BS  .in                  6.50:  Bit Size 
 BSZ .in                  6.50:  Bit Size 
 BTPL.psig              222.00:  Bit Press Loss 
 CABU.                      No:  Customer Abuse 
 CGEO.           Emin Aliyarov:  Customer Geo 
 COMM.                     lx{:  Run Comments 1 
 TCS .hr                 22.89:  Time Ciculation Ended 
 CV  .mps                 2.20:  Crit Velocity 
 CVMX.mps                 3.04:  Max Crit Veloc 
 DD1 .         Intigam Rahimov:  Direct Drillr 1 
 DDSV.               Geo-Pilot:  DD Service 
 DEFF.%                  91.50:  % Det Eff 
 DLRX.°/30m               1.15:  Dogleg Rot Max 
 DLSO.°/30m               0.86:  Dogleg Oriented 
 DLSX.°/30m               1.15:  Dogleg Str Max 
 DRET.      13.10.00 24-Mar-20:  Drill End Time 
 DRST.      17.00.00 23-Mar-20:  Drill Start Tim 
 DTIM.hr                 11.87:  Time Drilling 
 EDEP.m                4606.01:  End Depth 
 ENG1.          Rasim Hashimov:  Engineer 1 
 ENG2.            Alan Tuganov:  Engineer 2 
 ENG3.         Yevgeniy Ulikov:  Engineer 3 
 ETIM.      16.00.00 25-Mar-20:  End Time 
 FLOI.gpm               400.00:  Flow In 
 FLON.gpm               350.00:  Flow In Min 
 FLOS.cptm                0.00:  Fluid Loss 
 FLOX.gpm               400.00:  Flow In Max 
 FTRO.       Formation Presure:  FTWD Run Obj 
 HFLO.                      No:  High Flow 
 HPRE.                      No:  High Pressure 
 HTEM.                      No:  High Temp 
 HYDO.m                   1.80:  Hydro Offset 
 IFIN.deg                79.55:  Inc, Final 
 IMAX.deg                79.55:  Inc Max 
 IMIN.deg                78.04:  Inc Min 
 IMND.m                4502.50:  Inc Min Depth 
 IMXD.m                4587.87:  Inc Max Depth 
 JARR.                      No:  Jarring 
 LETM.      13.10.00 24-Mar-20:  Log End Time 
 LOST.hr                     0:  Lost Rig Time 
 LSTM.      17.00.00 23-Mar-20:  Log Start Time 
 MDCL.ppm             39000.00:  Mud Chlorides 
 MDES.     Inversion Oil/Synthetic:  Mud Desc 
 DFD .sg                  1.40:  Mud Density 
 MDMN.sg                  1.40:  Dens Mud Min 
 MDMX.sg                  1.40:  Dens Mud Max 
 MOIL.                    55.2:  Run Mud Oil % 
 MOWR.                   68:32:  Run Mud OWR 
 MSND.                     0.1:  Run Mud Sand % 
 MSOL.                    17.8:  Run Mud Solids% 
 DFV .spqt               76.00:  Mud Viscosity 
 MWOD.in                  4.75:  MWD Tool OD 
 MWSI.                      No:  Serv Intrp, MWD 
 OTIM.hr                 64.35:  Time Operating 
 PCON.           Look Like New:  Pad Condition 
 PMAX.psia             5350.00:  Press Op, Max 
 PV  .cP                 26.00:  Mud PV 
 RUN .                     900:  Run Number 
 ROPA.m/hr                9.00:  ROP Avg 
 ROPN.m/hr                7.00:  ROP Min 
 ROPX.m/hr               13.00:  ROP Max 
 RPMA.rpm               140.00:  RPM Surface Avg 
 RPMN.rpm               140.00:  RPM Surface Min 
 RPMX.rpm               140.00:  RPM Surface Max 
 RRUN.                    L204:  Rig Run Number 
 RTIM.hr                  4.50:  Time Reaming 
 SAZI.deg               141.40:  Azm, Start 
 SDEP.m                4503.01:  Start Depth 
 SIDD.                      No:  Serv Intrp, DD 
 SINC.deg                78.04:  Inc, Start 
 SPPA.psig             5300.00:  SPP Avg 
 SPPN.psig             5100.00:  SPP Min 
 SPPX.psig             5500.00:  SPP Max 
 STIM.      18.00.00 22-Mar-20:  Start Time 
 SVCS.                 DD, MWD:  Services 
 SVER.                    9.20:  Sperry Version 
 TDAT.m                 103.00:  Tot Depth Attmp 
 TDDF.                      No:  Trip for DD 
 TDLG.m                 103.00:  Tot Depth Loggd 
 TFF .                      No:  Trip for Fail 
 TQAA.f-kp               14.00:  Torque Abs Avg 
 TQAN.f-kp               12.00:  Torque Abs Min 
 TQAX.f-kp               16.00:  Torque Abs Max 
 TRRT.°/30m               0.45:  Turn Rotating 
 MRT .                    HCIM:  Maximum Recorded Temperature 
 TTMX.degC               90.20:  Max Tool Temp 
 VS01.         90577859G12V7D4:  Virtual Str1 SN 
 VS02.            90519330D5C4:  Virtual Str2 SN 
 VS03.             90603450F11:  Virtual Str3 SN 
 VS04.           90515383R12C4:  Virtual Str4 SN 
 VS05.          90522017N2L2C4:  Virtual Str5 SN 
 VS06.            90512682Z1W1:  Virtual Str6 SN 
 WBMN.klb                 5.00:  WOB Min 
 WITN.        Elmaddin Rahimov:  Customer Rep 
 WITN.           Adil Mammadov:  Customer Rep 2 
 WOBA.klb                 8.00:  WOB Avg 
 WOBX.klb                13.00:  WOB Max 
 YP  .lhf2               31.00:  Yield Point 
~Curve Information Block
#MNEM.UNIT                 API CODE     Curve Description
#---------               -----------    ---------------------------
 TIME.HHMMSS            00 000 000 000:  GT Time & Date
 GTDEPTH.m              00 000 000 000:  GT Depth
 GTPQH.psia             00 000 000 000:  GT HR Quartz Pressure
 GTTQ.degC              00 000 000 000:  GT Quartz Temperature
 GTTN.NONE              00 000 000 000:  GT Test Number
 GTET.sec               00 000 000 000:  GT Elapsed Test Time
 GTTVD.m                00 000 000 000:  GT True Vertical Depth
#Other Information
#
#WARRANTY: Halliburton will use its best efforts to furnish customers with 
#accurate information and interpretations that are part of, and incident to, the services 
#provided.  However, Halliburton cannot and does not warrant the accuracy 
#or correctness of such information and interpretations.  Under no circumstances should any 
#such information or interpretation be relied upon as the sole basis for any drilling, 
#completion, production, or financial decision or any procedure involving any risk to the 
#safety of any drilling venture, drilling rig or its crew or any other third party.  The 
#Customer has full responsibility for all drilling, completion and production operation.  
#Halliburton makes no representations or warranties, either expressed or 
#implied, including, but not limited to, the implied warranties of merchantability or fitness 
#for a particular purpose, with respect to the services rendered.  In no event will 
#Halliburton be liable for failure to obtain any particular results or for 
#any damages, including, but not limited to, indirect, special or consequential damages, 
#resulting from the use of any information or interpretation provided by Halliburton.
#
~A           TIME           GTDEPTH  GTPQH  GTTQ  GTTN  GTET   GTTVD  
   00:58:12.719.24-Mar-2020 4501.51 6912.90 81.31 2.00   0.00 3159.43
   00:58:12.919.24-Mar-2020 4501.51 6912.90 81.31 2.00   0.20 3159.43
   00:58:13.119.24-Mar-2020 4501.51 6912.61 81.31 2.00   0.40 3159.43
   00:58:13.319.24-Mar-2020 4501.51 6910.92 81.31 2.00   0.60 3159.43
   00:58:13.519.24-Mar-2020 4501.51 6910.32 81.31 2.00   0.80 3159.43
   00:58:13.719.24-Mar-2020 4501.51 6907.64 81.31 2.00   1.00 3159.43
   00:58:13.919.24-Mar-2020 4501.51 6907.64 81.31 2.00   1.20 3159.43
   00:58:14.119.24-Mar-2020 4501.51 6902.08 81.30 2.00   1.40 3159.43
   00:58:14.319.24-Mar-2020 4501.51 6905.65 81.30 2.00   1.60 3159.43
   00:58:14.519.24-Mar-2020 4501.51 6897.23 81.30 2.00   1.80 3159.43
   00:58:14.719.24-Mar-2020 4501.51 6900.50 81.30 2.00   2.00 3159.43
   00:58:14.919.24-Mar-2020 4501.51 6900.50 81.30 2.00   2.20 3159.43
   00:58:15.119.24-Mar-2020 4501.51 6899.29 81.30 2.00   2.40 3159.43
   00:58:15.319.24-Mar-2020 4501.51 6892.73 81.30 2.00   2.60 3159.43
   00:58:15.519.24-Mar-2020 4501.51 6899.89 81.30 2.00   2.80 3159.43
   00:58:15.719.24-Mar-2020 4501.51 6898.43 81.30 2.00   3.00 3159.43
   00:58:15.920.24-Mar-2020 4501.51 6898.43 81.30 2.00   3.20 3159.43
   00:58:16.120.24-Mar-2020 4501.51 6896.08 81.29 2.00   3.40 3159.43
   00:58:16.320.24-Mar-2020 4501.51 6901.69 81.29 2.00   3.60 3159.43
   00:58:16.520.24-Mar-2020 4501.51 6900.57 81.29 2.00   3.80 3159.43
   00:58:16.720.24-Mar-2020 4501.51 6902.77 81.29 2.00   4.00 3159.43
   00:58:16.920.24-Mar-2020 4501.51 6902.77 81.29 2.00   4.20 3159.43
   00:58:17.120.24-Mar-2020 4501.51 6900.44 81.29 2.00   4.40 3159.43
   00:58:17.320.24-Mar-2020 4501.51 6903.19 81.29 2.00   4.60 3159.43
   00:58:17.520.24-Mar-2020 4501.51 6904.17 81.29 2.00   4.80 3159.43
   00:58:17.720.24-Mar-2020 4501.51 6903.82 81.29 2.00   5.00 3159.43
   00:58:17.920.24-Mar-2020 4501.51 6903.82 81.29 2.00   5.20 3159.43
   00:58:18.120.24-Mar-2020 4501.51 6905.67 81.28 2.00   5.40 3159.43
   00:58:18.320.24-Mar-2020 4501.51 6905.67 81.28 2.00   5.60 3159.43
   00:58:18.520.24-Mar-2020 4501.51 6906.30 81.28 2.00   5.80 3159.43
   00:58:18.720.24-Mar-2020 4501.51 6905.98 81.28 2.00   6.00 3159.43
   00:58:18.920.24-Mar-2020 4501.51 6905.98 81.28 2.00   6.20 3159.43
   00:58:19.120.24-Mar-2020 4501.51 6904.40 81.28 2.00   6.40 3159.43
   00:58:19.320.24-Mar-2020 4501.51 6906.08 81.28 2.00   6.60 3159.43
   00:58:19.520.24-Mar-2020 4501.51 6904.70 81.28 2.00   6.80 3159.43
   00:58:19.720.24-Mar-2020 4501.51 6906.38 81.27 2.00   7.00 3159.43
   00:58:19.920.24-Mar-2020 4501.51 6906.38 81.27 2.00   7.20 3159.43
   00:58:20.120.24-Mar-2020 4501.51 6901.54 81.27 2.00   7.40 3159.43
   00:58:20.320.24-Mar-2020 4501.51 6898.14 81.27 2.00   7.60 3159.43
   00:58:20.520.24-Mar-2020 4501.51 6904.22 81.27 2.00   7.80 3159.43
   00:58:20.720.24-Mar-2020 4501.51 6902.61 81.27 2.00   8.00 3159.43
   00:58:20.920.24-Mar-2020 4501.51 6903.39 81.27 2.00   8.20 3159.43
   00:58:21.120.24-Mar-2020 4501.51 6902.57 81.27 2.00   8.40 3159.43
   00:58:21.320.24-Mar-2020 4501.51 6903.89 81.27 2.00   8.60 3159.43
   00:58:21.520.24-Mar-2020 4501.51 6902.56 81.27 2.00   8.80 3159.43
   00:58:21.721.24-Mar-2020 4501.51 6903.63 81.26 2.00   9.00 3159.43
   00:58:21.921.24-Mar-2020 4501.51 6903.63 81.26 2.00   9.20 3159.43
   00:58:22.121.24-Mar-2020 4501.51 6902.82 81.26 2.00   9.40 3159.43
   00:58:22.321.24-Mar-2020 4501.51 6903.25 81.26 2.00   9.60 3159.43
   00:58:22.521.24-Mar-2020 4501.51 6903.31 81.26 2.00   9.80 3159.43
   00:58:22.721.24-Mar-2020 4501.51 6903.44 81.26 2.00  10.00 3159.43
   00:58:22.921.24-Mar-2020 4501.51 6903.44 81.26 2.00  10.20 3159.43
   00:58:23.121.24-Mar-2020 4501.51 6897.39 81.26 2.00  10.40 3159.43
   00:58:23.321.24-Mar-2020 4501.51 6898.87 81.26 2.00  10.60 3159.43
   00:58:23.521.24-Mar-2020 4501.51 6903.45 81.25 2.00  10.80 3159.43
   00:58:23.721.24-Mar-2020 4501.51 6902.29 81.25 2.00  11.00 3159.43
   00:58:23.921.24-Mar-2020 4501.51 6902.29 81.25 2.00  11.20 3159.43
   00:58:24.121.24-Mar-2020 4501.51 6899.32 81.25 2.00  11.40 3159.43
   00:58:24.321.24-Mar-2020 4501.51 6902.17 81.25 2.00  11.60 3159.43
   00:58:24.521.24-Mar-2020 4501.51 6905.06 81.25 2.00  11.80 3159.43
   00:58:24.721.24-Mar-2020 4501.51 6903.76 81.25 2.00  12.00 3159.43
   00:58:24.921.24-Mar-2020 4501.51 6902.08 81.25 2.00  12.20 3159.43
   00:58:25.121.24-Mar-2020 4501.51 6903.66 81.25 2.00  12.40 3159.43
   00:58:25.321.24-Mar-2020 4501.51 6903.94 81.25 2.00  12.60 3159.43
   00:58:25.521.24-Mar-2020 4501.51 6906.17 81.24 2.00  12.80 3159.43
   00:58:25.721.24-Mar-2020 4501.51 6903.39 81.24 2.00  13.00 3159.43
   00:58:25.921.24-Mar-2020 4501.51 6903.39 81.24 2.00  13.20 3159.43
   00:58:26.121.24-Mar-2020 4501.51 6902.55 81.24 2.00  13.40 3159.43
   00:58:26.321.24-Mar-2020 4501.51 6902.68 81.24 2.00  13.60 3159.43
   00:58:26.521.24-Mar-2020 4501.51 6905.78 81.24 2.00  13.80 3159.43
   00:58:26.721.24-Mar-2020 4501.51 6907.62 81.24 2.00  14.00 3159.43
   00:58:26.921.24-Mar-2020 4501.51 6907.62 81.24 2.00  14.20 3159.43
   00:58:27.121.24-Mar-2020 4501.51 6902.96 81.24 2.00  14.40 3159.43
   00:58:27.322.24-Mar-2020 4501.51 6900.35 81.23 2.00  14.60 3159.43
   00:58:27.522.24-Mar-2020 4501.51 6905.74 81.23 2.00  14.80 3159.43
   00:58:27.722.24-Mar-2020 4501.51 6905.68 81.23 2.00  15.00 3159.43
   00:58:27.922.24-Mar-2020 4501.51 6905.68 81.23 2.00  15.20 3159.43
   00:58:28.122.24-Mar-2020 4501.51 6905.68 81.23 2.00  15.40 3159.43
   00:58:28.322.24-Mar-2020 4501.51 6906.03 81.23 2.00  15.60 3159.43
   00:58:28.522.24-Mar-2020 4501.51 6905.93 81.23 2.00  15.80 3159.43
   00:58:28.722.24-Mar-2020 4501.51 6907.62 81.24 2.00  16.00 3159.43
   00:58:28.922.24-Mar-2020 4501.51 6905.49 81.23 2.00  16.20 3159.43
   00:58:29.122.24-Mar-2020 4501.51 6905.49 81.23 2.00  16.40 3159.43
   00:58:29.322.24-Mar-2020 4501.51 6905.49 81.23 2.00  16.60 3159.43
   00:58:29.522.24-Mar-2020 4501.51 6905.62 81.22 2.00  16.80 3159.43
   00:58:29.722.24-Mar-2020 4501.51 6908.11 81.22 2.00  17.00 3159.43
   00:58:29.922.24-Mar-2020 4501.51 6908.11 81.22 2.00  17.20 3159.43
   00:58:30.122.24-Mar-2020 4501.51 6907.68 81.22 2.00  17.40 3159.43
   00:58:30.322.24-Mar-2020 4501.51 6906.31 81.22 2.00  17.60 3159.43
   00:58:30.522.24-Mar-2020 4501.51 6907.42 81.22 2.00  17.80 3159.43
   00:58:30.722.24-Mar-2020 4501.51 6904.70 81.22 2.00  18.00 3159.43
   00:58:30.922.24-Mar-2020 4501.51 6904.70 81.22 2.00  18.20 3159.43
   00:58:31.122.24-Mar-2020 4501.51 6947.00 81.21 2.00  18.40 3159.43
   00:58:31.322.24-Mar-2020 4501.51 7001.25 81.21 2.00  18.60 3159.43
   00:58:31.522.24-Mar-2020 4501.51 7080.89 81.21 2.00  18.80 3159.43
   00:58:31.722.24-Mar-2020 4501.51 7162.07 81.21 2.00  19.00 3159.43
   00:58:31.922.24-Mar-2020 4501.51 7162.07 81.21 2.00  19.20 3159.43
   00:58:32.122.24-Mar-2020 4501.51 7322.17 81.21 2.00  19.40 3159.43
   00:58:32.322.24-Mar-2020 4501.51 7420.67 81.21 2.00  19.60 3159.43
   00:58:32.522.24-Mar-2020 4501.51 7519.94 81.21 2.00  19.80 3159.43
   00:58:32.722.24-Mar-2020 4501.51 7635.30 81.21 2.00  20.00 3159.43
   00:58:32.922.24-Mar-2020 4501.51 7635.30 81.21 2.00  20.20 3159.43
   00:58:33.123.24-Mar-2020 4501.51 7735.58 81.20 2.00  20.40 3159.43
   00:58:33.323.24-Mar-2020 4501.51 7744.26 81.20 2.00  20.60 3159.43
   00:58:33.523.24-Mar-2020 4501.51 7649.76 81.20 2.00  20.80 3159.43
   00:58:33.723.24-Mar-2020 4501.51 7697.24 81.20 2.00  21.00 3159.43
   00:58:33.923.24-Mar-2020 4501.51 7697.24 81.20 2.00  21.20 3159.43
   00:58:34.123.24-Mar-2020 4501.51 7682.44 81.20 2.00  21.40 3159.43
   00:58:34.323.24-Mar-2020 4501.51 7713.88 81.20 2.00  21.60 3159.43
   00:58:34.523.24-Mar-2020 4501.51 7751.06 81.20 2.00  21.80 3159.43
   00:58:34.723.24-Mar-2020 4501.51 7818.62 81.20 2.00  22.00 3159.43
   00:58:34.923.24-Mar-2020 4501.51 7818.62 81.20 2.00  22.20 3159.43
   00:58:35.123.24-Mar-2020 4501.51 7930.75 81.20 2.00  22.40 3159.43
   00:58:35.323.24-Mar-2020 4501.51 7606.78 81.19 2.00  22.60 3159.43
   00:58:35.523.24-Mar-2020 4501.51 7607.10 81.19 2.00  22.80 3159.43
