~Version Information
 VERS.                  2.0:   CWLS log ASCII Standard -VERSION 2.0
 WRAP.                   NO:   One line per depth step
~Well Information Block
#MNEM.UNIT     VALUE/NAME     DESCRIPTION
#---------     -----------    ---------------------------
 STRT.S             10:10:38 24-Mar-20: START TIME 10:10:38 24-Mar-20
 STOP.S             10:17:07 24-Mar-20: STOP TIME  10:17:07 24-Mar-20
 STEP.S                   0.00: STEP TIME
 NULL.                 -999.25: NULL VALUE
 DFWT.                        :  DIST FWL TEXT
 DFST.                        :  DIST FSL TEXT
 DMF .             Drill Floor:  DRILL MEAS FROM
 STIM.      22.30.00 15-Feb-20:  START TIME
 DATE.      17.00.00 25-Mar-20:  END TIME
 SPUD.               15-Feb-20:  SPUD DATE
 NREF.                    Grid:  NORTH REFERENCE
 HPTY.       Minimum Curvature:  HOLE POS TYPE
 DMOD.             Drill Model:  DRILL MOD DESC
 SVYD.                  Survey:  SURVEY DESC
 ILTD.               Lithology:  INTERP LTH DESC
 FTOP.          Formation Tops:  FORM TOPS DESC
 SON .        AZ-XX-0906019077:  JOB NUMBER
 PDAT.          Mean Sea Level:  PERMANENT DATUM
 WTYP.                Deviated:  WELL TYPE
 MDS .        Operator Entered:  MAG DATA SOURCE
 COMP.     BP Exploration (Caspian sea) Ltd.:  COMPANY
 UWI .                     N/A:  UNIQUE WELL IDENTIFIER
 API .                     N/A:  API NUMBER
 BASE.              Azerbaijan:  LOGGING EQUIPMENT BASE LOCATION
 REGN.                   EESSA:  REGION
 PROV.                     N/A:  PROVINCE
 STAT.                     N/A:  STATE NAME
 CTRY.              Azerbaijan:  COUNTRY NAME
 FLD .                     ACG:  FIELD NAME
 SRVC.          Turan Drilling:  CONTRACTOR
 MWDS.                    Baku:  MWD SHOP
 WELL.                    E16W:  WELL NAME
 JOBN.        AZ-XX-0906019077:  JOB TICKET NUMB
 RIG .                     DWG:  RIG NAME
 CNTY.                     N/A:  COUNTY NAME
 DCON.         Sperry Drilling:  DIRECTNL CONTR
 UNIT.                     N/A:  LOGGING EQUIPMENT ID
 LOC .                        :  LOCATION
 LMF .             Drill Floor:  LOG MEASURED FROM
 TVDS.m                  43.16:  TVDSS CORRECTN
 LATI.deg                40.17:  LATITUDE
 LONG.deg                51.17:  LONGITUDE
 WHNS.m                 -15.30:  WELL HEAD N/S
 WHEW.m                  -1.29:  WELL HEAD E/W
 UTMX.m              514337.95:  UTM X
 UTMY.m             4448627.46:  UTM Y
 DFWL.m                   0.00:  DISTANCE FWL
 DFSL.m                   0.00:  DISTANCE FSL
 SDEP.m                3499.01:  START DEPTH
 TDD .m                4606.01:  TOTAL DEPTH (DRILLER)
 VSDR.deg               151.14:  VERT SEC DIRECT
 GVFD.g                   1.00:  GRAVITY FIELD
 MFLD.nT              50334.00:  MAGNETIC FIELD
 MDIP.deg                59.62:  MAGNETIC DIP
 MDEC.deg                 6.46:  MAGNETIC DECL
 GRDC.deg                 0.12:  GRID CORRECTION
 AZTC.deg                 6.34:  AZM TOTAL CORR
 EPD .m                   0.00:  ELEVATION
 EGL .m                   0.00:  GROUND ELEVATION
 WDMS.m                 176.20:  WD ELEV
 APD .m                  43.16:  DEPTH ABOVE PD
 VSEW.m                  -1.29:  VERT SEC E/W
 VSNS.m                 -15.30:  VERT SEC N/S
 AGAP.m                  43.16:  AIR GAP
 EKB .m                   0.00:  KB ELEVATION
 EDF .m                  43.16:  DF ELEVATION
 TDL .m                 103.00:  TOTAL DEPTH (LOGGER)
 VSC .                       0:  VS TO CLOSURE
 MAGU.                 1852525:  MAGUTM CHECKSUM
~Parameter Information Block
#MNEM.UNIT       Value        Description
#---------     -----------    ---------------------------
 AV  .mps                 1.01:  Ann Velocity 
 AVMX.mps                 1.32:  Max Ann Veloc 
 AZIF.deg               140.63:  Azm, Final 
 BHAT.        Rotary Steerable:  BHA Type 
 BREV.rev            151000.00:  Rev Bit Total 
 BROT.°/30m               0.65:  Build Rotating 
 BS  .in                  6.50:  Bit Size 
 BSZ .in                  6.50:  Bit Size 
 BTPL.psig              222.00:  Bit Press Loss 
 CABU.                      No:  Customer Abuse 
 CGEO.           Emin Aliyarov:  Customer Geo 
 COMM.                     ´â}:  Run Comments 1 
 TCS .hr                 22.89:  Time Ciculation Ended 
 CV  .mps                 2.20:  Crit Velocity 
 CVMX.mps                 3.04:  Max Crit Veloc 
 DD1 .         Intigam Rahimov:  Direct Drillr 1 
 DDSV.               Geo-Pilot:  DD Service 
 DEFF.%                  91.50:  % Det Eff 
 DLRX.°/30m               1.15:  Dogleg Rot Max 
 DLSO.°/30m               0.86:  Dogleg Oriented 
 DLSX.°/30m               1.15:  Dogleg Str Max 
 DRET.      13.10.00 24-Mar-20:  Drill End Time 
 DRST.      17.00.00 23-Mar-20:  Drill Start Tim 
 DTIM.hr                 11.87:  Time Drilling 
 EDEP.m                4606.01:  End Depth 
 ENG1.          Rasim Hashimov:  Engineer 1 
 ENG2.            Alan Tuganov:  Engineer 2 
 ENG3.         Yevgeniy Ulikov:  Engineer 3 
 ETIM.      16.00.00 25-Mar-20:  End Time 
 FLOI.gpm               400.00:  Flow In 
 FLON.gpm               350.00:  Flow In Min 
 FLOS.cptm                0.00:  Fluid Loss 
 FLOX.gpm               400.00:  Flow In Max 
 FTRO.       Formation Presure:  FTWD Run Obj 
 HFLO.                      No:  High Flow 
 HPRE.                      No:  High Pressure 
 HTEM.                      No:  High Temp 
 HYDO.m                   1.80:  Hydro Offset 
 IFIN.deg                79.55:  Inc, Final 
 IMAX.deg                79.55:  Inc Max 
 IMIN.deg                78.04:  Inc Min 
 IMND.m                4502.50:  Inc Min Depth 
 IMXD.m                4587.87:  Inc Max Depth 
 JARR.                      No:  Jarring 
 LETM.      13.10.00 24-Mar-20:  Log End Time 
 LOST.hr                     0:  Lost Rig Time 
 LSTM.      17.00.00 23-Mar-20:  Log Start Time 
 MDCL.ppm             39000.00:  Mud Chlorides 
 MDES.     Inversion Oil/Synthetic:  Mud Desc 
 DFD .sg                  1.40:  Mud Density 
 MDMN.sg                  1.40:  Dens Mud Min 
 MDMX.sg                  1.40:  Dens Mud Max 
 MOIL.                    55.2:  Run Mud Oil % 
 MOWR.                   68:32:  Run Mud OWR 
 MSND.                     0.1:  Run Mud Sand % 
 MSOL.                    17.8:  Run Mud Solids% 
 DFV .spqt               76.00:  Mud Viscosity 
 MWOD.in                  4.75:  MWD Tool OD 
 MWSI.                      No:  Serv Intrp, MWD 
 OTIM.hr                 64.35:  Time Operating 
 PCON.           Look Like New:  Pad Condition 
 PMAX.psia             5350.00:  Press Op, Max 
 PV  .cP                 26.00:  Mud PV 
 RUN .                     900:  Run Number 
 ROPA.m/hr                9.00:  ROP Avg 
 ROPN.m/hr                7.00:  ROP Min 
 ROPX.m/hr               13.00:  ROP Max 
 RPMA.rpm               140.00:  RPM Surface Avg 
 RPMN.rpm               140.00:  RPM Surface Min 
 RPMX.rpm               140.00:  RPM Surface Max 
 RRUN.                    L204:  Rig Run Number 
 RTIM.hr                  4.50:  Time Reaming 
 SAZI.deg               141.40:  Azm, Start 
 SDEP.m                4503.01:  Start Depth 
 SIDD.                      No:  Serv Intrp, DD 
 SINC.deg                78.04:  Inc, Start 
 SPPA.psig             5300.00:  SPP Avg 
 SPPN.psig             5100.00:  SPP Min 
 SPPX.psig             5500.00:  SPP Max 
 STIM.      18.00.00 22-Mar-20:  Start Time 
 SVCS.                 DD, MWD:  Services 
 SVER.                    9.20:  Sperry Version 
 TDAT.m                 103.00:  Tot Depth Attmp 
 TDDF.                      No:  Trip for DD 
 TDLG.m                 103.00:  Tot Depth Loggd 
 TFF .                      No:  Trip for Fail 
 TQAA.f-kp               14.00:  Torque Abs Avg 
 TQAN.f-kp               12.00:  Torque Abs Min 
 TQAX.f-kp               16.00:  Torque Abs Max 
 TRRT.°/30m               0.45:  Turn Rotating 
 MRT .                    HCIM:  Maximum Recorded Temperature 
 TTMX.degC               90.20:  Max Tool Temp 
 VS01.         90577859G12V7D4:  Virtual Str1 SN 
 VS02.            90519330D5C4:  Virtual Str2 SN 
 VS03.             90603450F11:  Virtual Str3 SN 
 VS04.           90515383R12C4:  Virtual Str4 SN 
 VS05.          90522017N2L2C4:  Virtual Str5 SN 
 VS06.            90512682Z1W1:  Virtual Str6 SN 
 WBMN.klb                 5.00:  WOB Min 
 WITN.        Elmaddin Rahimov:  Customer Rep 
 WITN.           Adil Mammadov:  Customer Rep 2 
 WOBA.klb                 8.00:  WOB Avg 
 WOBX.klb                13.00:  WOB Max 
 YP  .lhf2               31.00:  Yield Point 
~Curve Information Block
#MNEM.UNIT                 API CODE     Curve Description
#---------               -----------    ---------------------------
 TIME.HHMMSS            00 000 000 000:  GT Time & Date
 GTDEPTH.m              00 000 000 000:  GT Depth
 GTPQH.psia             00 000 000 000:  GT HR Quartz Pressure
 GTTQ.degC              00 000 000 000:  GT Quartz Temperature
 GTTN.NONE              00 000 000 000:  GT Test Number
 GTET.sec               00 000 000 000:  GT Elapsed Test Time
 GTTVD.m                00 000 000 000:  GT True Vertical Depth
#Other Information
#
#WARRANTY: Halliburton will use its best efforts to furnish customers with 
#accurate information and interpretations that are part of, and incident to, the services 
#provided.  However, Halliburton cannot and does not warrant the accuracy 
#or correctness of such information and interpretations.  Under no circumstances should any 
#such information or interpretation be relied upon as the sole basis for any drilling, 
#completion, production, or financial decision or any procedure involving any risk to the 
#safety of any drilling venture, drilling rig or its crew or any other third party.  The 
#Customer has full responsibility for all drilling, completion and production operation.  
#Halliburton makes no representations or warranties, either expressed or 
#implied, including, but not limited to, the implied warranties of merchantability or fitness 
#for a particular purpose, with respect to the services rendered.  In no event will 
#Halliburton be liable for failure to obtain any particular results or for 
#any damages, including, but not limited to, indirect, special or consequential damages, 
#resulting from the use of any information or interpretation provided by Halliburton.
#
~A           TIME           GTDEPTH  GTPQH  GTTQ  GTTN  GTET   GTTVD  
# ...
   10:12:56.473.24-Mar-2020 4562.51 4422.88 86.08 5.00 138.03 3171.78
   10:12:56.673.24-Mar-2020 4562.51 4422.88 86.08 5.00 138.23 3171.78
   10:12:56.873.24-Mar-2020 4562.51 4422.94 86.08 5.00 138.43 3171.78
   10:12:57.073.24-Mar-2020 4562.51 4423.03 86.08 5.00 138.63 3171.78
   10:12:57.274.24-Mar-2020 4562.51 4422.95 86.08 5.00 138.83 3171.78
   10:12:57.474.24-Mar-2020 4562.51 4423.11 86.08 5.00 139.03 3171.78
   10:12:57.674.24-Mar-2020 4562.51 4422.92 86.08 5.00 139.23 3171.78
   10:12:57.874.24-Mar-2020 4562.51 4422.97 86.08 5.00 139.43 3171.78
   10:12:58.074.24-Mar-2020 4562.51 4422.68 86.08 5.00 139.63 3171.78
   10:12:58.274.24-Mar-2020 4562.51 4423.09 86.08 5.00 139.83 3171.78
   10:12:58.474.24-Mar-2020 4562.51 4422.80 86.07 5.00 140.03 3171.78
   10:12:58.674.24-Mar-2020 4562.51 4422.80 86.07 5.00 140.23 3171.78
   10:12:58.874.24-Mar-2020 4562.51 4423.11 86.07 5.00 140.43 3171.78
   10:12:59.074.24-Mar-2020 4562.51 4422.84 86.07 5.00 140.63 3171.78
   10:12:59.274.24-Mar-2020 4562.51 4423.01 86.07 5.00 140.83 3171.78
   10:12:59.474.24-Mar-2020 4562.51 4422.86 86.07 5.00 141.03 3171.78
   10:12:59.674.24-Mar-2020 4562.51 4422.86 86.07 5.00 141.23 3171.78
   10:12:59.874.24-Mar-2020 4562.51 4422.82 86.07 5.00 141.43 3171.78
   10:13:00.074.24-Mar-2020 4562.51 4423.02 86.07 5.00 141.63 3171.78
   10:13:00.274.24-Mar-2020 4562.51 4422.93 86.07 5.00 141.83 3171.78
   10:13:00.474.24-Mar-2020 4562.51 4422.89 86.07 5.00 142.03 3171.78
   10:13:00.674.24-Mar-2020 4562.51 4422.89 86.07 5.00 142.23 3171.78
   10:13:00.874.24-Mar-2020 4562.51 4427.21 86.06 5.00 142.43 3171.78
   10:13:01.074.24-Mar-2020 4562.51 4435.44 86.06 5.00 142.63 3171.78
   10:13:01.274.24-Mar-2020 4562.51 4435.50 86.06 5.00 142.83 3171.78
   10:13:01.474.24-Mar-2020 4562.51 4435.58 86.06 5.00 143.03 3171.78
   10:13:01.674.24-Mar-2020 4562.51 4435.58 86.06 5.00 143.23 3171.78
   10:13:01.874.24-Mar-2020 4562.51 4435.59 86.06 5.00 143.43 3171.78
   10:13:02.074.24-Mar-2020 4562.51 4435.64 86.06 5.00 143.63 3171.78
   10:13:02.274.24-Mar-2020 4562.51 4435.61 86.06 5.00 143.83 3171.78
   10:13:02.474.24-Mar-2020 4562.51 4435.65 86.06 5.00 144.03 3171.78
   10:13:02.675.24-Mar-2020 4562.51 4435.59 86.06 5.00 144.23 3171.78
   10:13:02.875.24-Mar-2020 4562.51 4435.70 86.06 5.00 144.43 3171.78
   10:13:03.075.24-Mar-2020 4562.51 4435.66 86.06 5.00 144.63 3171.78
   10:13:03.275.24-Mar-2020 4562.51 4435.71 86.06 5.00 144.83 3171.78
   10:13:03.475.24-Mar-2020 4562.51 4435.68 86.05 5.00 145.03 3171.78
   10:13:03.675.24-Mar-2020 4562.51 4435.68 86.05 5.00 145.23 3171.78
   10:13:03.875.24-Mar-2020 4562.51 4435.68 86.05 5.00 145.43 3171.78
   10:13:04.075.24-Mar-2020 4562.51 4435.68 86.05 5.00 145.63 3171.78
   10:13:04.275.24-Mar-2020 4562.51 4435.69 86.05 5.00 145.83 3171.78
   10:13:04.475.24-Mar-2020 4562.51 4435.68 86.05 5.00 146.03 3171.78
   10:13:04.675.24-Mar-2020 4562.51 4435.68 86.05 5.00 146.23 3171.78
   10:13:04.875.24-Mar-2020 4562.51 4435.66 86.05 5.00 146.43 3171.78
   10:13:05.075.24-Mar-2020 4562.51 4435.70 86.05 5.00 146.63 3171.78
   10:13:05.275.24-Mar-2020 4562.51 4435.67 86.05 5.00 146.83 3171.78
   10:13:05.475.24-Mar-2020 4562.51 4435.60 86.05 5.00 147.03 3171.78
   10:13:05.675.24-Mar-2020 4562.51 4435.60 86.05 5.00 147.23 3171.78
   10:13:05.875.24-Mar-2020 4562.51 4435.69 86.04 5.00 147.43 3171.78
   10:13:06.075.24-Mar-2020 4562.51 4435.63 86.04 5.00 147.63 3171.78
   10:13:06.275.24-Mar-2020 4562.51 4435.75 86.04 5.00 147.83 3171.78
   10:13:06.475.24-Mar-2020 4562.51 4435.68 86.04 5.00 148.03 3171.78
   10:13:06.675.24-Mar-2020 4562.51 4435.68 86.04 5.00 148.23 3171.78
   10:13:06.875.24-Mar-2020 4562.51 4435.68 86.04 5.00 148.43 3171.78
   10:13:07.075.24-Mar-2020 4562.51 4435.71 86.04 5.00 148.63 3171.78
   10:13:07.275.24-Mar-2020 4562.51 4435.66 86.04 5.00 148.83 3171.78
   10:13:07.475.24-Mar-2020 4562.51 4435.72 86.04 5.00 149.03 3171.78
   10:13:07.675.24-Mar-2020 4562.51 4435.72 86.04 5.00 149.23 3171.78
   10:13:07.875.24-Mar-2020 4562.51 4435.69 86.04 5.00 149.43 3171.78
   10:13:08.076.24-Mar-2020 4562.51 4435.72 86.04 5.00 149.63 3171.78
   10:13:08.276.24-Mar-2020 4562.51 4435.71 86.03 5.00 149.83 3171.78
   10:13:08.476.24-Mar-2020 4562.51 4435.70 86.03 5.00 150.03 3171.78
   10:13:08.676.24-Mar-2020 4562.51 4435.70 86.03 5.00 150.23 3171.78
   10:13:08.876.24-Mar-2020 4562.51 4435.69 86.03 5.00 150.43 3171.78
   10:13:09.076.24-Mar-2020 4562.51 4435.71 86.03 5.00 150.63 3171.78
   10:13:09.276.24-Mar-2020 4562.51 4435.69 86.03 5.00 150.83 3171.78
   10:13:09.476.24-Mar-2020 4562.51 4435.70 86.03 5.00 151.03 3171.78
   10:13:09.676.24-Mar-2020 4562.51 4435.70 86.03 5.00 151.23 3171.78
   10:13:09.876.24-Mar-2020 4562.51 4435.76 86.03 5.00 151.43 3171.78
   10:13:10.076.24-Mar-2020 4562.51 4435.67 86.03 5.00 151.63 3171.78
   10:13:10.276.24-Mar-2020 4562.51 4435.72 86.03 5.00 151.83 3171.78
   10:13:10.476.24-Mar-2020 4562.51 4435.70 86.03 5.00 152.03 3171.78
   10:13:10.676.24-Mar-2020 4562.51 4435.70 86.03 5.00 152.23 3171.78
   10:13:10.876.24-Mar-2020 4562.51 4435.69 86.02 5.00 152.43 3171.78
   10:13:11.076.24-Mar-2020 4562.51 4435.67 86.02 5.00 152.63 3171.78
   10:13:11.276.24-Mar-2020 4562.51 4435.70 86.02 5.00 152.83 3171.78
   10:13:11.476.24-Mar-2020 4562.51 4435.65 86.02 5.00 153.03 3171.78
   10:13:11.676.24-Mar-2020 4562.51 4435.65 86.02 5.00 153.23 3171.78
   10:13:11.876.24-Mar-2020 4562.51 4435.65 86.02 5.00 153.43 3171.78
   10:13:12.076.24-Mar-2020 4562.51 4435.68 86.02 5.00 153.63 3171.78
   10:13:12.276.24-Mar-2020 4562.51 4435.64 86.02 5.00 153.83 3171.78
   10:13:12.476.24-Mar-2020 4562.51 4435.66 86.02 5.00 154.03 3171.78
   10:13:12.676.24-Mar-2020 4562.51 4435.66 86.02 5.00 154.23 3171.78
   10:13:12.876.24-Mar-2020 4562.51 4435.70 86.02 5.00 154.43 3171.78
   10:13:13.076.24-Mar-2020 4562.51 4435.59 86.02 5.00 154.63 3171.78
   10:13:13.276.24-Mar-2020 4562.51 4435.76 86.02 5.00 154.83 3171.78
   10:13:13.477.24-Mar-2020 4562.51 4435.65 86.01 5.00 155.03 3171.78
   10:13:13.677.24-Mar-2020 4562.51 4435.65 86.01 5.00 155.23 3171.78
   10:13:13.877.24-Mar-2020 4562.51 4435.67 86.01 5.00 155.43 3171.78
   10:13:14.077.24-Mar-2020 4562.51 4435.66 86.01 5.00 155.63 3171.78
   10:13:14.277.24-Mar-2020 4562.51 4435.69 86.01 5.00 155.83 3171.78
   10:13:14.477.24-Mar-2020 4562.51 4435.67 86.01 5.00 156.03 3171.78
   10:13:14.677.24-Mar-2020 4562.51 4435.67 86.01 5.00 156.23 3171.78
   10:13:14.877.24-Mar-2020 4562.51 4435.67 86.01 5.00 156.43 3171.78
   10:13:15.077.24-Mar-2020 4562.51 4435.68 86.01 5.00 156.63 3171.78
   10:13:15.277.24-Mar-2020 4562.51 4435.58 86.01 5.00 156.83 3171.78
   10:13:15.477.24-Mar-2020 4562.51 4435.77 86.01 5.00 157.03 3171.78
   10:13:15.677.24-Mar-2020 4562.51 4435.77 86.01 5.00 157.23 3171.78
   10:13:15.877.24-Mar-2020 4562.51 4435.72 86.00 5.00 157.43 3171.78
   10:13:16.077.24-Mar-2020 4562.51 4435.65 86.00 5.00 157.63 3171.78
   10:13:16.277.24-Mar-2020 4562.51 4435.70 86.00 5.00 157.83 3171.78
   10:13:16.477.24-Mar-2020 4562.51 4435.64 86.00 5.00 158.03 3171.78
   10:13:16.677.24-Mar-2020 4562.51 4435.64 86.00 5.00 158.23 3171.78
   10:13:16.877.24-Mar-2020 4562.51 4435.65 86.00 5.00 158.43 3171.78
   10:13:17.077.24-Mar-2020 4562.51 4435.65 86.00 5.00 158.63 3171.78
   10:13:17.277.24-Mar-2020 4562.51 4435.63 86.00 5.00 158.83 3171.78
   10:13:17.477.24-Mar-2020 4562.51 4435.69 86.00 5.00 159.03 3171.78
   10:13:17.677.24-Mar-2020 4562.51 4435.66 86.00 5.00 159.23 3171.78
   10:13:17.877.24-Mar-2020 4562.51 4435.68 86.00 5.00 159.43 3171.78
   10:13:18.077.24-Mar-2020 4562.51 4435.64 86.00 5.00 159.63 3171.78
   10:13:18.277.24-Mar-2020 4562.51 4435.67 86.00 5.00 159.83 3171.78
   10:13:18.477.24-Mar-2020 4562.51 4435.64 85.99 5.00 160.03 3171.78
   10:13:18.678.24-Mar-2020 4562.51 4435.64 85.99 5.00 160.23 3171.78
   10:13:18.878.24-Mar-2020 4562.51 4435.65 85.99 5.00 160.43 3171.78
   10:13:19.078.24-Mar-2020 4562.51 4435.65 85.99 5.00 160.63 3171.78
   10:13:19.278.24-Mar-2020 4562.51 4435.64 85.99 5.00 160.83 3171.78
