~Version Information
 VERS.                  2.0:   CWLS log ASCII Standard -VERSION 2.0
 WRAP.                   NO:   One line per depth step
~Well Information Block
#MNEM.UNIT     VALUE/NAME     DESCRIPTION
#---------     -----------    ---------------------------
 STRT.S             03:38:19 24-Mar-20: START TIME 03:38:19 24-Mar-20
 STOP.S             03:44:48 24-Mar-20: STOP TIME  03:44:48 24-Mar-20
 STEP.S                   0.00: STEP TIME
 NULL.                 -999.25: NULL VALUE
 DFWT.                        :  DIST FWL TEXT
 DFST.                        :  DIST FSL TEXT
 DMF .             Drill Floor:  DRILL MEAS FROM
 STIM.      22.30.00 15-Feb-20:  START TIME
 DATE.      17.00.00 25-Mar-20:  END TIME
 SPUD.               15-Feb-20:  SPUD DATE
 NREF.                    Grid:  NORTH REFERENCE
 HPTY.       Minimum Curvature:  HOLE POS TYPE
 DMOD.             Drill Model:  DRILL MOD DESC
 SVYD.                  Survey:  SURVEY DESC
 ILTD.               Lithology:  INTERP LTH DESC
 FTOP.          Formation Tops:  FORM TOPS DESC
 SON .        AZ-XX-0906019077:  JOB NUMBER
 PDAT.          Mean Sea Level:  PERMANENT DATUM
 WTYP.                Deviated:  WELL TYPE
 MDS .        Operator Entered:  MAG DATA SOURCE
 COMP.     BP Exploration (Caspian sea) Ltd.:  COMPANY
 UWI .                     N/A:  UNIQUE WELL IDENTIFIER
 API .                     N/A:  API NUMBER
 BASE.              Azerbaijan:  LOGGING EQUIPMENT BASE LOCATION
 REGN.                   EESSA:  REGION
 PROV.                     N/A:  PROVINCE
 STAT.                     N/A:  STATE NAME
 CTRY.              Azerbaijan:  COUNTRY NAME
 FLD .                     ACG:  FIELD NAME
 SRVC.          Turan Drilling:  CONTRACTOR
 MWDS.                    Baku:  MWD SHOP
 WELL.                    E16W:  WELL NAME
 JOBN.        AZ-XX-0906019077:  JOB TICKET NUMB
 RIG .                     DWG:  RIG NAME
 CNTY.                     N/A:  COUNTY NAME
 DCON.         Sperry Drilling:  DIRECTNL CONTR
 UNIT.                     N/A:  LOGGING EQUIPMENT ID
 LOC .                        :  LOCATION
 LMF .             Drill Floor:  LOG MEASURED FROM
 TVDS.m                  43.16:  TVDSS CORRECTN
 LATI.deg                40.17:  LATITUDE
 LONG.deg                51.17:  LONGITUDE
 WHNS.m                 -15.30:  WELL HEAD N/S
 WHEW.m                  -1.29:  WELL HEAD E/W
 UTMX.m              514337.95:  UTM X
 UTMY.m             4448627.46:  UTM Y
 DFWL.m                   0.00:  DISTANCE FWL
 DFSL.m                   0.00:  DISTANCE FSL
 SDEP.m                3499.01:  START DEPTH
 TDD .m                4606.01:  TOTAL DEPTH (DRILLER)
 VSDR.deg               151.14:  VERT SEC DIRECT
 GVFD.g                   1.00:  GRAVITY FIELD
 MFLD.nT              50334.00:  MAGNETIC FIELD
 MDIP.deg                59.62:  MAGNETIC DIP
 MDEC.deg                 6.46:  MAGNETIC DECL
 GRDC.deg                 0.12:  GRID CORRECTION
 AZTC.deg                 6.34:  AZM TOTAL CORR
 EPD .m                   0.00:  ELEVATION
 EGL .m                   0.00:  GROUND ELEVATION
 WDMS.m                 176.20:  WD ELEV
 APD .m                  43.16:  DEPTH ABOVE PD
 VSEW.m                  -1.29:  VERT SEC E/W
 VSNS.m                 -15.30:  VERT SEC N/S
 AGAP.m                  43.16:  AIR GAP
 EKB .m                   0.00:  KB ELEVATION
 EDF .m                  43.16:  DF ELEVATION
 TDL .m                 103.00:  TOTAL DEPTH (LOGGER)
 VSC .                       0:  VS TO CLOSURE
 MAGU.                 1852525:  MAGUTM CHECKSUM
~Parameter Information Block
#MNEM.UNIT       Value        Description
#---------     -----------    ---------------------------
 AV  .mps                 1.01:  Ann Velocity 
 AVMX.mps                 1.32:  Max Ann Veloc 
 AZIF.deg               140.63:  Azm, Final 
 BHAT.        Rotary Steerable:  BHA Type 
 BREV.rev            151000.00:  Rev Bit Total 
 BROT.°/30m               0.65:  Build Rotating 
 BS  .in                  6.50:  Bit Size 
 BSZ .in                  6.50:  Bit Size 
 BTPL.psig              222.00:  Bit Press Loss 
 CABU.                      No:  Customer Abuse 
 CGEO.           Emin Aliyarov:  Customer Geo 
 COMM.                     \·`:  Run Comments 1 
 TCS .hr                 22.89:  Time Ciculation Ended 
 CV  .mps                 2.20:  Crit Velocity 
 CVMX.mps                 3.04:  Max Crit Veloc 
 DD1 .         Intigam Rahimov:  Direct Drillr 1 
 DDSV.               Geo-Pilot:  DD Service 
 DEFF.%                  91.50:  % Det Eff 
 DLRX.°/30m               1.15:  Dogleg Rot Max 
 DLSO.°/30m               0.86:  Dogleg Oriented 
 DLSX.°/30m               1.15:  Dogleg Str Max 
 DRET.      13.10.00 24-Mar-20:  Drill End Time 
 DRST.      17.00.00 23-Mar-20:  Drill Start Tim 
 DTIM.hr                 11.87:  Time Drilling 
 EDEP.m                4606.01:  End Depth 
 ENG1.          Rasim Hashimov:  Engineer 1 
 ENG2.            Alan Tuganov:  Engineer 2 
 ENG3.         Yevgeniy Ulikov:  Engineer 3 
 ETIM.      16.00.00 25-Mar-20:  End Time 
 FLOI.gpm               400.00:  Flow In 
 FLON.gpm               350.00:  Flow In Min 
 FLOS.cptm                0.00:  Fluid Loss 
 FLOX.gpm               400.00:  Flow In Max 
 FTRO.       Formation Presure:  FTWD Run Obj 
 HFLO.                      No:  High Flow 
 HPRE.                      No:  High Pressure 
 HTEM.                      No:  High Temp 
 HYDO.m                   1.80:  Hydro Offset 
 IFIN.deg                79.55:  Inc, Final 
 IMAX.deg                79.55:  Inc Max 
 IMIN.deg                78.04:  Inc Min 
 IMND.m                4502.50:  Inc Min Depth 
 IMXD.m                4587.87:  Inc Max Depth 
 JARR.                      No:  Jarring 
 LETM.      13.10.00 24-Mar-20:  Log End Time 
 LOST.hr                     0:  Lost Rig Time 
 LSTM.      17.00.00 23-Mar-20:  Log Start Time 
 MDCL.ppm             39000.00:  Mud Chlorides 
 MDES.     Inversion Oil/Synthetic:  Mud Desc 
 DFD .sg                  1.40:  Mud Density 
 MDMN.sg                  1.40:  Dens Mud Min 
 MDMX.sg                  1.40:  Dens Mud Max 
 MOIL.                    55.2:  Run Mud Oil % 
 MOWR.                   68:32:  Run Mud OWR 
 MSND.                     0.1:  Run Mud Sand % 
 MSOL.                    17.8:  Run Mud Solids% 
 DFV .spqt               76.00:  Mud Viscosity 
 MWOD.in                  4.75:  MWD Tool OD 
 MWSI.                      No:  Serv Intrp, MWD 
 OTIM.hr                 64.35:  Time Operating 
 PCON.           Look Like New:  Pad Condition 
 PMAX.psia             5350.00:  Press Op, Max 
 PV  .cP                 26.00:  Mud PV 
 RUN .                     900:  Run Number 
 ROPA.m/hr                9.00:  ROP Avg 
 ROPN.m/hr                7.00:  ROP Min 
 ROPX.m/hr               13.00:  ROP Max 
 RPMA.rpm               140.00:  RPM Surface Avg 
 RPMN.rpm               140.00:  RPM Surface Min 
 RPMX.rpm               140.00:  RPM Surface Max 
 RRUN.                    L204:  Rig Run Number 
 RTIM.hr                  4.50:  Time Reaming 
 SAZI.deg               141.40:  Azm, Start 
 SDEP.m                4503.01:  Start Depth 
 SIDD.                      No:  Serv Intrp, DD 
 SINC.deg                78.04:  Inc, Start 
 SPPA.psig             5300.00:  SPP Avg 
 SPPN.psig             5100.00:  SPP Min 
 SPPX.psig             5500.00:  SPP Max 
 STIM.      18.00.00 22-Mar-20:  Start Time 
 SVCS.                 DD, MWD:  Services 
 SVER.                    9.20:  Sperry Version 
 TDAT.m                 103.00:  Tot Depth Attmp 
 TDDF.                      No:  Trip for DD 
 TDLG.m                 103.00:  Tot Depth Loggd 
 TFF .                      No:  Trip for Fail 
 TQAA.f-kp               14.00:  Torque Abs Avg 
 TQAN.f-kp               12.00:  Torque Abs Min 
 TQAX.f-kp               16.00:  Torque Abs Max 
 TRRT.°/30m               0.45:  Turn Rotating 
 MRT .                    HCIM:  Maximum Recorded Temperature 
 TTMX.degC               90.20:  Max Tool Temp 
 VS01.         90577859G12V7D4:  Virtual Str1 SN 
 VS02.            90519330D5C4:  Virtual Str2 SN 
 VS03.             90603450F11:  Virtual Str3 SN 
 VS04.           90515383R12C4:  Virtual Str4 SN 
 VS05.          90522017N2L2C4:  Virtual Str5 SN 
 VS06.            90512682Z1W1:  Virtual Str6 SN 
 WBMN.klb                 5.00:  WOB Min 
 WITN.        Elmaddin Rahimov:  Customer Rep 
 WITN.           Adil Mammadov:  Customer Rep 2 
 WOBA.klb                 8.00:  WOB Avg 
 WOBX.klb                13.00:  WOB Max 
 YP  .lhf2               31.00:  Yield Point 
~Curve Information Block
#MNEM.UNIT                 API CODE     Curve Description
#---------               -----------    ---------------------------
 TIME.HHMMSS            00 000 000 000:  GT Time & Date
 GTDEPTH.m              00 000 000 000:  GT Depth
 GTPQH.psia             00 000 000 000:  GT HR Quartz Pressure
 GTTQ.degC              00 000 000 000:  GT Quartz Temperature
 GTTN.NONE              00 000 000 000:  GT Test Number
 GTET.sec               00 000 000 000:  GT Elapsed Test Time
 GTTVD.m                00 000 000 000:  GT True Vertical Depth
#Other Information
#
#WARRANTY: Halliburton will use its best efforts to furnish customers with 
#accurate information and interpretations that are part of, and incident to, the services 
#provided.  However, Halliburton cannot and does not warrant the accuracy 
#or correctness of such information and interpretations.  Under no circumstances should any 
#such information or interpretation be relied upon as the sole basis for any drilling, 
#completion, production, or financial decision or any procedure involving any risk to the 
#safety of any drilling venture, drilling rig or its crew or any other third party.  The 
#Customer has full responsibility for all drilling, completion and production operation.  
#Halliburton makes no representations or warranties, either expressed or 
#implied, including, but not limited to, the implied warranties of merchantability or fitness 
#for a particular purpose, with respect to the services rendered.  In no event will 
#Halliburton be liable for failure to obtain any particular results or for 
#any damages, including, but not limited to, indirect, special or consequential damages, 
#resulting from the use of any information or interpretation provided by Halliburton.
#
~A           TIME           GTDEPTH  GTPQH  GTTQ  GTTN  GTET   GTTVD  
# ...
   03:38:42.333.24-Mar-2020 4519.01 7757.86 83.09 3.00  23.00 3163.04
   03:38:42.533.24-Mar-2020 4519.01 7757.86 83.09 3.00  23.20 3163.04
   03:38:42.733.24-Mar-2020 4519.01 7764.32 83.09 3.00  23.40 3163.04
   03:38:42.933.24-Mar-2020 4519.01 7767.06 83.09 3.00  23.60 3163.04
   03:38:43.133.24-Mar-2020 4519.01 7769.25 83.09 3.00  23.80 3163.04
   03:38:43.333.24-Mar-2020 4519.01 7771.62 83.09 3.00  24.00 3163.04
   03:38:43.533.24-Mar-2020 4519.01 7771.62 83.09 3.00  24.20 3163.04
   03:38:43.733.24-Mar-2020 4519.01 7775.39 83.09 3.00  24.40 3163.04
   03:38:43.933.24-Mar-2020 4519.01 7775.51 83.08 3.00  24.60 3163.04
   03:38:44.133.24-Mar-2020 4519.01 7777.52 83.08 3.00  24.80 3163.04
   03:38:44.333.24-Mar-2020 4519.01 7778.28 83.08 3.00  25.00 3163.04
   03:38:44.533.24-Mar-2020 4519.01 7778.28 83.08 3.00  25.20 3163.04
   03:38:44.733.24-Mar-2020 4519.01 6730.97 83.08 3.00  25.40 3163.04
   03:38:44.933.24-Mar-2020 4519.01 6307.89 83.08 3.00  25.60 3163.04
   03:38:45.133.24-Mar-2020 4519.01 5483.21 83.08 3.00  25.80 3163.04
   03:38:45.333.24-Mar-2020 4519.01 4609.45 83.08 3.00  26.00 3163.04
   03:38:45.533.24-Mar-2020 4519.01 4609.45 83.08 3.00  26.20 3163.04
   03:38:45.733.24-Mar-2020 4519.01 4444.05 83.08 3.00  26.40 3163.04
   03:38:45.933.24-Mar-2020 4519.01 4443.47 83.08 3.00  26.60 3163.04
   03:38:46.133.24-Mar-2020 4519.01 4442.81 83.07 3.00  26.80 3163.04
   03:38:46.333.24-Mar-2020 4519.01 4442.00 83.07 3.00  27.00 3163.04
   03:38:46.533.24-Mar-2020 4519.01 4442.00 83.07 3.00  27.20 3163.04
   03:38:46.733.24-Mar-2020 4519.01 4440.56 83.07 3.00  27.40 3163.04
   03:38:46.933.24-Mar-2020 4519.01 4440.11 83.07 3.00  27.60 3163.04
   03:38:47.133.24-Mar-2020 4519.01 4439.60 83.07 3.00  27.80 3163.04
   03:38:47.333.24-Mar-2020 4519.01 4439.25 83.07 3.00  28.00 3163.04
   03:38:47.534.24-Mar-2020 4519.01 4439.25 83.07 3.00  28.20 3163.04
   03:38:47.734.24-Mar-2020 4519.01 4438.60 83.06 3.00  28.40 3163.04
   03:38:47.934.24-Mar-2020 4519.01 4438.51 83.06 3.00  28.60 3163.04
   03:38:48.134.24-Mar-2020 4519.01 4438.42 83.06 3.00  28.80 3163.04
   03:38:48.334.24-Mar-2020 4519.01 4438.26 83.06 3.00  29.00 3163.04
   03:38:48.534.24-Mar-2020 4519.01 4438.26 83.06 3.00  29.20 3163.04
   03:38:48.734.24-Mar-2020 4519.01 4438.00 83.06 3.00  29.40 3163.04
   03:38:48.934.24-Mar-2020 4519.01 4437.76 83.05 3.00  29.60 3163.04
   03:38:49.134.24-Mar-2020 4519.01 4437.73 83.05 3.00  29.80 3163.04
   03:38:49.334.24-Mar-2020 4519.01 4437.68 83.05 3.00  30.00 3163.04
   03:38:49.534.24-Mar-2020 4519.01 4437.68 83.05 3.00  30.21 3163.04
   03:38:49.734.24-Mar-2020 4519.01 4437.69 83.05 3.00  30.41 3163.04
   03:38:49.934.24-Mar-2020 4519.01 4437.67 83.04 3.00  30.61 3163.04
   03:38:50.134.24-Mar-2020 4519.01 4437.60 83.04 3.00  30.81 3163.04
   03:38:50.334.24-Mar-2020 4519.01 4437.71 83.04 3.00  31.01 3163.04
   03:38:50.534.24-Mar-2020 4519.01 4437.71 83.04 3.00  31.21 3163.04
   03:38:50.734.24-Mar-2020 4519.01 4437.47 83.04 3.00  31.41 3163.04
   03:38:50.934.24-Mar-2020 4519.01 4437.49 83.04 3.00  31.61 3163.04
   03:38:51.134.24-Mar-2020 4519.01 4437.51 83.03 3.00  31.81 3163.04
   03:38:51.334.24-Mar-2020 4519.01 4437.39 83.03 3.00  32.01 3163.04
   03:38:51.534.24-Mar-2020 4519.01 4437.34 83.03 3.00  32.21 3163.04
   03:38:51.734.24-Mar-2020 4519.01 4437.52 83.03 3.00  32.41 3163.04
   03:38:51.934.24-Mar-2020 4519.01 4437.59 83.03 3.00  32.61 3163.04
   03:38:52.134.24-Mar-2020 4519.01 4437.47 83.03 3.00  32.81 3163.04
   03:38:52.334.24-Mar-2020 4519.01 4437.51 83.02 3.00  33.01 3163.04
   03:38:52.534.24-Mar-2020 4519.01 4437.51 83.02 3.00  33.21 3163.04
   03:38:52.734.24-Mar-2020 4519.01 4437.44 83.02 3.00  33.41 3163.04
   03:38:52.934.24-Mar-2020 4519.01 4437.52 83.02 3.00  33.61 3163.04
   03:38:53.134.24-Mar-2020 4519.01 4437.50 83.02 3.00  33.81 3163.04
   03:38:53.334.24-Mar-2020 4519.01 4437.49 83.02 3.00  34.01 3163.04
   03:38:53.535.24-Mar-2020 4519.01 4437.49 83.02 3.00  34.21 3163.04
   03:38:53.735.24-Mar-2020 4519.01 4437.43 83.01 3.00  34.41 3163.04
   03:38:53.935.24-Mar-2020 4519.01 4437.47 83.01 3.00  34.61 3163.04
   03:38:54.135.24-Mar-2020 4519.01 4437.58 83.01 3.00  34.81 3163.04
   03:38:54.335.24-Mar-2020 4519.01 4437.45 83.01 3.00  35.01 3163.04
   03:38:54.535.24-Mar-2020 4519.01 4437.45 83.01 3.00  35.21 3163.04
   03:38:54.735.24-Mar-2020 4519.01 4448.88 83.01 3.00  35.41 3163.04
   03:38:54.935.24-Mar-2020 4519.01 4449.32 83.00 3.00  35.61 3163.04
   03:38:55.135.24-Mar-2020 4519.01 4449.43 83.00 3.00  35.81 3163.04
   03:38:55.335.24-Mar-2020 4519.01 4449.41 83.00 3.00  36.01 3163.04
   03:38:55.535.24-Mar-2020 4519.01 4449.41 83.00 3.00  36.21 3163.04
   03:38:55.735.24-Mar-2020 4519.01 4449.49 83.00 3.00  36.41 3163.04
   03:38:55.935.24-Mar-2020 4519.01 4449.44 83.00 3.00  36.61 3163.04
   03:38:56.135.24-Mar-2020 4519.01 4449.55 83.00 3.00  36.81 3163.04
   03:38:56.335.24-Mar-2020 4519.01 4449.49 82.99 3.00  37.01 3163.04
   03:38:56.535.24-Mar-2020 4519.01 4449.49 82.99 3.00  37.21 3163.04
   03:38:56.735.24-Mar-2020 4519.01 4449.54 82.99 3.00  37.41 3163.04
   03:38:56.935.24-Mar-2020 4519.01 4449.50 82.99 3.00  37.61 3163.04
   03:38:57.135.24-Mar-2020 4519.01 4449.59 82.99 3.00  37.81 3163.04
   03:38:57.335.24-Mar-2020 4519.01 4449.55 82.99 3.00  38.01 3163.04
   03:38:57.535.24-Mar-2020 4519.01 4449.55 82.99 3.00  38.21 3163.04
   03:38:57.735.24-Mar-2020 4519.01 4449.59 82.98 3.00  38.41 3163.04
   03:38:57.935.24-Mar-2020 4519.01 4449.59 82.98 3.00  38.61 3163.04
   03:38:58.135.24-Mar-2020 4519.01 4449.59 82.98 3.00  38.81 3163.04
   03:38:58.335.24-Mar-2020 4519.01 4449.61 82.98 3.00  39.01 3163.04
   03:38:58.535.24-Mar-2020 4519.01 4449.61 82.98 3.00  39.21 3163.04
   03:38:58.735.24-Mar-2020 4519.01 4449.60 82.98 3.00  39.41 3163.04
   03:38:58.935.24-Mar-2020 4519.01 4449.61 82.98 3.00  39.61 3163.04
   03:38:59.135.24-Mar-2020 4519.01 4449.62 82.97 3.00  39.81 3163.04
   03:38:59.335.24-Mar-2020 4519.01 4449.62 82.97 3.00  40.01 3163.04
   03:38:59.536.24-Mar-2020 4519.01 4449.62 82.97 3.00  40.21 3163.04
   03:38:59.736.24-Mar-2020 4519.01 4449.61 82.97 3.00  40.41 3163.04
   03:38:59.936.24-Mar-2020 4519.01 4449.62 82.97 3.00  40.61 3163.04
   03:39:00.136.24-Mar-2020 4519.01 4449.61 82.97 3.00  40.81 3163.04
   03:39:00.336.24-Mar-2020 4519.01 4449.66 82.97 3.00  41.01 3163.04
   03:39:00.536.24-Mar-2020 4519.01 4449.66 82.97 3.00  41.21 3163.04
   03:39:00.736.24-Mar-2020 4519.01 4449.66 82.96 3.00  41.41 3163.04
   03:39:00.936.24-Mar-2020 4519.01 4449.66 82.96 3.00  41.61 3163.04
   03:39:01.136.24-Mar-2020 4519.01 4449.67 82.96 3.00  41.81 3163.04
   03:39:01.336.24-Mar-2020 4519.01 4449.67 82.96 3.00  42.01 3163.04
   03:39:01.536.24-Mar-2020 4519.01 4449.67 82.96 3.00  42.21 3163.04
   03:39:01.736.24-Mar-2020 4519.01 4449.67 82.96 3.00  42.41 3163.04
   03:39:01.936.24-Mar-2020 4519.01 4449.68 82.96 3.00  42.61 3163.04
   03:39:02.136.24-Mar-2020 4519.01 4449.68 82.96 3.00  42.81 3163.04
   03:39:02.336.24-Mar-2020 4519.01 4449.69 82.95 3.00  43.01 3163.04
   03:39:02.536.24-Mar-2020 4519.01 4449.69 82.95 3.00  43.21 3163.04
   03:39:02.736.24-Mar-2020 4519.01 4449.70 82.95 3.00  43.41 3163.04
   03:39:02.936.24-Mar-2020 4519.01 4449.63 82.95 3.00  43.61 3163.04
   03:39:03.136.24-Mar-2020 4519.01 4449.71 82.95 3.00  43.81 3163.04
   03:39:03.336.24-Mar-2020 4519.01 4449.72 82.95 3.00  44.01 3163.04
   03:39:03.536.24-Mar-2020 4519.01 4449.72 82.95 3.00  44.21 3163.04
   03:39:03.736.24-Mar-2020 4519.01 4449.71 82.95 3.00  44.41 3163.04
   03:39:03.936.24-Mar-2020 4519.01 4449.65 82.95 3.00  44.61 3163.04
   03:39:04.136.24-Mar-2020 4519.01 4449.73 82.94 3.00  44.81 3163.04
   03:39:04.336.24-Mar-2020 4519.01 4449.74 82.94 3.00  45.01 3163.04
   03:39:04.536.24-Mar-2020 4519.01 4449.74 82.94 3.00  45.21 3163.04
   03:39:04.736.24-Mar-2020 4519.01 4449.74 82.94 3.00  45.41 3163.04
   03:39:04.936.24-Mar-2020 4519.01 4449.70 82.94 3.00  45.61 3163.04
   03:39:05.136.24-Mar-2020 4519.01 4449.71 82.94 3.00  45.81 3163.04
