~Version Information
 VERS.                  2.0:   CWLS log ASCII Standard -VERSION 2.0
 WRAP.                   NO:   One line per depth step
~Well Information Block
#MNEM.UNIT     VALUE/NAME     DESCRIPTION
#---------     -----------    ---------------------------
 STRT.S             10:10:38 24-Mar-20: START TIME 10:10:38 24-Mar-20
 STOP.S             10:17:07 24-Mar-20: STOP TIME  10:17:07 24-Mar-20
 STEP.S                   0.00: STEP TIME
 NULL.                 -999.25: NULL VALUE
 DFWT.                        :  DIST FWL TEXT
 DFST.                        :  DIST FSL TEXT
 DMF .             Drill Floor:  DRILL MEAS FROM
 STIM.      22.30.00 15-Feb-20:  START TIME
 DATE.      17.00.00 25-Mar-20:  END TIME
 SPUD.               15-Feb-20:  SPUD DATE
 NREF.                    Grid:  NORTH REFERENCE
 HPTY.       Minimum Curvature:  HOLE POS TYPE
 DMOD.             Drill Model:  DRILL MOD DESC
 SVYD.                  Survey:  SURVEY DESC
 ILTD.               Lithology:  INTERP LTH DESC
 FTOP.          Formation Tops:  FORM TOPS DESC
 SON .        AZ-XX-0906019077:  JOB NUMBER
 PDAT.          Mean Sea Level:  PERMANENT DATUM
 WTYP.                Deviated:  WELL TYPE
 MDS .        Operator Entered:  MAG DATA SOURCE
 COMP.     BP Exploration (Caspian sea) Ltd.:  COMPANY
 UWI .                     N/A:  UNIQUE WELL IDENTIFIER
 API .                     N/A:  API NUMBER
 BASE.              Azerbaijan:  LOGGING EQUIPMENT BASE LOCATION
 REGN.                   EESSA:  REGION
 PROV.                     N/A:  PROVINCE
 STAT.                     N/A:  STATE NAME
 CTRY.              Azerbaijan:  COUNTRY NAME
 FLD .                     ACG:  FIELD NAME
 SRVC.          Turan Drilling:  CONTRACTOR
 MWDS.                    Baku:  MWD SHOP
 WELL.                    E16W:  WELL NAME
 JOBN.        AZ-XX-0906019077:  JOB TICKET NUMB
 RIG .                     DWG:  RIG NAME
 CNTY.                     N/A:  COUNTY NAME
 DCON.         Sperry Drilling:  DIRECTNL CONTR
 UNIT.                     N/A:  LOGGING EQUIPMENT ID
 LOC .                        :  LOCATION
 LMF .             Drill Floor:  LOG MEASURED FROM
 TVDS.m                  43.16:  TVDSS CORRECTN
 LATI.deg                40.17:  LATITUDE
 LONG.deg                51.17:  LONGITUDE
 WHNS.m                 -15.30:  WELL HEAD N/S
 WHEW.m                  -1.29:  WELL HEAD E/W
 UTMX.m              514337.95:  UTM X
 UTMY.m             4448627.46:  UTM Y
 DFWL.m                   0.00:  DISTANCE FWL
 DFSL.m                   0.00:  DISTANCE FSL
 SDEP.m                3499.01:  START DEPTH
 TDD .m                4606.01:  TOTAL DEPTH (DRILLER)
 VSDR.deg               151.14:  VERT SEC DIRECT
 GVFD.g                   1.00:  GRAVITY FIELD
 MFLD.nT              50334.00:  MAGNETIC FIELD
 MDIP.deg                59.62:  MAGNETIC DIP
 MDEC.deg                 6.46:  MAGNETIC DECL
 GRDC.deg                 0.12:  GRID CORRECTION
 AZTC.deg                 6.34:  AZM TOTAL CORR
 EPD .m                   0.00:  ELEVATION
 EGL .m                   0.00:  GROUND ELEVATION
 WDMS.m                 176.20:  WD ELEV
 APD .m                  43.16:  DEPTH ABOVE PD
 VSEW.m                  -1.29:  VERT SEC E/W
 VSNS.m                 -15.30:  VERT SEC N/S
 AGAP.m                  43.16:  AIR GAP
 EKB .m                   0.00:  KB ELEVATION
 EDF .m                  43.16:  DF ELEVATION
 TDL .m                 103.00:  TOTAL DEPTH (LOGGER)
 VSC .                       0:  VS TO CLOSURE
 MAGU.                 1852525:  MAGUTM CHECKSUM
~Parameter Information Block
#MNEM.UNIT       Value        Description
#---------     -----------    ---------------------------
 AV  .mps                 1.01:  Ann Velocity 
 AVMX.mps                 1.32:  Max Ann Veloc 
 AZIF.deg               140.63:  Azm, Final 
 BHAT.        Rotary Steerable:  BHA Type 
 BREV.rev            151000.00:  Rev Bit Total 
 BROT.°/30m               0.65:  Build Rotating 
 BS  .in                  6.50:  Bit Size 
 BSZ .in                  6.50:  Bit Size 
 BTPL.psig              222.00:  Bit Press Loss 
 CABU.                      No:  Customer Abuse 
 CGEO.           Emin Aliyarov:  Customer Geo 
 COMM.                     ´â}:  Run Comments 1 
 TCS .hr                 22.89:  Time Ciculation Ended 
 CV  .mps                 2.20:  Crit Velocity 
 CVMX.mps                 3.04:  Max Crit Veloc 
 DD1 .         Intigam Rahimov:  Direct Drillr 1 
 DDSV.               Geo-Pilot:  DD Service 
 DEFF.%                  91.50:  % Det Eff 
 DLRX.°/30m               1.15:  Dogleg Rot Max 
 DLSO.°/30m               0.86:  Dogleg Oriented 
 DLSX.°/30m               1.15:  Dogleg Str Max 
 DRET.      13.10.00 24-Mar-20:  Drill End Time 
 DRST.      17.00.00 23-Mar-20:  Drill Start Tim 
 DTIM.hr                 11.87:  Time Drilling 
 EDEP.m                4606.01:  End Depth 
 ENG1.          Rasim Hashimov:  Engineer 1 
 ENG2.            Alan Tuganov:  Engineer 2 
 ENG3.         Yevgeniy Ulikov:  Engineer 3 
 ETIM.      16.00.00 25-Mar-20:  End Time 
 FLOI.gpm               400.00:  Flow In 
 FLON.gpm               350.00:  Flow In Min 
 FLOS.cptm                0.00:  Fluid Loss 
 FLOX.gpm               400.00:  Flow In Max 
 FTRO.       Formation Presure:  FTWD Run Obj 
 HFLO.                      No:  High Flow 
 HPRE.                      No:  High Pressure 
 HTEM.                      No:  High Temp 
 HYDO.m                   1.80:  Hydro Offset 
 IFIN.deg                79.55:  Inc, Final 
 IMAX.deg                79.55:  Inc Max 
 IMIN.deg                78.04:  Inc Min 
 IMND.m                4502.50:  Inc Min Depth 
 IMXD.m                4587.87:  Inc Max Depth 
 JARR.                      No:  Jarring 
 LETM.      13.10.00 24-Mar-20:  Log End Time 
 LOST.hr                     0:  Lost Rig Time 
 LSTM.      17.00.00 23-Mar-20:  Log Start Time 
 MDCL.ppm             39000.00:  Mud Chlorides 
 MDES.     Inversion Oil/Synthetic:  Mud Desc 
 DFD .sg                  1.40:  Mud Density 
 MDMN.sg                  1.40:  Dens Mud Min 
 MDMX.sg                  1.40:  Dens Mud Max 
 MOIL.                    55.2:  Run Mud Oil % 
 MOWR.                   68:32:  Run Mud OWR 
 MSND.                     0.1:  Run Mud Sand % 
 MSOL.                    17.8:  Run Mud Solids% 
 DFV .spqt               76.00:  Mud Viscosity 
 MWOD.in                  4.75:  MWD Tool OD 
 MWSI.                      No:  Serv Intrp, MWD 
 OTIM.hr                 64.35:  Time Operating 
 PCON.           Look Like New:  Pad Condition 
 PMAX.psia             5350.00:  Press Op, Max 
 PV  .cP                 26.00:  Mud PV 
 RUN .                     900:  Run Number 
 ROPA.m/hr                9.00:  ROP Avg 
 ROPN.m/hr                7.00:  ROP Min 
 ROPX.m/hr               13.00:  ROP Max 
 RPMA.rpm               140.00:  RPM Surface Avg 
 RPMN.rpm               140.00:  RPM Surface Min 
 RPMX.rpm               140.00:  RPM Surface Max 
 RRUN.                    L204:  Rig Run Number 
 RTIM.hr                  4.50:  Time Reaming 
 SAZI.deg               141.40:  Azm, Start 
 SDEP.m                4503.01:  Start Depth 
 SIDD.                      No:  Serv Intrp, DD 
 SINC.deg                78.04:  Inc, Start 
 SPPA.psig             5300.00:  SPP Avg 
 SPPN.psig             5100.00:  SPP Min 
 SPPX.psig             5500.00:  SPP Max 
 STIM.      18.00.00 22-Mar-20:  Start Time 
 SVCS.                 DD, MWD:  Services 
 SVER.                    9.20:  Sperry Version 
 TDAT.m                 103.00:  Tot Depth Attmp 
 TDDF.                      No:  Trip for DD 
 TDLG.m                 103.00:  Tot Depth Loggd 
 TFF .                      No:  Trip for Fail 
 TQAA.f-kp               14.00:  Torque Abs Avg 
 TQAN.f-kp               12.00:  Torque Abs Min 
 TQAX.f-kp               16.00:  Torque Abs Max 
 TRRT.°/30m               0.45:  Turn Rotating 
 MRT .                    HCIM:  Maximum Recorded Temperature 
 TTMX.degC               90.20:  Max Tool Temp 
 VS01.         90577859G12V7D4:  Virtual Str1 SN 
 VS02.            90519330D5C4:  Virtual Str2 SN 
 VS03.             90603450F11:  Virtual Str3 SN 
 VS04.           90515383R12C4:  Virtual Str4 SN 
 VS05.          90522017N2L2C4:  Virtual Str5 SN 
 VS06.            90512682Z1W1:  Virtual Str6 SN 
 WBMN.klb                 5.00:  WOB Min 
 WITN.        Elmaddin Rahimov:  Customer Rep 
 WITN.           Adil Mammadov:  Customer Rep 2 
 WOBA.klb                 8.00:  WOB Avg 
 WOBX.klb                13.00:  WOB Max 
 YP  .lhf2               31.00:  Yield Point 
~Curve Information Block
#MNEM.UNIT                 API CODE     Curve Description
#---------               -----------    ---------------------------
 TIME.HHMMSS            00 000 000 000:  GT Time & Date
 GTDEPTH.m              00 000 000 000:  GT Depth
 GTPQH.psia             00 000 000 000:  GT HR Quartz Pressure
 GTTQ.degC              00 000 000 000:  GT Quartz Temperature
 GTTN.NONE              00 000 000 000:  GT Test Number
 GTET.sec               00 000 000 000:  GT Elapsed Test Time
 GTTVD.m                00 000 000 000:  GT True Vertical Depth
#Other Information
#
#WARRANTY: Halliburton will use its best efforts to furnish customers with 
#accurate information and interpretations that are part of, and incident to, the services 
#provided.  However, Halliburton cannot and does not warrant the accuracy 
#or correctness of such information and interpretations.  Under no circumstances should any 
#such information or interpretation be relied upon as the sole basis for any drilling, 
#completion, production, or financial decision or any procedure involving any risk to the 
#safety of any drilling venture, drilling rig or its crew or any other third party.  The 
#Customer has full responsibility for all drilling, completion and production operation.  
#Halliburton makes no representations or warranties, either expressed or 
#implied, including, but not limited to, the implied warranties of merchantability or fitness 
#for a particular purpose, with respect to the services rendered.  In no event will 
#Halliburton be liable for failure to obtain any particular results or for 
#any damages, including, but not limited to, indirect, special or consequential damages, 
#resulting from the use of any information or interpretation provided by Halliburton.
#
~A           TIME           GTDEPTH  GTPQH  GTTQ  GTTN  GTET   GTTVD  
# ...
   10:16:46.516.24-Mar-2020 4562.51 6964.32 85.31 5.00 368.07 3171.78
   10:16:46.716.24-Mar-2020 4562.51 6964.32 85.31 5.00 368.27 3171.78
   10:16:46.916.24-Mar-2020 4562.51 6964.12 85.31 5.00 368.47 3171.78
   10:16:47.116.24-Mar-2020 4562.51 6958.55 85.31 5.00 368.67 3171.78
   10:16:47.316.24-Mar-2020 4562.51 6963.61 85.31 5.00 368.87 3171.78
   10:16:47.517.24-Mar-2020 4562.51 6957.98 85.31 5.00 369.07 3171.78
   10:16:47.717.24-Mar-2020 4562.51 6957.98 85.31 5.00 369.27 3171.78
   10:16:47.917.24-Mar-2020 4562.51 6959.50 85.31 5.00 369.47 3171.78
   10:16:48.117.24-Mar-2020 4562.51 6959.23 85.31 5.00 369.67 3171.78
   10:16:48.317.24-Mar-2020 4562.51 6959.72 85.31 5.00 369.87 3171.78
   10:16:48.517.24-Mar-2020 4562.51 6958.32 85.31 5.00 370.07 3171.78
   10:16:48.717.24-Mar-2020 4562.51 6958.32 85.31 5.00 370.27 3171.78
   10:16:48.917.24-Mar-2020 4562.51 6951.93 85.31 5.00 370.47 3171.78
   10:16:49.117.24-Mar-2020 4562.51 6964.74 85.31 5.00 370.67 3171.78
   10:16:49.317.24-Mar-2020 4562.51 6954.52 85.30 5.00 370.87 3171.78
   10:16:49.517.24-Mar-2020 4562.51 6962.68 85.30 5.00 371.07 3171.78
   10:16:49.717.24-Mar-2020 4562.51 6962.68 85.30 5.00 371.27 3171.78
   10:16:49.917.24-Mar-2020 4562.51 6966.47 85.30 5.00 371.47 3171.78
   10:16:50.117.24-Mar-2020 4562.51 6953.12 85.30 5.00 371.67 3171.78
   10:16:50.317.24-Mar-2020 4562.51 6964.08 85.30 5.00 371.87 3171.78
   10:16:50.517.24-Mar-2020 4562.51 6956.41 85.30 5.00 372.07 3171.78
   10:16:50.717.24-Mar-2020 4562.51 6956.41 85.30 5.00 372.27 3171.78
   10:16:50.917.24-Mar-2020 4562.51 6957.86 85.30 5.00 372.47 3171.78
   10:16:51.117.24-Mar-2020 4562.51 6962.34 85.30 5.00 372.67 3171.78
   10:16:51.317.24-Mar-2020 4562.51 6959.59 85.30 5.00 372.87 3171.78
   10:16:51.517.24-Mar-2020 4562.51 6964.76 85.30 5.00 373.07 3171.78
   10:16:51.717.24-Mar-2020 4562.51 6964.76 85.30 5.00 373.27 3171.78
   10:16:51.917.24-Mar-2020 4562.51 6965.02 85.30 5.00 373.47 3171.78
   10:16:52.117.24-Mar-2020 4562.51 6960.12 85.30 5.00 373.67 3171.78
   10:16:52.317.24-Mar-2020 4562.51 6965.43 85.30 5.00 373.87 3171.78
   10:16:52.517.24-Mar-2020 4562.51 6958.82 85.30 5.00 374.07 3171.78
   10:16:52.718.24-Mar-2020 4562.51 6958.82 85.30 5.00 374.27 3171.78
   10:16:52.918.24-Mar-2020 4562.51 6959.57 85.29 5.00 374.47 3171.78
   10:16:53.118.24-Mar-2020 4562.51 6961.62 85.29 5.00 374.67 3171.78
   10:16:53.318.24-Mar-2020 4562.51 6960.75 85.29 5.00 374.87 3171.78
   10:16:53.518.24-Mar-2020 4562.51 6962.64 85.29 5.00 375.07 3171.78
   10:16:53.718.24-Mar-2020 4562.51 6962.64 85.29 5.00 375.27 3171.78
   10:16:53.918.24-Mar-2020 4562.51 6961.85 85.29 5.00 375.47 3171.78
   10:16:54.118.24-Mar-2020 4562.51 6960.99 85.29 5.00 375.67 3171.78
   10:16:54.318.24-Mar-2020 4562.51 6960.53 85.29 5.00 375.87 3171.78
   10:16:54.518.24-Mar-2020 4562.51 6960.89 85.29 5.00 376.07 3171.78
   10:16:54.718.24-Mar-2020 4562.51 6960.89 85.29 5.00 376.27 3171.78
   10:16:54.918.24-Mar-2020 4562.51 6962.42 85.29 5.00 376.47 3171.78
   10:16:55.118.24-Mar-2020 4562.51 6959.62 85.29 5.00 376.67 3171.78
   10:16:55.318.24-Mar-2020 4562.51 6955.33 85.29 5.00 376.87 3171.78
   10:16:55.518.24-Mar-2020 4562.51 6962.45 85.29 5.00 377.07 3171.78
   10:16:55.718.24-Mar-2020 4562.51 6962.45 85.29 5.00 377.27 3171.78
   10:16:55.918.24-Mar-2020 4562.51 6959.10 85.28 5.00 377.47 3171.78
   10:16:56.118.24-Mar-2020 4562.51 6952.78 85.28 5.00 377.67 3171.78
   10:16:56.318.24-Mar-2020 4562.51 6961.61 85.28 5.00 377.87 3171.78
   10:16:56.518.24-Mar-2020 4562.51 6956.16 85.28 5.00 378.07 3171.78
   10:16:56.718.24-Mar-2020 4562.51 6956.16 85.28 5.00 378.27 3171.78
   10:16:56.918.24-Mar-2020 4562.51 6952.66 85.28 5.00 378.47 3171.78
   10:16:57.118.24-Mar-2020 4562.51 6961.85 85.28 5.00 378.67 3171.78
   10:16:57.318.24-Mar-2020 4562.51 6955.90 85.28 5.00 378.87 3171.78
   10:16:57.518.24-Mar-2020 4562.51 6959.56 85.28 5.00 379.07 3171.78
   10:16:57.718.24-Mar-2020 4562.51 6959.56 85.28 5.00 379.27 3171.78
   10:16:57.918.24-Mar-2020 4562.51 6958.84 85.28 5.00 379.47 3171.78
   10:16:58.119.24-Mar-2020 4562.51 6957.07 85.28 5.00 379.67 3171.78
   10:16:58.319.24-Mar-2020 4562.51 6959.18 85.28 5.00 379.87 3171.78
   10:16:58.519.24-Mar-2020 4562.51 6961.07 85.28 5.00 380.07 3171.78
   10:16:58.719.24-Mar-2020 4562.51 6961.83 85.28 5.00 380.27 3171.78
   10:16:58.919.24-Mar-2020 4562.51 6961.42 85.28 5.00 380.47 3171.78
   10:16:59.119.24-Mar-2020 4562.51 6962.06 85.27 5.00 380.67 3171.78
   10:16:59.319.24-Mar-2020 4562.51 6962.17 85.27 5.00 380.87 3171.78
   10:16:59.519.24-Mar-2020 4562.51 6963.53 85.27 5.00 381.07 3171.78
   10:16:59.719.24-Mar-2020 4562.51 6961.75 85.27 5.00 381.27 3171.78
   10:16:59.919.24-Mar-2020 4562.51 6962.20 85.27 5.00 381.47 3171.78
   10:17:00.119.24-Mar-2020 4562.51 6954.94 85.27 5.00 381.67 3171.78
   10:17:00.319.24-Mar-2020 4562.51 6963.11 85.27 5.00 381.87 3171.78
   10:17:00.519.24-Mar-2020 4562.51 6958.32 85.27 5.00 382.07 3171.78
   10:17:00.719.24-Mar-2020 4562.51 6958.32 85.27 5.00 382.27 3171.78
   10:17:00.919.24-Mar-2020 4562.51 6958.96 85.27 5.00 382.47 3171.78
   10:17:01.119.24-Mar-2020 4562.51 6963.98 85.27 5.00 382.67 3171.78
   10:17:01.319.24-Mar-2020 4562.51 6958.73 85.27 5.00 382.87 3171.78
   10:17:01.519.24-Mar-2020 4562.51 6964.12 85.27 5.00 383.07 3171.78
   10:17:01.719.24-Mar-2020 4562.51 6964.12 85.27 5.00 383.27 3171.78
   10:17:01.919.24-Mar-2020 4562.51 6963.74 85.27 5.00 383.47 3171.78
   10:17:02.119.24-Mar-2020 4562.51 6958.33 85.27 5.00 383.67 3171.78
   10:17:02.319.24-Mar-2020 4562.51 6964.58 85.26 5.00 383.87 3171.78
   10:17:02.519.24-Mar-2020 4562.51 6960.10 85.26 5.00 384.07 3171.78
   10:17:02.719.24-Mar-2020 4562.51 6960.10 85.26 5.00 384.27 3171.78
   10:17:02.919.24-Mar-2020 4562.51 6963.24 85.26 5.00 384.47 3171.78
   10:17:03.119.24-Mar-2020 4562.51 6957.11 85.26 5.00 384.67 3171.78
   10:17:03.319.24-Mar-2020 4562.51 6961.10 85.26 5.00 384.87 3171.78
   10:17:03.520.24-Mar-2020 4562.51 6958.35 85.26 5.00 385.07 3171.78
   10:17:03.720.24-Mar-2020 4562.51 6958.35 85.26 5.00 385.27 3171.78
   10:17:03.920.24-Mar-2020 4562.51 6958.75 85.26 5.00 385.47 3171.78
   10:17:04.120.24-Mar-2020 4562.51 6959.31 85.26 5.00 385.67 3171.78
   10:17:04.320.24-Mar-2020 4562.51 6951.48 85.26 5.00 385.87 3171.78
   10:17:04.520.24-Mar-2020 4562.51 6964.64 85.26 5.00 386.07 3171.78
   10:17:04.720.24-Mar-2020 4562.51 6964.64 85.26 5.00 386.27 3171.78
   10:17:04.920.24-Mar-2020 4562.51 6963.58 85.26 5.00 386.47 3171.78
   10:17:05.120.24-Mar-2020 4562.51 6958.06 85.26 5.00 386.67 3171.78
   10:17:05.320.24-Mar-2020 4562.51 6956.02 85.26 5.00 386.87 3171.78
   10:17:05.520.24-Mar-2020 4562.51 6962.69 85.25 5.00 387.07 3171.78
   10:17:05.720.24-Mar-2020 4562.51 6962.69 85.25 5.00 387.27 3171.78
   10:17:05.920.24-Mar-2020 4562.51 6960.95 85.25 5.00 387.47 3171.78
   10:17:06.120.24-Mar-2020 4562.51 6962.63 85.25 5.00 387.67 3171.78
   10:17:06.320.24-Mar-2020 4562.51 6960.27 85.25 5.00 387.87 3171.78
   10:17:06.520.24-Mar-2020 4562.51 6964.03 85.25 5.00 388.07 3171.78
   10:17:06.720.24-Mar-2020 4562.51 6964.03 85.25 5.00 388.27 3171.78
   10:17:06.920.24-Mar-2020 4562.51 6964.88 85.25 5.00 388.47 3171.78
   10:17:07.120.24-Mar-2020 4562.51 6960.22 85.25 5.00 388.67 3171.78
   10:17:07.320.24-Mar-2020 4562.51 6955.39 85.25 5.00 388.87 3171.78
