~Version Information
 VERS.                  2.0:   CWLS log ASCII Standard -VERSION 2.0
 WRAP.                   NO:   One line per depth step
~Well Information Block
#MNEM.UNIT     VALUE/NAME     DESCRIPTION
#---------     -----------    ---------------------------
 STRT.S             10:10:38 24-Mar-20: START TIME 10:10:38 24-Mar-20
 STOP.S             10:17:07 24-Mar-20: STOP TIME  10:17:07 24-Mar-20
 STEP.S                   0.00: STEP TIME
 NULL.                 -999.25: NULL VALUE
 DFWT.                        :  DIST FWL TEXT
 DFST.                        :  DIST FSL TEXT
 DMF .             Drill Floor:  DRILL MEAS FROM
 STIM.      22.30.00 15-Feb-20:  START TIME
 DATE.      17.00.00 25-Mar-20:  END TIME
 SPUD.               15-Feb-20:  SPUD DATE
 NREF.                    Grid:  NORTH REFERENCE
 HPTY.       Minimum Curvature:  HOLE POS TYPE
 DMOD.             Drill Model:  DRILL MOD DESC
 SVYD.                  Survey:  SURVEY DESC
 ILTD.               Lithology:  INTERP LTH DESC
 FTOP.          Formation Tops:  FORM TOPS DESC
 SON .        AZ-XX-0906019077:  JOB NUMBER
 PDAT.          Mean Sea Level:  PERMANENT DATUM
 WTYP.                Deviated:  WELL TYPE
 MDS .        Operator Entered:  MAG DATA SOURCE
 COMP.     BP Exploration (Caspian sea) Ltd.:  COMPANY
 UWI .                     N/A:  UNIQUE WELL IDENTIFIER
 API .                     N/A:  API NUMBER
 BASE.              Azerbaijan:  LOGGING EQUIPMENT BASE LOCATION
 REGN.                   EESSA:  REGION
 PROV.                     N/A:  PROVINCE
 STAT.                     N/A:  STATE NAME
 CTRY.              Azerbaijan:  COUNTRY NAME
 FLD .                     ACG:  FIELD NAME
 SRVC.          Turan Drilling:  CONTRACTOR
 MWDS.                    Baku:  MWD SHOP
 WELL.                    E16W:  WELL NAME
 JOBN.        AZ-XX-0906019077:  JOB TICKET NUMB
 RIG .                     DWG:  RIG NAME
 CNTY.                     N/A:  COUNTY NAME
 DCON.         Sperry Drilling:  DIRECTNL CONTR
 UNIT.                     N/A:  LOGGING EQUIPMENT ID
 LOC .                        :  LOCATION
 LMF .             Drill Floor:  LOG MEASURED FROM
 TVDS.m                  43.16:  TVDSS CORRECTN
 LATI.deg                40.17:  LATITUDE
 LONG.deg                51.17:  LONGITUDE
 WHNS.m                 -15.30:  WELL HEAD N/S
 WHEW.m                  -1.29:  WELL HEAD E/W
 UTMX.m              514337.95:  UTM X
 UTMY.m             4448627.46:  UTM Y
 DFWL.m                   0.00:  DISTANCE FWL
 DFSL.m                   0.00:  DISTANCE FSL
 SDEP.m                3499.01:  START DEPTH
 TDD .m                4606.01:  TOTAL DEPTH (DRILLER)
 VSDR.deg               151.14:  VERT SEC DIRECT
 GVFD.g                   1.00:  GRAVITY FIELD
 MFLD.nT              50334.00:  MAGNETIC FIELD
 MDIP.deg                59.62:  MAGNETIC DIP
 MDEC.deg                 6.46:  MAGNETIC DECL
 GRDC.deg                 0.12:  GRID CORRECTION
 AZTC.deg                 6.34:  AZM TOTAL CORR
 EPD .m                   0.00:  ELEVATION
 EGL .m                   0.00:  GROUND ELEVATION
 WDMS.m                 176.20:  WD ELEV
 APD .m                  43.16:  DEPTH ABOVE PD
 VSEW.m                  -1.29:  VERT SEC E/W
 VSNS.m                 -15.30:  VERT SEC N/S
 AGAP.m                  43.16:  AIR GAP
 EKB .m                   0.00:  KB ELEVATION
 EDF .m                  43.16:  DF ELEVATION
 TDL .m                 103.00:  TOTAL DEPTH (LOGGER)
 VSC .                       0:  VS TO CLOSURE
 MAGU.                 1852525:  MAGUTM CHECKSUM
~Parameter Information Block
#MNEM.UNIT       Value        Description
#---------     -----------    ---------------------------
 AV  .mps                 1.01:  Ann Velocity 
 AVMX.mps                 1.32:  Max Ann Veloc 
 AZIF.deg               140.63:  Azm, Final 
 BHAT.        Rotary Steerable:  BHA Type 
 BREV.rev            151000.00:  Rev Bit Total 
 BROT.°/30m               0.65:  Build Rotating 
 BS  .in                  6.50:  Bit Size 
 BSZ .in                  6.50:  Bit Size 
 BTPL.psig              222.00:  Bit Press Loss 
 CABU.                      No:  Customer Abuse 
 CGEO.           Emin Aliyarov:  Customer Geo 
 COMM.                     ´â}:  Run Comments 1 
 TCS .hr                 22.89:  Time Ciculation Ended 
 CV  .mps                 2.20:  Crit Velocity 
 CVMX.mps                 3.04:  Max Crit Veloc 
 DD1 .         Intigam Rahimov:  Direct Drillr 1 
 DDSV.               Geo-Pilot:  DD Service 
 DEFF.%                  91.50:  % Det Eff 
 DLRX.°/30m               1.15:  Dogleg Rot Max 
 DLSO.°/30m               0.86:  Dogleg Oriented 
 DLSX.°/30m               1.15:  Dogleg Str Max 
 DRET.      13.10.00 24-Mar-20:  Drill End Time 
 DRST.      17.00.00 23-Mar-20:  Drill Start Tim 
 DTIM.hr                 11.87:  Time Drilling 
 EDEP.m                4606.01:  End Depth 
 ENG1.          Rasim Hashimov:  Engineer 1 
 ENG2.            Alan Tuganov:  Engineer 2 
 ENG3.         Yevgeniy Ulikov:  Engineer 3 
 ETIM.      16.00.00 25-Mar-20:  End Time 
 FLOI.gpm               400.00:  Flow In 
 FLON.gpm               350.00:  Flow In Min 
 FLOS.cptm                0.00:  Fluid Loss 
 FLOX.gpm               400.00:  Flow In Max 
 FTRO.       Formation Presure:  FTWD Run Obj 
 HFLO.                      No:  High Flow 
 HPRE.                      No:  High Pressure 
 HTEM.                      No:  High Temp 
 HYDO.m                   1.80:  Hydro Offset 
 IFIN.deg                79.55:  Inc, Final 
 IMAX.deg                79.55:  Inc Max 
 IMIN.deg                78.04:  Inc Min 
 IMND.m                4502.50:  Inc Min Depth 
 IMXD.m                4587.87:  Inc Max Depth 
 JARR.                      No:  Jarring 
 LETM.      13.10.00 24-Mar-20:  Log End Time 
 LOST.hr                     0:  Lost Rig Time 
 LSTM.      17.00.00 23-Mar-20:  Log Start Time 
 MDCL.ppm             39000.00:  Mud Chlorides 
 MDES.     Inversion Oil/Synthetic:  Mud Desc 
 DFD .sg                  1.40:  Mud Density 
 MDMN.sg                  1.40:  Dens Mud Min 
 MDMX.sg                  1.40:  Dens Mud Max 
 MOIL.                    55.2:  Run Mud Oil % 
 MOWR.                   68:32:  Run Mud OWR 
 MSND.                     0.1:  Run Mud Sand % 
 MSOL.                    17.8:  Run Mud Solids% 
 DFV .spqt               76.00:  Mud Viscosity 
 MWOD.in                  4.75:  MWD Tool OD 
 MWSI.                      No:  Serv Intrp, MWD 
 OTIM.hr                 64.35:  Time Operating 
 PCON.           Look Like New:  Pad Condition 
 PMAX.psia             5350.00:  Press Op, Max 
 PV  .cP                 26.00:  Mud PV 
 RUN .                     900:  Run Number 
 ROPA.m/hr                9.00:  ROP Avg 
 ROPN.m/hr                7.00:  ROP Min 
 ROPX.m/hr               13.00:  ROP Max 
 RPMA.rpm               140.00:  RPM Surface Avg 
 RPMN.rpm               140.00:  RPM Surface Min 
 RPMX.rpm               140.00:  RPM Surface Max 
 RRUN.                    L204:  Rig Run Number 
 RTIM.hr                  4.50:  Time Reaming 
 SAZI.deg               141.40:  Azm, Start 
 SDEP.m                4503.01:  Start Depth 
 SIDD.                      No:  Serv Intrp, DD 
 SINC.deg                78.04:  Inc, Start 
 SPPA.psig             5300.00:  SPP Avg 
 SPPN.psig             5100.00:  SPP Min 
 SPPX.psig             5500.00:  SPP Max 
 STIM.      18.00.00 22-Mar-20:  Start Time 
 SVCS.                 DD, MWD:  Services 
 SVER.                    9.20:  Sperry Version 
 TDAT.m                 103.00:  Tot Depth Attmp 
 TDDF.                      No:  Trip for DD 
 TDLG.m                 103.00:  Tot Depth Loggd 
 TFF .                      No:  Trip for Fail 
 TQAA.f-kp               14.00:  Torque Abs Avg 
 TQAN.f-kp               12.00:  Torque Abs Min 
 TQAX.f-kp               16.00:  Torque Abs Max 
 TRRT.°/30m               0.45:  Turn Rotating 
 MRT .                    HCIM:  Maximum Recorded Temperature 
 TTMX.degC               90.20:  Max Tool Temp 
 VS01.         90577859G12V7D4:  Virtual Str1 SN 
 VS02.            90519330D5C4:  Virtual Str2 SN 
 VS03.             90603450F11:  Virtual Str3 SN 
 VS04.           90515383R12C4:  Virtual Str4 SN 
 VS05.          90522017N2L2C4:  Virtual Str5 SN 
 VS06.            90512682Z1W1:  Virtual Str6 SN 
 WBMN.klb                 5.00:  WOB Min 
 WITN.        Elmaddin Rahimov:  Customer Rep 
 WITN.           Adil Mammadov:  Customer Rep 2 
 WOBA.klb                 8.00:  WOB Avg 
 WOBX.klb                13.00:  WOB Max 
 YP  .lhf2               31.00:  Yield Point 
~Curve Information Block
#MNEM.UNIT                 API CODE     Curve Description
#---------               -----------    ---------------------------
 TIME.HHMMSS            00 000 000 000:  GT Time & Date
 GTDEPTH.m              00 000 000 000:  GT Depth
 GTPQH.psia             00 000 000 000:  GT HR Quartz Pressure
 GTTQ.degC              00 000 000 000:  GT Quartz Temperature
 GTTN.NONE              00 000 000 000:  GT Test Number
 GTET.sec               00 000 000 000:  GT Elapsed Test Time
 GTTVD.m                00 000 000 000:  GT True Vertical Depth
#Other Information
#
#WARRANTY: Halliburton will use its best efforts to furnish customers with 
#accurate information and interpretations that are part of, and incident to, the services 
#provided.  However, Halliburton cannot and does not warrant the accuracy 
#or correctness of such information and interpretations.  Under no circumstances should any 
#such information or interpretation be relied upon as the sole basis for any drilling, 
#completion, production, or financial decision or any procedure involving any risk to the 
#safety of any drilling venture, drilling rig or its crew or any other third party.  The 
#Customer has full responsibility for all drilling, completion and production operation.  
#Halliburton makes no representations or warranties, either expressed or 
#implied, including, but not limited to, the implied warranties of merchantability or fitness 
#for a particular purpose, with respect to the services rendered.  In no event will 
#Halliburton be liable for failure to obtain any particular results or for 
#any damages, including, but not limited to, indirect, special or consequential damages, 
#resulting from the use of any information or interpretation provided by Halliburton.
#
~A           TIME           GTDEPTH  GTPQH  GTTQ  GTTN  GTET   GTTVD  
# ...
   10:16:23.512.24-Mar-2020 4562.51 4435.32 85.35 5.00 345.06 3171.78
   10:16:23.712.24-Mar-2020 4562.51 4435.32 85.35 5.00 345.26 3171.78
   10:16:23.912.24-Mar-2020 4562.51 4435.33 85.35 5.00 345.46 3171.78
   10:16:24.112.24-Mar-2020 4562.51 4435.28 85.35 5.00 345.66 3171.78
   10:16:24.312.24-Mar-2020 4562.51 4435.33 85.35 5.00 345.86 3171.78
   10:16:24.512.24-Mar-2020 4562.51 4435.28 85.35 5.00 346.06 3171.78
   10:16:24.712.24-Mar-2020 4562.51 4435.28 85.35 5.00 346.26 3171.78
   10:16:24.912.24-Mar-2020 4562.51 4438.10 85.35 5.00 346.46 3171.78
   10:16:25.112.24-Mar-2020 4562.51 4730.75 85.35 5.00 346.66 3171.78
   10:16:25.312.24-Mar-2020 4562.51 6954.90 85.35 5.00 346.86 3171.78
   10:16:25.512.24-Mar-2020 4562.51 6952.26 85.34 5.00 347.06 3171.78
   10:16:25.712.24-Mar-2020 4562.51 6952.26 85.34 5.00 347.26 3171.78
   10:16:25.912.24-Mar-2020 4562.51 6943.75 85.34 5.00 347.46 3171.78
   10:16:26.113.24-Mar-2020 4562.51 6959.27 85.34 5.00 347.66 3171.78
   10:16:26.313.24-Mar-2020 4562.51 6946.46 85.34 5.00 347.87 3171.78
   10:16:26.513.24-Mar-2020 4562.51 6954.69 85.34 5.00 348.07 3171.78
   10:16:26.713.24-Mar-2020 4562.51 6954.69 85.34 5.00 348.27 3171.78
   10:16:26.913.24-Mar-2020 4562.51 6955.98 85.34 5.00 348.47 3171.78
   10:16:27.113.24-Mar-2020 4562.51 6953.77 85.34 5.00 348.67 3171.78
   10:16:27.313.24-Mar-2020 4562.51 6959.42 85.34 5.00 348.87 3171.78
   10:16:27.513.24-Mar-2020 4562.51 6955.43 85.34 5.00 349.07 3171.78
   10:16:27.713.24-Mar-2020 4562.51 6955.43 85.34 5.00 349.27 3171.78
   10:16:27.913.24-Mar-2020 4562.51 6960.01 85.34 5.00 349.47 3171.78
   10:16:28.113.24-Mar-2020 4562.51 6955.88 85.34 5.00 349.67 3171.78
   10:16:28.313.24-Mar-2020 4562.51 6959.90 85.34 5.00 349.87 3171.78
   10:16:28.513.24-Mar-2020 4562.51 6960.72 85.34 5.00 350.07 3171.78
   10:16:28.713.24-Mar-2020 4562.51 6960.72 85.34 5.00 350.27 3171.78
   10:16:28.913.24-Mar-2020 4562.51 6957.18 85.34 5.00 350.47 3171.78
   10:16:29.113.24-Mar-2020 4562.51 6960.49 85.34 5.00 350.67 3171.78
   10:16:29.313.24-Mar-2020 4562.51 6960.73 85.34 5.00 350.87 3171.78
   10:16:29.513.24-Mar-2020 4562.51 6961.40 85.34 5.00 351.07 3171.78
   10:16:29.713.24-Mar-2020 4562.51 6961.40 85.34 5.00 351.27 3171.78
   10:16:29.913.24-Mar-2020 4562.51 6962.71 85.34 5.00 351.47 3171.78
   10:16:30.113.24-Mar-2020 4562.51 6961.22 85.34 5.00 351.67 3171.78
   10:16:30.313.24-Mar-2020 4562.51 6964.20 85.34 5.00 351.87 3171.78
   10:16:30.513.24-Mar-2020 4562.51 6960.63 85.34 5.00 352.07 3171.78
   10:16:30.713.24-Mar-2020 4562.51 6960.63 85.34 5.00 352.27 3171.78
   10:16:30.913.24-Mar-2020 4562.51 6962.99 85.34 5.00 352.47 3171.78
   10:16:31.113.24-Mar-2020 4562.51 6959.05 85.34 5.00 352.67 3171.78
   10:16:31.314.24-Mar-2020 4562.51 6960.95 85.34 5.00 352.87 3171.78
   10:16:31.514.24-Mar-2020 4562.51 6963.27 85.34 5.00 353.07 3171.78
   10:16:31.714.24-Mar-2020 4562.51 6963.27 85.34 5.00 353.27 3171.78
   10:16:31.914.24-Mar-2020 4562.51 6964.12 85.34 5.00 353.47 3171.78
   10:16:32.114.24-Mar-2020 4562.51 6959.60 85.34 5.00 353.67 3171.78
   10:16:32.314.24-Mar-2020 4562.51 6964.16 85.34 5.00 353.87 3171.78
   10:16:32.514.24-Mar-2020 4562.51 6958.91 85.34 5.00 354.07 3171.78
   10:16:32.714.24-Mar-2020 4562.51 6958.91 85.34 5.00 354.27 3171.78
   10:16:32.914.24-Mar-2020 4562.51 6959.48 85.34 5.00 354.47 3171.78
   10:16:33.114.24-Mar-2020 4562.51 6964.85 85.34 5.00 354.67 3171.78
   10:16:33.314.24-Mar-2020 4562.51 6959.76 85.34 5.00 354.87 3171.78
   10:16:33.514.24-Mar-2020 4562.51 6958.75 85.34 5.00 355.07 3171.78
   10:16:33.714.24-Mar-2020 4562.51 6958.75 85.34 5.00 355.27 3171.78
   10:16:33.914.24-Mar-2020 4562.51 6960.75 85.34 5.00 355.47 3171.78
   10:16:34.114.24-Mar-2020 4562.51 6953.02 85.34 5.00 355.67 3171.78
   10:16:34.314.24-Mar-2020 4562.51 6962.37 85.34 5.00 355.87 3171.78
   10:16:34.514.24-Mar-2020 4562.51 6957.16 85.34 5.00 356.07 3171.78
   10:16:34.714.24-Mar-2020 4562.51 6957.16 85.34 5.00 356.27 3171.78
   10:16:34.914.24-Mar-2020 4562.51 6960.55 85.34 5.00 356.47 3171.78
   10:16:35.114.24-Mar-2020 4562.51 6956.29 85.34 5.00 356.67 3171.78
   10:16:35.314.24-Mar-2020 4562.51 6961.39 85.34 5.00 356.87 3171.78
   10:16:35.514.24-Mar-2020 4562.51 6956.02 85.34 5.00 357.07 3171.78
   10:16:35.714.24-Mar-2020 4562.51 6963.89 85.34 5.00 357.27 3171.78
   10:16:35.914.24-Mar-2020 4562.51 6958.82 85.34 5.00 357.47 3171.78
   10:16:36.114.24-Mar-2020 4562.51 6964.77 85.34 5.00 357.67 3171.78
   10:16:36.314.24-Mar-2020 4562.51 6951.75 85.34 5.00 357.87 3171.78
   10:16:36.514.24-Mar-2020 4562.51 6968.88 85.34 5.00 358.07 3171.78
   10:16:36.715.24-Mar-2020 4562.51 6968.88 85.34 5.00 358.27 3171.78
   10:16:36.915.24-Mar-2020 4562.51 6966.46 85.34 5.00 358.47 3171.78
   10:16:37.115.24-Mar-2020 4562.51 6957.45 85.33 5.00 358.67 3171.78
   10:16:37.315.24-Mar-2020 4562.51 6965.18 85.33 5.00 358.87 3171.78
   10:16:37.515.24-Mar-2020 4562.51 6959.43 85.33 5.00 359.07 3171.78
   10:16:37.715.24-Mar-2020 4562.51 6959.43 85.33 5.00 359.27 3171.78
   10:16:37.915.24-Mar-2020 4562.51 6960.33 85.33 5.00 359.47 3171.78
   10:16:38.115.24-Mar-2020 4562.51 6964.35 85.33 5.00 359.67 3171.78
   10:16:38.315.24-Mar-2020 4562.51 6951.37 85.33 5.00 359.87 3171.78
   10:16:38.515.24-Mar-2020 4562.51 6967.46 85.33 5.00 360.07 3171.78
   10:16:38.715.24-Mar-2020 4562.51 6967.46 85.33 5.00 360.27 3171.78
   10:16:38.915.24-Mar-2020 4562.51 6964.88 85.33 5.00 360.47 3171.78
   10:16:39.115.24-Mar-2020 4562.51 6959.99 85.33 5.00 360.67 3171.78
   10:16:39.315.24-Mar-2020 4562.51 6962.47 85.33 5.00 360.87 3171.78
   10:16:39.515.24-Mar-2020 4562.51 6961.30 85.33 5.00 361.07 3171.78
   10:16:39.715.24-Mar-2020 4562.51 6961.30 85.33 5.00 361.27 3171.78
   10:16:39.915.24-Mar-2020 4562.51 6961.80 85.33 5.00 361.47 3171.78
   10:16:40.115.24-Mar-2020 4562.51 6959.88 85.33 5.00 361.67 3171.78
   10:16:40.315.24-Mar-2020 4562.51 6962.43 85.33 5.00 361.87 3171.78
   10:16:40.515.24-Mar-2020 4562.51 6959.90 85.33 5.00 362.07 3171.78
   10:16:40.715.24-Mar-2020 4562.51 6959.90 85.33 5.00 362.27 3171.78
   10:16:40.915.24-Mar-2020 4562.51 6959.09 85.33 5.00 362.47 3171.78
   10:16:41.115.24-Mar-2020 4562.51 6959.10 85.33 5.00 362.67 3171.78
   10:16:41.315.24-Mar-2020 4562.51 6958.00 85.33 5.00 362.87 3171.78
   10:16:41.515.24-Mar-2020 4562.51 6961.80 85.33 5.00 363.07 3171.78
   10:16:41.715.24-Mar-2020 4562.51 6961.80 85.33 5.00 363.27 3171.78
   10:16:41.915.24-Mar-2020 4562.51 6962.34 85.32 5.00 363.47 3171.78
   10:16:42.116.24-Mar-2020 4562.51 6954.37 85.32 5.00 363.67 3171.78
   10:16:42.316.24-Mar-2020 4562.51 6963.07 85.32 5.00 363.87 3171.78
   10:16:42.516.24-Mar-2020 4562.51 6949.37 85.32 5.00 364.07 3171.78
   10:16:42.716.24-Mar-2020 4562.51 6949.37 85.32 5.00 364.27 3171.78
   10:16:42.916.24-Mar-2020 4562.51 6952.79 85.32 5.00 364.47 3171.78
   10:16:43.116.24-Mar-2020 4562.51 6963.76 85.32 5.00 364.67 3171.78
   10:16:43.316.24-Mar-2020 4562.51 6958.24 85.32 5.00 364.87 3171.78
   10:16:43.516.24-Mar-2020 4562.51 6956.70 85.32 5.00 365.07 3171.78
   10:16:43.716.24-Mar-2020 4562.51 6956.70 85.32 5.00 365.27 3171.78
   10:16:43.916.24-Mar-2020 4562.51 6958.62 85.32 5.00 365.47 3171.78
   10:16:44.116.24-Mar-2020 4562.51 6962.84 85.32 5.00 365.67 3171.78
   10:16:44.316.24-Mar-2020 4562.51 6961.14 85.32 5.00 365.87 3171.78
   10:16:44.516.24-Mar-2020 4562.51 6963.09 85.32 5.00 366.07 3171.78
   10:16:44.716.24-Mar-2020 4562.51 6963.09 85.32 5.00 366.27 3171.78
   10:16:44.916.24-Mar-2020 4562.51 6963.86 85.32 5.00 366.47 3171.78
   10:16:45.116.24-Mar-2020 4562.51 6961.48 85.32 5.00 366.67 3171.78
   10:16:45.316.24-Mar-2020 4562.51 6964.08 85.32 5.00 366.87 3171.78
   10:16:45.516.24-Mar-2020 4562.51 6952.24 85.32 5.00 367.07 3171.78
   10:16:45.716.24-Mar-2020 4562.51 6952.24 85.32 5.00 367.27 3171.78
   10:16:45.916.24-Mar-2020 4562.51 6955.84 85.31 5.00 367.47 3171.78
   10:16:46.116.24-Mar-2020 4562.51 6964.93 85.31 5.00 367.67 3171.78
   10:16:46.316.24-Mar-2020 4562.51 6958.92 85.31 5.00 367.87 3171.78
