~Version Information
 VERS.                  2.0:   CWLS log ASCII Standard -VERSION 2.0
 WRAP.                   NO:   One line per depth step
~Well Information Block
#MNEM.UNIT     VALUE/NAME     DESCRIPTION
#---------     -----------    ---------------------------
 STRT.S             00:58:12 24-Mar-20: START TIME 00:58:12 24-Mar-20
 STOP.S             01:04:43 24-Mar-20: STOP TIME  01:04:43 24-Mar-20
 STEP.S                   0.00: STEP TIME
 NULL.                 -999.25: NULL VALUE
 DFWT.                        :  DIST FWL TEXT
 DFST.                        :  DIST FSL TEXT
 DMF .             Drill Floor:  DRILL MEAS FROM
 STIM.      22.30.00 15-Feb-20:  START TIME
 DATE.      17.00.00 25-Mar-20:  END TIME
 SPUD.               15-Feb-20:  SPUD DATE
 NREF.                    Grid:  NORTH REFERENCE
 HPTY.       Minimum Curvature:  HOLE POS TYPE
 DMOD.             Drill Model:  DRILL MOD DESC
 SVYD.                  Survey:  SURVEY DESC
 ILTD.               Lithology:  INTERP LTH DESC
 FTOP.          Formation Tops:  FORM TOPS DESC
 SON .        AZ-XX-0906019077:  JOB NUMBER
 PDAT.          Mean Sea Level:  PERMANENT DATUM
 WTYP.                Deviated:  WELL TYPE
 MDS .        Operator Entered:  MAG DATA SOURCE
 COMP.     BP Exploration (Caspian sea) Ltd.:  COMPANY
 UWI .                     N/A:  UNIQUE WELL IDENTIFIER
 API .                     N/A:  API NUMBER
 BASE.              Azerbaijan:  LOGGING EQUIPMENT BASE LOCATION
 REGN.                   EESSA:  REGION
 PROV.                     N/A:  PROVINCE
 STAT.                     N/A:  STATE NAME
 CTRY.              Azerbaijan:  COUNTRY NAME
 FLD .                     ACG:  FIELD NAME
 SRVC.          Turan Drilling:  CONTRACTOR
 MWDS.                    Baku:  MWD SHOP
 WELL.                    E16W:  WELL NAME
 JOBN.        AZ-XX-0906019077:  JOB TICKET NUMB
 RIG .                     DWG:  RIG NAME
 CNTY.                     N/A:  COUNTY NAME
 DCON.         Sperry Drilling:  DIRECTNL CONTR
 UNIT.                     N/A:  LOGGING EQUIPMENT ID
 LOC .                        :  LOCATION
 LMF .             Drill Floor:  LOG MEASURED FROM
 TVDS.m                  43.16:  TVDSS CORRECTN
 LATI.deg                40.17:  LATITUDE
 LONG.deg                51.17:  LONGITUDE
 WHNS.m                 -15.30:  WELL HEAD N/S
 WHEW.m                  -1.29:  WELL HEAD E/W
 UTMX.m              514337.95:  UTM X
 UTMY.m             4448627.46:  UTM Y
 DFWL.m                   0.00:  DISTANCE FWL
 DFSL.m                   0.00:  DISTANCE FSL
 SDEP.m                3499.01:  START DEPTH
 TDD .m                4606.01:  TOTAL DEPTH (DRILLER)
 VSDR.deg               151.14:  VERT SEC DIRECT
 GVFD.g                   1.00:  GRAVITY FIELD
 MFLD.nT              50334.00:  MAGNETIC FIELD
 MDIP.deg                59.62:  MAGNETIC DIP
 MDEC.deg                 6.46:  MAGNETIC DECL
 GRDC.deg                 0.12:  GRID CORRECTION
 AZTC.deg                 6.34:  AZM TOTAL CORR
 EPD .m                   0.00:  ELEVATION
 EGL .m                   0.00:  GROUND ELEVATION
 WDMS.m                 176.20:  WD ELEV
 APD .m                  43.16:  DEPTH ABOVE PD
 VSEW.m                  -1.29:  VERT SEC E/W
 VSNS.m                 -15.30:  VERT SEC N/S
 AGAP.m                  43.16:  AIR GAP
 EKB .m                   0.00:  KB ELEVATION
 EDF .m                  43.16:  DF ELEVATION
 TDL .m                 103.00:  TOTAL DEPTH (LOGGER)
 VSC .                       0:  VS TO CLOSURE
 MAGU.                 1852525:  MAGUTM CHECKSUM
~Parameter Information Block
#MNEM.UNIT       Value        Description
#---------     -----------    ---------------------------
 AV  .mps                 1.01:  Ann Velocity 
 AVMX.mps                 1.32:  Max Ann Veloc 
 AZIF.deg               140.63:  Azm, Final 
 BHAT.        Rotary Steerable:  BHA Type 
 BREV.rev            151000.00:  Rev Bit Total 
 BROT.°/30m               0.65:  Build Rotating 
 BS  .in                  6.50:  Bit Size 
 BSZ .in                  6.50:  Bit Size 
 BTPL.psig              222.00:  Bit Press Loss 
 CABU.                      No:  Customer Abuse 
 CGEO.           Emin Aliyarov:  Customer Geo 
 COMM.                     lx{:  Run Comments 1 
 TCS .hr                 22.89:  Time Ciculation Ended 
 CV  .mps                 2.20:  Crit Velocity 
 CVMX.mps                 3.04:  Max Crit Veloc 
 DD1 .         Intigam Rahimov:  Direct Drillr 1 
 DDSV.               Geo-Pilot:  DD Service 
 DEFF.%                  91.50:  % Det Eff 
 DLRX.°/30m               1.15:  Dogleg Rot Max 
 DLSO.°/30m               0.86:  Dogleg Oriented 
 DLSX.°/30m               1.15:  Dogleg Str Max 
 DRET.      13.10.00 24-Mar-20:  Drill End Time 
 DRST.      17.00.00 23-Mar-20:  Drill Start Tim 
 DTIM.hr                 11.87:  Time Drilling 
 EDEP.m                4606.01:  End Depth 
 ENG1.          Rasim Hashimov:  Engineer 1 
 ENG2.            Alan Tuganov:  Engineer 2 
 ENG3.         Yevgeniy Ulikov:  Engineer 3 
 ETIM.      16.00.00 25-Mar-20:  End Time 
 FLOI.gpm               400.00:  Flow In 
 FLON.gpm               350.00:  Flow In Min 
 FLOS.cptm                0.00:  Fluid Loss 
 FLOX.gpm               400.00:  Flow In Max 
 FTRO.       Formation Presure:  FTWD Run Obj 
 HFLO.                      No:  High Flow 
 HPRE.                      No:  High Pressure 
 HTEM.                      No:  High Temp 
 HYDO.m                   1.80:  Hydro Offset 
 IFIN.deg                79.55:  Inc, Final 
 IMAX.deg                79.55:  Inc Max 
 IMIN.deg                78.04:  Inc Min 
 IMND.m                4502.50:  Inc Min Depth 
 IMXD.m                4587.87:  Inc Max Depth 
 JARR.                      No:  Jarring 
 LETM.      13.10.00 24-Mar-20:  Log End Time 
 LOST.hr                     0:  Lost Rig Time 
 LSTM.      17.00.00 23-Mar-20:  Log Start Time 
 MDCL.ppm             39000.00:  Mud Chlorides 
 MDES.     Inversion Oil/Synthetic:  Mud Desc 
 DFD .sg                  1.40:  Mud Density 
 MDMN.sg                  1.40:  Dens Mud Min 
 MDMX.sg                  1.40:  Dens Mud Max 
 MOIL.                    55.2:  Run Mud Oil % 
 MOWR.                   68:32:  Run Mud OWR 
 MSND.                     0.1:  Run Mud Sand % 
 MSOL.                    17.8:  Run Mud Solids% 
 DFV .spqt               76.00:  Mud Viscosity 
 MWOD.in                  4.75:  MWD Tool OD 
 MWSI.                      No:  Serv Intrp, MWD 
 OTIM.hr                 64.35:  Time Operating 
 PCON.           Look Like New:  Pad Condition 
 PMAX.psia             5350.00:  Press Op, Max 
 PV  .cP                 26.00:  Mud PV 
 RUN .                     900:  Run Number 
 ROPA.m/hr                9.00:  ROP Avg 
 ROPN.m/hr                7.00:  ROP Min 
 ROPX.m/hr               13.00:  ROP Max 
 RPMA.rpm               140.00:  RPM Surface Avg 
 RPMN.rpm               140.00:  RPM Surface Min 
 RPMX.rpm               140.00:  RPM Surface Max 
 RRUN.                    L204:  Rig Run Number 
 RTIM.hr                  4.50:  Time Reaming 
 SAZI.deg               141.40:  Azm, Start 
 SDEP.m                4503.01:  Start Depth 
 SIDD.                      No:  Serv Intrp, DD 
 SINC.deg                78.04:  Inc, Start 
 SPPA.psig             5300.00:  SPP Avg 
 SPPN.psig             5100.00:  SPP Min 
 SPPX.psig             5500.00:  SPP Max 
 STIM.      18.00.00 22-Mar-20:  Start Time 
 SVCS.                 DD, MWD:  Services 
 SVER.                    9.20:  Sperry Version 
 TDAT.m                 103.00:  Tot Depth Attmp 
 TDDF.                      No:  Trip for DD 
 TDLG.m                 103.00:  Tot Depth Loggd 
 TFF .                      No:  Trip for Fail 
 TQAA.f-kp               14.00:  Torque Abs Avg 
 TQAN.f-kp               12.00:  Torque Abs Min 
 TQAX.f-kp               16.00:  Torque Abs Max 
 TRRT.°/30m               0.45:  Turn Rotating 
 MRT .                    HCIM:  Maximum Recorded Temperature 
 TTMX.degC               90.20:  Max Tool Temp 
 VS01.         90577859G12V7D4:  Virtual Str1 SN 
 VS02.            90519330D5C4:  Virtual Str2 SN 
 VS03.             90603450F11:  Virtual Str3 SN 
 VS04.           90515383R12C4:  Virtual Str4 SN 
 VS05.          90522017N2L2C4:  Virtual Str5 SN 
 VS06.            90512682Z1W1:  Virtual Str6 SN 
 WBMN.klb                 5.00:  WOB Min 
 WITN.        Elmaddin Rahimov:  Customer Rep 
 WITN.           Adil Mammadov:  Customer Rep 2 
 WOBA.klb                 8.00:  WOB Avg 
 WOBX.klb                13.00:  WOB Max 
 YP  .lhf2               31.00:  Yield Point 
~Curve Information Block
#MNEM.UNIT                 API CODE     Curve Description
#---------               -----------    ---------------------------
 TIME.HHMMSS            00 000 000 000:  GT Time & Date
 GTDEPTH.m              00 000 000 000:  GT Depth
 GTPQH.psia             00 000 000 000:  GT HR Quartz Pressure
 GTTQ.degC              00 000 000 000:  GT Quartz Temperature
 GTTN.NONE              00 000 000 000:  GT Test Number
 GTET.sec               00 000 000 000:  GT Elapsed Test Time
 GTTVD.m                00 000 000 000:  GT True Vertical Depth
#Other Information
#
#WARRANTY: Halliburton will use its best efforts to furnish customers with 
#accurate information and interpretations that are part of, and incident to, the services 
#provided.  However, Halliburton cannot and does not warrant the accuracy 
#or correctness of such information and interpretations.  Under no circumstances should any 
#such information or interpretation be relied upon as the sole basis for any drilling, 
#completion, production, or financial decision or any procedure involving any risk to the 
#safety of any drilling venture, drilling rig or its crew or any other third party.  The 
#Customer has full responsibility for all drilling, completion and production operation.  
#Halliburton makes no representations or warranties, either expressed or 
#implied, including, but not limited to, the implied warranties of merchantability or fitness 
#for a particular purpose, with respect to the services rendered.  In no event will 
#Halliburton be liable for failure to obtain any particular results or for 
#any damages, including, but not limited to, indirect, special or consequential damages, 
#resulting from the use of any information or interpretation provided by Halliburton.
#
~A           TIME           GTDEPTH  GTPQH  GTTQ  GTTN  GTET   GTTVD  
# ...
   01:02:25.763.24-Mar-2020 4501.51 4469.51 80.20 2.00 253.04 3159.43
   01:02:25.963.24-Mar-2020 4501.51 4469.51 80.20 2.00 253.24 3159.43
   01:02:26.163.24-Mar-2020 4501.51 4469.53 80.20 2.00 253.44 3159.43
   01:02:26.363.24-Mar-2020 4501.51 4469.52 80.20 2.00 253.64 3159.43
   01:02:26.563.24-Mar-2020 4501.51 4469.54 80.19 2.00 253.84 3159.43
   01:02:26.763.24-Mar-2020 4501.51 4469.55 80.19 2.00 254.04 3159.43
   01:02:26.963.24-Mar-2020 4501.51 4469.55 80.19 2.00 254.24 3159.43
   01:02:27.163.24-Mar-2020 4501.51 4469.67 80.19 2.00 254.44 3159.43
   01:02:27.363.24-Mar-2020 4501.51 4469.66 80.19 2.00 254.64 3159.43
   01:02:27.563.24-Mar-2020 4501.51 4469.59 80.19 2.00 254.84 3159.43
   01:02:27.763.24-Mar-2020 4501.51 4469.60 80.19 2.00 255.04 3159.43
   01:02:27.963.24-Mar-2020 4501.51 4469.60 80.19 2.00 255.24 3159.43
   01:02:28.163.24-Mar-2020 4501.51 4469.61 80.19 2.00 255.44 3159.43
   01:02:28.363.24-Mar-2020 4501.51 4469.61 80.19 2.00 255.64 3159.43
   01:02:28.563.24-Mar-2020 4501.51 4469.61 80.19 2.00 255.84 3159.43
   01:02:28.763.24-Mar-2020 4501.51 4469.63 80.19 2.00 256.04 3159.43
   01:02:28.963.24-Mar-2020 4501.51 4469.61 80.19 2.00 256.24 3159.43
   01:02:29.163.24-Mar-2020 4501.51 4469.65 80.19 2.00 256.44 3159.43
   01:02:29.363.24-Mar-2020 4501.51 4469.62 80.19 2.00 256.64 3159.43
   01:02:29.563.24-Mar-2020 4501.51 4469.65 80.18 2.00 256.84 3159.43
   01:02:29.763.24-Mar-2020 4501.51 4469.67 80.18 2.00 257.04 3159.43
   01:02:29.963.24-Mar-2020 4501.51 4469.67 80.18 2.00 257.24 3159.43
   01:02:30.163.24-Mar-2020 4501.51 4469.68 80.18 2.00 257.44 3159.43
   01:02:30.364.24-Mar-2020 4501.51 4469.70 80.18 2.00 257.64 3159.43
   01:02:30.564.24-Mar-2020 4501.51 4469.53 80.18 2.00 257.84 3159.43
   01:02:30.764.24-Mar-2020 4501.51 4469.69 80.18 2.00 258.04 3159.43
   01:02:30.964.24-Mar-2020 4501.51 4469.69 80.18 2.00 258.24 3159.43
   01:02:31.164.24-Mar-2020 4501.51 4469.68 80.18 2.00 258.44 3159.43
   01:02:31.364.24-Mar-2020 4501.51 4469.55 80.18 2.00 258.64 3159.43
   01:02:31.564.24-Mar-2020 4501.51 4469.69 80.18 2.00 258.84 3159.43
   01:02:31.764.24-Mar-2020 4501.51 4469.77 80.18 2.00 259.04 3159.43
   01:02:31.964.24-Mar-2020 4501.51 4469.77 80.18 2.00 259.24 3159.43
   01:02:32.164.24-Mar-2020 4501.51 4469.76 80.18 2.00 259.44 3159.43
   01:02:32.364.24-Mar-2020 4501.51 4469.75 80.17 2.00 259.64 3159.43
   01:02:32.564.24-Mar-2020 4501.51 4469.67 80.17 2.00 259.84 3159.43
   01:02:32.764.24-Mar-2020 4501.51 4469.69 80.17 2.00 260.04 3159.43
   01:02:32.964.24-Mar-2020 4501.51 4469.69 80.17 2.00 260.25 3159.43
   01:02:33.164.24-Mar-2020 4501.51 4469.67 80.17 2.00 260.45 3159.43
   01:02:33.364.24-Mar-2020 4501.51 4469.69 80.17 2.00 260.65 3159.43
   01:02:33.564.24-Mar-2020 4501.51 4469.67 80.17 2.00 260.85 3159.43
   01:02:33.764.24-Mar-2020 4501.51 4469.65 80.17 2.00 261.05 3159.43
   01:02:33.964.24-Mar-2020 4501.51 4469.65 80.17 2.00 261.25 3159.43
   01:02:34.164.24-Mar-2020 4501.51 4469.65 80.17 2.00 261.45 3159.43
   01:02:34.364.24-Mar-2020 4501.51 4469.67 80.17 2.00 261.65 3159.43
   01:02:34.564.24-Mar-2020 4501.51 4469.73 80.17 2.00 261.85 3159.43
   01:02:34.764.24-Mar-2020 4501.51 4469.68 80.17 2.00 262.05 3159.43
   01:02:34.964.24-Mar-2020 4501.51 4469.68 80.17 2.00 262.25 3159.43
   01:02:35.164.24-Mar-2020 4501.51 4469.68 80.17 2.00 262.45 3159.43
   01:02:35.364.24-Mar-2020 4501.51 4469.69 80.16 2.00 262.65 3159.43
   01:02:35.564.24-Mar-2020 4501.51 4469.67 80.16 2.00 262.85 3159.43
   01:02:35.764.24-Mar-2020 4501.51 4469.68 80.16 2.00 263.05 3159.43
   01:02:35.964.24-Mar-2020 4501.51 4469.68 80.16 2.00 263.25 3159.43
   01:02:36.165.24-Mar-2020 4501.51 4469.69 80.16 2.00 263.45 3159.43
   01:02:36.365.24-Mar-2020 4501.51 4469.69 80.16 2.00 263.65 3159.43
   01:02:36.565.24-Mar-2020 4501.51 4469.54 80.16 2.00 263.85 3159.43
   01:02:36.765.24-Mar-2020 4501.51 4469.77 80.16 2.00 264.05 3159.43
   01:02:36.965.24-Mar-2020 4501.51 4469.77 80.16 2.00 264.25 3159.43
   01:02:37.165.24-Mar-2020 4501.51 4469.69 80.16 2.00 264.45 3159.43
   01:02:37.365.24-Mar-2020 4501.51 4469.59 80.16 2.00 264.65 3159.43
   01:02:37.565.24-Mar-2020 4501.51 4469.76 80.16 2.00 264.85 3159.43
   01:02:37.765.24-Mar-2020 4501.51 4469.76 80.16 2.00 265.05 3159.43
   01:02:37.965.24-Mar-2020 4501.51 4469.76 80.16 2.00 265.25 3159.43
   01:02:38.165.24-Mar-2020 4501.51 4469.67 80.16 2.00 265.45 3159.43
   01:02:38.365.24-Mar-2020 4501.51 4469.73 80.15 2.00 265.65 3159.43
   01:02:38.565.24-Mar-2020 4501.51 4469.57 80.15 2.00 265.85 3159.43
   01:02:38.765.24-Mar-2020 4501.51 4469.75 80.15 2.00 266.05 3159.43
   01:02:38.965.24-Mar-2020 4501.51 4469.75 80.15 2.00 266.25 3159.43
   01:02:39.165.24-Mar-2020 4501.51 4469.75 80.15 2.00 266.45 3159.43
   01:02:39.365.24-Mar-2020 4501.51 4469.69 80.15 2.00 266.65 3159.43
   01:02:39.565.24-Mar-2020 4501.51 4469.62 80.15 2.00 266.85 3159.43
   01:02:39.765.24-Mar-2020 4501.51 4469.76 80.15 2.00 267.05 3159.43
   01:02:39.965.24-Mar-2020 4501.51 4469.76 80.15 2.00 267.25 3159.43
   01:02:40.165.24-Mar-2020 4501.51 4469.68 80.15 2.00 267.45 3159.43
   01:02:40.365.24-Mar-2020 4501.51 4469.74 80.15 2.00 267.65 3159.43
   01:02:40.565.24-Mar-2020 4501.51 4469.72 80.15 2.00 267.85 3159.43
   01:02:40.765.24-Mar-2020 4501.51 4469.73 80.15 2.00 268.05 3159.43
   01:02:40.965.24-Mar-2020 4501.51 4469.70 80.15 2.00 268.25 3159.43
   01:02:41.165.24-Mar-2020 4501.51 4469.71 80.15 2.00 268.45 3159.43
   01:02:41.365.24-Mar-2020 4501.51 4469.71 80.14 2.00 268.65 3159.43
   01:02:41.565.24-Mar-2020 4501.51 4469.70 80.14 2.00 268.85 3159.43
   01:02:41.765.24-Mar-2020 4501.51 4469.65 80.14 2.00 269.05 3159.43
   01:02:41.966.24-Mar-2020 4501.51 4469.65 80.14 2.00 269.25 3159.43
   01:02:42.166.24-Mar-2020 4501.51 4469.76 80.14 2.00 269.45 3159.43
   01:02:42.366.24-Mar-2020 4501.51 4469.68 80.14 2.00 269.65 3159.43
   01:02:42.566.24-Mar-2020 4501.51 4469.71 80.14 2.00 269.85 3159.43
   01:02:42.766.24-Mar-2020 4501.51 4469.68 80.14 2.00 270.05 3159.43
   01:02:42.966.24-Mar-2020 4501.51 4469.68 80.14 2.00 270.25 3159.43
   01:02:43.166.24-Mar-2020 4501.51 4469.68 80.14 2.00 270.45 3159.43
   01:02:43.366.24-Mar-2020 4501.51 4469.71 80.14 2.00 270.65 3159.43
   01:02:43.566.24-Mar-2020 4501.51 4469.70 80.14 2.00 270.85 3159.43
   01:02:43.766.24-Mar-2020 4501.51 4469.72 80.14 2.00 271.05 3159.43
   01:02:43.966.24-Mar-2020 4501.51 4469.72 80.14 2.00 271.25 3159.43
   01:02:44.166.24-Mar-2020 4501.51 4469.61 80.13 2.00 271.45 3159.43
   01:02:44.366.24-Mar-2020 4501.51 4469.75 80.13 2.00 271.65 3159.43
   01:02:44.566.24-Mar-2020 4501.51 4469.75 80.13 2.00 271.85 3159.43
   01:02:44.766.24-Mar-2020 4501.51 4469.66 80.13 2.00 272.05 3159.43
   01:02:44.966.24-Mar-2020 4501.51 4469.66 80.13 2.00 272.25 3159.43
   01:02:45.166.24-Mar-2020 4501.51 4469.79 80.13 2.00 272.45 3159.43
   01:02:45.366.24-Mar-2020 4501.51 4469.80 80.13 2.00 272.65 3159.43
   01:02:45.566.24-Mar-2020 4501.51 4469.69 80.13 2.00 272.85 3159.43
   01:02:45.766.24-Mar-2020 4501.51 4469.72 80.13 2.00 273.05 3159.43
   01:02:45.966.24-Mar-2020 4501.51 4469.72 80.13 2.00 273.25 3159.43
   01:02:46.166.24-Mar-2020 4501.51 4469.56 80.13 2.00 273.45 3159.43
   01:02:46.366.24-Mar-2020 4501.51 4469.81 80.13 2.00 273.65 3159.43
   01:02:46.566.24-Mar-2020 4501.51 4469.79 80.13 2.00 273.85 3159.43
   01:02:46.766.24-Mar-2020 4501.51 4469.72 80.13 2.00 274.05 3159.43
   01:02:46.966.24-Mar-2020 4501.51 4469.72 80.13 2.00 274.25 3159.43
   01:02:47.166.24-Mar-2020 4501.51 4469.71 80.12 2.00 274.45 3159.43
   01:02:47.366.24-Mar-2020 4501.51 4469.73 80.12 2.00 274.65 3159.43
   01:02:47.567.24-Mar-2020 4501.51 4469.69 80.12 2.00 274.85 3159.43
   01:02:47.767.24-Mar-2020 4501.51 4469.69 80.12 2.00 275.05 3159.43
   01:02:47.967.24-Mar-2020 4501.51 4469.69 80.12 2.00 275.25 3159.43
   01:02:48.167.24-Mar-2020 4501.51 4469.69 80.12 2.00 275.45 3159.43
   01:02:48.367.24-Mar-2020 4501.51 4469.74 80.12 2.00 275.65 3159.43
   01:02:48.567.24-Mar-2020 4501.51 4469.68 80.12 2.00 275.85 3159.43
