~Version Information
 VERS.                  2.0:   CWLS log ASCII Standard -VERSION 2.0
 WRAP.                   NO:   One line per depth step
~Well Information Block
#MNEM.UNIT     VALUE/NAME     DESCRIPTION
#---------     -----------    ---------------------------
 STRT.S             10:10:38 24-Mar-20: START TIME 10:10:38 24-Mar-20
 STOP.S             10:17:07 24-Mar-20: STOP TIME  10:17:07 24-Mar-20
 STEP.S                   0.00: STEP TIME
 NULL.                 -999.25: NULL VALUE
 DFWT.                        :  DIST FWL TEXT
 DFST.                        :  DIST FSL TEXT
 DMF .             Drill Floor:  DRILL MEAS FROM
 STIM.      22.30.00 15-Feb-20:  START TIME
 DATE.      17.00.00 25-Mar-20:  END TIME
 SPUD.               15-Feb-20:  SPUD DATE
 NREF.                    Grid:  NORTH REFERENCE
 HPTY.       Minimum Curvature:  HOLE POS TYPE
 DMOD.             Drill Model:  DRILL MOD DESC
 SVYD.                  Survey:  SURVEY DESC
 ILTD.               Lithology:  INTERP LTH DESC
 FTOP.          Formation Tops:  FORM TOPS DESC
 SON .        AZ-XX-0906019077:  JOB NUMBER
 PDAT.          Mean Sea Level:  PERMANENT DATUM
 WTYP.                Deviated:  WELL TYPE
 MDS .        Operator Entered:  MAG DATA SOURCE
 COMP.     BP Exploration (Caspian sea) Ltd.:  COMPANY
 UWI .                     N/A:  UNIQUE WELL IDENTIFIER
 API .                     N/A:  API NUMBER
 BASE.              Azerbaijan:  LOGGING EQUIPMENT BASE LOCATION
 REGN.                   EESSA:  REGION
 PROV.                     N/A:  PROVINCE
 STAT.                     N/A:  STATE NAME
 CTRY.              Azerbaijan:  COUNTRY NAME
 FLD .                     ACG:  FIELD NAME
 SRVC.          Turan Drilling:  CONTRACTOR
 MWDS.                    Baku:  MWD SHOP
 WELL.                    E16W:  WELL NAME
 JOBN.        AZ-XX-0906019077:  JOB TICKET NUMB
 RIG .                     DWG:  RIG NAME
 CNTY.                     N/A:  COUNTY NAME
 DCON.         Sperry Drilling:  DIRECTNL CONTR
 UNIT.                     N/A:  LOGGING EQUIPMENT ID
 LOC .                        :  LOCATION
 LMF .             Drill Floor:  LOG MEASURED FROM
 TVDS.m                  43.16:  TVDSS CORRECTN
 LATI.deg                40.17:  LATITUDE
 LONG.deg                51.17:  LONGITUDE
 WHNS.m                 -15.30:  WELL HEAD N/S
 WHEW.m                  -1.29:  WELL HEAD E/W
 UTMX.m              514337.95:  UTM X
 UTMY.m             4448627.46:  UTM Y
 DFWL.m                   0.00:  DISTANCE FWL
 DFSL.m                   0.00:  DISTANCE FSL
 SDEP.m                3499.01:  START DEPTH
 TDD .m                4606.01:  TOTAL DEPTH (DRILLER)
 VSDR.deg               151.14:  VERT SEC DIRECT
 GVFD.g                   1.00:  GRAVITY FIELD
 MFLD.nT              50334.00:  MAGNETIC FIELD
 MDIP.deg                59.62:  MAGNETIC DIP
 MDEC.deg                 6.46:  MAGNETIC DECL
 GRDC.deg                 0.12:  GRID CORRECTION
 AZTC.deg                 6.34:  AZM TOTAL CORR
 EPD .m                   0.00:  ELEVATION
 EGL .m                   0.00:  GROUND ELEVATION
 WDMS.m                 176.20:  WD ELEV
 APD .m                  43.16:  DEPTH ABOVE PD
 VSEW.m                  -1.29:  VERT SEC E/W
 VSNS.m                 -15.30:  VERT SEC N/S
 AGAP.m                  43.16:  AIR GAP
 EKB .m                   0.00:  KB ELEVATION
 EDF .m                  43.16:  DF ELEVATION
 TDL .m                 103.00:  TOTAL DEPTH (LOGGER)
 VSC .                       0:  VS TO CLOSURE
 MAGU.                 1852525:  MAGUTM CHECKSUM
~Parameter Information Block
#MNEM.UNIT       Value        Description
#---------     -----------    ---------------------------
 AV  .mps                 1.01:  Ann Velocity 
 AVMX.mps                 1.32:  Max Ann Veloc 
 AZIF.deg               140.63:  Azm, Final 
 BHAT.        Rotary Steerable:  BHA Type 
 BREV.rev            151000.00:  Rev Bit Total 
 BROT.°/30m               0.65:  Build Rotating 
 BS  .in                  6.50:  Bit Size 
 BSZ .in                  6.50:  Bit Size 
 BTPL.psig              222.00:  Bit Press Loss 
 CABU.                      No:  Customer Abuse 
 CGEO.           Emin Aliyarov:  Customer Geo 
 COMM.                     ´â}:  Run Comments 1 
 TCS .hr                 22.89:  Time Ciculation Ended 
 CV  .mps                 2.20:  Crit Velocity 
 CVMX.mps                 3.04:  Max Crit Veloc 
 DD1 .         Intigam Rahimov:  Direct Drillr 1 
 DDSV.               Geo-Pilot:  DD Service 
 DEFF.%                  91.50:  % Det Eff 
 DLRX.°/30m               1.15:  Dogleg Rot Max 
 DLSO.°/30m               0.86:  Dogleg Oriented 
 DLSX.°/30m               1.15:  Dogleg Str Max 
 DRET.      13.10.00 24-Mar-20:  Drill End Time 
 DRST.      17.00.00 23-Mar-20:  Drill Start Tim 
 DTIM.hr                 11.87:  Time Drilling 
 EDEP.m                4606.01:  End Depth 
 ENG1.          Rasim Hashimov:  Engineer 1 
 ENG2.            Alan Tuganov:  Engineer 2 
 ENG3.         Yevgeniy Ulikov:  Engineer 3 
 ETIM.      16.00.00 25-Mar-20:  End Time 
 FLOI.gpm               400.00:  Flow In 
 FLON.gpm               350.00:  Flow In Min 
 FLOS.cptm                0.00:  Fluid Loss 
 FLOX.gpm               400.00:  Flow In Max 
 FTRO.       Formation Presure:  FTWD Run Obj 
 HFLO.                      No:  High Flow 
 HPRE.                      No:  High Pressure 
 HTEM.                      No:  High Temp 
 HYDO.m                   1.80:  Hydro Offset 
 IFIN.deg                79.55:  Inc, Final 
 IMAX.deg                79.55:  Inc Max 
 IMIN.deg                78.04:  Inc Min 
 IMND.m                4502.50:  Inc Min Depth 
 IMXD.m                4587.87:  Inc Max Depth 
 JARR.                      No:  Jarring 
 LETM.      13.10.00 24-Mar-20:  Log End Time 
 LOST.hr                     0:  Lost Rig Time 
 LSTM.      17.00.00 23-Mar-20:  Log Start Time 
 MDCL.ppm             39000.00:  Mud Chlorides 
 MDES.     Inversion Oil/Synthetic:  Mud Desc 
 DFD .sg                  1.40:  Mud Density 
 MDMN.sg                  1.40:  Dens Mud Min 
 MDMX.sg                  1.40:  Dens Mud Max 
 MOIL.                    55.2:  Run Mud Oil % 
 MOWR.                   68:32:  Run Mud OWR 
 MSND.                     0.1:  Run Mud Sand % 
 MSOL.                    17.8:  Run Mud Solids% 
 DFV .spqt               76.00:  Mud Viscosity 
 MWOD.in                  4.75:  MWD Tool OD 
 MWSI.                      No:  Serv Intrp, MWD 
 OTIM.hr                 64.35:  Time Operating 
 PCON.           Look Like New:  Pad Condition 
 PMAX.psia             5350.00:  Press Op, Max 
 PV  .cP                 26.00:  Mud PV 
 RUN .                     900:  Run Number 
 ROPA.m/hr                9.00:  ROP Avg 
 ROPN.m/hr                7.00:  ROP Min 
 ROPX.m/hr               13.00:  ROP Max 
 RPMA.rpm               140.00:  RPM Surface Avg 
 RPMN.rpm               140.00:  RPM Surface Min 
 RPMX.rpm               140.00:  RPM Surface Max 
 RRUN.                    L204:  Rig Run Number 
 RTIM.hr                  4.50:  Time Reaming 
 SAZI.deg               141.40:  Azm, Start 
 SDEP.m                4503.01:  Start Depth 
 SIDD.                      No:  Serv Intrp, DD 
 SINC.deg                78.04:  Inc, Start 
 SPPA.psig             5300.00:  SPP Avg 
 SPPN.psig             5100.00:  SPP Min 
 SPPX.psig             5500.00:  SPP Max 
 STIM.      18.00.00 22-Mar-20:  Start Time 
 SVCS.                 DD, MWD:  Services 
 SVER.                    9.20:  Sperry Version 
 TDAT.m                 103.00:  Tot Depth Attmp 
 TDDF.                      No:  Trip for DD 
 TDLG.m                 103.00:  Tot Depth Loggd 
 TFF .                      No:  Trip for Fail 
 TQAA.f-kp               14.00:  Torque Abs Avg 
 TQAN.f-kp               12.00:  Torque Abs Min 
 TQAX.f-kp               16.00:  Torque Abs Max 
 TRRT.°/30m               0.45:  Turn Rotating 
 MRT .                    HCIM:  Maximum Recorded Temperature 
 TTMX.degC               90.20:  Max Tool Temp 
 VS01.         90577859G12V7D4:  Virtual Str1 SN 
 VS02.            90519330D5C4:  Virtual Str2 SN 
 VS03.             90603450F11:  Virtual Str3 SN 
 VS04.           90515383R12C4:  Virtual Str4 SN 
 VS05.          90522017N2L2C4:  Virtual Str5 SN 
 VS06.            90512682Z1W1:  Virtual Str6 SN 
 WBMN.klb                 5.00:  WOB Min 
 WITN.        Elmaddin Rahimov:  Customer Rep 
 WITN.           Adil Mammadov:  Customer Rep 2 
 WOBA.klb                 8.00:  WOB Avg 
 WOBX.klb                13.00:  WOB Max 
 YP  .lhf2               31.00:  Yield Point 
~Curve Information Block
#MNEM.UNIT                 API CODE     Curve Description
#---------               -----------    ---------------------------
 TIME.HHMMSS            00 000 000 000:  GT Time & Date
 GTDEPTH.m              00 000 000 000:  GT Depth
 GTPQH.psia             00 000 000 000:  GT HR Quartz Pressure
 GTTQ.degC              00 000 000 000:  GT Quartz Temperature
 GTTN.NONE              00 000 000 000:  GT Test Number
 GTET.sec               00 000 000 000:  GT Elapsed Test Time
 GTTVD.m                00 000 000 000:  GT True Vertical Depth
#Other Information
#
#WARRANTY: Halliburton will use its best efforts to furnish customers with 
#accurate information and interpretations that are part of, and incident to, the services 
#provided.  However, Halliburton cannot and does not warrant the accuracy 
#or correctness of such information and interpretations.  Under no circumstances should any 
#such information or interpretation be relied upon as the sole basis for any drilling, 
#completion, production, or financial decision or any procedure involving any risk to the 
#safety of any drilling venture, drilling rig or its crew or any other third party.  The 
#Customer has full responsibility for all drilling, completion and production operation.  
#Halliburton makes no representations or warranties, either expressed or 
#implied, including, but not limited to, the implied warranties of merchantability or fitness 
#for a particular purpose, with respect to the services rendered.  In no event will 
#Halliburton be liable for failure to obtain any particular results or for 
#any damages, including, but not limited to, indirect, special or consequential damages, 
#resulting from the use of any information or interpretation provided by Halliburton.
#
~A           TIME           GTDEPTH  GTPQH  GTTQ  GTTN  GTET   GTTVD  
# ...
   10:15:37.503.24-Mar-2020 4562.51 4435.37 85.50 5.00 299.06 3171.78
   10:15:37.703.24-Mar-2020 4562.51 4435.37 85.50 5.00 299.26 3171.78
   10:15:37.904.24-Mar-2020 4562.51 4435.35 85.50 5.00 299.46 3171.78
   10:15:38.104.24-Mar-2020 4562.51 4435.38 85.50 5.00 299.66 3171.78
   10:15:38.304.24-Mar-2020 4562.51 4435.25 85.50 5.00 299.86 3171.78
   10:15:38.504.24-Mar-2020 4562.51 4435.49 85.50 5.00 300.06 3171.78
   10:15:38.704.24-Mar-2020 4562.51 4435.49 85.50 5.00 300.26 3171.78
   10:15:38.904.24-Mar-2020 4562.51 4435.44 85.50 5.00 300.46 3171.78
   10:15:39.104.24-Mar-2020 4562.51 4435.34 85.49 5.00 300.66 3171.78
   10:15:39.304.24-Mar-2020 4562.51 4435.42 85.49 5.00 300.86 3171.78
   10:15:39.504.24-Mar-2020 4562.51 4435.33 85.49 5.00 301.06 3171.78
   10:15:39.704.24-Mar-2020 4562.51 4435.33 85.49 5.00 301.26 3171.78
   10:15:39.904.24-Mar-2020 4562.51 4435.33 85.49 5.00 301.46 3171.78
   10:15:40.104.24-Mar-2020 4562.51 4435.41 85.49 5.00 301.66 3171.78
   10:15:40.304.24-Mar-2020 4562.51 4435.32 85.49 5.00 301.86 3171.78
   10:15:40.504.24-Mar-2020 4562.51 4435.38 85.49 5.00 302.06 3171.78
   10:15:40.704.24-Mar-2020 4562.51 4435.38 85.49 5.00 302.26 3171.78
   10:15:40.904.24-Mar-2020 4562.51 4435.34 85.49 5.00 302.46 3171.78
   10:15:41.104.24-Mar-2020 4562.51 4435.35 85.49 5.00 302.66 3171.78
   10:15:41.304.24-Mar-2020 4562.51 4435.38 85.49 5.00 302.86 3171.78
   10:15:41.504.24-Mar-2020 4562.51 4435.36 85.49 5.00 303.06 3171.78
   10:15:41.704.24-Mar-2020 4562.51 4435.36 85.49 5.00 303.26 3171.78
   10:15:41.904.24-Mar-2020 4562.51 4435.41 85.49 5.00 303.46 3171.78
   10:15:42.104.24-Mar-2020 4562.51 4435.37 85.48 5.00 303.66 3171.78
   10:15:42.304.24-Mar-2020 4562.51 4435.40 85.48 5.00 303.86 3171.78
   10:15:42.504.24-Mar-2020 4562.51 4435.36 85.48 5.00 304.06 3171.78
   10:15:42.704.24-Mar-2020 4562.51 4435.36 85.48 5.00 304.26 3171.78
   10:15:42.904.24-Mar-2020 4562.51 4435.39 85.48 5.00 304.46 3171.78
   10:15:43.104.24-Mar-2020 4562.51 4435.38 85.48 5.00 304.66 3171.78
   10:15:43.305.24-Mar-2020 4562.51 4435.38 85.48 5.00 304.86 3171.78
   10:15:43.505.24-Mar-2020 4562.51 4435.39 85.48 5.00 305.06 3171.78
   10:15:43.705.24-Mar-2020 4562.51 4435.39 85.48 5.00 305.26 3171.78
   10:15:43.905.24-Mar-2020 4562.51 4435.31 85.48 5.00 305.46 3171.78
   10:15:44.105.24-Mar-2020 4562.51 4435.43 85.48 5.00 305.66 3171.78
   10:15:44.305.24-Mar-2020 4562.51 4435.37 85.48 5.00 305.86 3171.78
   10:15:44.505.24-Mar-2020 4562.51 4435.36 85.48 5.00 306.06 3171.78
   10:15:44.705.24-Mar-2020 4562.51 4435.36 85.48 5.00 306.26 3171.78
   10:15:44.905.24-Mar-2020 4562.51 4435.33 85.48 5.00 306.46 3171.78
   10:15:45.105.24-Mar-2020 4562.51 4435.40 85.47 5.00 306.66 3171.78
   10:15:45.305.24-Mar-2020 4562.51 4435.33 85.47 5.00 306.86 3171.78
   10:15:45.505.24-Mar-2020 4562.51 4435.38 85.47 5.00 307.06 3171.78
   10:15:45.705.24-Mar-2020 4562.51 4435.38 85.47 5.00 307.26 3171.78
   10:15:45.905.24-Mar-2020 4562.51 4435.43 85.47 5.00 307.46 3171.78
   10:15:46.105.24-Mar-2020 4562.51 4435.33 85.47 5.00 307.66 3171.78
   10:15:46.305.24-Mar-2020 4562.51 4435.41 85.47 5.00 307.86 3171.78
   10:15:46.505.24-Mar-2020 4562.51 4435.35 85.47 5.00 308.06 3171.78
   10:15:46.705.24-Mar-2020 4562.51 4435.35 85.47 5.00 308.26 3171.78
   10:15:46.905.24-Mar-2020 4562.51 4435.35 85.47 5.00 308.46 3171.78
   10:15:47.105.24-Mar-2020 4562.51 4435.35 85.47 5.00 308.66 3171.78
   10:15:47.305.24-Mar-2020 4562.51 4435.36 85.47 5.00 308.86 3171.78
   10:15:47.505.24-Mar-2020 4562.51 4435.34 85.47 5.00 309.06 3171.78
   10:15:47.705.24-Mar-2020 4562.51 4435.34 85.47 5.00 309.26 3171.78
   10:15:47.905.24-Mar-2020 4562.51 4435.32 85.47 5.00 309.46 3171.78
   10:15:48.105.24-Mar-2020 4562.51 4435.36 85.46 5.00 309.66 3171.78
   10:15:48.305.24-Mar-2020 4562.51 4435.32 85.46 5.00 309.86 3171.78
   10:15:48.506.24-Mar-2020 4562.51 4435.28 85.46 5.00 310.06 3171.78
   10:15:48.706.24-Mar-2020 4562.51 4435.28 85.46 5.00 310.26 3171.78
   10:15:48.906.24-Mar-2020 4562.51 4435.36 85.46 5.00 310.46 3171.78
   10:15:49.106.24-Mar-2020 4562.51 4435.24 85.46 5.00 310.66 3171.78
   10:15:49.306.24-Mar-2020 4562.51 4435.48 85.46 5.00 310.86 3171.78
   10:15:49.506.24-Mar-2020 4562.51 4435.31 85.46 5.00 311.06 3171.78
   10:15:49.706.24-Mar-2020 4562.51 4435.43 85.46 5.00 311.26 3171.78
   10:15:49.906.24-Mar-2020 4562.51 4435.32 85.46 5.00 311.46 3171.78
   10:15:50.106.24-Mar-2020 4562.51 4435.40 85.46 5.00 311.66 3171.78
   10:15:50.306.24-Mar-2020 4562.51 4435.28 85.46 5.00 311.86 3171.78
   10:15:50.506.24-Mar-2020 4562.51 4435.42 85.46 5.00 312.06 3171.78
   10:15:50.706.24-Mar-2020 4562.51 4435.42 85.46 5.00 312.26 3171.78
   10:15:50.906.24-Mar-2020 4562.51 4435.39 85.46 5.00 312.46 3171.78
   10:15:51.106.24-Mar-2020 4562.51 4435.34 85.46 5.00 312.66 3171.78
   10:15:51.306.24-Mar-2020 4562.51 4435.31 85.45 5.00 312.86 3171.78
   10:15:51.506.24-Mar-2020 4562.51 4435.40 85.45 5.00 313.06 3171.78
   10:15:51.706.24-Mar-2020 4562.51 4435.40 85.45 5.00 313.26 3171.78
   10:15:51.906.24-Mar-2020 4562.51 4435.38 85.45 5.00 313.46 3171.78
   10:15:52.106.24-Mar-2020 4562.51 4435.34 85.45 5.00 313.66 3171.78
   10:15:52.306.24-Mar-2020 4562.51 4435.37 85.45 5.00 313.86 3171.78
   10:15:52.506.24-Mar-2020 4562.51 4435.33 85.45 5.00 314.06 3171.78
   10:15:52.706.24-Mar-2020 4562.51 4435.33 85.45 5.00 314.26 3171.78
   10:15:52.906.24-Mar-2020 4562.51 4435.31 85.45 5.00 314.46 3171.78
   10:15:53.106.24-Mar-2020 4562.51 4435.36 85.45 5.00 314.66 3171.78
   10:15:53.306.24-Mar-2020 4562.51 4435.27 85.45 5.00 314.86 3171.78
   10:15:53.506.24-Mar-2020 4562.51 4435.40 85.45 5.00 315.06 3171.78
   10:15:53.706.24-Mar-2020 4562.51 4435.40 85.45 5.00 315.26 3171.78
   10:15:53.907.24-Mar-2020 4562.51 4435.38 85.45 5.00 315.46 3171.78
   10:15:54.107.24-Mar-2020 4562.51 4435.31 85.45 5.00 315.66 3171.78
   10:15:54.307.24-Mar-2020 4562.51 4435.39 85.44 5.00 315.86 3171.78
   10:15:54.507.24-Mar-2020 4562.51 4435.31 85.44 5.00 316.06 3171.78
   10:15:54.707.24-Mar-2020 4562.51 4435.31 85.44 5.00 316.26 3171.78
   10:15:54.907.24-Mar-2020 4562.51 4435.30 85.44 5.00 316.46 3171.78
   10:15:55.107.24-Mar-2020 4562.51 4435.36 85.44 5.00 316.66 3171.78
   10:15:55.307.24-Mar-2020 4562.51 4435.31 85.44 5.00 316.86 3171.78
   10:15:55.507.24-Mar-2020 4562.51 4435.36 85.44 5.00 317.06 3171.78
   10:15:55.707.24-Mar-2020 4562.51 4435.36 85.44 5.00 317.26 3171.78
   10:15:55.907.24-Mar-2020 4562.51 4435.29 85.44 5.00 317.46 3171.78
   10:15:56.107.24-Mar-2020 4562.51 4435.37 85.44 5.00 317.66 3171.78
   10:15:56.307.24-Mar-2020 4562.51 4435.33 85.44 5.00 317.86 3171.78
   10:15:56.507.24-Mar-2020 4562.51 4435.32 85.44 5.00 318.06 3171.78
   10:15:56.707.24-Mar-2020 4562.51 4435.32 85.44 5.00 318.26 3171.78
   10:15:56.907.24-Mar-2020 4562.51 4435.36 85.44 5.00 318.46 3171.78
   10:15:57.107.24-Mar-2020 4562.51 4435.36 85.44 5.00 318.66 3171.78
   10:15:57.307.24-Mar-2020 4562.51 4435.37 85.44 5.00 318.86 3171.78
   10:15:57.507.24-Mar-2020 4562.51 4435.34 85.43 5.00 319.06 3171.78
   10:15:57.707.24-Mar-2020 4562.51 4435.34 85.43 5.00 319.26 3171.78
   10:15:57.907.24-Mar-2020 4562.51 4435.42 85.43 5.00 319.46 3171.78
   10:15:58.107.24-Mar-2020 4562.51 4435.34 85.43 5.00 319.66 3171.78
   10:15:58.307.24-Mar-2020 4562.51 4435.36 85.43 5.00 319.86 3171.78
   10:15:58.507.24-Mar-2020 4562.51 4435.36 85.43 5.00 320.06 3171.78
   10:15:58.707.24-Mar-2020 4562.51 4435.36 85.43 5.00 320.26 3171.78
   10:15:58.907.24-Mar-2020 4562.51 4435.34 85.43 5.00 320.46 3171.78
   10:15:59.107.24-Mar-2020 4562.51 4435.35 85.43 5.00 320.66 3171.78
   10:15:59.308.24-Mar-2020 4562.51 4435.38 85.43 5.00 320.86 3171.78
   10:15:59.508.24-Mar-2020 4562.51 4435.32 85.43 5.00 321.06 3171.78
   10:15:59.708.24-Mar-2020 4562.51 4435.32 85.43 5.00 321.26 3171.78
   10:15:59.908.24-Mar-2020 4562.51 4435.32 85.43 5.00 321.46 3171.78
   10:16:00.108.24-Mar-2020 4562.51 4435.36 85.43 5.00 321.66 3171.78
   10:16:00.308.24-Mar-2020 4562.51 4435.32 85.43 5.00 321.86 3171.78
