~Version Information
 VERS.                  2.0:   CWLS log ASCII Standard -VERSION 2.0
 WRAP.                   NO:   One line per depth step
~Well Information Block
#MNEM.UNIT     VALUE/NAME     DESCRIPTION
#---------     -----------    ---------------------------
 STRT.S             10:10:38 24-Mar-20: START TIME 10:10:38 24-Mar-20
 STOP.S             10:17:07 24-Mar-20: STOP TIME  10:17:07 24-Mar-20
 STEP.S                   0.00: STEP TIME
 NULL.                 -999.25: NULL VALUE
 DFWT.                        :  DIST FWL TEXT
 DFST.                        :  DIST FSL TEXT
 DMF .             Drill Floor:  DRILL MEAS FROM
 STIM.      22.30.00 15-Feb-20:  START TIME
 DATE.      17.00.00 25-Mar-20:  END TIME
 SPUD.               15-Feb-20:  SPUD DATE
 NREF.                    Grid:  NORTH REFERENCE
 HPTY.       Minimum Curvature:  HOLE POS TYPE
 DMOD.             Drill Model:  DRILL MOD DESC
 SVYD.                  Survey:  SURVEY DESC
 ILTD.               Lithology:  INTERP LTH DESC
 FTOP.          Formation Tops:  FORM TOPS DESC
 SON .        AZ-XX-0906019077:  JOB NUMBER
 PDAT.          Mean Sea Level:  PERMANENT DATUM
 WTYP.                Deviated:  WELL TYPE
 MDS .        Operator Entered:  MAG DATA SOURCE
 COMP.     BP Exploration (Caspian sea) Ltd.:  COMPANY
 UWI .                     N/A:  UNIQUE WELL IDENTIFIER
 API .                     N/A:  API NUMBER
 BASE.              Azerbaijan:  LOGGING EQUIPMENT BASE LOCATION
 REGN.                   EESSA:  REGION
 PROV.                     N/A:  PROVINCE
 STAT.                     N/A:  STATE NAME
 CTRY.              Azerbaijan:  COUNTRY NAME
 FLD .                     ACG:  FIELD NAME
 SRVC.          Turan Drilling:  CONTRACTOR
 MWDS.                    Baku:  MWD SHOP
 WELL.                    E16W:  WELL NAME
 JOBN.        AZ-XX-0906019077:  JOB TICKET NUMB
 RIG .                     DWG:  RIG NAME
 CNTY.                     N/A:  COUNTY NAME
 DCON.         Sperry Drilling:  DIRECTNL CONTR
 UNIT.                     N/A:  LOGGING EQUIPMENT ID
 LOC .                        :  LOCATION
 LMF .             Drill Floor:  LOG MEASURED FROM
 TVDS.m                  43.16:  TVDSS CORRECTN
 LATI.deg                40.17:  LATITUDE
 LONG.deg                51.17:  LONGITUDE
 WHNS.m                 -15.30:  WELL HEAD N/S
 WHEW.m                  -1.29:  WELL HEAD E/W
 UTMX.m              514337.95:  UTM X
 UTMY.m             4448627.46:  UTM Y
 DFWL.m                   0.00:  DISTANCE FWL
 DFSL.m                   0.00:  DISTANCE FSL
 SDEP.m                3499.01:  START DEPTH
 TDD .m                4606.01:  TOTAL DEPTH (DRILLER)
 VSDR.deg               151.14:  VERT SEC DIRECT
 GVFD.g                   1.00:  GRAVITY FIELD
 MFLD.nT              50334.00:  MAGNETIC FIELD
 MDIP.deg                59.62:  MAGNETIC DIP
 MDEC.deg                 6.46:  MAGNETIC DECL
 GRDC.deg                 0.12:  GRID CORRECTION
 AZTC.deg                 6.34:  AZM TOTAL CORR
 EPD .m                   0.00:  ELEVATION
 EGL .m                   0.00:  GROUND ELEVATION
 WDMS.m                 176.20:  WD ELEV
 APD .m                  43.16:  DEPTH ABOVE PD
 VSEW.m                  -1.29:  VERT SEC E/W
 VSNS.m                 -15.30:  VERT SEC N/S
 AGAP.m                  43.16:  AIR GAP
 EKB .m                   0.00:  KB ELEVATION
 EDF .m                  43.16:  DF ELEVATION
 TDL .m                 103.00:  TOTAL DEPTH (LOGGER)
 VSC .                       0:  VS TO CLOSURE
 MAGU.                 1852525:  MAGUTM CHECKSUM
~Parameter Information Block
#MNEM.UNIT       Value        Description
#---------     -----------    ---------------------------
 AV  .mps                 1.01:  Ann Velocity 
 AVMX.mps                 1.32:  Max Ann Veloc 
 AZIF.deg               140.63:  Azm, Final 
 BHAT.        Rotary Steerable:  BHA Type 
 BREV.rev            151000.00:  Rev Bit Total 
 BROT.°/30m               0.65:  Build Rotating 
 BS  .in                  6.50:  Bit Size 
 BSZ .in                  6.50:  Bit Size 
 BTPL.psig              222.00:  Bit Press Loss 
 CABU.                      No:  Customer Abuse 
 CGEO.           Emin Aliyarov:  Customer Geo 
 COMM.                     ´â}:  Run Comments 1 
 TCS .hr                 22.89:  Time Ciculation Ended 
 CV  .mps                 2.20:  Crit Velocity 
 CVMX.mps                 3.04:  Max Crit Veloc 
 DD1 .         Intigam Rahimov:  Direct Drillr 1 
 DDSV.               Geo-Pilot:  DD Service 
 DEFF.%                  91.50:  % Det Eff 
 DLRX.°/30m               1.15:  Dogleg Rot Max 
 DLSO.°/30m               0.86:  Dogleg Oriented 
 DLSX.°/30m               1.15:  Dogleg Str Max 
 DRET.      13.10.00 24-Mar-20:  Drill End Time 
 DRST.      17.00.00 23-Mar-20:  Drill Start Tim 
 DTIM.hr                 11.87:  Time Drilling 
 EDEP.m                4606.01:  End Depth 
 ENG1.          Rasim Hashimov:  Engineer 1 
 ENG2.            Alan Tuganov:  Engineer 2 
 ENG3.         Yevgeniy Ulikov:  Engineer 3 
 ETIM.      16.00.00 25-Mar-20:  End Time 
 FLOI.gpm               400.00:  Flow In 
 FLON.gpm               350.00:  Flow In Min 
 FLOS.cptm                0.00:  Fluid Loss 
 FLOX.gpm               400.00:  Flow In Max 
 FTRO.       Formation Presure:  FTWD Run Obj 
 HFLO.                      No:  High Flow 
 HPRE.                      No:  High Pressure 
 HTEM.                      No:  High Temp 
 HYDO.m                   1.80:  Hydro Offset 
 IFIN.deg                79.55:  Inc, Final 
 IMAX.deg                79.55:  Inc Max 
 IMIN.deg                78.04:  Inc Min 
 IMND.m                4502.50:  Inc Min Depth 
 IMXD.m                4587.87:  Inc Max Depth 
 JARR.                      No:  Jarring 
 LETM.      13.10.00 24-Mar-20:  Log End Time 
 LOST.hr                     0:  Lost Rig Time 
 LSTM.      17.00.00 23-Mar-20:  Log Start Time 
 MDCL.ppm             39000.00:  Mud Chlorides 
 MDES.     Inversion Oil/Synthetic:  Mud Desc 
 DFD .sg                  1.40:  Mud Density 
 MDMN.sg                  1.40:  Dens Mud Min 
 MDMX.sg                  1.40:  Dens Mud Max 
 MOIL.                    55.2:  Run Mud Oil % 
 MOWR.                   68:32:  Run Mud OWR 
 MSND.                     0.1:  Run Mud Sand % 
 MSOL.                    17.8:  Run Mud Solids% 
 DFV .spqt               76.00:  Mud Viscosity 
 MWOD.in                  4.75:  MWD Tool OD 
 MWSI.                      No:  Serv Intrp, MWD 
 OTIM.hr                 64.35:  Time Operating 
 PCON.           Look Like New:  Pad Condition 
 PMAX.psia             5350.00:  Press Op, Max 
 PV  .cP                 26.00:  Mud PV 
 RUN .                     900:  Run Number 
 ROPA.m/hr                9.00:  ROP Avg 
 ROPN.m/hr                7.00:  ROP Min 
 ROPX.m/hr               13.00:  ROP Max 
 RPMA.rpm               140.00:  RPM Surface Avg 
 RPMN.rpm               140.00:  RPM Surface Min 
 RPMX.rpm               140.00:  RPM Surface Max 
 RRUN.                    L204:  Rig Run Number 
 RTIM.hr                  4.50:  Time Reaming 
 SAZI.deg               141.40:  Azm, Start 
 SDEP.m                4503.01:  Start Depth 
 SIDD.                      No:  Serv Intrp, DD 
 SINC.deg                78.04:  Inc, Start 
 SPPA.psig             5300.00:  SPP Avg 
 SPPN.psig             5100.00:  SPP Min 
 SPPX.psig             5500.00:  SPP Max 
 STIM.      18.00.00 22-Mar-20:  Start Time 
 SVCS.                 DD, MWD:  Services 
 SVER.                    9.20:  Sperry Version 
 TDAT.m                 103.00:  Tot Depth Attmp 
 TDDF.                      No:  Trip for DD 
 TDLG.m                 103.00:  Tot Depth Loggd 
 TFF .                      No:  Trip for Fail 
 TQAA.f-kp               14.00:  Torque Abs Avg 
 TQAN.f-kp               12.00:  Torque Abs Min 
 TQAX.f-kp               16.00:  Torque Abs Max 
 TRRT.°/30m               0.45:  Turn Rotating 
 MRT .                    HCIM:  Maximum Recorded Temperature 
 TTMX.degC               90.20:  Max Tool Temp 
 VS01.         90577859G12V7D4:  Virtual Str1 SN 
 VS02.            90519330D5C4:  Virtual Str2 SN 
 VS03.             90603450F11:  Virtual Str3 SN 
 VS04.           90515383R12C4:  Virtual Str4 SN 
 VS05.          90522017N2L2C4:  Virtual Str5 SN 
 VS06.            90512682Z1W1:  Virtual Str6 SN 
 WBMN.klb                 5.00:  WOB Min 
 WITN.        Elmaddin Rahimov:  Customer Rep 
 WITN.           Adil Mammadov:  Customer Rep 2 
 WOBA.klb                 8.00:  WOB Avg 
 WOBX.klb                13.00:  WOB Max 
 YP  .lhf2               31.00:  Yield Point 
~Curve Information Block
#MNEM.UNIT                 API CODE     Curve Description
#---------               -----------    ---------------------------
 TIME.HHMMSS            00 000 000 000:  GT Time & Date
 GTDEPTH.m              00 000 000 000:  GT Depth
 GTPQH.psia             00 000 000 000:  GT HR Quartz Pressure
 GTTQ.degC              00 000 000 000:  GT Quartz Temperature
 GTTN.NONE              00 000 000 000:  GT Test Number
 GTET.sec               00 000 000 000:  GT Elapsed Test Time
 GTTVD.m                00 000 000 000:  GT True Vertical Depth
#Other Information
#
#WARRANTY: Halliburton will use its best efforts to furnish customers with 
#accurate information and interpretations that are part of, and incident to, the services 
#provided.  However, Halliburton cannot and does not warrant the accuracy 
#or correctness of such information and interpretations.  Under no circumstances should any 
#such information or interpretation be relied upon as the sole basis for any drilling, 
#completion, production, or financial decision or any procedure involving any risk to the 
#safety of any drilling venture, drilling rig or its crew or any other third party.  The 
#Customer has full responsibility for all drilling, completion and production operation.  
#Halliburton makes no representations or warranties, either expressed or 
#implied, including, but not limited to, the implied warranties of merchantability or fitness 
#for a particular purpose, with respect to the services rendered.  In no event will 
#Halliburton be liable for failure to obtain any particular results or for 
#any damages, including, but not limited to, indirect, special or consequential damages, 
#resulting from the use of any information or interpretation provided by Halliburton.
#
~A           TIME           GTDEPTH  GTPQH  GTTQ  GTTN  GTET   GTTVD  
# ...
   10:12:10.465.24-Mar-2020 4562.51 4436.05 86.28 5.00  92.02 3171.78
   10:12:10.665.24-Mar-2020 4562.51 4436.05 86.28 5.00  92.22 3171.78
   10:12:10.865.24-Mar-2020 4562.51 4436.05 86.28 5.00  92.42 3171.78
   10:12:11.065.24-Mar-2020 4562.51 4436.03 86.28 5.00  92.62 3171.78
   10:12:11.265.24-Mar-2020 4562.51 4436.06 86.28 5.00  92.82 3171.78
   10:12:11.465.24-Mar-2020 4562.51 4436.04 86.28 5.00  93.02 3171.78
   10:12:11.665.24-Mar-2020 4562.51 4436.04 86.28 5.00  93.22 3171.78
   10:12:11.865.24-Mar-2020 4562.51 4436.02 86.27 5.00  93.42 3171.78
   10:12:12.065.24-Mar-2020 4562.51 4436.05 86.27 5.00  93.62 3171.78
   10:12:12.265.24-Mar-2020 4562.51 4436.02 86.27 5.00  93.82 3171.78
   10:12:12.465.24-Mar-2020 4562.51 4436.04 86.27 5.00  94.02 3171.78
   10:12:12.665.24-Mar-2020 4562.51 4436.04 86.27 5.00  94.22 3171.78
   10:12:12.865.24-Mar-2020 4562.51 4435.95 86.27 5.00  94.42 3171.78
   10:12:13.065.24-Mar-2020 4562.51 4436.09 86.27 5.00  94.62 3171.78
   10:12:13.265.24-Mar-2020 4562.51 4436.01 86.27 5.00  94.82 3171.78
   10:12:13.465.24-Mar-2020 4562.51 4435.94 86.27 5.00  95.02 3171.78
   10:12:13.665.24-Mar-2020 4562.51 4435.94 86.27 5.00  95.22 3171.78
   10:12:13.865.24-Mar-2020 4562.51 4436.00 86.26 5.00  95.42 3171.78
   10:12:14.065.24-Mar-2020 4562.51 4436.06 86.26 5.00  95.62 3171.78
   10:12:14.265.24-Mar-2020 4562.51 4436.01 86.26 5.00  95.82 3171.78
   10:12:14.466.24-Mar-2020 4562.51 4436.04 86.26 5.00  96.02 3171.78
   10:12:14.666.24-Mar-2020 4562.51 4436.04 86.26 5.00  96.22 3171.78
   10:12:14.866.24-Mar-2020 4562.51 4436.08 86.26 5.00  96.42 3171.78
   10:12:15.066.24-Mar-2020 4562.51 4435.99 86.26 5.00  96.62 3171.78
   10:12:15.266.24-Mar-2020 4562.51 4436.04 86.26 5.00  96.82 3171.78
   10:12:15.466.24-Mar-2020 4562.51 4436.01 86.26 5.00  97.02 3171.78
   10:12:15.666.24-Mar-2020 4562.51 4436.01 86.26 5.00  97.22 3171.78
   10:12:15.866.24-Mar-2020 4562.51 4435.93 86.26 5.00  97.42 3171.78
   10:12:16.066.24-Mar-2020 4562.51 4436.07 86.25 5.00  97.62 3171.78
   10:12:16.266.24-Mar-2020 4562.51 4435.99 86.25 5.00  97.82 3171.78
   10:12:16.466.24-Mar-2020 4562.51 4436.03 86.25 5.00  98.02 3171.78
   10:12:16.666.24-Mar-2020 4562.51 4436.03 86.25 5.00  98.22 3171.78
   10:12:16.866.24-Mar-2020 4562.51 4435.99 86.25 5.00  98.42 3171.78
   10:12:17.066.24-Mar-2020 4562.51 4436.02 86.25 5.00  98.62 3171.78
   10:12:17.266.24-Mar-2020 4562.51 4435.99 86.25 5.00  98.82 3171.78
   10:12:17.466.24-Mar-2020 4562.51 4436.00 86.25 5.00  99.02 3171.78
   10:12:17.666.24-Mar-2020 4562.51 4436.00 86.25 5.00  99.22 3171.78
   10:12:17.866.24-Mar-2020 4562.51 4436.04 86.25 5.00  99.42 3171.78
   10:12:18.066.24-Mar-2020 4562.51 4435.97 86.25 5.00  99.62 3171.78
   10:12:18.266.24-Mar-2020 4562.51 4436.03 86.24 5.00  99.82 3171.78
   10:12:18.466.24-Mar-2020 4562.51 4435.97 86.24 5.00 100.02 3171.78
   10:12:18.666.24-Mar-2020 4562.51 4435.97 86.24 5.00 100.22 3171.78
   10:12:18.866.24-Mar-2020 4562.51 4435.97 86.24 5.00 100.42 3171.78
   10:12:19.066.24-Mar-2020 4562.51 4436.00 86.24 5.00 100.62 3171.78
   10:12:19.266.24-Mar-2020 4562.51 4435.96 86.24 5.00 100.82 3171.78
   10:12:19.466.24-Mar-2020 4562.51 4435.99 86.24 5.00 101.02 3171.78
   10:12:19.666.24-Mar-2020 4562.51 4435.99 86.24 5.00 101.22 3171.78
   10:12:19.867.24-Mar-2020 4562.51 4435.97 86.24 5.00 101.42 3171.78
   10:12:20.067.24-Mar-2020 4562.51 4435.97 86.24 5.00 101.62 3171.78
   10:12:20.267.24-Mar-2020 4562.51 4435.98 86.24 5.00 101.82 3171.78
   10:12:20.467.24-Mar-2020 4562.51 4435.88 86.24 5.00 102.02 3171.78
   10:12:20.667.24-Mar-2020 4562.51 4435.88 86.24 5.00 102.22 3171.78
   10:12:20.867.24-Mar-2020 4562.51 4435.95 86.23 5.00 102.42 3171.78
   10:12:21.067.24-Mar-2020 4562.51 4435.90 86.23 5.00 102.62 3171.78
   10:12:21.267.24-Mar-2020 4562.51 4436.04 86.23 5.00 102.82 3171.78
   10:12:21.467.24-Mar-2020 4562.51 4435.93 86.23 5.00 103.02 3171.78
   10:12:21.667.24-Mar-2020 4562.51 4435.93 86.23 5.00 103.22 3171.78
   10:12:21.867.24-Mar-2020 4562.51 4435.96 86.23 5.00 103.42 3171.78
   10:12:22.067.24-Mar-2020 4562.51 4435.98 86.23 5.00 103.62 3171.78
   10:12:22.267.24-Mar-2020 4562.51 4435.90 86.23 5.00 103.82 3171.78
   10:12:22.467.24-Mar-2020 4562.51 4436.00 86.23 5.00 104.02 3171.78
   10:12:22.667.24-Mar-2020 4562.51 4436.00 86.23 5.00 104.22 3171.78
   10:12:22.867.24-Mar-2020 4562.51 4435.99 86.22 5.00 104.42 3171.78
   10:12:23.067.24-Mar-2020 4562.51 4435.94 86.22 5.00 104.62 3171.78
   10:12:23.267.24-Mar-2020 4562.51 4435.96 86.22 5.00 104.82 3171.78
   10:12:23.467.24-Mar-2020 4562.51 4435.89 86.22 5.00 105.02 3171.78
   10:12:23.667.24-Mar-2020 4562.51 4435.89 86.22 5.00 105.22 3171.78
   10:12:23.867.24-Mar-2020 4562.51 4435.93 86.22 5.00 105.42 3171.78
   10:12:24.067.24-Mar-2020 4562.51 4435.96 86.22 5.00 105.62 3171.78
   10:12:24.267.24-Mar-2020 4562.51 4435.93 86.22 5.00 105.82 3171.78
   10:12:24.467.24-Mar-2020 4562.51 4435.95 86.22 5.00 106.02 3171.78
   10:12:24.667.24-Mar-2020 4562.51 4435.95 86.22 5.00 106.22 3171.78
   10:12:24.867.24-Mar-2020 4562.51 4435.95 86.22 5.00 106.42 3171.78
   10:12:25.067.24-Mar-2020 4562.51 4435.92 86.22 5.00 106.62 3171.78
   10:12:25.268.24-Mar-2020 4562.51 4435.83 86.21 5.00 106.82 3171.78
   10:12:25.468.24-Mar-2020 4562.51 4436.02 86.21 5.00 107.02 3171.78
   10:12:25.668.24-Mar-2020 4562.51 4436.02 86.21 5.00 107.22 3171.78
   10:12:25.868.24-Mar-2020 4562.51 4435.97 86.21 5.00 107.42 3171.78
   10:12:26.068.24-Mar-2020 4562.51 4435.91 86.21 5.00 107.62 3171.78
   10:12:26.268.24-Mar-2020 4562.51 4435.95 86.21 5.00 107.82 3171.78
   10:12:26.468.24-Mar-2020 4562.51 4435.91 86.21 5.00 108.02 3171.78
   10:12:26.668.24-Mar-2020 4562.51 4435.91 86.21 5.00 108.22 3171.78
   10:12:26.868.24-Mar-2020 4562.51 4435.90 86.21 5.00 108.42 3171.78
   10:12:27.068.24-Mar-2020 4562.51 4435.93 86.21 5.00 108.62 3171.78
   10:12:27.268.24-Mar-2020 4562.51 4435.89 86.21 5.00 108.82 3171.78
   10:12:27.468.24-Mar-2020 4562.51 4435.93 86.20 5.00 109.02 3171.78
   10:12:27.668.24-Mar-2020 4562.51 4435.93 86.20 5.00 109.22 3171.78
   10:12:27.868.24-Mar-2020 4562.51 4435.92 86.20 5.00 109.42 3171.78
   10:12:28.068.24-Mar-2020 4562.51 4435.85 86.20 5.00 109.62 3171.78
   10:12:28.268.24-Mar-2020 4562.51 4435.95 86.20 5.00 109.82 3171.78
   10:12:28.468.24-Mar-2020 4562.51 4435.87 86.20 5.00 110.02 3171.78
   10:12:28.668.24-Mar-2020 4562.51 4435.87 86.20 5.00 110.22 3171.78
   10:12:28.868.24-Mar-2020 4562.51 4435.92 86.20 5.00 110.42 3171.78
   10:12:29.068.24-Mar-2020 4562.51 4435.92 86.20 5.00 110.62 3171.78
   10:12:29.268.24-Mar-2020 4562.51 4435.91 86.20 5.00 110.82 3171.78
   10:12:29.468.24-Mar-2020 4562.51 4435.91 86.20 5.00 111.02 3171.78
   10:12:29.668.24-Mar-2020 4562.51 4435.91 86.20 5.00 111.22 3171.78
   10:12:29.868.24-Mar-2020 4562.51 4435.90 86.19 5.00 111.42 3171.78
   10:12:30.068.24-Mar-2020 4562.51 4435.89 86.19 5.00 111.62 3171.78
   10:12:30.268.24-Mar-2020 4562.51 4435.91 86.19 5.00 111.82 3171.78
   10:12:30.469.24-Mar-2020 4562.51 4435.91 86.19 5.00 112.02 3171.78
   10:12:30.669.24-Mar-2020 4562.51 4435.91 86.19 5.00 112.22 3171.78
   10:12:30.869.24-Mar-2020 4562.51 4435.89 86.19 5.00 112.42 3171.78
   10:12:31.069.24-Mar-2020 4562.51 4435.87 86.19 5.00 112.62 3171.78
   10:12:31.269.24-Mar-2020 4562.51 4435.90 86.19 5.00 112.82 3171.78
   10:12:31.469.24-Mar-2020 4562.51 4435.88 86.19 5.00 113.02 3171.78
   10:12:31.669.24-Mar-2020 4562.51 4435.88 86.19 5.00 113.22 3171.78
   10:12:31.869.24-Mar-2020 4562.51 4435.87 86.19 5.00 113.42 3171.78
   10:12:32.069.24-Mar-2020 4562.51 4435.90 86.18 5.00 113.62 3171.78
   10:12:32.269.24-Mar-2020 4562.51 4435.87 86.18 5.00 113.82 3171.78
   10:12:32.469.24-Mar-2020 4562.51 4435.90 86.18 5.00 114.02 3171.78
   10:12:32.669.24-Mar-2020 4562.51 4435.90 86.18 5.00 114.22 3171.78
   10:12:32.869.24-Mar-2020 4562.51 4435.79 86.18 5.00 114.42 3171.78
   10:12:33.069.24-Mar-2020 4562.51 4435.94 86.18 5.00 114.62 3171.78
   10:12:33.269.24-Mar-2020 4562.51 4435.87 86.18 5.00 114.82 3171.78
