~Version Information
 VERS.                  2.0:   CWLS log ASCII Standard -VERSION 2.0
 WRAP.                   NO:   One line per depth step
~Well Information Block
#MNEM.UNIT     VALUE/NAME     DESCRIPTION
#---------     -----------    ---------------------------
 STRT.S             10:10:38 24-Mar-20: START TIME 10:10:38 24-Mar-20
 STOP.S             10:17:07 24-Mar-20: STOP TIME  10:17:07 24-Mar-20
 STEP.S                   0.00: STEP TIME
 NULL.                 -999.25: NULL VALUE
 DFWT.                        :  DIST FWL TEXT
 DFST.                        :  DIST FSL TEXT
 DMF .             Drill Floor:  DRILL MEAS FROM
 STIM.      22.30.00 15-Feb-20:  START TIME
 DATE.      17.00.00 25-Mar-20:  END TIME
 SPUD.               15-Feb-20:  SPUD DATE
 NREF.                    Grid:  NORTH REFERENCE
 HPTY.       Minimum Curvature:  HOLE POS TYPE
 DMOD.             Drill Model:  DRILL MOD DESC
 SVYD.                  Survey:  SURVEY DESC
 ILTD.               Lithology:  INTERP LTH DESC
 FTOP.          Formation Tops:  FORM TOPS DESC
 SON .        AZ-XX-0906019077:  JOB NUMBER
 PDAT.          Mean Sea Level:  PERMANENT DATUM
 WTYP.                Deviated:  WELL TYPE
 MDS .        Operator Entered:  MAG DATA SOURCE
 COMP.     BP Exploration (Caspian sea) Ltd.:  COMPANY
 UWI .                     N/A:  UNIQUE WELL IDENTIFIER
 API .                     N/A:  API NUMBER
 BASE.              Azerbaijan:  LOGGING EQUIPMENT BASE LOCATION
 REGN.                   EESSA:  REGION
 PROV.                     N/A:  PROVINCE
 STAT.                     N/A:  STATE NAME
 CTRY.              Azerbaijan:  COUNTRY NAME
 FLD .                     ACG:  FIELD NAME
 SRVC.          Turan Drilling:  CONTRACTOR
 MWDS.                    Baku:  MWD SHOP
 WELL.                    E16W:  WELL NAME
 JOBN.        AZ-XX-0906019077:  JOB TICKET NUMB
 RIG .                     DWG:  RIG NAME
 CNTY.                     N/A:  COUNTY NAME
 DCON.         Sperry Drilling:  DIRECTNL CONTR
 UNIT.                     N/A:  LOGGING EQUIPMENT ID
 LOC .                        :  LOCATION
 LMF .             Drill Floor:  LOG MEASURED FROM
 TVDS.m                  43.16:  TVDSS CORRECTN
 LATI.deg                40.17:  LATITUDE
 LONG.deg                51.17:  LONGITUDE
 WHNS.m                 -15.30:  WELL HEAD N/S
 WHEW.m                  -1.29:  WELL HEAD E/W
 UTMX.m              514337.95:  UTM X
 UTMY.m             4448627.46:  UTM Y
 DFWL.m                   0.00:  DISTANCE FWL
 DFSL.m                   0.00:  DISTANCE FSL
 SDEP.m                3499.01:  START DEPTH
 TDD .m                4606.01:  TOTAL DEPTH (DRILLER)
 VSDR.deg               151.14:  VERT SEC DIRECT
 GVFD.g                   1.00:  GRAVITY FIELD
 MFLD.nT              50334.00:  MAGNETIC FIELD
 MDIP.deg                59.62:  MAGNETIC DIP
 MDEC.deg                 6.46:  MAGNETIC DECL
 GRDC.deg                 0.12:  GRID CORRECTION
 AZTC.deg                 6.34:  AZM TOTAL CORR
 EPD .m                   0.00:  ELEVATION
 EGL .m                   0.00:  GROUND ELEVATION
 WDMS.m                 176.20:  WD ELEV
 APD .m                  43.16:  DEPTH ABOVE PD
 VSEW.m                  -1.29:  VERT SEC E/W
 VSNS.m                 -15.30:  VERT SEC N/S
 AGAP.m                  43.16:  AIR GAP
 EKB .m                   0.00:  KB ELEVATION
 EDF .m                  43.16:  DF ELEVATION
 TDL .m                 103.00:  TOTAL DEPTH (LOGGER)
 VSC .                       0:  VS TO CLOSURE
 MAGU.                 1852525:  MAGUTM CHECKSUM
~Parameter Information Block
#MNEM.UNIT       Value        Description
#---------     -----------    ---------------------------
 AV  .mps                 1.01:  Ann Velocity 
 AVMX.mps                 1.32:  Max Ann Veloc 
 AZIF.deg               140.63:  Azm, Final 
 BHAT.        Rotary Steerable:  BHA Type 
 BREV.rev            151000.00:  Rev Bit Total 
 BROT.°/30m               0.65:  Build Rotating 
 BS  .in                  6.50:  Bit Size 
 BSZ .in                  6.50:  Bit Size 
 BTPL.psig              222.00:  Bit Press Loss 
 CABU.                      No:  Customer Abuse 
 CGEO.           Emin Aliyarov:  Customer Geo 
 COMM.                     ´â}:  Run Comments 1 
 TCS .hr                 22.89:  Time Ciculation Ended 
 CV  .mps                 2.20:  Crit Velocity 
 CVMX.mps                 3.04:  Max Crit Veloc 
 DD1 .         Intigam Rahimov:  Direct Drillr 1 
 DDSV.               Geo-Pilot:  DD Service 
 DEFF.%                  91.50:  % Det Eff 
 DLRX.°/30m               1.15:  Dogleg Rot Max 
 DLSO.°/30m               0.86:  Dogleg Oriented 
 DLSX.°/30m               1.15:  Dogleg Str Max 
 DRET.      13.10.00 24-Mar-20:  Drill End Time 
 DRST.      17.00.00 23-Mar-20:  Drill Start Tim 
 DTIM.hr                 11.87:  Time Drilling 
 EDEP.m                4606.01:  End Depth 
 ENG1.          Rasim Hashimov:  Engineer 1 
 ENG2.            Alan Tuganov:  Engineer 2 
 ENG3.         Yevgeniy Ulikov:  Engineer 3 
 ETIM.      16.00.00 25-Mar-20:  End Time 
 FLOI.gpm               400.00:  Flow In 
 FLON.gpm               350.00:  Flow In Min 
 FLOS.cptm                0.00:  Fluid Loss 
 FLOX.gpm               400.00:  Flow In Max 
 FTRO.       Formation Presure:  FTWD Run Obj 
 HFLO.                      No:  High Flow 
 HPRE.                      No:  High Pressure 
 HTEM.                      No:  High Temp 
 HYDO.m                   1.80:  Hydro Offset 
 IFIN.deg                79.55:  Inc, Final 
 IMAX.deg                79.55:  Inc Max 
 IMIN.deg                78.04:  Inc Min 
 IMND.m                4502.50:  Inc Min Depth 
 IMXD.m                4587.87:  Inc Max Depth 
 JARR.                      No:  Jarring 
 LETM.      13.10.00 24-Mar-20:  Log End Time 
 LOST.hr                     0:  Lost Rig Time 
 LSTM.      17.00.00 23-Mar-20:  Log Start Time 
 MDCL.ppm             39000.00:  Mud Chlorides 
 MDES.     Inversion Oil/Synthetic:  Mud Desc 
 DFD .sg                  1.40:  Mud Density 
 MDMN.sg                  1.40:  Dens Mud Min 
 MDMX.sg                  1.40:  Dens Mud Max 
 MOIL.                    55.2:  Run Mud Oil % 
 MOWR.                   68:32:  Run Mud OWR 
 MSND.                     0.1:  Run Mud Sand % 
 MSOL.                    17.8:  Run Mud Solids% 
 DFV .spqt               76.00:  Mud Viscosity 
 MWOD.in                  4.75:  MWD Tool OD 
 MWSI.                      No:  Serv Intrp, MWD 
 OTIM.hr                 64.35:  Time Operating 
 PCON.           Look Like New:  Pad Condition 
 PMAX.psia             5350.00:  Press Op, Max 
 PV  .cP                 26.00:  Mud PV 
 RUN .                     900:  Run Number 
 ROPA.m/hr                9.00:  ROP Avg 
 ROPN.m/hr                7.00:  ROP Min 
 ROPX.m/hr               13.00:  ROP Max 
 RPMA.rpm               140.00:  RPM Surface Avg 
 RPMN.rpm               140.00:  RPM Surface Min 
 RPMX.rpm               140.00:  RPM Surface Max 
 RRUN.                    L204:  Rig Run Number 
 RTIM.hr                  4.50:  Time Reaming 
 SAZI.deg               141.40:  Azm, Start 
 SDEP.m                4503.01:  Start Depth 
 SIDD.                      No:  Serv Intrp, DD 
 SINC.deg                78.04:  Inc, Start 
 SPPA.psig             5300.00:  SPP Avg 
 SPPN.psig             5100.00:  SPP Min 
 SPPX.psig             5500.00:  SPP Max 
 STIM.      18.00.00 22-Mar-20:  Start Time 
 SVCS.                 DD, MWD:  Services 
 SVER.                    9.20:  Sperry Version 
 TDAT.m                 103.00:  Tot Depth Attmp 
 TDDF.                      No:  Trip for DD 
 TDLG.m                 103.00:  Tot Depth Loggd 
 TFF .                      No:  Trip for Fail 
 TQAA.f-kp               14.00:  Torque Abs Avg 
 TQAN.f-kp               12.00:  Torque Abs Min 
 TQAX.f-kp               16.00:  Torque Abs Max 
 TRRT.°/30m               0.45:  Turn Rotating 
 MRT .                    HCIM:  Maximum Recorded Temperature 
 TTMX.degC               90.20:  Max Tool Temp 
 VS01.         90577859G12V7D4:  Virtual Str1 SN 
 VS02.            90519330D5C4:  Virtual Str2 SN 
 VS03.             90603450F11:  Virtual Str3 SN 
 VS04.           90515383R12C4:  Virtual Str4 SN 
 VS05.          90522017N2L2C4:  Virtual Str5 SN 
 VS06.            90512682Z1W1:  Virtual Str6 SN 
 WBMN.klb                 5.00:  WOB Min 
 WITN.        Elmaddin Rahimov:  Customer Rep 
 WITN.           Adil Mammadov:  Customer Rep 2 
 WOBA.klb                 8.00:  WOB Avg 
 WOBX.klb                13.00:  WOB Max 
 YP  .lhf2               31.00:  Yield Point 
~Curve Information Block
#MNEM.UNIT                 API CODE     Curve Description
#---------               -----------    ---------------------------
 TIME.HHMMSS            00 000 000 000:  GT Time & Date
 GTDEPTH.m              00 000 000 000:  GT Depth
 GTPQH.psia             00 000 000 000:  GT HR Quartz Pressure
 GTTQ.degC              00 000 000 000:  GT Quartz Temperature
 GTTN.NONE              00 000 000 000:  GT Test Number
 GTET.sec               00 000 000 000:  GT Elapsed Test Time
 GTTVD.m                00 000 000 000:  GT True Vertical Depth
#Other Information
#
#WARRANTY: Halliburton will use its best efforts to furnish customers with 
#accurate information and interpretations that are part of, and incident to, the services 
#provided.  However, Halliburton cannot and does not warrant the accuracy 
#or correctness of such information and interpretations.  Under no circumstances should any 
#such information or interpretation be relied upon as the sole basis for any drilling, 
#completion, production, or financial decision or any procedure involving any risk to the 
#safety of any drilling venture, drilling rig or its crew or any other third party.  The 
#Customer has full responsibility for all drilling, completion and production operation.  
#Halliburton makes no representations or warranties, either expressed or 
#implied, including, but not limited to, the implied warranties of merchantability or fitness 
#for a particular purpose, with respect to the services rendered.  In no event will 
#Halliburton be liable for failure to obtain any particular results or for 
#any damages, including, but not limited to, indirect, special or consequential damages, 
#resulting from the use of any information or interpretation provided by Halliburton.
#
~A           TIME           GTDEPTH  GTPQH  GTTQ  GTTN  GTET   GTTVD  
# ...
   10:14:51.495.24-Mar-2020 4562.51 4435.50 85.65 5.00 253.05 3171.78
   10:14:51.695.24-Mar-2020 4562.51 4435.50 85.65 5.00 253.25 3171.78
   10:14:51.895.24-Mar-2020 4562.51 4435.44 85.65 5.00 253.45 3171.78
   10:14:52.095.24-Mar-2020 4562.51 4435.40 85.65 5.00 253.65 3171.78
   10:14:52.295.24-Mar-2020 4562.51 4435.48 85.65 5.00 253.85 3171.78
   10:14:52.495.24-Mar-2020 4562.51 4435.43 85.65 5.00 254.05 3171.78
   10:14:52.695.24-Mar-2020 4562.51 4435.43 85.65 5.00 254.25 3171.78
   10:14:52.895.24-Mar-2020 4562.51 4435.44 85.65 5.00 254.45 3171.78
   10:14:53.095.24-Mar-2020 4562.51 4435.45 85.65 5.00 254.65 3171.78
   10:14:53.295.24-Mar-2020 4562.51 4435.42 85.65 5.00 254.85 3171.78
   10:14:53.495.24-Mar-2020 4562.51 4435.45 85.65 5.00 255.05 3171.78
   10:14:53.695.24-Mar-2020 4562.51 4435.45 85.65 5.00 255.25 3171.78
   10:14:53.895.24-Mar-2020 4562.51 4435.36 85.65 5.00 255.45 3171.78
   10:14:54.095.24-Mar-2020 4562.51 4435.51 85.65 5.00 255.65 3171.78
   10:14:54.295.24-Mar-2020 4562.51 4435.42 85.64 5.00 255.85 3171.78
   10:14:54.495.24-Mar-2020 4562.51 4435.44 85.64 5.00 256.05 3171.78
   10:14:54.695.24-Mar-2020 4562.51 4435.44 85.64 5.00 256.25 3171.78
   10:14:54.895.24-Mar-2020 4562.51 4435.41 85.64 5.00 256.45 3171.78
   10:14:55.096.24-Mar-2020 4562.51 4435.46 85.64 5.00 256.65 3171.78
   10:14:55.296.24-Mar-2020 4562.51 4435.40 85.64 5.00 256.85 3171.78
   10:14:55.496.24-Mar-2020 4562.51 4435.45 85.64 5.00 257.05 3171.78
   10:14:55.696.24-Mar-2020 4562.51 4435.39 85.64 5.00 257.25 3171.78
   10:14:55.896.24-Mar-2020 4562.51 4435.45 85.64 5.00 257.45 3171.78
   10:14:56.096.24-Mar-2020 4562.51 4435.39 85.64 5.00 257.65 3171.78
   10:14:56.296.24-Mar-2020 4562.51 4435.44 85.64 5.00 257.85 3171.78
   10:14:56.496.24-Mar-2020 4562.51 4435.39 85.64 5.00 258.05 3171.78
   10:14:56.696.24-Mar-2020 4562.51 4435.39 85.64 5.00 258.25 3171.78
   10:14:56.896.24-Mar-2020 4562.51 4435.46 85.64 5.00 258.45 3171.78
   10:14:57.096.24-Mar-2020 4562.51 4435.45 85.64 5.00 258.65 3171.78
   10:14:57.296.24-Mar-2020 4562.51 4435.34 85.63 5.00 258.85 3171.78
   10:14:57.496.24-Mar-2020 4562.51 4435.52 85.63 5.00 259.05 3171.78
   10:14:57.696.24-Mar-2020 4562.51 4435.52 85.63 5.00 259.25 3171.78
   10:14:57.896.24-Mar-2020 4562.51 4435.45 85.63 5.00 259.45 3171.78
   10:14:58.096.24-Mar-2020 4562.51 4435.45 85.63 5.00 259.65 3171.78
   10:14:58.296.24-Mar-2020 4562.51 4435.34 85.63 5.00 259.85 3171.78
   10:14:58.496.24-Mar-2020 4562.51 4435.54 85.63 5.00 260.05 3171.78
   10:14:58.696.24-Mar-2020 4562.51 4435.54 85.63 5.00 260.25 3171.78
   10:14:58.896.24-Mar-2020 4562.51 4435.46 85.63 5.00 260.45 3171.78
   10:14:59.096.24-Mar-2020 4562.51 4435.40 85.63 5.00 260.65 3171.78
   10:14:59.296.24-Mar-2020 4562.51 4435.48 85.63 5.00 260.85 3171.78
   10:14:59.496.24-Mar-2020 4562.51 4435.42 85.63 5.00 261.05 3171.78
   10:14:59.696.24-Mar-2020 4562.51 4435.42 85.63 5.00 261.25 3171.78
   10:14:59.896.24-Mar-2020 4562.51 4435.42 85.63 5.00 261.45 3171.78
   10:15:00.096.24-Mar-2020 4562.51 4435.46 85.62 5.00 261.65 3171.78
   10:15:00.296.24-Mar-2020 4562.51 4435.40 85.62 5.00 261.85 3171.78
   10:15:00.497.24-Mar-2020 4562.51 4435.46 85.62 5.00 262.05 3171.78
   10:15:00.697.24-Mar-2020 4562.51 4435.46 85.62 5.00 262.25 3171.78
   10:15:00.897.24-Mar-2020 4562.51 4435.38 85.62 5.00 262.45 3171.78
   10:15:01.097.24-Mar-2020 4562.51 4435.48 85.62 5.00 262.65 3171.78
   10:15:01.297.24-Mar-2020 4562.51 4435.44 85.62 5.00 262.85 3171.78
   10:15:01.497.24-Mar-2020 4562.51 4435.42 85.62 5.00 263.05 3171.78
   10:15:01.697.24-Mar-2020 4562.51 4435.42 85.62 5.00 263.25 3171.78
   10:15:01.897.24-Mar-2020 4562.51 4435.43 85.62 5.00 263.45 3171.78
   10:15:02.097.24-Mar-2020 4562.51 4435.43 85.62 5.00 263.65 3171.78
   10:15:02.297.24-Mar-2020 4562.51 4435.42 85.62 5.00 263.85 3171.78
   10:15:02.497.24-Mar-2020 4562.51 4435.43 85.62 5.00 264.05 3171.78
   10:15:02.697.24-Mar-2020 4562.51 4435.43 85.62 5.00 264.25 3171.78
   10:15:02.897.24-Mar-2020 4562.51 4435.41 85.62 5.00 264.45 3171.78
   10:15:03.097.24-Mar-2020 4562.51 4435.43 85.61 5.00 264.65 3171.78
   10:15:03.297.24-Mar-2020 4562.51 4435.40 85.61 5.00 264.85 3171.78
   10:15:03.497.24-Mar-2020 4562.51 4435.41 85.61 5.00 265.05 3171.78
   10:15:03.697.24-Mar-2020 4562.51 4435.41 85.61 5.00 265.25 3171.78
   10:15:03.897.24-Mar-2020 4562.51 4435.43 85.61 5.00 265.45 3171.78
   10:15:04.097.24-Mar-2020 4562.51 4435.41 85.61 5.00 265.65 3171.78
   10:15:04.297.24-Mar-2020 4562.51 4435.41 85.61 5.00 265.85 3171.78
   10:15:04.497.24-Mar-2020 4562.51 4435.44 85.61 5.00 266.05 3171.78
   10:15:04.697.24-Mar-2020 4562.51 4435.44 85.61 5.00 266.25 3171.78
   10:15:04.897.24-Mar-2020 4562.51 4435.40 85.61 5.00 266.45 3171.78
   10:15:05.097.24-Mar-2020 4562.51 4435.46 85.61 5.00 266.65 3171.78
   10:15:05.297.24-Mar-2020 4562.51 4435.33 85.61 5.00 266.85 3171.78
   10:15:05.497.24-Mar-2020 4562.51 4435.50 85.61 5.00 267.05 3171.78
   10:15:05.698.24-Mar-2020 4562.51 4435.50 85.61 5.00 267.25 3171.78
   10:15:05.898.24-Mar-2020 4562.51 4435.49 85.61 5.00 267.45 3171.78
   10:15:06.098.24-Mar-2020 4562.51 4435.40 85.60 5.00 267.65 3171.78
   10:15:06.298.24-Mar-2020 4562.51 4435.46 85.60 5.00 267.85 3171.78
   10:15:06.498.24-Mar-2020 4562.51 4435.30 85.60 5.00 268.05 3171.78
   10:15:06.698.24-Mar-2020 4562.51 4435.30 85.60 5.00 268.25 3171.78
   10:15:06.898.24-Mar-2020 4562.51 4435.38 85.60 5.00 268.45 3171.78
   10:15:07.098.24-Mar-2020 4562.51 4435.47 85.60 5.00 268.65 3171.78
   10:15:07.298.24-Mar-2020 4562.51 4435.39 85.60 5.00 268.85 3171.78
   10:15:07.498.24-Mar-2020 4562.51 4435.43 85.60 5.00 269.05 3171.78
   10:15:07.698.24-Mar-2020 4562.51 4435.43 85.60 5.00 269.25 3171.78
   10:15:07.898.24-Mar-2020 4562.51 4435.42 85.60 5.00 269.45 3171.78
   10:15:08.098.24-Mar-2020 4562.51 4435.42 85.60 5.00 269.65 3171.78
   10:15:08.298.24-Mar-2020 4562.51 4435.34 85.60 5.00 269.85 3171.78
   10:15:08.498.24-Mar-2020 4562.51 4435.47 85.60 5.00 270.05 3171.78
   10:15:08.698.24-Mar-2020 4562.51 4435.47 85.60 5.00 270.25 3171.78
   10:15:08.898.24-Mar-2020 4562.51 4435.48 85.60 5.00 270.45 3171.78
   10:15:09.098.24-Mar-2020 4562.51 4435.39 85.59 5.00 270.65 3171.78
   10:15:09.298.24-Mar-2020 4562.51 4435.46 85.59 5.00 270.85 3171.78
   10:15:09.498.24-Mar-2020 4562.51 4435.37 85.59 5.00 271.05 3171.78
   10:15:09.698.24-Mar-2020 4562.51 4435.37 85.59 5.00 271.25 3171.78
   10:15:09.898.24-Mar-2020 4562.51 4435.37 85.59 5.00 271.45 3171.78
   10:15:10.098.24-Mar-2020 4562.51 4435.44 85.59 5.00 271.65 3171.78
   10:15:10.298.24-Mar-2020 4562.51 4435.37 85.59 5.00 271.85 3171.78
   10:15:10.498.24-Mar-2020 4562.51 4435.43 85.59 5.00 272.05 3171.78
   10:15:10.698.24-Mar-2020 4562.51 4435.43 85.59 5.00 272.25 3171.78
   10:15:10.898.24-Mar-2020 4562.51 4435.42 85.59 5.00 272.45 3171.78
   10:15:11.099.24-Mar-2020 4562.51 4435.29 85.59 5.00 272.65 3171.78
   10:15:11.299.24-Mar-2020 4562.51 4435.51 85.59 5.00 272.85 3171.78
   10:15:11.499.24-Mar-2020 4562.51 4435.37 85.59 5.00 273.05 3171.78
   10:15:11.699.24-Mar-2020 4562.51 4435.37 85.59 5.00 273.25 3171.78
   10:15:11.899.24-Mar-2020 4562.51 4435.49 85.59 5.00 273.45 3171.78
   10:15:12.099.24-Mar-2020 4562.51 4435.41 85.58 5.00 273.65 3171.78
   10:15:12.299.24-Mar-2020 4562.51 4435.46 85.58 5.00 273.85 3171.78
   10:15:12.499.24-Mar-2020 4562.51 4435.42 85.58 5.00 274.05 3171.78
   10:15:12.699.24-Mar-2020 4562.51 4435.42 85.58 5.00 274.25 3171.78
   10:15:12.899.24-Mar-2020 4562.51 4435.37 85.58 5.00 274.45 3171.78
   10:15:13.099.24-Mar-2020 4562.51 4435.49 85.58 5.00 274.65 3171.78
   10:15:13.299.24-Mar-2020 4562.51 4435.42 85.58 5.00 274.85 3171.78
   10:15:13.499.24-Mar-2020 4562.51 4435.47 85.58 5.00 275.05 3171.78
   10:15:13.699.24-Mar-2020 4562.51 4435.47 85.58 5.00 275.25 3171.78
   10:15:13.899.24-Mar-2020 4562.51 4435.41 85.58 5.00 275.45 3171.78
   10:15:14.099.24-Mar-2020 4562.51 4435.45 85.58 5.00 275.65 3171.78
   10:15:14.299.24-Mar-2020 4562.51 4435.46 85.58 5.00 275.85 3171.78
