~Version Information
 VERS.                  2.0:   CWLS log ASCII Standard -VERSION 2.0
 WRAP.                   NO:   One line per depth step
~Well Information Block
#MNEM.UNIT     VALUE/NAME     DESCRIPTION
#---------     -----------    ---------------------------
 STRT.S             10:10:38 24-Mar-20: START TIME 10:10:38 24-Mar-20
 STOP.S             10:17:07 24-Mar-20: STOP TIME  10:17:07 24-Mar-20
 STEP.S                   0.00: STEP TIME
 NULL.                 -999.25: NULL VALUE
 DFWT.                        :  DIST FWL TEXT
 DFST.                        :  DIST FSL TEXT
 DMF .             Drill Floor:  DRILL MEAS FROM
 STIM.      22.30.00 15-Feb-20:  START TIME
 DATE.      17.00.00 25-Mar-20:  END TIME
 SPUD.               15-Feb-20:  SPUD DATE
 NREF.                    Grid:  NORTH REFERENCE
 HPTY.       Minimum Curvature:  HOLE POS TYPE
 DMOD.             Drill Model:  DRILL MOD DESC
 SVYD.                  Survey:  SURVEY DESC
 ILTD.               Lithology:  INTERP LTH DESC
 FTOP.          Formation Tops:  FORM TOPS DESC
 SON .        AZ-XX-0906019077:  JOB NUMBER
 PDAT.          Mean Sea Level:  PERMANENT DATUM
 WTYP.                Deviated:  WELL TYPE
 MDS .        Operator Entered:  MAG DATA SOURCE
 COMP.     BP Exploration (Caspian sea) Ltd.:  COMPANY
 UWI .                     N/A:  UNIQUE WELL IDENTIFIER
 API .                     N/A:  API NUMBER
 BASE.              Azerbaijan:  LOGGING EQUIPMENT BASE LOCATION
 REGN.                   EESSA:  REGION
 PROV.                     N/A:  PROVINCE
 STAT.                     N/A:  STATE NAME
 CTRY.              Azerbaijan:  COUNTRY NAME
 FLD .                     ACG:  FIELD NAME
 SRVC.          Turan Drilling:  CONTRACTOR
 MWDS.                    Baku:  MWD SHOP
 WELL.                    E16W:  WELL NAME
 JOBN.        AZ-XX-0906019077:  JOB TICKET NUMB
 RIG .                     DWG:  RIG NAME
 CNTY.                     N/A:  COUNTY NAME
 DCON.         Sperry Drilling:  DIRECTNL CONTR
 UNIT.                     N/A:  LOGGING EQUIPMENT ID
 LOC .                        :  LOCATION
 LMF .             Drill Floor:  LOG MEASURED FROM
 TVDS.m                  43.16:  TVDSS CORRECTN
 LATI.deg                40.17:  LATITUDE
 LONG.deg                51.17:  LONGITUDE
 WHNS.m                 -15.30:  WELL HEAD N/S
 WHEW.m                  -1.29:  WELL HEAD E/W
 UTMX.m              514337.95:  UTM X
 UTMY.m             4448627.46:  UTM Y
 DFWL.m                   0.00:  DISTANCE FWL
 DFSL.m                   0.00:  DISTANCE FSL
 SDEP.m                3499.01:  START DEPTH
 TDD .m                4606.01:  TOTAL DEPTH (DRILLER)
 VSDR.deg               151.14:  VERT SEC DIRECT
 GVFD.g                   1.00:  GRAVITY FIELD
 MFLD.nT              50334.00:  MAGNETIC FIELD
 MDIP.deg                59.62:  MAGNETIC DIP
 MDEC.deg                 6.46:  MAGNETIC DECL
 GRDC.deg                 0.12:  GRID CORRECTION
 AZTC.deg                 6.34:  AZM TOTAL CORR
 EPD .m                   0.00:  ELEVATION
 EGL .m                   0.00:  GROUND ELEVATION
 WDMS.m                 176.20:  WD ELEV
 APD .m                  43.16:  DEPTH ABOVE PD
 VSEW.m                  -1.29:  VERT SEC E/W
 VSNS.m                 -15.30:  VERT SEC N/S
 AGAP.m                  43.16:  AIR GAP
 EKB .m                   0.00:  KB ELEVATION
 EDF .m                  43.16:  DF ELEVATION
 TDL .m                 103.00:  TOTAL DEPTH (LOGGER)
 VSC .                       0:  VS TO CLOSURE
 MAGU.                 1852525:  MAGUTM CHECKSUM
~Parameter Information Block
#MNEM.UNIT       Value        Description
#---------     -----------    ---------------------------
 AV  .mps                 1.01:  Ann Velocity 
 AVMX.mps                 1.32:  Max Ann Veloc 
 AZIF.deg               140.63:  Azm, Final 
 BHAT.        Rotary Steerable:  BHA Type 
 BREV.rev            151000.00:  Rev Bit Total 
 BROT.°/30m               0.65:  Build Rotating 
 BS  .in                  6.50:  Bit Size 
 BSZ .in                  6.50:  Bit Size 
 BTPL.psig              222.00:  Bit Press Loss 
 CABU.                      No:  Customer Abuse 
 CGEO.           Emin Aliyarov:  Customer Geo 
 COMM.                     ´â}:  Run Comments 1 
 TCS .hr                 22.89:  Time Ciculation Ended 
 CV  .mps                 2.20:  Crit Velocity 
 CVMX.mps                 3.04:  Max Crit Veloc 
 DD1 .         Intigam Rahimov:  Direct Drillr 1 
 DDSV.               Geo-Pilot:  DD Service 
 DEFF.%                  91.50:  % Det Eff 
 DLRX.°/30m               1.15:  Dogleg Rot Max 
 DLSO.°/30m               0.86:  Dogleg Oriented 
 DLSX.°/30m               1.15:  Dogleg Str Max 
 DRET.      13.10.00 24-Mar-20:  Drill End Time 
 DRST.      17.00.00 23-Mar-20:  Drill Start Tim 
 DTIM.hr                 11.87:  Time Drilling 
 EDEP.m                4606.01:  End Depth 
 ENG1.          Rasim Hashimov:  Engineer 1 
 ENG2.            Alan Tuganov:  Engineer 2 
 ENG3.         Yevgeniy Ulikov:  Engineer 3 
 ETIM.      16.00.00 25-Mar-20:  End Time 
 FLOI.gpm               400.00:  Flow In 
 FLON.gpm               350.00:  Flow In Min 
 FLOS.cptm                0.00:  Fluid Loss 
 FLOX.gpm               400.00:  Flow In Max 
 FTRO.       Formation Presure:  FTWD Run Obj 
 HFLO.                      No:  High Flow 
 HPRE.                      No:  High Pressure 
 HTEM.                      No:  High Temp 
 HYDO.m                   1.80:  Hydro Offset 
 IFIN.deg                79.55:  Inc, Final 
 IMAX.deg                79.55:  Inc Max 
 IMIN.deg                78.04:  Inc Min 
 IMND.m                4502.50:  Inc Min Depth 
 IMXD.m                4587.87:  Inc Max Depth 
 JARR.                      No:  Jarring 
 LETM.      13.10.00 24-Mar-20:  Log End Time 
 LOST.hr                     0:  Lost Rig Time 
 LSTM.      17.00.00 23-Mar-20:  Log Start Time 
 MDCL.ppm             39000.00:  Mud Chlorides 
 MDES.     Inversion Oil/Synthetic:  Mud Desc 
 DFD .sg                  1.40:  Mud Density 
 MDMN.sg                  1.40:  Dens Mud Min 
 MDMX.sg                  1.40:  Dens Mud Max 
 MOIL.                    55.2:  Run Mud Oil % 
 MOWR.                   68:32:  Run Mud OWR 
 MSND.                     0.1:  Run Mud Sand % 
 MSOL.                    17.8:  Run Mud Solids% 
 DFV .spqt               76.00:  Mud Viscosity 
 MWOD.in                  4.75:  MWD Tool OD 
 MWSI.                      No:  Serv Intrp, MWD 
 OTIM.hr                 64.35:  Time Operating 
 PCON.           Look Like New:  Pad Condition 
 PMAX.psia             5350.00:  Press Op, Max 
 PV  .cP                 26.00:  Mud PV 
 RUN .                     900:  Run Number 
 ROPA.m/hr                9.00:  ROP Avg 
 ROPN.m/hr                7.00:  ROP Min 
 ROPX.m/hr               13.00:  ROP Max 
 RPMA.rpm               140.00:  RPM Surface Avg 
 RPMN.rpm               140.00:  RPM Surface Min 
 RPMX.rpm               140.00:  RPM Surface Max 
 RRUN.                    L204:  Rig Run Number 
 RTIM.hr                  4.50:  Time Reaming 
 SAZI.deg               141.40:  Azm, Start 
 SDEP.m                4503.01:  Start Depth 
 SIDD.                      No:  Serv Intrp, DD 
 SINC.deg                78.04:  Inc, Start 
 SPPA.psig             5300.00:  SPP Avg 
 SPPN.psig             5100.00:  SPP Min 
 SPPX.psig             5500.00:  SPP Max 
 STIM.      18.00.00 22-Mar-20:  Start Time 
 SVCS.                 DD, MWD:  Services 
 SVER.                    9.20:  Sperry Version 
 TDAT.m                 103.00:  Tot Depth Attmp 
 TDDF.                      No:  Trip for DD 
 TDLG.m                 103.00:  Tot Depth Loggd 
 TFF .                      No:  Trip for Fail 
 TQAA.f-kp               14.00:  Torque Abs Avg 
 TQAN.f-kp               12.00:  Torque Abs Min 
 TQAX.f-kp               16.00:  Torque Abs Max 
 TRRT.°/30m               0.45:  Turn Rotating 
 MRT .                    HCIM:  Maximum Recorded Temperature 
 TTMX.degC               90.20:  Max Tool Temp 
 VS01.         90577859G12V7D4:  Virtual Str1 SN 
 VS02.            90519330D5C4:  Virtual Str2 SN 
 VS03.             90603450F11:  Virtual Str3 SN 
 VS04.           90515383R12C4:  Virtual Str4 SN 
 VS05.          90522017N2L2C4:  Virtual Str5 SN 
 VS06.            90512682Z1W1:  Virtual Str6 SN 
 WBMN.klb                 5.00:  WOB Min 
 WITN.        Elmaddin Rahimov:  Customer Rep 
 WITN.           Adil Mammadov:  Customer Rep 2 
 WOBA.klb                 8.00:  WOB Avg 
 WOBX.klb                13.00:  WOB Max 
 YP  .lhf2               31.00:  Yield Point 
~Curve Information Block
#MNEM.UNIT                 API CODE     Curve Description
#---------               -----------    ---------------------------
 TIME.HHMMSS            00 000 000 000:  GT Time & Date
 GTDEPTH.m              00 000 000 000:  GT Depth
 GTPQH.psia             00 000 000 000:  GT HR Quartz Pressure
 GTTQ.degC              00 000 000 000:  GT Quartz Temperature
 GTTN.NONE              00 000 000 000:  GT Test Number
 GTET.sec               00 000 000 000:  GT Elapsed Test Time
 GTTVD.m                00 000 000 000:  GT True Vertical Depth
#Other Information
#
#WARRANTY: Halliburton will use its best efforts to furnish customers with 
#accurate information and interpretations that are part of, and incident to, the services 
#provided.  However, Halliburton cannot and does not warrant the accuracy 
#or correctness of such information and interpretations.  Under no circumstances should any 
#such information or interpretation be relied upon as the sole basis for any drilling, 
#completion, production, or financial decision or any procedure involving any risk to the 
#safety of any drilling venture, drilling rig or its crew or any other third party.  The 
#Customer has full responsibility for all drilling, completion and production operation.  
#Halliburton makes no representations or warranties, either expressed or 
#implied, including, but not limited to, the implied warranties of merchantability or fitness 
#for a particular purpose, with respect to the services rendered.  In no event will 
#Halliburton be liable for failure to obtain any particular results or for 
#any damages, including, but not limited to, indirect, special or consequential damages, 
#resulting from the use of any information or interpretation provided by Halliburton.
#
~A           TIME           GTDEPTH  GTPQH  GTTQ  GTTN  GTET   GTTVD  
# ...
   10:16:00.508.24-Mar-2020 4562.51 4435.36 85.42 5.00 322.06 3171.78
   10:16:00.708.24-Mar-2020 4562.51 4435.36 85.42 5.00 322.26 3171.78
   10:16:00.908.24-Mar-2020 4562.51 4435.46 85.42 5.00 322.46 3171.78
   10:16:01.108.24-Mar-2020 4562.51 4435.30 85.42 5.00 322.66 3171.78
   10:16:01.308.24-Mar-2020 4562.51 4435.39 85.42 5.00 322.86 3171.78
   10:16:01.508.24-Mar-2020 4562.51 4435.33 85.42 5.00 323.06 3171.78
   10:16:01.708.24-Mar-2020 4562.51 4435.33 85.42 5.00 323.26 3171.78
   10:16:01.908.24-Mar-2020 4562.51 4435.33 85.42 5.00 323.46 3171.78
   10:16:02.108.24-Mar-2020 4562.51 4435.34 85.42 5.00 323.66 3171.78
   10:16:02.308.24-Mar-2020 4562.51 4435.32 85.42 5.00 323.86 3171.78
   10:16:02.508.24-Mar-2020 4562.51 4435.32 85.42 5.00 324.06 3171.78
   10:16:02.708.24-Mar-2020 4562.51 4435.32 85.42 5.00 324.26 3171.78
   10:16:02.908.24-Mar-2020 4562.51 4435.30 85.42 5.00 324.46 3171.78
   10:16:03.108.24-Mar-2020 4562.51 4435.35 85.42 5.00 324.66 3171.78
   10:16:03.308.24-Mar-2020 4562.51 4435.30 85.42 5.00 324.86 3171.78
   10:16:03.508.24-Mar-2020 4562.51 4435.32 85.42 5.00 325.06 3171.78
   10:16:03.708.24-Mar-2020 4562.51 4435.32 85.42 5.00 325.26 3171.78
   10:16:03.908.24-Mar-2020 4562.51 4435.36 85.41 5.00 325.46 3171.78
   10:16:04.108.24-Mar-2020 4562.51 4435.21 85.41 5.00 325.66 3171.78
   10:16:04.308.24-Mar-2020 4562.51 4435.45 85.41 5.00 325.86 3171.78
   10:16:04.508.24-Mar-2020 4562.51 4435.30 85.41 5.00 326.06 3171.78
   10:16:04.709.24-Mar-2020 4562.51 4435.30 85.41 5.00 326.26 3171.78
   10:16:04.909.24-Mar-2020 4562.51 4435.30 85.41 5.00 326.46 3171.78
   10:16:05.109.24-Mar-2020 4562.51 4435.35 85.41 5.00 326.66 3171.78
   10:16:05.309.24-Mar-2020 4562.51 4435.31 85.41 5.00 326.86 3171.78
   10:16:05.509.24-Mar-2020 4562.51 4435.36 85.41 5.00 327.06 3171.78
   10:16:05.709.24-Mar-2020 4562.51 4435.36 85.41 5.00 327.26 3171.78
   10:16:05.909.24-Mar-2020 4562.51 4435.35 85.41 5.00 327.46 3171.78
   10:16:06.109.24-Mar-2020 4562.51 4435.33 85.41 5.00 327.66 3171.78
   10:16:06.309.24-Mar-2020 4562.51 4435.25 85.41 5.00 327.86 3171.78
   10:16:06.509.24-Mar-2020 4562.51 4435.44 85.41 5.00 328.06 3171.78
   10:16:06.709.24-Mar-2020 4562.51 4435.44 85.41 5.00 328.26 3171.78
   10:16:06.909.24-Mar-2020 4562.51 4435.39 85.40 5.00 328.46 3171.78
   10:16:07.109.24-Mar-2020 4562.51 4435.32 85.40 5.00 328.66 3171.78
   10:16:07.309.24-Mar-2020 4562.51 4435.37 85.40 5.00 328.86 3171.78
   10:16:07.509.24-Mar-2020 4562.51 4435.31 85.40 5.00 329.06 3171.78
   10:16:07.709.24-Mar-2020 4562.51 4435.31 85.40 5.00 329.26 3171.78
   10:16:07.909.24-Mar-2020 4562.51 4435.30 85.40 5.00 329.46 3171.78
   10:16:08.109.24-Mar-2020 4562.51 4435.31 85.40 5.00 329.66 3171.78
   10:16:08.309.24-Mar-2020 4562.51 4435.30 85.40 5.00 329.86 3171.78
   10:16:08.509.24-Mar-2020 4562.51 4435.36 85.40 5.00 330.06 3171.78
   10:16:08.709.24-Mar-2020 4562.51 4435.36 85.40 5.00 330.26 3171.78
   10:16:08.909.24-Mar-2020 4562.51 4435.37 85.40 5.00 330.46 3171.78
   10:16:09.109.24-Mar-2020 4562.51 4435.29 85.40 5.00 330.66 3171.78
   10:16:09.309.24-Mar-2020 4562.51 4435.37 85.40 5.00 330.86 3171.78
   10:16:09.509.24-Mar-2020 4562.51 4435.29 85.40 5.00 331.06 3171.78
   10:16:09.709.24-Mar-2020 4562.51 4435.29 85.40 5.00 331.26 3171.78
   10:16:09.910.24-Mar-2020 4562.51 4435.29 85.39 5.00 331.46 3171.78
   10:16:10.110.24-Mar-2020 4562.51 4435.33 85.39 5.00 331.66 3171.78
   10:16:10.310.24-Mar-2020 4562.51 4435.29 85.39 5.00 331.86 3171.78
   10:16:10.510.24-Mar-2020 4562.51 4435.34 85.39 5.00 332.06 3171.78
   10:16:10.710.24-Mar-2020 4562.51 4435.34 85.39 5.00 332.26 3171.78
   10:16:10.910.24-Mar-2020 4562.51 4435.22 85.39 5.00 332.46 3171.78
   10:16:11.110.24-Mar-2020 4562.51 4435.41 85.39 5.00 332.66 3171.78
   10:16:11.310.24-Mar-2020 4562.51 4435.30 85.39 5.00 332.86 3171.78
   10:16:11.510.24-Mar-2020 4562.51 4435.30 85.39 5.00 333.06 3171.78
   10:16:11.710.24-Mar-2020 4562.51 4435.30 85.39 5.00 333.26 3171.78
   10:16:11.910.24-Mar-2020 4562.51 4435.33 85.39 5.00 333.46 3171.78
   10:16:12.110.24-Mar-2020 4562.51 4435.34 85.39 5.00 333.66 3171.78
   10:16:12.310.24-Mar-2020 4562.51 4435.35 85.39 5.00 333.86 3171.78
   10:16:12.510.24-Mar-2020 4562.51 4435.31 85.39 5.00 334.06 3171.78
   10:16:12.710.24-Mar-2020 4562.51 4435.31 85.39 5.00 334.26 3171.78
   10:16:12.910.24-Mar-2020 4562.51 4435.39 85.39 5.00 334.46 3171.78
   10:16:13.110.24-Mar-2020 4562.51 4435.33 85.38 5.00 334.66 3171.78
   10:16:13.310.24-Mar-2020 4562.51 4435.33 85.38 5.00 334.86 3171.78
   10:16:13.510.24-Mar-2020 4562.51 4435.35 85.38 5.00 335.06 3171.78
   10:16:13.710.24-Mar-2020 4562.51 4435.35 85.38 5.00 335.26 3171.78
   10:16:13.910.24-Mar-2020 4562.51 4435.36 85.38 5.00 335.46 3171.78
   10:16:14.110.24-Mar-2020 4562.51 4435.29 85.38 5.00 335.66 3171.78
   10:16:14.310.24-Mar-2020 4562.51 4435.39 85.38 5.00 335.86 3171.78
   10:16:14.510.24-Mar-2020 4562.51 4435.30 85.38 5.00 336.06 3171.78
   10:16:14.710.24-Mar-2020 4562.51 4435.30 85.38 5.00 336.26 3171.78
   10:16:14.910.24-Mar-2020 4562.51 4435.29 85.38 5.00 336.46 3171.78
   10:16:15.110.24-Mar-2020 4562.51 4435.35 85.38 5.00 336.66 3171.78
   10:16:15.311.24-Mar-2020 4562.51 4435.31 85.38 5.00 336.86 3171.78
   10:16:15.511.24-Mar-2020 4562.51 4435.33 85.38 5.00 337.06 3171.78
   10:16:15.711.24-Mar-2020 4562.51 4435.20 85.38 5.00 337.26 3171.78
   10:16:15.911.24-Mar-2020 4562.51 4435.42 85.38 5.00 337.46 3171.78
   10:16:16.111.24-Mar-2020 4562.51 4435.29 85.37 5.00 337.66 3171.78
   10:16:16.311.24-Mar-2020 4562.51 4435.36 85.37 5.00 337.86 3171.78
   10:16:16.511.24-Mar-2020 4562.51 4435.31 85.37 5.00 338.06 3171.78
   10:16:16.711.24-Mar-2020 4562.51 4435.31 85.37 5.00 338.26 3171.78
   10:16:16.911.24-Mar-2020 4562.51 4435.33 85.37 5.00 338.46 3171.78
   10:16:17.111.24-Mar-2020 4562.51 4435.31 85.37 5.00 338.66 3171.78
   10:16:17.311.24-Mar-2020 4562.51 4435.33 85.37 5.00 338.86 3171.78
   10:16:17.511.24-Mar-2020 4562.51 4435.29 85.37 5.00 339.06 3171.78
   10:16:17.711.24-Mar-2020 4562.51 4435.29 85.37 5.00 339.26 3171.78
   10:16:17.911.24-Mar-2020 4562.51 4435.29 85.37 5.00 339.46 3171.78
   10:16:18.111.24-Mar-2020 4562.51 4435.33 85.37 5.00 339.66 3171.78
   10:16:18.311.24-Mar-2020 4562.51 4435.25 85.37 5.00 339.86 3171.78
   10:16:18.511.24-Mar-2020 4562.51 4435.36 85.37 5.00 340.06 3171.78
   10:16:18.711.24-Mar-2020 4562.51 4435.36 85.37 5.00 340.26 3171.78
   10:16:18.911.24-Mar-2020 4562.51 4435.37 85.37 5.00 340.46 3171.78
   10:16:19.111.24-Mar-2020 4562.51 4435.24 85.37 5.00 340.66 3171.78
   10:16:19.311.24-Mar-2020 4562.51 4435.38 85.36 5.00 340.86 3171.78
   10:16:19.511.24-Mar-2020 4562.51 4435.30 85.36 5.00 341.06 3171.78
   10:16:19.711.24-Mar-2020 4562.51 4435.30 85.36 5.00 341.26 3171.78
   10:16:19.911.24-Mar-2020 4562.51 4435.29 85.36 5.00 341.46 3171.78
   10:16:20.111.24-Mar-2020 4562.51 4435.28 85.36 5.00 341.66 3171.78
   10:16:20.311.24-Mar-2020 4562.51 4435.36 85.36 5.00 341.86 3171.78
   10:16:20.511.24-Mar-2020 4562.51 4435.32 85.36 5.00 342.06 3171.78
   10:16:20.712.24-Mar-2020 4562.51 4435.32 85.36 5.00 342.26 3171.78
   10:16:20.912.24-Mar-2020 4562.51 4435.31 85.36 5.00 342.46 3171.78
   10:16:21.112.24-Mar-2020 4562.51 4435.34 85.36 5.00 342.66 3171.78
   10:16:21.312.24-Mar-2020 4562.51 4435.22 85.36 5.00 342.86 3171.78
   10:16:21.512.24-Mar-2020 4562.51 4435.40 85.36 5.00 343.06 3171.78
   10:16:21.712.24-Mar-2020 4562.51 4435.40 85.36 5.00 343.26 3171.78
   10:16:21.912.24-Mar-2020 4562.51 4435.35 85.36 5.00 343.46 3171.78
   10:16:22.112.24-Mar-2020 4562.51 4435.30 85.36 5.00 343.66 3171.78
   10:16:22.312.24-Mar-2020 4562.51 4435.34 85.35 5.00 343.86 3171.78
   10:16:22.512.24-Mar-2020 4562.51 4435.29 85.35 5.00 344.06 3171.78
   10:16:22.712.24-Mar-2020 4562.51 4435.29 85.35 5.00 344.26 3171.78
   10:16:22.912.24-Mar-2020 4562.51 4435.27 85.35 5.00 344.46 3171.78
   10:16:23.112.24-Mar-2020 4562.51 4435.25 85.35 5.00 344.66 3171.78
   10:16:23.312.24-Mar-2020 4562.51 4435.33 85.35 5.00 344.86 3171.78
