~Version Information
 VERS.                  2.0:   CWLS log ASCII Standard -VERSION 2.0
 WRAP.                   NO:   One line per depth step
~Well Information Block
#MNEM.UNIT     VALUE/NAME     DESCRIPTION
#---------     -----------    ---------------------------
 STRT.S             22:02:54 23-Mar-20: START TIME 22:02:54 23-Mar-20
 STOP.S             22:09:24 23-Mar-20: STOP TIME  22:09:24 23-Mar-20
 STEP.S                   0.00: STEP TIME
 NULL.                 -999.25: NULL VALUE
 DFWT.                        :  DIST FWL TEXT
 DFST.                        :  DIST FSL TEXT
 DMF .             Drill Floor:  DRILL MEAS FROM
 STIM.      22.30.00 15-Feb-20:  START TIME
 DATE.      17.00.00 25-Mar-20:  END TIME
 SPUD.               15-Feb-20:  SPUD DATE
 NREF.                    Grid:  NORTH REFERENCE
 HPTY.       Minimum Curvature:  HOLE POS TYPE
 DMOD.             Drill Model:  DRILL MOD DESC
 SVYD.                  Survey:  SURVEY DESC
 ILTD.               Lithology:  INTERP LTH DESC
 FTOP.          Formation Tops:  FORM TOPS DESC
 SON .        AZ-XX-0906019077:  JOB NUMBER
 PDAT.          Mean Sea Level:  PERMANENT DATUM
 WTYP.                Deviated:  WELL TYPE
 MDS .        Operator Entered:  MAG DATA SOURCE
 COMP.     BP Exploration (Caspian sea) Ltd.:  COMPANY
 UWI .                     N/A:  UNIQUE WELL IDENTIFIER
 API .                     N/A:  API NUMBER
 BASE.              Azerbaijan:  LOGGING EQUIPMENT BASE LOCATION
 REGN.                   EESSA:  REGION
 PROV.                     N/A:  PROVINCE
 STAT.                     N/A:  STATE NAME
 CTRY.              Azerbaijan:  COUNTRY NAME
 FLD .                     ACG:  FIELD NAME
 SRVC.          Turan Drilling:  CONTRACTOR
 MWDS.                    Baku:  MWD SHOP
 WELL.                    E16W:  WELL NAME
 JOBN.        AZ-XX-0906019077:  JOB TICKET NUMB
 RIG .                     DWG:  RIG NAME
 CNTY.                     N/A:  COUNTY NAME
 DCON.         Sperry Drilling:  DIRECTNL CONTR
 UNIT.                     N/A:  LOGGING EQUIPMENT ID
 LOC .                        :  LOCATION
 LMF .             Drill Floor:  LOG MEASURED FROM
 TVDS.m                  43.16:  TVDSS CORRECTN
 LATI.deg                40.17:  LATITUDE
 LONG.deg                51.17:  LONGITUDE
 WHNS.m                 -15.30:  WELL HEAD N/S
 WHEW.m                  -1.29:  WELL HEAD E/W
 UTMX.m              514337.95:  UTM X
 UTMY.m             4448627.46:  UTM Y
 DFWL.m                   0.00:  DISTANCE FWL
 DFSL.m                   0.00:  DISTANCE FSL
 SDEP.m                3499.01:  START DEPTH
 TDD .m                4606.01:  TOTAL DEPTH (DRILLER)
 VSDR.deg               151.14:  VERT SEC DIRECT
 GVFD.g                   1.00:  GRAVITY FIELD
 MFLD.nT              50334.00:  MAGNETIC FIELD
 MDIP.deg                59.62:  MAGNETIC DIP
 MDEC.deg                 6.46:  MAGNETIC DECL
 GRDC.deg                 0.12:  GRID CORRECTION
 AZTC.deg                 6.34:  AZM TOTAL CORR
 EPD .m                   0.00:  ELEVATION
 EGL .m                   0.00:  GROUND ELEVATION
 WDMS.m                 176.20:  WD ELEV
 APD .m                  43.16:  DEPTH ABOVE PD
 VSEW.m                  -1.29:  VERT SEC E/W
 VSNS.m                 -15.30:  VERT SEC N/S
 AGAP.m                  43.16:  AIR GAP
 EKB .m                   0.00:  KB ELEVATION
 EDF .m                  43.16:  DF ELEVATION
 TDL .m                 103.00:  TOTAL DEPTH (LOGGER)
 VSC .                       0:  VS TO CLOSURE
 MAGU.                 1852525:  MAGUTM CHECKSUM
~Parameter Information Block
#MNEM.UNIT       Value        Description
#---------     -----------    ---------------------------
 AV  .mps                 1.01:  Ann Velocity 
 AVMX.mps                 1.32:  Max Ann Veloc 
 AZIF.deg               140.63:  Azm, Final 
 BHAT.        Rotary Steerable:  BHA Type 
 BREV.rev            151000.00:  Rev Bit Total 
 BROT.°/30m               0.65:  Build Rotating 
 BS  .in                  6.50:  Bit Size 
 BSZ .in                  6.50:  Bit Size 
 BTPL.psig              222.00:  Bit Press Loss 
 CABU.                      No:  Customer Abuse 
 CGEO.           Emin Aliyarov:  Customer Geo 
 COMM.                     L5S:  Run Comments 1 
 TCS .hr                 22.89:  Time Ciculation Ended 
 CV  .mps                 2.20:  Crit Velocity 
 CVMX.mps                 3.04:  Max Crit Veloc 
 DD1 .         Intigam Rahimov:  Direct Drillr 1 
 DDSV.               Geo-Pilot:  DD Service 
 DEFF.%                  91.50:  % Det Eff 
 DLRX.°/30m               1.15:  Dogleg Rot Max 
 DLSO.°/30m               0.86:  Dogleg Oriented 
 DLSX.°/30m               1.15:  Dogleg Str Max 
 DRET.      13.10.00 24-Mar-20:  Drill End Time 
 DRST.      17.00.00 23-Mar-20:  Drill Start Tim 
 DTIM.hr                 11.87:  Time Drilling 
 EDEP.m                4606.01:  End Depth 
 ENG1.          Rasim Hashimov:  Engineer 1 
 ENG2.            Alan Tuganov:  Engineer 2 
 ENG3.         Yevgeniy Ulikov:  Engineer 3 
 ETIM.      16.00.00 25-Mar-20:  End Time 
 FLOI.gpm               400.00:  Flow In 
 FLON.gpm               350.00:  Flow In Min 
 FLOS.cptm                0.00:  Fluid Loss 
 FLOX.gpm               400.00:  Flow In Max 
 FTRO.       Formation Presure:  FTWD Run Obj 
 HFLO.                      No:  High Flow 
 HPRE.                      No:  High Pressure 
 HTEM.                      No:  High Temp 
 HYDO.m                   1.80:  Hydro Offset 
 IFIN.deg                79.55:  Inc, Final 
 IMAX.deg                79.55:  Inc Max 
 IMIN.deg                78.04:  Inc Min 
 IMND.m                4502.50:  Inc Min Depth 
 IMXD.m                4587.87:  Inc Max Depth 
 JARR.                      No:  Jarring 
 LETM.      13.10.00 24-Mar-20:  Log End Time 
 LOST.hr                     0:  Lost Rig Time 
 LSTM.      17.00.00 23-Mar-20:  Log Start Time 
 MDCL.ppm             39000.00:  Mud Chlorides 
 MDES.     Inversion Oil/Synthetic:  Mud Desc 
 DFD .sg                  1.40:  Mud Density 
 MDMN.sg                  1.40:  Dens Mud Min 
 MDMX.sg                  1.40:  Dens Mud Max 
 MOIL.                    55.2:  Run Mud Oil % 
 MOWR.                   68:32:  Run Mud OWR 
 MSND.                     0.1:  Run Mud Sand % 
 MSOL.                    17.8:  Run Mud Solids% 
 DFV .spqt               76.00:  Mud Viscosity 
 MWOD.in                  4.75:  MWD Tool OD 
 MWSI.                      No:  Serv Intrp, MWD 
 OTIM.hr                 64.35:  Time Operating 
 PCON.           Look Like New:  Pad Condition 
 PMAX.psia             5350.00:  Press Op, Max 
 PV  .cP                 26.00:  Mud PV 
 RUN .                     900:  Run Number 
 ROPA.m/hr                9.00:  ROP Avg 
 ROPN.m/hr                7.00:  ROP Min 
 ROPX.m/hr               13.00:  ROP Max 
 RPMA.rpm               140.00:  RPM Surface Avg 
 RPMN.rpm               140.00:  RPM Surface Min 
 RPMX.rpm               140.00:  RPM Surface Max 
 RRUN.                    L204:  Rig Run Number 
 RTIM.hr                  4.50:  Time Reaming 
 SAZI.deg               141.40:  Azm, Start 
 SDEP.m                4503.01:  Start Depth 
 SIDD.                      No:  Serv Intrp, DD 
 SINC.deg                78.04:  Inc, Start 
 SPPA.psig             5300.00:  SPP Avg 
 SPPN.psig             5100.00:  SPP Min 
 SPPX.psig             5500.00:  SPP Max 
 STIM.      18.00.00 22-Mar-20:  Start Time 
 SVCS.                 DD, MWD:  Services 
 SVER.                    9.20:  Sperry Version 
 TDAT.m                 103.00:  Tot Depth Attmp 
 TDDF.                      No:  Trip for DD 
 TDLG.m                 103.00:  Tot Depth Loggd 
 TFF .                      No:  Trip for Fail 
 TQAA.f-kp               14.00:  Torque Abs Avg 
 TQAN.f-kp               12.00:  Torque Abs Min 
 TQAX.f-kp               16.00:  Torque Abs Max 
 TRRT.°/30m               0.45:  Turn Rotating 
 MRT .                    HCIM:  Maximum Recorded Temperature 
 TTMX.degC               90.20:  Max Tool Temp 
 VS01.         90577859G12V7D4:  Virtual Str1 SN 
 VS02.            90519330D5C4:  Virtual Str2 SN 
 VS03.             90603450F11:  Virtual Str3 SN 
 VS04.           90515383R12C4:  Virtual Str4 SN 
 VS05.          90522017N2L2C4:  Virtual Str5 SN 
 VS06.            90512682Z1W1:  Virtual Str6 SN 
 WBMN.klb                 5.00:  WOB Min 
 WITN.        Elmaddin Rahimov:  Customer Rep 
 WITN.           Adil Mammadov:  Customer Rep 2 
 WOBA.klb                 8.00:  WOB Avg 
 WOBX.klb                13.00:  WOB Max 
 YP  .lhf2               31.00:  Yield Point 
~Curve Information Block
#MNEM.UNIT                 API CODE     Curve Description
#---------               -----------    ---------------------------
 TIME.HHMMSS            00 000 000 000:  GT Time & Date
 GTDEPTH.m              00 000 000 000:  GT Depth
 GTPQH.psia             00 000 000 000:  GT HR Quartz Pressure
 GTTQ.degC              00 000 000 000:  GT Quartz Temperature
 GTTN.NONE              00 000 000 000:  GT Test Number
 GTET.sec               00 000 000 000:  GT Elapsed Test Time
 GTTVD.m                00 000 000 000:  GT True Vertical Depth
#Other Information
#
#WARRANTY: Halliburton will use its best efforts to furnish customers with 
#accurate information and interpretations that are part of, and incident to, the services 
#provided.  However, Halliburton cannot and does not warrant the accuracy 
#or correctness of such information and interpretations.  Under no circumstances should any 
#such information or interpretation be relied upon as the sole basis for any drilling, 
#completion, production, or financial decision or any procedure involving any risk to the 
#safety of any drilling venture, drilling rig or its crew or any other third party.  The 
#Customer has full responsibility for all drilling, completion and production operation.  
#Halliburton makes no representations or warranties, either expressed or 
#implied, including, but not limited to, the implied warranties of merchantability or fitness 
#for a particular purpose, with respect to the services rendered.  In no event will 
#Halliburton be liable for failure to obtain any particular results or for 
#any damages, including, but not limited to, indirect, special or consequential damages, 
#resulting from the use of any information or interpretation provided by Halliburton.
#
~A           TIME           GTDEPTH  GTPQH  GTTQ  GTTN  GTET   GTTVD  
# ...
   22:08:39.960.23-Mar-2020 4483.01 4531.30 76.08 1.00 345.06 3155.68
   22:08:40.160.23-Mar-2020 4483.01 4531.39 76.08 1.00 345.26 3155.68
   22:08:40.360.23-Mar-2020 4483.01 4531.38 76.08 1.00 345.46 3155.68
   22:08:40.560.23-Mar-2020 4483.01 4531.40 76.08 1.00 345.66 3155.68
   22:08:40.760.23-Mar-2020 4483.01 4531.36 76.08 1.00 345.86 3155.68
   22:08:40.960.23-Mar-2020 4483.01 4531.38 76.07 1.00 346.06 3155.68
   22:08:41.160.23-Mar-2020 4483.01 4531.35 76.07 1.00 346.26 3155.68
   22:08:41.360.23-Mar-2020 4483.01 4531.38 76.07 1.00 346.46 3155.68
   22:08:41.560.23-Mar-2020 4483.01 4531.34 76.07 1.00 346.66 3155.68
   22:08:41.760.23-Mar-2020 4483.01 4531.31 76.07 1.00 346.86 3155.68
   22:08:41.960.23-Mar-2020 4483.01 4531.38 76.07 1.00 347.06 3155.68
   22:08:42.160.23-Mar-2020 4483.01 4531.38 76.07 1.00 347.26 3155.68
   22:08:42.360.23-Mar-2020 4483.01 4531.35 76.07 1.00 347.46 3155.68
   22:08:42.560.23-Mar-2020 4483.01 4531.66 76.07 1.00 347.66 3155.68
   22:08:42.760.23-Mar-2020 4483.01 4533.68 76.07 1.00 347.86 3155.68
   22:08:42.960.23-Mar-2020 4483.01 4583.44 76.07 1.00 348.06 3155.68
   22:08:43.160.23-Mar-2020 4483.01 4583.44 76.07 1.00 348.26 3155.68
   22:08:43.360.23-Mar-2020 4483.01 6933.50 76.07 1.00 348.46 3155.68
   22:08:43.561.23-Mar-2020 4483.01 6935.70 76.07 1.00 348.66 3155.68
   22:08:43.761.23-Mar-2020 4483.01 6934.43 76.07 1.00 348.86 3155.68
   22:08:43.961.23-Mar-2020 4483.01 6937.96 76.07 1.00 349.06 3155.68
   22:08:44.161.23-Mar-2020 4483.01 6937.96 76.07 1.00 349.26 3155.68
   22:08:44.361.23-Mar-2020 4483.01 6939.25 76.07 1.00 349.46 3155.68
   22:08:44.561.23-Mar-2020 4483.01 6931.71 76.07 1.00 349.66 3155.68
   22:08:44.761.23-Mar-2020 4483.01 6936.55 76.07 1.00 349.86 3155.68
   22:08:44.961.23-Mar-2020 4483.01 6937.29 76.07 1.00 350.06 3155.68
   22:08:45.161.23-Mar-2020 4483.01 6939.12 76.07 1.00 350.26 3155.68
   22:08:45.361.23-Mar-2020 4483.01 6937.61 76.06 1.00 350.46 3155.68
   22:08:45.561.23-Mar-2020 4483.01 6939.22 76.06 1.00 350.66 3155.68
   22:08:45.761.23-Mar-2020 4483.01 6933.59 76.06 1.00 350.86 3155.68
   22:08:45.961.23-Mar-2020 4483.01 6935.96 76.06 1.00 351.06 3155.68
   22:08:46.161.23-Mar-2020 4483.01 6935.96 76.06 1.00 351.26 3155.68
   22:08:46.361.23-Mar-2020 4483.01 6939.98 76.06 1.00 351.46 3155.68
   22:08:46.561.23-Mar-2020 4483.01 6935.07 76.06 1.00 351.66 3155.68
   22:08:46.761.23-Mar-2020 4483.01 6937.88 76.06 1.00 351.86 3155.68
   22:08:46.961.23-Mar-2020 4483.01 6940.74 76.06 1.00 352.06 3155.68
   22:08:47.161.23-Mar-2020 4483.01 6940.74 76.06 1.00 352.26 3155.68
   22:08:47.361.23-Mar-2020 4483.01 6942.26 76.06 1.00 352.46 3155.68
   22:08:47.561.23-Mar-2020 4483.01 6940.45 76.06 1.00 352.66 3155.68
   22:08:47.761.23-Mar-2020 4483.01 6937.15 76.06 1.00 352.86 3155.68
   22:08:47.961.23-Mar-2020 4483.01 6937.89 76.06 1.00 353.06 3155.68
   22:08:48.161.23-Mar-2020 4483.01 6937.89 76.06 1.00 353.26 3155.68
   22:08:48.361.23-Mar-2020 4483.01 6941.64 76.06 1.00 353.46 3155.68
   22:08:48.561.23-Mar-2020 4483.01 6943.16 76.06 1.00 353.66 3155.68
   22:08:48.761.23-Mar-2020 4483.01 6941.68 76.06 1.00 353.86 3155.68
   22:08:48.961.23-Mar-2020 4483.01 6943.05 76.06 1.00 354.06 3155.68
   22:08:49.161.23-Mar-2020 4483.01 6941.35 76.06 1.00 354.26 3155.68
   22:08:49.362.23-Mar-2020 4483.01 6942.36 76.06 1.00 354.46 3155.68
   22:08:49.562.23-Mar-2020 4483.01 6933.93 76.06 1.00 354.66 3155.68
   22:08:49.762.23-Mar-2020 4483.01 6940.06 76.06 1.00 354.86 3155.68
   22:08:49.962.23-Mar-2020 4483.01 6941.28 76.06 1.00 355.06 3155.68
   22:08:50.162.23-Mar-2020 4483.01 6941.28 76.06 1.00 355.26 3155.68
   22:08:50.362.23-Mar-2020 4483.01 6941.37 76.06 1.00 355.46 3155.68
   22:08:50.562.23-Mar-2020 4483.01 6942.30 76.06 1.00 355.66 3155.68
   22:08:50.762.23-Mar-2020 4483.01 6940.96 76.06 1.00 355.86 3155.68
   22:08:50.962.23-Mar-2020 4483.01 6941.90 76.06 1.00 356.06 3155.68
   22:08:51.162.23-Mar-2020 4483.01 6941.90 76.06 1.00 356.26 3155.68
   22:08:51.362.23-Mar-2020 4483.01 6941.69 76.06 1.00 356.46 3155.68
   22:08:51.562.23-Mar-2020 4483.01 6941.46 76.06 1.00 356.66 3155.68
   22:08:51.762.23-Mar-2020 4483.01 6942.78 76.06 1.00 356.86 3155.68
   22:08:51.962.23-Mar-2020 4483.01 6942.20 76.06 1.00 357.06 3155.68
   22:08:52.162.23-Mar-2020 4483.01 6942.20 76.06 1.00 357.26 3155.68
   22:08:52.362.23-Mar-2020 4483.01 6936.85 76.06 1.00 357.46 3155.68
   22:08:52.562.23-Mar-2020 4483.01 6936.60 76.06 1.00 357.66 3155.68
   22:08:52.762.23-Mar-2020 4483.01 6940.18 76.06 1.00 357.86 3155.68
   22:08:52.962.23-Mar-2020 4483.01 6940.16 76.06 1.00 358.06 3155.68
   22:08:53.162.23-Mar-2020 4483.01 6941.44 76.06 1.00 358.26 3155.68
   22:08:53.362.23-Mar-2020 4483.01 6935.54 76.06 1.00 358.46 3155.68
   22:08:53.562.23-Mar-2020 4483.01 6938.75 76.06 1.00 358.66 3155.68
   22:08:53.762.23-Mar-2020 4483.01 6938.66 76.06 1.00 358.86 3155.68
   22:08:53.962.23-Mar-2020 4483.01 6940.91 76.06 1.00 359.06 3155.68
   22:08:54.162.23-Mar-2020 4483.01 6940.91 76.06 1.00 359.26 3155.68
   22:08:54.362.23-Mar-2020 4483.01 6939.86 76.06 1.00 359.46 3155.68
   22:08:54.562.23-Mar-2020 4483.01 6940.24 76.06 1.00 359.66 3155.68
   22:08:54.762.23-Mar-2020 4483.01 6942.38 76.06 1.00 359.86 3155.68
   22:08:54.962.23-Mar-2020 4483.01 6941.65 76.06 1.00 360.06 3155.68
   22:08:55.163.23-Mar-2020 4483.01 6941.65 76.06 1.00 360.26 3155.68
   22:08:55.363.23-Mar-2020 4483.01 6936.46 76.06 1.00 360.46 3155.68
   22:08:55.563.23-Mar-2020 4483.01 6940.85 76.06 1.00 360.66 3155.68
   22:08:55.763.23-Mar-2020 4483.01 6940.73 76.06 1.00 360.86 3155.68
   22:08:55.963.23-Mar-2020 4483.01 6942.42 76.06 1.00 361.06 3155.68
   22:08:56.163.23-Mar-2020 4483.01 6942.42 76.06 1.00 361.26 3155.68
   22:08:56.363.23-Mar-2020 4483.01 6943.35 76.06 1.00 361.46 3155.68
   22:08:56.563.23-Mar-2020 4483.01 6942.59 76.06 1.00 361.66 3155.68
   22:08:56.763.23-Mar-2020 4483.01 6942.57 76.06 1.00 361.86 3155.68
   22:08:56.963.23-Mar-2020 4483.01 6942.43 76.06 1.00 362.06 3155.68
   22:08:57.163.23-Mar-2020 4483.01 6942.43 76.06 1.00 362.26 3155.68
   22:08:57.363.23-Mar-2020 4483.01 6937.08 76.06 1.00 362.46 3155.68
   22:08:57.563.23-Mar-2020 4483.01 6939.21 76.06 1.00 362.66 3155.68
   22:08:57.763.23-Mar-2020 4483.01 6941.27 76.06 1.00 362.86 3155.68
   22:08:57.963.23-Mar-2020 4483.01 6940.80 76.06 1.00 363.06 3155.68
   22:08:58.163.23-Mar-2020 4483.01 6940.80 76.06 1.00 363.26 3155.68
   22:08:58.363.23-Mar-2020 4483.01 6940.73 76.06 1.00 363.46 3155.68
   22:08:58.563.23-Mar-2020 4483.01 6942.31 76.06 1.00 363.66 3155.68
   22:08:58.763.23-Mar-2020 4483.01 6940.92 76.05 1.00 363.86 3155.68
   22:08:58.963.23-Mar-2020 4483.01 6942.88 76.05 1.00 364.06 3155.68
   22:08:59.163.23-Mar-2020 4483.01 6942.88 76.05 1.00 364.26 3155.68
   22:08:59.363.23-Mar-2020 4483.01 6942.72 76.05 1.00 364.46 3155.68
   22:08:59.563.23-Mar-2020 4483.01 6942.32 76.05 1.00 364.66 3155.68
   22:08:59.763.23-Mar-2020 4483.01 6943.50 76.05 1.00 364.86 3155.68
   22:08:59.963.23-Mar-2020 4483.01 6941.92 76.05 1.00 365.06 3155.68
   22:09:00.163.23-Mar-2020 4483.01 6938.26 76.05 1.00 365.26 3155.68
   22:09:00.363.23-Mar-2020 4483.01 6936.77 76.05 1.00 365.46 3155.68
   22:09:00.563.23-Mar-2020 4483.01 6941.38 76.05 1.00 365.66 3155.68
   22:09:00.763.23-Mar-2020 4483.01 6936.05 76.05 1.00 365.86 3155.68
   22:09:00.964.23-Mar-2020 4483.01 6938.12 76.05 1.00 366.06 3155.68
   22:09:01.164.23-Mar-2020 4483.01 6939.04 76.05 1.00 366.26 3155.68
   22:09:01.364.23-Mar-2020 4483.01 6940.60 76.05 1.00 366.46 3155.68
   22:09:01.564.23-Mar-2020 4483.01 6939.69 76.05 1.00 366.66 3155.68
   22:09:01.764.23-Mar-2020 4483.01 6937.39 76.05 1.00 366.86 3155.68
   22:09:01.964.23-Mar-2020 4483.01 6938.81 76.05 1.00 367.06 3155.68
   22:09:02.164.23-Mar-2020 4483.01 6938.81 76.05 1.00 367.26 3155.68
   22:09:02.364.23-Mar-2020 4483.01 6941.49 76.05 1.00 367.46 3155.68
   22:09:02.564.23-Mar-2020 4483.01 6937.90 76.05 1.00 367.66 3155.68
   22:09:02.764.23-Mar-2020 4483.01 6940.43 76.05 1.00 367.86 3155.68
