~Version Information
 VERS.                  2.0:   CWLS log ASCII Standard -VERSION 2.0
 WRAP.                   NO:   One line per depth step
~Well Information Block
#MNEM.UNIT     VALUE/NAME     DESCRIPTION
#---------     -----------    ---------------------------
 STRT.S             06:00:18 24-Mar-20: START TIME 06:00:18 24-Mar-20
 STOP.S             06:06:47 24-Mar-20: STOP TIME  06:06:47 24-Mar-20
 STEP.S                   0.00: STEP TIME
 NULL.                 -999.25: NULL VALUE
 DFWT.                        :  DIST FWL TEXT
 DFST.                        :  DIST FSL TEXT
 DMF .             Drill Floor:  DRILL MEAS FROM
 STIM.      22.30.00 15-Feb-20:  START TIME
 DATE.      17.00.00 25-Mar-20:  END TIME
 SPUD.               15-Feb-20:  SPUD DATE
 NREF.                    Grid:  NORTH REFERENCE
 HPTY.       Minimum Curvature:  HOLE POS TYPE
 DMOD.             Drill Model:  DRILL MOD DESC
 SVYD.                  Survey:  SURVEY DESC
 ILTD.               Lithology:  INTERP LTH DESC
 FTOP.          Formation Tops:  FORM TOPS DESC
 SON .        AZ-XX-0906019077:  JOB NUMBER
 PDAT.          Mean Sea Level:  PERMANENT DATUM
 WTYP.                Deviated:  WELL TYPE
 MDS .        Operator Entered:  MAG DATA SOURCE
 COMP.     BP Exploration (Caspian sea) Ltd.:  COMPANY
 UWI .                     N/A:  UNIQUE WELL IDENTIFIER
 API .                     N/A:  API NUMBER
 BASE.              Azerbaijan:  LOGGING EQUIPMENT BASE LOCATION
 REGN.                   EESSA:  REGION
 PROV.                     N/A:  PROVINCE
 STAT.                     N/A:  STATE NAME
 CTRY.              Azerbaijan:  COUNTRY NAME
 FLD .                     ACG:  FIELD NAME
 SRVC.          Turan Drilling:  CONTRACTOR
 MWDS.                    Baku:  MWD SHOP
 WELL.                    E16W:  WELL NAME
 JOBN.        AZ-XX-0906019077:  JOB TICKET NUMB
 RIG .                     DWG:  RIG NAME
 CNTY.                     N/A:  COUNTY NAME
 DCON.         Sperry Drilling:  DIRECTNL CONTR
 UNIT.                     N/A:  LOGGING EQUIPMENT ID
 LOC .                        :  LOCATION
 LMF .             Drill Floor:  LOG MEASURED FROM
 TVDS.m                  43.16:  TVDSS CORRECTN
 LATI.deg                40.17:  LATITUDE
 LONG.deg                51.17:  LONGITUDE
 WHNS.m                 -15.30:  WELL HEAD N/S
 WHEW.m                  -1.29:  WELL HEAD E/W
 UTMX.m              514337.95:  UTM X
 UTMY.m             4448627.46:  UTM Y
 DFWL.m                   0.00:  DISTANCE FWL
 DFSL.m                   0.00:  DISTANCE FSL
 SDEP.m                3499.01:  START DEPTH
 TDD .m                4606.01:  TOTAL DEPTH (DRILLER)
 VSDR.deg               151.14:  VERT SEC DIRECT
 GVFD.g                   1.00:  GRAVITY FIELD
 MFLD.nT              50334.00:  MAGNETIC FIELD
 MDIP.deg                59.62:  MAGNETIC DIP
 MDEC.deg                 6.46:  MAGNETIC DECL
 GRDC.deg                 0.12:  GRID CORRECTION
 AZTC.deg                 6.34:  AZM TOTAL CORR
 EPD .m                   0.00:  ELEVATION
 EGL .m                   0.00:  GROUND ELEVATION
 WDMS.m                 176.20:  WD ELEV
 APD .m                  43.16:  DEPTH ABOVE PD
 VSEW.m                  -1.29:  VERT SEC E/W
 VSNS.m                 -15.30:  VERT SEC N/S
 AGAP.m                  43.16:  AIR GAP
 EKB .m                   0.00:  KB ELEVATION
 EDF .m                  43.16:  DF ELEVATION
 TDL .m                 103.00:  TOTAL DEPTH (LOGGER)
 VSC .                       0:  VS TO CLOSURE
 MAGU.                 1852525:  MAGUTM CHECKSUM
~Parameter Information Block
#MNEM.UNIT       Value        Description
#---------     -----------    ---------------------------
 AV  .mps                 1.01:  Ann Velocity 
 AVMX.mps                 1.32:  Max Ann Veloc 
 AZIF.deg               140.63:  Azm, Final 
 BHAT.        Rotary Steerable:  BHA Type 
 BREV.rev            151000.00:  Rev Bit Total 
 BROT.°/30m               0.65:  Build Rotating 
 BS  .in                  6.50:  Bit Size 
 BSZ .in                  6.50:  Bit Size 
 BTPL.psig              222.00:  Bit Press Loss 
 CABU.                      No:  Customer Abuse 
 CGEO.           Emin Aliyarov:  Customer Geo 
 COMM.                     öU:  Run Comments 1 
 TCS .hr                 22.89:  Time Ciculation Ended 
 CV  .mps                 2.20:  Crit Velocity 
 CVMX.mps                 3.04:  Max Crit Veloc 
 DD1 .         Intigam Rahimov:  Direct Drillr 1 
 DDSV.               Geo-Pilot:  DD Service 
 DEFF.%                  91.50:  % Det Eff 
 DLRX.°/30m               1.15:  Dogleg Rot Max 
 DLSO.°/30m               0.86:  Dogleg Oriented 
 DLSX.°/30m               1.15:  Dogleg Str Max 
 DRET.      13.10.00 24-Mar-20:  Drill End Time 
 DRST.      17.00.00 23-Mar-20:  Drill Start Tim 
 DTIM.hr                 11.87:  Time Drilling 
 EDEP.m                4606.01:  End Depth 
 ENG1.          Rasim Hashimov:  Engineer 1 
 ENG2.            Alan Tuganov:  Engineer 2 
 ENG3.         Yevgeniy Ulikov:  Engineer 3 
 ETIM.      16.00.00 25-Mar-20:  End Time 
 FLOI.gpm               400.00:  Flow In 
 FLON.gpm               350.00:  Flow In Min 
 FLOS.cptm                0.00:  Fluid Loss 
 FLOX.gpm               400.00:  Flow In Max 
 FTRO.       Formation Presure:  FTWD Run Obj 
 HFLO.                      No:  High Flow 
 HPRE.                      No:  High Pressure 
 HTEM.                      No:  High Temp 
 HYDO.m                   1.80:  Hydro Offset 
 IFIN.deg                79.55:  Inc, Final 
 IMAX.deg                79.55:  Inc Max 
 IMIN.deg                78.04:  Inc Min 
 IMND.m                4502.50:  Inc Min Depth 
 IMXD.m                4587.87:  Inc Max Depth 
 JARR.                      No:  Jarring 
 LETM.      13.10.00 24-Mar-20:  Log End Time 
 LOST.hr                     0:  Lost Rig Time 
 LSTM.      17.00.00 23-Mar-20:  Log Start Time 
 MDCL.ppm             39000.00:  Mud Chlorides 
 MDES.     Inversion Oil/Synthetic:  Mud Desc 
 DFD .sg                  1.40:  Mud Density 
 MDMN.sg                  1.40:  Dens Mud Min 
 MDMX.sg                  1.40:  Dens Mud Max 
 MOIL.                    55.2:  Run Mud Oil % 
 MOWR.                   68:32:  Run Mud OWR 
 MSND.                     0.1:  Run Mud Sand % 
 MSOL.                    17.8:  Run Mud Solids% 
 DFV .spqt               76.00:  Mud Viscosity 
 MWOD.in                  4.75:  MWD Tool OD 
 MWSI.                      No:  Serv Intrp, MWD 
 OTIM.hr                 64.35:  Time Operating 
 PCON.           Look Like New:  Pad Condition 
 PMAX.psia             5350.00:  Press Op, Max 
 PV  .cP                 26.00:  Mud PV 
 RUN .                     900:  Run Number 
 ROPA.m/hr                9.00:  ROP Avg 
 ROPN.m/hr                7.00:  ROP Min 
 ROPX.m/hr               13.00:  ROP Max 
 RPMA.rpm               140.00:  RPM Surface Avg 
 RPMN.rpm               140.00:  RPM Surface Min 
 RPMX.rpm               140.00:  RPM Surface Max 
 RRUN.                    L204:  Rig Run Number 
 RTIM.hr                  4.50:  Time Reaming 
 SAZI.deg               141.40:  Azm, Start 
 SDEP.m                4503.01:  Start Depth 
 SIDD.                      No:  Serv Intrp, DD 
 SINC.deg                78.04:  Inc, Start 
 SPPA.psig             5300.00:  SPP Avg 
 SPPN.psig             5100.00:  SPP Min 
 SPPX.psig             5500.00:  SPP Max 
 STIM.      18.00.00 22-Mar-20:  Start Time 
 SVCS.                 DD, MWD:  Services 
 SVER.                    9.20:  Sperry Version 
 TDAT.m                 103.00:  Tot Depth Attmp 
 TDDF.                      No:  Trip for DD 
 TDLG.m                 103.00:  Tot Depth Loggd 
 TFF .                      No:  Trip for Fail 
 TQAA.f-kp               14.00:  Torque Abs Avg 
 TQAN.f-kp               12.00:  Torque Abs Min 
 TQAX.f-kp               16.00:  Torque Abs Max 
 TRRT.°/30m               0.45:  Turn Rotating 
 MRT .                    HCIM:  Maximum Recorded Temperature 
 TTMX.degC               90.20:  Max Tool Temp 
 VS01.         90577859G12V7D4:  Virtual Str1 SN 
 VS02.            90519330D5C4:  Virtual Str2 SN 
 VS03.             90603450F11:  Virtual Str3 SN 
 VS04.           90515383R12C4:  Virtual Str4 SN 
 VS05.          90522017N2L2C4:  Virtual Str5 SN 
 VS06.            90512682Z1W1:  Virtual Str6 SN 
 WBMN.klb                 5.00:  WOB Min 
 WITN.        Elmaddin Rahimov:  Customer Rep 
 WITN.           Adil Mammadov:  Customer Rep 2 
 WOBA.klb                 8.00:  WOB Avg 
 WOBX.klb                13.00:  WOB Max 
 YP  .lhf2               31.00:  Yield Point 
~Curve Information Block
#MNEM.UNIT                 API CODE     Curve Description
#---------               -----------    ---------------------------
 TIME.HHMMSS            00 000 000 000:  GT Time & Date
 GTDEPTH.m              00 000 000 000:  GT Depth
 GTPQH.psia             00 000 000 000:  GT HR Quartz Pressure
 GTTQ.degC              00 000 000 000:  GT Quartz Temperature
 GTTN.NONE              00 000 000 000:  GT Test Number
 GTET.sec               00 000 000 000:  GT Elapsed Test Time
 GTTVD.m                00 000 000 000:  GT True Vertical Depth
#Other Information
#
#WARRANTY: Halliburton will use its best efforts to furnish customers with 
#accurate information and interpretations that are part of, and incident to, the services 
#provided.  However, Halliburton cannot and does not warrant the accuracy 
#or correctness of such information and interpretations.  Under no circumstances should any 
#such information or interpretation be relied upon as the sole basis for any drilling, 
#completion, production, or financial decision or any procedure involving any risk to the 
#safety of any drilling venture, drilling rig or its crew or any other third party.  The 
#Customer has full responsibility for all drilling, completion and production operation.  
#Halliburton makes no representations or warranties, either expressed or 
#implied, including, but not limited to, the implied warranties of merchantability or fitness 
#for a particular purpose, with respect to the services rendered.  In no event will 
#Halliburton be liable for failure to obtain any particular results or for 
#any damages, including, but not limited to, indirect, special or consequential damages, 
#resulting from the use of any information or interpretation provided by Halliburton.
#
~A           TIME           GTDEPTH  GTPQH  GTTQ  GTTN  GTET   GTTVD  
# ...
   06:01:04.755.24-Mar-2020 4533.01 4451.48 83.52 4.00  46.01 3165.89
   06:01:04.955.24-Mar-2020 4533.01 4451.48 83.52 4.00  46.21 3165.89
   06:01:05.155.24-Mar-2020 4533.01 4451.48 83.51 4.00  46.41 3165.89
   06:01:05.355.24-Mar-2020 4533.01 4451.51 83.51 4.00  46.61 3165.89
   06:01:05.555.24-Mar-2020 4533.01 4451.53 83.51 4.00  46.81 3165.89
   06:01:05.755.24-Mar-2020 4533.01 4451.45 83.51 4.00  47.01 3165.89
   06:01:05.955.24-Mar-2020 4533.01 4451.53 83.51 4.00  47.21 3165.89
   06:01:06.155.24-Mar-2020 4533.01 4451.54 83.51 4.00  47.41 3165.89
   06:01:06.355.24-Mar-2020 4533.01 4451.52 83.51 4.00  47.61 3165.89
   06:01:06.555.24-Mar-2020 4533.01 4451.54 83.51 4.00  47.81 3165.89
   06:01:06.755.24-Mar-2020 4533.01 4451.47 83.51 4.00  48.01 3165.89
   06:01:06.955.24-Mar-2020 4533.01 4451.47 83.51 4.00  48.21 3165.89
   06:01:07.155.24-Mar-2020 4533.01 4451.55 83.50 4.00  48.41 3165.89
   06:01:07.355.24-Mar-2020 4533.01 4451.54 83.50 4.00  48.61 3165.89
   06:01:07.555.24-Mar-2020 4533.01 4451.55 83.50 4.00  48.81 3165.89
   06:01:07.755.24-Mar-2020 4533.01 4451.57 83.50 4.00  49.01 3165.89
   06:01:07.955.24-Mar-2020 4533.01 4451.57 83.50 4.00  49.21 3165.89
   06:01:08.155.24-Mar-2020 4533.01 4451.55 83.50 4.00  49.41 3165.89
   06:01:08.355.24-Mar-2020 4533.01 4451.57 83.50 4.00  49.61 3165.89
   06:01:08.556.24-Mar-2020 4533.01 4451.47 83.50 4.00  49.81 3165.89
   06:01:08.756.24-Mar-2020 4533.01 4451.60 83.50 4.00  50.01 3165.89
   06:01:08.956.24-Mar-2020 4533.01 4451.60 83.50 4.00  50.21 3165.89
   06:01:09.156.24-Mar-2020 4533.01 4451.56 83.49 4.00  50.41 3165.89
   06:01:09.356.24-Mar-2020 4533.01 4451.57 83.49 4.00  50.61 3165.89
   06:01:09.556.24-Mar-2020 4533.01 4451.58 83.49 4.00  50.81 3165.89
   06:01:09.756.24-Mar-2020 4533.01 4451.57 83.49 4.00  51.01 3165.89
   06:01:09.956.24-Mar-2020 4533.01 4451.57 83.49 4.00  51.21 3165.89
   06:01:10.156.24-Mar-2020 4533.01 4451.57 83.49 4.00  51.41 3165.89
   06:01:10.356.24-Mar-2020 4533.01 4451.59 83.49 4.00  51.61 3165.89
   06:01:10.556.24-Mar-2020 4533.01 4451.57 83.49 4.00  51.81 3165.89
   06:01:10.756.24-Mar-2020 4533.01 4451.60 83.49 4.00  52.01 3165.89
   06:01:10.956.24-Mar-2020 4533.01 4451.57 83.49 4.00  52.21 3165.89
   06:01:11.156.24-Mar-2020 4533.01 4451.59 83.49 4.00  52.41 3165.89
   06:01:11.356.24-Mar-2020 4533.01 4451.50 83.48 4.00  52.61 3165.89
   06:01:11.556.24-Mar-2020 4533.01 4451.58 83.48 4.00  52.81 3165.89
   06:01:11.756.24-Mar-2020 4533.01 4451.58 83.48 4.00  53.01 3165.89
   06:01:11.956.24-Mar-2020 4533.01 4451.58 83.48 4.00  53.21 3165.89
   06:01:12.156.24-Mar-2020 4533.01 4451.52 83.48 4.00  53.41 3165.89
   06:01:12.356.24-Mar-2020 4533.01 4451.58 83.48 4.00  53.61 3165.89
   06:01:12.556.24-Mar-2020 4533.01 4451.59 83.48 4.00  53.81 3165.89
   06:01:12.756.24-Mar-2020 4533.01 4451.58 83.48 4.00  54.01 3165.89
   06:01:12.956.24-Mar-2020 4533.01 4451.57 83.48 4.00  54.21 3165.89
   06:01:13.156.24-Mar-2020 4533.01 4451.56 83.48 4.00  54.41 3165.89
   06:01:13.356.24-Mar-2020 4533.01 4451.56 83.48 4.00  54.61 3165.89
   06:01:13.556.24-Mar-2020 4533.01 4451.60 83.47 4.00  54.81 3165.89
   06:01:13.756.24-Mar-2020 4533.01 4451.52 83.47 4.00  55.01 3165.89
   06:01:13.956.24-Mar-2020 4533.01 4451.59 83.47 4.00  55.21 3165.89
   06:01:14.156.24-Mar-2020 4533.01 4451.56 83.47 4.00  55.41 3165.89
   06:01:14.356.24-Mar-2020 4533.01 4451.60 83.47 4.00  55.61 3165.89
   06:01:14.557.24-Mar-2020 4533.01 4451.58 83.47 4.00  55.81 3165.89
   06:01:14.757.24-Mar-2020 4533.01 4451.59 83.47 4.00  56.01 3165.89
   06:01:14.957.24-Mar-2020 4533.01 4451.59 83.47 4.00  56.21 3165.89
   06:01:15.157.24-Mar-2020 4533.01 4451.60 83.47 4.00  56.41 3165.89
   06:01:15.357.24-Mar-2020 4533.01 4451.60 83.47 4.00  56.61 3165.89
   06:01:15.557.24-Mar-2020 4533.01 4451.59 83.47 4.00  56.81 3165.89
   06:01:15.757.24-Mar-2020 4533.01 4451.52 83.46 4.00  57.01 3165.89
   06:01:15.957.24-Mar-2020 4533.01 4451.52 83.46 4.00  57.21 3165.89
   06:01:16.157.24-Mar-2020 4533.01 4451.60 83.46 4.00  57.41 3165.89
   06:01:16.357.24-Mar-2020 4533.01 4451.57 83.46 4.00  57.61 3165.89
   06:01:16.557.24-Mar-2020 4533.01 4451.61 83.46 4.00  57.81 3165.89
   06:01:16.757.24-Mar-2020 4533.01 4451.57 83.46 4.00  58.01 3165.89
   06:01:16.957.24-Mar-2020 4533.01 4451.57 83.46 4.00  58.21 3165.89
   06:01:17.157.24-Mar-2020 4533.01 4451.59 83.46 4.00  58.41 3165.89
   06:01:17.357.24-Mar-2020 4533.01 4451.59 83.46 4.00  58.61 3165.89
   06:01:17.557.24-Mar-2020 4533.01 4451.59 83.46 4.00  58.81 3165.89
   06:01:17.757.24-Mar-2020 4533.01 4451.59 83.46 4.00  59.01 3165.89
   06:01:17.957.24-Mar-2020 4533.01 4451.59 83.46 4.00  59.21 3165.89
   06:01:18.157.24-Mar-2020 4533.01 4451.59 83.45 4.00  59.41 3165.89
   06:01:18.357.24-Mar-2020 4533.01 4451.55 83.45 4.00  59.61 3165.89
   06:01:18.557.24-Mar-2020 4533.01 4451.60 83.45 4.00  59.81 3165.89
   06:01:18.757.24-Mar-2020 4533.01 4451.57 83.45 4.00  60.01 3165.89
   06:01:18.957.24-Mar-2020 4533.01 4451.57 83.45 4.00  60.21 3165.89
   06:01:19.157.24-Mar-2020 4533.01 4451.53 83.45 4.00  60.41 3165.89
   06:01:19.357.24-Mar-2020 4533.01 4451.60 83.45 4.00  60.61 3165.89
   06:01:19.557.24-Mar-2020 4533.01 4451.56 83.45 4.00  60.81 3165.89
   06:01:19.757.24-Mar-2020 4533.01 4451.59 83.45 4.00  61.01 3165.89
   06:01:19.957.24-Mar-2020 4533.01 4451.59 83.45 4.00  61.21 3165.89
   06:01:20.157.24-Mar-2020 4533.01 4451.49 83.45 4.00  61.41 3165.89
   06:01:20.357.24-Mar-2020 4533.01 4451.63 83.44 4.00  61.61 3165.89
   06:01:20.558.24-Mar-2020 4533.01 4451.56 83.44 4.00  61.81 3165.89
   06:01:20.758.24-Mar-2020 4533.01 4451.59 83.44 4.00  62.01 3165.89
   06:01:20.958.24-Mar-2020 4533.01 4451.59 83.44 4.00  62.21 3165.89
   06:01:21.158.24-Mar-2020 4533.01 4451.60 83.44 4.00  62.41 3165.89
   06:01:21.358.24-Mar-2020 4533.01 4451.58 83.44 4.00  62.61 3165.89
   06:01:21.558.24-Mar-2020 4533.01 4451.57 83.44 4.00  62.81 3165.89
   06:01:21.758.24-Mar-2020 4533.01 4451.58 83.44 4.00  63.01 3165.89
   06:01:21.958.24-Mar-2020 4533.01 4451.58 83.44 4.00  63.21 3165.89
   06:01:22.158.24-Mar-2020 4533.01 4451.58 83.44 4.00  63.41 3165.89
   06:01:22.358.24-Mar-2020 4533.01 4451.58 83.44 4.00  63.61 3165.89
   06:01:22.558.24-Mar-2020 4533.01 4451.57 83.44 4.00  63.81 3165.89
   06:01:22.758.24-Mar-2020 4533.01 4451.53 83.44 4.00  64.01 3165.89
   06:01:22.958.24-Mar-2020 4533.01 4451.53 83.44 4.00  64.21 3165.89
   06:01:23.158.24-Mar-2020 4533.01 4451.55 83.43 4.00  64.41 3165.89
   06:01:23.358.24-Mar-2020 4533.01 4451.58 83.43 4.00  64.61 3165.89
   06:01:23.558.24-Mar-2020 4533.01 4451.58 83.43 4.00  64.81 3165.89
   06:01:23.758.24-Mar-2020 4533.01 4451.56 83.43 4.00  65.01 3165.89
   06:01:23.958.24-Mar-2020 4533.01 4451.56 83.43 4.00  65.21 3165.89
   06:01:24.158.24-Mar-2020 4533.01 4451.57 83.43 4.00  65.41 3165.89
   06:01:24.358.24-Mar-2020 4533.01 4451.57 83.43 4.00  65.61 3165.89
   06:01:24.558.24-Mar-2020 4533.01 4451.57 83.43 4.00  65.81 3165.89
   06:01:24.758.24-Mar-2020 4533.01 4451.57 83.43 4.00  66.01 3165.89
   06:01:24.958.24-Mar-2020 4533.01 4451.57 83.43 4.00  66.21 3165.89
   06:01:25.158.24-Mar-2020 4533.01 4451.57 83.43 4.00  66.41 3165.89
   06:01:25.358.24-Mar-2020 4533.01 4451.57 83.42 4.00  66.61 3165.89
   06:01:25.558.24-Mar-2020 4533.01 4451.48 83.42 4.00  66.81 3165.89
   06:01:25.758.24-Mar-2020 4533.01 4451.60 83.42 4.00  67.01 3165.89
   06:01:25.958.24-Mar-2020 4533.01 4451.60 83.42 4.00  67.21 3165.89
   06:01:26.158.24-Mar-2020 4533.01 4451.56 83.42 4.00  67.41 3165.89
   06:01:26.358.24-Mar-2020 4533.01 4451.50 83.42 4.00  67.61 3165.89
   06:01:26.559.24-Mar-2020 4533.01 4451.59 83.42 4.00  67.81 3165.89
   06:01:26.759.24-Mar-2020 4533.01 4451.56 83.42 4.00  68.01 3165.89
   06:01:26.959.24-Mar-2020 4533.01 4451.56 83.42 4.00  68.21 3165.89
   06:01:27.159.24-Mar-2020 4533.01 4451.56 83.42 4.00  68.41 3165.89
   06:01:27.359.24-Mar-2020 4533.01 4451.49 83.42 4.00  68.61 3165.89
   06:01:27.559.24-Mar-2020 4533.01 4451.56 83.42 4.00  68.81 3165.89
