~Version Information
 VERS.                  2.0:   CWLS log ASCII Standard -VERSION 2.0
 WRAP.                   NO:   One line per depth step
~Well Information Block
#MNEM.UNIT     VALUE/NAME     DESCRIPTION
#---------     -----------    ---------------------------
 STRT.S             03:38:19 24-Mar-20: START TIME 03:38:19 24-Mar-20
 STOP.S             03:44:48 24-Mar-20: STOP TIME  03:44:48 24-Mar-20
 STEP.S                   0.00: STEP TIME
 NULL.                 -999.25: NULL VALUE
 DFWT.                        :  DIST FWL TEXT
 DFST.                        :  DIST FSL TEXT
 DMF .             Drill Floor:  DRILL MEAS FROM
 STIM.      22.30.00 15-Feb-20:  START TIME
 DATE.      17.00.00 25-Mar-20:  END TIME
 SPUD.               15-Feb-20:  SPUD DATE
 NREF.                    Grid:  NORTH REFERENCE
 HPTY.       Minimum Curvature:  HOLE POS TYPE
 DMOD.             Drill Model:  DRILL MOD DESC
 SVYD.                  Survey:  SURVEY DESC
 ILTD.               Lithology:  INTERP LTH DESC
 FTOP.          Formation Tops:  FORM TOPS DESC
 SON .        AZ-XX-0906019077:  JOB NUMBER
 PDAT.          Mean Sea Level:  PERMANENT DATUM
 WTYP.                Deviated:  WELL TYPE
 MDS .        Operator Entered:  MAG DATA SOURCE
 COMP.     BP Exploration (Caspian sea) Ltd.:  COMPANY
 UWI .                     N/A:  UNIQUE WELL IDENTIFIER
 API .                     N/A:  API NUMBER
 BASE.              Azerbaijan:  LOGGING EQUIPMENT BASE LOCATION
 REGN.                   EESSA:  REGION
 PROV.                     N/A:  PROVINCE
 STAT.                     N/A:  STATE NAME
 CTRY.              Azerbaijan:  COUNTRY NAME
 FLD .                     ACG:  FIELD NAME
 SRVC.          Turan Drilling:  CONTRACTOR
 MWDS.                    Baku:  MWD SHOP
 WELL.                    E16W:  WELL NAME
 JOBN.        AZ-XX-0906019077:  JOB TICKET NUMB
 RIG .                     DWG:  RIG NAME
 CNTY.                     N/A:  COUNTY NAME
 DCON.         Sperry Drilling:  DIRECTNL CONTR
 UNIT.                     N/A:  LOGGING EQUIPMENT ID
 LOC .                        :  LOCATION
 LMF .             Drill Floor:  LOG MEASURED FROM
 TVDS.m                  43.16:  TVDSS CORRECTN
 LATI.deg                40.17:  LATITUDE
 LONG.deg                51.17:  LONGITUDE
 WHNS.m                 -15.30:  WELL HEAD N/S
 WHEW.m                  -1.29:  WELL HEAD E/W
 UTMX.m              514337.95:  UTM X
 UTMY.m             4448627.46:  UTM Y
 DFWL.m                   0.00:  DISTANCE FWL
 DFSL.m                   0.00:  DISTANCE FSL
 SDEP.m                3499.01:  START DEPTH
 TDD .m                4606.01:  TOTAL DEPTH (DRILLER)
 VSDR.deg               151.14:  VERT SEC DIRECT
 GVFD.g                   1.00:  GRAVITY FIELD
 MFLD.nT              50334.00:  MAGNETIC FIELD
 MDIP.deg                59.62:  MAGNETIC DIP
 MDEC.deg                 6.46:  MAGNETIC DECL
 GRDC.deg                 0.12:  GRID CORRECTION
 AZTC.deg                 6.34:  AZM TOTAL CORR
 EPD .m                   0.00:  ELEVATION
 EGL .m                   0.00:  GROUND ELEVATION
 WDMS.m                 176.20:  WD ELEV
 APD .m                  43.16:  DEPTH ABOVE PD
 VSEW.m                  -1.29:  VERT SEC E/W
 VSNS.m                 -15.30:  VERT SEC N/S
 AGAP.m                  43.16:  AIR GAP
 EKB .m                   0.00:  KB ELEVATION
 EDF .m                  43.16:  DF ELEVATION
 TDL .m                 103.00:  TOTAL DEPTH (LOGGER)
 VSC .                       0:  VS TO CLOSURE
 MAGU.                 1852525:  MAGUTM CHECKSUM
~Parameter Information Block
#MNEM.UNIT       Value        Description
#---------     -----------    ---------------------------
 AV  .mps                 1.01:  Ann Velocity 
 AVMX.mps                 1.32:  Max Ann Veloc 
 AZIF.deg               140.63:  Azm, Final 
 BHAT.        Rotary Steerable:  BHA Type 
 BREV.rev            151000.00:  Rev Bit Total 
 BROT.°/30m               0.65:  Build Rotating 
 BS  .in                  6.50:  Bit Size 
 BSZ .in                  6.50:  Bit Size 
 BTPL.psig              222.00:  Bit Press Loss 
 CABU.                      No:  Customer Abuse 
 CGEO.           Emin Aliyarov:  Customer Geo 
 COMM.                     \·`:  Run Comments 1 
 TCS .hr                 22.89:  Time Ciculation Ended 
 CV  .mps                 2.20:  Crit Velocity 
 CVMX.mps                 3.04:  Max Crit Veloc 
 DD1 .         Intigam Rahimov:  Direct Drillr 1 
 DDSV.               Geo-Pilot:  DD Service 
 DEFF.%                  91.50:  % Det Eff 
 DLRX.°/30m               1.15:  Dogleg Rot Max 
 DLSO.°/30m               0.86:  Dogleg Oriented 
 DLSX.°/30m               1.15:  Dogleg Str Max 
 DRET.      13.10.00 24-Mar-20:  Drill End Time 
 DRST.      17.00.00 23-Mar-20:  Drill Start Tim 
 DTIM.hr                 11.87:  Time Drilling 
 EDEP.m                4606.01:  End Depth 
 ENG1.          Rasim Hashimov:  Engineer 1 
 ENG2.            Alan Tuganov:  Engineer 2 
 ENG3.         Yevgeniy Ulikov:  Engineer 3 
 ETIM.      16.00.00 25-Mar-20:  End Time 
 FLOI.gpm               400.00:  Flow In 
 FLON.gpm               350.00:  Flow In Min 
 FLOS.cptm                0.00:  Fluid Loss 
 FLOX.gpm               400.00:  Flow In Max 
 FTRO.       Formation Presure:  FTWD Run Obj 
 HFLO.                      No:  High Flow 
 HPRE.                      No:  High Pressure 
 HTEM.                      No:  High Temp 
 HYDO.m                   1.80:  Hydro Offset 
 IFIN.deg                79.55:  Inc, Final 
 IMAX.deg                79.55:  Inc Max 
 IMIN.deg                78.04:  Inc Min 
 IMND.m                4502.50:  Inc Min Depth 
 IMXD.m                4587.87:  Inc Max Depth 
 JARR.                      No:  Jarring 
 LETM.      13.10.00 24-Mar-20:  Log End Time 
 LOST.hr                     0:  Lost Rig Time 
 LSTM.      17.00.00 23-Mar-20:  Log Start Time 
 MDCL.ppm             39000.00:  Mud Chlorides 
 MDES.     Inversion Oil/Synthetic:  Mud Desc 
 DFD .sg                  1.40:  Mud Density 
 MDMN.sg                  1.40:  Dens Mud Min 
 MDMX.sg                  1.40:  Dens Mud Max 
 MOIL.                    55.2:  Run Mud Oil % 
 MOWR.                   68:32:  Run Mud OWR 
 MSND.                     0.1:  Run Mud Sand % 
 MSOL.                    17.8:  Run Mud Solids% 
 DFV .spqt               76.00:  Mud Viscosity 
 MWOD.in                  4.75:  MWD Tool OD 
 MWSI.                      No:  Serv Intrp, MWD 
 OTIM.hr                 64.35:  Time Operating 
 PCON.           Look Like New:  Pad Condition 
 PMAX.psia             5350.00:  Press Op, Max 
 PV  .cP                 26.00:  Mud PV 
 RUN .                     900:  Run Number 
 ROPA.m/hr                9.00:  ROP Avg 
 ROPN.m/hr                7.00:  ROP Min 
 ROPX.m/hr               13.00:  ROP Max 
 RPMA.rpm               140.00:  RPM Surface Avg 
 RPMN.rpm               140.00:  RPM Surface Min 
 RPMX.rpm               140.00:  RPM Surface Max 
 RRUN.                    L204:  Rig Run Number 
 RTIM.hr                  4.50:  Time Reaming 
 SAZI.deg               141.40:  Azm, Start 
 SDEP.m                4503.01:  Start Depth 
 SIDD.                      No:  Serv Intrp, DD 
 SINC.deg                78.04:  Inc, Start 
 SPPA.psig             5300.00:  SPP Avg 
 SPPN.psig             5100.00:  SPP Min 
 SPPX.psig             5500.00:  SPP Max 
 STIM.      18.00.00 22-Mar-20:  Start Time 
 SVCS.                 DD, MWD:  Services 
 SVER.                    9.20:  Sperry Version 
 TDAT.m                 103.00:  Tot Depth Attmp 
 TDDF.                      No:  Trip for DD 
 TDLG.m                 103.00:  Tot Depth Loggd 
 TFF .                      No:  Trip for Fail 
 TQAA.f-kp               14.00:  Torque Abs Avg 
 TQAN.f-kp               12.00:  Torque Abs Min 
 TQAX.f-kp               16.00:  Torque Abs Max 
 TRRT.°/30m               0.45:  Turn Rotating 
 MRT .                    HCIM:  Maximum Recorded Temperature 
 TTMX.degC               90.20:  Max Tool Temp 
 VS01.         90577859G12V7D4:  Virtual Str1 SN 
 VS02.            90519330D5C4:  Virtual Str2 SN 
 VS03.             90603450F11:  Virtual Str3 SN 
 VS04.           90515383R12C4:  Virtual Str4 SN 
 VS05.          90522017N2L2C4:  Virtual Str5 SN 
 VS06.            90512682Z1W1:  Virtual Str6 SN 
 WBMN.klb                 5.00:  WOB Min 
 WITN.        Elmaddin Rahimov:  Customer Rep 
 WITN.           Adil Mammadov:  Customer Rep 2 
 WOBA.klb                 8.00:  WOB Avg 
 WOBX.klb                13.00:  WOB Max 
 YP  .lhf2               31.00:  Yield Point 
~Curve Information Block
#MNEM.UNIT                 API CODE     Curve Description
#---------               -----------    ---------------------------
 TIME.HHMMSS            00 000 000 000:  GT Time & Date
 GTDEPTH.m              00 000 000 000:  GT Depth
 GTPQH.psia             00 000 000 000:  GT HR Quartz Pressure
 GTTQ.degC              00 000 000 000:  GT Quartz Temperature
 GTTN.NONE              00 000 000 000:  GT Test Number
 GTET.sec               00 000 000 000:  GT Elapsed Test Time
 GTTVD.m                00 000 000 000:  GT True Vertical Depth
#Other Information
#
#WARRANTY: Halliburton will use its best efforts to furnish customers with 
#accurate information and interpretations that are part of, and incident to, the services 
#provided.  However, Halliburton cannot and does not warrant the accuracy 
#or correctness of such information and interpretations.  Under no circumstances should any 
#such information or interpretation be relied upon as the sole basis for any drilling, 
#completion, production, or financial decision or any procedure involving any risk to the 
#safety of any drilling venture, drilling rig or its crew or any other third party.  The 
#Customer has full responsibility for all drilling, completion and production operation.  
#Halliburton makes no representations or warranties, either expressed or 
#implied, including, but not limited to, the implied warranties of merchantability or fitness 
#for a particular purpose, with respect to the services rendered.  In no event will 
#Halliburton be liable for failure to obtain any particular results or for 
#any damages, including, but not limited to, indirect, special or consequential damages, 
#resulting from the use of any information or interpretation provided by Halliburton.
#
~A           TIME           GTDEPTH  GTPQH  GTTQ  GTTN  GTET   GTTVD  
   03:38:19.329.24-Mar-2020 4519.01 6931.92 83.21 3.00   0.00 3163.04
   03:38:19.529.24-Mar-2020 4519.01 6931.92 83.21 3.00   0.20 3163.04
   03:38:19.729.24-Mar-2020 4519.01 6933.37 83.21 3.00   0.40 3163.04
   03:38:19.929.24-Mar-2020 4519.01 6929.92 83.21 3.00   0.60 3163.04
   03:38:20.129.24-Mar-2020 4519.01 6929.49 83.21 3.00   0.80 3163.04
   03:38:20.329.24-Mar-2020 4519.01 6932.90 83.21 3.00   1.00 3163.04
   03:38:20.529.24-Mar-2020 4519.01 6932.90 83.21 3.00   1.20 3163.04
   03:38:20.729.24-Mar-2020 4519.01 6929.46 83.20 3.00   1.40 3163.04
   03:38:20.929.24-Mar-2020 4519.01 6926.50 83.20 3.00   1.60 3163.04
   03:38:21.129.24-Mar-2020 4519.01 6925.95 83.20 3.00   1.80 3163.04
   03:38:21.329.24-Mar-2020 4519.01 6925.73 83.20 3.00   2.00 3163.04
   03:38:21.529.24-Mar-2020 4519.01 6925.73 83.20 3.00   2.20 3163.04
   03:38:21.729.24-Mar-2020 4519.01 6923.27 83.20 3.00   2.40 3163.04
   03:38:21.929.24-Mar-2020 4519.01 6923.45 83.20 3.00   2.60 3163.04
   03:38:22.129.24-Mar-2020 4519.01 6921.99 83.20 3.00   2.80 3163.04
   03:38:22.329.24-Mar-2020 4519.01 6920.98 83.20 3.00   3.00 3163.04
   03:38:22.529.24-Mar-2020 4519.01 6920.98 83.20 3.00   3.20 3163.04
   03:38:22.729.24-Mar-2020 4519.01 6925.49 83.19 3.00   3.40 3163.04
   03:38:22.929.24-Mar-2020 4519.01 6924.18 83.19 3.00   3.60 3163.04
   03:38:23.129.24-Mar-2020 4519.01 6925.19 83.19 3.00   3.80 3163.04
   03:38:23.329.24-Mar-2020 4519.01 6922.63 83.19 3.00   4.00 3163.04
   03:38:23.530.24-Mar-2020 4519.01 6922.63 83.19 3.00   4.20 3163.04
   03:38:23.730.24-Mar-2020 4519.01 6922.33 83.19 3.00   4.40 3163.04
   03:38:23.930.24-Mar-2020 4519.01 6926.11 83.19 3.00   4.60 3163.04
   03:38:24.130.24-Mar-2020 4519.01 6928.34 83.19 3.00   4.80 3163.04
   03:38:24.330.24-Mar-2020 4519.01 6926.53 83.19 3.00   5.00 3163.04
   03:38:24.530.24-Mar-2020 4519.01 6926.53 83.18 3.00   5.20 3163.04
   03:38:24.730.24-Mar-2020 4519.01 6927.20 83.18 3.00   5.40 3163.04
   03:38:24.930.24-Mar-2020 4519.01 6926.45 83.18 3.00   5.60 3163.04
   03:38:25.130.24-Mar-2020 4519.01 6922.74 83.18 3.00   5.80 3163.04
   03:38:25.330.24-Mar-2020 4519.01 6928.92 83.18 3.00   6.00 3163.04
   03:38:25.530.24-Mar-2020 4519.01 6928.92 83.18 3.00   6.20 3163.04
   03:38:25.730.24-Mar-2020 4519.01 6929.10 83.18 3.00   6.40 3163.04
   03:38:25.930.24-Mar-2020 4519.01 6928.36 83.18 3.00   6.60 3163.04
   03:38:26.130.24-Mar-2020 4519.01 6929.32 83.18 3.00   6.80 3163.04
   03:38:26.330.24-Mar-2020 4519.01 6927.79 83.17 3.00   7.00 3163.04
   03:38:26.530.24-Mar-2020 4519.01 6927.79 83.17 3.00   7.20 3163.04
   03:38:26.730.24-Mar-2020 4519.01 6926.99 83.17 3.00   7.40 3163.04
   03:38:26.930.24-Mar-2020 4519.01 6927.73 83.17 3.00   7.60 3163.04
   03:38:27.130.24-Mar-2020 4519.01 6927.96 83.17 3.00   7.80 3163.04
   03:38:27.330.24-Mar-2020 4519.01 6927.60 83.17 3.00   8.00 3163.04
   03:38:27.530.24-Mar-2020 4519.01 6927.60 83.17 3.00   8.20 3163.04
   03:38:27.730.24-Mar-2020 4519.01 6919.97 83.17 3.00   8.40 3163.04
   03:38:27.930.24-Mar-2020 4519.01 6926.41 83.17 3.00   8.60 3163.04
   03:38:28.130.24-Mar-2020 4519.01 6924.71 83.16 3.00   8.80 3163.04
   03:38:28.330.24-Mar-2020 4519.01 6924.20 83.16 3.00   9.00 3163.04
   03:38:28.530.24-Mar-2020 4519.01 6924.20 83.16 3.00   9.20 3163.04
   03:38:28.730.24-Mar-2020 4519.01 6925.54 83.16 3.00   9.40 3163.04
   03:38:28.930.24-Mar-2020 4519.01 6924.60 83.16 3.00   9.60 3163.04
   03:38:29.130.24-Mar-2020 4519.01 6925.85 83.16 3.00   9.80 3163.04
   03:38:29.330.24-Mar-2020 4519.01 6924.52 83.16 3.00  10.00 3163.04
   03:38:29.531.24-Mar-2020 4519.01 6924.52 83.16 3.00  10.20 3163.04
   03:38:29.731.24-Mar-2020 4519.01 6924.34 83.16 3.00  10.40 3163.04
   03:38:29.931.24-Mar-2020 4519.01 6927.33 83.16 3.00  10.60 3163.04
   03:38:30.131.24-Mar-2020 4519.01 6925.81 83.15 3.00  10.80 3163.04
   03:38:30.331.24-Mar-2020 4519.01 6928.80 83.15 3.00  11.00 3163.04
   03:38:30.531.24-Mar-2020 4519.01 6928.80 83.15 3.00  11.20 3163.04
   03:38:30.731.24-Mar-2020 4519.01 6921.70 83.15 3.00  11.40 3163.04
   03:38:30.931.24-Mar-2020 4519.01 6927.22 83.15 3.00  11.60 3163.04
   03:38:31.131.24-Mar-2020 4519.01 6925.17 83.15 3.00  11.80 3163.04
   03:38:31.331.24-Mar-2020 4519.01 6926.24 83.15 3.00  12.00 3163.04
   03:38:31.531.24-Mar-2020 4519.01 6928.77 83.15 3.00  12.20 3163.04
   03:38:31.731.24-Mar-2020 4519.01 6920.65 83.15 3.00  12.40 3163.04
   03:38:31.931.24-Mar-2020 4519.01 6929.21 83.14 3.00  12.60 3163.04
   03:38:32.131.24-Mar-2020 4519.01 6925.34 83.14 3.00  12.80 3163.04
   03:38:32.331.24-Mar-2020 4519.01 6927.25 83.14 3.00  13.00 3163.04
   03:38:32.531.24-Mar-2020 4519.01 6922.69 83.14 3.00  13.20 3163.04
   03:38:32.731.24-Mar-2020 4519.01 6923.71 83.14 3.00  13.40 3163.04
   03:38:32.931.24-Mar-2020 4519.01 6928.93 83.14 3.00  13.60 3163.04
   03:38:33.131.24-Mar-2020 4519.01 6920.03 83.14 3.00  13.80 3163.04
   03:38:33.331.24-Mar-2020 4519.01 6924.01 83.14 3.00  14.00 3163.04
   03:38:33.531.24-Mar-2020 4519.01 6924.01 83.14 3.00  14.20 3163.04
   03:38:33.731.24-Mar-2020 4519.01 6917.09 83.13 3.00  14.40 3163.04
   03:38:33.931.24-Mar-2020 4519.01 6923.85 83.13 3.00  14.60 3163.04
   03:38:34.131.24-Mar-2020 4519.01 6925.00 83.13 3.00  14.80 3163.04
   03:38:34.331.24-Mar-2020 4519.01 6920.91 83.13 3.00  15.00 3163.04
   03:38:34.531.24-Mar-2020 4519.01 6920.91 83.13 3.00  15.20 3163.04
   03:38:34.731.24-Mar-2020 4519.01 6919.38 83.13 3.00  15.40 3163.04
   03:38:34.931.24-Mar-2020 4519.01 6938.16 83.13 3.00  15.60 3163.04
   03:38:35.131.24-Mar-2020 4519.01 6947.98 83.13 3.00  15.80 3163.04
   03:38:35.331.24-Mar-2020 4519.01 6958.99 83.13 3.00  16.00 3163.04
   03:38:35.532.24-Mar-2020 4519.01 6967.98 83.13 3.00  16.20 3163.04
   03:38:35.732.24-Mar-2020 4519.01 6981.39 83.12 3.00  16.40 3163.04
   03:38:35.932.24-Mar-2020 4519.01 7005.68 83.12 3.00  16.60 3163.04
   03:38:36.132.24-Mar-2020 4519.01 7047.75 83.12 3.00  16.80 3163.04
   03:38:36.332.24-Mar-2020 4519.01 7095.19 83.12 3.00  17.00 3163.04
   03:38:36.532.24-Mar-2020 4519.01 7168.63 83.12 3.00  17.20 3163.04
   03:38:36.732.24-Mar-2020 4519.01 7233.30 83.12 3.00  17.40 3163.04
   03:38:36.932.24-Mar-2020 4519.01 7310.65 83.12 3.00  17.60 3163.04
   03:38:37.132.24-Mar-2020 4519.01 7385.79 83.12 3.00  17.80 3163.04
   03:38:37.332.24-Mar-2020 4519.01 7454.28 83.12 3.00  18.00 3163.04
   03:38:37.532.24-Mar-2020 4519.01 7454.28 83.12 3.00  18.20 3163.04
   03:38:37.732.24-Mar-2020 4519.01 7596.23 83.11 3.00  18.40 3163.04
   03:38:37.932.24-Mar-2020 4519.01 7665.09 83.11 3.00  18.60 3163.04
   03:38:38.132.24-Mar-2020 4519.01 7768.73 83.11 3.00  18.80 3163.04
   03:38:38.332.24-Mar-2020 4519.01 7759.27 83.11 3.00  19.00 3163.04
   03:38:38.532.24-Mar-2020 4519.01 7759.27 83.11 3.00  19.20 3163.04
   03:38:38.732.24-Mar-2020 4519.01 7334.76 83.11 3.00  19.40 3163.04
   03:38:38.932.24-Mar-2020 4519.01 7422.48 83.11 3.00  19.60 3163.04
   03:38:39.132.24-Mar-2020 4519.01 7451.68 83.11 3.00  19.80 3163.04
   03:38:39.332.24-Mar-2020 4519.01 7508.60 83.11 3.00  20.00 3163.04
   03:38:39.532.24-Mar-2020 4519.01 7405.19 83.10 3.00  20.20 3163.04
   03:38:39.732.24-Mar-2020 4519.01 7543.92 83.10 3.00  20.40 3163.04
   03:38:39.932.24-Mar-2020 4519.01 7716.14 83.10 3.00  20.60 3163.04
   03:38:40.132.24-Mar-2020 4519.01 7467.62 83.10 3.00  20.80 3163.04
   03:38:40.332.24-Mar-2020 4519.01 7673.82 83.10 3.00  21.00 3163.04
   03:38:40.532.24-Mar-2020 4519.01 7673.82 83.10 3.00  21.20 3163.04
   03:38:40.732.24-Mar-2020 4519.01 7684.52 83.10 3.00  21.40 3163.04
   03:38:40.932.24-Mar-2020 4519.01 7702.14 83.10 3.00  21.60 3163.04
   03:38:41.132.24-Mar-2020 4519.01 7715.70 83.10 3.00  21.80 3163.04
   03:38:41.332.24-Mar-2020 4519.01 7728.19 83.10 3.00  22.00 3163.04
   03:38:41.533.24-Mar-2020 4519.01 7728.19 83.10 3.00  22.20 3163.04
   03:38:41.733.24-Mar-2020 4519.01 7744.75 83.09 3.00  22.40 3163.04
   03:38:41.933.24-Mar-2020 4519.01 7749.58 83.09 3.00  22.60 3163.04
   03:38:42.133.24-Mar-2020 4519.01 7753.85 83.09 3.00  22.80 3163.04
