~Version Information
 VERS.                  2.0:   CWLS log ASCII Standard -VERSION 2.0
 WRAP.                   NO:   One line per depth step
~Well Information Block
#MNEM.UNIT     VALUE/NAME     DESCRIPTION
#---------     -----------    ---------------------------
 STRT.S             06:00:18 24-Mar-20: START TIME 06:00:18 24-Mar-20
 STOP.S             06:06:47 24-Mar-20: STOP TIME  06:06:47 24-Mar-20
 STEP.S                   0.00: STEP TIME
 NULL.                 -999.25: NULL VALUE
 DFWT.                        :  DIST FWL TEXT
 DFST.                        :  DIST FSL TEXT
 DMF .             Drill Floor:  DRILL MEAS FROM
 STIM.      22.30.00 15-Feb-20:  START TIME
 DATE.      17.00.00 25-Mar-20:  END TIME
 SPUD.               15-Feb-20:  SPUD DATE
 NREF.                    Grid:  NORTH REFERENCE
 HPTY.       Minimum Curvature:  HOLE POS TYPE
 DMOD.             Drill Model:  DRILL MOD DESC
 SVYD.                  Survey:  SURVEY DESC
 ILTD.               Lithology:  INTERP LTH DESC
 FTOP.          Formation Tops:  FORM TOPS DESC
 SON .        AZ-XX-0906019077:  JOB NUMBER
 PDAT.          Mean Sea Level:  PERMANENT DATUM
 WTYP.                Deviated:  WELL TYPE
 MDS .        Operator Entered:  MAG DATA SOURCE
 COMP.     BP Exploration (Caspian sea) Ltd.:  COMPANY
 UWI .                     N/A:  UNIQUE WELL IDENTIFIER
 API .                     N/A:  API NUMBER
 BASE.              Azerbaijan:  LOGGING EQUIPMENT BASE LOCATION
 REGN.                   EESSA:  REGION
 PROV.                     N/A:  PROVINCE
 STAT.                     N/A:  STATE NAME
 CTRY.              Azerbaijan:  COUNTRY NAME
 FLD .                     ACG:  FIELD NAME
 SRVC.          Turan Drilling:  CONTRACTOR
 MWDS.                    Baku:  MWD SHOP
 WELL.                    E16W:  WELL NAME
 JOBN.        AZ-XX-0906019077:  JOB TICKET NUMB
 RIG .                     DWG:  RIG NAME
 CNTY.                     N/A:  COUNTY NAME
 DCON.         Sperry Drilling:  DIRECTNL CONTR
 UNIT.                     N/A:  LOGGING EQUIPMENT ID
 LOC .                        :  LOCATION
 LMF .             Drill Floor:  LOG MEASURED FROM
 TVDS.m                  43.16:  TVDSS CORRECTN
 LATI.deg                40.17:  LATITUDE
 LONG.deg                51.17:  LONGITUDE
 WHNS.m                 -15.30:  WELL HEAD N/S
 WHEW.m                  -1.29:  WELL HEAD E/W
 UTMX.m              514337.95:  UTM X
 UTMY.m             4448627.46:  UTM Y
 DFWL.m                   0.00:  DISTANCE FWL
 DFSL.m                   0.00:  DISTANCE FSL
 SDEP.m                3499.01:  START DEPTH
 TDD .m                4606.01:  TOTAL DEPTH (DRILLER)
 VSDR.deg               151.14:  VERT SEC DIRECT
 GVFD.g                   1.00:  GRAVITY FIELD
 MFLD.nT              50334.00:  MAGNETIC FIELD
 MDIP.deg                59.62:  MAGNETIC DIP
 MDEC.deg                 6.46:  MAGNETIC DECL
 GRDC.deg                 0.12:  GRID CORRECTION
 AZTC.deg                 6.34:  AZM TOTAL CORR
 EPD .m                   0.00:  ELEVATION
 EGL .m                   0.00:  GROUND ELEVATION
 WDMS.m                 176.20:  WD ELEV
 APD .m                  43.16:  DEPTH ABOVE PD
 VSEW.m                  -1.29:  VERT SEC E/W
 VSNS.m                 -15.30:  VERT SEC N/S
 AGAP.m                  43.16:  AIR GAP
 EKB .m                   0.00:  KB ELEVATION
 EDF .m                  43.16:  DF ELEVATION
 TDL .m                 103.00:  TOTAL DEPTH (LOGGER)
 VSC .                       0:  VS TO CLOSURE
 MAGU.                 1852525:  MAGUTM CHECKSUM
~Parameter Information Block
#MNEM.UNIT       Value        Description
#---------     -----------    ---------------------------
 AV  .mps                 1.01:  Ann Velocity 
 AVMX.mps                 1.32:  Max Ann Veloc 
 AZIF.deg               140.63:  Azm, Final 
 BHAT.        Rotary Steerable:  BHA Type 
 BREV.rev            151000.00:  Rev Bit Total 
 BROT.°/30m               0.65:  Build Rotating 
 BS  .in                  6.50:  Bit Size 
 BSZ .in                  6.50:  Bit Size 
 BTPL.psig              222.00:  Bit Press Loss 
 CABU.                      No:  Customer Abuse 
 CGEO.           Emin Aliyarov:  Customer Geo 
 COMM.                     öU:  Run Comments 1 
 TCS .hr                 22.89:  Time Ciculation Ended 
 CV  .mps                 2.20:  Crit Velocity 
 CVMX.mps                 3.04:  Max Crit Veloc 
 DD1 .         Intigam Rahimov:  Direct Drillr 1 
 DDSV.               Geo-Pilot:  DD Service 
 DEFF.%                  91.50:  % Det Eff 
 DLRX.°/30m               1.15:  Dogleg Rot Max 
 DLSO.°/30m               0.86:  Dogleg Oriented 
 DLSX.°/30m               1.15:  Dogleg Str Max 
 DRET.      13.10.00 24-Mar-20:  Drill End Time 
 DRST.      17.00.00 23-Mar-20:  Drill Start Tim 
 DTIM.hr                 11.87:  Time Drilling 
 EDEP.m                4606.01:  End Depth 
 ENG1.          Rasim Hashimov:  Engineer 1 
 ENG2.            Alan Tuganov:  Engineer 2 
 ENG3.         Yevgeniy Ulikov:  Engineer 3 
 ETIM.      16.00.00 25-Mar-20:  End Time 
 FLOI.gpm               400.00:  Flow In 
 FLON.gpm               350.00:  Flow In Min 
 FLOS.cptm                0.00:  Fluid Loss 
 FLOX.gpm               400.00:  Flow In Max 
 FTRO.       Formation Presure:  FTWD Run Obj 
 HFLO.                      No:  High Flow 
 HPRE.                      No:  High Pressure 
 HTEM.                      No:  High Temp 
 HYDO.m                   1.80:  Hydro Offset 
 IFIN.deg                79.55:  Inc, Final 
 IMAX.deg                79.55:  Inc Max 
 IMIN.deg                78.04:  Inc Min 
 IMND.m                4502.50:  Inc Min Depth 
 IMXD.m                4587.87:  Inc Max Depth 
 JARR.                      No:  Jarring 
 LETM.      13.10.00 24-Mar-20:  Log End Time 
 LOST.hr                     0:  Lost Rig Time 
 LSTM.      17.00.00 23-Mar-20:  Log Start Time 
 MDCL.ppm             39000.00:  Mud Chlorides 
 MDES.     Inversion Oil/Synthetic:  Mud Desc 
 DFD .sg                  1.40:  Mud Density 
 MDMN.sg                  1.40:  Dens Mud Min 
 MDMX.sg                  1.40:  Dens Mud Max 
 MOIL.                    55.2:  Run Mud Oil % 
 MOWR.                   68:32:  Run Mud OWR 
 MSND.                     0.1:  Run Mud Sand % 
 MSOL.                    17.8:  Run Mud Solids% 
 DFV .spqt               76.00:  Mud Viscosity 
 MWOD.in                  4.75:  MWD Tool OD 
 MWSI.                      No:  Serv Intrp, MWD 
 OTIM.hr                 64.35:  Time Operating 
 PCON.           Look Like New:  Pad Condition 
 PMAX.psia             5350.00:  Press Op, Max 
 PV  .cP                 26.00:  Mud PV 
 RUN .                     900:  Run Number 
 ROPA.m/hr                9.00:  ROP Avg 
 ROPN.m/hr                7.00:  ROP Min 
 ROPX.m/hr               13.00:  ROP Max 
 RPMA.rpm               140.00:  RPM Surface Avg 
 RPMN.rpm               140.00:  RPM Surface Min 
 RPMX.rpm               140.00:  RPM Surface Max 
 RRUN.                    L204:  Rig Run Number 
 RTIM.hr                  4.50:  Time Reaming 
 SAZI.deg               141.40:  Azm, Start 
 SDEP.m                4503.01:  Start Depth 
 SIDD.                      No:  Serv Intrp, DD 
 SINC.deg                78.04:  Inc, Start 
 SPPA.psig             5300.00:  SPP Avg 
 SPPN.psig             5100.00:  SPP Min 
 SPPX.psig             5500.00:  SPP Max 
 STIM.      18.00.00 22-Mar-20:  Start Time 
 SVCS.                 DD, MWD:  Services 
 SVER.                    9.20:  Sperry Version 
 TDAT.m                 103.00:  Tot Depth Attmp 
 TDDF.                      No:  Trip for DD 
 TDLG.m                 103.00:  Tot Depth Loggd 
 TFF .                      No:  Trip for Fail 
 TQAA.f-kp               14.00:  Torque Abs Avg 
 TQAN.f-kp               12.00:  Torque Abs Min 
 TQAX.f-kp               16.00:  Torque Abs Max 
 TRRT.°/30m               0.45:  Turn Rotating 
 MRT .                    HCIM:  Maximum Recorded Temperature 
 TTMX.degC               90.20:  Max Tool Temp 
 VS01.         90577859G12V7D4:  Virtual Str1 SN 
 VS02.            90519330D5C4:  Virtual Str2 SN 
 VS03.             90603450F11:  Virtual Str3 SN 
 VS04.           90515383R12C4:  Virtual Str4 SN 
 VS05.          90522017N2L2C4:  Virtual Str5 SN 
 VS06.            90512682Z1W1:  Virtual Str6 SN 
 WBMN.klb                 5.00:  WOB Min 
 WITN.        Elmaddin Rahimov:  Customer Rep 
 WITN.           Adil Mammadov:  Customer Rep 2 
 WOBA.klb                 8.00:  WOB Avg 
 WOBX.klb                13.00:  WOB Max 
 YP  .lhf2               31.00:  Yield Point 
~Curve Information Block
#MNEM.UNIT                 API CODE     Curve Description
#---------               -----------    ---------------------------
 TIME.HHMMSS            00 000 000 000:  GT Time & Date
 GTDEPTH.m              00 000 000 000:  GT Depth
 GTPQH.psia             00 000 000 000:  GT HR Quartz Pressure
 GTTQ.degC              00 000 000 000:  GT Quartz Temperature
 GTTN.NONE              00 000 000 000:  GT Test Number
 GTET.sec               00 000 000 000:  GT Elapsed Test Time
 GTTVD.m                00 000 000 000:  GT True Vertical Depth
#Other Information
#
#WARRANTY: Halliburton will use its best efforts to furnish customers with 
#accurate information and interpretations that are part of, and incident to, the services 
#provided.  However, Halliburton cannot and does not warrant the accuracy 
#or correctness of such information and interpretations.  Under no circumstances should any 
#such information or interpretation be relied upon as the sole basis for any drilling, 
#completion, production, or financial decision or any procedure involving any risk to the 
#safety of any drilling venture, drilling rig or its crew or any other third party.  The 
#Customer has full responsibility for all drilling, completion and production operation.  
#Halliburton makes no representations or warranties, either expressed or 
#implied, including, but not limited to, the implied warranties of merchantability or fitness 
#for a particular purpose, with respect to the services rendered.  In no event will 
#Halliburton be liable for failure to obtain any particular results or for 
#any damages, including, but not limited to, indirect, special or consequential damages, 
#resulting from the use of any information or interpretation provided by Halliburton.
#
~A           TIME           GTDEPTH  GTPQH  GTTQ  GTTN  GTET   GTTVD  
# ...
   06:04:31.789.24-Mar-2020 4533.01 4450.83 82.80 4.00 253.04 3165.89
   06:04:31.989.24-Mar-2020 4533.01 4450.83 82.80 4.00 253.24 3165.89
   06:04:32.189.24-Mar-2020 4533.01 4450.84 82.80 4.00 253.44 3165.89
   06:04:32.389.24-Mar-2020 4533.01 4450.79 82.80 4.00 253.64 3165.89
   06:04:32.589.24-Mar-2020 4533.01 4450.83 82.80 4.00 253.84 3165.89
   06:04:32.790.24-Mar-2020 4533.01 4450.82 82.80 4.00 254.04 3165.89
   06:04:32.990.24-Mar-2020 4533.01 4450.82 82.80 4.00 254.24 3165.89
   06:04:33.190.24-Mar-2020 4533.01 4450.76 82.80 4.00 254.44 3165.89
   06:04:33.390.24-Mar-2020 4533.01 4450.85 82.80 4.00 254.64 3165.89
   06:04:33.590.24-Mar-2020 4533.01 4450.83 82.80 4.00 254.84 3165.89
   06:04:33.790.24-Mar-2020 4533.01 4450.80 82.79 4.00 255.04 3165.89
   06:04:33.990.24-Mar-2020 4533.01 4450.80 82.79 4.00 255.24 3165.89
   06:04:34.190.24-Mar-2020 4533.01 4450.85 82.79 4.00 255.44 3165.89
   06:04:34.390.24-Mar-2020 4533.01 4450.84 82.79 4.00 255.64 3165.89
   06:04:34.590.24-Mar-2020 4533.01 4450.81 82.79 4.00 255.84 3165.89
   06:04:34.790.24-Mar-2020 4533.01 4450.83 82.79 4.00 256.04 3165.89
   06:04:34.990.24-Mar-2020 4533.01 4450.83 82.79 4.00 256.24 3165.89
   06:04:35.190.24-Mar-2020 4533.01 4450.82 82.79 4.00 256.44 3165.89
   06:04:35.390.24-Mar-2020 4533.01 4450.80 82.79 4.00 256.64 3165.89
   06:04:35.590.24-Mar-2020 4533.01 4450.80 82.79 4.00 256.84 3165.89
   06:04:35.790.24-Mar-2020 4533.01 4450.77 82.79 4.00 257.04 3165.89
   06:04:35.990.24-Mar-2020 4533.01 4450.77 82.79 4.00 257.24 3165.89
   06:04:36.190.24-Mar-2020 4533.01 4450.79 82.79 4.00 257.44 3165.89
   06:04:36.390.24-Mar-2020 4533.01 4450.82 82.79 4.00 257.64 3165.89
   06:04:36.590.24-Mar-2020 4533.01 4450.81 82.79 4.00 257.84 3165.89
   06:04:36.790.24-Mar-2020 4533.01 4450.80 82.79 4.00 258.04 3165.89
   06:04:36.990.24-Mar-2020 4533.01 4450.80 82.79 4.00 258.24 3165.89
   06:04:37.190.24-Mar-2020 4533.01 4450.80 82.78 4.00 258.44 3165.89
   06:04:37.390.24-Mar-2020 4533.01 4450.81 82.78 4.00 258.64 3165.89
   06:04:37.590.24-Mar-2020 4533.01 4450.79 82.78 4.00 258.84 3165.89
   06:04:37.790.24-Mar-2020 4533.01 4450.80 82.78 4.00 259.04 3165.89
   06:04:37.990.24-Mar-2020 4533.01 4450.80 82.78 4.00 259.24 3165.89
   06:04:38.190.24-Mar-2020 4533.01 4450.80 82.78 4.00 259.44 3165.89
   06:04:38.390.24-Mar-2020 4533.01 4450.79 82.78 4.00 259.64 3165.89
   06:04:38.590.24-Mar-2020 4533.01 4450.74 82.78 4.00 259.84 3165.89
   06:04:38.791.24-Mar-2020 4533.01 4450.84 82.78 4.00 260.04 3165.89
   06:04:38.991.24-Mar-2020 4533.01 4450.84 82.78 4.00 260.24 3165.89
   06:04:39.191.24-Mar-2020 4533.01 4450.79 82.78 4.00 260.44 3165.89
   06:04:39.391.24-Mar-2020 4533.01 4450.76 82.78 4.00 260.64 3165.89
   06:04:39.591.24-Mar-2020 4533.01 4450.84 82.78 4.00 260.84 3165.89
   06:04:39.791.24-Mar-2020 4533.01 4450.83 82.78 4.00 261.04 3165.89
   06:04:39.991.24-Mar-2020 4533.01 4450.83 82.78 4.00 261.24 3165.89
   06:04:40.191.24-Mar-2020 4533.01 4450.81 82.78 4.00 261.44 3165.89
   06:04:40.391.24-Mar-2020 4533.01 4450.78 82.78 4.00 261.64 3165.89
   06:04:40.591.24-Mar-2020 4533.01 4450.80 82.77 4.00 261.84 3165.89
   06:04:40.791.24-Mar-2020 4533.01 4450.83 82.77 4.00 262.04 3165.89
   06:04:40.991.24-Mar-2020 4533.01 4450.79 82.77 4.00 262.24 3165.89
   06:04:41.191.24-Mar-2020 4533.01 4450.76 82.77 4.00 262.44 3165.89
   06:04:41.391.24-Mar-2020 4533.01 4450.82 82.77 4.00 262.64 3165.89
   06:04:41.591.24-Mar-2020 4533.01 4450.83 82.77 4.00 262.84 3165.89
   06:04:41.791.24-Mar-2020 4533.01 4450.80 82.77 4.00 263.04 3165.89
   06:04:41.991.24-Mar-2020 4533.01 4450.82 82.77 4.00 263.24 3165.89
   06:04:42.191.24-Mar-2020 4533.01 4450.78 82.77 4.00 263.44 3165.89
   06:04:42.391.24-Mar-2020 4533.01 4450.81 82.77 4.00 263.64 3165.89
   06:04:42.591.24-Mar-2020 4533.01 4450.79 82.77 4.00 263.84 3165.89
   06:04:42.791.24-Mar-2020 4533.01 4450.79 82.77 4.00 264.04 3165.89
   06:04:42.991.24-Mar-2020 4533.01 4450.72 82.77 4.00 264.24 3165.89
   06:04:43.191.24-Mar-2020 4533.01 4450.86 82.77 4.00 264.44 3165.89
   06:04:43.391.24-Mar-2020 4533.01 4450.78 82.77 4.00 264.64 3165.89
   06:04:43.591.24-Mar-2020 4533.01 4450.82 82.77 4.00 264.84 3165.89
   06:04:43.791.24-Mar-2020 4533.01 4450.80 82.77 4.00 265.04 3165.89
   06:04:43.991.24-Mar-2020 4533.01 4450.80 82.77 4.00 265.24 3165.89
   06:04:44.191.24-Mar-2020 4533.01 4450.79 82.76 4.00 265.44 3165.89
   06:04:44.391.24-Mar-2020 4533.01 4450.80 82.76 4.00 265.64 3165.89
   06:04:44.591.24-Mar-2020 4533.01 4450.79 82.76 4.00 265.84 3165.89
   06:04:44.792.24-Mar-2020 4533.01 4450.79 82.76 4.00 266.04 3165.89
   06:04:44.992.24-Mar-2020 4533.01 4450.79 82.76 4.00 266.24 3165.89
   06:04:45.192.24-Mar-2020 4533.01 4450.80 82.76 4.00 266.44 3165.89
   06:04:45.392.24-Mar-2020 4533.01 4450.79 82.76 4.00 266.64 3165.89
   06:04:45.592.24-Mar-2020 4533.01 4450.79 82.76 4.00 266.84 3165.89
   06:04:45.792.24-Mar-2020 4533.01 4450.73 82.76 4.00 267.04 3165.89
   06:04:45.992.24-Mar-2020 4533.01 4450.73 82.76 4.00 267.24 3165.89
   06:04:46.192.24-Mar-2020 4533.01 4450.82 82.76 4.00 267.44 3165.89
   06:04:46.392.24-Mar-2020 4533.01 4450.78 82.76 4.00 267.64 3165.89
   06:04:46.592.24-Mar-2020 4533.01 4450.75 82.76 4.00 267.84 3165.89
   06:04:46.792.24-Mar-2020 4533.01 4450.82 82.76 4.00 268.04 3165.89
   06:04:46.992.24-Mar-2020 4533.01 4450.82 82.76 4.00 268.24 3165.89
   06:04:47.192.24-Mar-2020 4533.01 4450.77 82.76 4.00 268.44 3165.89
   06:04:47.392.24-Mar-2020 4533.01 4450.78 82.76 4.00 268.64 3165.89
   06:04:47.592.24-Mar-2020 4533.01 4450.81 82.76 4.00 268.84 3165.89
   06:04:47.792.24-Mar-2020 4533.01 4450.78 82.75 4.00 269.04 3165.89
   06:04:47.992.24-Mar-2020 4533.01 4450.78 82.75 4.00 269.24 3165.89
   06:04:48.192.24-Mar-2020 4533.01 4450.79 82.75 4.00 269.44 3165.89
   06:04:48.392.24-Mar-2020 4533.01 4450.78 82.75 4.00 269.64 3165.89
   06:04:48.592.24-Mar-2020 4533.01 4450.81 82.75 4.00 269.84 3165.89
   06:04:48.792.24-Mar-2020 4533.01 4450.81 82.75 4.00 270.04 3165.89
   06:04:48.992.24-Mar-2020 4533.01 4450.81 82.75 4.00 270.24 3165.89
   06:04:49.192.24-Mar-2020 4533.01 4450.79 82.75 4.00 270.45 3165.89
   06:04:49.392.24-Mar-2020 4533.01 4450.80 82.75 4.00 270.65 3165.89
   06:04:49.592.24-Mar-2020 4533.01 4450.78 82.75 4.00 270.85 3165.89
   06:04:49.792.24-Mar-2020 4533.01 4450.80 82.75 4.00 271.05 3165.89
   06:04:49.992.24-Mar-2020 4533.01 4450.80 82.75 4.00 271.25 3165.89
   06:04:50.192.24-Mar-2020 4533.01 4450.73 82.75 4.00 271.45 3165.89
   06:04:50.392.24-Mar-2020 4533.01 4450.83 82.75 4.00 271.65 3165.89
   06:04:50.592.24-Mar-2020 4533.01 4450.81 82.75 4.00 271.85 3165.89
   06:04:50.793.24-Mar-2020 4533.01 4450.78 82.75 4.00 272.05 3165.89
   06:04:50.993.24-Mar-2020 4533.01 4450.78 82.75 4.00 272.25 3165.89
   06:04:51.193.24-Mar-2020 4533.01 4450.80 82.75 4.00 272.45 3165.89
   06:04:51.393.24-Mar-2020 4533.01 4450.77 82.74 4.00 272.65 3165.89
   06:04:51.593.24-Mar-2020 4533.01 4450.80 82.74 4.00 272.85 3165.89
   06:04:51.793.24-Mar-2020 4533.01 4450.77 82.74 4.00 273.05 3165.89
   06:04:51.993.24-Mar-2020 4533.01 4450.77 82.74 4.00 273.25 3165.89
   06:04:52.193.24-Mar-2020 4533.01 4450.76 82.74 4.00 273.45 3165.89
   06:04:52.393.24-Mar-2020 4533.01 4450.80 82.74 4.00 273.65 3165.89
   06:04:52.593.24-Mar-2020 4533.01 4450.75 82.74 4.00 273.85 3165.89
   06:04:52.793.24-Mar-2020 4533.01 4450.78 82.74 4.00 274.05 3165.89
   06:04:52.993.24-Mar-2020 4533.01 4450.78 82.74 4.00 274.25 3165.89
   06:04:53.193.24-Mar-2020 4533.01 4450.78 82.74 4.00 274.45 3165.89
   06:04:53.393.24-Mar-2020 4533.01 4450.79 82.74 4.00 274.65 3165.89
   06:04:53.593.24-Mar-2020 4533.01 4450.77 82.74 4.00 274.85 3165.89
   06:04:53.793.24-Mar-2020 4533.01 4450.77 82.74 4.00 275.05 3165.89
   06:04:53.993.24-Mar-2020 4533.01 4450.77 82.74 4.00 275.25 3165.89
   06:04:54.193.24-Mar-2020 4533.01 4450.80 82.74 4.00 275.45 3165.89
   06:04:54.393.24-Mar-2020 4533.01 4450.79 82.74 4.00 275.65 3165.89
   06:04:54.593.24-Mar-2020 4533.01 4450.71 82.74 4.00 275.85 3165.89
