~Version Information
 VERS.                  2.0:   CWLS log ASCII Standard -VERSION 2.0
 WRAP.                   NO:   One line per depth step
~Well Information Block
#MNEM.UNIT     VALUE/NAME     DESCRIPTION
#---------     -----------    ---------------------------
 STRT.S             22:02:54 23-Mar-20: START TIME 22:02:54 23-Mar-20
 STOP.S             22:09:24 23-Mar-20: STOP TIME  22:09:24 23-Mar-20
 STEP.S                   0.00: STEP TIME
 NULL.                 -999.25: NULL VALUE
 DFWT.                        :  DIST FWL TEXT
 DFST.                        :  DIST FSL TEXT
 DMF .             Drill Floor:  DRILL MEAS FROM
 STIM.      22.30.00 15-Feb-20:  START TIME
 DATE.      17.00.00 25-Mar-20:  END TIME
 SPUD.               15-Feb-20:  SPUD DATE
 NREF.                    Grid:  NORTH REFERENCE
 HPTY.       Minimum Curvature:  HOLE POS TYPE
 DMOD.             Drill Model:  DRILL MOD DESC
 SVYD.                  Survey:  SURVEY DESC
 ILTD.               Lithology:  INTERP LTH DESC
 FTOP.          Formation Tops:  FORM TOPS DESC
 SON .        AZ-XX-0906019077:  JOB NUMBER
 PDAT.          Mean Sea Level:  PERMANENT DATUM
 WTYP.                Deviated:  WELL TYPE
 MDS .        Operator Entered:  MAG DATA SOURCE
 COMP.     BP Exploration (Caspian sea) Ltd.:  COMPANY
 UWI .                     N/A:  UNIQUE WELL IDENTIFIER
 API .                     N/A:  API NUMBER
 BASE.              Azerbaijan:  LOGGING EQUIPMENT BASE LOCATION
 REGN.                   EESSA:  REGION
 PROV.                     N/A:  PROVINCE
 STAT.                     N/A:  STATE NAME
 CTRY.              Azerbaijan:  COUNTRY NAME
 FLD .                     ACG:  FIELD NAME
 SRVC.          Turan Drilling:  CONTRACTOR
 MWDS.                    Baku:  MWD SHOP
 WELL.                    E16W:  WELL NAME
 JOBN.        AZ-XX-0906019077:  JOB TICKET NUMB
 RIG .                     DWG:  RIG NAME
 CNTY.                     N/A:  COUNTY NAME
 DCON.         Sperry Drilling:  DIRECTNL CONTR
 UNIT.                     N/A:  LOGGING EQUIPMENT ID
 LOC .                        :  LOCATION
 LMF .             Drill Floor:  LOG MEASURED FROM
 TVDS.m                  43.16:  TVDSS CORRECTN
 LATI.deg                40.17:  LATITUDE
 LONG.deg                51.17:  LONGITUDE
 WHNS.m                 -15.30:  WELL HEAD N/S
 WHEW.m                  -1.29:  WELL HEAD E/W
 UTMX.m              514337.95:  UTM X
 UTMY.m             4448627.46:  UTM Y
 DFWL.m                   0.00:  DISTANCE FWL
 DFSL.m                   0.00:  DISTANCE FSL
 SDEP.m                3499.01:  START DEPTH
 TDD .m                4606.01:  TOTAL DEPTH (DRILLER)
 VSDR.deg               151.14:  VERT SEC DIRECT
 GVFD.g                   1.00:  GRAVITY FIELD
 MFLD.nT              50334.00:  MAGNETIC FIELD
 MDIP.deg                59.62:  MAGNETIC DIP
 MDEC.deg                 6.46:  MAGNETIC DECL
 GRDC.deg                 0.12:  GRID CORRECTION
 AZTC.deg                 6.34:  AZM TOTAL CORR
 EPD .m                   0.00:  ELEVATION
 EGL .m                   0.00:  GROUND ELEVATION
 WDMS.m                 176.20:  WD ELEV
 APD .m                  43.16:  DEPTH ABOVE PD
 VSEW.m                  -1.29:  VERT SEC E/W
 VSNS.m                 -15.30:  VERT SEC N/S
 AGAP.m                  43.16:  AIR GAP
 EKB .m                   0.00:  KB ELEVATION
 EDF .m                  43.16:  DF ELEVATION
 TDL .m                 103.00:  TOTAL DEPTH (LOGGER)
 VSC .                       0:  VS TO CLOSURE
 MAGU.                 1852525:  MAGUTM CHECKSUM
~Parameter Information Block
#MNEM.UNIT       Value        Description
#---------     -----------    ---------------------------
 AV  .mps                 1.01:  Ann Velocity 
 AVMX.mps                 1.32:  Max Ann Veloc 
 AZIF.deg               140.63:  Azm, Final 
 BHAT.        Rotary Steerable:  BHA Type 
 BREV.rev            151000.00:  Rev Bit Total 
 BROT.°/30m               0.65:  Build Rotating 
 BS  .in                  6.50:  Bit Size 
 BSZ .in                  6.50:  Bit Size 
 BTPL.psig              222.00:  Bit Press Loss 
 CABU.                      No:  Customer Abuse 
 CGEO.           Emin Aliyarov:  Customer Geo 
 COMM.                     L5S:  Run Comments 1 
 TCS .hr                 22.89:  Time Ciculation Ended 
 CV  .mps                 2.20:  Crit Velocity 
 CVMX.mps                 3.04:  Max Crit Veloc 
 DD1 .         Intigam Rahimov:  Direct Drillr 1 
 DDSV.               Geo-Pilot:  DD Service 
 DEFF.%                  91.50:  % Det Eff 
 DLRX.°/30m               1.15:  Dogleg Rot Max 
 DLSO.°/30m               0.86:  Dogleg Oriented 
 DLSX.°/30m               1.15:  Dogleg Str Max 
 DRET.      13.10.00 24-Mar-20:  Drill End Time 
 DRST.      17.00.00 23-Mar-20:  Drill Start Tim 
 DTIM.hr                 11.87:  Time Drilling 
 EDEP.m                4606.01:  End Depth 
 ENG1.          Rasim Hashimov:  Engineer 1 
 ENG2.            Alan Tuganov:  Engineer 2 
 ENG3.         Yevgeniy Ulikov:  Engineer 3 
 ETIM.      16.00.00 25-Mar-20:  End Time 
 FLOI.gpm               400.00:  Flow In 
 FLON.gpm               350.00:  Flow In Min 
 FLOS.cptm                0.00:  Fluid Loss 
 FLOX.gpm               400.00:  Flow In Max 
 FTRO.       Formation Presure:  FTWD Run Obj 
 HFLO.                      No:  High Flow 
 HPRE.                      No:  High Pressure 
 HTEM.                      No:  High Temp 
 HYDO.m                   1.80:  Hydro Offset 
 IFIN.deg                79.55:  Inc, Final 
 IMAX.deg                79.55:  Inc Max 
 IMIN.deg                78.04:  Inc Min 
 IMND.m                4502.50:  Inc Min Depth 
 IMXD.m                4587.87:  Inc Max Depth 
 JARR.                      No:  Jarring 
 LETM.      13.10.00 24-Mar-20:  Log End Time 
 LOST.hr                     0:  Lost Rig Time 
 LSTM.      17.00.00 23-Mar-20:  Log Start Time 
 MDCL.ppm             39000.00:  Mud Chlorides 
 MDES.     Inversion Oil/Synthetic:  Mud Desc 
 DFD .sg                  1.40:  Mud Density 
 MDMN.sg                  1.40:  Dens Mud Min 
 MDMX.sg                  1.40:  Dens Mud Max 
 MOIL.                    55.2:  Run Mud Oil % 
 MOWR.                   68:32:  Run Mud OWR 
 MSND.                     0.1:  Run Mud Sand % 
 MSOL.                    17.8:  Run Mud Solids% 
 DFV .spqt               76.00:  Mud Viscosity 
 MWOD.in                  4.75:  MWD Tool OD 
 MWSI.                      No:  Serv Intrp, MWD 
 OTIM.hr                 64.35:  Time Operating 
 PCON.           Look Like New:  Pad Condition 
 PMAX.psia             5350.00:  Press Op, Max 
 PV  .cP                 26.00:  Mud PV 
 RUN .                     900:  Run Number 
 ROPA.m/hr                9.00:  ROP Avg 
 ROPN.m/hr                7.00:  ROP Min 
 ROPX.m/hr               13.00:  ROP Max 
 RPMA.rpm               140.00:  RPM Surface Avg 
 RPMN.rpm               140.00:  RPM Surface Min 
 RPMX.rpm               140.00:  RPM Surface Max 
 RRUN.                    L204:  Rig Run Number 
 RTIM.hr                  4.50:  Time Reaming 
 SAZI.deg               141.40:  Azm, Start 
 SDEP.m                4503.01:  Start Depth 
 SIDD.                      No:  Serv Intrp, DD 
 SINC.deg                78.04:  Inc, Start 
 SPPA.psig             5300.00:  SPP Avg 
 SPPN.psig             5100.00:  SPP Min 
 SPPX.psig             5500.00:  SPP Max 
 STIM.      18.00.00 22-Mar-20:  Start Time 
 SVCS.                 DD, MWD:  Services 
 SVER.                    9.20:  Sperry Version 
 TDAT.m                 103.00:  Tot Depth Attmp 
 TDDF.                      No:  Trip for DD 
 TDLG.m                 103.00:  Tot Depth Loggd 
 TFF .                      No:  Trip for Fail 
 TQAA.f-kp               14.00:  Torque Abs Avg 
 TQAN.f-kp               12.00:  Torque Abs Min 
 TQAX.f-kp               16.00:  Torque Abs Max 
 TRRT.°/30m               0.45:  Turn Rotating 
 MRT .                    HCIM:  Maximum Recorded Temperature 
 TTMX.degC               90.20:  Max Tool Temp 
 VS01.         90577859G12V7D4:  Virtual Str1 SN 
 VS02.            90519330D5C4:  Virtual Str2 SN 
 VS03.             90603450F11:  Virtual Str3 SN 
 VS04.           90515383R12C4:  Virtual Str4 SN 
 VS05.          90522017N2L2C4:  Virtual Str5 SN 
 VS06.            90512682Z1W1:  Virtual Str6 SN 
 WBMN.klb                 5.00:  WOB Min 
 WITN.        Elmaddin Rahimov:  Customer Rep 
 WITN.           Adil Mammadov:  Customer Rep 2 
 WOBA.klb                 8.00:  WOB Avg 
 WOBX.klb                13.00:  WOB Max 
 YP  .lhf2               31.00:  Yield Point 
~Curve Information Block
#MNEM.UNIT                 API CODE     Curve Description
#---------               -----------    ---------------------------
 TIME.HHMMSS            00 000 000 000:  GT Time & Date
 GTDEPTH.m              00 000 000 000:  GT Depth
 GTPQH.psia             00 000 000 000:  GT HR Quartz Pressure
 GTTQ.degC              00 000 000 000:  GT Quartz Temperature
 GTTN.NONE              00 000 000 000:  GT Test Number
 GTET.sec               00 000 000 000:  GT Elapsed Test Time
 GTTVD.m                00 000 000 000:  GT True Vertical Depth
#Other Information
#
#WARRANTY: Halliburton will use its best efforts to furnish customers with 
#accurate information and interpretations that are part of, and incident to, the services 
#provided.  However, Halliburton cannot and does not warrant the accuracy 
#or correctness of such information and interpretations.  Under no circumstances should any 
#such information or interpretation be relied upon as the sole basis for any drilling, 
#completion, production, or financial decision or any procedure involving any risk to the 
#safety of any drilling venture, drilling rig or its crew or any other third party.  The 
#Customer has full responsibility for all drilling, completion and production operation.  
#Halliburton makes no representations or warranties, either expressed or 
#implied, including, but not limited to, the implied warranties of merchantability or fitness 
#for a particular purpose, with respect to the services rendered.  In no event will 
#Halliburton be liable for failure to obtain any particular results or for 
#any damages, including, but not limited to, indirect, special or consequential damages, 
#resulting from the use of any information or interpretation provided by Halliburton.
#
~A           TIME           GTDEPTH  GTPQH  GTTQ  GTTN  GTET   GTTVD  
# ...
   22:03:17.904.23-Mar-2020 4483.01 8080.78 77.24 1.00  23.00 3155.68
   22:03:18.104.23-Mar-2020 4483.01 8080.78 77.24 1.00  23.20 3155.68
   22:03:18.304.23-Mar-2020 4483.01 8123.43 77.24 1.00  23.40 3155.68
   22:03:18.504.23-Mar-2020 4483.01 8167.37 77.24 1.00  23.60 3155.68
   22:03:18.704.23-Mar-2020 4483.01 8193.72 77.24 1.00  23.80 3155.68
   22:03:18.904.23-Mar-2020 4483.01 8210.51 77.24 1.00  24.00 3155.68
   22:03:19.104.23-Mar-2020 4483.01 8210.51 77.24 1.00  24.20 3155.68
   22:03:19.304.23-Mar-2020 4483.01 8233.39 77.24 1.00  24.40 3155.68
   22:03:19.504.23-Mar-2020 4483.01 8242.11 77.24 1.00  24.60 3155.68
   22:03:19.705.23-Mar-2020 4483.01 8249.83 77.24 1.00  24.80 3155.68
   22:03:19.905.23-Mar-2020 4483.01 8255.15 77.24 1.00  25.00 3155.68
   22:03:20.105.23-Mar-2020 4483.01 8255.15 77.24 1.00  25.20 3155.68
   22:03:20.305.23-Mar-2020 4483.01 8264.90 77.24 1.00  25.40 3155.68
   22:03:20.505.23-Mar-2020 4483.01 8269.55 77.23 1.00  25.60 3155.68
   22:03:20.705.23-Mar-2020 4483.01 8270.90 77.23 1.00  25.80 3155.68
   22:03:20.905.23-Mar-2020 4483.01 8274.82 77.23 1.00  26.00 3155.68
   22:03:21.105.23-Mar-2020 4483.01 8278.79 77.23 1.00  26.20 3155.68
   22:03:21.305.23-Mar-2020 4483.01 8279.58 77.23 1.00  26.40 3155.68
   22:03:21.505.23-Mar-2020 4483.01 7966.98 77.23 1.00  26.60 3155.68
   22:03:21.705.23-Mar-2020 4483.01 7046.12 77.23 1.00  26.80 3155.68
   22:03:21.905.23-Mar-2020 4483.01 6802.63 77.23 1.00  27.00 3155.68
   22:03:22.105.23-Mar-2020 4483.01 6802.63 77.23 1.00  27.20 3155.68
   22:03:22.305.23-Mar-2020 4483.01 6131.68 77.23 1.00  27.40 3155.68
   22:03:22.505.23-Mar-2020 4483.01 5405.37 77.23 1.00  27.60 3155.68
   22:03:22.705.23-Mar-2020 4483.01 4653.40 77.23 1.00  27.80 3155.68
   22:03:22.905.23-Mar-2020 4483.01 4513.69 77.23 1.00  28.00 3155.68
   22:03:23.105.23-Mar-2020 4483.01 4513.69 77.23 1.00  28.20 3155.68
   22:03:23.305.23-Mar-2020 4483.01 4515.54 77.22 1.00  28.40 3155.68
   22:03:23.505.23-Mar-2020 4483.01 4515.40 77.22 1.00  28.60 3155.68
   22:03:23.705.23-Mar-2020 4483.01 4515.08 77.22 1.00  28.80 3155.68
   22:03:23.905.23-Mar-2020 4483.01 4515.26 77.22 1.00  29.01 3155.68
   22:03:24.105.23-Mar-2020 4483.01 4515.26 77.22 1.00  29.21 3155.68
   22:03:24.305.23-Mar-2020 4483.01 4519.59 77.22 1.00  29.41 3155.68
   22:03:24.505.23-Mar-2020 4483.01 4519.68 77.22 1.00  29.61 3155.68
   22:03:24.705.23-Mar-2020 4483.01 4519.27 77.22 1.00  29.81 3155.68
   22:03:24.905.23-Mar-2020 4483.01 4518.75 77.21 1.00  30.01 3155.68
   22:03:25.105.23-Mar-2020 4483.01 4518.75 77.21 1.00  30.21 3155.68
   22:03:25.305.23-Mar-2020 4483.01 4518.96 77.21 1.00  30.41 3155.68
   22:03:25.506.23-Mar-2020 4483.01 4518.55 77.21 1.00  30.61 3155.68
   22:03:25.706.23-Mar-2020 4483.01 4517.98 77.21 1.00  30.81 3155.68
   22:03:25.906.23-Mar-2020 4483.01 4517.62 77.21 1.00  31.01 3155.68
   22:03:26.106.23-Mar-2020 4483.01 4517.62 77.21 1.00  31.21 3155.68
   22:03:26.306.23-Mar-2020 4483.01 4517.28 77.20 1.00  31.41 3155.68
   22:03:26.506.23-Mar-2020 4483.01 4517.08 77.20 1.00  31.61 3155.68
   22:03:26.706.23-Mar-2020 4483.01 4517.13 77.20 1.00  31.81 3155.68
   22:03:26.906.23-Mar-2020 4483.01 4516.98 77.20 1.00  32.01 3155.68
   22:03:27.106.23-Mar-2020 4483.01 4516.98 77.20 1.00  32.21 3155.68
   22:03:27.306.23-Mar-2020 4483.01 4517.05 77.20 1.00  32.41 3155.68
   22:03:27.506.23-Mar-2020 4483.01 4517.19 77.19 1.00  32.61 3155.68
   22:03:27.706.23-Mar-2020 4483.01 4517.35 77.19 1.00  32.81 3155.68
   22:03:27.906.23-Mar-2020 4483.01 4517.68 77.19 1.00  33.01 3155.68
   22:03:28.106.23-Mar-2020 4483.01 4517.68 77.19 1.00  33.21 3155.68
   22:03:28.306.23-Mar-2020 4483.01 4517.56 77.19 1.00  33.41 3155.68
   22:03:28.506.23-Mar-2020 4483.01 4517.35 77.19 1.00  33.61 3155.68
   22:03:28.706.23-Mar-2020 4483.01 4517.16 77.19 1.00  33.81 3155.68
   22:03:28.906.23-Mar-2020 4483.01 4517.09 77.18 1.00  34.01 3155.68
   22:03:29.106.23-Mar-2020 4483.01 4517.09 77.18 1.00  34.21 3155.68
   22:03:29.306.23-Mar-2020 4483.01 4517.14 77.18 1.00  34.41 3155.68
   22:03:29.506.23-Mar-2020 4483.01 4517.18 77.18 1.00  34.61 3155.68
   22:03:29.706.23-Mar-2020 4483.01 4517.01 77.18 1.00  34.81 3155.68
   22:03:29.906.23-Mar-2020 4483.01 4516.83 77.18 1.00  35.01 3155.68
   22:03:30.106.23-Mar-2020 4483.01 4516.83 77.18 1.00  35.21 3155.68
   22:03:30.306.23-Mar-2020 4483.01 4517.05 77.17 1.00  35.41 3155.68
   22:03:30.506.23-Mar-2020 4483.01 4517.13 77.17 1.00  35.61 3155.68
   22:03:30.706.23-Mar-2020 4483.01 4516.94 77.17 1.00  35.81 3155.68
   22:03:30.906.23-Mar-2020 4483.01 4517.25 77.17 1.00  36.01 3155.68
   22:03:31.106.23-Mar-2020 4483.01 4517.25 77.17 1.00  36.21 3155.68
   22:03:31.307.23-Mar-2020 4483.01 4517.19 77.17 1.00  36.41 3155.68
   22:03:31.507.23-Mar-2020 4483.01 4520.09 77.16 1.00  36.61 3155.68
   22:03:31.707.23-Mar-2020 4483.01 4531.70 77.16 1.00  36.81 3155.68
   22:03:31.907.23-Mar-2020 4483.01 4531.83 77.16 1.00  37.01 3155.68
   22:03:32.107.23-Mar-2020 4483.01 4531.83 77.16 1.00  37.21 3155.68
   22:03:32.307.23-Mar-2020 4483.01 4531.89 77.16 1.00  37.41 3155.68
   22:03:32.507.23-Mar-2020 4483.01 4531.91 77.16 1.00  37.61 3155.68
   22:03:32.707.23-Mar-2020 4483.01 4531.93 77.15 1.00  37.81 3155.68
   22:03:32.907.23-Mar-2020 4483.01 4531.95 77.15 1.00  38.01 3155.68
   22:03:33.107.23-Mar-2020 4483.01 4531.95 77.15 1.00  38.21 3155.68
   22:03:33.307.23-Mar-2020 4483.01 4531.96 77.15 1.00  38.41 3155.68
   22:03:33.507.23-Mar-2020 4483.01 4531.95 77.15 1.00  38.61 3155.68
   22:03:33.707.23-Mar-2020 4483.01 4531.96 77.15 1.00  38.81 3155.68
   22:03:33.907.23-Mar-2020 4483.01 4532.00 77.15 1.00  39.01 3155.68
   22:03:34.107.23-Mar-2020 4483.01 4532.00 77.15 1.00  39.21 3155.68
   22:03:34.307.23-Mar-2020 4483.01 4532.01 77.14 1.00  39.41 3155.68
   22:03:34.507.23-Mar-2020 4483.01 4532.00 77.14 1.00  39.61 3155.68
   22:03:34.707.23-Mar-2020 4483.01 4532.02 77.14 1.00  39.81 3155.68
   22:03:34.907.23-Mar-2020 4483.01 4532.01 77.14 1.00  40.01 3155.68
   22:03:35.107.23-Mar-2020 4483.01 4532.01 77.14 1.00  40.21 3155.68
   22:03:35.307.23-Mar-2020 4483.01 4532.01 77.14 1.00  40.41 3155.68
   22:03:35.507.23-Mar-2020 4483.01 4532.02 77.14 1.00  40.61 3155.68
   22:03:35.707.23-Mar-2020 4483.01 4532.02 77.14 1.00  40.81 3155.68
   22:03:35.907.23-Mar-2020 4483.01 4532.04 77.13 1.00  41.01 3155.68
   22:03:36.107.23-Mar-2020 4483.01 4532.04 77.13 1.00  41.21 3155.68
   22:03:36.307.23-Mar-2020 4483.01 4532.04 77.13 1.00  41.41 3155.68
   22:03:36.507.23-Mar-2020 4483.01 4532.02 77.13 1.00  41.61 3155.68
   22:03:36.707.23-Mar-2020 4483.01 4532.05 77.13 1.00  41.81 3155.68
   22:03:36.907.23-Mar-2020 4483.01 4532.03 77.13 1.00  42.01 3155.68
   22:03:37.108.23-Mar-2020 4483.01 4532.03 77.13 1.00  42.21 3155.68
   22:03:37.308.23-Mar-2020 4483.01 4532.06 77.13 1.00  42.41 3155.68
   22:03:37.508.23-Mar-2020 4483.01 4532.06 77.12 1.00  42.61 3155.68
   22:03:37.708.23-Mar-2020 4483.01 4532.06 77.12 1.00  42.81 3155.68
   22:03:37.908.23-Mar-2020 4483.01 4532.05 77.12 1.00  43.01 3155.68
   22:03:38.108.23-Mar-2020 4483.01 4532.05 77.12 1.00  43.21 3155.68
   22:03:38.308.23-Mar-2020 4483.01 4532.02 77.12 1.00  43.41 3155.68
   22:03:38.508.23-Mar-2020 4483.01 4532.10 77.12 1.00  43.61 3155.68
   22:03:38.708.23-Mar-2020 4483.01 4532.10 77.12 1.00  43.81 3155.68
   22:03:38.908.23-Mar-2020 4483.01 4532.03 77.12 1.00  44.01 3155.68
   22:03:39.108.23-Mar-2020 4483.01 4532.03 77.12 1.00  44.21 3155.68
   22:03:39.308.23-Mar-2020 4483.01 4532.11 77.11 1.00  44.41 3155.68
   22:03:39.508.23-Mar-2020 4483.01 4532.07 77.11 1.00  44.61 3155.68
   22:03:39.708.23-Mar-2020 4483.01 4532.10 77.11 1.00  44.81 3155.68
   22:03:39.908.23-Mar-2020 4483.01 4532.10 77.11 1.00  45.01 3155.68
   22:03:40.108.23-Mar-2020 4483.01 4532.10 77.11 1.00  45.21 3155.68
   22:03:40.308.23-Mar-2020 4483.01 4532.10 77.11 1.00  45.41 3155.68
   22:03:40.508.23-Mar-2020 4483.01 4532.10 77.11 1.00  45.61 3155.68
   22:03:40.708.23-Mar-2020 4483.01 4532.09 77.11 1.00  45.81 3155.68
