~Version Information
 VERS.                  2.0:   CWLS log ASCII Standard -VERSION 2.0
 WRAP.                   NO:   One line per depth step
~Well Information Block
#MNEM.UNIT     VALUE/NAME     DESCRIPTION
#---------     -----------    ---------------------------
 STRT.S             10:10:38 24-Mar-20: START TIME 10:10:38 24-Mar-20
 STOP.S             10:17:07 24-Mar-20: STOP TIME  10:17:07 24-Mar-20
 STEP.S                   0.00: STEP TIME
 NULL.                 -999.25: NULL VALUE
 DFWT.                        :  DIST FWL TEXT
 DFST.                        :  DIST FSL TEXT
 DMF .             Drill Floor:  DRILL MEAS FROM
 STIM.      22.30.00 15-Feb-20:  START TIME
 DATE.      17.00.00 25-Mar-20:  END TIME
 SPUD.               15-Feb-20:  SPUD DATE
 NREF.                    Grid:  NORTH REFERENCE
 HPTY.       Minimum Curvature:  HOLE POS TYPE
 DMOD.             Drill Model:  DRILL MOD DESC
 SVYD.                  Survey:  SURVEY DESC
 ILTD.               Lithology:  INTERP LTH DESC
 FTOP.          Formation Tops:  FORM TOPS DESC
 SON .        AZ-XX-0906019077:  JOB NUMBER
 PDAT.          Mean Sea Level:  PERMANENT DATUM
 WTYP.                Deviated:  WELL TYPE
 MDS .        Operator Entered:  MAG DATA SOURCE
 COMP.     BP Exploration (Caspian sea) Ltd.:  COMPANY
 UWI .                     N/A:  UNIQUE WELL IDENTIFIER
 API .                     N/A:  API NUMBER
 BASE.              Azerbaijan:  LOGGING EQUIPMENT BASE LOCATION
 REGN.                   EESSA:  REGION
 PROV.                     N/A:  PROVINCE
 STAT.                     N/A:  STATE NAME
 CTRY.              Azerbaijan:  COUNTRY NAME
 FLD .                     ACG:  FIELD NAME
 SRVC.          Turan Drilling:  CONTRACTOR
 MWDS.                    Baku:  MWD SHOP
 WELL.                    E16W:  WELL NAME
 JOBN.        AZ-XX-0906019077:  JOB TICKET NUMB
 RIG .                     DWG:  RIG NAME
 CNTY.                     N/A:  COUNTY NAME
 DCON.         Sperry Drilling:  DIRECTNL CONTR
 UNIT.                     N/A:  LOGGING EQUIPMENT ID
 LOC .                        :  LOCATION
 LMF .             Drill Floor:  LOG MEASURED FROM
 TVDS.m                  43.16:  TVDSS CORRECTN
 LATI.deg                40.17:  LATITUDE
 LONG.deg                51.17:  LONGITUDE
 WHNS.m                 -15.30:  WELL HEAD N/S
 WHEW.m                  -1.29:  WELL HEAD E/W
 UTMX.m              514337.95:  UTM X
 UTMY.m             4448627.46:  UTM Y
 DFWL.m                   0.00:  DISTANCE FWL
 DFSL.m                   0.00:  DISTANCE FSL
 SDEP.m                3499.01:  START DEPTH
 TDD .m                4606.01:  TOTAL DEPTH (DRILLER)
 VSDR.deg               151.14:  VERT SEC DIRECT
 GVFD.g                   1.00:  GRAVITY FIELD
 MFLD.nT              50334.00:  MAGNETIC FIELD
 MDIP.deg                59.62:  MAGNETIC DIP
 MDEC.deg                 6.46:  MAGNETIC DECL
 GRDC.deg                 0.12:  GRID CORRECTION
 AZTC.deg                 6.34:  AZM TOTAL CORR
 EPD .m                   0.00:  ELEVATION
 EGL .m                   0.00:  GROUND ELEVATION
 WDMS.m                 176.20:  WD ELEV
 APD .m                  43.16:  DEPTH ABOVE PD
 VSEW.m                  -1.29:  VERT SEC E/W
 VSNS.m                 -15.30:  VERT SEC N/S
 AGAP.m                  43.16:  AIR GAP
 EKB .m                   0.00:  KB ELEVATION
 EDF .m                  43.16:  DF ELEVATION
 TDL .m                 103.00:  TOTAL DEPTH (LOGGER)
 VSC .                       0:  VS TO CLOSURE
 MAGU.                 1852525:  MAGUTM CHECKSUM
~Parameter Information Block
#MNEM.UNIT       Value        Description
#---------     -----------    ---------------------------
 AV  .mps                 1.01:  Ann Velocity 
 AVMX.mps                 1.32:  Max Ann Veloc 
 AZIF.deg               140.63:  Azm, Final 
 BHAT.        Rotary Steerable:  BHA Type 
 BREV.rev            151000.00:  Rev Bit Total 
 BROT.°/30m               0.65:  Build Rotating 
 BS  .in                  6.50:  Bit Size 
 BSZ .in                  6.50:  Bit Size 
 BTPL.psig              222.00:  Bit Press Loss 
 CABU.                      No:  Customer Abuse 
 CGEO.           Emin Aliyarov:  Customer Geo 
 COMM.                     ´â}:  Run Comments 1 
 TCS .hr                 22.89:  Time Ciculation Ended 
 CV  .mps                 2.20:  Crit Velocity 
 CVMX.mps                 3.04:  Max Crit Veloc 
 DD1 .         Intigam Rahimov:  Direct Drillr 1 
 DDSV.               Geo-Pilot:  DD Service 
 DEFF.%                  91.50:  % Det Eff 
 DLRX.°/30m               1.15:  Dogleg Rot Max 
 DLSO.°/30m               0.86:  Dogleg Oriented 
 DLSX.°/30m               1.15:  Dogleg Str Max 
 DRET.      13.10.00 24-Mar-20:  Drill End Time 
 DRST.      17.00.00 23-Mar-20:  Drill Start Tim 
 DTIM.hr                 11.87:  Time Drilling 
 EDEP.m                4606.01:  End Depth 
 ENG1.          Rasim Hashimov:  Engineer 1 
 ENG2.            Alan Tuganov:  Engineer 2 
 ENG3.         Yevgeniy Ulikov:  Engineer 3 
 ETIM.      16.00.00 25-Mar-20:  End Time 
 FLOI.gpm               400.00:  Flow In 
 FLON.gpm               350.00:  Flow In Min 
 FLOS.cptm                0.00:  Fluid Loss 
 FLOX.gpm               400.00:  Flow In Max 
 FTRO.       Formation Presure:  FTWD Run Obj 
 HFLO.                      No:  High Flow 
 HPRE.                      No:  High Pressure 
 HTEM.                      No:  High Temp 
 HYDO.m                   1.80:  Hydro Offset 
 IFIN.deg                79.55:  Inc, Final 
 IMAX.deg                79.55:  Inc Max 
 IMIN.deg                78.04:  Inc Min 
 IMND.m                4502.50:  Inc Min Depth 
 IMXD.m                4587.87:  Inc Max Depth 
 JARR.                      No:  Jarring 
 LETM.      13.10.00 24-Mar-20:  Log End Time 
 LOST.hr                     0:  Lost Rig Time 
 LSTM.      17.00.00 23-Mar-20:  Log Start Time 
 MDCL.ppm             39000.00:  Mud Chlorides 
 MDES.     Inversion Oil/Synthetic:  Mud Desc 
 DFD .sg                  1.40:  Mud Density 
 MDMN.sg                  1.40:  Dens Mud Min 
 MDMX.sg                  1.40:  Dens Mud Max 
 MOIL.                    55.2:  Run Mud Oil % 
 MOWR.                   68:32:  Run Mud OWR 
 MSND.                     0.1:  Run Mud Sand % 
 MSOL.                    17.8:  Run Mud Solids% 
 DFV .spqt               76.00:  Mud Viscosity 
 MWOD.in                  4.75:  MWD Tool OD 
 MWSI.                      No:  Serv Intrp, MWD 
 OTIM.hr                 64.35:  Time Operating 
 PCON.           Look Like New:  Pad Condition 
 PMAX.psia             5350.00:  Press Op, Max 
 PV  .cP                 26.00:  Mud PV 
 RUN .                     900:  Run Number 
 ROPA.m/hr                9.00:  ROP Avg 
 ROPN.m/hr                7.00:  ROP Min 
 ROPX.m/hr               13.00:  ROP Max 
 RPMA.rpm               140.00:  RPM Surface Avg 
 RPMN.rpm               140.00:  RPM Surface Min 
 RPMX.rpm               140.00:  RPM Surface Max 
 RRUN.                    L204:  Rig Run Number 
 RTIM.hr                  4.50:  Time Reaming 
 SAZI.deg               141.40:  Azm, Start 
 SDEP.m                4503.01:  Start Depth 
 SIDD.                      No:  Serv Intrp, DD 
 SINC.deg                78.04:  Inc, Start 
 SPPA.psig             5300.00:  SPP Avg 
 SPPN.psig             5100.00:  SPP Min 
 SPPX.psig             5500.00:  SPP Max 
 STIM.      18.00.00 22-Mar-20:  Start Time 
 SVCS.                 DD, MWD:  Services 
 SVER.                    9.20:  Sperry Version 
 TDAT.m                 103.00:  Tot Depth Attmp 
 TDDF.                      No:  Trip for DD 
 TDLG.m                 103.00:  Tot Depth Loggd 
 TFF .                      No:  Trip for Fail 
 TQAA.f-kp               14.00:  Torque Abs Avg 
 TQAN.f-kp               12.00:  Torque Abs Min 
 TQAX.f-kp               16.00:  Torque Abs Max 
 TRRT.°/30m               0.45:  Turn Rotating 
 MRT .                    HCIM:  Maximum Recorded Temperature 
 TTMX.degC               90.20:  Max Tool Temp 
 VS01.         90577859G12V7D4:  Virtual Str1 SN 
 VS02.            90519330D5C4:  Virtual Str2 SN 
 VS03.             90603450F11:  Virtual Str3 SN 
 VS04.           90515383R12C4:  Virtual Str4 SN 
 VS05.          90522017N2L2C4:  Virtual Str5 SN 
 VS06.            90512682Z1W1:  Virtual Str6 SN 
 WBMN.klb                 5.00:  WOB Min 
 WITN.        Elmaddin Rahimov:  Customer Rep 
 WITN.           Adil Mammadov:  Customer Rep 2 
 WOBA.klb                 8.00:  WOB Avg 
 WOBX.klb                13.00:  WOB Max 
 YP  .lhf2               31.00:  Yield Point 
~Curve Information Block
#MNEM.UNIT                 API CODE     Curve Description
#---------               -----------    ---------------------------
 TIME.HHMMSS            00 000 000 000:  GT Time & Date
 GTDEPTH.m              00 000 000 000:  GT Depth
 GTPQH.psia             00 000 000 000:  GT HR Quartz Pressure
 GTTQ.degC              00 000 000 000:  GT Quartz Temperature
 GTTN.NONE              00 000 000 000:  GT Test Number
 GTET.sec               00 000 000 000:  GT Elapsed Test Time
 GTTVD.m                00 000 000 000:  GT True Vertical Depth
#Other Information
#
#WARRANTY: Halliburton will use its best efforts to furnish customers with 
#accurate information and interpretations that are part of, and incident to, the services 
#provided.  However, Halliburton cannot and does not warrant the accuracy 
#or correctness of such information and interpretations.  Under no circumstances should any 
#such information or interpretation be relied upon as the sole basis for any drilling, 
#completion, production, or financial decision or any procedure involving any risk to the 
#safety of any drilling venture, drilling rig or its crew or any other third party.  The 
#Customer has full responsibility for all drilling, completion and production operation.  
#Halliburton makes no representations or warranties, either expressed or 
#implied, including, but not limited to, the implied warranties of merchantability or fitness 
#for a particular purpose, with respect to the services rendered.  In no event will 
#Halliburton be liable for failure to obtain any particular results or for 
#any damages, including, but not limited to, indirect, special or consequential damages, 
#resulting from the use of any information or interpretation provided by Halliburton.
#
~A           TIME           GTDEPTH  GTPQH  GTTQ  GTTN  GTET   GTTVD  
# ...
   10:14:28.491.24-Mar-2020 4562.51 4435.51 85.73 5.00 230.04 3171.78
   10:14:28.691.24-Mar-2020 4562.51 4435.51 85.73 5.00 230.24 3171.78
   10:14:28.891.24-Mar-2020 4562.51 4435.48 85.73 5.00 230.44 3171.78
   10:14:29.091.24-Mar-2020 4562.51 4435.46 85.73 5.00 230.64 3171.78
   10:14:29.291.24-Mar-2020 4562.51 4435.51 85.73 5.00 230.84 3171.78
   10:14:29.491.24-Mar-2020 4562.51 4435.49 85.73 5.00 231.04 3171.78
   10:14:29.691.24-Mar-2020 4562.51 4435.49 85.73 5.00 231.24 3171.78
   10:14:29.891.24-Mar-2020 4562.51 4435.48 85.73 5.00 231.44 3171.78
   10:14:30.091.24-Mar-2020 4562.51 4435.42 85.73 5.00 231.64 3171.78
   10:14:30.291.24-Mar-2020 4562.51 4435.55 85.73 5.00 231.84 3171.78
   10:14:30.491.24-Mar-2020 4562.51 4435.48 85.73 5.00 232.04 3171.78
   10:14:30.691.24-Mar-2020 4562.51 4435.48 85.73 5.00 232.24 3171.78
   10:14:30.891.24-Mar-2020 4562.51 4435.51 85.73 5.00 232.44 3171.78
   10:14:31.091.24-Mar-2020 4562.51 4435.47 85.73 5.00 232.64 3171.78
   10:14:31.291.24-Mar-2020 4562.51 4435.50 85.72 5.00 232.84 3171.78
   10:14:31.491.24-Mar-2020 4562.51 4435.45 85.72 5.00 233.04 3171.78
   10:14:31.691.24-Mar-2020 4562.51 4435.45 85.72 5.00 233.24 3171.78
   10:14:31.891.24-Mar-2020 4562.51 4435.42 85.72 5.00 233.44 3171.78
   10:14:32.091.24-Mar-2020 4562.51 4435.48 85.72 5.00 233.64 3171.78
   10:14:32.291.24-Mar-2020 4562.51 4435.47 85.72 5.00 233.84 3171.78
   10:14:32.491.24-Mar-2020 4562.51 4435.51 85.72 5.00 234.04 3171.78
   10:14:32.691.24-Mar-2020 4562.51 4435.51 85.72 5.00 234.24 3171.78
   10:14:32.891.24-Mar-2020 4562.51 4435.49 85.72 5.00 234.44 3171.78
   10:14:33.091.24-Mar-2020 4562.51 4435.48 85.72 5.00 234.64 3171.78
   10:14:33.291.24-Mar-2020 4562.51 4435.46 85.72 5.00 234.84 3171.78
   10:14:33.491.24-Mar-2020 4562.51 4435.48 85.72 5.00 235.04 3171.78
   10:14:33.692.24-Mar-2020 4562.51 4435.48 85.72 5.00 235.24 3171.78
   10:14:33.892.24-Mar-2020 4562.51 4435.48 85.72 5.00 235.44 3171.78
   10:14:34.092.24-Mar-2020 4562.51 4435.44 85.71 5.00 235.64 3171.78
   10:14:34.292.24-Mar-2020 4562.51 4435.48 85.71 5.00 235.84 3171.78
   10:14:34.492.24-Mar-2020 4562.51 4435.42 85.71 5.00 236.04 3171.78
   10:14:34.692.24-Mar-2020 4562.51 4435.42 85.71 5.00 236.24 3171.78
   10:14:34.892.24-Mar-2020 4562.51 4435.52 85.71 5.00 236.44 3171.78
   10:14:35.092.24-Mar-2020 4562.51 4435.47 85.71 5.00 236.64 3171.78
   10:14:35.292.24-Mar-2020 4562.51 4435.42 85.71 5.00 236.84 3171.78
   10:14:35.492.24-Mar-2020 4562.51 4435.51 85.71 5.00 237.04 3171.78
   10:14:35.692.24-Mar-2020 4562.51 4435.51 85.71 5.00 237.24 3171.78
   10:14:35.892.24-Mar-2020 4562.51 4435.52 85.71 5.00 237.44 3171.78
   10:14:36.092.24-Mar-2020 4562.51 4435.44 85.71 5.00 237.64 3171.78
   10:14:36.292.24-Mar-2020 4562.51 4435.51 85.71 5.00 237.84 3171.78
   10:14:36.492.24-Mar-2020 4562.51 4435.35 85.71 5.00 238.04 3171.78
   10:14:36.692.24-Mar-2020 4562.51 4435.35 85.71 5.00 238.24 3171.78
   10:14:36.892.24-Mar-2020 4562.51 4435.42 85.71 5.00 238.44 3171.78
   10:14:37.092.24-Mar-2020 4562.51 4435.52 85.70 5.00 238.64 3171.78
   10:14:37.292.24-Mar-2020 4562.51 4435.45 85.70 5.00 238.84 3171.78
   10:14:37.492.24-Mar-2020 4562.51 4435.49 85.70 5.00 239.04 3171.78
   10:14:37.692.24-Mar-2020 4562.51 4435.49 85.70 5.00 239.24 3171.78
   10:14:37.892.24-Mar-2020 4562.51 4423.04 85.70 5.00 239.44 3171.78
   10:14:38.092.24-Mar-2020 4562.51 4422.94 85.70 5.00 239.64 3171.78
   10:14:38.292.24-Mar-2020 4562.51 4422.72 85.70 5.00 239.84 3171.78
   10:14:38.492.24-Mar-2020 4562.51 4422.89 85.70 5.00 240.04 3171.78
   10:14:38.692.24-Mar-2020 4562.51 4422.89 85.70 5.00 240.24 3171.78
   10:14:38.892.24-Mar-2020 4562.51 4422.71 85.70 5.00 240.44 3171.78
   10:14:39.093.24-Mar-2020 4562.51 4422.59 85.70 5.00 240.64 3171.78
   10:14:39.293.24-Mar-2020 4562.51 4422.73 85.70 5.00 240.85 3171.78
   10:14:39.493.24-Mar-2020 4562.51 4422.20 85.70 5.00 241.05 3171.78
   10:14:39.693.24-Mar-2020 4562.51 4422.20 85.70 5.00 241.25 3171.78
   10:14:39.893.24-Mar-2020 4562.51 4422.25 85.69 5.00 241.45 3171.78
   10:14:40.093.24-Mar-2020 4562.51 4422.76 85.69 5.00 241.65 3171.78
   10:14:40.293.24-Mar-2020 4562.51 4422.25 85.69 5.00 241.85 3171.78
   10:14:40.493.24-Mar-2020 4562.51 4422.63 85.69 5.00 242.05 3171.78
   10:14:40.693.24-Mar-2020 4562.51 4422.63 85.69 5.00 242.25 3171.78
   10:14:40.893.24-Mar-2020 4562.51 4422.54 85.69 5.00 242.45 3171.78
   10:14:41.093.24-Mar-2020 4562.51 4422.27 85.69 5.00 242.65 3171.78
   10:14:41.293.24-Mar-2020 4562.51 4422.56 85.69 5.00 242.85 3171.78
   10:14:41.493.24-Mar-2020 4562.51 4422.24 85.69 5.00 243.05 3171.78
   10:14:41.693.24-Mar-2020 4562.51 4422.24 85.69 5.00 243.25 3171.78
   10:14:41.893.24-Mar-2020 4562.51 4422.15 85.69 5.00 243.45 3171.78
   10:14:42.093.24-Mar-2020 4562.51 4422.25 85.69 5.00 243.65 3171.78
   10:14:42.293.24-Mar-2020 4562.51 4422.24 85.69 5.00 243.85 3171.78
   10:14:42.493.24-Mar-2020 4562.51 4422.32 85.69 5.00 244.05 3171.78
   10:14:42.693.24-Mar-2020 4562.51 4422.32 85.69 5.00 244.25 3171.78
   10:14:42.893.24-Mar-2020 4562.51 4422.12 85.68 5.00 244.45 3171.78
   10:14:43.093.24-Mar-2020 4562.51 4422.68 85.68 5.00 244.65 3171.78
   10:14:43.293.24-Mar-2020 4562.51 4422.15 85.68 5.00 244.85 3171.78
   10:14:43.493.24-Mar-2020 4562.51 4422.42 85.68 5.00 245.05 3171.78
   10:14:43.693.24-Mar-2020 4562.51 4422.42 85.68 5.00 245.25 3171.78
   10:14:43.893.24-Mar-2020 4562.51 4422.35 85.68 5.00 245.45 3171.78
   10:14:44.093.24-Mar-2020 4562.51 4422.15 85.68 5.00 245.65 3171.78
   10:14:44.294.24-Mar-2020 4562.51 4422.28 85.68 5.00 245.85 3171.78
   10:14:44.494.24-Mar-2020 4562.51 4422.30 85.68 5.00 246.05 3171.78
   10:14:44.694.24-Mar-2020 4562.51 4422.30 85.68 5.00 246.25 3171.78
   10:14:44.894.24-Mar-2020 4562.51 4422.20 85.68 5.00 246.45 3171.78
   10:14:45.094.24-Mar-2020 4562.51 4422.10 85.68 5.00 246.65 3171.78
   10:14:45.294.24-Mar-2020 4562.51 4422.40 85.68 5.00 246.85 3171.78
   10:14:45.494.24-Mar-2020 4562.51 4422.14 85.68 5.00 247.05 3171.78
   10:14:45.694.24-Mar-2020 4562.51 4422.14 85.68 5.00 247.25 3171.78
   10:14:45.894.24-Mar-2020 4562.51 4422.35 85.67 5.00 247.45 3171.78
   10:14:46.094.24-Mar-2020 4562.51 4422.09 85.67 5.00 247.65 3171.78
   10:14:46.294.24-Mar-2020 4562.51 4422.29 85.67 5.00 247.85 3171.78
   10:14:46.494.24-Mar-2020 4562.51 4422.14 85.67 5.00 248.05 3171.78
   10:14:46.694.24-Mar-2020 4562.51 4422.14 85.67 5.00 248.25 3171.78
   10:14:46.894.24-Mar-2020 4562.51 4422.07 85.67 5.00 248.45 3171.78
   10:14:47.094.24-Mar-2020 4562.51 4422.29 85.67 5.00 248.65 3171.78
   10:14:47.294.24-Mar-2020 4562.51 4422.19 85.67 5.00 248.85 3171.78
   10:14:47.494.24-Mar-2020 4562.51 4422.39 85.67 5.00 249.05 3171.78
   10:14:47.694.24-Mar-2020 4562.51 4422.39 85.67 5.00 249.25 3171.78
   10:14:47.894.24-Mar-2020 4562.51 4426.68 85.67 5.00 249.45 3171.78
   10:14:48.094.24-Mar-2020 4562.51 4435.11 85.67 5.00 249.65 3171.78
   10:14:48.294.24-Mar-2020 4562.51 4435.24 85.67 5.00 249.85 3171.78
   10:14:48.494.24-Mar-2020 4562.51 4435.28 85.66 5.00 250.05 3171.78
   10:14:48.694.24-Mar-2020 4562.51 4435.28 85.66 5.00 250.25 3171.78
   10:14:48.894.24-Mar-2020 4562.51 4435.34 85.66 5.00 250.45 3171.78
   10:14:49.094.24-Mar-2020 4562.51 4435.33 85.66 5.00 250.65 3171.78
   10:14:49.294.24-Mar-2020 4562.51 4435.37 85.66 5.00 250.85 3171.78
   10:14:49.494.24-Mar-2020 4562.51 4435.33 85.66 5.00 251.05 3171.78
   10:14:49.695.24-Mar-2020 4562.51 4435.33 85.66 5.00 251.25 3171.78
   10:14:49.895.24-Mar-2020 4562.51 4435.45 85.66 5.00 251.45 3171.78
   10:14:50.095.24-Mar-2020 4562.51 4435.41 85.66 5.00 251.65 3171.78
   10:14:50.295.24-Mar-2020 4562.51 4435.30 85.66 5.00 251.85 3171.78
   10:14:50.495.24-Mar-2020 4562.51 4435.54 85.66 5.00 252.05 3171.78
   10:14:50.695.24-Mar-2020 4562.51 4435.54 85.66 5.00 252.25 3171.78
   10:14:50.895.24-Mar-2020 4562.51 4435.49 85.66 5.00 252.45 3171.78
   10:14:51.095.24-Mar-2020 4562.51 4435.39 85.66 5.00 252.65 3171.78
   10:14:51.295.24-Mar-2020 4562.51 4435.37 85.66 5.00 252.85 3171.78
