~Version Information
 VERS.                  2.0:   CWLS log ASCII Standard -VERSION 2.0
 WRAP.                   NO:   One line per depth step
~Well Information Block
#MNEM.UNIT     VALUE/NAME     DESCRIPTION
#---------     -----------    ---------------------------
 STRT.S             06:00:18 24-Mar-20: START TIME 06:00:18 24-Mar-20
 STOP.S             06:06:47 24-Mar-20: STOP TIME  06:06:47 24-Mar-20
 STEP.S                   0.00: STEP TIME
 NULL.                 -999.25: NULL VALUE
 DFWT.                        :  DIST FWL TEXT
 DFST.                        :  DIST FSL TEXT
 DMF .             Drill Floor:  DRILL MEAS FROM
 STIM.      22.30.00 15-Feb-20:  START TIME
 DATE.      17.00.00 25-Mar-20:  END TIME
 SPUD.               15-Feb-20:  SPUD DATE
 NREF.                    Grid:  NORTH REFERENCE
 HPTY.       Minimum Curvature:  HOLE POS TYPE
 DMOD.             Drill Model:  DRILL MOD DESC
 SVYD.                  Survey:  SURVEY DESC
 ILTD.               Lithology:  INTERP LTH DESC
 FTOP.          Formation Tops:  FORM TOPS DESC
 SON .        AZ-XX-0906019077:  JOB NUMBER
 PDAT.          Mean Sea Level:  PERMANENT DATUM
 WTYP.                Deviated:  WELL TYPE
 MDS .        Operator Entered:  MAG DATA SOURCE
 COMP.     BP Exploration (Caspian sea) Ltd.:  COMPANY
 UWI .                     N/A:  UNIQUE WELL IDENTIFIER
 API .                     N/A:  API NUMBER
 BASE.              Azerbaijan:  LOGGING EQUIPMENT BASE LOCATION
 REGN.                   EESSA:  REGION
 PROV.                     N/A:  PROVINCE
 STAT.                     N/A:  STATE NAME
 CTRY.              Azerbaijan:  COUNTRY NAME
 FLD .                     ACG:  FIELD NAME
 SRVC.          Turan Drilling:  CONTRACTOR
 MWDS.                    Baku:  MWD SHOP
 WELL.                    E16W:  WELL NAME
 JOBN.        AZ-XX-0906019077:  JOB TICKET NUMB
 RIG .                     DWG:  RIG NAME
 CNTY.                     N/A:  COUNTY NAME
 DCON.         Sperry Drilling:  DIRECTNL CONTR
 UNIT.                     N/A:  LOGGING EQUIPMENT ID
 LOC .                        :  LOCATION
 LMF .             Drill Floor:  LOG MEASURED FROM
 TVDS.m                  43.16:  TVDSS CORRECTN
 LATI.deg                40.17:  LATITUDE
 LONG.deg                51.17:  LONGITUDE
 WHNS.m                 -15.30:  WELL HEAD N/S
 WHEW.m                  -1.29:  WELL HEAD E/W
 UTMX.m              514337.95:  UTM X
 UTMY.m             4448627.46:  UTM Y
 DFWL.m                   0.00:  DISTANCE FWL
 DFSL.m                   0.00:  DISTANCE FSL
 SDEP.m                3499.01:  START DEPTH
 TDD .m                4606.01:  TOTAL DEPTH (DRILLER)
 VSDR.deg               151.14:  VERT SEC DIRECT
 GVFD.g                   1.00:  GRAVITY FIELD
 MFLD.nT              50334.00:  MAGNETIC FIELD
 MDIP.deg                59.62:  MAGNETIC DIP
 MDEC.deg                 6.46:  MAGNETIC DECL
 GRDC.deg                 0.12:  GRID CORRECTION
 AZTC.deg                 6.34:  AZM TOTAL CORR
 EPD .m                   0.00:  ELEVATION
 EGL .m                   0.00:  GROUND ELEVATION
 WDMS.m                 176.20:  WD ELEV
 APD .m                  43.16:  DEPTH ABOVE PD
 VSEW.m                  -1.29:  VERT SEC E/W
 VSNS.m                 -15.30:  VERT SEC N/S
 AGAP.m                  43.16:  AIR GAP
 EKB .m                   0.00:  KB ELEVATION
 EDF .m                  43.16:  DF ELEVATION
 TDL .m                 103.00:  TOTAL DEPTH (LOGGER)
 VSC .                       0:  VS TO CLOSURE
 MAGU.                 1852525:  MAGUTM CHECKSUM
~Parameter Information Block
#MNEM.UNIT       Value        Description
#---------     -----------    ---------------------------
 AV  .mps                 1.01:  Ann Velocity 
 AVMX.mps                 1.32:  Max Ann Veloc 
 AZIF.deg               140.63:  Azm, Final 
 BHAT.        Rotary Steerable:  BHA Type 
 BREV.rev            151000.00:  Rev Bit Total 
 BROT.°/30m               0.65:  Build Rotating 
 BS  .in                  6.50:  Bit Size 
 BSZ .in                  6.50:  Bit Size 
 BTPL.psig              222.00:  Bit Press Loss 
 CABU.                      No:  Customer Abuse 
 CGEO.           Emin Aliyarov:  Customer Geo 
 COMM.                     öU:  Run Comments 1 
 TCS .hr                 22.89:  Time Ciculation Ended 
 CV  .mps                 2.20:  Crit Velocity 
 CVMX.mps                 3.04:  Max Crit Veloc 
 DD1 .         Intigam Rahimov:  Direct Drillr 1 
 DDSV.               Geo-Pilot:  DD Service 
 DEFF.%                  91.50:  % Det Eff 
 DLRX.°/30m               1.15:  Dogleg Rot Max 
 DLSO.°/30m               0.86:  Dogleg Oriented 
 DLSX.°/30m               1.15:  Dogleg Str Max 
 DRET.      13.10.00 24-Mar-20:  Drill End Time 
 DRST.      17.00.00 23-Mar-20:  Drill Start Tim 
 DTIM.hr                 11.87:  Time Drilling 
 EDEP.m                4606.01:  End Depth 
 ENG1.          Rasim Hashimov:  Engineer 1 
 ENG2.            Alan Tuganov:  Engineer 2 
 ENG3.         Yevgeniy Ulikov:  Engineer 3 
 ETIM.      16.00.00 25-Mar-20:  End Time 
 FLOI.gpm               400.00:  Flow In 
 FLON.gpm               350.00:  Flow In Min 
 FLOS.cptm                0.00:  Fluid Loss 
 FLOX.gpm               400.00:  Flow In Max 
 FTRO.       Formation Presure:  FTWD Run Obj 
 HFLO.                      No:  High Flow 
 HPRE.                      No:  High Pressure 
 HTEM.                      No:  High Temp 
 HYDO.m                   1.80:  Hydro Offset 
 IFIN.deg                79.55:  Inc, Final 
 IMAX.deg                79.55:  Inc Max 
 IMIN.deg                78.04:  Inc Min 
 IMND.m                4502.50:  Inc Min Depth 
 IMXD.m                4587.87:  Inc Max Depth 
 JARR.                      No:  Jarring 
 LETM.      13.10.00 24-Mar-20:  Log End Time 
 LOST.hr                     0:  Lost Rig Time 
 LSTM.      17.00.00 23-Mar-20:  Log Start Time 
 MDCL.ppm             39000.00:  Mud Chlorides 
 MDES.     Inversion Oil/Synthetic:  Mud Desc 
 DFD .sg                  1.40:  Mud Density 
 MDMN.sg                  1.40:  Dens Mud Min 
 MDMX.sg                  1.40:  Dens Mud Max 
 MOIL.                    55.2:  Run Mud Oil % 
 MOWR.                   68:32:  Run Mud OWR 
 MSND.                     0.1:  Run Mud Sand % 
 MSOL.                    17.8:  Run Mud Solids% 
 DFV .spqt               76.00:  Mud Viscosity 
 MWOD.in                  4.75:  MWD Tool OD 
 MWSI.                      No:  Serv Intrp, MWD 
 OTIM.hr                 64.35:  Time Operating 
 PCON.           Look Like New:  Pad Condition 
 PMAX.psia             5350.00:  Press Op, Max 
 PV  .cP                 26.00:  Mud PV 
 RUN .                     900:  Run Number 
 ROPA.m/hr                9.00:  ROP Avg 
 ROPN.m/hr                7.00:  ROP Min 
 ROPX.m/hr               13.00:  ROP Max 
 RPMA.rpm               140.00:  RPM Surface Avg 
 RPMN.rpm               140.00:  RPM Surface Min 
 RPMX.rpm               140.00:  RPM Surface Max 
 RRUN.                    L204:  Rig Run Number 
 RTIM.hr                  4.50:  Time Reaming 
 SAZI.deg               141.40:  Azm, Start 
 SDEP.m                4503.01:  Start Depth 
 SIDD.                      No:  Serv Intrp, DD 
 SINC.deg                78.04:  Inc, Start 
 SPPA.psig             5300.00:  SPP Avg 
 SPPN.psig             5100.00:  SPP Min 
 SPPX.psig             5500.00:  SPP Max 
 STIM.      18.00.00 22-Mar-20:  Start Time 
 SVCS.                 DD, MWD:  Services 
 SVER.                    9.20:  Sperry Version 
 TDAT.m                 103.00:  Tot Depth Attmp 
 TDDF.                      No:  Trip for DD 
 TDLG.m                 103.00:  Tot Depth Loggd 
 TFF .                      No:  Trip for Fail 
 TQAA.f-kp               14.00:  Torque Abs Avg 
 TQAN.f-kp               12.00:  Torque Abs Min 
 TQAX.f-kp               16.00:  Torque Abs Max 
 TRRT.°/30m               0.45:  Turn Rotating 
 MRT .                    HCIM:  Maximum Recorded Temperature 
 TTMX.degC               90.20:  Max Tool Temp 
 VS01.         90577859G12V7D4:  Virtual Str1 SN 
 VS02.            90519330D5C4:  Virtual Str2 SN 
 VS03.             90603450F11:  Virtual Str3 SN 
 VS04.           90515383R12C4:  Virtual Str4 SN 
 VS05.          90522017N2L2C4:  Virtual Str5 SN 
 VS06.            90512682Z1W1:  Virtual Str6 SN 
 WBMN.klb                 5.00:  WOB Min 
 WITN.        Elmaddin Rahimov:  Customer Rep 
 WITN.           Adil Mammadov:  Customer Rep 2 
 WOBA.klb                 8.00:  WOB Avg 
 WOBX.klb                13.00:  WOB Max 
 YP  .lhf2               31.00:  Yield Point 
~Curve Information Block
#MNEM.UNIT                 API CODE     Curve Description
#---------               -----------    ---------------------------
 TIME.HHMMSS            00 000 000 000:  GT Time & Date
 GTDEPTH.m              00 000 000 000:  GT Depth
 GTPQH.psia             00 000 000 000:  GT HR Quartz Pressure
 GTTQ.degC              00 000 000 000:  GT Quartz Temperature
 GTTN.NONE              00 000 000 000:  GT Test Number
 GTET.sec               00 000 000 000:  GT Elapsed Test Time
 GTTVD.m                00 000 000 000:  GT True Vertical Depth
#Other Information
#
#WARRANTY: Halliburton will use its best efforts to furnish customers with 
#accurate information and interpretations that are part of, and incident to, the services 
#provided.  However, Halliburton cannot and does not warrant the accuracy 
#or correctness of such information and interpretations.  Under no circumstances should any 
#such information or interpretation be relied upon as the sole basis for any drilling, 
#completion, production, or financial decision or any procedure involving any risk to the 
#safety of any drilling venture, drilling rig or its crew or any other third party.  The 
#Customer has full responsibility for all drilling, completion and production operation.  
#Halliburton makes no representations or warranties, either expressed or 
#implied, including, but not limited to, the implied warranties of merchantability or fitness 
#for a particular purpose, with respect to the services rendered.  In no event will 
#Halliburton be liable for failure to obtain any particular results or for 
#any damages, including, but not limited to, indirect, special or consequential damages, 
#resulting from the use of any information or interpretation provided by Halliburton.
#
~A           TIME           GTDEPTH  GTPQH  GTTQ  GTTN  GTET   GTTVD  
# ...
   06:05:17.797.24-Mar-2020 4533.01 4450.78 82.67 4.00 299.05 3165.89
   06:05:17.997.24-Mar-2020 4533.01 4450.78 82.67 4.00 299.25 3165.89
   06:05:18.197.24-Mar-2020 4533.01 4450.76 82.67 4.00 299.45 3165.89
   06:05:18.397.24-Mar-2020 4533.01 4450.74 82.67 4.00 299.65 3165.89
   06:05:18.597.24-Mar-2020 4533.01 4450.75 82.67 4.00 299.85 3165.89
   06:05:18.797.24-Mar-2020 4533.01 4450.67 82.67 4.00 300.05 3165.89
   06:05:18.997.24-Mar-2020 4533.01 4450.67 82.67 4.00 300.25 3165.89
   06:05:19.197.24-Mar-2020 4533.01 4450.73 82.67 4.00 300.45 3165.89
   06:05:19.397.24-Mar-2020 4533.01 4450.76 82.67 4.00 300.65 3165.89
   06:05:19.597.24-Mar-2020 4533.01 4450.75 82.67 4.00 300.85 3165.89
   06:05:19.797.24-Mar-2020 4533.01 4450.74 82.67 4.00 301.05 3165.89
   06:05:19.997.24-Mar-2020 4533.01 4450.74 82.67 4.00 301.25 3165.89
   06:05:20.197.24-Mar-2020 4533.01 4450.73 82.66 4.00 301.45 3165.89
   06:05:20.397.24-Mar-2020 4533.01 4450.75 82.66 4.00 301.65 3165.89
   06:05:20.597.24-Mar-2020 4533.01 4450.73 82.66 4.00 301.85 3165.89
   06:05:20.798.24-Mar-2020 4533.01 4450.74 82.66 4.00 302.05 3165.89
   06:05:20.998.24-Mar-2020 4533.01 4450.73 82.66 4.00 302.25 3165.89
   06:05:21.198.24-Mar-2020 4533.01 4450.74 82.66 4.00 302.45 3165.89
   06:05:21.398.24-Mar-2020 4533.01 4450.73 82.66 4.00 302.65 3165.89
   06:05:21.598.24-Mar-2020 4533.01 4450.69 82.66 4.00 302.85 3165.89
   06:05:21.798.24-Mar-2020 4533.01 4450.77 82.66 4.00 303.05 3165.89
   06:05:21.998.24-Mar-2020 4533.01 4450.77 82.66 4.00 303.25 3165.89
   06:05:22.198.24-Mar-2020 4533.01 4450.72 82.66 4.00 303.45 3165.89
   06:05:22.398.24-Mar-2020 4533.01 4450.70 82.66 4.00 303.65 3165.89
   06:05:22.598.24-Mar-2020 4533.01 4450.75 82.66 4.00 303.85 3165.89
   06:05:22.798.24-Mar-2020 4533.01 4450.78 82.66 4.00 304.05 3165.89
   06:05:22.998.24-Mar-2020 4533.01 4450.78 82.66 4.00 304.25 3165.89
   06:05:23.198.24-Mar-2020 4533.01 4450.72 82.66 4.00 304.45 3165.89
   06:05:23.398.24-Mar-2020 4533.01 4450.76 82.66 4.00 304.65 3165.89
   06:05:23.598.24-Mar-2020 4533.01 4450.74 82.66 4.00 304.85 3165.89
   06:05:23.798.24-Mar-2020 4533.01 4450.76 82.65 4.00 305.05 3165.89
   06:05:23.998.24-Mar-2020 4533.01 4450.76 82.65 4.00 305.25 3165.89
   06:05:24.198.24-Mar-2020 4533.01 4450.73 82.65 4.00 305.45 3165.89
   06:05:24.398.24-Mar-2020 4533.01 4450.75 82.65 4.00 305.65 3165.89
   06:05:24.598.24-Mar-2020 4533.01 4450.75 82.65 4.00 305.85 3165.89
   06:05:24.798.24-Mar-2020 4533.01 4450.74 82.65 4.00 306.05 3165.89
   06:05:24.998.24-Mar-2020 4533.01 4450.74 82.65 4.00 306.25 3165.89
   06:05:25.198.24-Mar-2020 4533.01 4450.74 82.65 4.00 306.45 3165.89
   06:05:25.398.24-Mar-2020 4533.01 4450.74 82.65 4.00 306.65 3165.89
   06:05:25.598.24-Mar-2020 4533.01 4450.74 82.65 4.00 306.85 3165.89
   06:05:25.798.24-Mar-2020 4533.01 4450.73 82.65 4.00 307.05 3165.89
   06:05:25.998.24-Mar-2020 4533.01 4450.67 82.65 4.00 307.25 3165.89
   06:05:26.198.24-Mar-2020 4533.01 4450.79 82.65 4.00 307.45 3165.89
   06:05:26.398.24-Mar-2020 4533.01 4450.75 82.65 4.00 307.65 3165.89
   06:05:26.598.24-Mar-2020 4533.01 4450.75 82.65 4.00 307.85 3165.89
   06:05:26.799.24-Mar-2020 4533.01 4450.74 82.65 4.00 308.05 3165.89
   06:05:26.999.24-Mar-2020 4533.01 4450.74 82.65 4.00 308.25 3165.89
   06:05:27.199.24-Mar-2020 4533.01 4450.72 82.65 4.00 308.45 3165.89
   06:05:27.399.24-Mar-2020 4533.01 4450.75 82.64 4.00 308.65 3165.89
   06:05:27.599.24-Mar-2020 4533.01 4450.71 82.64 4.00 308.85 3165.89
   06:05:27.799.24-Mar-2020 4533.01 4450.74 82.64 4.00 309.05 3165.89
   06:05:27.999.24-Mar-2020 4533.01 4450.74 82.64 4.00 309.25 3165.89
   06:05:28.199.24-Mar-2020 4533.01 4450.74 82.64 4.00 309.45 3165.89
   06:05:28.399.24-Mar-2020 4533.01 4450.70 82.64 4.00 309.65 3165.89
   06:05:28.599.24-Mar-2020 4533.01 4450.72 82.64 4.00 309.85 3165.89
   06:05:28.799.24-Mar-2020 4533.01 4450.72 82.64 4.00 310.05 3165.89
   06:05:28.999.24-Mar-2020 4533.01 4450.72 82.64 4.00 310.25 3165.89
   06:05:29.199.24-Mar-2020 4533.01 4450.75 82.64 4.00 310.45 3165.89
   06:05:29.399.24-Mar-2020 4533.01 4450.71 82.64 4.00 310.65 3165.89
   06:05:29.599.24-Mar-2020 4533.01 4450.74 82.64 4.00 310.85 3165.89
   06:05:29.799.24-Mar-2020 4533.01 4450.73 82.64 4.00 311.05 3165.89
   06:05:29.999.24-Mar-2020 4533.01 4450.73 82.64 4.00 311.25 3165.89
   06:05:30.199.24-Mar-2020 4533.01 4450.73 82.64 4.00 311.45 3165.89
   06:05:30.399.24-Mar-2020 4533.01 4450.67 82.64 4.00 311.65 3165.89
   06:05:30.599.24-Mar-2020 4533.01 4450.79 82.64 4.00 311.85 3165.89
   06:05:30.799.24-Mar-2020 4533.01 4450.72 82.64 4.00 312.05 3165.89
   06:05:30.999.24-Mar-2020 4533.01 4450.72 82.64 4.00 312.25 3165.89
   06:05:31.199.24-Mar-2020 4533.01 4450.71 82.63 4.00 312.45 3165.89
   06:05:31.399.24-Mar-2020 4533.01 4450.74 82.63 4.00 312.65 3165.89
   06:05:31.599.24-Mar-2020 4533.01 4450.74 82.63 4.00 312.85 3165.89
   06:05:31.799.24-Mar-2020 4533.01 4450.75 82.63 4.00 313.05 3165.89
   06:05:31.999.24-Mar-2020 4533.01 4450.75 82.63 4.00 313.25 3165.89
   06:05:32.199.24-Mar-2020 4533.01 4450.73 82.63 4.00 313.45 3165.89
   06:05:32.399.24-Mar-2020 4533.01 4450.75 82.63 4.00 313.65 3165.89
   06:05:32.599.24-Mar-2020 4533.01 4450.71 82.63 4.00 313.85 3165.89
   06:05:32.800.24-Mar-2020 4533.01 4450.75 82.63 4.00 314.05 3165.89
   06:05:33.000.24-Mar-2020 4533.01 4450.75 82.63 4.00 314.25 3165.89
   06:05:33.200.24-Mar-2020 4533.01 4450.68 82.63 4.00 314.45 3165.89
   06:05:33.400.24-Mar-2020 4533.01 4450.75 82.63 4.00 314.65 3165.89
   06:05:33.600.24-Mar-2020 4533.01 4450.77 82.63 4.00 314.85 3165.89
   06:05:33.800.24-Mar-2020 4533.01 4450.71 82.63 4.00 315.05 3165.89
   06:05:34.000.24-Mar-2020 4533.01 4450.71 82.63 4.00 315.25 3165.89
   06:05:34.200.24-Mar-2020 4533.01 4450.71 82.63 4.00 315.45 3165.89
   06:05:34.400.24-Mar-2020 4533.01 4450.73 82.63 4.00 315.65 3165.89
   06:05:34.600.24-Mar-2020 4533.01 4450.71 82.63 4.00 315.85 3165.89
   06:05:34.800.24-Mar-2020 4533.01 4450.72 82.63 4.00 316.05 3165.89
   06:05:35.000.24-Mar-2020 4533.01 4450.72 82.63 4.00 316.25 3165.89
   06:05:35.200.24-Mar-2020 4533.01 4450.73 82.62 4.00 316.45 3165.89
   06:05:35.400.24-Mar-2020 4533.01 4450.72 82.62 4.00 316.65 3165.89
   06:05:35.600.24-Mar-2020 4533.01 4450.71 82.62 4.00 316.85 3165.89
   06:05:35.800.24-Mar-2020 4533.01 4450.69 82.62 4.00 317.05 3165.89
   06:05:36.000.24-Mar-2020 4533.01 4450.69 82.62 4.00 317.25 3165.89
   06:05:36.200.24-Mar-2020 4533.01 4450.72 82.62 4.00 317.45 3165.89
   06:05:36.400.24-Mar-2020 4533.01 4450.73 82.62 4.00 317.65 3165.89
   06:05:36.600.24-Mar-2020 4533.01 4450.70 82.62 4.00 317.85 3165.89
   06:05:36.800.24-Mar-2020 4533.01 4450.75 82.62 4.00 318.05 3165.89
   06:05:37.000.24-Mar-2020 4533.01 4450.75 82.62 4.00 318.25 3165.89
   06:05:37.200.24-Mar-2020 4533.01 4450.74 82.62 4.00 318.45 3165.89
   06:05:37.400.24-Mar-2020 4533.01 4450.74 82.62 4.00 318.65 3165.89
   06:05:37.600.24-Mar-2020 4533.01 4450.65 82.62 4.00 318.85 3165.89
   06:05:37.800.24-Mar-2020 4533.01 4450.79 82.62 4.00 319.05 3165.89
   06:05:38.000.24-Mar-2020 4533.01 4450.79 82.62 4.00 319.25 3165.89
   06:05:38.200.24-Mar-2020 4533.01 4450.75 82.62 4.00 319.45 3165.89
   06:05:38.400.24-Mar-2020 4533.01 4450.67 82.62 4.00 319.65 3165.89
   06:05:38.600.24-Mar-2020 4533.01 4450.80 82.61 4.00 319.85 3165.89
   06:05:38.801.24-Mar-2020 4533.01 4450.72 82.61 4.00 320.05 3165.89
   06:05:39.001.24-Mar-2020 4533.01 4450.72 82.61 4.00 320.25 3165.89
   06:05:39.201.24-Mar-2020 4533.01 4450.74 82.61 4.00 320.45 3165.89
   06:05:39.401.24-Mar-2020 4533.01 4450.72 82.61 4.00 320.65 3165.89
   06:05:39.601.24-Mar-2020 4533.01 4450.73 82.61 4.00 320.85 3165.89
   06:05:39.801.24-Mar-2020 4533.01 4450.72 82.61 4.00 321.05 3165.89
   06:05:40.001.24-Mar-2020 4533.01 4450.72 82.61 4.00 321.25 3165.89
   06:05:40.201.24-Mar-2020 4533.01 4450.70 82.61 4.00 321.45 3165.89
   06:05:40.401.24-Mar-2020 4533.01 4450.72 82.61 4.00 321.65 3165.89
   06:05:40.601.24-Mar-2020 4533.01 4450.71 82.61 4.00 321.85 3165.89
