~Version Information
 VERS.                  2.0:   CWLS log ASCII Standard -VERSION 2.0
 WRAP.                   NO:   One line per depth step
~Well Information Block
#MNEM.UNIT     VALUE/NAME     DESCRIPTION
#---------     -----------    ---------------------------
 STRT.S             03:38:19 24-Mar-20: START TIME 03:38:19 24-Mar-20
 STOP.S             03:44:48 24-Mar-20: STOP TIME  03:44:48 24-Mar-20
 STEP.S                   0.00: STEP TIME
 NULL.                 -999.25: NULL VALUE
 DFWT.                        :  DIST FWL TEXT
 DFST.                        :  DIST FSL TEXT
 DMF .             Drill Floor:  DRILL MEAS FROM
 STIM.      22.30.00 15-Feb-20:  START TIME
 DATE.      17.00.00 25-Mar-20:  END TIME
 SPUD.               15-Feb-20:  SPUD DATE
 NREF.                    Grid:  NORTH REFERENCE
 HPTY.       Minimum Curvature:  HOLE POS TYPE
 DMOD.             Drill Model:  DRILL MOD DESC
 SVYD.                  Survey:  SURVEY DESC
 ILTD.               Lithology:  INTERP LTH DESC
 FTOP.          Formation Tops:  FORM TOPS DESC
 SON .        AZ-XX-0906019077:  JOB NUMBER
 PDAT.          Mean Sea Level:  PERMANENT DATUM
 WTYP.                Deviated:  WELL TYPE
 MDS .        Operator Entered:  MAG DATA SOURCE
 COMP.     BP Exploration (Caspian sea) Ltd.:  COMPANY
 UWI .                     N/A:  UNIQUE WELL IDENTIFIER
 API .                     N/A:  API NUMBER
 BASE.              Azerbaijan:  LOGGING EQUIPMENT BASE LOCATION
 REGN.                   EESSA:  REGION
 PROV.                     N/A:  PROVINCE
 STAT.                     N/A:  STATE NAME
 CTRY.              Azerbaijan:  COUNTRY NAME
 FLD .                     ACG:  FIELD NAME
 SRVC.          Turan Drilling:  CONTRACTOR
 MWDS.                    Baku:  MWD SHOP
 WELL.                    E16W:  WELL NAME
 JOBN.        AZ-XX-0906019077:  JOB TICKET NUMB
 RIG .                     DWG:  RIG NAME
 CNTY.                     N/A:  COUNTY NAME
 DCON.         Sperry Drilling:  DIRECTNL CONTR
 UNIT.                     N/A:  LOGGING EQUIPMENT ID
 LOC .                        :  LOCATION
 LMF .             Drill Floor:  LOG MEASURED FROM
 TVDS.m                  43.16:  TVDSS CORRECTN
 LATI.deg                40.17:  LATITUDE
 LONG.deg                51.17:  LONGITUDE
 WHNS.m                 -15.30:  WELL HEAD N/S
 WHEW.m                  -1.29:  WELL HEAD E/W
 UTMX.m              514337.95:  UTM X
 UTMY.m             4448627.46:  UTM Y
 DFWL.m                   0.00:  DISTANCE FWL
 DFSL.m                   0.00:  DISTANCE FSL
 SDEP.m                3499.01:  START DEPTH
 TDD .m                4606.01:  TOTAL DEPTH (DRILLER)
 VSDR.deg               151.14:  VERT SEC DIRECT
 GVFD.g                   1.00:  GRAVITY FIELD
 MFLD.nT              50334.00:  MAGNETIC FIELD
 MDIP.deg                59.62:  MAGNETIC DIP
 MDEC.deg                 6.46:  MAGNETIC DECL
 GRDC.deg                 0.12:  GRID CORRECTION
 AZTC.deg                 6.34:  AZM TOTAL CORR
 EPD .m                   0.00:  ELEVATION
 EGL .m                   0.00:  GROUND ELEVATION
 WDMS.m                 176.20:  WD ELEV
 APD .m                  43.16:  DEPTH ABOVE PD
 VSEW.m                  -1.29:  VERT SEC E/W
 VSNS.m                 -15.30:  VERT SEC N/S
 AGAP.m                  43.16:  AIR GAP
 EKB .m                   0.00:  KB ELEVATION
 EDF .m                  43.16:  DF ELEVATION
 TDL .m                 103.00:  TOTAL DEPTH (LOGGER)
 VSC .                       0:  VS TO CLOSURE
 MAGU.                 1852525:  MAGUTM CHECKSUM
~Parameter Information Block
#MNEM.UNIT       Value        Description
#---------     -----------    ---------------------------
 AV  .mps                 1.01:  Ann Velocity 
 AVMX.mps                 1.32:  Max Ann Veloc 
 AZIF.deg               140.63:  Azm, Final 
 BHAT.        Rotary Steerable:  BHA Type 
 BREV.rev            151000.00:  Rev Bit Total 
 BROT.°/30m               0.65:  Build Rotating 
 BS  .in                  6.50:  Bit Size 
 BSZ .in                  6.50:  Bit Size 
 BTPL.psig              222.00:  Bit Press Loss 
 CABU.                      No:  Customer Abuse 
 CGEO.           Emin Aliyarov:  Customer Geo 
 COMM.                     \·`:  Run Comments 1 
 TCS .hr                 22.89:  Time Ciculation Ended 
 CV  .mps                 2.20:  Crit Velocity 
 CVMX.mps                 3.04:  Max Crit Veloc 
 DD1 .         Intigam Rahimov:  Direct Drillr 1 
 DDSV.               Geo-Pilot:  DD Service 
 DEFF.%                  91.50:  % Det Eff 
 DLRX.°/30m               1.15:  Dogleg Rot Max 
 DLSO.°/30m               0.86:  Dogleg Oriented 
 DLSX.°/30m               1.15:  Dogleg Str Max 
 DRET.      13.10.00 24-Mar-20:  Drill End Time 
 DRST.      17.00.00 23-Mar-20:  Drill Start Tim 
 DTIM.hr                 11.87:  Time Drilling 
 EDEP.m                4606.01:  End Depth 
 ENG1.          Rasim Hashimov:  Engineer 1 
 ENG2.            Alan Tuganov:  Engineer 2 
 ENG3.         Yevgeniy Ulikov:  Engineer 3 
 ETIM.      16.00.00 25-Mar-20:  End Time 
 FLOI.gpm               400.00:  Flow In 
 FLON.gpm               350.00:  Flow In Min 
 FLOS.cptm                0.00:  Fluid Loss 
 FLOX.gpm               400.00:  Flow In Max 
 FTRO.       Formation Presure:  FTWD Run Obj 
 HFLO.                      No:  High Flow 
 HPRE.                      No:  High Pressure 
 HTEM.                      No:  High Temp 
 HYDO.m                   1.80:  Hydro Offset 
 IFIN.deg                79.55:  Inc, Final 
 IMAX.deg                79.55:  Inc Max 
 IMIN.deg                78.04:  Inc Min 
 IMND.m                4502.50:  Inc Min Depth 
 IMXD.m                4587.87:  Inc Max Depth 
 JARR.                      No:  Jarring 
 LETM.      13.10.00 24-Mar-20:  Log End Time 
 LOST.hr                     0:  Lost Rig Time 
 LSTM.      17.00.00 23-Mar-20:  Log Start Time 
 MDCL.ppm             39000.00:  Mud Chlorides 
 MDES.     Inversion Oil/Synthetic:  Mud Desc 
 DFD .sg                  1.40:  Mud Density 
 MDMN.sg                  1.40:  Dens Mud Min 
 MDMX.sg                  1.40:  Dens Mud Max 
 MOIL.                    55.2:  Run Mud Oil % 
 MOWR.                   68:32:  Run Mud OWR 
 MSND.                     0.1:  Run Mud Sand % 
 MSOL.                    17.8:  Run Mud Solids% 
 DFV .spqt               76.00:  Mud Viscosity 
 MWOD.in                  4.75:  MWD Tool OD 
 MWSI.                      No:  Serv Intrp, MWD 
 OTIM.hr                 64.35:  Time Operating 
 PCON.           Look Like New:  Pad Condition 
 PMAX.psia             5350.00:  Press Op, Max 
 PV  .cP                 26.00:  Mud PV 
 RUN .                     900:  Run Number 
 ROPA.m/hr                9.00:  ROP Avg 
 ROPN.m/hr                7.00:  ROP Min 
 ROPX.m/hr               13.00:  ROP Max 
 RPMA.rpm               140.00:  RPM Surface Avg 
 RPMN.rpm               140.00:  RPM Surface Min 
 RPMX.rpm               140.00:  RPM Surface Max 
 RRUN.                    L204:  Rig Run Number 
 RTIM.hr                  4.50:  Time Reaming 
 SAZI.deg               141.40:  Azm, Start 
 SDEP.m                4503.01:  Start Depth 
 SIDD.                      No:  Serv Intrp, DD 
 SINC.deg                78.04:  Inc, Start 
 SPPA.psig             5300.00:  SPP Avg 
 SPPN.psig             5100.00:  SPP Min 
 SPPX.psig             5500.00:  SPP Max 
 STIM.      18.00.00 22-Mar-20:  Start Time 
 SVCS.                 DD, MWD:  Services 
 SVER.                    9.20:  Sperry Version 
 TDAT.m                 103.00:  Tot Depth Attmp 
 TDDF.                      No:  Trip for DD 
 TDLG.m                 103.00:  Tot Depth Loggd 
 TFF .                      No:  Trip for Fail 
 TQAA.f-kp               14.00:  Torque Abs Avg 
 TQAN.f-kp               12.00:  Torque Abs Min 
 TQAX.f-kp               16.00:  Torque Abs Max 
 TRRT.°/30m               0.45:  Turn Rotating 
 MRT .                    HCIM:  Maximum Recorded Temperature 
 TTMX.degC               90.20:  Max Tool Temp 
 VS01.         90577859G12V7D4:  Virtual Str1 SN 
 VS02.            90519330D5C4:  Virtual Str2 SN 
 VS03.             90603450F11:  Virtual Str3 SN 
 VS04.           90515383R12C4:  Virtual Str4 SN 
 VS05.          90522017N2L2C4:  Virtual Str5 SN 
 VS06.            90512682Z1W1:  Virtual Str6 SN 
 WBMN.klb                 5.00:  WOB Min 
 WITN.        Elmaddin Rahimov:  Customer Rep 
 WITN.           Adil Mammadov:  Customer Rep 2 
 WOBA.klb                 8.00:  WOB Avg 
 WOBX.klb                13.00:  WOB Max 
 YP  .lhf2               31.00:  Yield Point 
~Curve Information Block
#MNEM.UNIT                 API CODE     Curve Description
#---------               -----------    ---------------------------
 TIME.HHMMSS            00 000 000 000:  GT Time & Date
 GTDEPTH.m              00 000 000 000:  GT Depth
 GTPQH.psia             00 000 000 000:  GT HR Quartz Pressure
 GTTQ.degC              00 000 000 000:  GT Quartz Temperature
 GTTN.NONE              00 000 000 000:  GT Test Number
 GTET.sec               00 000 000 000:  GT Elapsed Test Time
 GTTVD.m                00 000 000 000:  GT True Vertical Depth
#Other Information
#
#WARRANTY: Halliburton will use its best efforts to furnish customers with 
#accurate information and interpretations that are part of, and incident to, the services 
#provided.  However, Halliburton cannot and does not warrant the accuracy 
#or correctness of such information and interpretations.  Under no circumstances should any 
#such information or interpretation be relied upon as the sole basis for any drilling, 
#completion, production, or financial decision or any procedure involving any risk to the 
#safety of any drilling venture, drilling rig or its crew or any other third party.  The 
#Customer has full responsibility for all drilling, completion and production operation.  
#Halliburton makes no representations or warranties, either expressed or 
#implied, including, but not limited to, the implied warranties of merchantability or fitness 
#for a particular purpose, with respect to the services rendered.  In no event will 
#Halliburton be liable for failure to obtain any particular results or for 
#any damages, including, but not limited to, indirect, special or consequential damages, 
#resulting from the use of any information or interpretation provided by Halliburton.
#
~A           TIME           GTDEPTH  GTPQH  GTTQ  GTTN  GTET   GTTVD  
# ...
   03:42:55.375.24-Mar-2020 4519.01 4449.06 81.99 3.00 276.05 3163.04
   03:42:55.575.24-Mar-2020 4519.01 4449.08 81.99 3.00 276.25 3163.04
   03:42:55.775.24-Mar-2020 4519.01 4448.98 81.99 3.00 276.45 3163.04
   03:42:55.975.24-Mar-2020 4519.01 4449.07 81.99 3.00 276.65 3163.04
   03:42:56.175.24-Mar-2020 4519.01 4449.06 81.99 3.00 276.85 3163.04
   03:42:56.375.24-Mar-2020 4519.01 4449.03 81.99 3.00 277.05 3163.04
   03:42:56.575.24-Mar-2020 4519.01 4449.03 81.99 3.00 277.25 3163.04
   03:42:56.775.24-Mar-2020 4519.01 4449.03 81.98 3.00 277.45 3163.04
   03:42:56.975.24-Mar-2020 4519.01 4449.03 81.98 3.00 277.65 3163.04
   03:42:57.175.24-Mar-2020 4519.01 4449.03 81.98 3.00 277.85 3163.04
   03:42:57.375.24-Mar-2020 4519.01 4449.03 81.98 3.00 278.05 3163.04
   03:42:57.575.24-Mar-2020 4519.01 4449.03 81.98 3.00 278.25 3163.04
   03:42:57.775.24-Mar-2020 4519.01 4449.07 81.98 3.00 278.45 3163.04
   03:42:57.975.24-Mar-2020 4519.01 4449.02 81.98 3.00 278.65 3163.04
   03:42:58.175.24-Mar-2020 4519.01 4449.03 81.98 3.00 278.85 3163.04
   03:42:58.375.24-Mar-2020 4519.01 4449.03 81.98 3.00 279.05 3163.04
   03:42:58.575.24-Mar-2020 4519.01 4449.03 81.98 3.00 279.25 3163.04
   03:42:58.775.24-Mar-2020 4519.01 4449.01 81.98 3.00 279.45 3163.04
   03:42:58.975.24-Mar-2020 4519.01 4449.02 81.98 3.00 279.65 3163.04
   03:42:59.175.24-Mar-2020 4519.01 4449.01 81.98 3.00 279.85 3163.04
   03:42:59.375.24-Mar-2020 4519.01 4449.01 81.98 3.00 280.05 3163.04
   03:42:59.575.24-Mar-2020 4519.01 4449.00 81.98 3.00 280.25 3163.04
   03:42:59.776.24-Mar-2020 4519.01 4449.03 81.97 3.00 280.45 3163.04
   03:42:59.976.24-Mar-2020 4519.01 4449.00 81.97 3.00 280.65 3163.04
   03:43:00.176.24-Mar-2020 4519.01 4449.02 81.97 3.00 280.85 3163.04
   03:43:00.376.24-Mar-2020 4519.01 4448.96 81.97 3.00 281.05 3163.04
   03:43:00.576.24-Mar-2020 4519.01 4448.96 81.97 3.00 281.25 3163.04
   03:43:00.776.24-Mar-2020 4519.01 4449.04 81.97 3.00 281.45 3163.04
   03:43:00.976.24-Mar-2020 4519.01 4449.00 81.97 3.00 281.65 3163.04
   03:43:01.176.24-Mar-2020 4519.01 4449.01 81.97 3.00 281.85 3163.04
   03:43:01.376.24-Mar-2020 4519.01 4449.02 81.97 3.00 282.05 3163.04
   03:43:01.576.24-Mar-2020 4519.01 4449.02 81.97 3.00 282.25 3163.04
   03:43:01.776.24-Mar-2020 4519.01 4449.02 81.97 3.00 282.45 3163.04
   03:43:01.976.24-Mar-2020 4519.01 4448.99 81.97 3.00 282.65 3163.04
   03:43:02.176.24-Mar-2020 4519.01 4449.04 81.97 3.00 282.85 3163.04
   03:43:02.376.24-Mar-2020 4519.01 4449.01 81.97 3.00 283.05 3163.04
   03:43:02.576.24-Mar-2020 4519.01 4449.01 81.97 3.00 283.25 3163.04
   03:43:02.776.24-Mar-2020 4519.01 4449.04 81.96 3.00 283.45 3163.04
   03:43:02.976.24-Mar-2020 4519.01 4449.02 81.96 3.00 283.65 3163.04
   03:43:03.176.24-Mar-2020 4519.01 4449.04 81.96 3.00 283.85 3163.04
   03:43:03.376.24-Mar-2020 4519.01 4449.02 81.96 3.00 284.05 3163.04
   03:43:03.576.24-Mar-2020 4519.01 4449.02 81.96 3.00 284.25 3163.04
   03:43:03.776.24-Mar-2020 4519.01 4449.01 81.96 3.00 284.45 3163.04
   03:43:03.976.24-Mar-2020 4519.01 4449.01 81.96 3.00 284.65 3163.04
   03:43:04.176.24-Mar-2020 4519.01 4449.01 81.96 3.00 284.85 3163.04
   03:43:04.376.24-Mar-2020 4519.01 4449.02 81.96 3.00 285.05 3163.04
   03:43:04.576.24-Mar-2020 4519.01 4449.02 81.96 3.00 285.25 3163.04
   03:43:04.776.24-Mar-2020 4519.01 4449.05 81.96 3.00 285.45 3163.04
   03:43:04.976.24-Mar-2020 4519.01 4449.04 81.96 3.00 285.65 3163.04
   03:43:05.176.24-Mar-2020 4519.01 4449.01 81.96 3.00 285.85 3163.04
   03:43:05.376.24-Mar-2020 4519.01 4449.01 81.96 3.00 286.05 3163.04
   03:43:05.576.24-Mar-2020 4519.01 4449.01 81.96 3.00 286.25 3163.04
   03:43:05.777.24-Mar-2020 4519.01 4448.99 81.95 3.00 286.45 3163.04
   03:43:05.977.24-Mar-2020 4519.01 4449.00 81.95 3.00 286.65 3163.04
   03:43:06.177.24-Mar-2020 4519.01 4449.00 81.95 3.00 286.85 3163.04
   03:43:06.377.24-Mar-2020 4519.01 4449.00 81.95 3.00 287.05 3163.04
   03:43:06.577.24-Mar-2020 4519.01 4449.00 81.95 3.00 287.25 3163.04
   03:43:06.777.24-Mar-2020 4519.01 4449.00 81.95 3.00 287.45 3163.04
   03:43:06.977.24-Mar-2020 4519.01 4448.99 81.95 3.00 287.65 3163.04
   03:43:07.177.24-Mar-2020 4519.01 4448.97 81.95 3.00 287.85 3163.04
   03:43:07.377.24-Mar-2020 4519.01 4449.04 81.95 3.00 288.05 3163.04
   03:43:07.577.24-Mar-2020 4519.01 4449.04 81.95 3.00 288.25 3163.04
   03:43:07.777.24-Mar-2020 4519.01 4449.03 81.95 3.00 288.45 3163.04
   03:43:07.977.24-Mar-2020 4519.01 4448.94 81.95 3.00 288.65 3163.04
   03:43:08.177.24-Mar-2020 4519.01 4449.07 81.95 3.00 288.85 3163.04
   03:43:08.377.24-Mar-2020 4519.01 4449.00 81.95 3.00 289.05 3163.04
   03:43:08.577.24-Mar-2020 4519.01 4449.00 81.95 3.00 289.25 3163.04
   03:43:08.777.24-Mar-2020 4519.01 4449.01 81.94 3.00 289.45 3163.04
   03:43:08.977.24-Mar-2020 4519.01 4448.95 81.94 3.00 289.65 3163.04
   03:43:09.177.24-Mar-2020 4519.01 4449.04 81.94 3.00 289.85 3163.04
   03:43:09.377.24-Mar-2020 4519.01 4449.04 81.94 3.00 290.05 3163.04
   03:43:09.577.24-Mar-2020 4519.01 4449.04 81.94 3.00 290.25 3163.04
   03:43:09.777.24-Mar-2020 4519.01 4449.07 81.94 3.00 290.45 3163.04
   03:43:09.977.24-Mar-2020 4519.01 4449.02 81.94 3.00 290.65 3163.04
   03:43:10.177.24-Mar-2020 4519.01 4449.01 81.94 3.00 290.85 3163.04
   03:43:10.377.24-Mar-2020 4519.01 4449.02 81.94 3.00 291.05 3163.04
   03:43:10.577.24-Mar-2020 4519.01 4449.02 81.94 3.00 291.25 3163.04
   03:43:10.777.24-Mar-2020 4519.01 4448.99 81.94 3.00 291.45 3163.04
   03:43:10.977.24-Mar-2020 4519.01 4449.00 81.94 3.00 291.65 3163.04
   03:43:11.177.24-Mar-2020 4519.01 4449.01 81.94 3.00 291.85 3163.04
   03:43:11.377.24-Mar-2020 4519.01 4448.96 81.94 3.00 292.05 3163.04
   03:43:11.577.24-Mar-2020 4519.01 4448.96 81.93 3.00 292.25 3163.04
   03:43:11.778.24-Mar-2020 4519.01 4448.99 81.93 3.00 292.45 3163.04
   03:43:11.978.24-Mar-2020 4519.01 4449.02 81.93 3.00 292.65 3163.04
   03:43:12.178.24-Mar-2020 4519.01 4449.00 81.93 3.00 292.85 3163.04
   03:43:12.378.24-Mar-2020 4519.01 4449.01 81.93 3.00 293.05 3163.04
   03:43:12.578.24-Mar-2020 4519.01 4449.01 81.93 3.00 293.25 3163.04
   03:43:12.778.24-Mar-2020 4519.01 4448.99 81.93 3.00 293.45 3163.04
   03:43:12.978.24-Mar-2020 4519.01 4448.98 81.93 3.00 293.65 3163.04
   03:43:13.178.24-Mar-2020 4519.01 4449.00 81.93 3.00 293.85 3163.04
   03:43:13.378.24-Mar-2020 4519.01 4448.97 81.93 3.00 294.05 3163.04
   03:43:13.578.24-Mar-2020 4519.01 4448.97 81.93 3.00 294.25 3163.04
   03:43:13.778.24-Mar-2020 4519.01 4448.98 81.93 3.00 294.45 3163.04
   03:43:13.978.24-Mar-2020 4519.01 4448.99 81.93 3.00 294.65 3163.04
   03:43:14.178.24-Mar-2020 4519.01 4448.91 81.93 3.00 294.85 3163.04
   03:43:14.378.24-Mar-2020 4519.01 4449.05 81.93 3.00 295.05 3163.04
   03:43:14.578.24-Mar-2020 4519.01 4449.05 81.92 3.00 295.25 3163.04
   03:43:14.778.24-Mar-2020 4519.01 4449.01 81.92 3.00 295.45 3163.04
   03:43:14.978.24-Mar-2020 4519.01 4448.94 81.92 3.00 295.65 3163.04
   03:43:15.178.24-Mar-2020 4519.01 4449.03 81.92 3.00 295.85 3163.04
   03:43:15.378.24-Mar-2020 4519.01 4449.02 81.92 3.00 296.05 3163.04
   03:43:15.578.24-Mar-2020 4519.01 4448.99 81.92 3.00 296.25 3163.04
   03:43:15.778.24-Mar-2020 4519.01 4449.00 81.92 3.00 296.45 3163.04
   03:43:15.978.24-Mar-2020 4519.01 4448.99 81.92 3.00 296.65 3163.04
   03:43:16.178.24-Mar-2020 4519.01 4449.00 81.92 3.00 296.85 3163.04
   03:43:16.378.24-Mar-2020 4519.01 4449.02 81.92 3.00 297.05 3163.04
   03:43:16.578.24-Mar-2020 4519.01 4449.02 81.92 3.00 297.25 3163.04
   03:43:16.778.24-Mar-2020 4519.01 4449.00 81.92 3.00 297.45 3163.04
   03:43:16.978.24-Mar-2020 4519.01 4449.03 81.92 3.00 297.65 3163.04
   03:43:17.178.24-Mar-2020 4519.01 4448.99 81.92 3.00 297.85 3163.04
   03:43:17.378.24-Mar-2020 4519.01 4449.01 81.92 3.00 298.05 3163.04
   03:43:17.578.24-Mar-2020 4519.01 4449.01 81.92 3.00 298.25 3163.04
   03:43:17.779.24-Mar-2020 4519.01 4448.99 81.91 3.00 298.45 3163.04
   03:43:17.979.24-Mar-2020 4519.01 4448.98 81.91 3.00 298.65 3163.04
   03:43:18.179.24-Mar-2020 4519.01 4449.01 81.91 3.00 298.85 3163.04
