~Version Information
 VERS.                  2.0:   CWLS log ASCII Standard -VERSION 2.0
 WRAP.                   NO:   One line per depth step
~Well Information Block
#MNEM.UNIT     VALUE/NAME     DESCRIPTION
#---------     -----------    ---------------------------
 STRT.S             10:10:38 24-Mar-20: START TIME 10:10:38 24-Mar-20
 STOP.S             10:17:07 24-Mar-20: STOP TIME  10:17:07 24-Mar-20
 STEP.S                   0.00: STEP TIME
 NULL.                 -999.25: NULL VALUE
 DFWT.                        :  DIST FWL TEXT
 DFST.                        :  DIST FSL TEXT
 DMF .             Drill Floor:  DRILL MEAS FROM
 STIM.      22.30.00 15-Feb-20:  START TIME
 DATE.      17.00.00 25-Mar-20:  END TIME
 SPUD.               15-Feb-20:  SPUD DATE
 NREF.                    Grid:  NORTH REFERENCE
 HPTY.       Minimum Curvature:  HOLE POS TYPE
 DMOD.             Drill Model:  DRILL MOD DESC
 SVYD.                  Survey:  SURVEY DESC
 ILTD.               Lithology:  INTERP LTH DESC
 FTOP.          Formation Tops:  FORM TOPS DESC
 SON .        AZ-XX-0906019077:  JOB NUMBER
 PDAT.          Mean Sea Level:  PERMANENT DATUM
 WTYP.                Deviated:  WELL TYPE
 MDS .        Operator Entered:  MAG DATA SOURCE
 COMP.     BP Exploration (Caspian sea) Ltd.:  COMPANY
 UWI .                     N/A:  UNIQUE WELL IDENTIFIER
 API .                     N/A:  API NUMBER
 BASE.              Azerbaijan:  LOGGING EQUIPMENT BASE LOCATION
 REGN.                   EESSA:  REGION
 PROV.                     N/A:  PROVINCE
 STAT.                     N/A:  STATE NAME
 CTRY.              Azerbaijan:  COUNTRY NAME
 FLD .                     ACG:  FIELD NAME
 SRVC.          Turan Drilling:  CONTRACTOR
 MWDS.                    Baku:  MWD SHOP
 WELL.                    E16W:  WELL NAME
 JOBN.        AZ-XX-0906019077:  JOB TICKET NUMB
 RIG .                     DWG:  RIG NAME
 CNTY.                     N/A:  COUNTY NAME
 DCON.         Sperry Drilling:  DIRECTNL CONTR
 UNIT.                     N/A:  LOGGING EQUIPMENT ID
 LOC .                        :  LOCATION
 LMF .             Drill Floor:  LOG MEASURED FROM
 TVDS.m                  43.16:  TVDSS CORRECTN
 LATI.deg                40.17:  LATITUDE
 LONG.deg                51.17:  LONGITUDE
 WHNS.m                 -15.30:  WELL HEAD N/S
 WHEW.m                  -1.29:  WELL HEAD E/W
 UTMX.m              514337.95:  UTM X
 UTMY.m             4448627.46:  UTM Y
 DFWL.m                   0.00:  DISTANCE FWL
 DFSL.m                   0.00:  DISTANCE FSL
 SDEP.m                3499.01:  START DEPTH
 TDD .m                4606.01:  TOTAL DEPTH (DRILLER)
 VSDR.deg               151.14:  VERT SEC DIRECT
 GVFD.g                   1.00:  GRAVITY FIELD
 MFLD.nT              50334.00:  MAGNETIC FIELD
 MDIP.deg                59.62:  MAGNETIC DIP
 MDEC.deg                 6.46:  MAGNETIC DECL
 GRDC.deg                 0.12:  GRID CORRECTION
 AZTC.deg                 6.34:  AZM TOTAL CORR
 EPD .m                   0.00:  ELEVATION
 EGL .m                   0.00:  GROUND ELEVATION
 WDMS.m                 176.20:  WD ELEV
 APD .m                  43.16:  DEPTH ABOVE PD
 VSEW.m                  -1.29:  VERT SEC E/W
 VSNS.m                 -15.30:  VERT SEC N/S
 AGAP.m                  43.16:  AIR GAP
 EKB .m                   0.00:  KB ELEVATION
 EDF .m                  43.16:  DF ELEVATION
 TDL .m                 103.00:  TOTAL DEPTH (LOGGER)
 VSC .                       0:  VS TO CLOSURE
 MAGU.                 1852525:  MAGUTM CHECKSUM
~Parameter Information Block
#MNEM.UNIT       Value        Description
#---------     -----------    ---------------------------
 AV  .mps                 1.01:  Ann Velocity 
 AVMX.mps                 1.32:  Max Ann Veloc 
 AZIF.deg               140.63:  Azm, Final 
 BHAT.        Rotary Steerable:  BHA Type 
 BREV.rev            151000.00:  Rev Bit Total 
 BROT.°/30m               0.65:  Build Rotating 
 BS  .in                  6.50:  Bit Size 
 BSZ .in                  6.50:  Bit Size 
 BTPL.psig              222.00:  Bit Press Loss 
 CABU.                      No:  Customer Abuse 
 CGEO.           Emin Aliyarov:  Customer Geo 
 COMM.                     ´â}:  Run Comments 1 
 TCS .hr                 22.89:  Time Ciculation Ended 
 CV  .mps                 2.20:  Crit Velocity 
 CVMX.mps                 3.04:  Max Crit Veloc 
 DD1 .         Intigam Rahimov:  Direct Drillr 1 
 DDSV.               Geo-Pilot:  DD Service 
 DEFF.%                  91.50:  % Det Eff 
 DLRX.°/30m               1.15:  Dogleg Rot Max 
 DLSO.°/30m               0.86:  Dogleg Oriented 
 DLSX.°/30m               1.15:  Dogleg Str Max 
 DRET.      13.10.00 24-Mar-20:  Drill End Time 
 DRST.      17.00.00 23-Mar-20:  Drill Start Tim 
 DTIM.hr                 11.87:  Time Drilling 
 EDEP.m                4606.01:  End Depth 
 ENG1.          Rasim Hashimov:  Engineer 1 
 ENG2.            Alan Tuganov:  Engineer 2 
 ENG3.         Yevgeniy Ulikov:  Engineer 3 
 ETIM.      16.00.00 25-Mar-20:  End Time 
 FLOI.gpm               400.00:  Flow In 
 FLON.gpm               350.00:  Flow In Min 
 FLOS.cptm                0.00:  Fluid Loss 
 FLOX.gpm               400.00:  Flow In Max 
 FTRO.       Formation Presure:  FTWD Run Obj 
 HFLO.                      No:  High Flow 
 HPRE.                      No:  High Pressure 
 HTEM.                      No:  High Temp 
 HYDO.m                   1.80:  Hydro Offset 
 IFIN.deg                79.55:  Inc, Final 
 IMAX.deg                79.55:  Inc Max 
 IMIN.deg                78.04:  Inc Min 
 IMND.m                4502.50:  Inc Min Depth 
 IMXD.m                4587.87:  Inc Max Depth 
 JARR.                      No:  Jarring 
 LETM.      13.10.00 24-Mar-20:  Log End Time 
 LOST.hr                     0:  Lost Rig Time 
 LSTM.      17.00.00 23-Mar-20:  Log Start Time 
 MDCL.ppm             39000.00:  Mud Chlorides 
 MDES.     Inversion Oil/Synthetic:  Mud Desc 
 DFD .sg                  1.40:  Mud Density 
 MDMN.sg                  1.40:  Dens Mud Min 
 MDMX.sg                  1.40:  Dens Mud Max 
 MOIL.                    55.2:  Run Mud Oil % 
 MOWR.                   68:32:  Run Mud OWR 
 MSND.                     0.1:  Run Mud Sand % 
 MSOL.                    17.8:  Run Mud Solids% 
 DFV .spqt               76.00:  Mud Viscosity 
 MWOD.in                  4.75:  MWD Tool OD 
 MWSI.                      No:  Serv Intrp, MWD 
 OTIM.hr                 64.35:  Time Operating 
 PCON.           Look Like New:  Pad Condition 
 PMAX.psia             5350.00:  Press Op, Max 
 PV  .cP                 26.00:  Mud PV 
 RUN .                     900:  Run Number 
 ROPA.m/hr                9.00:  ROP Avg 
 ROPN.m/hr                7.00:  ROP Min 
 ROPX.m/hr               13.00:  ROP Max 
 RPMA.rpm               140.00:  RPM Surface Avg 
 RPMN.rpm               140.00:  RPM Surface Min 
 RPMX.rpm               140.00:  RPM Surface Max 
 RRUN.                    L204:  Rig Run Number 
 RTIM.hr                  4.50:  Time Reaming 
 SAZI.deg               141.40:  Azm, Start 
 SDEP.m                4503.01:  Start Depth 
 SIDD.                      No:  Serv Intrp, DD 
 SINC.deg                78.04:  Inc, Start 
 SPPA.psig             5300.00:  SPP Avg 
 SPPN.psig             5100.00:  SPP Min 
 SPPX.psig             5500.00:  SPP Max 
 STIM.      18.00.00 22-Mar-20:  Start Time 
 SVCS.                 DD, MWD:  Services 
 SVER.                    9.20:  Sperry Version 
 TDAT.m                 103.00:  Tot Depth Attmp 
 TDDF.                      No:  Trip for DD 
 TDLG.m                 103.00:  Tot Depth Loggd 
 TFF .                      No:  Trip for Fail 
 TQAA.f-kp               14.00:  Torque Abs Avg 
 TQAN.f-kp               12.00:  Torque Abs Min 
 TQAX.f-kp               16.00:  Torque Abs Max 
 TRRT.°/30m               0.45:  Turn Rotating 
 MRT .                    HCIM:  Maximum Recorded Temperature 
 TTMX.degC               90.20:  Max Tool Temp 
 VS01.         90577859G12V7D4:  Virtual Str1 SN 
 VS02.            90519330D5C4:  Virtual Str2 SN 
 VS03.             90603450F11:  Virtual Str3 SN 
 VS04.           90515383R12C4:  Virtual Str4 SN 
 VS05.          90522017N2L2C4:  Virtual Str5 SN 
 VS06.            90512682Z1W1:  Virtual Str6 SN 
 WBMN.klb                 5.00:  WOB Min 
 WITN.        Elmaddin Rahimov:  Customer Rep 
 WITN.           Adil Mammadov:  Customer Rep 2 
 WOBA.klb                 8.00:  WOB Avg 
 WOBX.klb                13.00:  WOB Max 
 YP  .lhf2               31.00:  Yield Point 
~Curve Information Block
#MNEM.UNIT                 API CODE     Curve Description
#---------               -----------    ---------------------------
 TIME.HHMMSS            00 000 000 000:  GT Time & Date
 GTDEPTH.m              00 000 000 000:  GT Depth
 GTPQH.psia             00 000 000 000:  GT HR Quartz Pressure
 GTTQ.degC              00 000 000 000:  GT Quartz Temperature
 GTTN.NONE              00 000 000 000:  GT Test Number
 GTET.sec               00 000 000 000:  GT Elapsed Test Time
 GTTVD.m                00 000 000 000:  GT True Vertical Depth
#Other Information
#
#WARRANTY: Halliburton will use its best efforts to furnish customers with 
#accurate information and interpretations that are part of, and incident to, the services 
#provided.  However, Halliburton cannot and does not warrant the accuracy 
#or correctness of such information and interpretations.  Under no circumstances should any 
#such information or interpretation be relied upon as the sole basis for any drilling, 
#completion, production, or financial decision or any procedure involving any risk to the 
#safety of any drilling venture, drilling rig or its crew or any other third party.  The 
#Customer has full responsibility for all drilling, completion and production operation.  
#Halliburton makes no representations or warranties, either expressed or 
#implied, including, but not limited to, the implied warranties of merchantability or fitness 
#for a particular purpose, with respect to the services rendered.  In no event will 
#Halliburton be liable for failure to obtain any particular results or for 
#any damages, including, but not limited to, indirect, special or consequential damages, 
#resulting from the use of any information or interpretation provided by Halliburton.
#
~A           TIME           GTDEPTH  GTPQH  GTTQ  GTTN  GTET   GTTVD  
# ...
   10:11:01.452.24-Mar-2020 4562.51 7772.61 86.66 5.00  23.00 3171.78
   10:11:01.652.24-Mar-2020 4562.51 7772.61 86.66 5.00  23.20 3171.78
   10:11:01.852.24-Mar-2020 4562.51 7808.93 86.66 5.00  23.40 3171.78
   10:11:02.052.24-Mar-2020 4562.51 7819.32 86.66 5.00  23.60 3171.78
   10:11:02.252.24-Mar-2020 4562.51 7827.85 86.66 5.00  23.80 3171.78
   10:11:02.452.24-Mar-2020 4562.51 7834.48 86.66 5.00  24.00 3171.78
   10:11:02.652.24-Mar-2020 4562.51 7834.48 86.66 5.00  24.20 3171.78
   10:11:02.852.24-Mar-2020 4562.51 7844.84 86.65 5.00  24.40 3171.78
   10:11:03.052.24-Mar-2020 4562.51 7849.17 86.65 5.00  24.60 3171.78
   10:11:03.252.24-Mar-2020 4562.51 7853.13 86.65 5.00  24.80 3171.78
   10:11:03.452.24-Mar-2020 4562.51 7846.73 86.65 5.00  25.00 3171.78
   10:11:03.652.24-Mar-2020 4562.51 7846.73 86.65 5.00  25.20 3171.78
   10:11:03.852.24-Mar-2020 4562.51 6634.08 86.65 5.00  25.40 3171.78
   10:11:04.052.24-Mar-2020 4562.51 6165.84 86.65 5.00  25.60 3171.78
   10:11:04.252.24-Mar-2020 4562.51 5320.84 86.65 5.00  25.80 3171.78
   10:11:04.452.24-Mar-2020 4562.51 4546.15 86.65 5.00  26.00 3171.78
   10:11:04.652.24-Mar-2020 4562.51 4546.15 86.65 5.00  26.20 3171.78
   10:11:04.853.24-Mar-2020 4562.51 4433.97 86.65 5.00  26.40 3171.78
   10:11:05.053.24-Mar-2020 4562.51 4433.27 86.64 5.00  26.60 3171.78
   10:11:05.253.24-Mar-2020 4562.51 4431.60 86.64 5.00  26.81 3171.78
   10:11:05.453.24-Mar-2020 4562.51 4431.16 86.64 5.00  27.01 3171.78
   10:11:05.653.24-Mar-2020 4562.51 4428.59 86.64 5.00  27.21 3171.78
   10:11:05.853.24-Mar-2020 4562.51 4427.64 86.64 5.00  27.41 3171.78
   10:11:06.053.24-Mar-2020 4562.51 4427.17 86.64 5.00  27.61 3171.78
   10:11:06.253.24-Mar-2020 4562.51 4426.33 86.64 5.00  27.81 3171.78
   10:11:06.453.24-Mar-2020 4562.51 4425.98 86.63 5.00  28.01 3171.78
   10:11:06.653.24-Mar-2020 4562.51 4425.98 86.63 5.00  28.21 3171.78
   10:11:06.853.24-Mar-2020 4562.51 4425.25 86.63 5.00  28.41 3171.78
   10:11:07.053.24-Mar-2020 4562.51 4424.91 86.63 5.00  28.61 3171.78
   10:11:07.253.24-Mar-2020 4562.51 4424.70 86.63 5.00  28.81 3171.78
   10:11:07.453.24-Mar-2020 4562.51 4424.48 86.63 5.00  29.01 3171.78
   10:11:07.653.24-Mar-2020 4562.51 4424.48 86.63 5.00  29.21 3171.78
   10:11:07.853.24-Mar-2020 4562.51 4424.02 86.62 5.00  29.41 3171.78
   10:11:08.053.24-Mar-2020 4562.51 4424.27 86.62 5.00  29.61 3171.78
   10:11:08.253.24-Mar-2020 4562.51 4423.87 86.62 5.00  29.81 3171.78
   10:11:08.453.24-Mar-2020 4562.51 4424.01 86.62 5.00  30.01 3171.78
   10:11:08.653.24-Mar-2020 4562.51 4424.01 86.62 5.00  30.21 3171.78
   10:11:08.853.24-Mar-2020 4562.51 4423.83 86.61 5.00  30.41 3171.78
   10:11:09.053.24-Mar-2020 4562.51 4423.77 86.61 5.00  30.61 3171.78
   10:11:09.253.24-Mar-2020 4562.51 4423.60 86.61 5.00  30.81 3171.78
   10:11:09.453.24-Mar-2020 4562.51 4423.58 86.61 5.00  31.01 3171.78
   10:11:09.653.24-Mar-2020 4562.51 4423.58 86.61 5.00  31.21 3171.78
   10:11:09.853.24-Mar-2020 4562.51 4423.59 86.61 5.00  31.41 3171.78
   10:11:10.053.24-Mar-2020 4562.51 4423.57 86.60 5.00  31.61 3171.78
   10:11:10.254.24-Mar-2020 4562.51 4423.63 86.60 5.00  31.81 3171.78
   10:11:10.454.24-Mar-2020 4562.51 4423.56 86.60 5.00  32.01 3171.78
   10:11:10.654.24-Mar-2020 4562.51 4423.56 86.60 5.00  32.21 3171.78
   10:11:10.854.24-Mar-2020 4562.51 4423.65 86.60 5.00  32.41 3171.78
   10:11:11.054.24-Mar-2020 4562.51 4423.43 86.60 5.00  32.61 3171.78
   10:11:11.254.24-Mar-2020 4562.51 4423.54 86.59 5.00  32.81 3171.78
   10:11:11.454.24-Mar-2020 4562.51 4423.37 86.59 5.00  33.01 3171.78
   10:11:11.654.24-Mar-2020 4562.51 4423.37 86.59 5.00  33.21 3171.78
   10:11:11.854.24-Mar-2020 4562.51 4423.50 86.59 5.00  33.41 3171.78
   10:11:12.054.24-Mar-2020 4562.51 4423.56 86.59 5.00  33.61 3171.78
   10:11:12.254.24-Mar-2020 4562.51 4423.47 86.58 5.00  33.81 3171.78
   10:11:12.454.24-Mar-2020 4562.51 4423.27 86.58 5.00  34.01 3171.78
   10:11:12.654.24-Mar-2020 4562.51 4423.27 86.58 5.00  34.21 3171.78
   10:11:12.854.24-Mar-2020 4562.51 4423.32 86.58 5.00  34.41 3171.78
   10:11:13.054.24-Mar-2020 4562.51 4423.33 86.58 5.00  34.61 3171.78
   10:11:13.254.24-Mar-2020 4562.51 4423.64 86.58 5.00  34.81 3171.78
   10:11:13.454.24-Mar-2020 4562.51 4423.33 86.57 5.00  35.01 3171.78
   10:11:13.654.24-Mar-2020 4562.51 4423.33 86.57 5.00  35.21 3171.78
   10:11:13.854.24-Mar-2020 4562.51 4435.58 86.57 5.00  35.41 3171.78
   10:11:14.054.24-Mar-2020 4562.51 4435.75 86.57 5.00  35.61 3171.78
   10:11:14.254.24-Mar-2020 4562.51 4435.78 86.57 5.00  35.81 3171.78
   10:11:14.454.24-Mar-2020 4562.51 4435.84 86.57 5.00  36.01 3171.78
   10:11:14.654.24-Mar-2020 4562.51 4435.84 86.57 5.00  36.21 3171.78
   10:11:14.854.24-Mar-2020 4562.51 4435.89 86.56 5.00  36.41 3171.78
   10:11:15.054.24-Mar-2020 4562.51 4435.92 86.56 5.00  36.61 3171.78
   10:11:15.254.24-Mar-2020 4562.51 4435.95 86.56 5.00  36.81 3171.78
   10:11:15.454.24-Mar-2020 4562.51 4435.94 86.56 5.00  37.01 3171.78
   10:11:15.655.24-Mar-2020 4562.51 4435.94 86.56 5.00  37.21 3171.78
   10:11:15.855.24-Mar-2020 4562.51 4435.94 86.56 5.00  37.41 3171.78
   10:11:16.055.24-Mar-2020 4562.51 4435.99 86.56 5.00  37.61 3171.78
   10:11:16.255.24-Mar-2020 4562.51 4435.98 86.55 5.00  37.81 3171.78
   10:11:16.455.24-Mar-2020 4562.51 4436.03 86.55 5.00  38.01 3171.78
   10:11:16.655.24-Mar-2020 4562.51 4436.03 86.55 5.00  38.21 3171.78
   10:11:16.855.24-Mar-2020 4562.51 4436.05 86.55 5.00  38.41 3171.78
   10:11:17.055.24-Mar-2020 4562.51 4436.05 86.55 5.00  38.61 3171.78
   10:11:17.255.24-Mar-2020 4562.51 4436.05 86.55 5.00  38.81 3171.78
   10:11:17.455.24-Mar-2020 4562.51 4436.05 86.55 5.00  39.01 3171.78
   10:11:17.655.24-Mar-2020 4562.51 4436.05 86.55 5.00  39.21 3171.78
   10:11:17.855.24-Mar-2020 4562.51 4436.08 86.54 5.00  39.41 3171.78
   10:11:18.055.24-Mar-2020 4562.51 4436.07 86.54 5.00  39.61 3171.78
   10:11:18.255.24-Mar-2020 4562.51 4436.10 86.54 5.00  39.81 3171.78
   10:11:18.455.24-Mar-2020 4562.51 4436.09 86.54 5.00  40.01 3171.78
   10:11:18.655.24-Mar-2020 4562.51 4436.09 86.54 5.00  40.21 3171.78
   10:11:18.855.24-Mar-2020 4562.51 4436.07 86.54 5.00  40.41 3171.78
   10:11:19.055.24-Mar-2020 4562.51 4436.07 86.54 5.00  40.61 3171.78
   10:11:19.255.24-Mar-2020 4562.51 4436.11 86.53 5.00  40.81 3171.78
   10:11:19.455.24-Mar-2020 4562.51 4436.13 86.53 5.00  41.01 3171.78
   10:11:19.655.24-Mar-2020 4562.51 4436.13 86.53 5.00  41.21 3171.78
   10:11:19.855.24-Mar-2020 4562.51 4436.11 86.53 5.00  41.41 3171.78
   10:11:20.055.24-Mar-2020 4562.51 4436.09 86.53 5.00  41.61 3171.78
   10:11:20.255.24-Mar-2020 4562.51 4436.12 86.53 5.00  41.81 3171.78
   10:11:20.455.24-Mar-2020 4562.51 4436.14 86.53 5.00  42.01 3171.78
   10:11:20.655.24-Mar-2020 4562.51 4436.14 86.53 5.00  42.21 3171.78
   10:11:20.855.24-Mar-2020 4562.51 4436.21 86.52 5.00  42.41 3171.78
   10:11:21.056.24-Mar-2020 4562.51 4436.10 86.52 5.00  42.61 3171.78
   10:11:21.256.24-Mar-2020 4562.51 4436.06 86.52 5.00  42.81 3171.78
   10:11:21.456.24-Mar-2020 4562.51 4436.22 86.52 5.00  43.01 3171.78
   10:11:21.656.24-Mar-2020 4562.51 4436.22 86.52 5.00  43.21 3171.78
   10:11:21.856.24-Mar-2020 4562.51 4436.11 86.52 5.00  43.41 3171.78
   10:11:22.056.24-Mar-2020 4562.51 4436.17 86.52 5.00  43.61 3171.78
   10:11:22.256.24-Mar-2020 4562.51 4436.15 86.52 5.00  43.81 3171.78
   10:11:22.456.24-Mar-2020 4562.51 4436.18 86.52 5.00  44.01 3171.78
   10:11:22.656.24-Mar-2020 4562.51 4436.18 86.52 5.00  44.21 3171.78
   10:11:22.856.24-Mar-2020 4562.51 4436.13 86.51 5.00  44.41 3171.78
   10:11:23.056.24-Mar-2020 4562.51 4436.19 86.51 5.00  44.61 3171.78
   10:11:23.256.24-Mar-2020 4562.51 4436.18 86.51 5.00  44.81 3171.78
   10:11:23.456.24-Mar-2020 4562.51 4436.22 86.52 5.00  45.01 3171.78
   10:11:23.656.24-Mar-2020 4562.51 4436.20 86.51 5.00  45.21 3171.78
   10:11:23.856.24-Mar-2020 4562.51 4436.20 86.51 5.00  45.41 3171.78
   10:11:24.056.24-Mar-2020 4562.51 4436.20 86.51 5.00  45.61 3171.78
   10:11:24.256.24-Mar-2020 4562.51 4436.21 86.50 5.00  45.81 3171.78
