~Version Information
 VERS.                  2.0:   CWLS log ASCII Standard -VERSION 2.0
 WRAP.                   NO:   One line per depth step
~Well Information Block
#MNEM.UNIT     VALUE/NAME     DESCRIPTION
#---------     -----------    ---------------------------
 STRT.S             03:38:19 24-Mar-20: START TIME 03:38:19 24-Mar-20
 STOP.S             03:44:48 24-Mar-20: STOP TIME  03:44:48 24-Mar-20
 STEP.S                   0.00: STEP TIME
 NULL.                 -999.25: NULL VALUE
 DFWT.                        :  DIST FWL TEXT
 DFST.                        :  DIST FSL TEXT
 DMF .             Drill Floor:  DRILL MEAS FROM
 STIM.      22.30.00 15-Feb-20:  START TIME
 DATE.      17.00.00 25-Mar-20:  END TIME
 SPUD.               15-Feb-20:  SPUD DATE
 NREF.                    Grid:  NORTH REFERENCE
 HPTY.       Minimum Curvature:  HOLE POS TYPE
 DMOD.             Drill Model:  DRILL MOD DESC
 SVYD.                  Survey:  SURVEY DESC
 ILTD.               Lithology:  INTERP LTH DESC
 FTOP.          Formation Tops:  FORM TOPS DESC
 SON .        AZ-XX-0906019077:  JOB NUMBER
 PDAT.          Mean Sea Level:  PERMANENT DATUM
 WTYP.                Deviated:  WELL TYPE
 MDS .        Operator Entered:  MAG DATA SOURCE
 COMP.     BP Exploration (Caspian sea) Ltd.:  COMPANY
 UWI .                     N/A:  UNIQUE WELL IDENTIFIER
 API .                     N/A:  API NUMBER
 BASE.              Azerbaijan:  LOGGING EQUIPMENT BASE LOCATION
 REGN.                   EESSA:  REGION
 PROV.                     N/A:  PROVINCE
 STAT.                     N/A:  STATE NAME
 CTRY.              Azerbaijan:  COUNTRY NAME
 FLD .                     ACG:  FIELD NAME
 SRVC.          Turan Drilling:  CONTRACTOR
 MWDS.                    Baku:  MWD SHOP
 WELL.                    E16W:  WELL NAME
 JOBN.        AZ-XX-0906019077:  JOB TICKET NUMB
 RIG .                     DWG:  RIG NAME
 CNTY.                     N/A:  COUNTY NAME
 DCON.         Sperry Drilling:  DIRECTNL CONTR
 UNIT.                     N/A:  LOGGING EQUIPMENT ID
 LOC .                        :  LOCATION
 LMF .             Drill Floor:  LOG MEASURED FROM
 TVDS.m                  43.16:  TVDSS CORRECTN
 LATI.deg                40.17:  LATITUDE
 LONG.deg                51.17:  LONGITUDE
 WHNS.m                 -15.30:  WELL HEAD N/S
 WHEW.m                  -1.29:  WELL HEAD E/W
 UTMX.m              514337.95:  UTM X
 UTMY.m             4448627.46:  UTM Y
 DFWL.m                   0.00:  DISTANCE FWL
 DFSL.m                   0.00:  DISTANCE FSL
 SDEP.m                3499.01:  START DEPTH
 TDD .m                4606.01:  TOTAL DEPTH (DRILLER)
 VSDR.deg               151.14:  VERT SEC DIRECT
 GVFD.g                   1.00:  GRAVITY FIELD
 MFLD.nT              50334.00:  MAGNETIC FIELD
 MDIP.deg                59.62:  MAGNETIC DIP
 MDEC.deg                 6.46:  MAGNETIC DECL
 GRDC.deg                 0.12:  GRID CORRECTION
 AZTC.deg                 6.34:  AZM TOTAL CORR
 EPD .m                   0.00:  ELEVATION
 EGL .m                   0.00:  GROUND ELEVATION
 WDMS.m                 176.20:  WD ELEV
 APD .m                  43.16:  DEPTH ABOVE PD
 VSEW.m                  -1.29:  VERT SEC E/W
 VSNS.m                 -15.30:  VERT SEC N/S
 AGAP.m                  43.16:  AIR GAP
 EKB .m                   0.00:  KB ELEVATION
 EDF .m                  43.16:  DF ELEVATION
 TDL .m                 103.00:  TOTAL DEPTH (LOGGER)
 VSC .                       0:  VS TO CLOSURE
 MAGU.                 1852525:  MAGUTM CHECKSUM
~Parameter Information Block
#MNEM.UNIT       Value        Description
#---------     -----------    ---------------------------
 AV  .mps                 1.01:  Ann Velocity 
 AVMX.mps                 1.32:  Max Ann Veloc 
 AZIF.deg               140.63:  Azm, Final 
 BHAT.        Rotary Steerable:  BHA Type 
 BREV.rev            151000.00:  Rev Bit Total 
 BROT.°/30m               0.65:  Build Rotating 
 BS  .in                  6.50:  Bit Size 
 BSZ .in                  6.50:  Bit Size 
 BTPL.psig              222.00:  Bit Press Loss 
 CABU.                      No:  Customer Abuse 
 CGEO.           Emin Aliyarov:  Customer Geo 
 COMM.                     \·`:  Run Comments 1 
 TCS .hr                 22.89:  Time Ciculation Ended 
 CV  .mps                 2.20:  Crit Velocity 
 CVMX.mps                 3.04:  Max Crit Veloc 
 DD1 .         Intigam Rahimov:  Direct Drillr 1 
 DDSV.               Geo-Pilot:  DD Service 
 DEFF.%                  91.50:  % Det Eff 
 DLRX.°/30m               1.15:  Dogleg Rot Max 
 DLSO.°/30m               0.86:  Dogleg Oriented 
 DLSX.°/30m               1.15:  Dogleg Str Max 
 DRET.      13.10.00 24-Mar-20:  Drill End Time 
 DRST.      17.00.00 23-Mar-20:  Drill Start Tim 
 DTIM.hr                 11.87:  Time Drilling 
 EDEP.m                4606.01:  End Depth 
 ENG1.          Rasim Hashimov:  Engineer 1 
 ENG2.            Alan Tuganov:  Engineer 2 
 ENG3.         Yevgeniy Ulikov:  Engineer 3 
 ETIM.      16.00.00 25-Mar-20:  End Time 
 FLOI.gpm               400.00:  Flow In 
 FLON.gpm               350.00:  Flow In Min 
 FLOS.cptm                0.00:  Fluid Loss 
 FLOX.gpm               400.00:  Flow In Max 
 FTRO.       Formation Presure:  FTWD Run Obj 
 HFLO.                      No:  High Flow 
 HPRE.                      No:  High Pressure 
 HTEM.                      No:  High Temp 
 HYDO.m                   1.80:  Hydro Offset 
 IFIN.deg                79.55:  Inc, Final 
 IMAX.deg                79.55:  Inc Max 
 IMIN.deg                78.04:  Inc Min 
 IMND.m                4502.50:  Inc Min Depth 
 IMXD.m                4587.87:  Inc Max Depth 
 JARR.                      No:  Jarring 
 LETM.      13.10.00 24-Mar-20:  Log End Time 
 LOST.hr                     0:  Lost Rig Time 
 LSTM.      17.00.00 23-Mar-20:  Log Start Time 
 MDCL.ppm             39000.00:  Mud Chlorides 
 MDES.     Inversion Oil/Synthetic:  Mud Desc 
 DFD .sg                  1.40:  Mud Density 
 MDMN.sg                  1.40:  Dens Mud Min 
 MDMX.sg                  1.40:  Dens Mud Max 
 MOIL.                    55.2:  Run Mud Oil % 
 MOWR.                   68:32:  Run Mud OWR 
 MSND.                     0.1:  Run Mud Sand % 
 MSOL.                    17.8:  Run Mud Solids% 
 DFV .spqt               76.00:  Mud Viscosity 
 MWOD.in                  4.75:  MWD Tool OD 
 MWSI.                      No:  Serv Intrp, MWD 
 OTIM.hr                 64.35:  Time Operating 
 PCON.           Look Like New:  Pad Condition 
 PMAX.psia             5350.00:  Press Op, Max 
 PV  .cP                 26.00:  Mud PV 
 RUN .                     900:  Run Number 
 ROPA.m/hr                9.00:  ROP Avg 
 ROPN.m/hr                7.00:  ROP Min 
 ROPX.m/hr               13.00:  ROP Max 
 RPMA.rpm               140.00:  RPM Surface Avg 
 RPMN.rpm               140.00:  RPM Surface Min 
 RPMX.rpm               140.00:  RPM Surface Max 
 RRUN.                    L204:  Rig Run Number 
 RTIM.hr                  4.50:  Time Reaming 
 SAZI.deg               141.40:  Azm, Start 
 SDEP.m                4503.01:  Start Depth 
 SIDD.                      No:  Serv Intrp, DD 
 SINC.deg                78.04:  Inc, Start 
 SPPA.psig             5300.00:  SPP Avg 
 SPPN.psig             5100.00:  SPP Min 
 SPPX.psig             5500.00:  SPP Max 
 STIM.      18.00.00 22-Mar-20:  Start Time 
 SVCS.                 DD, MWD:  Services 
 SVER.                    9.20:  Sperry Version 
 TDAT.m                 103.00:  Tot Depth Attmp 
 TDDF.                      No:  Trip for DD 
 TDLG.m                 103.00:  Tot Depth Loggd 
 TFF .                      No:  Trip for Fail 
 TQAA.f-kp               14.00:  Torque Abs Avg 
 TQAN.f-kp               12.00:  Torque Abs Min 
 TQAX.f-kp               16.00:  Torque Abs Max 
 TRRT.°/30m               0.45:  Turn Rotating 
 MRT .                    HCIM:  Maximum Recorded Temperature 
 TTMX.degC               90.20:  Max Tool Temp 
 VS01.         90577859G12V7D4:  Virtual Str1 SN 
 VS02.            90519330D5C4:  Virtual Str2 SN 
 VS03.             90603450F11:  Virtual Str3 SN 
 VS04.           90515383R12C4:  Virtual Str4 SN 
 VS05.          90522017N2L2C4:  Virtual Str5 SN 
 VS06.            90512682Z1W1:  Virtual Str6 SN 
 WBMN.klb                 5.00:  WOB Min 
 WITN.        Elmaddin Rahimov:  Customer Rep 
 WITN.           Adil Mammadov:  Customer Rep 2 
 WOBA.klb                 8.00:  WOB Avg 
 WOBX.klb                13.00:  WOB Max 
 YP  .lhf2               31.00:  Yield Point 
~Curve Information Block
#MNEM.UNIT                 API CODE     Curve Description
#---------               -----------    ---------------------------
 TIME.HHMMSS            00 000 000 000:  GT Time & Date
 GTDEPTH.m              00 000 000 000:  GT Depth
 GTPQH.psia             00 000 000 000:  GT HR Quartz Pressure
 GTTQ.degC              00 000 000 000:  GT Quartz Temperature
 GTTN.NONE              00 000 000 000:  GT Test Number
 GTET.sec               00 000 000 000:  GT Elapsed Test Time
 GTTVD.m                00 000 000 000:  GT True Vertical Depth
#Other Information
#
#WARRANTY: Halliburton will use its best efforts to furnish customers with 
#accurate information and interpretations that are part of, and incident to, the services 
#provided.  However, Halliburton cannot and does not warrant the accuracy 
#or correctness of such information and interpretations.  Under no circumstances should any 
#such information or interpretation be relied upon as the sole basis for any drilling, 
#completion, production, or financial decision or any procedure involving any risk to the 
#safety of any drilling venture, drilling rig or its crew or any other third party.  The 
#Customer has full responsibility for all drilling, completion and production operation.  
#Halliburton makes no representations or warranties, either expressed or 
#implied, including, but not limited to, the implied warranties of merchantability or fitness 
#for a particular purpose, with respect to the services rendered.  In no event will 
#Halliburton be liable for failure to obtain any particular results or for 
#any damages, including, but not limited to, indirect, special or consequential damages, 
#resulting from the use of any information or interpretation provided by Halliburton.
#
~A           TIME           GTDEPTH  GTPQH  GTTQ  GTTN  GTET   GTTVD  
# ...
   03:40:37.352.24-Mar-2020 4519.01 4441.29 82.51 3.00 138.02 3163.04
   03:40:37.552.24-Mar-2020 4519.01 4441.29 82.51 3.00 138.22 3163.04
   03:40:37.752.24-Mar-2020 4519.01 4441.17 82.51 3.00 138.42 3163.04
   03:40:37.952.24-Mar-2020 4519.01 4441.22 82.51 3.00 138.62 3163.04
   03:40:38.152.24-Mar-2020 4519.01 4441.17 82.51 3.00 138.82 3163.04
   03:40:38.352.24-Mar-2020 4519.01 4441.19 82.51 3.00 139.02 3163.04
   03:40:38.552.24-Mar-2020 4519.01 4441.19 82.51 3.00 139.22 3163.04
   03:40:38.752.24-Mar-2020 4519.01 4441.01 82.51 3.00 139.42 3163.04
   03:40:38.952.24-Mar-2020 4519.01 4441.28 82.51 3.00 139.62 3163.04
   03:40:39.152.24-Mar-2020 4519.01 4441.31 82.51 3.00 139.82 3163.04
   03:40:39.352.24-Mar-2020 4519.01 4441.22 82.50 3.00 140.02 3163.04
   03:40:39.552.24-Mar-2020 4519.01 4441.29 82.50 3.00 140.22 3163.04
   03:40:39.752.24-Mar-2020 4519.01 4441.23 82.50 3.00 140.42 3163.04
   03:40:39.952.24-Mar-2020 4519.01 4441.22 82.50 3.00 140.62 3163.04
   03:40:40.152.24-Mar-2020 4519.01 4441.15 82.50 3.00 140.82 3163.04
   03:40:40.352.24-Mar-2020 4519.01 4441.21 82.50 3.00 141.02 3163.04
   03:40:40.552.24-Mar-2020 4519.01 4441.21 82.50 3.00 141.22 3163.04
   03:40:40.752.24-Mar-2020 4519.01 4441.23 82.50 3.00 141.42 3163.04
   03:40:40.952.24-Mar-2020 4519.01 4441.24 82.50 3.00 141.62 3163.04
   03:40:41.152.24-Mar-2020 4519.01 4441.23 82.50 3.00 141.82 3163.04
   03:40:41.352.24-Mar-2020 4519.01 4441.27 82.50 3.00 142.02 3163.04
   03:40:41.552.24-Mar-2020 4519.01 4441.27 82.50 3.00 142.22 3163.04
   03:40:41.753.24-Mar-2020 4519.01 4441.23 82.49 3.00 142.42 3163.04
   03:40:41.953.24-Mar-2020 4519.01 4448.70 82.49 3.00 142.62 3163.04
   03:40:42.153.24-Mar-2020 4519.01 4449.20 82.49 3.00 142.82 3163.04
   03:40:42.353.24-Mar-2020 4519.01 4449.32 82.49 3.00 143.02 3163.04
   03:40:42.553.24-Mar-2020 4519.01 4449.32 82.49 3.00 143.22 3163.04
   03:40:42.753.24-Mar-2020 4519.01 4449.32 82.49 3.00 143.42 3163.04
   03:40:42.953.24-Mar-2020 4519.01 4449.34 82.49 3.00 143.62 3163.04
   03:40:43.153.24-Mar-2020 4519.01 4449.33 82.49 3.00 143.82 3163.04
   03:40:43.353.24-Mar-2020 4519.01 4449.28 82.49 3.00 144.02 3163.04
   03:40:43.553.24-Mar-2020 4519.01 4449.38 82.49 3.00 144.22 3163.04
   03:40:43.753.24-Mar-2020 4519.01 4449.34 82.49 3.00 144.42 3163.04
   03:40:43.953.24-Mar-2020 4519.01 4449.29 82.49 3.00 144.62 3163.04
   03:40:44.153.24-Mar-2020 4519.01 4449.40 82.48 3.00 144.82 3163.04
   03:40:44.353.24-Mar-2020 4519.01 4449.32 82.48 3.00 145.02 3163.04
   03:40:44.553.24-Mar-2020 4519.01 4449.32 82.48 3.00 145.22 3163.04
   03:40:44.753.24-Mar-2020 4519.01 4449.36 82.48 3.00 145.42 3163.04
   03:40:44.953.24-Mar-2020 4519.01 4449.33 82.48 3.00 145.62 3163.04
   03:40:45.153.24-Mar-2020 4519.01 4449.33 82.48 3.00 145.82 3163.04
   03:40:45.353.24-Mar-2020 4519.01 4449.33 82.48 3.00 146.02 3163.04
   03:40:45.553.24-Mar-2020 4519.01 4449.33 82.48 3.00 146.22 3163.04
   03:40:45.753.24-Mar-2020 4519.01 4449.32 82.48 3.00 146.42 3163.04
   03:40:45.953.24-Mar-2020 4519.01 4449.32 82.48 3.00 146.62 3163.04
   03:40:46.153.24-Mar-2020 4519.01 4449.32 82.48 3.00 146.82 3163.04
   03:40:46.353.24-Mar-2020 4519.01 4449.36 82.48 3.00 147.02 3163.04
   03:40:46.553.24-Mar-2020 4519.01 4449.36 82.48 3.00 147.22 3163.04
   03:40:46.753.24-Mar-2020 4519.01 4449.33 82.47 3.00 147.42 3163.04
   03:40:46.953.24-Mar-2020 4519.01 4449.34 82.47 3.00 147.62 3163.04
   03:40:47.153.24-Mar-2020 4519.01 4449.32 82.47 3.00 147.82 3163.04
   03:40:47.353.24-Mar-2020 4519.01 4449.32 82.47 3.00 148.02 3163.04
   03:40:47.553.24-Mar-2020 4519.01 4449.32 82.47 3.00 148.22 3163.04
   03:40:47.754.24-Mar-2020 4519.01 4449.32 82.47 3.00 148.42 3163.04
   03:40:47.954.24-Mar-2020 4519.01 4449.32 82.47 3.00 148.62 3163.04
   03:40:48.154.24-Mar-2020 4519.01 4449.31 82.47 3.00 148.82 3163.04
   03:40:48.354.24-Mar-2020 4519.01 4449.31 82.47 3.00 149.02 3163.04
   03:40:48.554.24-Mar-2020 4519.01 4449.31 82.47 3.00 149.22 3163.04
   03:40:48.754.24-Mar-2020 4519.01 4449.36 82.47 3.00 149.42 3163.04
   03:40:48.954.24-Mar-2020 4519.01 4449.30 82.46 3.00 149.62 3163.04
   03:40:49.154.24-Mar-2020 4519.01 4449.33 82.46 3.00 149.82 3163.04
   03:40:49.354.24-Mar-2020 4519.01 4449.31 82.46 3.00 150.02 3163.04
   03:40:49.554.24-Mar-2020 4519.01 4449.31 82.46 3.00 150.23 3163.04
   03:40:49.754.24-Mar-2020 4519.01 4449.35 82.46 3.00 150.43 3163.04
   03:40:49.954.24-Mar-2020 4519.01 4449.30 82.46 3.00 150.63 3163.04
   03:40:50.154.24-Mar-2020 4519.01 4449.32 82.46 3.00 150.83 3163.04
   03:40:50.354.24-Mar-2020 4519.01 4449.27 82.46 3.00 151.03 3163.04
   03:40:50.554.24-Mar-2020 4519.01 4449.37 82.46 3.00 151.23 3163.04
   03:40:50.754.24-Mar-2020 4519.01 4449.31 82.46 3.00 151.43 3163.04
   03:40:50.954.24-Mar-2020 4519.01 4449.31 82.46 3.00 151.63 3163.04
   03:40:51.154.24-Mar-2020 4519.01 4449.35 82.46 3.00 151.83 3163.04
   03:40:51.354.24-Mar-2020 4519.01 4449.30 82.45 3.00 152.03 3163.04
   03:40:51.554.24-Mar-2020 4519.01 4449.34 82.45 3.00 152.23 3163.04
   03:40:51.754.24-Mar-2020 4519.01 4449.32 82.45 3.00 152.43 3163.04
   03:40:51.954.24-Mar-2020 4519.01 4449.32 82.45 3.00 152.63 3163.04
   03:40:52.154.24-Mar-2020 4519.01 4449.32 82.45 3.00 152.83 3163.04
   03:40:52.354.24-Mar-2020 4519.01 4449.31 82.45 3.00 153.03 3163.04
   03:40:52.554.24-Mar-2020 4519.01 4449.31 82.45 3.00 153.23 3163.04
   03:40:52.754.24-Mar-2020 4519.01 4449.31 82.45 3.00 153.43 3163.04
   03:40:52.954.24-Mar-2020 4519.01 4449.25 82.45 3.00 153.63 3163.04
   03:40:53.154.24-Mar-2020 4519.01 4449.34 82.45 3.00 153.83 3163.04
   03:40:53.354.24-Mar-2020 4519.01 4449.32 82.45 3.00 154.03 3163.04
   03:40:53.554.24-Mar-2020 4519.01 4449.32 82.45 3.00 154.23 3163.04
   03:40:53.755.24-Mar-2020 4519.01 4449.31 82.44 3.00 154.43 3163.04
   03:40:53.955.24-Mar-2020 4519.01 4449.30 82.44 3.00 154.63 3163.04
   03:40:54.155.24-Mar-2020 4519.01 4449.29 82.44 3.00 154.83 3163.04
   03:40:54.355.24-Mar-2020 4519.01 4449.30 82.44 3.00 155.03 3163.04
   03:40:54.555.24-Mar-2020 4519.01 4449.30 82.44 3.00 155.23 3163.04
   03:40:54.755.24-Mar-2020 4519.01 4449.29 82.44 3.00 155.43 3163.04
   03:40:54.955.24-Mar-2020 4519.01 4449.30 82.44 3.00 155.63 3163.04
   03:40:55.155.24-Mar-2020 4519.01 4449.30 82.44 3.00 155.83 3163.04
   03:40:55.355.24-Mar-2020 4519.01 4449.28 82.44 3.00 156.03 3163.04
   03:40:55.555.24-Mar-2020 4519.01 4449.28 82.44 3.00 156.23 3163.04
   03:40:55.755.24-Mar-2020 4519.01 4449.31 82.44 3.00 156.43 3163.04
   03:40:55.955.24-Mar-2020 4519.01 4449.28 82.44 3.00 156.63 3163.04
   03:40:56.155.24-Mar-2020 4519.01 4449.31 82.43 3.00 156.83 3163.04
   03:40:56.355.24-Mar-2020 4519.01 4449.25 82.43 3.00 157.03 3163.04
   03:40:56.555.24-Mar-2020 4519.01 4449.25 82.43 3.00 157.23 3163.04
   03:40:56.755.24-Mar-2020 4519.01 4449.28 82.43 3.00 157.43 3163.04
   03:40:56.955.24-Mar-2020 4519.01 4449.31 82.43 3.00 157.63 3163.04
   03:40:57.155.24-Mar-2020 4519.01 4449.30 82.43 3.00 157.83 3163.04
   03:40:57.355.24-Mar-2020 4519.01 4449.25 82.43 3.00 158.03 3163.04
   03:40:57.555.24-Mar-2020 4519.01 4449.25 82.43 3.00 158.23 3163.04
   03:40:57.755.24-Mar-2020 4519.01 4449.30 82.43 3.00 158.43 3163.04
   03:40:57.955.24-Mar-2020 4519.01 4449.24 82.43 3.00 158.63 3163.04
   03:40:58.155.24-Mar-2020 4519.01 4449.35 82.43 3.00 158.83 3163.04
   03:40:58.355.24-Mar-2020 4519.01 4449.29 82.43 3.00 159.03 3163.04
   03:40:58.555.24-Mar-2020 4519.01 4449.29 82.43 3.00 159.23 3163.04
   03:40:58.755.24-Mar-2020 4519.01 4449.31 82.42 3.00 159.43 3163.04
   03:40:58.955.24-Mar-2020 4519.01 4449.30 82.42 3.00 159.63 3163.04
   03:40:59.155.24-Mar-2020 4519.01 4449.29 82.42 3.00 159.83 3163.04
   03:40:59.355.24-Mar-2020 4519.01 4449.29 82.42 3.00 160.03 3163.04
   03:40:59.555.24-Mar-2020 4519.01 4449.28 82.42 3.00 160.23 3163.04
   03:40:59.756.24-Mar-2020 4519.01 4449.26 82.42 3.00 160.43 3163.04
   03:40:59.956.24-Mar-2020 4519.01 4449.31 82.42 3.00 160.63 3163.04
   03:41:00.156.24-Mar-2020 4519.01 4449.27 82.42 3.00 160.83 3163.04
