~Version Information
 VERS.                  2.0:   CWLS log ASCII Standard -VERSION 2.0
 WRAP.                   NO:   One line per depth step
~Well Information Block
#MNEM.UNIT     VALUE/NAME     DESCRIPTION
#---------     -----------    ---------------------------
 STRT.S             22:02:54 23-Mar-20: START TIME 22:02:54 23-Mar-20
 STOP.S             22:09:24 23-Mar-20: STOP TIME  22:09:24 23-Mar-20
 STEP.S                   0.00: STEP TIME
 NULL.                 -999.25: NULL VALUE
 DFWT.                        :  DIST FWL TEXT
 DFST.                        :  DIST FSL TEXT
 DMF .             Drill Floor:  DRILL MEAS FROM
 STIM.      22.30.00 15-Feb-20:  START TIME
 DATE.      17.00.00 25-Mar-20:  END TIME
 SPUD.               15-Feb-20:  SPUD DATE
 NREF.                    Grid:  NORTH REFERENCE
 HPTY.       Minimum Curvature:  HOLE POS TYPE
 DMOD.             Drill Model:  DRILL MOD DESC
 SVYD.                  Survey:  SURVEY DESC
 ILTD.               Lithology:  INTERP LTH DESC
 FTOP.          Formation Tops:  FORM TOPS DESC
 SON .        AZ-XX-0906019077:  JOB NUMBER
 PDAT.          Mean Sea Level:  PERMANENT DATUM
 WTYP.                Deviated:  WELL TYPE
 MDS .        Operator Entered:  MAG DATA SOURCE
 COMP.     BP Exploration (Caspian sea) Ltd.:  COMPANY
 UWI .                     N/A:  UNIQUE WELL IDENTIFIER
 API .                     N/A:  API NUMBER
 BASE.              Azerbaijan:  LOGGING EQUIPMENT BASE LOCATION
 REGN.                   EESSA:  REGION
 PROV.                     N/A:  PROVINCE
 STAT.                     N/A:  STATE NAME
 CTRY.              Azerbaijan:  COUNTRY NAME
 FLD .                     ACG:  FIELD NAME
 SRVC.          Turan Drilling:  CONTRACTOR
 MWDS.                    Baku:  MWD SHOP
 WELL.                    E16W:  WELL NAME
 JOBN.        AZ-XX-0906019077:  JOB TICKET NUMB
 RIG .                     DWG:  RIG NAME
 CNTY.                     N/A:  COUNTY NAME
 DCON.         Sperry Drilling:  DIRECTNL CONTR
 UNIT.                     N/A:  LOGGING EQUIPMENT ID
 LOC .                        :  LOCATION
 LMF .             Drill Floor:  LOG MEASURED FROM
 TVDS.m                  43.16:  TVDSS CORRECTN
 LATI.deg                40.17:  LATITUDE
 LONG.deg                51.17:  LONGITUDE
 WHNS.m                 -15.30:  WELL HEAD N/S
 WHEW.m                  -1.29:  WELL HEAD E/W
 UTMX.m              514337.95:  UTM X
 UTMY.m             4448627.46:  UTM Y
 DFWL.m                   0.00:  DISTANCE FWL
 DFSL.m                   0.00:  DISTANCE FSL
 SDEP.m                3499.01:  START DEPTH
 TDD .m                4606.01:  TOTAL DEPTH (DRILLER)
 VSDR.deg               151.14:  VERT SEC DIRECT
 GVFD.g                   1.00:  GRAVITY FIELD
 MFLD.nT              50334.00:  MAGNETIC FIELD
 MDIP.deg                59.62:  MAGNETIC DIP
 MDEC.deg                 6.46:  MAGNETIC DECL
 GRDC.deg                 0.12:  GRID CORRECTION
 AZTC.deg                 6.34:  AZM TOTAL CORR
 EPD .m                   0.00:  ELEVATION
 EGL .m                   0.00:  GROUND ELEVATION
 WDMS.m                 176.20:  WD ELEV
 APD .m                  43.16:  DEPTH ABOVE PD
 VSEW.m                  -1.29:  VERT SEC E/W
 VSNS.m                 -15.30:  VERT SEC N/S
 AGAP.m                  43.16:  AIR GAP
 EKB .m                   0.00:  KB ELEVATION
 EDF .m                  43.16:  DF ELEVATION
 TDL .m                 103.00:  TOTAL DEPTH (LOGGER)
 VSC .                       0:  VS TO CLOSURE
 MAGU.                 1852525:  MAGUTM CHECKSUM
~Parameter Information Block
#MNEM.UNIT       Value        Description
#---------     -----------    ---------------------------
 AV  .mps                 1.01:  Ann Velocity 
 AVMX.mps                 1.32:  Max Ann Veloc 
 AZIF.deg               140.63:  Azm, Final 
 BHAT.        Rotary Steerable:  BHA Type 
 BREV.rev            151000.00:  Rev Bit Total 
 BROT.°/30m               0.65:  Build Rotating 
 BS  .in                  6.50:  Bit Size 
 BSZ .in                  6.50:  Bit Size 
 BTPL.psig              222.00:  Bit Press Loss 
 CABU.                      No:  Customer Abuse 
 CGEO.           Emin Aliyarov:  Customer Geo 
 COMM.                     L5S:  Run Comments 1 
 TCS .hr                 22.89:  Time Ciculation Ended 
 CV  .mps                 2.20:  Crit Velocity 
 CVMX.mps                 3.04:  Max Crit Veloc 
 DD1 .         Intigam Rahimov:  Direct Drillr 1 
 DDSV.               Geo-Pilot:  DD Service 
 DEFF.%                  91.50:  % Det Eff 
 DLRX.°/30m               1.15:  Dogleg Rot Max 
 DLSO.°/30m               0.86:  Dogleg Oriented 
 DLSX.°/30m               1.15:  Dogleg Str Max 
 DRET.      13.10.00 24-Mar-20:  Drill End Time 
 DRST.      17.00.00 23-Mar-20:  Drill Start Tim 
 DTIM.hr                 11.87:  Time Drilling 
 EDEP.m                4606.01:  End Depth 
 ENG1.          Rasim Hashimov:  Engineer 1 
 ENG2.            Alan Tuganov:  Engineer 2 
 ENG3.         Yevgeniy Ulikov:  Engineer 3 
 ETIM.      16.00.00 25-Mar-20:  End Time 
 FLOI.gpm               400.00:  Flow In 
 FLON.gpm               350.00:  Flow In Min 
 FLOS.cptm                0.00:  Fluid Loss 
 FLOX.gpm               400.00:  Flow In Max 
 FTRO.       Formation Presure:  FTWD Run Obj 
 HFLO.                      No:  High Flow 
 HPRE.                      No:  High Pressure 
 HTEM.                      No:  High Temp 
 HYDO.m                   1.80:  Hydro Offset 
 IFIN.deg                79.55:  Inc, Final 
 IMAX.deg                79.55:  Inc Max 
 IMIN.deg                78.04:  Inc Min 
 IMND.m                4502.50:  Inc Min Depth 
 IMXD.m                4587.87:  Inc Max Depth 
 JARR.                      No:  Jarring 
 LETM.      13.10.00 24-Mar-20:  Log End Time 
 LOST.hr                     0:  Lost Rig Time 
 LSTM.      17.00.00 23-Mar-20:  Log Start Time 
 MDCL.ppm             39000.00:  Mud Chlorides 
 MDES.     Inversion Oil/Synthetic:  Mud Desc 
 DFD .sg                  1.40:  Mud Density 
 MDMN.sg                  1.40:  Dens Mud Min 
 MDMX.sg                  1.40:  Dens Mud Max 
 MOIL.                    55.2:  Run Mud Oil % 
 MOWR.                   68:32:  Run Mud OWR 
 MSND.                     0.1:  Run Mud Sand % 
 MSOL.                    17.8:  Run Mud Solids% 
 DFV .spqt               76.00:  Mud Viscosity 
 MWOD.in                  4.75:  MWD Tool OD 
 MWSI.                      No:  Serv Intrp, MWD 
 OTIM.hr                 64.35:  Time Operating 
 PCON.           Look Like New:  Pad Condition 
 PMAX.psia             5350.00:  Press Op, Max 
 PV  .cP                 26.00:  Mud PV 
 RUN .                     900:  Run Number 
 ROPA.m/hr                9.00:  ROP Avg 
 ROPN.m/hr                7.00:  ROP Min 
 ROPX.m/hr               13.00:  ROP Max 
 RPMA.rpm               140.00:  RPM Surface Avg 
 RPMN.rpm               140.00:  RPM Surface Min 
 RPMX.rpm               140.00:  RPM Surface Max 
 RRUN.                    L204:  Rig Run Number 
 RTIM.hr                  4.50:  Time Reaming 
 SAZI.deg               141.40:  Azm, Start 
 SDEP.m                4503.01:  Start Depth 
 SIDD.                      No:  Serv Intrp, DD 
 SINC.deg                78.04:  Inc, Start 
 SPPA.psig             5300.00:  SPP Avg 
 SPPN.psig             5100.00:  SPP Min 
 SPPX.psig             5500.00:  SPP Max 
 STIM.      18.00.00 22-Mar-20:  Start Time 
 SVCS.                 DD, MWD:  Services 
 SVER.                    9.20:  Sperry Version 
 TDAT.m                 103.00:  Tot Depth Attmp 
 TDDF.                      No:  Trip for DD 
 TDLG.m                 103.00:  Tot Depth Loggd 
 TFF .                      No:  Trip for Fail 
 TQAA.f-kp               14.00:  Torque Abs Avg 
 TQAN.f-kp               12.00:  Torque Abs Min 
 TQAX.f-kp               16.00:  Torque Abs Max 
 TRRT.°/30m               0.45:  Turn Rotating 
 MRT .                    HCIM:  Maximum Recorded Temperature 
 TTMX.degC               90.20:  Max Tool Temp 
 VS01.         90577859G12V7D4:  Virtual Str1 SN 
 VS02.            90519330D5C4:  Virtual Str2 SN 
 VS03.             90603450F11:  Virtual Str3 SN 
 VS04.           90515383R12C4:  Virtual Str4 SN 
 VS05.          90522017N2L2C4:  Virtual Str5 SN 
 VS06.            90512682Z1W1:  Virtual Str6 SN 
 WBMN.klb                 5.00:  WOB Min 
 WITN.        Elmaddin Rahimov:  Customer Rep 
 WITN.           Adil Mammadov:  Customer Rep 2 
 WOBA.klb                 8.00:  WOB Avg 
 WOBX.klb                13.00:  WOB Max 
 YP  .lhf2               31.00:  Yield Point 
~Curve Information Block
#MNEM.UNIT                 API CODE     Curve Description
#---------               -----------    ---------------------------
 TIME.HHMMSS            00 000 000 000:  GT Time & Date
 GTDEPTH.m              00 000 000 000:  GT Depth
 GTPQH.psia             00 000 000 000:  GT HR Quartz Pressure
 GTTQ.degC              00 000 000 000:  GT Quartz Temperature
 GTTN.NONE              00 000 000 000:  GT Test Number
 GTET.sec               00 000 000 000:  GT Elapsed Test Time
 GTTVD.m                00 000 000 000:  GT True Vertical Depth
#Other Information
#
#WARRANTY: Halliburton will use its best efforts to furnish customers with 
#accurate information and interpretations that are part of, and incident to, the services 
#provided.  However, Halliburton cannot and does not warrant the accuracy 
#or correctness of such information and interpretations.  Under no circumstances should any 
#such information or interpretation be relied upon as the sole basis for any drilling, 
#completion, production, or financial decision or any procedure involving any risk to the 
#safety of any drilling venture, drilling rig or its crew or any other third party.  The 
#Customer has full responsibility for all drilling, completion and production operation.  
#Halliburton makes no representations or warranties, either expressed or 
#implied, including, but not limited to, the implied warranties of merchantability or fitness 
#for a particular purpose, with respect to the services rendered.  In no event will 
#Halliburton be liable for failure to obtain any particular results or for 
#any damages, including, but not limited to, indirect, special or consequential damages, 
#resulting from the use of any information or interpretation provided by Halliburton.
#
~A           TIME           GTDEPTH  GTPQH  GTTQ  GTTN  GTET   GTTVD  
# ...
   22:08:16.956.23-Mar-2020 4483.01 4531.42 76.14 1.00 322.06 3155.68
   22:08:17.156.23-Mar-2020 4483.01 4531.42 76.14 1.00 322.26 3155.68
   22:08:17.356.23-Mar-2020 4483.01 4531.40 76.14 1.00 322.46 3155.68
   22:08:17.556.23-Mar-2020 4483.01 4531.40 76.14 1.00 322.66 3155.68
   22:08:17.756.23-Mar-2020 4483.01 4531.39 76.14 1.00 322.86 3155.68
   22:08:17.956.23-Mar-2020 4483.01 4531.39 76.14 1.00 323.06 3155.68
   22:08:18.156.23-Mar-2020 4483.01 4531.39 76.14 1.00 323.26 3155.68
   22:08:18.356.23-Mar-2020 4483.01 4531.39 76.14 1.00 323.46 3155.68
   22:08:18.556.23-Mar-2020 4483.01 4531.36 76.14 1.00 323.66 3155.68
   22:08:18.756.23-Mar-2020 4483.01 4531.39 76.14 1.00 323.86 3155.68
   22:08:18.956.23-Mar-2020 4483.01 4531.40 76.14 1.00 324.06 3155.68
   22:08:19.156.23-Mar-2020 4483.01 4531.40 76.14 1.00 324.26 3155.68
   22:08:19.356.23-Mar-2020 4483.01 4531.40 76.13 1.00 324.46 3155.68
   22:08:19.556.23-Mar-2020 4483.01 4531.39 76.13 1.00 324.66 3155.68
   22:08:19.756.23-Mar-2020 4483.01 4531.39 76.13 1.00 324.86 3155.68
   22:08:19.956.23-Mar-2020 4483.01 4531.39 76.13 1.00 325.06 3155.68
   22:08:20.156.23-Mar-2020 4483.01 4531.39 76.13 1.00 325.26 3155.68
   22:08:20.357.23-Mar-2020 4483.01 4531.37 76.13 1.00 325.46 3155.68
   22:08:20.557.23-Mar-2020 4483.01 4531.39 76.13 1.00 325.66 3155.68
   22:08:20.757.23-Mar-2020 4483.01 4531.39 76.13 1.00 325.86 3155.68
   22:08:20.957.23-Mar-2020 4483.01 4531.39 76.13 1.00 326.06 3155.68
   22:08:21.157.23-Mar-2020 4483.01 4531.36 76.13 1.00 326.26 3155.68
   22:08:21.357.23-Mar-2020 4483.01 4531.32 76.13 1.00 326.46 3155.68
   22:08:21.557.23-Mar-2020 4483.01 4531.39 76.13 1.00 326.66 3155.68
   22:08:21.757.23-Mar-2020 4483.01 4531.42 76.13 1.00 326.86 3155.68
   22:08:21.957.23-Mar-2020 4483.01 4531.38 76.13 1.00 327.06 3155.68
   22:08:22.157.23-Mar-2020 4483.01 4531.38 76.13 1.00 327.26 3155.68
   22:08:22.357.23-Mar-2020 4483.01 4531.38 76.13 1.00 327.46 3155.68
   22:08:22.557.23-Mar-2020 4483.01 4531.38 76.13 1.00 327.66 3155.68
   22:08:22.757.23-Mar-2020 4483.01 4531.37 76.12 1.00 327.86 3155.68
   22:08:22.957.23-Mar-2020 4483.01 4531.40 76.12 1.00 328.06 3155.68
   22:08:23.157.23-Mar-2020 4483.01 4531.40 76.12 1.00 328.26 3155.68
   22:08:23.357.23-Mar-2020 4483.01 4531.38 76.12 1.00 328.46 3155.68
   22:08:23.557.23-Mar-2020 4483.01 4531.38 76.12 1.00 328.66 3155.68
   22:08:23.757.23-Mar-2020 4483.01 4531.40 76.12 1.00 328.86 3155.68
   22:08:23.957.23-Mar-2020 4483.01 4531.40 76.12 1.00 329.06 3155.68
   22:08:24.157.23-Mar-2020 4483.01 4531.40 76.12 1.00 329.26 3155.68
   22:08:24.357.23-Mar-2020 4483.01 4531.37 76.12 1.00 329.46 3155.68
   22:08:24.557.23-Mar-2020 4483.01 4531.38 76.12 1.00 329.66 3155.68
   22:08:24.757.23-Mar-2020 4483.01 4531.38 76.12 1.00 329.86 3155.68
   22:08:24.957.23-Mar-2020 4483.01 4531.38 76.12 1.00 330.06 3155.68
   22:08:25.157.23-Mar-2020 4483.01 4531.40 76.12 1.00 330.26 3155.68
   22:08:25.357.23-Mar-2020 4483.01 4531.38 76.12 1.00 330.46 3155.68
   22:08:25.557.23-Mar-2020 4483.01 4531.39 76.12 1.00 330.66 3155.68
   22:08:25.757.23-Mar-2020 4483.01 4531.37 76.12 1.00 330.86 3155.68
   22:08:25.957.23-Mar-2020 4483.01 4531.39 76.12 1.00 331.06 3155.68
   22:08:26.158.23-Mar-2020 4483.01 4531.39 76.12 1.00 331.26 3155.68
   22:08:26.358.23-Mar-2020 4483.01 4531.31 76.11 1.00 331.46 3155.68
   22:08:26.558.23-Mar-2020 4483.01 4531.40 76.11 1.00 331.66 3155.68
   22:08:26.758.23-Mar-2020 4483.01 4531.43 76.11 1.00 331.86 3155.68
   22:08:26.958.23-Mar-2020 4483.01 4531.38 76.11 1.00 332.06 3155.68
   22:08:27.158.23-Mar-2020 4483.01 4531.38 76.11 1.00 332.26 3155.68
   22:08:27.358.23-Mar-2020 4483.01 4531.36 76.11 1.00 332.46 3155.68
   22:08:27.558.23-Mar-2020 4483.01 4531.38 76.11 1.00 332.66 3155.68
   22:08:27.758.23-Mar-2020 4483.01 4531.37 76.11 1.00 332.86 3155.68
   22:08:27.958.23-Mar-2020 4483.01 4531.38 76.11 1.00 333.06 3155.68
   22:08:28.158.23-Mar-2020 4483.01 4531.38 76.11 1.00 333.26 3155.68
   22:08:28.358.23-Mar-2020 4483.01 4531.38 76.11 1.00 333.46 3155.68
   22:08:28.558.23-Mar-2020 4483.01 4531.38 76.11 1.00 333.66 3155.68
   22:08:28.758.23-Mar-2020 4483.01 4531.38 76.11 1.00 333.86 3155.68
   22:08:28.958.23-Mar-2020 4483.01 4531.37 76.11 1.00 334.06 3155.68
   22:08:29.158.23-Mar-2020 4483.01 4531.36 76.11 1.00 334.26 3155.68
   22:08:29.358.23-Mar-2020 4483.01 4531.36 76.11 1.00 334.46 3155.68
   22:08:29.558.23-Mar-2020 4483.01 4531.38 76.11 1.00 334.66 3155.68
   22:08:29.758.23-Mar-2020 4483.01 4531.39 76.11 1.00 334.86 3155.68
   22:08:29.958.23-Mar-2020 4483.01 4531.37 76.10 1.00 335.06 3155.68
   22:08:30.158.23-Mar-2020 4483.01 4531.37 76.10 1.00 335.26 3155.68
   22:08:30.358.23-Mar-2020 4483.01 4531.39 76.10 1.00 335.46 3155.68
   22:08:30.558.23-Mar-2020 4483.01 4531.40 76.10 1.00 335.66 3155.68
   22:08:30.758.23-Mar-2020 4483.01 4531.37 76.10 1.00 335.86 3155.68
   22:08:30.958.23-Mar-2020 4483.01 4531.33 76.10 1.00 336.06 3155.68
   22:08:31.158.23-Mar-2020 4483.01 4531.33 76.10 1.00 336.26 3155.68
   22:08:31.358.23-Mar-2020 4483.01 4531.41 76.10 1.00 336.46 3155.68
   22:08:31.558.23-Mar-2020 4483.01 4531.37 76.10 1.00 336.66 3155.68
   22:08:31.758.23-Mar-2020 4483.01 4531.39 76.10 1.00 336.86 3155.68
   22:08:31.959.23-Mar-2020 4483.01 4531.37 76.10 1.00 337.06 3155.68
   22:08:32.159.23-Mar-2020 4483.01 4531.37 76.10 1.00 337.26 3155.68
   22:08:32.359.23-Mar-2020 4483.01 4531.38 76.10 1.00 337.46 3155.68
   22:08:32.559.23-Mar-2020 4483.01 4531.41 76.10 1.00 337.66 3155.68
   22:08:32.759.23-Mar-2020 4483.01 4531.37 76.10 1.00 337.86 3155.68
   22:08:32.959.23-Mar-2020 4483.01 4531.37 76.10 1.00 338.06 3155.68
   22:08:33.159.23-Mar-2020 4483.01 4531.38 76.10 1.00 338.26 3155.68
   22:08:33.359.23-Mar-2020 4483.01 4531.37 76.10 1.00 338.46 3155.68
   22:08:33.559.23-Mar-2020 4483.01 4531.37 76.09 1.00 338.66 3155.68
   22:08:33.759.23-Mar-2020 4483.01 4531.36 76.09 1.00 338.86 3155.68
   22:08:33.959.23-Mar-2020 4483.01 4531.37 76.09 1.00 339.06 3155.68
   22:08:34.159.23-Mar-2020 4483.01 4531.37 76.09 1.00 339.26 3155.68
   22:08:34.359.23-Mar-2020 4483.01 4531.37 76.09 1.00 339.46 3155.68
   22:08:34.559.23-Mar-2020 4483.01 4531.37 76.09 1.00 339.66 3155.68
   22:08:34.759.23-Mar-2020 4483.01 4531.39 76.09 1.00 339.86 3155.68
   22:08:34.959.23-Mar-2020 4483.01 4531.38 76.09 1.00 340.06 3155.68
   22:08:35.159.23-Mar-2020 4483.01 4531.38 76.09 1.00 340.26 3155.68
   22:08:35.359.23-Mar-2020 4483.01 4531.36 76.09 1.00 340.46 3155.68
   22:08:35.559.23-Mar-2020 4483.01 4531.38 76.09 1.00 340.66 3155.68
   22:08:35.759.23-Mar-2020 4483.01 4531.36 76.09 1.00 340.86 3155.68
   22:08:35.959.23-Mar-2020 4483.01 4531.38 76.09 1.00 341.06 3155.68
   22:08:36.159.23-Mar-2020 4483.01 4531.38 76.09 1.00 341.26 3155.68
   22:08:36.359.23-Mar-2020 4483.01 4531.39 76.09 1.00 341.46 3155.68
   22:08:36.559.23-Mar-2020 4483.01 4531.35 76.09 1.00 341.66 3155.68
   22:08:36.759.23-Mar-2020 4483.01 4531.34 76.09 1.00 341.86 3155.68
   22:08:36.959.23-Mar-2020 4483.01 4531.37 76.09 1.00 342.06 3155.68
   22:08:37.159.23-Mar-2020 4483.01 4531.37 76.09 1.00 342.26 3155.68
   22:08:37.359.23-Mar-2020 4483.01 4531.36 76.08 1.00 342.46 3155.68
   22:08:37.559.23-Mar-2020 4483.01 4531.38 76.08 1.00 342.66 3155.68
   22:08:37.760.23-Mar-2020 4483.01 4531.36 76.08 1.00 342.86 3155.68
   22:08:37.960.23-Mar-2020 4483.01 4531.32 76.08 1.00 343.06 3155.68
   22:08:38.160.23-Mar-2020 4483.01 4531.32 76.08 1.00 343.26 3155.68
   22:08:38.360.23-Mar-2020 4483.01 4531.40 76.08 1.00 343.46 3155.68
   22:08:38.560.23-Mar-2020 4483.01 4531.37 76.08 1.00 343.66 3155.68
   22:08:38.760.23-Mar-2020 4483.01 4531.32 76.08 1.00 343.86 3155.68
   22:08:38.960.23-Mar-2020 4483.01 4531.38 76.08 1.00 344.06 3155.68
   22:08:39.160.23-Mar-2020 4483.01 4531.38 76.08 1.00 344.26 3155.68
   22:08:39.360.23-Mar-2020 4483.01 4531.39 76.08 1.00 344.46 3155.68
   22:08:39.560.23-Mar-2020 4483.01 4531.37 76.08 1.00 344.66 3155.68
   22:08:39.760.23-Mar-2020 4483.01 4531.37 76.08 1.00 344.86 3155.68
