~Version Information
 VERS.                  2.0:   CWLS log ASCII Standard -VERSION 2.0
 WRAP.                   NO:   One line per depth step
~Well Information Block
#MNEM.UNIT     VALUE/NAME     DESCRIPTION
#---------     -----------    ---------------------------
 STRT.S             22:02:54 23-Mar-20: START TIME 22:02:54 23-Mar-20
 STOP.S             22:09:24 23-Mar-20: STOP TIME  22:09:24 23-Mar-20
 STEP.S                   0.00: STEP TIME
 NULL.                 -999.25: NULL VALUE
 DFWT.                        :  DIST FWL TEXT
 DFST.                        :  DIST FSL TEXT
 DMF .             Drill Floor:  DRILL MEAS FROM
 STIM.      22.30.00 15-Feb-20:  START TIME
 DATE.      17.00.00 25-Mar-20:  END TIME
 SPUD.               15-Feb-20:  SPUD DATE
 NREF.                    Grid:  NORTH REFERENCE
 HPTY.       Minimum Curvature:  HOLE POS TYPE
 DMOD.             Drill Model:  DRILL MOD DESC
 SVYD.                  Survey:  SURVEY DESC
 ILTD.               Lithology:  INTERP LTH DESC
 FTOP.          Formation Tops:  FORM TOPS DESC
 SON .        AZ-XX-0906019077:  JOB NUMBER
 PDAT.          Mean Sea Level:  PERMANENT DATUM
 WTYP.                Deviated:  WELL TYPE
 MDS .        Operator Entered:  MAG DATA SOURCE
 COMP.     BP Exploration (Caspian sea) Ltd.:  COMPANY
 UWI .                     N/A:  UNIQUE WELL IDENTIFIER
 API .                     N/A:  API NUMBER
 BASE.              Azerbaijan:  LOGGING EQUIPMENT BASE LOCATION
 REGN.                   EESSA:  REGION
 PROV.                     N/A:  PROVINCE
 STAT.                     N/A:  STATE NAME
 CTRY.              Azerbaijan:  COUNTRY NAME
 FLD .                     ACG:  FIELD NAME
 SRVC.          Turan Drilling:  CONTRACTOR
 MWDS.                    Baku:  MWD SHOP
 WELL.                    E16W:  WELL NAME
 JOBN.        AZ-XX-0906019077:  JOB TICKET NUMB
 RIG .                     DWG:  RIG NAME
 CNTY.                     N/A:  COUNTY NAME
 DCON.         Sperry Drilling:  DIRECTNL CONTR
 UNIT.                     N/A:  LOGGING EQUIPMENT ID
 LOC .                        :  LOCATION
 LMF .             Drill Floor:  LOG MEASURED FROM
 TVDS.m                  43.16:  TVDSS CORRECTN
 LATI.deg                40.17:  LATITUDE
 LONG.deg                51.17:  LONGITUDE
 WHNS.m                 -15.30:  WELL HEAD N/S
 WHEW.m                  -1.29:  WELL HEAD E/W
 UTMX.m              514337.95:  UTM X
 UTMY.m             4448627.46:  UTM Y
 DFWL.m                   0.00:  DISTANCE FWL
 DFSL.m                   0.00:  DISTANCE FSL
 SDEP.m                3499.01:  START DEPTH
 TDD .m                4606.01:  TOTAL DEPTH (DRILLER)
 VSDR.deg               151.14:  VERT SEC DIRECT
 GVFD.g                   1.00:  GRAVITY FIELD
 MFLD.nT              50334.00:  MAGNETIC FIELD
 MDIP.deg                59.62:  MAGNETIC DIP
 MDEC.deg                 6.46:  MAGNETIC DECL
 GRDC.deg                 0.12:  GRID CORRECTION
 AZTC.deg                 6.34:  AZM TOTAL CORR
 EPD .m                   0.00:  ELEVATION
 EGL .m                   0.00:  GROUND ELEVATION
 WDMS.m                 176.20:  WD ELEV
 APD .m                  43.16:  DEPTH ABOVE PD
 VSEW.m                  -1.29:  VERT SEC E/W
 VSNS.m                 -15.30:  VERT SEC N/S
 AGAP.m                  43.16:  AIR GAP
 EKB .m                   0.00:  KB ELEVATION
 EDF .m                  43.16:  DF ELEVATION
 TDL .m                 103.00:  TOTAL DEPTH (LOGGER)
 VSC .                       0:  VS TO CLOSURE
 MAGU.                 1852525:  MAGUTM CHECKSUM
~Parameter Information Block
#MNEM.UNIT       Value        Description
#---------     -----------    ---------------------------
 AV  .mps                 1.01:  Ann Velocity 
 AVMX.mps                 1.32:  Max Ann Veloc 
 AZIF.deg               140.63:  Azm, Final 
 BHAT.        Rotary Steerable:  BHA Type 
 BREV.rev            151000.00:  Rev Bit Total 
 BROT.°/30m               0.65:  Build Rotating 
 BS  .in                  6.50:  Bit Size 
 BSZ .in                  6.50:  Bit Size 
 BTPL.psig              222.00:  Bit Press Loss 
 CABU.                      No:  Customer Abuse 
 CGEO.           Emin Aliyarov:  Customer Geo 
 COMM.                     L5S:  Run Comments 1 
 TCS .hr                 22.89:  Time Ciculation Ended 
 CV  .mps                 2.20:  Crit Velocity 
 CVMX.mps                 3.04:  Max Crit Veloc 
 DD1 .         Intigam Rahimov:  Direct Drillr 1 
 DDSV.               Geo-Pilot:  DD Service 
 DEFF.%                  91.50:  % Det Eff 
 DLRX.°/30m               1.15:  Dogleg Rot Max 
 DLSO.°/30m               0.86:  Dogleg Oriented 
 DLSX.°/30m               1.15:  Dogleg Str Max 
 DRET.      13.10.00 24-Mar-20:  Drill End Time 
 DRST.      17.00.00 23-Mar-20:  Drill Start Tim 
 DTIM.hr                 11.87:  Time Drilling 
 EDEP.m                4606.01:  End Depth 
 ENG1.          Rasim Hashimov:  Engineer 1 
 ENG2.            Alan Tuganov:  Engineer 2 
 ENG3.         Yevgeniy Ulikov:  Engineer 3 
 ETIM.      16.00.00 25-Mar-20:  End Time 
 FLOI.gpm               400.00:  Flow In 
 FLON.gpm               350.00:  Flow In Min 
 FLOS.cptm                0.00:  Fluid Loss 
 FLOX.gpm               400.00:  Flow In Max 
 FTRO.       Formation Presure:  FTWD Run Obj 
 HFLO.                      No:  High Flow 
 HPRE.                      No:  High Pressure 
 HTEM.                      No:  High Temp 
 HYDO.m                   1.80:  Hydro Offset 
 IFIN.deg                79.55:  Inc, Final 
 IMAX.deg                79.55:  Inc Max 
 IMIN.deg                78.04:  Inc Min 
 IMND.m                4502.50:  Inc Min Depth 
 IMXD.m                4587.87:  Inc Max Depth 
 JARR.                      No:  Jarring 
 LETM.      13.10.00 24-Mar-20:  Log End Time 
 LOST.hr                     0:  Lost Rig Time 
 LSTM.      17.00.00 23-Mar-20:  Log Start Time 
 MDCL.ppm             39000.00:  Mud Chlorides 
 MDES.     Inversion Oil/Synthetic:  Mud Desc 
 DFD .sg                  1.40:  Mud Density 
 MDMN.sg                  1.40:  Dens Mud Min 
 MDMX.sg                  1.40:  Dens Mud Max 
 MOIL.                    55.2:  Run Mud Oil % 
 MOWR.                   68:32:  Run Mud OWR 
 MSND.                     0.1:  Run Mud Sand % 
 MSOL.                    17.8:  Run Mud Solids% 
 DFV .spqt               76.00:  Mud Viscosity 
 MWOD.in                  4.75:  MWD Tool OD 
 MWSI.                      No:  Serv Intrp, MWD 
 OTIM.hr                 64.35:  Time Operating 
 PCON.           Look Like New:  Pad Condition 
 PMAX.psia             5350.00:  Press Op, Max 
 PV  .cP                 26.00:  Mud PV 
 RUN .                     900:  Run Number 
 ROPA.m/hr                9.00:  ROP Avg 
 ROPN.m/hr                7.00:  ROP Min 
 ROPX.m/hr               13.00:  ROP Max 
 RPMA.rpm               140.00:  RPM Surface Avg 
 RPMN.rpm               140.00:  RPM Surface Min 
 RPMX.rpm               140.00:  RPM Surface Max 
 RRUN.                    L204:  Rig Run Number 
 RTIM.hr                  4.50:  Time Reaming 
 SAZI.deg               141.40:  Azm, Start 
 SDEP.m                4503.01:  Start Depth 
 SIDD.                      No:  Serv Intrp, DD 
 SINC.deg                78.04:  Inc, Start 
 SPPA.psig             5300.00:  SPP Avg 
 SPPN.psig             5100.00:  SPP Min 
 SPPX.psig             5500.00:  SPP Max 
 STIM.      18.00.00 22-Mar-20:  Start Time 
 SVCS.                 DD, MWD:  Services 
 SVER.                    9.20:  Sperry Version 
 TDAT.m                 103.00:  Tot Depth Attmp 
 TDDF.                      No:  Trip for DD 
 TDLG.m                 103.00:  Tot Depth Loggd 
 TFF .                      No:  Trip for Fail 
 TQAA.f-kp               14.00:  Torque Abs Avg 
 TQAN.f-kp               12.00:  Torque Abs Min 
 TQAX.f-kp               16.00:  Torque Abs Max 
 TRRT.°/30m               0.45:  Turn Rotating 
 MRT .                    HCIM:  Maximum Recorded Temperature 
 TTMX.degC               90.20:  Max Tool Temp 
 VS01.         90577859G12V7D4:  Virtual Str1 SN 
 VS02.            90519330D5C4:  Virtual Str2 SN 
 VS03.             90603450F11:  Virtual Str3 SN 
 VS04.           90515383R12C4:  Virtual Str4 SN 
 VS05.          90522017N2L2C4:  Virtual Str5 SN 
 VS06.            90512682Z1W1:  Virtual Str6 SN 
 WBMN.klb                 5.00:  WOB Min 
 WITN.        Elmaddin Rahimov:  Customer Rep 
 WITN.           Adil Mammadov:  Customer Rep 2 
 WOBA.klb                 8.00:  WOB Avg 
 WOBX.klb                13.00:  WOB Max 
 YP  .lhf2               31.00:  Yield Point 
~Curve Information Block
#MNEM.UNIT                 API CODE     Curve Description
#---------               -----------    ---------------------------
 TIME.HHMMSS            00 000 000 000:  GT Time & Date
 GTDEPTH.m              00 000 000 000:  GT Depth
 GTPQH.psia             00 000 000 000:  GT HR Quartz Pressure
 GTTQ.degC              00 000 000 000:  GT Quartz Temperature
 GTTN.NONE              00 000 000 000:  GT Test Number
 GTET.sec               00 000 000 000:  GT Elapsed Test Time
 GTTVD.m                00 000 000 000:  GT True Vertical Depth
#Other Information
#
#WARRANTY: Halliburton will use its best efforts to furnish customers with 
#accurate information and interpretations that are part of, and incident to, the services 
#provided.  However, Halliburton cannot and does not warrant the accuracy 
#or correctness of such information and interpretations.  Under no circumstances should any 
#such information or interpretation be relied upon as the sole basis for any drilling, 
#completion, production, or financial decision or any procedure involving any risk to the 
#safety of any drilling venture, drilling rig or its crew or any other third party.  The 
#Customer has full responsibility for all drilling, completion and production operation.  
#Halliburton makes no representations or warranties, either expressed or 
#implied, including, but not limited to, the implied warranties of merchantability or fitness 
#for a particular purpose, with respect to the services rendered.  In no event will 
#Halliburton be liable for failure to obtain any particular results or for 
#any damages, including, but not limited to, indirect, special or consequential damages, 
#resulting from the use of any information or interpretation provided by Halliburton.
#
~A           TIME           GTDEPTH  GTPQH  GTTQ  GTTN  GTET   GTTVD  
# ...
   22:03:40.908.23-Mar-2020 4483.01 4532.11 77.11 1.00  46.01 3155.68
   22:03:41.108.23-Mar-2020 4483.01 4532.11 77.11 1.00  46.21 3155.68
   22:03:41.308.23-Mar-2020 4483.01 4532.13 77.10 1.00  46.41 3155.68
   22:03:41.508.23-Mar-2020 4483.01 4532.11 77.10 1.00  46.61 3155.68
   22:03:41.708.23-Mar-2020 4483.01 4532.14 77.10 1.00  46.81 3155.68
   22:03:41.908.23-Mar-2020 4483.01 4532.11 77.10 1.00  47.01 3155.68
   22:03:42.108.23-Mar-2020 4483.01 4532.11 77.10 1.00  47.21 3155.68
   22:03:42.308.23-Mar-2020 4483.01 4532.13 77.10 1.00  47.41 3155.68
   22:03:42.508.23-Mar-2020 4483.01 4532.09 77.10 1.00  47.61 3155.68
   22:03:42.708.23-Mar-2020 4483.01 4532.14 77.10 1.00  47.81 3155.68
   22:03:42.909.23-Mar-2020 4483.01 4532.14 77.10 1.00  48.01 3155.68
   22:03:43.109.23-Mar-2020 4483.01 4532.14 77.10 1.00  48.21 3155.68
   22:03:43.309.23-Mar-2020 4483.01 4532.14 77.09 1.00  48.41 3155.68
   22:03:43.509.23-Mar-2020 4483.01 4532.14 77.09 1.00  48.61 3155.68
   22:03:43.709.23-Mar-2020 4483.01 4532.16 77.09 1.00  48.81 3155.68
   22:03:43.909.23-Mar-2020 4483.01 4532.15 77.09 1.00  49.01 3155.68
   22:03:44.109.23-Mar-2020 4483.01 4532.15 77.09 1.00  49.21 3155.68
   22:03:44.309.23-Mar-2020 4483.01 4532.15 77.09 1.00  49.41 3155.68
   22:03:44.509.23-Mar-2020 4483.01 4532.15 77.09 1.00  49.61 3155.68
   22:03:44.709.23-Mar-2020 4483.01 4532.17 77.09 1.00  49.81 3155.68
   22:03:44.909.23-Mar-2020 4483.01 4532.15 77.09 1.00  50.01 3155.68
   22:03:45.109.23-Mar-2020 4483.01 4532.15 77.09 1.00  50.21 3155.68
   22:03:45.309.23-Mar-2020 4483.01 4532.15 77.08 1.00  50.41 3155.68
   22:03:45.509.23-Mar-2020 4483.01 4532.18 77.08 1.00  50.61 3155.68
   22:03:45.709.23-Mar-2020 4483.01 4532.15 77.08 1.00  50.81 3155.68
   22:03:45.909.23-Mar-2020 4483.01 4532.17 77.08 1.00  51.01 3155.68
   22:03:46.109.23-Mar-2020 4483.01 4532.17 77.08 1.00  51.21 3155.68
   22:03:46.309.23-Mar-2020 4483.01 4532.13 77.08 1.00  51.41 3155.68
   22:03:46.509.23-Mar-2020 4483.01 4532.17 77.08 1.00  51.61 3155.68
   22:03:46.709.23-Mar-2020 4483.01 4532.20 77.08 1.00  51.81 3155.68
   22:03:46.909.23-Mar-2020 4483.01 4532.18 77.08 1.00  52.01 3155.68
   22:03:47.109.23-Mar-2020 4483.01 4532.18 77.08 1.00  52.21 3155.68
   22:03:47.309.23-Mar-2020 4483.01 4532.20 77.07 1.00  52.41 3155.68
   22:03:47.509.23-Mar-2020 4483.01 4532.21 77.07 1.00  52.61 3155.68
   22:03:47.709.23-Mar-2020 4483.01 4532.18 77.07 1.00  52.81 3155.68
   22:03:47.909.23-Mar-2020 4483.01 4532.18 77.07 1.00  53.01 3155.68
   22:03:48.109.23-Mar-2020 4483.01 4532.18 77.07 1.00  53.21 3155.68
   22:03:48.309.23-Mar-2020 4483.01 4532.17 77.07 1.00  53.41 3155.68
   22:03:48.509.23-Mar-2020 4483.01 4532.18 77.07 1.00  53.61 3155.68
   22:03:48.710.23-Mar-2020 4483.01 4532.19 77.07 1.00  53.81 3155.68
   22:03:48.910.23-Mar-2020 4483.01 4532.19 77.07 1.00  54.01 3155.68
   22:03:49.110.23-Mar-2020 4483.01 4532.19 77.07 1.00  54.21 3155.68
   22:03:49.310.23-Mar-2020 4483.01 4532.20 77.07 1.00  54.41 3155.68
   22:03:49.510.23-Mar-2020 4483.01 4532.19 77.06 1.00  54.61 3155.68
   22:03:49.710.23-Mar-2020 4483.01 4532.19 77.06 1.00  54.81 3155.68
   22:03:49.910.23-Mar-2020 4483.01 4532.19 77.06 1.00  55.01 3155.68
   22:03:50.110.23-Mar-2020 4483.01 4532.19 77.06 1.00  55.21 3155.68
   22:03:50.310.23-Mar-2020 4483.01 4532.20 77.06 1.00  55.41 3155.68
   22:03:50.510.23-Mar-2020 4483.01 4532.22 77.06 1.00  55.61 3155.68
   22:03:50.710.23-Mar-2020 4483.01 4532.19 77.06 1.00  55.81 3155.68
   22:03:50.910.23-Mar-2020 4483.01 4532.21 77.06 1.00  56.01 3155.68
   22:03:51.110.23-Mar-2020 4483.01 4532.21 77.06 1.00  56.21 3155.68
   22:03:51.310.23-Mar-2020 4483.01 4532.20 77.06 1.00  56.41 3155.68
   22:03:51.510.23-Mar-2020 4483.01 4532.19 77.05 1.00  56.61 3155.68
   22:03:51.710.23-Mar-2020 4483.01 4532.20 77.05 1.00  56.81 3155.68
   22:03:51.910.23-Mar-2020 4483.01 4532.19 77.05 1.00  57.01 3155.68
   22:03:52.110.23-Mar-2020 4483.01 4532.19 77.05 1.00  57.21 3155.68
   22:03:52.310.23-Mar-2020 4483.01 4532.20 77.05 1.00  57.41 3155.68
   22:03:52.510.23-Mar-2020 4483.01 4532.19 77.05 1.00  57.61 3155.68
   22:03:52.710.23-Mar-2020 4483.01 4532.19 77.05 1.00  57.81 3155.68
   22:03:52.910.23-Mar-2020 4483.01 4532.19 77.05 1.00  58.01 3155.68
   22:03:53.110.23-Mar-2020 4483.01 4532.19 77.05 1.00  58.21 3155.68
   22:03:53.310.23-Mar-2020 4483.01 4532.20 77.05 1.00  58.41 3155.68
   22:03:53.510.23-Mar-2020 4483.01 4532.21 77.05 1.00  58.61 3155.68
   22:03:53.710.23-Mar-2020 4483.01 4532.20 77.04 1.00  58.81 3155.68
   22:03:53.910.23-Mar-2020 4483.01 4532.14 77.04 1.00  59.01 3155.68
   22:03:54.110.23-Mar-2020 4483.01 4532.14 77.04 1.00  59.21 3155.68
   22:03:54.311.23-Mar-2020 4483.01 4532.23 77.04 1.00  59.41 3155.68
   22:03:54.511.23-Mar-2020 4483.01 4532.19 77.04 1.00  59.61 3155.68
   22:03:54.711.23-Mar-2020 4483.01 4532.15 77.04 1.00  59.81 3155.68
   22:03:54.911.23-Mar-2020 4483.01 4532.22 77.04 1.00  60.01 3155.68
   22:03:55.111.23-Mar-2020 4483.01 4532.22 77.04 1.00  60.21 3155.68
   22:03:55.311.23-Mar-2020 4483.01 4532.19 77.04 1.00  60.41 3155.68
   22:03:55.511.23-Mar-2020 4483.01 4532.21 77.04 1.00  60.61 3155.68
   22:03:55.711.23-Mar-2020 4483.01 4532.19 77.04 1.00  60.81 3155.68
   22:03:55.911.23-Mar-2020 4483.01 4532.16 77.03 1.00  61.01 3155.68
   22:03:56.111.23-Mar-2020 4483.01 4532.16 77.03 1.00  61.21 3155.68
   22:03:56.311.23-Mar-2020 4483.01 4532.23 77.03 1.00  61.41 3155.68
   22:03:56.511.23-Mar-2020 4483.01 4532.21 77.03 1.00  61.61 3155.68
   22:03:56.711.23-Mar-2020 4483.01 4532.21 77.03 1.00  61.81 3155.68
   22:03:56.911.23-Mar-2020 4483.01 4532.20 77.03 1.00  62.01 3155.68
   22:03:57.111.23-Mar-2020 4483.01 4532.20 77.03 1.00  62.21 3155.68
   22:03:57.311.23-Mar-2020 4483.01 4532.21 77.03 1.00  62.41 3155.68
   22:03:57.511.23-Mar-2020 4483.01 4532.21 77.03 1.00  62.61 3155.68
   22:03:57.711.23-Mar-2020 4483.01 4532.13 77.03 1.00  62.81 3155.68
   22:03:57.911.23-Mar-2020 4483.01 4532.22 77.03 1.00  63.01 3155.68
   22:03:58.111.23-Mar-2020 4483.01 4532.22 77.03 1.00  63.21 3155.68
   22:03:58.311.23-Mar-2020 4483.01 4532.20 77.02 1.00  63.41 3155.68
   22:03:58.511.23-Mar-2020 4483.01 4532.19 77.02 1.00  63.61 3155.68
   22:03:58.711.23-Mar-2020 4483.01 4532.19 77.02 1.00  63.81 3155.68
   22:03:58.911.23-Mar-2020 4483.01 4532.21 77.02 1.00  64.01 3155.68
   22:03:59.111.23-Mar-2020 4483.01 4532.21 77.02 1.00  64.21 3155.68
   22:03:59.311.23-Mar-2020 4483.01 4532.21 77.02 1.00  64.41 3155.68
   22:03:59.511.23-Mar-2020 4483.01 4532.18 77.02 1.00  64.61 3155.68
   22:03:59.711.23-Mar-2020 4483.01 4532.20 77.02 1.00  64.81 3155.68
   22:03:59.911.23-Mar-2020 4483.01 4532.19 77.02 1.00  65.01 3155.68
   22:04:00.112.23-Mar-2020 4483.01 4532.19 77.02 1.00  65.21 3155.68
   22:04:00.312.23-Mar-2020 4483.01 4532.19 77.02 1.00  65.41 3155.68
   22:04:00.512.23-Mar-2020 4483.01 4532.14 77.01 1.00  65.61 3155.68
   22:04:00.712.23-Mar-2020 4483.01 4532.19 77.01 1.00  65.81 3155.68
   22:04:00.912.23-Mar-2020 4483.01 4532.22 77.01 1.00  66.01 3155.68
   22:04:01.112.23-Mar-2020 4483.01 4532.22 77.01 1.00  66.21 3155.68
   22:04:01.312.23-Mar-2020 4483.01 4532.19 77.01 1.00  66.41 3155.68
   22:04:01.512.23-Mar-2020 4483.01 4532.13 77.01 1.00  66.61 3155.68
   22:04:01.712.23-Mar-2020 4483.01 4532.20 77.01 1.00  66.81 3155.68
   22:04:01.912.23-Mar-2020 4483.01 4532.21 77.01 1.00  67.01 3155.68
   22:04:02.112.23-Mar-2020 4483.01 4532.21 77.01 1.00  67.21 3155.68
   22:04:02.312.23-Mar-2020 4483.01 4532.17 77.01 1.00  67.41 3155.68
   22:04:02.512.23-Mar-2020 4483.01 4532.18 77.01 1.00  67.61 3155.68
   22:04:02.712.23-Mar-2020 4483.01 4532.19 77.01 1.00  67.81 3155.68
   22:04:02.912.23-Mar-2020 4483.01 4532.18 77.00 1.00  68.01 3155.68
   22:04:03.112.23-Mar-2020 4483.01 4532.18 77.00 1.00  68.21 3155.68
   22:04:03.312.23-Mar-2020 4483.01 4532.18 77.00 1.00  68.41 3155.68
   22:04:03.512.23-Mar-2020 4483.01 4532.12 77.00 1.00  68.61 3155.68
   22:04:03.712.23-Mar-2020 4483.01 4532.20 77.00 1.00  68.81 3155.68
