~Version Information
 VERS.                  2.0:   CWLS log ASCII Standard -VERSION 2.0
 WRAP.                   NO:   One line per depth step
~Well Information Block
#MNEM.UNIT     VALUE/NAME     DESCRIPTION
#---------     -----------    ---------------------------
 STRT.S             10:10:38 24-Mar-20: START TIME 10:10:38 24-Mar-20
 STOP.S             10:17:07 24-Mar-20: STOP TIME  10:17:07 24-Mar-20
 STEP.S                   0.00: STEP TIME
 NULL.                 -999.25: NULL VALUE
 DFWT.                        :  DIST FWL TEXT
 DFST.                        :  DIST FSL TEXT
 DMF .             Drill Floor:  DRILL MEAS FROM
 STIM.      22.30.00 15-Feb-20:  START TIME
 DATE.      17.00.00 25-Mar-20:  END TIME
 SPUD.               15-Feb-20:  SPUD DATE
 NREF.                    Grid:  NORTH REFERENCE
 HPTY.       Minimum Curvature:  HOLE POS TYPE
 DMOD.             Drill Model:  DRILL MOD DESC
 SVYD.                  Survey:  SURVEY DESC
 ILTD.               Lithology:  INTERP LTH DESC
 FTOP.          Formation Tops:  FORM TOPS DESC
 SON .        AZ-XX-0906019077:  JOB NUMBER
 PDAT.          Mean Sea Level:  PERMANENT DATUM
 WTYP.                Deviated:  WELL TYPE
 MDS .        Operator Entered:  MAG DATA SOURCE
 COMP.     BP Exploration (Caspian sea) Ltd.:  COMPANY
 UWI .                     N/A:  UNIQUE WELL IDENTIFIER
 API .                     N/A:  API NUMBER
 BASE.              Azerbaijan:  LOGGING EQUIPMENT BASE LOCATION
 REGN.                   EESSA:  REGION
 PROV.                     N/A:  PROVINCE
 STAT.                     N/A:  STATE NAME
 CTRY.              Azerbaijan:  COUNTRY NAME
 FLD .                     ACG:  FIELD NAME
 SRVC.          Turan Drilling:  CONTRACTOR
 MWDS.                    Baku:  MWD SHOP
 WELL.                    E16W:  WELL NAME
 JOBN.        AZ-XX-0906019077:  JOB TICKET NUMB
 RIG .                     DWG:  RIG NAME
 CNTY.                     N/A:  COUNTY NAME
 DCON.         Sperry Drilling:  DIRECTNL CONTR
 UNIT.                     N/A:  LOGGING EQUIPMENT ID
 LOC .                        :  LOCATION
 LMF .             Drill Floor:  LOG MEASURED FROM
 TVDS.m                  43.16:  TVDSS CORRECTN
 LATI.deg                40.17:  LATITUDE
 LONG.deg                51.17:  LONGITUDE
 WHNS.m                 -15.30:  WELL HEAD N/S
 WHEW.m                  -1.29:  WELL HEAD E/W
 UTMX.m              514337.95:  UTM X
 UTMY.m             4448627.46:  UTM Y
 DFWL.m                   0.00:  DISTANCE FWL
 DFSL.m                   0.00:  DISTANCE FSL
 SDEP.m                3499.01:  START DEPTH
 TDD .m                4606.01:  TOTAL DEPTH (DRILLER)
 VSDR.deg               151.14:  VERT SEC DIRECT
 GVFD.g                   1.00:  GRAVITY FIELD
 MFLD.nT              50334.00:  MAGNETIC FIELD
 MDIP.deg                59.62:  MAGNETIC DIP
 MDEC.deg                 6.46:  MAGNETIC DECL
 GRDC.deg                 0.12:  GRID CORRECTION
 AZTC.deg                 6.34:  AZM TOTAL CORR
 EPD .m                   0.00:  ELEVATION
 EGL .m                   0.00:  GROUND ELEVATION
 WDMS.m                 176.20:  WD ELEV
 APD .m                  43.16:  DEPTH ABOVE PD
 VSEW.m                  -1.29:  VERT SEC E/W
 VSNS.m                 -15.30:  VERT SEC N/S
 AGAP.m                  43.16:  AIR GAP
 EKB .m                   0.00:  KB ELEVATION
 EDF .m                  43.16:  DF ELEVATION
 TDL .m                 103.00:  TOTAL DEPTH (LOGGER)
 VSC .                       0:  VS TO CLOSURE
 MAGU.                 1852525:  MAGUTM CHECKSUM
~Parameter Information Block
#MNEM.UNIT       Value        Description
#---------     -----------    ---------------------------
 AV  .mps                 1.01:  Ann Velocity 
 AVMX.mps                 1.32:  Max Ann Veloc 
 AZIF.deg               140.63:  Azm, Final 
 BHAT.        Rotary Steerable:  BHA Type 
 BREV.rev            151000.00:  Rev Bit Total 
 BROT.°/30m               0.65:  Build Rotating 
 BS  .in                  6.50:  Bit Size 
 BSZ .in                  6.50:  Bit Size 
 BTPL.psig              222.00:  Bit Press Loss 
 CABU.                      No:  Customer Abuse 
 CGEO.           Emin Aliyarov:  Customer Geo 
 COMM.                     ´â}:  Run Comments 1 
 TCS .hr                 22.89:  Time Ciculation Ended 
 CV  .mps                 2.20:  Crit Velocity 
 CVMX.mps                 3.04:  Max Crit Veloc 
 DD1 .         Intigam Rahimov:  Direct Drillr 1 
 DDSV.               Geo-Pilot:  DD Service 
 DEFF.%                  91.50:  % Det Eff 
 DLRX.°/30m               1.15:  Dogleg Rot Max 
 DLSO.°/30m               0.86:  Dogleg Oriented 
 DLSX.°/30m               1.15:  Dogleg Str Max 
 DRET.      13.10.00 24-Mar-20:  Drill End Time 
 DRST.      17.00.00 23-Mar-20:  Drill Start Tim 
 DTIM.hr                 11.87:  Time Drilling 
 EDEP.m                4606.01:  End Depth 
 ENG1.          Rasim Hashimov:  Engineer 1 
 ENG2.            Alan Tuganov:  Engineer 2 
 ENG3.         Yevgeniy Ulikov:  Engineer 3 
 ETIM.      16.00.00 25-Mar-20:  End Time 
 FLOI.gpm               400.00:  Flow In 
 FLON.gpm               350.00:  Flow In Min 
 FLOS.cptm                0.00:  Fluid Loss 
 FLOX.gpm               400.00:  Flow In Max 
 FTRO.       Formation Presure:  FTWD Run Obj 
 HFLO.                      No:  High Flow 
 HPRE.                      No:  High Pressure 
 HTEM.                      No:  High Temp 
 HYDO.m                   1.80:  Hydro Offset 
 IFIN.deg                79.55:  Inc, Final 
 IMAX.deg                79.55:  Inc Max 
 IMIN.deg                78.04:  Inc Min 
 IMND.m                4502.50:  Inc Min Depth 
 IMXD.m                4587.87:  Inc Max Depth 
 JARR.                      No:  Jarring 
 LETM.      13.10.00 24-Mar-20:  Log End Time 
 LOST.hr                     0:  Lost Rig Time 
 LSTM.      17.00.00 23-Mar-20:  Log Start Time 
 MDCL.ppm             39000.00:  Mud Chlorides 
 MDES.     Inversion Oil/Synthetic:  Mud Desc 
 DFD .sg                  1.40:  Mud Density 
 MDMN.sg                  1.40:  Dens Mud Min 
 MDMX.sg                  1.40:  Dens Mud Max 
 MOIL.                    55.2:  Run Mud Oil % 
 MOWR.                   68:32:  Run Mud OWR 
 MSND.                     0.1:  Run Mud Sand % 
 MSOL.                    17.8:  Run Mud Solids% 
 DFV .spqt               76.00:  Mud Viscosity 
 MWOD.in                  4.75:  MWD Tool OD 
 MWSI.                      No:  Serv Intrp, MWD 
 OTIM.hr                 64.35:  Time Operating 
 PCON.           Look Like New:  Pad Condition 
 PMAX.psia             5350.00:  Press Op, Max 
 PV  .cP                 26.00:  Mud PV 
 RUN .                     900:  Run Number 
 ROPA.m/hr                9.00:  ROP Avg 
 ROPN.m/hr                7.00:  ROP Min 
 ROPX.m/hr               13.00:  ROP Max 
 RPMA.rpm               140.00:  RPM Surface Avg 
 RPMN.rpm               140.00:  RPM Surface Min 
 RPMX.rpm               140.00:  RPM Surface Max 
 RRUN.                    L204:  Rig Run Number 
 RTIM.hr                  4.50:  Time Reaming 
 SAZI.deg               141.40:  Azm, Start 
 SDEP.m                4503.01:  Start Depth 
 SIDD.                      No:  Serv Intrp, DD 
 SINC.deg                78.04:  Inc, Start 
 SPPA.psig             5300.00:  SPP Avg 
 SPPN.psig             5100.00:  SPP Min 
 SPPX.psig             5500.00:  SPP Max 
 STIM.      18.00.00 22-Mar-20:  Start Time 
 SVCS.                 DD, MWD:  Services 
 SVER.                    9.20:  Sperry Version 
 TDAT.m                 103.00:  Tot Depth Attmp 
 TDDF.                      No:  Trip for DD 
 TDLG.m                 103.00:  Tot Depth Loggd 
 TFF .                      No:  Trip for Fail 
 TQAA.f-kp               14.00:  Torque Abs Avg 
 TQAN.f-kp               12.00:  Torque Abs Min 
 TQAX.f-kp               16.00:  Torque Abs Max 
 TRRT.°/30m               0.45:  Turn Rotating 
 MRT .                    HCIM:  Maximum Recorded Temperature 
 TTMX.degC               90.20:  Max Tool Temp 
 VS01.         90577859G12V7D4:  Virtual Str1 SN 
 VS02.            90519330D5C4:  Virtual Str2 SN 
 VS03.             90603450F11:  Virtual Str3 SN 
 VS04.           90515383R12C4:  Virtual Str4 SN 
 VS05.          90522017N2L2C4:  Virtual Str5 SN 
 VS06.            90512682Z1W1:  Virtual Str6 SN 
 WBMN.klb                 5.00:  WOB Min 
 WITN.        Elmaddin Rahimov:  Customer Rep 
 WITN.           Adil Mammadov:  Customer Rep 2 
 WOBA.klb                 8.00:  WOB Avg 
 WOBX.klb                13.00:  WOB Max 
 YP  .lhf2               31.00:  Yield Point 
~Curve Information Block
#MNEM.UNIT                 API CODE     Curve Description
#---------               -----------    ---------------------------
 TIME.HHMMSS            00 000 000 000:  GT Time & Date
 GTDEPTH.m              00 000 000 000:  GT Depth
 GTPQH.psia             00 000 000 000:  GT HR Quartz Pressure
 GTTQ.degC              00 000 000 000:  GT Quartz Temperature
 GTTN.NONE              00 000 000 000:  GT Test Number
 GTET.sec               00 000 000 000:  GT Elapsed Test Time
 GTTVD.m                00 000 000 000:  GT True Vertical Depth
#Other Information
#
#WARRANTY: Halliburton will use its best efforts to furnish customers with 
#accurate information and interpretations that are part of, and incident to, the services 
#provided.  However, Halliburton cannot and does not warrant the accuracy 
#or correctness of such information and interpretations.  Under no circumstances should any 
#such information or interpretation be relied upon as the sole basis for any drilling, 
#completion, production, or financial decision or any procedure involving any risk to the 
#safety of any drilling venture, drilling rig or its crew or any other third party.  The 
#Customer has full responsibility for all drilling, completion and production operation.  
#Halliburton makes no representations or warranties, either expressed or 
#implied, including, but not limited to, the implied warranties of merchantability or fitness 
#for a particular purpose, with respect to the services rendered.  In no event will 
#Halliburton be liable for failure to obtain any particular results or for 
#any damages, including, but not limited to, indirect, special or consequential damages, 
#resulting from the use of any information or interpretation provided by Halliburton.
#
~A           TIME           GTDEPTH  GTPQH  GTTQ  GTTN  GTET   GTTVD  
# ...
   10:13:19.478.24-Mar-2020 4562.51 4435.64 85.99 5.00 161.03 3171.78
   10:13:19.678.24-Mar-2020 4562.51 4435.64 85.99 5.00 161.23 3171.78
   10:13:19.878.24-Mar-2020 4562.51 4435.55 85.99 5.00 161.43 3171.78
   10:13:20.078.24-Mar-2020 4562.51 4435.75 85.99 5.00 161.63 3171.78
   10:13:20.278.24-Mar-2020 4562.51 4435.61 85.99 5.00 161.83 3171.78
   10:13:20.478.24-Mar-2020 4562.51 4435.64 85.99 5.00 162.03 3171.78
   10:13:20.678.24-Mar-2020 4562.51 4435.64 85.99 5.00 162.23 3171.78
   10:13:20.878.24-Mar-2020 4562.51 4435.67 85.99 5.00 162.43 3171.78
   10:13:21.078.24-Mar-2020 4562.51 4435.65 85.98 5.00 162.63 3171.78
   10:13:21.278.24-Mar-2020 4562.51 4435.67 85.98 5.00 162.83 3171.78
   10:13:21.478.24-Mar-2020 4562.51 4435.64 85.98 5.00 163.03 3171.78
   10:13:21.678.24-Mar-2020 4562.51 4435.64 85.98 5.00 163.23 3171.78
   10:13:21.878.24-Mar-2020 4562.51 4435.71 85.98 5.00 163.43 3171.78
   10:13:22.078.24-Mar-2020 4562.51 4435.66 85.98 5.00 163.63 3171.78
   10:13:22.278.24-Mar-2020 4562.51 4435.65 85.98 5.00 163.83 3171.78
   10:13:22.478.24-Mar-2020 4562.51 4435.67 85.98 5.00 164.03 3171.78
   10:13:22.678.24-Mar-2020 4562.51 4435.67 85.98 5.00 164.23 3171.78
   10:13:22.878.24-Mar-2020 4562.51 4435.66 85.98 5.00 164.43 3171.78
   10:13:23.078.24-Mar-2020 4562.51 4435.62 85.98 5.00 164.63 3171.78
   10:13:23.278.24-Mar-2020 4562.51 4435.68 85.98 5.00 164.83 3171.78
   10:13:23.478.24-Mar-2020 4562.51 4435.63 85.98 5.00 165.03 3171.78
   10:13:23.678.24-Mar-2020 4562.51 4435.63 85.98 5.00 165.23 3171.78
   10:13:23.878.24-Mar-2020 4562.51 4435.65 85.97 5.00 165.43 3171.78
   10:13:24.079.24-Mar-2020 4562.51 4435.64 85.97 5.00 165.63 3171.78
   10:13:24.279.24-Mar-2020 4562.51 4435.64 85.97 5.00 165.83 3171.78
   10:13:24.479.24-Mar-2020 4562.51 4435.63 85.97 5.00 166.03 3171.78
   10:13:24.679.24-Mar-2020 4562.51 4435.63 85.97 5.00 166.23 3171.78
   10:13:24.879.24-Mar-2020 4562.51 4435.70 85.97 5.00 166.43 3171.78
   10:13:25.079.24-Mar-2020 4562.51 4435.62 85.97 5.00 166.63 3171.78
   10:13:25.279.24-Mar-2020 4562.51 4435.65 85.97 5.00 166.83 3171.78
   10:13:25.479.24-Mar-2020 4562.51 4435.64 85.97 5.00 167.03 3171.78
   10:13:25.679.24-Mar-2020 4562.51 4435.64 85.97 5.00 167.23 3171.78
   10:13:25.879.24-Mar-2020 4562.51 4435.65 85.97 5.00 167.43 3171.78
   10:13:26.079.24-Mar-2020 4562.51 4435.61 85.97 5.00 167.63 3171.78
   10:13:26.279.24-Mar-2020 4562.51 4435.63 85.96 5.00 167.83 3171.78
   10:13:26.479.24-Mar-2020 4562.51 4435.60 85.96 5.00 168.03 3171.78
   10:13:26.679.24-Mar-2020 4562.51 4435.60 85.96 5.00 168.23 3171.78
   10:13:26.879.24-Mar-2020 4562.51 4435.59 85.96 5.00 168.43 3171.78
   10:13:27.079.24-Mar-2020 4562.51 4435.64 85.96 5.00 168.63 3171.78
   10:13:27.279.24-Mar-2020 4562.51 4435.56 85.96 5.00 168.83 3171.78
   10:13:27.479.24-Mar-2020 4562.51 4435.65 85.96 5.00 169.03 3171.78
   10:13:27.679.24-Mar-2020 4562.51 4435.65 85.96 5.00 169.23 3171.78
   10:13:27.879.24-Mar-2020 4562.51 4435.65 85.96 5.00 169.43 3171.78
   10:13:28.079.24-Mar-2020 4562.51 4435.57 85.96 5.00 169.63 3171.78
   10:13:28.279.24-Mar-2020 4562.51 4435.67 85.96 5.00 169.83 3171.78
   10:13:28.479.24-Mar-2020 4562.51 4435.62 85.96 5.00 170.03 3171.78
   10:13:28.679.24-Mar-2020 4562.51 4435.62 85.96 5.00 170.23 3171.78
   10:13:28.879.24-Mar-2020 4562.51 4435.62 85.95 5.00 170.43 3171.78
   10:13:29.079.24-Mar-2020 4562.51 4435.56 85.95 5.00 170.63 3171.78
   10:13:29.279.24-Mar-2020 4562.51 4435.67 85.95 5.00 170.83 3171.78
   10:13:29.480.24-Mar-2020 4562.51 4435.60 85.95 5.00 171.03 3171.78
   10:13:29.680.24-Mar-2020 4562.51 4435.60 85.95 5.00 171.23 3171.78
   10:13:29.880.24-Mar-2020 4562.51 4435.60 85.95 5.00 171.43 3171.78
   10:13:30.080.24-Mar-2020 4562.51 4435.65 85.95 5.00 171.63 3171.78
   10:13:30.280.24-Mar-2020 4562.51 4435.51 85.95 5.00 171.83 3171.78
   10:13:30.480.24-Mar-2020 4562.51 4435.71 85.95 5.00 172.03 3171.78
   10:13:30.680.24-Mar-2020 4562.51 4435.71 85.95 5.00 172.23 3171.78
   10:13:30.880.24-Mar-2020 4562.51 4435.66 85.95 5.00 172.43 3171.78
   10:13:31.080.24-Mar-2020 4562.51 4435.58 85.95 5.00 172.63 3171.78
   10:13:31.280.24-Mar-2020 4562.51 4435.65 85.95 5.00 172.83 3171.78
   10:13:31.480.24-Mar-2020 4562.51 4435.58 85.94 5.00 173.03 3171.78
   10:13:31.680.24-Mar-2020 4562.51 4435.58 85.94 5.00 173.23 3171.78
   10:13:31.880.24-Mar-2020 4562.51 4435.58 85.94 5.00 173.43 3171.78
   10:13:32.080.24-Mar-2020 4562.51 4435.55 85.94 5.00 173.63 3171.78
   10:13:32.280.24-Mar-2020 4562.51 4435.64 85.94 5.00 173.83 3171.78
   10:13:32.480.24-Mar-2020 4562.51 4435.61 85.94 5.00 174.03 3171.78
   10:13:32.680.24-Mar-2020 4562.51 4435.61 85.94 5.00 174.23 3171.78
   10:13:32.880.24-Mar-2020 4562.51 4435.61 85.94 5.00 174.43 3171.78
   10:13:33.080.24-Mar-2020 4562.51 4435.60 85.94 5.00 174.63 3171.78
   10:13:33.280.24-Mar-2020 4562.51 4435.60 85.94 5.00 174.83 3171.78
   10:13:33.480.24-Mar-2020 4562.51 4435.60 85.94 5.00 175.03 3171.78
   10:13:33.680.24-Mar-2020 4562.51 4435.60 85.94 5.00 175.23 3171.78
   10:13:33.880.24-Mar-2020 4562.51 4435.60 85.94 5.00 175.43 3171.78
   10:13:34.080.24-Mar-2020 4562.51 4435.59 85.93 5.00 175.63 3171.78
   10:13:34.280.24-Mar-2020 4562.51 4435.59 85.93 5.00 175.83 3171.78
   10:13:34.480.24-Mar-2020 4562.51 4435.59 85.93 5.00 176.03 3171.78
   10:13:34.680.24-Mar-2020 4562.51 4435.59 85.93 5.00 176.23 3171.78
   10:13:34.881.24-Mar-2020 4562.51 4435.50 85.93 5.00 176.43 3171.78
   10:13:35.081.24-Mar-2020 4562.51 4435.68 85.93 5.00 176.63 3171.78
   10:13:35.281.24-Mar-2020 4562.51 4435.55 85.93 5.00 176.83 3171.78
   10:13:35.481.24-Mar-2020 4562.51 4435.56 85.93 5.00 177.03 3171.78
   10:13:35.681.24-Mar-2020 4562.51 4435.56 85.93 5.00 177.23 3171.78
   10:13:35.881.24-Mar-2020 4562.51 4435.60 85.93 5.00 177.43 3171.78
   10:13:36.081.24-Mar-2020 4562.51 4435.61 85.93 5.00 177.63 3171.78
   10:13:36.281.24-Mar-2020 4562.51 4435.61 85.93 5.00 177.83 3171.78
   10:13:36.481.24-Mar-2020 4562.51 4435.57 85.93 5.00 178.03 3171.78
   10:13:36.681.24-Mar-2020 4562.51 4435.57 85.93 5.00 178.23 3171.78
   10:13:36.881.24-Mar-2020 4562.51 4435.61 85.92 5.00 178.43 3171.78
   10:13:37.081.24-Mar-2020 4562.51 4435.62 85.92 5.00 178.63 3171.78
   10:13:37.281.24-Mar-2020 4562.51 4435.59 85.92 5.00 178.83 3171.78
   10:13:37.481.24-Mar-2020 4562.51 4435.61 85.92 5.00 179.03 3171.78
   10:13:37.681.24-Mar-2020 4562.51 4435.61 85.92 5.00 179.23 3171.78
   10:13:37.881.24-Mar-2020 4562.51 4435.65 85.92 5.00 179.43 3171.78
   10:13:38.081.24-Mar-2020 4562.51 4435.56 85.92 5.00 179.63 3171.78
   10:13:38.281.24-Mar-2020 4562.51 4435.64 85.92 5.00 179.83 3171.78
   10:13:38.481.24-Mar-2020 4562.51 4435.58 85.92 5.00 180.03 3171.78
   10:13:38.681.24-Mar-2020 4562.51 4435.58 85.92 5.00 180.23 3171.78
   10:13:38.881.24-Mar-2020 4562.51 4435.59 85.92 5.00 180.43 3171.78
   10:13:39.081.24-Mar-2020 4562.51 4435.59 85.92 5.00 180.63 3171.78
   10:13:39.281.24-Mar-2020 4562.51 4435.59 85.91 5.00 180.83 3171.78
   10:13:39.481.24-Mar-2020 4562.51 4435.56 85.91 5.00 181.03 3171.78
   10:13:39.681.24-Mar-2020 4562.51 4435.56 85.91 5.00 181.23 3171.78
   10:13:39.881.24-Mar-2020 4562.51 4435.59 85.91 5.00 181.43 3171.78
   10:13:40.082.24-Mar-2020 4562.51 4435.61 85.91 5.00 181.63 3171.78
   10:13:40.282.24-Mar-2020 4562.51 4435.57 85.91 5.00 181.83 3171.78
   10:13:40.482.24-Mar-2020 4562.51 4435.61 85.91 5.00 182.03 3171.78
   10:13:40.682.24-Mar-2020 4562.51 4435.61 85.91 5.00 182.23 3171.78
   10:13:40.882.24-Mar-2020 4562.51 4435.60 85.91 5.00 182.43 3171.78
   10:13:41.082.24-Mar-2020 4562.51 4435.56 85.91 5.00 182.63 3171.78
   10:13:41.282.24-Mar-2020 4562.51 4435.60 85.91 5.00 182.83 3171.78
   10:13:41.482.24-Mar-2020 4562.51 4435.54 85.91 5.00 183.03 3171.78
   10:13:41.682.24-Mar-2020 4562.51 4435.54 85.91 5.00 183.23 3171.78
   10:13:41.882.24-Mar-2020 4562.51 4435.53 85.90 5.00 183.43 3171.78
   10:13:42.082.24-Mar-2020 4562.51 4435.60 85.90 5.00 183.63 3171.78
   10:13:42.282.24-Mar-2020 4562.51 4435.47 85.90 5.00 183.83 3171.78
