~Version Information
 VERS.                  2.0:   CWLS log ASCII Standard -VERSION 2.0
 WRAP.                   NO:   One line per depth step
~Well Information Block
#MNEM.UNIT     VALUE/NAME     DESCRIPTION
#---------     -----------    ---------------------------
 STRT.S             06:00:18 24-Mar-20: START TIME 06:00:18 24-Mar-20
 STOP.S             06:06:47 24-Mar-20: STOP TIME  06:06:47 24-Mar-20
 STEP.S                   0.00: STEP TIME
 NULL.                 -999.25: NULL VALUE
 DFWT.                        :  DIST FWL TEXT
 DFST.                        :  DIST FSL TEXT
 DMF .             Drill Floor:  DRILL MEAS FROM
 STIM.      22.30.00 15-Feb-20:  START TIME
 DATE.      17.00.00 25-Mar-20:  END TIME
 SPUD.               15-Feb-20:  SPUD DATE
 NREF.                    Grid:  NORTH REFERENCE
 HPTY.       Minimum Curvature:  HOLE POS TYPE
 DMOD.             Drill Model:  DRILL MOD DESC
 SVYD.                  Survey:  SURVEY DESC
 ILTD.               Lithology:  INTERP LTH DESC
 FTOP.          Formation Tops:  FORM TOPS DESC
 SON .        AZ-XX-0906019077:  JOB NUMBER
 PDAT.          Mean Sea Level:  PERMANENT DATUM
 WTYP.                Deviated:  WELL TYPE
 MDS .        Operator Entered:  MAG DATA SOURCE
 COMP.     BP Exploration (Caspian sea) Ltd.:  COMPANY
 UWI .                     N/A:  UNIQUE WELL IDENTIFIER
 API .                     N/A:  API NUMBER
 BASE.              Azerbaijan:  LOGGING EQUIPMENT BASE LOCATION
 REGN.                   EESSA:  REGION
 PROV.                     N/A:  PROVINCE
 STAT.                     N/A:  STATE NAME
 CTRY.              Azerbaijan:  COUNTRY NAME
 FLD .                     ACG:  FIELD NAME
 SRVC.          Turan Drilling:  CONTRACTOR
 MWDS.                    Baku:  MWD SHOP
 WELL.                    E16W:  WELL NAME
 JOBN.        AZ-XX-0906019077:  JOB TICKET NUMB
 RIG .                     DWG:  RIG NAME
 CNTY.                     N/A:  COUNTY NAME
 DCON.         Sperry Drilling:  DIRECTNL CONTR
 UNIT.                     N/A:  LOGGING EQUIPMENT ID
 LOC .                        :  LOCATION
 LMF .             Drill Floor:  LOG MEASURED FROM
 TVDS.m                  43.16:  TVDSS CORRECTN
 LATI.deg                40.17:  LATITUDE
 LONG.deg                51.17:  LONGITUDE
 WHNS.m                 -15.30:  WELL HEAD N/S
 WHEW.m                  -1.29:  WELL HEAD E/W
 UTMX.m              514337.95:  UTM X
 UTMY.m             4448627.46:  UTM Y
 DFWL.m                   0.00:  DISTANCE FWL
 DFSL.m                   0.00:  DISTANCE FSL
 SDEP.m                3499.01:  START DEPTH
 TDD .m                4606.01:  TOTAL DEPTH (DRILLER)
 VSDR.deg               151.14:  VERT SEC DIRECT
 GVFD.g                   1.00:  GRAVITY FIELD
 MFLD.nT              50334.00:  MAGNETIC FIELD
 MDIP.deg                59.62:  MAGNETIC DIP
 MDEC.deg                 6.46:  MAGNETIC DECL
 GRDC.deg                 0.12:  GRID CORRECTION
 AZTC.deg                 6.34:  AZM TOTAL CORR
 EPD .m                   0.00:  ELEVATION
 EGL .m                   0.00:  GROUND ELEVATION
 WDMS.m                 176.20:  WD ELEV
 APD .m                  43.16:  DEPTH ABOVE PD
 VSEW.m                  -1.29:  VERT SEC E/W
 VSNS.m                 -15.30:  VERT SEC N/S
 AGAP.m                  43.16:  AIR GAP
 EKB .m                   0.00:  KB ELEVATION
 EDF .m                  43.16:  DF ELEVATION
 TDL .m                 103.00:  TOTAL DEPTH (LOGGER)
 VSC .                       0:  VS TO CLOSURE
 MAGU.                 1852525:  MAGUTM CHECKSUM
~Parameter Information Block
#MNEM.UNIT       Value        Description
#---------     -----------    ---------------------------
 AV  .mps                 1.01:  Ann Velocity 
 AVMX.mps                 1.32:  Max Ann Veloc 
 AZIF.deg               140.63:  Azm, Final 
 BHAT.        Rotary Steerable:  BHA Type 
 BREV.rev            151000.00:  Rev Bit Total 
 BROT.°/30m               0.65:  Build Rotating 
 BS  .in                  6.50:  Bit Size 
 BSZ .in                  6.50:  Bit Size 
 BTPL.psig              222.00:  Bit Press Loss 
 CABU.                      No:  Customer Abuse 
 CGEO.           Emin Aliyarov:  Customer Geo 
 COMM.                     öU:  Run Comments 1 
 TCS .hr                 22.89:  Time Ciculation Ended 
 CV  .mps                 2.20:  Crit Velocity 
 CVMX.mps                 3.04:  Max Crit Veloc 
 DD1 .         Intigam Rahimov:  Direct Drillr 1 
 DDSV.               Geo-Pilot:  DD Service 
 DEFF.%                  91.50:  % Det Eff 
 DLRX.°/30m               1.15:  Dogleg Rot Max 
 DLSO.°/30m               0.86:  Dogleg Oriented 
 DLSX.°/30m               1.15:  Dogleg Str Max 
 DRET.      13.10.00 24-Mar-20:  Drill End Time 
 DRST.      17.00.00 23-Mar-20:  Drill Start Tim 
 DTIM.hr                 11.87:  Time Drilling 
 EDEP.m                4606.01:  End Depth 
 ENG1.          Rasim Hashimov:  Engineer 1 
 ENG2.            Alan Tuganov:  Engineer 2 
 ENG3.         Yevgeniy Ulikov:  Engineer 3 
 ETIM.      16.00.00 25-Mar-20:  End Time 
 FLOI.gpm               400.00:  Flow In 
 FLON.gpm               350.00:  Flow In Min 
 FLOS.cptm                0.00:  Fluid Loss 
 FLOX.gpm               400.00:  Flow In Max 
 FTRO.       Formation Presure:  FTWD Run Obj 
 HFLO.                      No:  High Flow 
 HPRE.                      No:  High Pressure 
 HTEM.                      No:  High Temp 
 HYDO.m                   1.80:  Hydro Offset 
 IFIN.deg                79.55:  Inc, Final 
 IMAX.deg                79.55:  Inc Max 
 IMIN.deg                78.04:  Inc Min 
 IMND.m                4502.50:  Inc Min Depth 
 IMXD.m                4587.87:  Inc Max Depth 
 JARR.                      No:  Jarring 
 LETM.      13.10.00 24-Mar-20:  Log End Time 
 LOST.hr                     0:  Lost Rig Time 
 LSTM.      17.00.00 23-Mar-20:  Log Start Time 
 MDCL.ppm             39000.00:  Mud Chlorides 
 MDES.     Inversion Oil/Synthetic:  Mud Desc 
 DFD .sg                  1.40:  Mud Density 
 MDMN.sg                  1.40:  Dens Mud Min 
 MDMX.sg                  1.40:  Dens Mud Max 
 MOIL.                    55.2:  Run Mud Oil % 
 MOWR.                   68:32:  Run Mud OWR 
 MSND.                     0.1:  Run Mud Sand % 
 MSOL.                    17.8:  Run Mud Solids% 
 DFV .spqt               76.00:  Mud Viscosity 
 MWOD.in                  4.75:  MWD Tool OD 
 MWSI.                      No:  Serv Intrp, MWD 
 OTIM.hr                 64.35:  Time Operating 
 PCON.           Look Like New:  Pad Condition 
 PMAX.psia             5350.00:  Press Op, Max 
 PV  .cP                 26.00:  Mud PV 
 RUN .                     900:  Run Number 
 ROPA.m/hr                9.00:  ROP Avg 
 ROPN.m/hr                7.00:  ROP Min 
 ROPX.m/hr               13.00:  ROP Max 
 RPMA.rpm               140.00:  RPM Surface Avg 
 RPMN.rpm               140.00:  RPM Surface Min 
 RPMX.rpm               140.00:  RPM Surface Max 
 RRUN.                    L204:  Rig Run Number 
 RTIM.hr                  4.50:  Time Reaming 
 SAZI.deg               141.40:  Azm, Start 
 SDEP.m                4503.01:  Start Depth 
 SIDD.                      No:  Serv Intrp, DD 
 SINC.deg                78.04:  Inc, Start 
 SPPA.psig             5300.00:  SPP Avg 
 SPPN.psig             5100.00:  SPP Min 
 SPPX.psig             5500.00:  SPP Max 
 STIM.      18.00.00 22-Mar-20:  Start Time 
 SVCS.                 DD, MWD:  Services 
 SVER.                    9.20:  Sperry Version 
 TDAT.m                 103.00:  Tot Depth Attmp 
 TDDF.                      No:  Trip for DD 
 TDLG.m                 103.00:  Tot Depth Loggd 
 TFF .                      No:  Trip for Fail 
 TQAA.f-kp               14.00:  Torque Abs Avg 
 TQAN.f-kp               12.00:  Torque Abs Min 
 TQAX.f-kp               16.00:  Torque Abs Max 
 TRRT.°/30m               0.45:  Turn Rotating 
 MRT .                    HCIM:  Maximum Recorded Temperature 
 TTMX.degC               90.20:  Max Tool Temp 
 VS01.         90577859G12V7D4:  Virtual Str1 SN 
 VS02.            90519330D5C4:  Virtual Str2 SN 
 VS03.             90603450F11:  Virtual Str3 SN 
 VS04.           90515383R12C4:  Virtual Str4 SN 
 VS05.          90522017N2L2C4:  Virtual Str5 SN 
 VS06.            90512682Z1W1:  Virtual Str6 SN 
 WBMN.klb                 5.00:  WOB Min 
 WITN.        Elmaddin Rahimov:  Customer Rep 
 WITN.           Adil Mammadov:  Customer Rep 2 
 WOBA.klb                 8.00:  WOB Avg 
 WOBX.klb                13.00:  WOB Max 
 YP  .lhf2               31.00:  Yield Point 
~Curve Information Block
#MNEM.UNIT                 API CODE     Curve Description
#---------               -----------    ---------------------------
 TIME.HHMMSS            00 000 000 000:  GT Time & Date
 GTDEPTH.m              00 000 000 000:  GT Depth
 GTPQH.psia             00 000 000 000:  GT HR Quartz Pressure
 GTTQ.degC              00 000 000 000:  GT Quartz Temperature
 GTTN.NONE              00 000 000 000:  GT Test Number
 GTET.sec               00 000 000 000:  GT Elapsed Test Time
 GTTVD.m                00 000 000 000:  GT True Vertical Depth
#Other Information
#
#WARRANTY: Halliburton will use its best efforts to furnish customers with 
#accurate information and interpretations that are part of, and incident to, the services 
#provided.  However, Halliburton cannot and does not warrant the accuracy 
#or correctness of such information and interpretations.  Under no circumstances should any 
#such information or interpretation be relied upon as the sole basis for any drilling, 
#completion, production, or financial decision or any procedure involving any risk to the 
#safety of any drilling venture, drilling rig or its crew or any other third party.  The 
#Customer has full responsibility for all drilling, completion and production operation.  
#Halliburton makes no representations or warranties, either expressed or 
#implied, including, but not limited to, the implied warranties of merchantability or fitness 
#for a particular purpose, with respect to the services rendered.  In no event will 
#Halliburton be liable for failure to obtain any particular results or for 
#any damages, including, but not limited to, indirect, special or consequential damages, 
#resulting from the use of any information or interpretation provided by Halliburton.
#
~A           TIME           GTDEPTH  GTPQH  GTTQ  GTTN  GTET   GTTVD  
# ...
   06:02:13.766.24-Mar-2020 4533.01 4451.23 83.24 4.00 115.02 3165.89
   06:02:13.966.24-Mar-2020 4533.01 4451.23 83.24 4.00 115.22 3165.89
   06:02:14.166.24-Mar-2020 4533.01 4451.24 83.24 4.00 115.42 3165.89
   06:02:14.366.24-Mar-2020 4533.01 4451.23 83.24 4.00 115.62 3165.89
   06:02:14.567.24-Mar-2020 4533.01 4451.22 83.24 4.00 115.82 3165.89
   06:02:14.767.24-Mar-2020 4533.01 4451.23 83.24 4.00 116.02 3165.89
   06:02:14.967.24-Mar-2020 4533.01 4451.23 83.24 4.00 116.22 3165.89
   06:02:15.167.24-Mar-2020 4533.01 4451.22 83.23 4.00 116.42 3165.89
   06:02:15.367.24-Mar-2020 4533.01 4451.15 83.23 4.00 116.62 3165.89
   06:02:15.567.24-Mar-2020 4533.01 4451.27 83.23 4.00 116.82 3165.89
   06:02:15.767.24-Mar-2020 4533.01 4451.20 83.23 4.00 117.02 3165.89
   06:02:15.967.24-Mar-2020 4533.01 4451.20 83.23 4.00 117.22 3165.89
   06:02:16.167.24-Mar-2020 4533.01 4451.15 83.23 4.00 117.42 3165.89
   06:02:16.367.24-Mar-2020 4533.01 4451.28 83.23 4.00 117.62 3165.89
   06:02:16.567.24-Mar-2020 4533.01 4451.22 83.23 4.00 117.82 3165.89
   06:02:16.767.24-Mar-2020 4533.01 4451.23 83.23 4.00 118.02 3165.89
   06:02:16.967.24-Mar-2020 4533.01 4451.23 83.23 4.00 118.22 3165.89
   06:02:17.167.24-Mar-2020 4533.01 4451.15 83.23 4.00 118.42 3165.89
   06:02:17.367.24-Mar-2020 4533.01 4451.25 83.23 4.00 118.62 3165.89
   06:02:17.567.24-Mar-2020 4533.01 4451.22 83.23 4.00 118.82 3165.89
   06:02:17.767.24-Mar-2020 4533.01 4451.21 83.22 4.00 119.02 3165.89
   06:02:17.967.24-Mar-2020 4533.01 4451.21 83.22 4.00 119.22 3165.89
   06:02:18.167.24-Mar-2020 4533.01 4451.22 83.22 4.00 119.42 3165.89
   06:02:18.367.24-Mar-2020 4533.01 4451.23 83.22 4.00 119.62 3165.89
   06:02:18.567.24-Mar-2020 4533.01 4451.20 83.22 4.00 119.82 3165.89
   06:02:18.767.24-Mar-2020 4533.01 4451.23 83.22 4.00 120.02 3165.89
   06:02:18.967.24-Mar-2020 4533.01 4451.23 83.22 4.00 120.22 3165.89
   06:02:19.167.24-Mar-2020 4533.01 4451.21 83.22 4.00 120.42 3165.89
   06:02:19.367.24-Mar-2020 4533.01 4451.21 83.22 4.00 120.62 3165.89
   06:02:19.567.24-Mar-2020 4533.01 4451.19 83.22 4.00 120.82 3165.89
   06:02:19.767.24-Mar-2020 4533.01 4451.13 83.22 4.00 121.02 3165.89
   06:02:19.967.24-Mar-2020 4533.01 4451.13 83.22 4.00 121.22 3165.89
   06:02:20.167.24-Mar-2020 4533.01 4451.20 83.22 4.00 121.42 3165.89
   06:02:20.367.24-Mar-2020 4533.01 4451.20 83.22 4.00 121.62 3165.89
   06:02:20.568.24-Mar-2020 4533.01 4451.20 83.22 4.00 121.82 3165.89
   06:02:20.768.24-Mar-2020 4533.01 4451.19 83.21 4.00 122.02 3165.89
   06:02:20.968.24-Mar-2020 4533.01 4451.19 83.21 4.00 122.22 3165.89
   06:02:21.168.24-Mar-2020 4533.01 4451.19 83.21 4.00 122.42 3165.89
   06:02:21.368.24-Mar-2020 4533.01 4451.20 83.21 4.00 122.62 3165.89
   06:02:21.568.24-Mar-2020 4533.01 4451.18 83.21 4.00 122.82 3165.89
   06:02:21.768.24-Mar-2020 4533.01 4451.19 83.21 4.00 123.02 3165.89
   06:02:21.968.24-Mar-2020 4533.01 4451.19 83.21 4.00 123.22 3165.89
   06:02:22.168.24-Mar-2020 4533.01 4451.18 83.21 4.00 123.42 3165.89
   06:02:22.368.24-Mar-2020 4533.01 4451.18 83.21 4.00 123.62 3165.89
   06:02:22.568.24-Mar-2020 4533.01 4451.14 83.21 4.00 123.82 3165.89
   06:02:22.768.24-Mar-2020 4533.01 4451.19 83.21 4.00 124.02 3165.89
   06:02:22.968.24-Mar-2020 4533.01 4451.19 83.21 4.00 124.22 3165.89
   06:02:23.168.24-Mar-2020 4533.01 4451.17 83.21 4.00 124.42 3165.89
   06:02:23.368.24-Mar-2020 4533.01 4451.15 83.21 4.00 124.62 3165.89
   06:02:23.568.24-Mar-2020 4533.01 4451.19 83.20 4.00 124.82 3165.89
   06:02:23.768.24-Mar-2020 4533.01 4451.19 83.20 4.00 125.02 3165.89
   06:02:23.968.24-Mar-2020 4533.01 4451.19 83.20 4.00 125.22 3165.89
   06:02:24.168.24-Mar-2020 4533.01 4451.17 83.20 4.00 125.42 3165.89
   06:02:24.368.24-Mar-2020 4533.01 4451.17 83.20 4.00 125.62 3165.89
   06:02:24.568.24-Mar-2020 4533.01 4451.17 83.20 4.00 125.82 3165.89
   06:02:24.768.24-Mar-2020 4533.01 4451.20 83.20 4.00 126.02 3165.89
   06:02:24.968.24-Mar-2020 4533.01 4451.20 83.20 4.00 126.22 3165.89
   06:02:25.168.24-Mar-2020 4533.01 4451.21 83.20 4.00 126.42 3165.89
   06:02:25.368.24-Mar-2020 4533.01 4451.16 83.20 4.00 126.62 3165.89
   06:02:25.568.24-Mar-2020 4533.01 4451.20 83.20 4.00 126.82 3165.89
   06:02:25.768.24-Mar-2020 4533.01 4451.16 83.20 4.00 127.02 3165.89
   06:02:25.968.24-Mar-2020 4533.01 4451.16 83.20 4.00 127.22 3165.89
   06:02:26.168.24-Mar-2020 4533.01 4451.17 83.20 4.00 127.42 3165.89
   06:02:26.368.24-Mar-2020 4533.01 4451.16 83.19 4.00 127.62 3165.89
   06:02:26.569.24-Mar-2020 4533.01 4451.17 83.19 4.00 127.82 3165.89
   06:02:26.769.24-Mar-2020 4533.01 4451.15 83.19 4.00 128.02 3165.89
   06:02:26.969.24-Mar-2020 4533.01 4451.15 83.19 4.00 128.22 3165.89
   06:02:27.169.24-Mar-2020 4533.01 4451.18 83.19 4.00 128.42 3165.89
   06:02:27.369.24-Mar-2020 4533.01 4451.16 83.19 4.00 128.62 3165.89
   06:02:27.569.24-Mar-2020 4533.01 4451.15 83.19 4.00 128.82 3165.89
   06:02:27.769.24-Mar-2020 4533.01 4451.16 83.19 4.00 129.02 3165.89
   06:02:27.969.24-Mar-2020 4533.01 4451.14 83.19 4.00 129.22 3165.89
   06:02:28.169.24-Mar-2020 4533.01 4451.16 83.19 4.00 129.42 3165.89
   06:02:28.369.24-Mar-2020 4533.01 4451.14 83.19 4.00 129.62 3165.89
   06:02:28.569.24-Mar-2020 4533.01 4451.16 83.19 4.00 129.82 3165.89
   06:02:28.769.24-Mar-2020 4533.01 4451.13 83.19 4.00 130.02 3165.89
   06:02:28.969.24-Mar-2020 4533.01 4451.13 83.19 4.00 130.22 3165.89
   06:02:29.169.24-Mar-2020 4533.01 4451.14 83.18 4.00 130.42 3165.89
   06:02:29.369.24-Mar-2020 4533.01 4451.14 83.18 4.00 130.62 3165.89
   06:02:29.569.24-Mar-2020 4533.01 4451.10 83.18 4.00 130.82 3165.89
   06:02:29.769.24-Mar-2020 4533.01 4451.17 83.18 4.00 131.02 3165.89
   06:02:29.969.24-Mar-2020 4533.01 4451.17 83.18 4.00 131.22 3165.89
   06:02:30.169.24-Mar-2020 4533.01 4451.16 83.18 4.00 131.42 3165.89
   06:02:30.369.24-Mar-2020 4533.01 4451.09 83.18 4.00 131.62 3165.89
   06:02:30.569.24-Mar-2020 4533.01 4451.18 83.18 4.00 131.82 3165.89
   06:02:30.769.24-Mar-2020 4533.01 4451.14 83.18 4.00 132.02 3165.89
   06:02:30.969.24-Mar-2020 4533.01 4451.14 83.18 4.00 132.22 3165.89
   06:02:31.169.24-Mar-2020 4533.01 4444.22 83.18 4.00 132.42 3165.89
   06:02:31.369.24-Mar-2020 4533.01 4444.07 83.18 4.00 132.62 3165.89
   06:02:31.569.24-Mar-2020 4533.01 4444.22 83.18 4.00 132.82 3165.89
   06:02:31.769.24-Mar-2020 4533.01 4444.07 83.18 4.00 133.02 3165.89
   06:02:31.969.24-Mar-2020 4533.01 4444.15 83.18 4.00 133.22 3165.89
   06:02:32.169.24-Mar-2020 4533.01 4443.98 83.17 4.00 133.42 3165.89
   06:02:32.369.24-Mar-2020 4533.01 4444.16 83.17 4.00 133.62 3165.89
   06:02:32.570.24-Mar-2020 4533.01 4444.03 83.17 4.00 133.82 3165.89
   06:02:32.770.24-Mar-2020 4533.01 4444.01 83.17 4.00 134.02 3165.89
   06:02:32.970.24-Mar-2020 4533.01 4444.01 83.17 4.00 134.22 3165.89
   06:02:33.170.24-Mar-2020 4533.01 4444.03 83.17 4.00 134.42 3165.89
   06:02:33.370.24-Mar-2020 4533.01 4444.00 83.17 4.00 134.62 3165.89
   06:02:33.570.24-Mar-2020 4533.01 4444.05 83.17 4.00 134.82 3165.89
   06:02:33.770.24-Mar-2020 4533.01 4444.04 83.17 4.00 135.02 3165.89
   06:02:33.970.24-Mar-2020 4533.01 4444.04 83.17 4.00 135.22 3165.89
   06:02:34.170.24-Mar-2020 4533.01 4444.10 83.17 4.00 135.42 3165.89
   06:02:34.370.24-Mar-2020 4533.01 4444.00 83.17 4.00 135.62 3165.89
   06:02:34.570.24-Mar-2020 4533.01 4444.12 83.17 4.00 135.82 3165.89
   06:02:34.770.24-Mar-2020 4533.01 4444.05 83.17 4.00 136.02 3165.89
   06:02:34.970.24-Mar-2020 4533.01 4444.05 83.17 4.00 136.22 3165.89
   06:02:35.170.24-Mar-2020 4533.01 4444.07 83.16 4.00 136.42 3165.89
   06:02:35.370.24-Mar-2020 4533.01 4444.05 83.16 4.00 136.62 3165.89
   06:02:35.570.24-Mar-2020 4533.01 4444.04 83.16 4.00 136.82 3165.89
   06:02:35.770.24-Mar-2020 4533.01 4444.02 83.16 4.00 137.02 3165.89
   06:02:35.970.24-Mar-2020 4533.01 4444.02 83.16 4.00 137.22 3165.89
   06:02:36.170.24-Mar-2020 4533.01 4444.03 83.16 4.00 137.42 3165.89
   06:02:36.370.24-Mar-2020 4533.01 4444.06 83.16 4.00 137.62 3165.89
   06:02:36.570.24-Mar-2020 4533.01 4444.02 83.16 4.00 137.82 3165.89
