~Version Information
 VERS.                  2.0:   CWLS log ASCII Standard -VERSION 2.0
 WRAP.                   NO:   One line per depth step
~Well Information Block
#MNEM.UNIT     VALUE/NAME     DESCRIPTION
#---------     -----------    ---------------------------
 STRT.S             22:02:54 23-Mar-20: START TIME 22:02:54 23-Mar-20
 STOP.S             22:09:24 23-Mar-20: STOP TIME  22:09:24 23-Mar-20
 STEP.S                   0.00: STEP TIME
 NULL.                 -999.25: NULL VALUE
 DFWT.                        :  DIST FWL TEXT
 DFST.                        :  DIST FSL TEXT
 DMF .             Drill Floor:  DRILL MEAS FROM
 STIM.      22.30.00 15-Feb-20:  START TIME
 DATE.      17.00.00 25-Mar-20:  END TIME
 SPUD.               15-Feb-20:  SPUD DATE
 NREF.                    Grid:  NORTH REFERENCE
 HPTY.       Minimum Curvature:  HOLE POS TYPE
 DMOD.             Drill Model:  DRILL MOD DESC
 SVYD.                  Survey:  SURVEY DESC
 ILTD.               Lithology:  INTERP LTH DESC
 FTOP.          Formation Tops:  FORM TOPS DESC
 SON .        AZ-XX-0906019077:  JOB NUMBER
 PDAT.          Mean Sea Level:  PERMANENT DATUM
 WTYP.                Deviated:  WELL TYPE
 MDS .        Operator Entered:  MAG DATA SOURCE
 COMP.     BP Exploration (Caspian sea) Ltd.:  COMPANY
 UWI .                     N/A:  UNIQUE WELL IDENTIFIER
 API .                     N/A:  API NUMBER
 BASE.              Azerbaijan:  LOGGING EQUIPMENT BASE LOCATION
 REGN.                   EESSA:  REGION
 PROV.                     N/A:  PROVINCE
 STAT.                     N/A:  STATE NAME
 CTRY.              Azerbaijan:  COUNTRY NAME
 FLD .                     ACG:  FIELD NAME
 SRVC.          Turan Drilling:  CONTRACTOR
 MWDS.                    Baku:  MWD SHOP
 WELL.                    E16W:  WELL NAME
 JOBN.        AZ-XX-0906019077:  JOB TICKET NUMB
 RIG .                     DWG:  RIG NAME
 CNTY.                     N/A:  COUNTY NAME
 DCON.         Sperry Drilling:  DIRECTNL CONTR
 UNIT.                     N/A:  LOGGING EQUIPMENT ID
 LOC .                        :  LOCATION
 LMF .             Drill Floor:  LOG MEASURED FROM
 TVDS.m                  43.16:  TVDSS CORRECTN
 LATI.deg                40.17:  LATITUDE
 LONG.deg                51.17:  LONGITUDE
 WHNS.m                 -15.30:  WELL HEAD N/S
 WHEW.m                  -1.29:  WELL HEAD E/W
 UTMX.m              514337.95:  UTM X
 UTMY.m             4448627.46:  UTM Y
 DFWL.m                   0.00:  DISTANCE FWL
 DFSL.m                   0.00:  DISTANCE FSL
 SDEP.m                3499.01:  START DEPTH
 TDD .m                4606.01:  TOTAL DEPTH (DRILLER)
 VSDR.deg               151.14:  VERT SEC DIRECT
 GVFD.g                   1.00:  GRAVITY FIELD
 MFLD.nT              50334.00:  MAGNETIC FIELD
 MDIP.deg                59.62:  MAGNETIC DIP
 MDEC.deg                 6.46:  MAGNETIC DECL
 GRDC.deg                 0.12:  GRID CORRECTION
 AZTC.deg                 6.34:  AZM TOTAL CORR
 EPD .m                   0.00:  ELEVATION
 EGL .m                   0.00:  GROUND ELEVATION
 WDMS.m                 176.20:  WD ELEV
 APD .m                  43.16:  DEPTH ABOVE PD
 VSEW.m                  -1.29:  VERT SEC E/W
 VSNS.m                 -15.30:  VERT SEC N/S
 AGAP.m                  43.16:  AIR GAP
 EKB .m                   0.00:  KB ELEVATION
 EDF .m                  43.16:  DF ELEVATION
 TDL .m                 103.00:  TOTAL DEPTH (LOGGER)
 VSC .                       0:  VS TO CLOSURE
 MAGU.                 1852525:  MAGUTM CHECKSUM
~Parameter Information Block
#MNEM.UNIT       Value        Description
#---------     -----------    ---------------------------
 AV  .mps                 1.01:  Ann Velocity 
 AVMX.mps                 1.32:  Max Ann Veloc 
 AZIF.deg               140.63:  Azm, Final 
 BHAT.        Rotary Steerable:  BHA Type 
 BREV.rev            151000.00:  Rev Bit Total 
 BROT.°/30m               0.65:  Build Rotating 
 BS  .in                  6.50:  Bit Size 
 BSZ .in                  6.50:  Bit Size 
 BTPL.psig              222.00:  Bit Press Loss 
 CABU.                      No:  Customer Abuse 
 CGEO.           Emin Aliyarov:  Customer Geo 
 COMM.                     L5S:  Run Comments 1 
 TCS .hr                 22.89:  Time Ciculation Ended 
 CV  .mps                 2.20:  Crit Velocity 
 CVMX.mps                 3.04:  Max Crit Veloc 
 DD1 .         Intigam Rahimov:  Direct Drillr 1 
 DDSV.               Geo-Pilot:  DD Service 
 DEFF.%                  91.50:  % Det Eff 
 DLRX.°/30m               1.15:  Dogleg Rot Max 
 DLSO.°/30m               0.86:  Dogleg Oriented 
 DLSX.°/30m               1.15:  Dogleg Str Max 
 DRET.      13.10.00 24-Mar-20:  Drill End Time 
 DRST.      17.00.00 23-Mar-20:  Drill Start Tim 
 DTIM.hr                 11.87:  Time Drilling 
 EDEP.m                4606.01:  End Depth 
 ENG1.          Rasim Hashimov:  Engineer 1 
 ENG2.            Alan Tuganov:  Engineer 2 
 ENG3.         Yevgeniy Ulikov:  Engineer 3 
 ETIM.      16.00.00 25-Mar-20:  End Time 
 FLOI.gpm               400.00:  Flow In 
 FLON.gpm               350.00:  Flow In Min 
 FLOS.cptm                0.00:  Fluid Loss 
 FLOX.gpm               400.00:  Flow In Max 
 FTRO.       Formation Presure:  FTWD Run Obj 
 HFLO.                      No:  High Flow 
 HPRE.                      No:  High Pressure 
 HTEM.                      No:  High Temp 
 HYDO.m                   1.80:  Hydro Offset 
 IFIN.deg                79.55:  Inc, Final 
 IMAX.deg                79.55:  Inc Max 
 IMIN.deg                78.04:  Inc Min 
 IMND.m                4502.50:  Inc Min Depth 
 IMXD.m                4587.87:  Inc Max Depth 
 JARR.                      No:  Jarring 
 LETM.      13.10.00 24-Mar-20:  Log End Time 
 LOST.hr                     0:  Lost Rig Time 
 LSTM.      17.00.00 23-Mar-20:  Log Start Time 
 MDCL.ppm             39000.00:  Mud Chlorides 
 MDES.     Inversion Oil/Synthetic:  Mud Desc 
 DFD .sg                  1.40:  Mud Density 
 MDMN.sg                  1.40:  Dens Mud Min 
 MDMX.sg                  1.40:  Dens Mud Max 
 MOIL.                    55.2:  Run Mud Oil % 
 MOWR.                   68:32:  Run Mud OWR 
 MSND.                     0.1:  Run Mud Sand % 
 MSOL.                    17.8:  Run Mud Solids% 
 DFV .spqt               76.00:  Mud Viscosity 
 MWOD.in                  4.75:  MWD Tool OD 
 MWSI.                      No:  Serv Intrp, MWD 
 OTIM.hr                 64.35:  Time Operating 
 PCON.           Look Like New:  Pad Condition 
 PMAX.psia             5350.00:  Press Op, Max 
 PV  .cP                 26.00:  Mud PV 
 RUN .                     900:  Run Number 
 ROPA.m/hr                9.00:  ROP Avg 
 ROPN.m/hr                7.00:  ROP Min 
 ROPX.m/hr               13.00:  ROP Max 
 RPMA.rpm               140.00:  RPM Surface Avg 
 RPMN.rpm               140.00:  RPM Surface Min 
 RPMX.rpm               140.00:  RPM Surface Max 
 RRUN.                    L204:  Rig Run Number 
 RTIM.hr                  4.50:  Time Reaming 
 SAZI.deg               141.40:  Azm, Start 
 SDEP.m                4503.01:  Start Depth 
 SIDD.                      No:  Serv Intrp, DD 
 SINC.deg                78.04:  Inc, Start 
 SPPA.psig             5300.00:  SPP Avg 
 SPPN.psig             5100.00:  SPP Min 
 SPPX.psig             5500.00:  SPP Max 
 STIM.      18.00.00 22-Mar-20:  Start Time 
 SVCS.                 DD, MWD:  Services 
 SVER.                    9.20:  Sperry Version 
 TDAT.m                 103.00:  Tot Depth Attmp 
 TDDF.                      No:  Trip for DD 
 TDLG.m                 103.00:  Tot Depth Loggd 
 TFF .                      No:  Trip for Fail 
 TQAA.f-kp               14.00:  Torque Abs Avg 
 TQAN.f-kp               12.00:  Torque Abs Min 
 TQAX.f-kp               16.00:  Torque Abs Max 
 TRRT.°/30m               0.45:  Turn Rotating 
 MRT .                    HCIM:  Maximum Recorded Temperature 
 TTMX.degC               90.20:  Max Tool Temp 
 VS01.         90577859G12V7D4:  Virtual Str1 SN 
 VS02.            90519330D5C4:  Virtual Str2 SN 
 VS03.             90603450F11:  Virtual Str3 SN 
 VS04.           90515383R12C4:  Virtual Str4 SN 
 VS05.          90522017N2L2C4:  Virtual Str5 SN 
 VS06.            90512682Z1W1:  Virtual Str6 SN 
 WBMN.klb                 5.00:  WOB Min 
 WITN.        Elmaddin Rahimov:  Customer Rep 
 WITN.           Adil Mammadov:  Customer Rep 2 
 WOBA.klb                 8.00:  WOB Avg 
 WOBX.klb                13.00:  WOB Max 
 YP  .lhf2               31.00:  Yield Point 
~Curve Information Block
#MNEM.UNIT                 API CODE     Curve Description
#---------               -----------    ---------------------------
 TIME.HHMMSS            00 000 000 000:  GT Time & Date
 GTDEPTH.m              00 000 000 000:  GT Depth
 GTPQH.psia             00 000 000 000:  GT HR Quartz Pressure
 GTTQ.degC              00 000 000 000:  GT Quartz Temperature
 GTTN.NONE              00 000 000 000:  GT Test Number
 GTET.sec               00 000 000 000:  GT Elapsed Test Time
 GTTVD.m                00 000 000 000:  GT True Vertical Depth
#Other Information
#
#WARRANTY: Halliburton will use its best efforts to furnish customers with 
#accurate information and interpretations that are part of, and incident to, the services 
#provided.  However, Halliburton cannot and does not warrant the accuracy 
#or correctness of such information and interpretations.  Under no circumstances should any 
#such information or interpretation be relied upon as the sole basis for any drilling, 
#completion, production, or financial decision or any procedure involving any risk to the 
#safety of any drilling venture, drilling rig or its crew or any other third party.  The 
#Customer has full responsibility for all drilling, completion and production operation.  
#Halliburton makes no representations or warranties, either expressed or 
#implied, including, but not limited to, the implied warranties of merchantability or fitness 
#for a particular purpose, with respect to the services rendered.  In no event will 
#Halliburton be liable for failure to obtain any particular results or for 
#any damages, including, but not limited to, indirect, special or consequential damages, 
#resulting from the use of any information or interpretation provided by Halliburton.
#
~A           TIME           GTDEPTH  GTPQH  GTTQ  GTTN  GTET   GTTVD  
# ...
   22:06:44.940.23-Mar-2020 4483.01 4531.57 76.41 1.00 230.04 3155.68
   22:06:45.140.23-Mar-2020 4483.01 4531.57 76.41 1.00 230.24 3155.68
   22:06:45.340.23-Mar-2020 4483.01 4531.56 76.41 1.00 230.44 3155.68
   22:06:45.540.23-Mar-2020 4483.01 4531.56 76.41 1.00 230.64 3155.68
   22:06:45.740.23-Mar-2020 4483.01 4531.55 76.41 1.00 230.84 3155.68
   22:06:45.940.23-Mar-2020 4483.01 4531.56 76.41 1.00 231.04 3155.68
   22:06:46.140.23-Mar-2020 4483.01 4531.56 76.41 1.00 231.24 3155.68
   22:06:46.340.23-Mar-2020 4483.01 4531.55 76.41 1.00 231.44 3155.68
   22:06:46.540.23-Mar-2020 4483.01 4531.49 76.41 1.00 231.64 3155.68
   22:06:46.740.23-Mar-2020 4483.01 4531.58 76.41 1.00 231.84 3155.68
   22:06:46.940.23-Mar-2020 4483.01 4531.58 76.41 1.00 232.04 3155.68
   22:06:47.140.23-Mar-2020 4483.01 4531.58 76.41 1.00 232.24 3155.68
   22:06:47.340.23-Mar-2020 4483.01 4531.56 76.41 1.00 232.44 3155.68
   22:06:47.540.23-Mar-2020 4483.01 4531.55 76.41 1.00 232.64 3155.68
   22:06:47.740.23-Mar-2020 4483.01 4531.56 76.40 1.00 232.84 3155.68
   22:06:47.941.23-Mar-2020 4483.01 4531.56 76.40 1.00 233.04 3155.68
   22:06:48.141.23-Mar-2020 4483.01 4531.56 76.40 1.00 233.24 3155.68
   22:06:48.341.23-Mar-2020 4483.01 4531.55 76.40 1.00 233.44 3155.68
   22:06:48.541.23-Mar-2020 4483.01 4531.56 76.40 1.00 233.64 3155.68
   22:06:48.741.23-Mar-2020 4483.01 4531.55 76.40 1.00 233.84 3155.68
   22:06:48.941.23-Mar-2020 4483.01 4531.54 76.40 1.00 234.04 3155.68
   22:06:49.141.23-Mar-2020 4483.01 4531.54 76.40 1.00 234.24 3155.68
   22:06:49.341.23-Mar-2020 4483.01 4531.55 76.40 1.00 234.44 3155.68
   22:06:49.541.23-Mar-2020 4483.01 4531.54 76.40 1.00 234.64 3155.68
   22:06:49.741.23-Mar-2020 4483.01 4531.55 76.40 1.00 234.84 3155.68
   22:06:49.941.23-Mar-2020 4483.01 4531.56 76.40 1.00 235.04 3155.68
   22:06:50.141.23-Mar-2020 4483.01 4531.56 76.40 1.00 235.24 3155.68
   22:06:50.341.23-Mar-2020 4483.01 4531.48 76.40 1.00 235.44 3155.68
   22:06:50.541.23-Mar-2020 4483.01 4531.58 76.40 1.00 235.64 3155.68
   22:06:50.741.23-Mar-2020 4483.01 4531.57 76.40 1.00 235.84 3155.68
   22:06:50.941.23-Mar-2020 4483.01 4531.55 76.40 1.00 236.04 3155.68
   22:06:51.141.23-Mar-2020 4483.01 4531.55 76.40 1.00 236.24 3155.68
   22:06:51.341.23-Mar-2020 4483.01 4531.58 76.39 1.00 236.44 3155.68
   22:06:51.541.23-Mar-2020 4483.01 4531.57 76.39 1.00 236.64 3155.68
   22:06:51.741.23-Mar-2020 4483.01 4531.56 76.39 1.00 236.84 3155.68
   22:06:51.941.23-Mar-2020 4483.01 4531.54 76.39 1.00 237.04 3155.68
   22:06:52.141.23-Mar-2020 4483.01 4531.54 76.39 1.00 237.24 3155.68
   22:06:52.341.23-Mar-2020 4483.01 4531.47 76.39 1.00 237.44 3155.68
   22:06:52.541.23-Mar-2020 4483.01 4531.59 76.39 1.00 237.64 3155.68
   22:06:52.741.23-Mar-2020 4483.01 4531.56 76.39 1.00 237.84 3155.68
   22:06:52.941.23-Mar-2020 4483.01 4531.55 76.39 1.00 238.04 3155.68
   22:06:53.141.23-Mar-2020 4483.01 4531.54 76.39 1.00 238.24 3155.68
   22:06:53.341.23-Mar-2020 4483.01 4531.55 76.39 1.00 238.44 3155.68
   22:06:53.541.23-Mar-2020 4483.01 4531.53 76.39 1.00 238.64 3155.68
   22:06:53.742.23-Mar-2020 4483.01 4531.54 76.39 1.00 238.84 3155.68
   22:06:53.942.23-Mar-2020 4483.01 4531.54 76.39 1.00 239.04 3155.68
   22:06:54.142.23-Mar-2020 4483.01 4531.54 76.39 1.00 239.24 3155.68
   22:06:54.342.23-Mar-2020 4483.01 4531.53 76.38 1.00 239.44 3155.68
   22:06:54.542.23-Mar-2020 4483.01 4531.54 76.38 1.00 239.64 3155.68
   22:06:54.742.23-Mar-2020 4483.01 4531.54 76.38 1.00 239.84 3155.68
   22:06:54.942.23-Mar-2020 4483.01 4531.55 76.38 1.00 240.04 3155.68
   22:06:55.142.23-Mar-2020 4483.01 4531.55 76.38 1.00 240.24 3155.68
   22:06:55.342.23-Mar-2020 4483.01 4531.52 76.38 1.00 240.44 3155.68
   22:06:55.542.23-Mar-2020 4483.01 4523.20 76.38 1.00 240.64 3155.68
   22:06:55.742.23-Mar-2020 4483.01 4517.10 76.38 1.00 240.84 3155.68
   22:06:55.942.23-Mar-2020 4483.01 4517.11 76.38 1.00 241.04 3155.68
   22:06:56.142.23-Mar-2020 4483.01 4517.11 76.38 1.00 241.24 3155.68
   22:06:56.342.23-Mar-2020 4483.01 4516.93 76.38 1.00 241.44 3155.68
   22:06:56.542.23-Mar-2020 4483.01 4516.99 76.38 1.00 241.64 3155.68
   22:06:56.742.23-Mar-2020 4483.01 4517.00 76.38 1.00 241.84 3155.68
   22:06:56.942.23-Mar-2020 4483.01 4516.78 76.38 1.00 242.04 3155.68
   22:06:57.142.23-Mar-2020 4483.01 4516.78 76.38 1.00 242.24 3155.68
   22:06:57.342.23-Mar-2020 4483.01 4517.03 76.38 1.00 242.44 3155.68
   22:06:57.542.23-Mar-2020 4483.01 4517.09 76.37 1.00 242.64 3155.68
   22:06:57.742.23-Mar-2020 4483.01 4517.18 76.37 1.00 242.84 3155.68
   22:06:57.942.23-Mar-2020 4483.01 4517.53 76.37 1.00 243.04 3155.68
   22:06:58.142.23-Mar-2020 4483.01 4517.53 76.37 1.00 243.24 3155.68
   22:06:58.342.23-Mar-2020 4483.01 4517.55 76.37 1.00 243.44 3155.68
   22:06:58.542.23-Mar-2020 4483.01 4517.36 76.37 1.00 243.64 3155.68
   22:06:58.742.23-Mar-2020 4483.01 4517.33 76.37 1.00 243.84 3155.68
   22:06:58.942.23-Mar-2020 4483.01 4517.18 76.37 1.00 244.04 3155.68
   22:06:59.142.23-Mar-2020 4483.01 4517.18 76.37 1.00 244.24 3155.68
   22:06:59.342.23-Mar-2020 4483.01 4517.28 76.37 1.00 244.44 3155.68
   22:06:59.543.23-Mar-2020 4483.01 4517.29 76.37 1.00 244.64 3155.68
   22:06:59.743.23-Mar-2020 4483.01 4517.36 76.37 1.00 244.84 3155.68
   22:06:59.943.23-Mar-2020 4483.01 4517.17 76.37 1.00 245.04 3155.68
   22:07:00.143.23-Mar-2020 4483.01 4517.17 76.37 1.00 245.24 3155.68
   22:07:00.343.23-Mar-2020 4483.01 4517.14 76.37 1.00 245.44 3155.68
   22:07:00.543.23-Mar-2020 4483.01 4517.22 76.37 1.00 245.64 3155.68
   22:07:00.743.23-Mar-2020 4483.01 4517.22 76.36 1.00 245.84 3155.68
   22:07:00.943.23-Mar-2020 4483.01 4517.18 76.36 1.00 246.04 3155.68
   22:07:01.143.23-Mar-2020 4483.01 4517.18 76.36 1.00 246.24 3155.68
   22:07:01.343.23-Mar-2020 4483.01 4517.21 76.36 1.00 246.44 3155.68
   22:07:01.543.23-Mar-2020 4483.01 4517.10 76.36 1.00 246.64 3155.68
   22:07:01.743.23-Mar-2020 4483.01 4517.14 76.36 1.00 246.84 3155.68
   22:07:01.943.23-Mar-2020 4483.01 4516.87 76.36 1.00 247.04 3155.68
   22:07:02.143.23-Mar-2020 4483.01 4516.87 76.36 1.00 247.24 3155.68
   22:07:02.343.23-Mar-2020 4483.01 4517.25 76.36 1.00 247.44 3155.68
   22:07:02.543.23-Mar-2020 4483.01 4517.21 76.36 1.00 247.64 3155.68
   22:07:02.743.23-Mar-2020 4483.01 4517.27 76.36 1.00 247.84 3155.68
   22:07:02.943.23-Mar-2020 4483.01 4517.18 76.36 1.00 248.04 3155.68
   22:07:03.143.23-Mar-2020 4483.01 4517.18 76.36 1.00 248.24 3155.68
   22:07:03.343.23-Mar-2020 4483.01 4517.11 76.36 1.00 248.44 3155.68
   22:07:03.543.23-Mar-2020 4483.01 4517.09 76.36 1.00 248.64 3155.68
   22:07:03.743.23-Mar-2020 4483.01 4517.25 76.36 1.00 248.84 3155.68
   22:07:03.943.23-Mar-2020 4483.01 4517.09 76.35 1.00 249.04 3155.68
   22:07:04.143.23-Mar-2020 4483.01 4517.09 76.35 1.00 249.24 3155.68
   22:07:04.343.23-Mar-2020 4483.01 4517.06 76.35 1.00 249.44 3155.68
   22:07:04.543.23-Mar-2020 4483.01 4517.12 76.35 1.00 249.64 3155.68
   22:07:04.743.23-Mar-2020 4483.01 4517.04 76.35 1.00 249.84 3155.68
   22:07:04.943.23-Mar-2020 4483.01 4517.18 76.35 1.00 250.04 3155.68
   22:07:05.143.23-Mar-2020 4483.01 4517.25 76.35 1.00 250.24 3155.68
   22:07:05.344.23-Mar-2020 4483.01 4517.29 76.35 1.00 250.44 3155.68
   22:07:05.544.23-Mar-2020 4483.01 4517.25 76.35 1.00 250.64 3155.68
   22:07:05.744.23-Mar-2020 4483.01 4519.00 76.35 1.00 250.84 3155.68
   22:07:05.944.23-Mar-2020 4483.01 4531.06 76.35 1.00 251.04 3155.68
   22:07:06.144.23-Mar-2020 4483.01 4531.06 76.35 1.00 251.24 3155.68
   22:07:06.344.23-Mar-2020 4483.01 4531.64 76.35 1.00 251.44 3155.68
   22:07:06.544.23-Mar-2020 4483.01 4531.52 76.35 1.00 251.64 3155.68
   22:07:06.744.23-Mar-2020 4483.01 4531.55 76.35 1.00 251.84 3155.68
   22:07:06.944.23-Mar-2020 4483.01 4531.54 76.35 1.00 252.04 3155.68
   22:07:07.144.23-Mar-2020 4483.01 4531.54 76.35 1.00 252.24 3155.68
   22:07:07.344.23-Mar-2020 4483.01 4531.51 76.34 1.00 252.44 3155.68
   22:07:07.544.23-Mar-2020 4483.01 4531.50 76.34 1.00 252.64 3155.68
   22:07:07.744.23-Mar-2020 4483.01 4531.43 76.34 1.00 252.84 3155.68
