~Version Information
 VERS.                  2.0:   CWLS log ASCII Standard -VERSION 2.0
 WRAP.                   NO:   One line per depth step
~Well Information Block
#MNEM.UNIT     VALUE/NAME     DESCRIPTION
#---------     -----------    ---------------------------
 STRT.S             22:02:54 23-Mar-20: START TIME 22:02:54 23-Mar-20
 STOP.S             22:09:24 23-Mar-20: STOP TIME  22:09:24 23-Mar-20
 STEP.S                   0.00: STEP TIME
 NULL.                 -999.25: NULL VALUE
 DFWT.                        :  DIST FWL TEXT
 DFST.                        :  DIST FSL TEXT
 DMF .             Drill Floor:  DRILL MEAS FROM
 STIM.      22.30.00 15-Feb-20:  START TIME
 DATE.      17.00.00 25-Mar-20:  END TIME
 SPUD.               15-Feb-20:  SPUD DATE
 NREF.                    Grid:  NORTH REFERENCE
 HPTY.       Minimum Curvature:  HOLE POS TYPE
 DMOD.             Drill Model:  DRILL MOD DESC
 SVYD.                  Survey:  SURVEY DESC
 ILTD.               Lithology:  INTERP LTH DESC
 FTOP.          Formation Tops:  FORM TOPS DESC
 SON .        AZ-XX-0906019077:  JOB NUMBER
 PDAT.          Mean Sea Level:  PERMANENT DATUM
 WTYP.                Deviated:  WELL TYPE
 MDS .        Operator Entered:  MAG DATA SOURCE
 COMP.     BP Exploration (Caspian sea) Ltd.:  COMPANY
 UWI .                     N/A:  UNIQUE WELL IDENTIFIER
 API .                     N/A:  API NUMBER
 BASE.              Azerbaijan:  LOGGING EQUIPMENT BASE LOCATION
 REGN.                   EESSA:  REGION
 PROV.                     N/A:  PROVINCE
 STAT.                     N/A:  STATE NAME
 CTRY.              Azerbaijan:  COUNTRY NAME
 FLD .                     ACG:  FIELD NAME
 SRVC.          Turan Drilling:  CONTRACTOR
 MWDS.                    Baku:  MWD SHOP
 WELL.                    E16W:  WELL NAME
 JOBN.        AZ-XX-0906019077:  JOB TICKET NUMB
 RIG .                     DWG:  RIG NAME
 CNTY.                     N/A:  COUNTY NAME
 DCON.         Sperry Drilling:  DIRECTNL CONTR
 UNIT.                     N/A:  LOGGING EQUIPMENT ID
 LOC .                        :  LOCATION
 LMF .             Drill Floor:  LOG MEASURED FROM
 TVDS.m                  43.16:  TVDSS CORRECTN
 LATI.deg                40.17:  LATITUDE
 LONG.deg                51.17:  LONGITUDE
 WHNS.m                 -15.30:  WELL HEAD N/S
 WHEW.m                  -1.29:  WELL HEAD E/W
 UTMX.m              514337.95:  UTM X
 UTMY.m             4448627.46:  UTM Y
 DFWL.m                   0.00:  DISTANCE FWL
 DFSL.m                   0.00:  DISTANCE FSL
 SDEP.m                3499.01:  START DEPTH
 TDD .m                4606.01:  TOTAL DEPTH (DRILLER)
 VSDR.deg               151.14:  VERT SEC DIRECT
 GVFD.g                   1.00:  GRAVITY FIELD
 MFLD.nT              50334.00:  MAGNETIC FIELD
 MDIP.deg                59.62:  MAGNETIC DIP
 MDEC.deg                 6.46:  MAGNETIC DECL
 GRDC.deg                 0.12:  GRID CORRECTION
 AZTC.deg                 6.34:  AZM TOTAL CORR
 EPD .m                   0.00:  ELEVATION
 EGL .m                   0.00:  GROUND ELEVATION
 WDMS.m                 176.20:  WD ELEV
 APD .m                  43.16:  DEPTH ABOVE PD
 VSEW.m                  -1.29:  VERT SEC E/W
 VSNS.m                 -15.30:  VERT SEC N/S
 AGAP.m                  43.16:  AIR GAP
 EKB .m                   0.00:  KB ELEVATION
 EDF .m                  43.16:  DF ELEVATION
 TDL .m                 103.00:  TOTAL DEPTH (LOGGER)
 VSC .                       0:  VS TO CLOSURE
 MAGU.                 1852525:  MAGUTM CHECKSUM
~Parameter Information Block
#MNEM.UNIT       Value        Description
#---------     -----------    ---------------------------
 AV  .mps                 1.01:  Ann Velocity 
 AVMX.mps                 1.32:  Max Ann Veloc 
 AZIF.deg               140.63:  Azm, Final 
 BHAT.        Rotary Steerable:  BHA Type 
 BREV.rev            151000.00:  Rev Bit Total 
 BROT.°/30m               0.65:  Build Rotating 
 BS  .in                  6.50:  Bit Size 
 BSZ .in                  6.50:  Bit Size 
 BTPL.psig              222.00:  Bit Press Loss 
 CABU.                      No:  Customer Abuse 
 CGEO.           Emin Aliyarov:  Customer Geo 
 COMM.                     L5S:  Run Comments 1 
 TCS .hr                 22.89:  Time Ciculation Ended 
 CV  .mps                 2.20:  Crit Velocity 
 CVMX.mps                 3.04:  Max Crit Veloc 
 DD1 .         Intigam Rahimov:  Direct Drillr 1 
 DDSV.               Geo-Pilot:  DD Service 
 DEFF.%                  91.50:  % Det Eff 
 DLRX.°/30m               1.15:  Dogleg Rot Max 
 DLSO.°/30m               0.86:  Dogleg Oriented 
 DLSX.°/30m               1.15:  Dogleg Str Max 
 DRET.      13.10.00 24-Mar-20:  Drill End Time 
 DRST.      17.00.00 23-Mar-20:  Drill Start Tim 
 DTIM.hr                 11.87:  Time Drilling 
 EDEP.m                4606.01:  End Depth 
 ENG1.          Rasim Hashimov:  Engineer 1 
 ENG2.            Alan Tuganov:  Engineer 2 
 ENG3.         Yevgeniy Ulikov:  Engineer 3 
 ETIM.      16.00.00 25-Mar-20:  End Time 
 FLOI.gpm               400.00:  Flow In 
 FLON.gpm               350.00:  Flow In Min 
 FLOS.cptm                0.00:  Fluid Loss 
 FLOX.gpm               400.00:  Flow In Max 
 FTRO.       Formation Presure:  FTWD Run Obj 
 HFLO.                      No:  High Flow 
 HPRE.                      No:  High Pressure 
 HTEM.                      No:  High Temp 
 HYDO.m                   1.80:  Hydro Offset 
 IFIN.deg                79.55:  Inc, Final 
 IMAX.deg                79.55:  Inc Max 
 IMIN.deg                78.04:  Inc Min 
 IMND.m                4502.50:  Inc Min Depth 
 IMXD.m                4587.87:  Inc Max Depth 
 JARR.                      No:  Jarring 
 LETM.      13.10.00 24-Mar-20:  Log End Time 
 LOST.hr                     0:  Lost Rig Time 
 LSTM.      17.00.00 23-Mar-20:  Log Start Time 
 MDCL.ppm             39000.00:  Mud Chlorides 
 MDES.     Inversion Oil/Synthetic:  Mud Desc 
 DFD .sg                  1.40:  Mud Density 
 MDMN.sg                  1.40:  Dens Mud Min 
 MDMX.sg                  1.40:  Dens Mud Max 
 MOIL.                    55.2:  Run Mud Oil % 
 MOWR.                   68:32:  Run Mud OWR 
 MSND.                     0.1:  Run Mud Sand % 
 MSOL.                    17.8:  Run Mud Solids% 
 DFV .spqt               76.00:  Mud Viscosity 
 MWOD.in                  4.75:  MWD Tool OD 
 MWSI.                      No:  Serv Intrp, MWD 
 OTIM.hr                 64.35:  Time Operating 
 PCON.           Look Like New:  Pad Condition 
 PMAX.psia             5350.00:  Press Op, Max 
 PV  .cP                 26.00:  Mud PV 
 RUN .                     900:  Run Number 
 ROPA.m/hr                9.00:  ROP Avg 
 ROPN.m/hr                7.00:  ROP Min 
 ROPX.m/hr               13.00:  ROP Max 
 RPMA.rpm               140.00:  RPM Surface Avg 
 RPMN.rpm               140.00:  RPM Surface Min 
 RPMX.rpm               140.00:  RPM Surface Max 
 RRUN.                    L204:  Rig Run Number 
 RTIM.hr                  4.50:  Time Reaming 
 SAZI.deg               141.40:  Azm, Start 
 SDEP.m                4503.01:  Start Depth 
 SIDD.                      No:  Serv Intrp, DD 
 SINC.deg                78.04:  Inc, Start 
 SPPA.psig             5300.00:  SPP Avg 
 SPPN.psig             5100.00:  SPP Min 
 SPPX.psig             5500.00:  SPP Max 
 STIM.      18.00.00 22-Mar-20:  Start Time 
 SVCS.                 DD, MWD:  Services 
 SVER.                    9.20:  Sperry Version 
 TDAT.m                 103.00:  Tot Depth Attmp 
 TDDF.                      No:  Trip for DD 
 TDLG.m                 103.00:  Tot Depth Loggd 
 TFF .                      No:  Trip for Fail 
 TQAA.f-kp               14.00:  Torque Abs Avg 
 TQAN.f-kp               12.00:  Torque Abs Min 
 TQAX.f-kp               16.00:  Torque Abs Max 
 TRRT.°/30m               0.45:  Turn Rotating 
 MRT .                    HCIM:  Maximum Recorded Temperature 
 TTMX.degC               90.20:  Max Tool Temp 
 VS01.         90577859G12V7D4:  Virtual Str1 SN 
 VS02.            90519330D5C4:  Virtual Str2 SN 
 VS03.             90603450F11:  Virtual Str3 SN 
 VS04.           90515383R12C4:  Virtual Str4 SN 
 VS05.          90522017N2L2C4:  Virtual Str5 SN 
 VS06.            90512682Z1W1:  Virtual Str6 SN 
 WBMN.klb                 5.00:  WOB Min 
 WITN.        Elmaddin Rahimov:  Customer Rep 
 WITN.           Adil Mammadov:  Customer Rep 2 
 WOBA.klb                 8.00:  WOB Avg 
 WOBX.klb                13.00:  WOB Max 
 YP  .lhf2               31.00:  Yield Point 
~Curve Information Block
#MNEM.UNIT                 API CODE     Curve Description
#---------               -----------    ---------------------------
 TIME.HHMMSS            00 000 000 000:  GT Time & Date
 GTDEPTH.m              00 000 000 000:  GT Depth
 GTPQH.psia             00 000 000 000:  GT HR Quartz Pressure
 GTTQ.degC              00 000 000 000:  GT Quartz Temperature
 GTTN.NONE              00 000 000 000:  GT Test Number
 GTET.sec               00 000 000 000:  GT Elapsed Test Time
 GTTVD.m                00 000 000 000:  GT True Vertical Depth
#Other Information
#
#WARRANTY: Halliburton will use its best efforts to furnish customers with 
#accurate information and interpretations that are part of, and incident to, the services 
#provided.  However, Halliburton cannot and does not warrant the accuracy 
#or correctness of such information and interpretations.  Under no circumstances should any 
#such information or interpretation be relied upon as the sole basis for any drilling, 
#completion, production, or financial decision or any procedure involving any risk to the 
#safety of any drilling venture, drilling rig or its crew or any other third party.  The 
#Customer has full responsibility for all drilling, completion and production operation.  
#Halliburton makes no representations or warranties, either expressed or 
#implied, including, but not limited to, the implied warranties of merchantability or fitness 
#for a particular purpose, with respect to the services rendered.  In no event will 
#Halliburton be liable for failure to obtain any particular results or for 
#any damages, including, but not limited to, indirect, special or consequential damages, 
#resulting from the use of any information or interpretation provided by Halliburton.
#
~A           TIME           GTDEPTH  GTPQH  GTTQ  GTTN  GTET   GTTVD  
# ...
   22:04:26.916.23-Mar-2020 4483.01 4532.08 76.90 1.00  92.02 3155.68
   22:04:27.116.23-Mar-2020 4483.01 4532.08 76.90 1.00  92.22 3155.68
   22:04:27.316.23-Mar-2020 4483.01 4532.06 76.90 1.00  92.42 3155.68
   22:04:27.516.23-Mar-2020 4483.01 4532.07 76.90 1.00  92.62 3155.68
   22:04:27.716.23-Mar-2020 4483.01 4532.05 76.90 1.00  92.82 3155.68
   22:04:27.916.23-Mar-2020 4483.01 4532.05 76.90 1.00  93.02 3155.68
   22:04:28.116.23-Mar-2020 4483.01 4532.05 76.90 1.00  93.22 3155.68
   22:04:28.316.23-Mar-2020 4483.01 4531.96 76.90 1.00  93.42 3155.68
   22:04:28.516.23-Mar-2020 4483.01 4532.09 76.90 1.00  93.62 3155.68
   22:04:28.716.23-Mar-2020 4483.01 4532.07 76.90 1.00  93.82 3155.68
   22:04:28.916.23-Mar-2020 4483.01 4532.06 76.90 1.00  94.02 3155.68
   22:04:29.117.23-Mar-2020 4483.01 4532.06 76.90 1.00  94.22 3155.68
   22:04:29.317.23-Mar-2020 4483.01 4532.06 76.89 1.00  94.42 3155.68
   22:04:29.517.23-Mar-2020 4483.01 4532.04 76.89 1.00  94.62 3155.68
   22:04:29.717.23-Mar-2020 4483.01 4532.05 76.89 1.00  94.82 3155.68
   22:04:29.917.23-Mar-2020 4483.01 4532.04 76.89 1.00  95.02 3155.68
   22:04:30.117.23-Mar-2020 4483.01 4532.04 76.89 1.00  95.22 3155.68
   22:04:30.317.23-Mar-2020 4483.01 4532.04 76.89 1.00  95.42 3155.68
   22:04:30.517.23-Mar-2020 4483.01 4532.05 76.89 1.00  95.62 3155.68
   22:04:30.717.23-Mar-2020 4483.01 4532.04 76.89 1.00  95.82 3155.68
   22:04:30.917.23-Mar-2020 4483.01 4532.03 76.89 1.00  96.02 3155.68
   22:04:31.117.23-Mar-2020 4483.01 4532.03 76.89 1.00  96.22 3155.68
   22:04:31.317.23-Mar-2020 4483.01 4532.03 76.89 1.00  96.42 3155.68
   22:04:31.517.23-Mar-2020 4483.01 4532.03 76.89 1.00  96.62 3155.68
   22:04:31.717.23-Mar-2020 4483.01 4532.05 76.88 1.00  96.82 3155.68
   22:04:31.917.23-Mar-2020 4483.01 4532.04 76.88 1.00  97.02 3155.68
   22:04:32.117.23-Mar-2020 4483.01 4532.04 76.88 1.00  97.22 3155.68
   22:04:32.317.23-Mar-2020 4483.01 4532.06 76.88 1.00  97.42 3155.68
   22:04:32.517.23-Mar-2020 4483.01 4532.06 76.88 1.00  97.62 3155.68
   22:04:32.717.23-Mar-2020 4483.01 4532.04 76.88 1.00  97.82 3155.68
   22:04:32.917.23-Mar-2020 4483.01 4532.00 76.88 1.00  98.02 3155.68
   22:04:33.117.23-Mar-2020 4483.01 4532.00 76.88 1.00  98.22 3155.68
   22:04:33.317.23-Mar-2020 4483.01 4532.04 76.88 1.00  98.42 3155.68
   22:04:33.517.23-Mar-2020 4483.01 4532.05 76.88 1.00  98.62 3155.68
   22:04:33.717.23-Mar-2020 4483.01 4532.02 76.88 1.00  98.82 3155.68
   22:04:33.917.23-Mar-2020 4483.01 4532.04 76.88 1.00  99.02 3155.68
   22:04:34.117.23-Mar-2020 4483.01 4532.04 76.88 1.00  99.22 3155.68
   22:04:34.317.23-Mar-2020 4483.01 4532.03 76.87 1.00  99.42 3155.68
   22:04:34.517.23-Mar-2020 4483.01 4532.04 76.87 1.00  99.62 3155.68
   22:04:34.717.23-Mar-2020 4483.01 4532.03 76.87 1.00  99.82 3155.68
   22:04:34.918.23-Mar-2020 4483.01 4532.01 76.87 1.00 100.02 3155.68
   22:04:35.118.23-Mar-2020 4483.01 4532.01 76.87 1.00 100.22 3155.68
   22:04:35.318.23-Mar-2020 4483.01 4532.01 76.87 1.00 100.42 3155.68
   22:04:35.518.23-Mar-2020 4483.01 4532.02 76.87 1.00 100.62 3155.68
   22:04:35.718.23-Mar-2020 4483.01 4532.00 76.87 1.00 100.82 3155.68
   22:04:35.918.23-Mar-2020 4483.01 4531.97 76.87 1.00 101.02 3155.68
   22:04:36.118.23-Mar-2020 4483.01 4531.97 76.87 1.00 101.22 3155.68
   22:04:36.318.23-Mar-2020 4483.01 4532.03 76.87 1.00 101.42 3155.68
   22:04:36.518.23-Mar-2020 4483.01 4532.00 76.87 1.00 101.62 3155.68
   22:04:36.718.23-Mar-2020 4483.01 4532.01 76.86 1.00 101.82 3155.68
   22:04:36.918.23-Mar-2020 4483.01 4532.00 76.86 1.00 102.02 3155.68
   22:04:37.118.23-Mar-2020 4483.01 4532.00 76.86 1.00 102.22 3155.68
   22:04:37.318.23-Mar-2020 4483.01 4532.00 76.86 1.00 102.42 3155.68
   22:04:37.518.23-Mar-2020 4483.01 4531.99 76.86 1.00 102.62 3155.68
   22:04:37.718.23-Mar-2020 4483.01 4532.01 76.86 1.00 102.82 3155.68
   22:04:37.918.23-Mar-2020 4483.01 4531.99 76.86 1.00 103.02 3155.68
   22:04:38.118.23-Mar-2020 4483.01 4531.99 76.86 1.00 103.22 3155.68
   22:04:38.318.23-Mar-2020 4483.01 4532.00 76.86 1.00 103.42 3155.68
   22:04:38.518.23-Mar-2020 4483.01 4531.99 76.86 1.00 103.62 3155.68
   22:04:38.718.23-Mar-2020 4483.01 4531.93 76.86 1.00 103.82 3155.68
   22:04:38.918.23-Mar-2020 4483.01 4532.00 76.86 1.00 104.02 3155.68
   22:04:39.118.23-Mar-2020 4483.01 4532.00 76.86 1.00 104.22 3155.68
   22:04:39.318.23-Mar-2020 4483.01 4532.00 76.85 1.00 104.42 3155.68
   22:04:39.518.23-Mar-2020 4483.01 4531.99 76.85 1.00 104.62 3155.68
   22:04:39.718.23-Mar-2020 4483.01 4531.96 76.85 1.00 104.82 3155.68
   22:04:39.918.23-Mar-2020 4483.01 4531.98 76.85 1.00 105.02 3155.68
   22:04:40.118.23-Mar-2020 4483.01 4531.98 76.85 1.00 105.22 3155.68
   22:04:40.318.23-Mar-2020 4483.01 4531.98 76.85 1.00 105.42 3155.68
   22:04:40.518.23-Mar-2020 4483.01 4531.97 76.85 1.00 105.62 3155.68
   22:04:40.719.23-Mar-2020 4483.01 4531.97 76.85 1.00 105.82 3155.68
   22:04:40.919.23-Mar-2020 4483.01 4531.98 76.85 1.00 106.02 3155.68
   22:04:41.119.23-Mar-2020 4483.01 4531.98 76.85 1.00 106.22 3155.68
   22:04:41.319.23-Mar-2020 4483.01 4532.00 76.85 1.00 106.42 3155.68
   22:04:41.519.23-Mar-2020 4483.01 4531.97 76.85 1.00 106.62 3155.68
   22:04:41.719.23-Mar-2020 4483.01 4531.91 76.85 1.00 106.82 3155.68
   22:04:41.919.23-Mar-2020 4483.01 4532.01 76.84 1.00 107.02 3155.68
   22:04:42.119.23-Mar-2020 4483.01 4532.01 76.84 1.00 107.22 3155.68
   22:04:42.319.23-Mar-2020 4483.01 4532.00 76.84 1.00 107.42 3155.68
   22:04:42.519.23-Mar-2020 4483.01 4531.97 76.84 1.00 107.62 3155.68
   22:04:42.719.23-Mar-2020 4483.01 4531.97 76.84 1.00 107.82 3155.68
   22:04:42.919.23-Mar-2020 4483.01 4531.97 76.84 1.00 108.02 3155.68
   22:04:43.119.23-Mar-2020 4483.01 4531.97 76.84 1.00 108.22 3155.68
   22:04:43.319.23-Mar-2020 4483.01 4531.96 76.84 1.00 108.42 3155.68
   22:04:43.519.23-Mar-2020 4483.01 4531.95 76.84 1.00 108.62 3155.68
   22:04:43.719.23-Mar-2020 4483.01 4531.95 76.84 1.00 108.82 3155.68
   22:04:43.919.23-Mar-2020 4483.01 4531.96 76.84 1.00 109.02 3155.68
   22:04:44.119.23-Mar-2020 4483.01 4531.96 76.84 1.00 109.22 3155.68
   22:04:44.319.23-Mar-2020 4483.01 4531.97 76.84 1.00 109.42 3155.68
   22:04:44.519.23-Mar-2020 4483.01 4531.95 76.83 1.00 109.62 3155.68
   22:04:44.719.23-Mar-2020 4483.01 4531.96 76.83 1.00 109.82 3155.68
   22:04:44.919.23-Mar-2020 4483.01 4531.95 76.83 1.00 110.02 3155.68
   22:04:45.119.23-Mar-2020 4483.01 4531.95 76.83 1.00 110.22 3155.68
   22:04:45.319.23-Mar-2020 4483.01 4531.95 76.83 1.00 110.42 3155.68
   22:04:45.519.23-Mar-2020 4483.01 4531.96 76.83 1.00 110.62 3155.68
   22:04:45.719.23-Mar-2020 4483.01 4531.95 76.83 1.00 110.82 3155.68
   22:04:45.919.23-Mar-2020 4483.01 4531.95 76.83 1.00 111.02 3155.68
   22:04:46.119.23-Mar-2020 4483.01 4531.95 76.83 1.00 111.22 3155.68
   22:04:46.319.23-Mar-2020 4483.01 4531.88 76.83 1.00 111.42 3155.68
   22:04:46.520.23-Mar-2020 4483.01 4531.97 76.83 1.00 111.62 3155.68
   22:04:46.720.23-Mar-2020 4483.01 4531.97 76.83 1.00 111.82 3155.68
   22:04:46.920.23-Mar-2020 4483.01 4531.95 76.83 1.00 112.02 3155.68
   22:04:47.120.23-Mar-2020 4483.01 4531.95 76.83 1.00 112.22 3155.68
   22:04:47.320.23-Mar-2020 4483.01 4531.92 76.82 1.00 112.42 3155.68
   22:04:47.520.23-Mar-2020 4483.01 4531.94 76.82 1.00 112.62 3155.68
   22:04:47.720.23-Mar-2020 4483.01 4531.94 76.82 1.00 112.82 3155.68
   22:04:47.920.23-Mar-2020 4483.01 4531.94 76.82 1.00 113.02 3155.68
   22:04:48.120.23-Mar-2020 4483.01 4531.94 76.82 1.00 113.22 3155.68
   22:04:48.320.23-Mar-2020 4483.01 4531.92 76.82 1.00 113.42 3155.68
   22:04:48.520.23-Mar-2020 4483.01 4531.94 76.82 1.00 113.62 3155.68
   22:04:48.720.23-Mar-2020 4483.01 4531.93 76.82 1.00 113.82 3155.68
   22:04:48.920.23-Mar-2020 4483.01 4531.96 76.82 1.00 114.02 3155.68
   22:04:49.120.23-Mar-2020 4483.01 4531.96 76.82 1.00 114.22 3155.68
   22:04:49.320.23-Mar-2020 4483.01 4531.91 76.82 1.00 114.42 3155.68
   22:04:49.520.23-Mar-2020 4483.01 4531.93 76.82 1.00 114.62 3155.68
   22:04:49.720.23-Mar-2020 4483.01 4531.94 76.81 1.00 114.82 3155.68
