~Version Information
 VERS.                  2.0:   CWLS log ASCII Standard -VERSION 2.0
 WRAP.                   NO:   One line per depth step
~Well Information Block
#MNEM.UNIT     VALUE/NAME     DESCRIPTION
#---------     -----------    ---------------------------
 STRT.S             00:58:12 24-Mar-20: START TIME 00:58:12 24-Mar-20
 STOP.S             01:04:43 24-Mar-20: STOP TIME  01:04:43 24-Mar-20
 STEP.S                   0.00: STEP TIME
 NULL.                 -999.25: NULL VALUE
 DFWT.                        :  DIST FWL TEXT
 DFST.                        :  DIST FSL TEXT
 DMF .             Drill Floor:  DRILL MEAS FROM
 STIM.      22.30.00 15-Feb-20:  START TIME
 DATE.      17.00.00 25-Mar-20:  END TIME
 SPUD.               15-Feb-20:  SPUD DATE
 NREF.                    Grid:  NORTH REFERENCE
 HPTY.       Minimum Curvature:  HOLE POS TYPE
 DMOD.             Drill Model:  DRILL MOD DESC
 SVYD.                  Survey:  SURVEY DESC
 ILTD.               Lithology:  INTERP LTH DESC
 FTOP.          Formation Tops:  FORM TOPS DESC
 SON .        AZ-XX-0906019077:  JOB NUMBER
 PDAT.          Mean Sea Level:  PERMANENT DATUM
 WTYP.                Deviated:  WELL TYPE
 MDS .        Operator Entered:  MAG DATA SOURCE
 COMP.     BP Exploration (Caspian sea) Ltd.:  COMPANY
 UWI .                     N/A:  UNIQUE WELL IDENTIFIER
 API .                     N/A:  API NUMBER
 BASE.              Azerbaijan:  LOGGING EQUIPMENT BASE LOCATION
 REGN.                   EESSA:  REGION
 PROV.                     N/A:  PROVINCE
 STAT.                     N/A:  STATE NAME
 CTRY.              Azerbaijan:  COUNTRY NAME
 FLD .                     ACG:  FIELD NAME
 SRVC.          Turan Drilling:  CONTRACTOR
 MWDS.                    Baku:  MWD SHOP
 WELL.                    E16W:  WELL NAME
 JOBN.        AZ-XX-0906019077:  JOB TICKET NUMB
 RIG .                     DWG:  RIG NAME
 CNTY.                     N/A:  COUNTY NAME
 DCON.         Sperry Drilling:  DIRECTNL CONTR
 UNIT.                     N/A:  LOGGING EQUIPMENT ID
 LOC .                        :  LOCATION
 LMF .             Drill Floor:  LOG MEASURED FROM
 TVDS.m                  43.16:  TVDSS CORRECTN
 LATI.deg                40.17:  LATITUDE
 LONG.deg                51.17:  LONGITUDE
 WHNS.m                 -15.30:  WELL HEAD N/S
 WHEW.m                  -1.29:  WELL HEAD E/W
 UTMX.m              514337.95:  UTM X
 UTMY.m             4448627.46:  UTM Y
 DFWL.m                   0.00:  DISTANCE FWL
 DFSL.m                   0.00:  DISTANCE FSL
 SDEP.m                3499.01:  START DEPTH
 TDD .m                4606.01:  TOTAL DEPTH (DRILLER)
 VSDR.deg               151.14:  VERT SEC DIRECT
 GVFD.g                   1.00:  GRAVITY FIELD
 MFLD.nT              50334.00:  MAGNETIC FIELD
 MDIP.deg                59.62:  MAGNETIC DIP
 MDEC.deg                 6.46:  MAGNETIC DECL
 GRDC.deg                 0.12:  GRID CORRECTION
 AZTC.deg                 6.34:  AZM TOTAL CORR
 EPD .m                   0.00:  ELEVATION
 EGL .m                   0.00:  GROUND ELEVATION
 WDMS.m                 176.20:  WD ELEV
 APD .m                  43.16:  DEPTH ABOVE PD
 VSEW.m                  -1.29:  VERT SEC E/W
 VSNS.m                 -15.30:  VERT SEC N/S
 AGAP.m                  43.16:  AIR GAP
 EKB .m                   0.00:  KB ELEVATION
 EDF .m                  43.16:  DF ELEVATION
 TDL .m                 103.00:  TOTAL DEPTH (LOGGER)
 VSC .                       0:  VS TO CLOSURE
 MAGU.                 1852525:  MAGUTM CHECKSUM
~Parameter Information Block
#MNEM.UNIT       Value        Description
#---------     -----------    ---------------------------
 AV  .mps                 1.01:  Ann Velocity 
 AVMX.mps                 1.32:  Max Ann Veloc 
 AZIF.deg               140.63:  Azm, Final 
 BHAT.        Rotary Steerable:  BHA Type 
 BREV.rev            151000.00:  Rev Bit Total 
 BROT.°/30m               0.65:  Build Rotating 
 BS  .in                  6.50:  Bit Size 
 BSZ .in                  6.50:  Bit Size 
 BTPL.psig              222.00:  Bit Press Loss 
 CABU.                      No:  Customer Abuse 
 CGEO.           Emin Aliyarov:  Customer Geo 
 COMM.                     lx{:  Run Comments 1 
 TCS .hr                 22.89:  Time Ciculation Ended 
 CV  .mps                 2.20:  Crit Velocity 
 CVMX.mps                 3.04:  Max Crit Veloc 
 DD1 .         Intigam Rahimov:  Direct Drillr 1 
 DDSV.               Geo-Pilot:  DD Service 
 DEFF.%                  91.50:  % Det Eff 
 DLRX.°/30m               1.15:  Dogleg Rot Max 
 DLSO.°/30m               0.86:  Dogleg Oriented 
 DLSX.°/30m               1.15:  Dogleg Str Max 
 DRET.      13.10.00 24-Mar-20:  Drill End Time 
 DRST.      17.00.00 23-Mar-20:  Drill Start Tim 
 DTIM.hr                 11.87:  Time Drilling 
 EDEP.m                4606.01:  End Depth 
 ENG1.          Rasim Hashimov:  Engineer 1 
 ENG2.            Alan Tuganov:  Engineer 2 
 ENG3.         Yevgeniy Ulikov:  Engineer 3 
 ETIM.      16.00.00 25-Mar-20:  End Time 
 FLOI.gpm               400.00:  Flow In 
 FLON.gpm               350.00:  Flow In Min 
 FLOS.cptm                0.00:  Fluid Loss 
 FLOX.gpm               400.00:  Flow In Max 
 FTRO.       Formation Presure:  FTWD Run Obj 
 HFLO.                      No:  High Flow 
 HPRE.                      No:  High Pressure 
 HTEM.                      No:  High Temp 
 HYDO.m                   1.80:  Hydro Offset 
 IFIN.deg                79.55:  Inc, Final 
 IMAX.deg                79.55:  Inc Max 
 IMIN.deg                78.04:  Inc Min 
 IMND.m                4502.50:  Inc Min Depth 
 IMXD.m                4587.87:  Inc Max Depth 
 JARR.                      No:  Jarring 
 LETM.      13.10.00 24-Mar-20:  Log End Time 
 LOST.hr                     0:  Lost Rig Time 
 LSTM.      17.00.00 23-Mar-20:  Log Start Time 
 MDCL.ppm             39000.00:  Mud Chlorides 
 MDES.     Inversion Oil/Synthetic:  Mud Desc 
 DFD .sg                  1.40:  Mud Density 
 MDMN.sg                  1.40:  Dens Mud Min 
 MDMX.sg                  1.40:  Dens Mud Max 
 MOIL.                    55.2:  Run Mud Oil % 
 MOWR.                   68:32:  Run Mud OWR 
 MSND.                     0.1:  Run Mud Sand % 
 MSOL.                    17.8:  Run Mud Solids% 
 DFV .spqt               76.00:  Mud Viscosity 
 MWOD.in                  4.75:  MWD Tool OD 
 MWSI.                      No:  Serv Intrp, MWD 
 OTIM.hr                 64.35:  Time Operating 
 PCON.           Look Like New:  Pad Condition 
 PMAX.psia             5350.00:  Press Op, Max 
 PV  .cP                 26.00:  Mud PV 
 RUN .                     900:  Run Number 
 ROPA.m/hr                9.00:  ROP Avg 
 ROPN.m/hr                7.00:  ROP Min 
 ROPX.m/hr               13.00:  ROP Max 
 RPMA.rpm               140.00:  RPM Surface Avg 
 RPMN.rpm               140.00:  RPM Surface Min 
 RPMX.rpm               140.00:  RPM Surface Max 
 RRUN.                    L204:  Rig Run Number 
 RTIM.hr                  4.50:  Time Reaming 
 SAZI.deg               141.40:  Azm, Start 
 SDEP.m                4503.01:  Start Depth 
 SIDD.                      No:  Serv Intrp, DD 
 SINC.deg                78.04:  Inc, Start 
 SPPA.psig             5300.00:  SPP Avg 
 SPPN.psig             5100.00:  SPP Min 
 SPPX.psig             5500.00:  SPP Max 
 STIM.      18.00.00 22-Mar-20:  Start Time 
 SVCS.                 DD, MWD:  Services 
 SVER.                    9.20:  Sperry Version 
 TDAT.m                 103.00:  Tot Depth Attmp 
 TDDF.                      No:  Trip for DD 
 TDLG.m                 103.00:  Tot Depth Loggd 
 TFF .                      No:  Trip for Fail 
 TQAA.f-kp               14.00:  Torque Abs Avg 
 TQAN.f-kp               12.00:  Torque Abs Min 
 TQAX.f-kp               16.00:  Torque Abs Max 
 TRRT.°/30m               0.45:  Turn Rotating 
 MRT .                    HCIM:  Maximum Recorded Temperature 
 TTMX.degC               90.20:  Max Tool Temp 
 VS01.         90577859G12V7D4:  Virtual Str1 SN 
 VS02.            90519330D5C4:  Virtual Str2 SN 
 VS03.             90603450F11:  Virtual Str3 SN 
 VS04.           90515383R12C4:  Virtual Str4 SN 
 VS05.          90522017N2L2C4:  Virtual Str5 SN 
 VS06.            90512682Z1W1:  Virtual Str6 SN 
 WBMN.klb                 5.00:  WOB Min 
 WITN.        Elmaddin Rahimov:  Customer Rep 
 WITN.           Adil Mammadov:  Customer Rep 2 
 WOBA.klb                 8.00:  WOB Avg 
 WOBX.klb                13.00:  WOB Max 
 YP  .lhf2               31.00:  Yield Point 
~Curve Information Block
#MNEM.UNIT                 API CODE     Curve Description
#---------               -----------    ---------------------------
 TIME.HHMMSS            00 000 000 000:  GT Time & Date
 GTDEPTH.m              00 000 000 000:  GT Depth
 GTPQH.psia             00 000 000 000:  GT HR Quartz Pressure
 GTTQ.degC              00 000 000 000:  GT Quartz Temperature
 GTTN.NONE              00 000 000 000:  GT Test Number
 GTET.sec               00 000 000 000:  GT Elapsed Test Time
 GTTVD.m                00 000 000 000:  GT True Vertical Depth
#Other Information
#
#WARRANTY: Halliburton will use its best efforts to furnish customers with 
#accurate information and interpretations that are part of, and incident to, the services 
#provided.  However, Halliburton cannot and does not warrant the accuracy 
#or correctness of such information and interpretations.  Under no circumstances should any 
#such information or interpretation be relied upon as the sole basis for any drilling, 
#completion, production, or financial decision or any procedure involving any risk to the 
#safety of any drilling venture, drilling rig or its crew or any other third party.  The 
#Customer has full responsibility for all drilling, completion and production operation.  
#Halliburton makes no representations or warranties, either expressed or 
#implied, including, but not limited to, the implied warranties of merchantability or fitness 
#for a particular purpose, with respect to the services rendered.  In no event will 
#Halliburton be liable for failure to obtain any particular results or for 
#any damages, including, but not limited to, indirect, special or consequential damages, 
#resulting from the use of any information or interpretation provided by Halliburton.
#
~A           TIME           GTDEPTH  GTPQH  GTTQ  GTTN  GTET   GTTVD  
# ...
   00:58:35.723.24-Mar-2020 4501.51 7641.25 81.19 2.00  23.00 3159.43
   00:58:35.923.24-Mar-2020 4501.51 7641.25 81.19 2.00  23.20 3159.43
   00:58:36.123.24-Mar-2020 4501.51 7724.52 81.19 2.00  23.40 3159.43
   00:58:36.323.24-Mar-2020 4501.51 7746.01 81.19 2.00  23.60 3159.43
   00:58:36.523.24-Mar-2020 4501.51 7759.47 81.19 2.00  23.80 3159.43
   00:58:36.723.24-Mar-2020 4501.51 7767.12 81.19 2.00  24.00 3159.43
   00:58:36.923.24-Mar-2020 4501.51 7772.99 81.19 2.00  24.20 3159.43
   00:58:37.123.24-Mar-2020 4501.51 7779.55 81.19 2.00  24.40 3159.43
   00:58:37.323.24-Mar-2020 4501.51 7785.16 81.19 2.00  24.60 3159.43
   00:58:37.523.24-Mar-2020 4501.51 7789.19 81.18 2.00  24.80 3159.43
   00:58:37.723.24-Mar-2020 4501.51 7792.67 81.18 2.00  25.00 3159.43
   00:58:37.923.24-Mar-2020 4501.51 7792.67 81.18 2.00  25.20 3159.43
   00:58:38.123.24-Mar-2020 4501.51 7797.79 81.18 2.00  25.40 3159.43
   00:58:38.323.24-Mar-2020 4501.51 7800.07 81.18 2.00  25.60 3159.43
   00:58:38.523.24-Mar-2020 4501.51 7802.45 81.18 2.00  25.80 3159.43
   00:58:38.723.24-Mar-2020 4501.51 7804.69 81.18 2.00  26.00 3159.43
   00:58:38.924.24-Mar-2020 4501.51 7804.69 81.18 2.00  26.20 3159.43
   00:58:39.124.24-Mar-2020 4501.51 7808.34 81.18 2.00  26.40 3159.43
   00:58:39.324.24-Mar-2020 4501.51 7809.07 81.18 2.00  26.60 3159.43
   00:58:39.524.24-Mar-2020 4501.51 7341.54 81.18 2.00  26.80 3159.43
   00:58:39.724.24-Mar-2020 4501.51 6681.65 81.18 2.00  27.00 3159.43
   00:58:39.924.24-Mar-2020 4501.51 6681.65 81.17 2.00  27.20 3159.43
   00:58:40.124.24-Mar-2020 4501.51 5582.84 81.17 2.00  27.40 3159.43
   00:58:40.324.24-Mar-2020 4501.51 4754.87 81.17 2.00  27.60 3159.43
   00:58:40.524.24-Mar-2020 4501.51 4382.38 81.17 2.00  27.80 3159.43
   00:58:40.724.24-Mar-2020 4501.51 4384.02 81.17 2.00  28.00 3159.43
   00:58:40.924.24-Mar-2020 4501.51 4384.29 81.17 2.00  28.20 3159.43
   00:58:41.124.24-Mar-2020 4501.51 4382.09 81.17 2.00  28.40 3159.43
   00:58:41.324.24-Mar-2020 4501.51 4382.49 81.17 2.00  28.60 3159.43
   00:58:41.524.24-Mar-2020 4501.51 4382.63 81.17 2.00  28.80 3159.43
   00:58:41.724.24-Mar-2020 4501.51 4381.92 81.16 2.00  29.01 3159.43
   00:58:41.924.24-Mar-2020 4501.51 4381.92 81.16 2.00  29.21 3159.43
   00:58:42.124.24-Mar-2020 4501.51 4382.04 81.16 2.00  29.41 3159.43
   00:58:42.324.24-Mar-2020 4501.51 4381.33 81.16 2.00  29.61 3159.43
   00:58:42.524.24-Mar-2020 4501.51 4381.57 81.16 2.00  29.81 3159.43
   00:58:42.724.24-Mar-2020 4501.51 4381.72 81.16 2.00  30.01 3159.43
   00:58:42.924.24-Mar-2020 4501.51 4381.72 81.16 2.00  30.21 3159.43
   00:58:43.124.24-Mar-2020 4501.51 4381.36 81.15 2.00  30.41 3159.43
   00:58:43.324.24-Mar-2020 4501.51 4381.78 81.15 2.00  30.61 3159.43
   00:58:43.524.24-Mar-2020 4501.51 4381.43 81.15 2.00  30.81 3159.43
   00:58:43.724.24-Mar-2020 4501.51 4382.22 81.15 2.00  31.01 3159.43
   00:58:43.924.24-Mar-2020 4501.51 4382.22 81.15 2.00  31.21 3159.43
   00:58:44.124.24-Mar-2020 4501.51 4382.02 81.15 2.00  31.41 3159.43
   00:58:44.324.24-Mar-2020 4501.51 4381.42 81.15 2.00  31.61 3159.43
   00:58:44.524.24-Mar-2020 4501.51 4381.91 81.14 2.00  31.81 3159.43
   00:58:44.725.24-Mar-2020 4501.51 4382.75 81.14 2.00  32.01 3159.43
   00:58:44.925.24-Mar-2020 4501.51 4382.40 81.14 2.00  32.21 3159.43
   00:58:45.125.24-Mar-2020 4501.51 4382.88 81.14 2.00  32.41 3159.43
   00:58:45.325.24-Mar-2020 4501.51 4382.98 81.14 2.00  32.61 3159.43
   00:58:45.525.24-Mar-2020 4501.51 4383.19 81.14 2.00  32.81 3159.43
   00:58:45.725.24-Mar-2020 4501.51 4382.91 81.13 2.00  33.01 3159.43
   00:58:45.925.24-Mar-2020 4501.51 4382.91 81.13 2.00  33.21 3159.43
   00:58:46.125.24-Mar-2020 4501.51 4383.41 81.13 2.00  33.41 3159.43
   00:58:46.325.24-Mar-2020 4501.51 4383.62 81.13 2.00  33.61 3159.43
   00:58:46.525.24-Mar-2020 4501.51 4383.64 81.13 2.00  33.81 3159.43
   00:58:46.725.24-Mar-2020 4501.51 4383.83 81.12 2.00  34.01 3159.43
   00:58:46.925.24-Mar-2020 4501.51 4383.83 81.12 2.00  34.21 3159.43
   00:58:47.125.24-Mar-2020 4501.51 4383.95 81.12 2.00  34.41 3159.43
   00:58:47.325.24-Mar-2020 4501.51 4384.09 81.12 2.00  34.61 3159.43
   00:58:47.525.24-Mar-2020 4501.51 4384.02 81.12 2.00  34.81 3159.43
   00:58:47.725.24-Mar-2020 4501.51 4384.37 81.12 2.00  35.01 3159.43
   00:58:47.925.24-Mar-2020 4501.51 4384.37 81.12 2.00  35.21 3159.43
   00:58:48.125.24-Mar-2020 4501.51 4385.34 81.11 2.00  35.41 3159.43
   00:58:48.325.24-Mar-2020 4501.51 4385.71 81.11 2.00  35.61 3159.43
   00:58:48.525.24-Mar-2020 4501.51 4384.93 81.11 2.00  35.81 3159.43
   00:58:48.725.24-Mar-2020 4501.51 4385.35 81.11 2.00  36.01 3159.43
   00:58:48.925.24-Mar-2020 4501.51 4386.38 81.11 2.00  36.21 3159.43
   00:58:49.125.24-Mar-2020 4501.51 4385.58 81.11 2.00  36.41 3159.43
   00:58:49.325.24-Mar-2020 4501.51 4385.54 81.10 2.00  36.61 3159.43
   00:58:49.525.24-Mar-2020 4501.51 4394.45 81.10 2.00  36.81 3159.43
   00:58:49.725.24-Mar-2020 4501.51 4467.17 81.10 2.00  37.01 3159.43
   00:58:49.925.24-Mar-2020 4501.51 4467.17 81.10 2.00  37.21 3159.43
   00:58:50.125.24-Mar-2020 4501.51 4469.45 81.10 2.00  37.41 3159.43
   00:58:50.325.24-Mar-2020 4501.51 4469.35 81.10 2.00  37.61 3159.43
   00:58:50.526.24-Mar-2020 4501.51 4469.66 81.09 2.00  37.81 3159.43
   00:58:50.726.24-Mar-2020 4501.51 4469.70 81.09 2.00  38.01 3159.43
   00:58:50.926.24-Mar-2020 4501.51 4469.70 81.09 2.00  38.21 3159.43
   00:58:51.126.24-Mar-2020 4501.51 4469.75 81.09 2.00  38.41 3159.43
   00:58:51.326.24-Mar-2020 4501.51 4469.83 81.09 2.00  38.61 3159.43
   00:58:51.526.24-Mar-2020 4501.51 4469.84 81.09 2.00  38.81 3159.43
   00:58:51.726.24-Mar-2020 4501.51 4469.90 81.09 2.00  39.01 3159.43
   00:58:51.926.24-Mar-2020 4501.51 4469.90 81.08 2.00  39.21 3159.43
   00:58:52.126.24-Mar-2020 4501.51 4469.96 81.08 2.00  39.41 3159.43
   00:58:52.326.24-Mar-2020 4501.51 4469.94 81.08 2.00  39.61 3159.43
   00:58:52.526.24-Mar-2020 4501.51 4470.00 81.08 2.00  39.81 3159.43
   00:58:52.726.24-Mar-2020 4501.51 4469.99 81.08 2.00  40.01 3159.43
   00:58:52.926.24-Mar-2020 4501.51 4469.99 81.08 2.00  40.21 3159.43
   00:58:53.126.24-Mar-2020 4501.51 4469.99 81.08 2.00  40.41 3159.43
   00:58:53.326.24-Mar-2020 4501.51 4470.07 81.08 2.00  40.61 3159.43
   00:58:53.526.24-Mar-2020 4501.51 4469.98 81.07 2.00  40.81 3159.43
   00:58:53.726.24-Mar-2020 4501.51 4470.08 81.07 2.00  41.01 3159.43
   00:58:53.926.24-Mar-2020 4501.51 4470.08 81.07 2.00  41.21 3159.43
   00:58:54.126.24-Mar-2020 4501.51 4470.09 81.07 2.00  41.41 3159.43
   00:58:54.326.24-Mar-2020 4501.51 4470.10 81.07 2.00  41.61 3159.43
   00:58:54.526.24-Mar-2020 4501.51 4470.10 81.07 2.00  41.81 3159.43
   00:58:54.726.24-Mar-2020 4501.51 4470.13 81.07 2.00  42.01 3159.43
   00:58:54.926.24-Mar-2020 4501.51 4470.13 81.07 2.00  42.21 3159.43
   00:58:55.126.24-Mar-2020 4501.51 4470.14 81.06 2.00  42.41 3159.43
   00:58:55.326.24-Mar-2020 4501.51 4470.14 81.06 2.00  42.61 3159.43
   00:58:55.526.24-Mar-2020 4501.51 4470.17 81.06 2.00  42.81 3159.43
   00:58:55.726.24-Mar-2020 4501.51 4470.14 81.06 2.00  43.01 3159.43
   00:58:55.926.24-Mar-2020 4501.51 4470.14 81.06 2.00  43.21 3159.43
   00:58:56.126.24-Mar-2020 4501.51 4470.16 81.06 2.00  43.41 3159.43
   00:58:56.327.24-Mar-2020 4501.51 4470.18 81.06 2.00  43.61 3159.43
   00:58:56.527.24-Mar-2020 4501.51 4470.08 81.06 2.00  43.81 3159.43
   00:58:56.727.24-Mar-2020 4501.51 4470.23 81.06 2.00  44.01 3159.43
   00:58:56.927.24-Mar-2020 4501.51 4470.23 81.05 2.00  44.21 3159.43
   00:58:57.127.24-Mar-2020 4501.51 4470.20 81.05 2.00  44.41 3159.43
   00:58:57.327.24-Mar-2020 4501.51 4470.17 81.05 2.00  44.61 3159.43
   00:58:57.527.24-Mar-2020 4501.51 4470.14 81.05 2.00  44.81 3159.43
   00:58:57.727.24-Mar-2020 4501.51 4470.24 81.05 2.00  45.01 3159.43
   00:58:57.927.24-Mar-2020 4501.51 4470.24 81.05 2.00  45.21 3159.43
   00:58:58.127.24-Mar-2020 4501.51 4470.24 81.05 2.00  45.41 3159.43
   00:58:58.327.24-Mar-2020 4501.51 4470.28 81.05 2.00  45.61 3159.43
   00:58:58.527.24-Mar-2020 4501.51 4470.12 81.04 2.00  45.81 3159.43
