~Version Information
 VERS.                  2.0:   CWLS log ASCII Standard -VERSION 2.0
 WRAP.                   NO:   One line per depth step
~Well Information Block
#MNEM.UNIT     VALUE/NAME     DESCRIPTION
#---------     -----------    ---------------------------
 STRT.S             22:02:54 23-Mar-20: START TIME 22:02:54 23-Mar-20
 STOP.S             22:09:24 23-Mar-20: STOP TIME  22:09:24 23-Mar-20
 STEP.S                   0.00: STEP TIME
 NULL.                 -999.25: NULL VALUE
 DFWT.                        :  DIST FWL TEXT
 DFST.                        :  DIST FSL TEXT
 DMF .             Drill Floor:  DRILL MEAS FROM
 STIM.      22.30.00 15-Feb-20:  START TIME
 DATE.      17.00.00 25-Mar-20:  END TIME
 SPUD.               15-Feb-20:  SPUD DATE
 NREF.                    Grid:  NORTH REFERENCE
 HPTY.       Minimum Curvature:  HOLE POS TYPE
 DMOD.             Drill Model:  DRILL MOD DESC
 SVYD.                  Survey:  SURVEY DESC
 ILTD.               Lithology:  INTERP LTH DESC
 FTOP.          Formation Tops:  FORM TOPS DESC
 SON .        AZ-XX-0906019077:  JOB NUMBER
 PDAT.          Mean Sea Level:  PERMANENT DATUM
 WTYP.                Deviated:  WELL TYPE
 MDS .        Operator Entered:  MAG DATA SOURCE
 COMP.     BP Exploration (Caspian sea) Ltd.:  COMPANY
 UWI .                     N/A:  UNIQUE WELL IDENTIFIER
 API .                     N/A:  API NUMBER
 BASE.              Azerbaijan:  LOGGING EQUIPMENT BASE LOCATION
 REGN.                   EESSA:  REGION
 PROV.                     N/A:  PROVINCE
 STAT.                     N/A:  STATE NAME
 CTRY.              Azerbaijan:  COUNTRY NAME
 FLD .                     ACG:  FIELD NAME
 SRVC.          Turan Drilling:  CONTRACTOR
 MWDS.                    Baku:  MWD SHOP
 WELL.                    E16W:  WELL NAME
 JOBN.        AZ-XX-0906019077:  JOB TICKET NUMB
 RIG .                     DWG:  RIG NAME
 CNTY.                     N/A:  COUNTY NAME
 DCON.         Sperry Drilling:  DIRECTNL CONTR
 UNIT.                     N/A:  LOGGING EQUIPMENT ID
 LOC .                        :  LOCATION
 LMF .             Drill Floor:  LOG MEASURED FROM
 TVDS.m                  43.16:  TVDSS CORRECTN
 LATI.deg                40.17:  LATITUDE
 LONG.deg                51.17:  LONGITUDE
 WHNS.m                 -15.30:  WELL HEAD N/S
 WHEW.m                  -1.29:  WELL HEAD E/W
 UTMX.m              514337.95:  UTM X
 UTMY.m             4448627.46:  UTM Y
 DFWL.m                   0.00:  DISTANCE FWL
 DFSL.m                   0.00:  DISTANCE FSL
 SDEP.m                3499.01:  START DEPTH
 TDD .m                4606.01:  TOTAL DEPTH (DRILLER)
 VSDR.deg               151.14:  VERT SEC DIRECT
 GVFD.g                   1.00:  GRAVITY FIELD
 MFLD.nT              50334.00:  MAGNETIC FIELD
 MDIP.deg                59.62:  MAGNETIC DIP
 MDEC.deg                 6.46:  MAGNETIC DECL
 GRDC.deg                 0.12:  GRID CORRECTION
 AZTC.deg                 6.34:  AZM TOTAL CORR
 EPD .m                   0.00:  ELEVATION
 EGL .m                   0.00:  GROUND ELEVATION
 WDMS.m                 176.20:  WD ELEV
 APD .m                  43.16:  DEPTH ABOVE PD
 VSEW.m                  -1.29:  VERT SEC E/W
 VSNS.m                 -15.30:  VERT SEC N/S
 AGAP.m                  43.16:  AIR GAP
 EKB .m                   0.00:  KB ELEVATION
 EDF .m                  43.16:  DF ELEVATION
 TDL .m                 103.00:  TOTAL DEPTH (LOGGER)
 VSC .                       0:  VS TO CLOSURE
 MAGU.                 1852525:  MAGUTM CHECKSUM
~Parameter Information Block
#MNEM.UNIT       Value        Description
#---------     -----------    ---------------------------
 AV  .mps                 1.01:  Ann Velocity 
 AVMX.mps                 1.32:  Max Ann Veloc 
 AZIF.deg               140.63:  Azm, Final 
 BHAT.        Rotary Steerable:  BHA Type 
 BREV.rev            151000.00:  Rev Bit Total 
 BROT.°/30m               0.65:  Build Rotating 
 BS  .in                  6.50:  Bit Size 
 BSZ .in                  6.50:  Bit Size 
 BTPL.psig              222.00:  Bit Press Loss 
 CABU.                      No:  Customer Abuse 
 CGEO.           Emin Aliyarov:  Customer Geo 
 COMM.                     L5S:  Run Comments 1 
 TCS .hr                 22.89:  Time Ciculation Ended 
 CV  .mps                 2.20:  Crit Velocity 
 CVMX.mps                 3.04:  Max Crit Veloc 
 DD1 .         Intigam Rahimov:  Direct Drillr 1 
 DDSV.               Geo-Pilot:  DD Service 
 DEFF.%                  91.50:  % Det Eff 
 DLRX.°/30m               1.15:  Dogleg Rot Max 
 DLSO.°/30m               0.86:  Dogleg Oriented 
 DLSX.°/30m               1.15:  Dogleg Str Max 
 DRET.      13.10.00 24-Mar-20:  Drill End Time 
 DRST.      17.00.00 23-Mar-20:  Drill Start Tim 
 DTIM.hr                 11.87:  Time Drilling 
 EDEP.m                4606.01:  End Depth 
 ENG1.          Rasim Hashimov:  Engineer 1 
 ENG2.            Alan Tuganov:  Engineer 2 
 ENG3.         Yevgeniy Ulikov:  Engineer 3 
 ETIM.      16.00.00 25-Mar-20:  End Time 
 FLOI.gpm               400.00:  Flow In 
 FLON.gpm               350.00:  Flow In Min 
 FLOS.cptm                0.00:  Fluid Loss 
 FLOX.gpm               400.00:  Flow In Max 
 FTRO.       Formation Presure:  FTWD Run Obj 
 HFLO.                      No:  High Flow 
 HPRE.                      No:  High Pressure 
 HTEM.                      No:  High Temp 
 HYDO.m                   1.80:  Hydro Offset 
 IFIN.deg                79.55:  Inc, Final 
 IMAX.deg                79.55:  Inc Max 
 IMIN.deg                78.04:  Inc Min 
 IMND.m                4502.50:  Inc Min Depth 
 IMXD.m                4587.87:  Inc Max Depth 
 JARR.                      No:  Jarring 
 LETM.      13.10.00 24-Mar-20:  Log End Time 
 LOST.hr                     0:  Lost Rig Time 
 LSTM.      17.00.00 23-Mar-20:  Log Start Time 
 MDCL.ppm             39000.00:  Mud Chlorides 
 MDES.     Inversion Oil/Synthetic:  Mud Desc 
 DFD .sg                  1.40:  Mud Density 
 MDMN.sg                  1.40:  Dens Mud Min 
 MDMX.sg                  1.40:  Dens Mud Max 
 MOIL.                    55.2:  Run Mud Oil % 
 MOWR.                   68:32:  Run Mud OWR 
 MSND.                     0.1:  Run Mud Sand % 
 MSOL.                    17.8:  Run Mud Solids% 
 DFV .spqt               76.00:  Mud Viscosity 
 MWOD.in                  4.75:  MWD Tool OD 
 MWSI.                      No:  Serv Intrp, MWD 
 OTIM.hr                 64.35:  Time Operating 
 PCON.           Look Like New:  Pad Condition 
 PMAX.psia             5350.00:  Press Op, Max 
 PV  .cP                 26.00:  Mud PV 
 RUN .                     900:  Run Number 
 ROPA.m/hr                9.00:  ROP Avg 
 ROPN.m/hr                7.00:  ROP Min 
 ROPX.m/hr               13.00:  ROP Max 
 RPMA.rpm               140.00:  RPM Surface Avg 
 RPMN.rpm               140.00:  RPM Surface Min 
 RPMX.rpm               140.00:  RPM Surface Max 
 RRUN.                    L204:  Rig Run Number 
 RTIM.hr                  4.50:  Time Reaming 
 SAZI.deg               141.40:  Azm, Start 
 SDEP.m                4503.01:  Start Depth 
 SIDD.                      No:  Serv Intrp, DD 
 SINC.deg                78.04:  Inc, Start 
 SPPA.psig             5300.00:  SPP Avg 
 SPPN.psig             5100.00:  SPP Min 
 SPPX.psig             5500.00:  SPP Max 
 STIM.      18.00.00 22-Mar-20:  Start Time 
 SVCS.                 DD, MWD:  Services 
 SVER.                    9.20:  Sperry Version 
 TDAT.m                 103.00:  Tot Depth Attmp 
 TDDF.                      No:  Trip for DD 
 TDLG.m                 103.00:  Tot Depth Loggd 
 TFF .                      No:  Trip for Fail 
 TQAA.f-kp               14.00:  Torque Abs Avg 
 TQAN.f-kp               12.00:  Torque Abs Min 
 TQAX.f-kp               16.00:  Torque Abs Max 
 TRRT.°/30m               0.45:  Turn Rotating 
 MRT .                    HCIM:  Maximum Recorded Temperature 
 TTMX.degC               90.20:  Max Tool Temp 
 VS01.         90577859G12V7D4:  Virtual Str1 SN 
 VS02.            90519330D5C4:  Virtual Str2 SN 
 VS03.             90603450F11:  Virtual Str3 SN 
 VS04.           90515383R12C4:  Virtual Str4 SN 
 VS05.          90522017N2L2C4:  Virtual Str5 SN 
 VS06.            90512682Z1W1:  Virtual Str6 SN 
 WBMN.klb                 5.00:  WOB Min 
 WITN.        Elmaddin Rahimov:  Customer Rep 
 WITN.           Adil Mammadov:  Customer Rep 2 
 WOBA.klb                 8.00:  WOB Avg 
 WOBX.klb                13.00:  WOB Max 
 YP  .lhf2               31.00:  Yield Point 
~Curve Information Block
#MNEM.UNIT                 API CODE     Curve Description
#---------               -----------    ---------------------------
 TIME.HHMMSS            00 000 000 000:  GT Time & Date
 GTDEPTH.m              00 000 000 000:  GT Depth
 GTPQH.psia             00 000 000 000:  GT HR Quartz Pressure
 GTTQ.degC              00 000 000 000:  GT Quartz Temperature
 GTTN.NONE              00 000 000 000:  GT Test Number
 GTET.sec               00 000 000 000:  GT Elapsed Test Time
 GTTVD.m                00 000 000 000:  GT True Vertical Depth
#Other Information
#
#WARRANTY: Halliburton will use its best efforts to furnish customers with 
#accurate information and interpretations that are part of, and incident to, the services 
#provided.  However, Halliburton cannot and does not warrant the accuracy 
#or correctness of such information and interpretations.  Under no circumstances should any 
#such information or interpretation be relied upon as the sole basis for any drilling, 
#completion, production, or financial decision or any procedure involving any risk to the 
#safety of any drilling venture, drilling rig or its crew or any other third party.  The 
#Customer has full responsibility for all drilling, completion and production operation.  
#Halliburton makes no representations or warranties, either expressed or 
#implied, including, but not limited to, the implied warranties of merchantability or fitness 
#for a particular purpose, with respect to the services rendered.  In no event will 
#Halliburton be liable for failure to obtain any particular results or for 
#any damages, including, but not limited to, indirect, special or consequential damages, 
#resulting from the use of any information or interpretation provided by Halliburton.
#
~A           TIME           GTDEPTH  GTPQH  GTTQ  GTTN  GTET   GTTVD  
# ...
   22:04:03.912.23-Mar-2020 4483.01 4532.20 77.00 1.00  69.01 3155.68
   22:04:04.112.23-Mar-2020 4483.01 4532.20 77.00 1.00  69.21 3155.68
   22:04:04.312.23-Mar-2020 4483.01 4532.19 77.00 1.00  69.41 3155.68
   22:04:04.512.23-Mar-2020 4483.01 4532.18 77.00 1.00  69.61 3155.68
   22:04:04.712.23-Mar-2020 4483.01 4532.19 77.00 1.00  69.81 3155.68
   22:04:04.912.23-Mar-2020 4483.01 4532.17 77.00 1.00  70.01 3155.68
   22:04:05.112.23-Mar-2020 4483.01 4532.17 77.00 1.00  70.21 3155.68
   22:04:05.312.23-Mar-2020 4483.01 4532.14 76.99 1.00  70.41 3155.68
   22:04:05.512.23-Mar-2020 4483.01 4532.17 76.99 1.00  70.61 3155.68
   22:04:05.712.23-Mar-2020 4483.01 4532.17 76.99 1.00  70.81 3155.68
   22:04:05.913.23-Mar-2020 4483.01 4532.18 76.99 1.00  71.01 3155.68
   22:04:06.113.23-Mar-2020 4483.01 4532.18 76.99 1.00  71.21 3155.68
   22:04:06.313.23-Mar-2020 4483.01 4532.18 76.99 1.00  71.41 3155.68
   22:04:06.513.23-Mar-2020 4483.01 4532.16 76.99 1.00  71.61 3155.68
   22:04:06.713.23-Mar-2020 4483.01 4532.18 76.99 1.00  71.81 3155.68
   22:04:06.913.23-Mar-2020 4483.01 4532.17 76.99 1.00  72.01 3155.68
   22:04:07.113.23-Mar-2020 4483.01 4532.17 76.99 1.00  72.21 3155.68
   22:04:07.313.23-Mar-2020 4483.01 4532.15 76.99 1.00  72.41 3155.68
   22:04:07.513.23-Mar-2020 4483.01 4532.18 76.98 1.00  72.61 3155.68
   22:04:07.713.23-Mar-2020 4483.01 4532.16 76.98 1.00  72.81 3155.68
   22:04:07.913.23-Mar-2020 4483.01 4532.16 76.98 1.00  73.01 3155.68
   22:04:08.113.23-Mar-2020 4483.01 4532.16 76.98 1.00  73.21 3155.68
   22:04:08.313.23-Mar-2020 4483.01 4532.17 76.98 1.00  73.41 3155.68
   22:04:08.513.23-Mar-2020 4483.01 4532.18 76.98 1.00  73.61 3155.68
   22:04:08.713.23-Mar-2020 4483.01 4532.16 76.98 1.00  73.81 3155.68
   22:04:08.913.23-Mar-2020 4483.01 4532.16 76.98 1.00  74.01 3155.68
   22:04:09.113.23-Mar-2020 4483.01 4532.16 76.98 1.00  74.21 3155.68
   22:04:09.313.23-Mar-2020 4483.01 4532.16 76.98 1.00  74.41 3155.68
   22:04:09.513.23-Mar-2020 4483.01 4532.15 76.98 1.00  74.61 3155.68
   22:04:09.713.23-Mar-2020 4483.01 4532.17 76.98 1.00  74.81 3155.68
   22:04:09.913.23-Mar-2020 4483.01 4532.15 76.97 1.00  75.01 3155.68
   22:04:10.113.23-Mar-2020 4483.01 4532.15 76.97 1.00  75.21 3155.68
   22:04:10.313.23-Mar-2020 4483.01 4532.14 76.97 1.00  75.41 3155.68
   22:04:10.513.23-Mar-2020 4483.01 4532.16 76.97 1.00  75.61 3155.68
   22:04:10.713.23-Mar-2020 4483.01 4532.15 76.97 1.00  75.81 3155.68
   22:04:10.913.23-Mar-2020 4483.01 4532.16 76.97 1.00  76.01 3155.68
   22:04:11.113.23-Mar-2020 4483.01 4532.16 76.97 1.00  76.21 3155.68
   22:04:11.313.23-Mar-2020 4483.01 4532.15 76.97 1.00  76.41 3155.68
   22:04:11.513.23-Mar-2020 4483.01 4532.16 76.97 1.00  76.61 3155.68
   22:04:11.714.23-Mar-2020 4483.01 4532.15 76.97 1.00  76.81 3155.68
   22:04:11.914.23-Mar-2020 4483.01 4532.14 76.97 1.00  77.01 3155.68
   22:04:12.114.23-Mar-2020 4483.01 4532.14 76.97 1.00  77.21 3155.68
   22:04:12.314.23-Mar-2020 4483.01 4532.14 76.96 1.00  77.41 3155.68
   22:04:12.514.23-Mar-2020 4483.01 4532.14 76.96 1.00  77.61 3155.68
   22:04:12.714.23-Mar-2020 4483.01 4532.15 76.96 1.00  77.81 3155.68
   22:04:12.914.23-Mar-2020 4483.01 4532.14 76.96 1.00  78.01 3155.68
   22:04:13.114.23-Mar-2020 4483.01 4532.14 76.96 1.00  78.21 3155.68
   22:04:13.314.23-Mar-2020 4483.01 4532.14 76.96 1.00  78.41 3155.68
   22:04:13.514.23-Mar-2020 4483.01 4532.14 76.96 1.00  78.61 3155.68
   22:04:13.714.23-Mar-2020 4483.01 4532.14 76.96 1.00  78.81 3155.68
   22:04:13.914.23-Mar-2020 4483.01 4532.15 76.96 1.00  79.01 3155.68
   22:04:14.114.23-Mar-2020 4483.01 4532.15 76.96 1.00  79.21 3155.68
   22:04:14.314.23-Mar-2020 4483.01 4532.14 76.96 1.00  79.41 3155.68
   22:04:14.514.23-Mar-2020 4483.01 4532.13 76.95 1.00  79.61 3155.68
   22:04:14.714.23-Mar-2020 4483.01 4532.13 76.95 1.00  79.81 3155.68
   22:04:14.914.23-Mar-2020 4483.01 4532.12 76.95 1.00  80.01 3155.68
   22:04:15.114.23-Mar-2020 4483.01 4532.12 76.95 1.00  80.21 3155.68
   22:04:15.314.23-Mar-2020 4483.01 4532.12 76.95 1.00  80.41 3155.68
   22:04:15.514.23-Mar-2020 4483.01 4532.13 76.95 1.00  80.61 3155.68
   22:04:15.714.23-Mar-2020 4483.01 4532.09 76.95 1.00  80.81 3155.68
   22:04:15.914.23-Mar-2020 4483.01 4532.12 76.95 1.00  81.01 3155.68
   22:04:16.114.23-Mar-2020 4483.01 4532.12 76.95 1.00  81.21 3155.68
   22:04:16.314.23-Mar-2020 4483.01 4532.13 76.95 1.00  81.41 3155.68
   22:04:16.514.23-Mar-2020 4483.01 4532.11 76.95 1.00  81.61 3155.68
   22:04:16.714.23-Mar-2020 4483.01 4532.12 76.95 1.00  81.81 3155.68
   22:04:16.914.23-Mar-2020 4483.01 4532.08 76.94 1.00  82.01 3155.68
   22:04:17.114.23-Mar-2020 4483.01 4532.08 76.94 1.00  82.21 3155.68
   22:04:17.314.23-Mar-2020 4483.01 4532.13 76.94 1.00  82.41 3155.68
   22:04:17.515.23-Mar-2020 4483.01 4532.13 76.94 1.00  82.61 3155.68
   22:04:17.715.23-Mar-2020 4483.01 4532.06 76.94 1.00  82.81 3155.68
   22:04:17.915.23-Mar-2020 4483.01 4532.13 76.94 1.00  83.01 3155.68
   22:04:18.115.23-Mar-2020 4483.01 4532.13 76.94 1.00  83.21 3155.68
   22:04:18.315.23-Mar-2020 4483.01 4532.12 76.94 1.00  83.41 3155.68
   22:04:18.515.23-Mar-2020 4483.01 4532.12 76.94 1.00  83.61 3155.68
   22:04:18.715.23-Mar-2020 4483.01 4532.10 76.94 1.00  83.81 3155.68
   22:04:18.915.23-Mar-2020 4483.01 4532.11 76.94 1.00  84.01 3155.68
   22:04:19.115.23-Mar-2020 4483.01 4532.11 76.94 1.00  84.21 3155.68
   22:04:19.315.23-Mar-2020 4483.01 4532.12 76.94 1.00  84.41 3155.68
   22:04:19.515.23-Mar-2020 4483.01 4532.11 76.93 1.00  84.61 3155.68
   22:04:19.715.23-Mar-2020 4483.01 4532.11 76.93 1.00  84.81 3155.68
   22:04:19.915.23-Mar-2020 4483.01 4532.10 76.93 1.00  85.01 3155.68
   22:04:20.115.23-Mar-2020 4483.01 4532.10 76.93 1.00  85.21 3155.68
   22:04:20.315.23-Mar-2020 4483.01 4532.10 76.93 1.00  85.41 3155.68
   22:04:20.515.23-Mar-2020 4483.01 4532.10 76.93 1.00  85.61 3155.68
   22:04:20.715.23-Mar-2020 4483.01 4532.03 76.93 1.00  85.81 3155.68
   22:04:20.915.23-Mar-2020 4483.01 4532.11 76.93 1.00  86.01 3155.68
   22:04:21.115.23-Mar-2020 4483.01 4532.11 76.93 1.00  86.21 3155.68
   22:04:21.315.23-Mar-2020 4483.01 4532.10 76.93 1.00  86.41 3155.68
   22:04:21.515.23-Mar-2020 4483.01 4532.10 76.93 1.00  86.61 3155.68
   22:04:21.715.23-Mar-2020 4483.01 4532.08 76.93 1.00  86.82 3155.68
   22:04:21.915.23-Mar-2020 4483.01 4532.10 76.92 1.00  87.02 3155.68
   22:04:22.115.23-Mar-2020 4483.01 4532.10 76.92 1.00  87.22 3155.68
   22:04:22.315.23-Mar-2020 4483.01 4532.09 76.92 1.00  87.42 3155.68
   22:04:22.515.23-Mar-2020 4483.01 4532.09 76.92 1.00  87.62 3155.68
   22:04:22.715.23-Mar-2020 4483.01 4532.09 76.92 1.00  87.82 3155.68
   22:04:22.915.23-Mar-2020 4483.01 4532.09 76.92 1.00  88.02 3155.68
   22:04:23.115.23-Mar-2020 4483.01 4532.09 76.92 1.00  88.22 3155.68
   22:04:23.316.23-Mar-2020 4483.01 4532.06 76.92 1.00  88.42 3155.68
   22:04:23.516.23-Mar-2020 4483.01 4532.07 76.92 1.00  88.62 3155.68
   22:04:23.716.23-Mar-2020 4483.01 4532.07 76.92 1.00  88.82 3155.68
   22:04:23.916.23-Mar-2020 4483.01 4532.08 76.92 1.00  89.02 3155.68
   22:04:24.116.23-Mar-2020 4483.01 4532.08 76.92 1.00  89.22 3155.68
   22:04:24.316.23-Mar-2020 4483.01 4532.08 76.91 1.00  89.42 3155.68
   22:04:24.516.23-Mar-2020 4483.01 4532.02 76.91 1.00  89.62 3155.68
   22:04:24.716.23-Mar-2020 4483.01 4532.08 76.91 1.00  89.82 3155.68
   22:04:24.916.23-Mar-2020 4483.01 4532.09 76.91 1.00  90.02 3155.68
   22:04:25.116.23-Mar-2020 4483.01 4532.09 76.91 1.00  90.22 3155.68
   22:04:25.316.23-Mar-2020 4483.01 4532.00 76.91 1.00  90.42 3155.68
   22:04:25.516.23-Mar-2020 4483.01 4532.11 76.91 1.00  90.62 3155.68
   22:04:25.716.23-Mar-2020 4483.01 4532.08 76.91 1.00  90.82 3155.68
   22:04:25.916.23-Mar-2020 4483.01 4532.08 76.91 1.00  91.02 3155.68
   22:04:26.116.23-Mar-2020 4483.01 4532.08 76.91 1.00  91.22 3155.68
   22:04:26.316.23-Mar-2020 4483.01 4532.06 76.91 1.00  91.42 3155.68
   22:04:26.516.23-Mar-2020 4483.01 4532.04 76.91 1.00  91.62 3155.68
   22:04:26.716.23-Mar-2020 4483.01 4532.06 76.90 1.00  91.82 3155.68
