~Version Information
 VERS.                  2.0:   CWLS log ASCII Standard -VERSION 2.0
 WRAP.                   NO:   One line per depth step
~Well Information Block
#MNEM.UNIT     VALUE/NAME     DESCRIPTION
#---------     -----------    ---------------------------
 STRT.S             03:38:19 24-Mar-20: START TIME 03:38:19 24-Mar-20
 STOP.S             03:44:48 24-Mar-20: STOP TIME  03:44:48 24-Mar-20
 STEP.S                   0.00: STEP TIME
 NULL.                 -999.25: NULL VALUE
 DFWT.                        :  DIST FWL TEXT
 DFST.                        :  DIST FSL TEXT
 DMF .             Drill Floor:  DRILL MEAS FROM
 STIM.      22.30.00 15-Feb-20:  START TIME
 DATE.      17.00.00 25-Mar-20:  END TIME
 SPUD.               15-Feb-20:  SPUD DATE
 NREF.                    Grid:  NORTH REFERENCE
 HPTY.       Minimum Curvature:  HOLE POS TYPE
 DMOD.             Drill Model:  DRILL MOD DESC
 SVYD.                  Survey:  SURVEY DESC
 ILTD.               Lithology:  INTERP LTH DESC
 FTOP.          Formation Tops:  FORM TOPS DESC
 SON .        AZ-XX-0906019077:  JOB NUMBER
 PDAT.          Mean Sea Level:  PERMANENT DATUM
 WTYP.                Deviated:  WELL TYPE
 MDS .        Operator Entered:  MAG DATA SOURCE
 COMP.     BP Exploration (Caspian sea) Ltd.:  COMPANY
 UWI .                     N/A:  UNIQUE WELL IDENTIFIER
 API .                     N/A:  API NUMBER
 BASE.              Azerbaijan:  LOGGING EQUIPMENT BASE LOCATION
 REGN.                   EESSA:  REGION
 PROV.                     N/A:  PROVINCE
 STAT.                     N/A:  STATE NAME
 CTRY.              Azerbaijan:  COUNTRY NAME
 FLD .                     ACG:  FIELD NAME
 SRVC.          Turan Drilling:  CONTRACTOR
 MWDS.                    Baku:  MWD SHOP
 WELL.                    E16W:  WELL NAME
 JOBN.        AZ-XX-0906019077:  JOB TICKET NUMB
 RIG .                     DWG:  RIG NAME
 CNTY.                     N/A:  COUNTY NAME
 DCON.         Sperry Drilling:  DIRECTNL CONTR
 UNIT.                     N/A:  LOGGING EQUIPMENT ID
 LOC .                        :  LOCATION
 LMF .             Drill Floor:  LOG MEASURED FROM
 TVDS.m                  43.16:  TVDSS CORRECTN
 LATI.deg                40.17:  LATITUDE
 LONG.deg                51.17:  LONGITUDE
 WHNS.m                 -15.30:  WELL HEAD N/S
 WHEW.m                  -1.29:  WELL HEAD E/W
 UTMX.m              514337.95:  UTM X
 UTMY.m             4448627.46:  UTM Y
 DFWL.m                   0.00:  DISTANCE FWL
 DFSL.m                   0.00:  DISTANCE FSL
 SDEP.m                3499.01:  START DEPTH
 TDD .m                4606.01:  TOTAL DEPTH (DRILLER)
 VSDR.deg               151.14:  VERT SEC DIRECT
 GVFD.g                   1.00:  GRAVITY FIELD
 MFLD.nT              50334.00:  MAGNETIC FIELD
 MDIP.deg                59.62:  MAGNETIC DIP
 MDEC.deg                 6.46:  MAGNETIC DECL
 GRDC.deg                 0.12:  GRID CORRECTION
 AZTC.deg                 6.34:  AZM TOTAL CORR
 EPD .m                   0.00:  ELEVATION
 EGL .m                   0.00:  GROUND ELEVATION
 WDMS.m                 176.20:  WD ELEV
 APD .m                  43.16:  DEPTH ABOVE PD
 VSEW.m                  -1.29:  VERT SEC E/W
 VSNS.m                 -15.30:  VERT SEC N/S
 AGAP.m                  43.16:  AIR GAP
 EKB .m                   0.00:  KB ELEVATION
 EDF .m                  43.16:  DF ELEVATION
 TDL .m                 103.00:  TOTAL DEPTH (LOGGER)
 VSC .                       0:  VS TO CLOSURE
 MAGU.                 1852525:  MAGUTM CHECKSUM
~Parameter Information Block
#MNEM.UNIT       Value        Description
#---------     -----------    ---------------------------
 AV  .mps                 1.01:  Ann Velocity 
 AVMX.mps                 1.32:  Max Ann Veloc 
 AZIF.deg               140.63:  Azm, Final 
 BHAT.        Rotary Steerable:  BHA Type 
 BREV.rev            151000.00:  Rev Bit Total 
 BROT.°/30m               0.65:  Build Rotating 
 BS  .in                  6.50:  Bit Size 
 BSZ .in                  6.50:  Bit Size 
 BTPL.psig              222.00:  Bit Press Loss 
 CABU.                      No:  Customer Abuse 
 CGEO.           Emin Aliyarov:  Customer Geo 
 COMM.                     \·`:  Run Comments 1 
 TCS .hr                 22.89:  Time Ciculation Ended 
 CV  .mps                 2.20:  Crit Velocity 
 CVMX.mps                 3.04:  Max Crit Veloc 
 DD1 .         Intigam Rahimov:  Direct Drillr 1 
 DDSV.               Geo-Pilot:  DD Service 
 DEFF.%                  91.50:  % Det Eff 
 DLRX.°/30m               1.15:  Dogleg Rot Max 
 DLSO.°/30m               0.86:  Dogleg Oriented 
 DLSX.°/30m               1.15:  Dogleg Str Max 
 DRET.      13.10.00 24-Mar-20:  Drill End Time 
 DRST.      17.00.00 23-Mar-20:  Drill Start Tim 
 DTIM.hr                 11.87:  Time Drilling 
 EDEP.m                4606.01:  End Depth 
 ENG1.          Rasim Hashimov:  Engineer 1 
 ENG2.            Alan Tuganov:  Engineer 2 
 ENG3.         Yevgeniy Ulikov:  Engineer 3 
 ETIM.      16.00.00 25-Mar-20:  End Time 
 FLOI.gpm               400.00:  Flow In 
 FLON.gpm               350.00:  Flow In Min 
 FLOS.cptm                0.00:  Fluid Loss 
 FLOX.gpm               400.00:  Flow In Max 
 FTRO.       Formation Presure:  FTWD Run Obj 
 HFLO.                      No:  High Flow 
 HPRE.                      No:  High Pressure 
 HTEM.                      No:  High Temp 
 HYDO.m                   1.80:  Hydro Offset 
 IFIN.deg                79.55:  Inc, Final 
 IMAX.deg                79.55:  Inc Max 
 IMIN.deg                78.04:  Inc Min 
 IMND.m                4502.50:  Inc Min Depth 
 IMXD.m                4587.87:  Inc Max Depth 
 JARR.                      No:  Jarring 
 LETM.      13.10.00 24-Mar-20:  Log End Time 
 LOST.hr                     0:  Lost Rig Time 
 LSTM.      17.00.00 23-Mar-20:  Log Start Time 
 MDCL.ppm             39000.00:  Mud Chlorides 
 MDES.     Inversion Oil/Synthetic:  Mud Desc 
 DFD .sg                  1.40:  Mud Density 
 MDMN.sg                  1.40:  Dens Mud Min 
 MDMX.sg                  1.40:  Dens Mud Max 
 MOIL.                    55.2:  Run Mud Oil % 
 MOWR.                   68:32:  Run Mud OWR 
 MSND.                     0.1:  Run Mud Sand % 
 MSOL.                    17.8:  Run Mud Solids% 
 DFV .spqt               76.00:  Mud Viscosity 
 MWOD.in                  4.75:  MWD Tool OD 
 MWSI.                      No:  Serv Intrp, MWD 
 OTIM.hr                 64.35:  Time Operating 
 PCON.           Look Like New:  Pad Condition 
 PMAX.psia             5350.00:  Press Op, Max 
 PV  .cP                 26.00:  Mud PV 
 RUN .                     900:  Run Number 
 ROPA.m/hr                9.00:  ROP Avg 
 ROPN.m/hr                7.00:  ROP Min 
 ROPX.m/hr               13.00:  ROP Max 
 RPMA.rpm               140.00:  RPM Surface Avg 
 RPMN.rpm               140.00:  RPM Surface Min 
 RPMX.rpm               140.00:  RPM Surface Max 
 RRUN.                    L204:  Rig Run Number 
 RTIM.hr                  4.50:  Time Reaming 
 SAZI.deg               141.40:  Azm, Start 
 SDEP.m                4503.01:  Start Depth 
 SIDD.                      No:  Serv Intrp, DD 
 SINC.deg                78.04:  Inc, Start 
 SPPA.psig             5300.00:  SPP Avg 
 SPPN.psig             5100.00:  SPP Min 
 SPPX.psig             5500.00:  SPP Max 
 STIM.      18.00.00 22-Mar-20:  Start Time 
 SVCS.                 DD, MWD:  Services 
 SVER.                    9.20:  Sperry Version 
 TDAT.m                 103.00:  Tot Depth Attmp 
 TDDF.                      No:  Trip for DD 
 TDLG.m                 103.00:  Tot Depth Loggd 
 TFF .                      No:  Trip for Fail 
 TQAA.f-kp               14.00:  Torque Abs Avg 
 TQAN.f-kp               12.00:  Torque Abs Min 
 TQAX.f-kp               16.00:  Torque Abs Max 
 TRRT.°/30m               0.45:  Turn Rotating 
 MRT .                    HCIM:  Maximum Recorded Temperature 
 TTMX.degC               90.20:  Max Tool Temp 
 VS01.         90577859G12V7D4:  Virtual Str1 SN 
 VS02.            90519330D5C4:  Virtual Str2 SN 
 VS03.             90603450F11:  Virtual Str3 SN 
 VS04.           90515383R12C4:  Virtual Str4 SN 
 VS05.          90522017N2L2C4:  Virtual Str5 SN 
 VS06.            90512682Z1W1:  Virtual Str6 SN 
 WBMN.klb                 5.00:  WOB Min 
 WITN.        Elmaddin Rahimov:  Customer Rep 
 WITN.           Adil Mammadov:  Customer Rep 2 
 WOBA.klb                 8.00:  WOB Avg 
 WOBX.klb                13.00:  WOB Max 
 YP  .lhf2               31.00:  Yield Point 
~Curve Information Block
#MNEM.UNIT                 API CODE     Curve Description
#---------               -----------    ---------------------------
 TIME.HHMMSS            00 000 000 000:  GT Time & Date
 GTDEPTH.m              00 000 000 000:  GT Depth
 GTPQH.psia             00 000 000 000:  GT HR Quartz Pressure
 GTTQ.degC              00 000 000 000:  GT Quartz Temperature
 GTTN.NONE              00 000 000 000:  GT Test Number
 GTET.sec               00 000 000 000:  GT Elapsed Test Time
 GTTVD.m                00 000 000 000:  GT True Vertical Depth
#Other Information
#
#WARRANTY: Halliburton will use its best efforts to furnish customers with 
#accurate information and interpretations that are part of, and incident to, the services 
#provided.  However, Halliburton cannot and does not warrant the accuracy 
#or correctness of such information and interpretations.  Under no circumstances should any 
#such information or interpretation be relied upon as the sole basis for any drilling, 
#completion, production, or financial decision or any procedure involving any risk to the 
#safety of any drilling venture, drilling rig or its crew or any other third party.  The 
#Customer has full responsibility for all drilling, completion and production operation.  
#Halliburton makes no representations or warranties, either expressed or 
#implied, including, but not limited to, the implied warranties of merchantability or fitness 
#for a particular purpose, with respect to the services rendered.  In no event will 
#Halliburton be liable for failure to obtain any particular results or for 
#any damages, including, but not limited to, indirect, special or consequential damages, 
#resulting from the use of any information or interpretation provided by Halliburton.
#
~A           TIME           GTDEPTH  GTPQH  GTTQ  GTTN  GTET   GTTVD  
# ...
   03:44:27.390.24-Mar-2020 4519.01 6943.35 81.73 3.00 368.06 3163.04
   03:44:27.590.24-Mar-2020 4519.01 6942.18 81.73 3.00 368.26 3163.04
   03:44:27.790.24-Mar-2020 4519.01 6944.57 81.73 3.00 368.46 3163.04
   03:44:27.990.24-Mar-2020 4519.01 6943.03 81.73 3.00 368.66 3163.04
   03:44:28.190.24-Mar-2020 4519.01 6944.23 81.72 3.00 368.86 3163.04
   03:44:28.390.24-Mar-2020 4519.01 6935.79 81.72 3.00 369.06 3163.04
   03:44:28.590.24-Mar-2020 4519.01 6935.79 81.72 3.00 369.26 3163.04
   03:44:28.790.24-Mar-2020 4519.01 6940.64 81.72 3.00 369.46 3163.04
   03:44:28.990.24-Mar-2020 4519.01 6941.91 81.72 3.00 369.66 3163.04
   03:44:29.190.24-Mar-2020 4519.01 6943.96 81.72 3.00 369.86 3163.04
   03:44:29.390.24-Mar-2020 4519.01 6940.70 81.72 3.00 370.06 3163.04
   03:44:29.590.24-Mar-2020 4519.01 6942.58 81.72 3.00 370.26 3163.04
   03:44:29.790.24-Mar-2020 4519.01 6940.18 81.72 3.00 370.46 3163.04
   03:44:29.991.24-Mar-2020 4519.01 6942.30 81.72 3.00 370.66 3163.04
   03:44:30.191.24-Mar-2020 4519.01 6939.67 81.72 3.00 370.86 3163.04
   03:44:30.391.24-Mar-2020 4519.01 6941.78 81.72 3.00 371.06 3163.04
   03:44:30.591.24-Mar-2020 4519.01 6940.43 81.72 3.00 371.26 3163.04
   03:44:30.791.24-Mar-2020 4519.01 6943.19 81.72 3.00 371.46 3163.04
   03:44:30.991.24-Mar-2020 4519.01 6941.45 81.72 3.00 371.66 3163.04
   03:44:31.191.24-Mar-2020 4519.01 6937.46 81.72 3.00 371.86 3163.04
   03:44:31.391.24-Mar-2020 4519.01 6936.52 81.72 3.00 372.06 3163.04
   03:44:31.591.24-Mar-2020 4519.01 6942.56 81.71 3.00 372.26 3163.04
   03:44:31.791.24-Mar-2020 4519.01 6930.49 81.71 3.00 372.46 3163.04
   03:44:31.991.24-Mar-2020 4519.01 6941.95 81.71 3.00 372.66 3163.04
   03:44:32.191.24-Mar-2020 4519.01 6936.41 81.71 3.00 372.86 3163.04
   03:44:32.391.24-Mar-2020 4519.01 6939.41 81.71 3.00 373.06 3163.04
   03:44:32.591.24-Mar-2020 4519.01 6939.41 81.71 3.00 373.26 3163.04
   03:44:32.791.24-Mar-2020 4519.01 6939.84 81.71 3.00 373.46 3163.04
   03:44:32.991.24-Mar-2020 4519.01 6934.32 81.71 3.00 373.66 3163.04
   03:44:33.191.24-Mar-2020 4519.01 6940.04 81.71 3.00 373.86 3163.04
   03:44:33.391.24-Mar-2020 4519.01 6937.30 81.71 3.00 374.06 3163.04
   03:44:33.591.24-Mar-2020 4519.01 6937.30 81.71 3.00 374.26 3163.04
   03:44:33.791.24-Mar-2020 4519.01 6936.31 81.71 3.00 374.46 3163.04
   03:44:33.991.24-Mar-2020 4519.01 6940.74 81.71 3.00 374.66 3163.04
   03:44:34.191.24-Mar-2020 4519.01 6941.84 81.71 3.00 374.86 3163.04
   03:44:34.391.24-Mar-2020 4519.01 6940.84 81.71 3.00 375.06 3163.04
   03:44:34.591.24-Mar-2020 4519.01 6940.84 81.71 3.00 375.26 3163.04
   03:44:34.791.24-Mar-2020 4519.01 6940.37 81.71 3.00 375.46 3163.04
   03:44:34.991.24-Mar-2020 4519.01 6943.17 81.71 3.00 375.66 3163.04
   03:44:35.191.24-Mar-2020 4519.01 6940.93 81.70 3.00 375.86 3163.04
   03:44:35.391.24-Mar-2020 4519.01 6938.90 81.70 3.00 376.06 3163.04
   03:44:35.591.24-Mar-2020 4519.01 6940.16 81.70 3.00 376.26 3163.04
   03:44:35.791.24-Mar-2020 4519.01 6937.98 81.70 3.00 376.46 3163.04
   03:44:35.992.24-Mar-2020 4519.01 6940.48 81.70 3.00 376.66 3163.04
   03:44:36.192.24-Mar-2020 4519.01 6943.33 81.70 3.00 376.86 3163.04
   03:44:36.392.24-Mar-2020 4519.01 6940.04 81.70 3.00 377.06 3163.04
   03:44:36.592.24-Mar-2020 4519.01 6940.04 81.70 3.00 377.26 3163.04
   03:44:36.792.24-Mar-2020 4519.01 6940.20 81.70 3.00 377.46 3163.04
   03:44:36.992.24-Mar-2020 4519.01 6942.38 81.70 3.00 377.66 3163.04
   03:44:37.192.24-Mar-2020 4519.01 6940.37 81.70 3.00 377.86 3163.04
   03:44:37.392.24-Mar-2020 4519.01 6941.45 81.70 3.00 378.06 3163.04
   03:44:37.592.24-Mar-2020 4519.01 6941.45 81.70 3.00 378.26 3163.04
   03:44:37.792.24-Mar-2020 4519.01 6942.04 81.70 3.00 378.46 3163.04
   03:44:37.992.24-Mar-2020 4519.01 6941.82 81.70 3.00 378.66 3163.04
   03:44:38.192.24-Mar-2020 4519.01 6934.04 81.70 3.00 378.86 3163.04
   03:44:38.392.24-Mar-2020 4519.01 6940.52 81.70 3.00 379.06 3163.04
   03:44:38.592.24-Mar-2020 4519.01 6940.52 81.70 3.00 379.26 3163.04
   03:44:38.792.24-Mar-2020 4519.01 6931.39 81.69 3.00 379.46 3163.04
   03:44:38.992.24-Mar-2020 4519.01 6940.21 81.69 3.00 379.66 3163.04
   03:44:39.192.24-Mar-2020 4519.01 6937.91 81.69 3.00 379.86 3163.04
   03:44:39.392.24-Mar-2020 4519.01 6937.63 81.69 3.00 380.06 3163.04
   03:44:39.592.24-Mar-2020 4519.01 6940.42 81.69 3.00 380.26 3163.04
   03:44:39.792.24-Mar-2020 4519.01 6935.35 81.69 3.00 380.46 3163.04
   03:44:39.992.24-Mar-2020 4519.01 6935.62 81.69 3.00 380.66 3163.04
   03:44:40.192.24-Mar-2020 4519.01 6938.45 81.69 3.00 380.86 3163.04
   03:44:40.392.24-Mar-2020 4519.01 6941.27 81.69 3.00 381.06 3163.04
   03:44:40.592.24-Mar-2020 4519.01 6941.27 81.69 3.00 381.26 3163.04
   03:44:40.792.24-Mar-2020 4519.01 6937.14 81.69 3.00 381.46 3163.04
   03:44:40.992.24-Mar-2020 4519.01 6936.64 81.69 3.00 381.66 3163.04
   03:44:41.192.24-Mar-2020 4519.01 6943.01 81.69 3.00 381.86 3163.04
   03:44:41.392.24-Mar-2020 4519.01 6939.22 81.69 3.00 382.06 3163.04
   03:44:41.592.24-Mar-2020 4519.01 6939.22 81.69 3.00 382.26 3163.04
   03:44:41.792.24-Mar-2020 4519.01 6940.23 81.69 3.00 382.46 3163.04
   03:44:41.993.24-Mar-2020 4519.01 6942.65 81.68 3.00 382.66 3163.04
   03:44:42.193.24-Mar-2020 4519.01 6940.89 81.68 3.00 382.86 3163.04
   03:44:42.393.24-Mar-2020 4519.01 6942.59 81.68 3.00 383.06 3163.04
   03:44:42.593.24-Mar-2020 4519.01 6940.72 81.68 3.00 383.26 3163.04
   03:44:42.793.24-Mar-2020 4519.01 6935.42 81.68 3.00 383.46 3163.04
   03:44:42.993.24-Mar-2020 4519.01 6938.08 81.68 3.00 383.66 3163.04
   03:44:43.193.24-Mar-2020 4519.01 6941.25 81.68 3.00 383.86 3163.04
   03:44:43.393.24-Mar-2020 4519.01 6939.98 81.68 3.00 384.06 3163.04
   03:44:43.593.24-Mar-2020 4519.01 6939.98 81.68 3.00 384.26 3163.04
   03:44:43.793.24-Mar-2020 4519.01 6940.65 81.68 3.00 384.46 3163.04
   03:44:43.993.24-Mar-2020 4519.01 6939.01 81.68 3.00 384.66 3163.04
   03:44:44.193.24-Mar-2020 4519.01 6940.83 81.68 3.00 384.86 3163.04
   03:44:44.393.24-Mar-2020 4519.01 6938.92 81.68 3.00 385.06 3163.04
   03:44:44.593.24-Mar-2020 4519.01 6938.92 81.68 3.00 385.26 3163.04
   03:44:44.793.24-Mar-2020 4519.01 6938.65 81.68 3.00 385.46 3163.04
   03:44:44.993.24-Mar-2020 4519.01 6942.69 81.68 3.00 385.66 3163.04
   03:44:45.193.24-Mar-2020 4519.01 6939.23 81.68 3.00 385.86 3163.04
   03:44:45.393.24-Mar-2020 4519.01 6938.69 81.67 3.00 386.06 3163.04
   03:44:45.593.24-Mar-2020 4519.01 6938.69 81.67 3.00 386.26 3163.04
   03:44:45.793.24-Mar-2020 4519.01 6935.55 81.67 3.00 386.46 3163.04
   03:44:45.993.24-Mar-2020 4519.01 6937.70 81.67 3.00 386.66 3163.04
   03:44:46.193.24-Mar-2020 4519.01 6935.09 81.67 3.00 386.86 3163.04
   03:44:46.393.24-Mar-2020 4519.01 6933.49 81.67 3.00 387.06 3163.04
   03:44:46.593.24-Mar-2020 4519.01 6933.49 81.67 3.00 387.26 3163.04
   03:44:46.793.24-Mar-2020 4519.01 6936.47 81.67 3.00 387.46 3163.04
   03:44:46.993.24-Mar-2020 4519.01 6932.31 81.67 3.00 387.66 3163.04
   03:44:47.193.24-Mar-2020 4519.01 6937.53 81.67 3.00 387.86 3163.04
   03:44:47.393.24-Mar-2020 4519.01 6938.43 81.67 3.00 388.06 3163.04
   03:44:47.593.24-Mar-2020 4519.01 6938.43 81.67 3.00 388.26 3163.04
   03:44:47.793.24-Mar-2020 4519.01 6932.94 81.67 3.00 388.46 3163.04
   03:44:47.994.24-Mar-2020 4519.01 6939.56 81.67 3.00 388.66 3163.04
   03:44:48.194.24-Mar-2020 4519.01 6939.33 81.67 3.00 388.86 3163.04
