~Version Information
 VERS.                  2.0:   CWLS log ASCII Standard -VERSION 2.0
 WRAP.                   NO:   One line per depth step
~Well Information Block
#MNEM.UNIT     VALUE/NAME     DESCRIPTION
#---------     -----------    ---------------------------
 STRT.S             22:02:54 23-Mar-20: START TIME 22:02:54 23-Mar-20
 STOP.S             22:09:24 23-Mar-20: STOP TIME  22:09:24 23-Mar-20
 STEP.S                   0.00: STEP TIME
 NULL.                 -999.25: NULL VALUE
 DFWT.                        :  DIST FWL TEXT
 DFST.                        :  DIST FSL TEXT
 DMF .             Drill Floor:  DRILL MEAS FROM
 STIM.      22.30.00 15-Feb-20:  START TIME
 DATE.      17.00.00 25-Mar-20:  END TIME
 SPUD.               15-Feb-20:  SPUD DATE
 NREF.                    Grid:  NORTH REFERENCE
 HPTY.       Minimum Curvature:  HOLE POS TYPE
 DMOD.             Drill Model:  DRILL MOD DESC
 SVYD.                  Survey:  SURVEY DESC
 ILTD.               Lithology:  INTERP LTH DESC
 FTOP.          Formation Tops:  FORM TOPS DESC
 SON .        AZ-XX-0906019077:  JOB NUMBER
 PDAT.          Mean Sea Level:  PERMANENT DATUM
 WTYP.                Deviated:  WELL TYPE
 MDS .        Operator Entered:  MAG DATA SOURCE
 COMP.     BP Exploration (Caspian sea) Ltd.:  COMPANY
 UWI .                     N/A:  UNIQUE WELL IDENTIFIER
 API .                     N/A:  API NUMBER
 BASE.              Azerbaijan:  LOGGING EQUIPMENT BASE LOCATION
 REGN.                   EESSA:  REGION
 PROV.                     N/A:  PROVINCE
 STAT.                     N/A:  STATE NAME
 CTRY.              Azerbaijan:  COUNTRY NAME
 FLD .                     ACG:  FIELD NAME
 SRVC.          Turan Drilling:  CONTRACTOR
 MWDS.                    Baku:  MWD SHOP
 WELL.                    E16W:  WELL NAME
 JOBN.        AZ-XX-0906019077:  JOB TICKET NUMB
 RIG .                     DWG:  RIG NAME
 CNTY.                     N/A:  COUNTY NAME
 DCON.         Sperry Drilling:  DIRECTNL CONTR
 UNIT.                     N/A:  LOGGING EQUIPMENT ID
 LOC .                        :  LOCATION
 LMF .             Drill Floor:  LOG MEASURED FROM
 TVDS.m                  43.16:  TVDSS CORRECTN
 LATI.deg                40.17:  LATITUDE
 LONG.deg                51.17:  LONGITUDE
 WHNS.m                 -15.30:  WELL HEAD N/S
 WHEW.m                  -1.29:  WELL HEAD E/W
 UTMX.m              514337.95:  UTM X
 UTMY.m             4448627.46:  UTM Y
 DFWL.m                   0.00:  DISTANCE FWL
 DFSL.m                   0.00:  DISTANCE FSL
 SDEP.m                3499.01:  START DEPTH
 TDD .m                4606.01:  TOTAL DEPTH (DRILLER)
 VSDR.deg               151.14:  VERT SEC DIRECT
 GVFD.g                   1.00:  GRAVITY FIELD
 MFLD.nT              50334.00:  MAGNETIC FIELD
 MDIP.deg                59.62:  MAGNETIC DIP
 MDEC.deg                 6.46:  MAGNETIC DECL
 GRDC.deg                 0.12:  GRID CORRECTION
 AZTC.deg                 6.34:  AZM TOTAL CORR
 EPD .m                   0.00:  ELEVATION
 EGL .m                   0.00:  GROUND ELEVATION
 WDMS.m                 176.20:  WD ELEV
 APD .m                  43.16:  DEPTH ABOVE PD
 VSEW.m                  -1.29:  VERT SEC E/W
 VSNS.m                 -15.30:  VERT SEC N/S
 AGAP.m                  43.16:  AIR GAP
 EKB .m                   0.00:  KB ELEVATION
 EDF .m                  43.16:  DF ELEVATION
 TDL .m                 103.00:  TOTAL DEPTH (LOGGER)
 VSC .                       0:  VS TO CLOSURE
 MAGU.                 1852525:  MAGUTM CHECKSUM
~Parameter Information Block
#MNEM.UNIT       Value        Description
#---------     -----------    ---------------------------
 AV  .mps                 1.01:  Ann Velocity 
 AVMX.mps                 1.32:  Max Ann Veloc 
 AZIF.deg               140.63:  Azm, Final 
 BHAT.        Rotary Steerable:  BHA Type 
 BREV.rev            151000.00:  Rev Bit Total 
 BROT.°/30m               0.65:  Build Rotating 
 BS  .in                  6.50:  Bit Size 
 BSZ .in                  6.50:  Bit Size 
 BTPL.psig              222.00:  Bit Press Loss 
 CABU.                      No:  Customer Abuse 
 CGEO.           Emin Aliyarov:  Customer Geo 
 COMM.                     L5S:  Run Comments 1 
 TCS .hr                 22.89:  Time Ciculation Ended 
 CV  .mps                 2.20:  Crit Velocity 
 CVMX.mps                 3.04:  Max Crit Veloc 
 DD1 .         Intigam Rahimov:  Direct Drillr 1 
 DDSV.               Geo-Pilot:  DD Service 
 DEFF.%                  91.50:  % Det Eff 
 DLRX.°/30m               1.15:  Dogleg Rot Max 
 DLSO.°/30m               0.86:  Dogleg Oriented 
 DLSX.°/30m               1.15:  Dogleg Str Max 
 DRET.      13.10.00 24-Mar-20:  Drill End Time 
 DRST.      17.00.00 23-Mar-20:  Drill Start Tim 
 DTIM.hr                 11.87:  Time Drilling 
 EDEP.m                4606.01:  End Depth 
 ENG1.          Rasim Hashimov:  Engineer 1 
 ENG2.            Alan Tuganov:  Engineer 2 
 ENG3.         Yevgeniy Ulikov:  Engineer 3 
 ETIM.      16.00.00 25-Mar-20:  End Time 
 FLOI.gpm               400.00:  Flow In 
 FLON.gpm               350.00:  Flow In Min 
 FLOS.cptm                0.00:  Fluid Loss 
 FLOX.gpm               400.00:  Flow In Max 
 FTRO.       Formation Presure:  FTWD Run Obj 
 HFLO.                      No:  High Flow 
 HPRE.                      No:  High Pressure 
 HTEM.                      No:  High Temp 
 HYDO.m                   1.80:  Hydro Offset 
 IFIN.deg                79.55:  Inc, Final 
 IMAX.deg                79.55:  Inc Max 
 IMIN.deg                78.04:  Inc Min 
 IMND.m                4502.50:  Inc Min Depth 
 IMXD.m                4587.87:  Inc Max Depth 
 JARR.                      No:  Jarring 
 LETM.      13.10.00 24-Mar-20:  Log End Time 
 LOST.hr                     0:  Lost Rig Time 
 LSTM.      17.00.00 23-Mar-20:  Log Start Time 
 MDCL.ppm             39000.00:  Mud Chlorides 
 MDES.     Inversion Oil/Synthetic:  Mud Desc 
 DFD .sg                  1.40:  Mud Density 
 MDMN.sg                  1.40:  Dens Mud Min 
 MDMX.sg                  1.40:  Dens Mud Max 
 MOIL.                    55.2:  Run Mud Oil % 
 MOWR.                   68:32:  Run Mud OWR 
 MSND.                     0.1:  Run Mud Sand % 
 MSOL.                    17.8:  Run Mud Solids% 
 DFV .spqt               76.00:  Mud Viscosity 
 MWOD.in                  4.75:  MWD Tool OD 
 MWSI.                      No:  Serv Intrp, MWD 
 OTIM.hr                 64.35:  Time Operating 
 PCON.           Look Like New:  Pad Condition 
 PMAX.psia             5350.00:  Press Op, Max 
 PV  .cP                 26.00:  Mud PV 
 RUN .                     900:  Run Number 
 ROPA.m/hr                9.00:  ROP Avg 
 ROPN.m/hr                7.00:  ROP Min 
 ROPX.m/hr               13.00:  ROP Max 
 RPMA.rpm               140.00:  RPM Surface Avg 
 RPMN.rpm               140.00:  RPM Surface Min 
 RPMX.rpm               140.00:  RPM Surface Max 
 RRUN.                    L204:  Rig Run Number 
 RTIM.hr                  4.50:  Time Reaming 
 SAZI.deg               141.40:  Azm, Start 
 SDEP.m                4503.01:  Start Depth 
 SIDD.                      No:  Serv Intrp, DD 
 SINC.deg                78.04:  Inc, Start 
 SPPA.psig             5300.00:  SPP Avg 
 SPPN.psig             5100.00:  SPP Min 
 SPPX.psig             5500.00:  SPP Max 
 STIM.      18.00.00 22-Mar-20:  Start Time 
 SVCS.                 DD, MWD:  Services 
 SVER.                    9.20:  Sperry Version 
 TDAT.m                 103.00:  Tot Depth Attmp 
 TDDF.                      No:  Trip for DD 
 TDLG.m                 103.00:  Tot Depth Loggd 
 TFF .                      No:  Trip for Fail 
 TQAA.f-kp               14.00:  Torque Abs Avg 
 TQAN.f-kp               12.00:  Torque Abs Min 
 TQAX.f-kp               16.00:  Torque Abs Max 
 TRRT.°/30m               0.45:  Turn Rotating 
 MRT .                    HCIM:  Maximum Recorded Temperature 
 TTMX.degC               90.20:  Max Tool Temp 
 VS01.         90577859G12V7D4:  Virtual Str1 SN 
 VS02.            90519330D5C4:  Virtual Str2 SN 
 VS03.             90603450F11:  Virtual Str3 SN 
 VS04.           90515383R12C4:  Virtual Str4 SN 
 VS05.          90522017N2L2C4:  Virtual Str5 SN 
 VS06.            90512682Z1W1:  Virtual Str6 SN 
 WBMN.klb                 5.00:  WOB Min 
 WITN.        Elmaddin Rahimov:  Customer Rep 
 WITN.           Adil Mammadov:  Customer Rep 2 
 WOBA.klb                 8.00:  WOB Avg 
 WOBX.klb                13.00:  WOB Max 
 YP  .lhf2               31.00:  Yield Point 
~Curve Information Block
#MNEM.UNIT                 API CODE     Curve Description
#---------               -----------    ---------------------------
 TIME.HHMMSS            00 000 000 000:  GT Time & Date
 GTDEPTH.m              00 000 000 000:  GT Depth
 GTPQH.psia             00 000 000 000:  GT HR Quartz Pressure
 GTTQ.degC              00 000 000 000:  GT Quartz Temperature
 GTTN.NONE              00 000 000 000:  GT Test Number
 GTET.sec               00 000 000 000:  GT Elapsed Test Time
 GTTVD.m                00 000 000 000:  GT True Vertical Depth
#Other Information
#
#WARRANTY: Halliburton will use its best efforts to furnish customers with 
#accurate information and interpretations that are part of, and incident to, the services 
#provided.  However, Halliburton cannot and does not warrant the accuracy 
#or correctness of such information and interpretations.  Under no circumstances should any 
#such information or interpretation be relied upon as the sole basis for any drilling, 
#completion, production, or financial decision or any procedure involving any risk to the 
#safety of any drilling venture, drilling rig or its crew or any other third party.  The 
#Customer has full responsibility for all drilling, completion and production operation.  
#Halliburton makes no representations or warranties, either expressed or 
#implied, including, but not limited to, the implied warranties of merchantability or fitness 
#for a particular purpose, with respect to the services rendered.  In no event will 
#Halliburton be liable for failure to obtain any particular results or for 
#any damages, including, but not limited to, indirect, special or consequential damages, 
#resulting from the use of any information or interpretation provided by Halliburton.
#
~A           TIME           GTDEPTH  GTPQH  GTTQ  GTTN  GTET   GTTVD  
# ...
   22:09:02.964.23-Mar-2020 4483.01 6941.49 76.05 1.00 368.06 3155.68
   22:09:03.164.23-Mar-2020 4483.01 6941.49 76.05 1.00 368.26 3155.68
   22:09:03.364.23-Mar-2020 4483.01 6942.94 76.05 1.00 368.46 3155.68
   22:09:03.564.23-Mar-2020 4483.01 6943.83 76.04 1.00 368.66 3155.68
   22:09:03.764.23-Mar-2020 4483.01 6942.75 76.04 1.00 368.86 3155.68
   22:09:03.964.23-Mar-2020 4483.01 6944.49 76.04 1.00 369.06 3155.68
   22:09:04.164.23-Mar-2020 4483.01 6943.36 76.04 1.00 369.26 3155.68
   22:09:04.364.23-Mar-2020 4483.01 6942.56 76.04 1.00 369.46 3155.68
   22:09:04.564.23-Mar-2020 4483.01 6938.26 76.04 1.00 369.66 3155.68
   22:09:04.764.23-Mar-2020 4483.01 6941.33 76.04 1.00 369.86 3155.68
   22:09:04.964.23-Mar-2020 4483.01 6941.11 76.04 1.00 370.06 3155.68
   22:09:05.164.23-Mar-2020 4483.01 6943.55 76.04 1.00 370.26 3155.68
   22:09:05.364.23-Mar-2020 4483.01 6941.85 76.04 1.00 370.46 3155.68
   22:09:05.564.23-Mar-2020 4483.01 6942.62 76.04 1.00 370.66 3155.68
   22:09:05.764.23-Mar-2020 4483.01 6941.84 76.04 1.00 370.86 3155.68
   22:09:05.964.23-Mar-2020 4483.01 6942.53 76.04 1.00 371.06 3155.68
   22:09:06.164.23-Mar-2020 4483.01 6942.53 76.04 1.00 371.26 3155.68
   22:09:06.364.23-Mar-2020 4483.01 6941.60 76.04 1.00 371.46 3155.68
   22:09:06.564.23-Mar-2020 4483.01 6942.86 76.04 1.00 371.66 3155.68
   22:09:06.765.23-Mar-2020 4483.01 6943.05 76.04 1.00 371.86 3155.68
   22:09:06.965.23-Mar-2020 4483.01 6943.47 76.04 1.00 372.06 3155.68
   22:09:07.165.23-Mar-2020 4483.01 6943.47 76.04 1.00 372.26 3155.68
   22:09:07.365.23-Mar-2020 4483.01 6939.11 76.04 1.00 372.46 3155.68
   22:09:07.565.23-Mar-2020 4483.01 6939.97 76.04 1.00 372.66 3155.68
   22:09:07.765.23-Mar-2020 4483.01 6939.23 76.04 1.00 372.86 3155.68
   22:09:07.965.23-Mar-2020 4483.01 6935.45 76.03 1.00 373.06 3155.68
   22:09:08.165.23-Mar-2020 4483.01 6938.38 76.03 1.00 373.26 3155.68
   22:09:08.365.23-Mar-2020 4483.01 6938.07 76.03 1.00 373.46 3155.68
   22:09:08.565.23-Mar-2020 4483.01 6941.17 76.03 1.00 373.66 3155.68
   22:09:08.765.23-Mar-2020 4483.01 6934.34 76.03 1.00 373.86 3155.68
   22:09:08.965.23-Mar-2020 4483.01 6936.61 76.03 1.00 374.06 3155.68
   22:09:09.165.23-Mar-2020 4483.01 6938.20 76.03 1.00 374.26 3155.68
   22:09:09.365.23-Mar-2020 4483.01 6942.60 76.03 1.00 374.46 3155.68
   22:09:09.565.23-Mar-2020 4483.01 6936.34 76.03 1.00 374.66 3155.68
   22:09:09.765.23-Mar-2020 4483.01 6939.43 76.03 1.00 374.86 3155.68
   22:09:09.965.23-Mar-2020 4483.01 6940.30 76.03 1.00 375.06 3155.68
   22:09:10.165.23-Mar-2020 4483.01 6940.30 76.03 1.00 375.26 3155.68
   22:09:10.365.23-Mar-2020 4483.01 6941.64 76.03 1.00 375.46 3155.68
   22:09:10.565.23-Mar-2020 4483.01 6942.69 76.03 1.00 375.66 3155.68
   22:09:10.765.23-Mar-2020 4483.01 6941.67 76.03 1.00 375.86 3155.68
   22:09:10.965.23-Mar-2020 4483.01 6943.41 76.03 1.00 376.07 3155.68
   22:09:11.165.23-Mar-2020 4483.01 6943.41 76.03 1.00 376.27 3155.68
   22:09:11.365.23-Mar-2020 4483.01 6943.36 76.03 1.00 376.47 3155.68
   22:09:11.565.23-Mar-2020 4483.01 6938.59 76.03 1.00 376.67 3155.68
   22:09:11.765.23-Mar-2020 4483.01 6939.53 76.03 1.00 376.87 3155.68
   22:09:11.965.23-Mar-2020 4483.01 6940.73 76.02 1.00 377.07 3155.68
   22:09:12.165.23-Mar-2020 4483.01 6940.73 76.02 1.00 377.27 3155.68
   22:09:12.365.23-Mar-2020 4483.01 6942.59 76.02 1.00 377.47 3155.68
   22:09:12.566.23-Mar-2020 4483.01 6940.95 76.02 1.00 377.67 3155.68
   22:09:12.766.23-Mar-2020 4483.01 6942.06 76.02 1.00 377.87 3155.68
   22:09:12.966.23-Mar-2020 4483.01 6940.54 76.02 1.00 378.07 3155.68
   22:09:13.166.23-Mar-2020 4483.01 6942.09 76.02 1.00 378.27 3155.68
   22:09:13.366.23-Mar-2020 4483.01 6940.33 76.02 1.00 378.47 3155.68
   22:09:13.566.23-Mar-2020 4483.01 6941.70 76.02 1.00 378.67 3155.68
   22:09:13.766.23-Mar-2020 4483.01 6941.38 76.02 1.00 378.87 3155.68
   22:09:13.966.23-Mar-2020 4483.01 6943.39 76.02 1.00 379.07 3155.68
   22:09:14.166.23-Mar-2020 4483.01 6943.39 76.02 1.00 379.27 3155.68
   22:09:14.366.23-Mar-2020 4483.01 6937.41 76.02 1.00 379.47 3155.68
   22:09:14.566.23-Mar-2020 4483.01 6936.13 76.02 1.00 379.67 3155.68
   22:09:14.766.23-Mar-2020 4483.01 6940.95 76.02 1.00 379.87 3155.68
   22:09:14.966.23-Mar-2020 4483.01 6938.94 76.02 1.00 380.07 3155.68
   22:09:15.166.23-Mar-2020 4483.01 6938.94 76.02 1.00 380.27 3155.68
   22:09:15.366.23-Mar-2020 4483.01 6936.39 76.02 1.00 380.47 3155.68
   22:09:15.566.23-Mar-2020 4483.01 6939.73 76.02 1.00 380.67 3155.68
   22:09:15.766.23-Mar-2020 4483.01 6940.45 76.01 1.00 380.87 3155.68
   22:09:15.966.23-Mar-2020 4483.01 6936.29 76.01 1.00 381.07 3155.68
   22:09:16.166.23-Mar-2020 4483.01 6936.29 76.01 1.00 381.27 3155.68
   22:09:16.366.23-Mar-2020 4483.01 6939.79 76.01 1.00 381.47 3155.68
   22:09:16.566.23-Mar-2020 4483.01 6936.86 76.01 1.00 381.67 3155.68
   22:09:16.766.23-Mar-2020 4483.01 6938.22 76.01 1.00 381.87 3155.68
   22:09:16.966.23-Mar-2020 4483.01 6941.87 76.01 1.00 382.07 3155.68
   22:09:17.166.23-Mar-2020 4483.01 6941.87 76.01 1.00 382.27 3155.68
   22:09:17.366.23-Mar-2020 4483.01 6943.36 76.01 1.00 382.47 3155.68
   22:09:17.566.23-Mar-2020 4483.01 6942.49 76.01 1.00 382.67 3155.68
   22:09:17.766.23-Mar-2020 4483.01 6943.54 76.01 1.00 382.87 3155.68
   22:09:17.966.23-Mar-2020 4483.01 6942.36 76.01 1.00 383.07 3155.68
   22:09:18.167.23-Mar-2020 4483.01 6942.36 76.01 1.00 383.27 3155.68
   22:09:18.367.23-Mar-2020 4483.01 6942.24 76.01 1.00 383.47 3155.68
   22:09:18.567.23-Mar-2020 4483.01 6938.77 76.01 1.00 383.67 3155.68
   22:09:18.767.23-Mar-2020 4483.01 6938.88 76.01 1.00 383.87 3155.68
   22:09:18.967.23-Mar-2020 4483.01 6942.89 76.01 1.00 384.07 3155.68
   22:09:19.167.23-Mar-2020 4483.01 6942.89 76.01 1.00 384.27 3155.68
   22:09:19.367.23-Mar-2020 4483.01 6942.74 76.01 1.00 384.47 3155.68
   22:09:19.567.23-Mar-2020 4483.01 6940.58 76.00 1.00 384.67 3155.68
   22:09:19.767.23-Mar-2020 4483.01 6941.80 76.00 1.00 384.87 3155.68
   22:09:19.967.23-Mar-2020 4483.01 6940.14 76.00 1.00 385.07 3155.68
   22:09:20.167.23-Mar-2020 4483.01 6941.44 76.00 1.00 385.27 3155.68
   22:09:20.367.23-Mar-2020 4483.01 6939.81 76.00 1.00 385.47 3155.68
   22:09:20.567.23-Mar-2020 4483.01 6941.32 76.00 1.00 385.67 3155.68
   22:09:20.767.23-Mar-2020 4483.01 6941.73 76.00 1.00 385.87 3155.68
   22:09:20.967.23-Mar-2020 4483.01 6942.08 76.00 1.00 386.07 3155.68
   22:09:21.167.23-Mar-2020 4483.01 6941.22 76.00 1.00 386.27 3155.68
   22:09:21.367.23-Mar-2020 4483.01 6936.60 76.00 1.00 386.47 3155.68
   22:09:21.567.23-Mar-2020 4483.01 6937.58 76.00 1.00 386.67 3155.68
   22:09:21.767.23-Mar-2020 4483.01 6938.70 76.00 1.00 386.87 3155.68
   22:09:21.967.23-Mar-2020 4483.01 6934.75 76.00 1.00 387.07 3155.68
   22:09:22.167.23-Mar-2020 4483.01 6934.75 76.00 1.00 387.27 3155.68
   22:09:22.367.23-Mar-2020 4483.01 6940.04 76.00 1.00 387.47 3155.68
   22:09:22.567.23-Mar-2020 4483.01 6938.99 76.00 1.00 387.67 3155.68
   22:09:22.767.23-Mar-2020 4483.01 6934.99 76.00 1.00 387.87 3155.68
   22:09:22.967.23-Mar-2020 4483.01 6935.27 76.00 1.00 388.07 3155.68
   22:09:23.167.23-Mar-2020 4483.01 6935.27 76.00 1.00 388.27 3155.68
   22:09:23.367.23-Mar-2020 4483.01 6939.51 75.99 1.00 388.47 3155.68
   22:09:23.567.23-Mar-2020 4483.01 6936.34 75.99 1.00 388.67 3155.68
   22:09:23.767.23-Mar-2020 4483.01 6936.66 75.99 1.00 388.87 3155.68
   22:09:23.968.23-Mar-2020 4483.01 6941.89 75.99 1.00 389.07 3155.68
   22:09:24.168.23-Mar-2020 4483.01 6941.38 75.99 1.00 389.27 3155.68
   22:09:24.368.23-Mar-2020 4483.01 6943.01 75.99 1.00 389.47 3155.68
   22:09:24.568.23-Mar-2020 4483.01 6941.38 75.99 1.00 389.67 3155.68
   22:09:24.768.23-Mar-2020 4483.01 6942.88 75.99 1.00 389.87 3155.68
