~Version Information
 VERS.                  2.0:   CWLS log ASCII Standard -VERSION 2.0
 WRAP.                   NO:   One line per depth step
~Well Information Block
#MNEM.UNIT     VALUE/NAME     DESCRIPTION
#---------     -----------    ---------------------------
 STRT.S             10:10:38 24-Mar-20: START TIME 10:10:38 24-Mar-20
 STOP.S             10:17:07 24-Mar-20: STOP TIME  10:17:07 24-Mar-20
 STEP.S                   0.00: STEP TIME
 NULL.                 -999.25: NULL VALUE
 DFWT.                        :  DIST FWL TEXT
 DFST.                        :  DIST FSL TEXT
 DMF .             Drill Floor:  DRILL MEAS FROM
 STIM.      22.30.00 15-Feb-20:  START TIME
 DATE.      17.00.00 25-Mar-20:  END TIME
 SPUD.               15-Feb-20:  SPUD DATE
 NREF.                    Grid:  NORTH REFERENCE
 HPTY.       Minimum Curvature:  HOLE POS TYPE
 DMOD.             Drill Model:  DRILL MOD DESC
 SVYD.                  Survey:  SURVEY DESC
 ILTD.               Lithology:  INTERP LTH DESC
 FTOP.          Formation Tops:  FORM TOPS DESC
 SON .        AZ-XX-0906019077:  JOB NUMBER
 PDAT.          Mean Sea Level:  PERMANENT DATUM
 WTYP.                Deviated:  WELL TYPE
 MDS .        Operator Entered:  MAG DATA SOURCE
 COMP.     BP Exploration (Caspian sea) Ltd.:  COMPANY
 UWI .                     N/A:  UNIQUE WELL IDENTIFIER
 API .                     N/A:  API NUMBER
 BASE.              Azerbaijan:  LOGGING EQUIPMENT BASE LOCATION
 REGN.                   EESSA:  REGION
 PROV.                     N/A:  PROVINCE
 STAT.                     N/A:  STATE NAME
 CTRY.              Azerbaijan:  COUNTRY NAME
 FLD .                     ACG:  FIELD NAME
 SRVC.          Turan Drilling:  CONTRACTOR
 MWDS.                    Baku:  MWD SHOP
 WELL.                    E16W:  WELL NAME
 JOBN.        AZ-XX-0906019077:  JOB TICKET NUMB
 RIG .                     DWG:  RIG NAME
 CNTY.                     N/A:  COUNTY NAME
 DCON.         Sperry Drilling:  DIRECTNL CONTR
 UNIT.                     N/A:  LOGGING EQUIPMENT ID
 LOC .                        :  LOCATION
 LMF .             Drill Floor:  LOG MEASURED FROM
 TVDS.m                  43.16:  TVDSS CORRECTN
 LATI.deg                40.17:  LATITUDE
 LONG.deg                51.17:  LONGITUDE
 WHNS.m                 -15.30:  WELL HEAD N/S
 WHEW.m                  -1.29:  WELL HEAD E/W
 UTMX.m              514337.95:  UTM X
 UTMY.m             4448627.46:  UTM Y
 DFWL.m                   0.00:  DISTANCE FWL
 DFSL.m                   0.00:  DISTANCE FSL
 SDEP.m                3499.01:  START DEPTH
 TDD .m                4606.01:  TOTAL DEPTH (DRILLER)
 VSDR.deg               151.14:  VERT SEC DIRECT
 GVFD.g                   1.00:  GRAVITY FIELD
 MFLD.nT              50334.00:  MAGNETIC FIELD
 MDIP.deg                59.62:  MAGNETIC DIP
 MDEC.deg                 6.46:  MAGNETIC DECL
 GRDC.deg                 0.12:  GRID CORRECTION
 AZTC.deg                 6.34:  AZM TOTAL CORR
 EPD .m                   0.00:  ELEVATION
 EGL .m                   0.00:  GROUND ELEVATION
 WDMS.m                 176.20:  WD ELEV
 APD .m                  43.16:  DEPTH ABOVE PD
 VSEW.m                  -1.29:  VERT SEC E/W
 VSNS.m                 -15.30:  VERT SEC N/S
 AGAP.m                  43.16:  AIR GAP
 EKB .m                   0.00:  KB ELEVATION
 EDF .m                  43.16:  DF ELEVATION
 TDL .m                 103.00:  TOTAL DEPTH (LOGGER)
 VSC .                       0:  VS TO CLOSURE
 MAGU.                 1852525:  MAGUTM CHECKSUM
~Parameter Information Block
#MNEM.UNIT       Value        Description
#---------     -----------    ---------------------------
 AV  .mps                 1.01:  Ann Velocity 
 AVMX.mps                 1.32:  Max Ann Veloc 
 AZIF.deg               140.63:  Azm, Final 
 BHAT.        Rotary Steerable:  BHA Type 
 BREV.rev            151000.00:  Rev Bit Total 
 BROT.°/30m               0.65:  Build Rotating 
 BS  .in                  6.50:  Bit Size 
 BSZ .in                  6.50:  Bit Size 
 BTPL.psig              222.00:  Bit Press Loss 
 CABU.                      No:  Customer Abuse 
 CGEO.           Emin Aliyarov:  Customer Geo 
 COMM.                     ´â}:  Run Comments 1 
 TCS .hr                 22.89:  Time Ciculation Ended 
 CV  .mps                 2.20:  Crit Velocity 
 CVMX.mps                 3.04:  Max Crit Veloc 
 DD1 .         Intigam Rahimov:  Direct Drillr 1 
 DDSV.               Geo-Pilot:  DD Service 
 DEFF.%                  91.50:  % Det Eff 
 DLRX.°/30m               1.15:  Dogleg Rot Max 
 DLSO.°/30m               0.86:  Dogleg Oriented 
 DLSX.°/30m               1.15:  Dogleg Str Max 
 DRET.      13.10.00 24-Mar-20:  Drill End Time 
 DRST.      17.00.00 23-Mar-20:  Drill Start Tim 
 DTIM.hr                 11.87:  Time Drilling 
 EDEP.m                4606.01:  End Depth 
 ENG1.          Rasim Hashimov:  Engineer 1 
 ENG2.            Alan Tuganov:  Engineer 2 
 ENG3.         Yevgeniy Ulikov:  Engineer 3 
 ETIM.      16.00.00 25-Mar-20:  End Time 
 FLOI.gpm               400.00:  Flow In 
 FLON.gpm               350.00:  Flow In Min 
 FLOS.cptm                0.00:  Fluid Loss 
 FLOX.gpm               400.00:  Flow In Max 
 FTRO.       Formation Presure:  FTWD Run Obj 
 HFLO.                      No:  High Flow 
 HPRE.                      No:  High Pressure 
 HTEM.                      No:  High Temp 
 HYDO.m                   1.80:  Hydro Offset 
 IFIN.deg                79.55:  Inc, Final 
 IMAX.deg                79.55:  Inc Max 
 IMIN.deg                78.04:  Inc Min 
 IMND.m                4502.50:  Inc Min Depth 
 IMXD.m                4587.87:  Inc Max Depth 
 JARR.                      No:  Jarring 
 LETM.      13.10.00 24-Mar-20:  Log End Time 
 LOST.hr                     0:  Lost Rig Time 
 LSTM.      17.00.00 23-Mar-20:  Log Start Time 
 MDCL.ppm             39000.00:  Mud Chlorides 
 MDES.     Inversion Oil/Synthetic:  Mud Desc 
 DFD .sg                  1.40:  Mud Density 
 MDMN.sg                  1.40:  Dens Mud Min 
 MDMX.sg                  1.40:  Dens Mud Max 
 MOIL.                    55.2:  Run Mud Oil % 
 MOWR.                   68:32:  Run Mud OWR 
 MSND.                     0.1:  Run Mud Sand % 
 MSOL.                    17.8:  Run Mud Solids% 
 DFV .spqt               76.00:  Mud Viscosity 
 MWOD.in                  4.75:  MWD Tool OD 
 MWSI.                      No:  Serv Intrp, MWD 
 OTIM.hr                 64.35:  Time Operating 
 PCON.           Look Like New:  Pad Condition 
 PMAX.psia             5350.00:  Press Op, Max 
 PV  .cP                 26.00:  Mud PV 
 RUN .                     900:  Run Number 
 ROPA.m/hr                9.00:  ROP Avg 
 ROPN.m/hr                7.00:  ROP Min 
 ROPX.m/hr               13.00:  ROP Max 
 RPMA.rpm               140.00:  RPM Surface Avg 
 RPMN.rpm               140.00:  RPM Surface Min 
 RPMX.rpm               140.00:  RPM Surface Max 
 RRUN.                    L204:  Rig Run Number 
 RTIM.hr                  4.50:  Time Reaming 
 SAZI.deg               141.40:  Azm, Start 
 SDEP.m                4503.01:  Start Depth 
 SIDD.                      No:  Serv Intrp, DD 
 SINC.deg                78.04:  Inc, Start 
 SPPA.psig             5300.00:  SPP Avg 
 SPPN.psig             5100.00:  SPP Min 
 SPPX.psig             5500.00:  SPP Max 
 STIM.      18.00.00 22-Mar-20:  Start Time 
 SVCS.                 DD, MWD:  Services 
 SVER.                    9.20:  Sperry Version 
 TDAT.m                 103.00:  Tot Depth Attmp 
 TDDF.                      No:  Trip for DD 
 TDLG.m                 103.00:  Tot Depth Loggd 
 TFF .                      No:  Trip for Fail 
 TQAA.f-kp               14.00:  Torque Abs Avg 
 TQAN.f-kp               12.00:  Torque Abs Min 
 TQAX.f-kp               16.00:  Torque Abs Max 
 TRRT.°/30m               0.45:  Turn Rotating 
 MRT .                    HCIM:  Maximum Recorded Temperature 
 TTMX.degC               90.20:  Max Tool Temp 
 VS01.         90577859G12V7D4:  Virtual Str1 SN 
 VS02.            90519330D5C4:  Virtual Str2 SN 
 VS03.             90603450F11:  Virtual Str3 SN 
 VS04.           90515383R12C4:  Virtual Str4 SN 
 VS05.          90522017N2L2C4:  Virtual Str5 SN 
 VS06.            90512682Z1W1:  Virtual Str6 SN 
 WBMN.klb                 5.00:  WOB Min 
 WITN.        Elmaddin Rahimov:  Customer Rep 
 WITN.           Adil Mammadov:  Customer Rep 2 
 WOBA.klb                 8.00:  WOB Avg 
 WOBX.klb                13.00:  WOB Max 
 YP  .lhf2               31.00:  Yield Point 
~Curve Information Block
#MNEM.UNIT                 API CODE     Curve Description
#---------               -----------    ---------------------------
 TIME.HHMMSS            00 000 000 000:  GT Time & Date
 GTDEPTH.m              00 000 000 000:  GT Depth
 GTPQH.psia             00 000 000 000:  GT HR Quartz Pressure
 GTTQ.degC              00 000 000 000:  GT Quartz Temperature
 GTTN.NONE              00 000 000 000:  GT Test Number
 GTET.sec               00 000 000 000:  GT Elapsed Test Time
 GTTVD.m                00 000 000 000:  GT True Vertical Depth
#Other Information
#
#WARRANTY: Halliburton will use its best efforts to furnish customers with 
#accurate information and interpretations that are part of, and incident to, the services 
#provided.  However, Halliburton cannot and does not warrant the accuracy 
#or correctness of such information and interpretations.  Under no circumstances should any 
#such information or interpretation be relied upon as the sole basis for any drilling, 
#completion, production, or financial decision or any procedure involving any risk to the 
#safety of any drilling venture, drilling rig or its crew or any other third party.  The 
#Customer has full responsibility for all drilling, completion and production operation.  
#Halliburton makes no representations or warranties, either expressed or 
#implied, including, but not limited to, the implied warranties of merchantability or fitness 
#for a particular purpose, with respect to the services rendered.  In no event will 
#Halliburton be liable for failure to obtain any particular results or for 
#any damages, including, but not limited to, indirect, special or consequential damages, 
#resulting from the use of any information or interpretation provided by Halliburton.
#
~A           TIME           GTDEPTH  GTPQH  GTTQ  GTTN  GTET   GTTVD  
# ...
   10:12:33.469.24-Mar-2020 4562.51 4435.89 86.18 5.00 115.02 3171.78
   10:12:33.669.24-Mar-2020 4562.51 4435.89 86.18 5.00 115.22 3171.78
   10:12:33.869.24-Mar-2020 4562.51 4435.88 86.18 5.00 115.42 3171.78
   10:12:34.069.24-Mar-2020 4562.51 4435.87 86.18 5.00 115.62 3171.78
   10:12:34.269.24-Mar-2020 4562.51 4435.86 86.18 5.00 115.82 3171.78
   10:12:34.469.24-Mar-2020 4562.51 4435.86 86.17 5.00 116.02 3171.78
   10:12:34.669.24-Mar-2020 4562.51 4435.86 86.17 5.00 116.22 3171.78
   10:12:34.869.24-Mar-2020 4562.51 4435.86 86.17 5.00 116.42 3171.78
   10:12:35.069.24-Mar-2020 4562.51 4435.86 86.17 5.00 116.62 3171.78
   10:12:35.269.24-Mar-2020 4562.51 4435.85 86.17 5.00 116.82 3171.78
   10:12:35.469.24-Mar-2020 4562.51 4435.83 86.17 5.00 117.02 3171.78
   10:12:35.669.24-Mar-2020 4562.51 4435.83 86.17 5.00 117.22 3171.78
   10:12:35.870.24-Mar-2020 4562.51 4435.86 86.17 5.00 117.42 3171.78
   10:12:36.070.24-Mar-2020 4562.51 4435.85 86.17 5.00 117.62 3171.78
   10:12:36.270.24-Mar-2020 4562.51 4435.83 86.17 5.00 117.82 3171.78
   10:12:36.470.24-Mar-2020 4562.51 4435.87 86.17 5.00 118.02 3171.78
   10:12:36.670.24-Mar-2020 4562.51 4435.87 86.17 5.00 118.22 3171.78
   10:12:36.870.24-Mar-2020 4562.51 4435.85 86.16 5.00 118.42 3171.78
   10:12:37.070.24-Mar-2020 4562.51 4435.87 86.16 5.00 118.62 3171.78
   10:12:37.270.24-Mar-2020 4562.51 4435.78 86.16 5.00 118.82 3171.78
   10:12:37.470.24-Mar-2020 4562.51 4435.90 86.16 5.00 119.02 3171.78
   10:12:37.670.24-Mar-2020 4562.51 4435.90 86.16 5.00 119.22 3171.78
   10:12:37.870.24-Mar-2020 4562.51 4435.91 86.16 5.00 119.42 3171.78
   10:12:38.070.24-Mar-2020 4562.51 4435.84 86.16 5.00 119.62 3171.78
   10:12:38.270.24-Mar-2020 4562.51 4435.87 86.16 5.00 119.82 3171.78
   10:12:38.470.24-Mar-2020 4562.51 4435.75 86.16 5.00 120.02 3171.78
   10:12:38.670.24-Mar-2020 4562.51 4435.75 86.16 5.00 120.22 3171.78
   10:12:38.870.24-Mar-2020 4562.51 4435.81 86.16 5.00 120.42 3171.78
   10:12:39.070.24-Mar-2020 4562.51 4435.87 86.16 5.00 120.62 3171.78
   10:12:39.270.24-Mar-2020 4562.51 4435.81 86.15 5.00 120.82 3171.78
   10:12:39.470.24-Mar-2020 4562.51 4435.86 86.15 5.00 121.02 3171.78
   10:12:39.670.24-Mar-2020 4562.51 4435.86 86.15 5.00 121.22 3171.78
   10:12:39.870.24-Mar-2020 4562.51 4435.84 86.15 5.00 121.42 3171.78
   10:12:40.070.24-Mar-2020 4562.51 4435.83 86.15 5.00 121.62 3171.78
   10:12:40.270.24-Mar-2020 4562.51 4435.77 86.15 5.00 121.82 3171.78
   10:12:40.470.24-Mar-2020 4562.51 4435.87 86.15 5.00 122.02 3171.78
   10:12:40.670.24-Mar-2020 4562.51 4435.87 86.15 5.00 122.22 3171.78
   10:12:40.870.24-Mar-2020 4562.51 4435.87 86.15 5.00 122.42 3171.78
   10:12:41.070.24-Mar-2020 4562.51 4435.82 86.15 5.00 122.62 3171.78
   10:12:41.271.24-Mar-2020 4562.51 4435.86 86.15 5.00 122.82 3171.78
   10:12:41.471.24-Mar-2020 4562.51 4435.81 86.15 5.00 123.02 3171.78
   10:12:41.671.24-Mar-2020 4562.51 4435.81 86.15 5.00 123.22 3171.78
   10:12:41.871.24-Mar-2020 4562.51 4435.81 86.14 5.00 123.42 3171.78
   10:12:42.071.24-Mar-2020 4562.51 4435.83 86.14 5.00 123.62 3171.78
   10:12:42.271.24-Mar-2020 4562.51 4435.79 86.14 5.00 123.82 3171.78
   10:12:42.471.24-Mar-2020 4562.51 4435.84 86.14 5.00 124.02 3171.78
   10:12:42.671.24-Mar-2020 4562.51 4435.84 86.14 5.00 124.22 3171.78
   10:12:42.871.24-Mar-2020 4562.51 4435.83 86.14 5.00 124.42 3171.78
   10:12:43.071.24-Mar-2020 4562.51 4435.72 86.14 5.00 124.62 3171.78
   10:12:43.271.24-Mar-2020 4562.51 4435.88 86.14 5.00 124.82 3171.78
   10:12:43.471.24-Mar-2020 4562.51 4435.77 86.14 5.00 125.02 3171.78
   10:12:43.671.24-Mar-2020 4562.51 4435.77 86.14 5.00 125.22 3171.78
   10:12:43.871.24-Mar-2020 4562.51 4435.88 86.13 5.00 125.42 3171.78
   10:12:44.071.24-Mar-2020 4562.51 4435.80 86.13 5.00 125.62 3171.78
   10:12:44.271.24-Mar-2020 4562.51 4435.84 86.13 5.00 125.82 3171.78
   10:12:44.471.24-Mar-2020 4562.51 4435.82 86.13 5.00 126.02 3171.78
   10:12:44.671.24-Mar-2020 4562.51 4435.82 86.13 5.00 126.22 3171.78
   10:12:44.871.24-Mar-2020 4562.51 4435.76 86.13 5.00 126.42 3171.78
   10:12:45.071.24-Mar-2020 4562.51 4435.86 86.13 5.00 126.62 3171.78
   10:12:45.271.24-Mar-2020 4562.51 4435.79 86.13 5.00 126.82 3171.78
   10:12:45.471.24-Mar-2020 4562.51 4435.84 86.13 5.00 127.02 3171.78
   10:12:45.671.24-Mar-2020 4562.51 4435.84 86.13 5.00 127.22 3171.78
   10:12:45.871.24-Mar-2020 4562.51 4435.76 86.13 5.00 127.42 3171.78
   10:12:46.071.24-Mar-2020 4562.51 4435.84 86.13 5.00 127.62 3171.78
   10:12:46.271.24-Mar-2020 4562.51 4435.80 86.12 5.00 127.82 3171.78
   10:12:46.471.24-Mar-2020 4562.51 4435.81 86.12 5.00 128.02 3171.78
   10:12:46.672.24-Mar-2020 4562.51 4435.81 86.12 5.00 128.22 3171.78
   10:12:46.872.24-Mar-2020 4562.51 4435.80 86.12 5.00 128.42 3171.78
   10:12:47.072.24-Mar-2020 4562.51 4435.82 86.12 5.00 128.62 3171.78
   10:12:47.272.24-Mar-2020 4562.51 4435.78 86.12 5.00 128.82 3171.78
   10:12:47.472.24-Mar-2020 4562.51 4435.81 86.12 5.00 129.02 3171.78
   10:12:47.672.24-Mar-2020 4562.51 4435.78 86.12 5.00 129.22 3171.78
   10:12:47.872.24-Mar-2020 4562.51 4435.77 86.12 5.00 129.42 3171.78
   10:12:48.072.24-Mar-2020 4562.51 4435.80 86.12 5.00 129.62 3171.78
   10:12:48.272.24-Mar-2020 4562.51 4435.80 86.12 5.00 129.82 3171.78
   10:12:48.472.24-Mar-2020 4562.51 4435.80 86.12 5.00 130.02 3171.78
   10:12:48.672.24-Mar-2020 4562.51 4435.80 86.12 5.00 130.22 3171.78
   10:12:48.872.24-Mar-2020 4562.51 4435.78 86.11 5.00 130.42 3171.78
   10:12:49.072.24-Mar-2020 4562.51 4435.80 86.11 5.00 130.62 3171.78
   10:12:49.272.24-Mar-2020 4562.51 4435.78 86.11 5.00 130.82 3171.78
   10:12:49.472.24-Mar-2020 4562.51 4435.78 86.11 5.00 131.02 3171.78
   10:12:49.672.24-Mar-2020 4562.51 4435.78 86.11 5.00 131.22 3171.78
   10:12:49.872.24-Mar-2020 4562.51 4435.77 86.11 5.00 131.42 3171.78
   10:12:50.072.24-Mar-2020 4562.51 4435.79 86.11 5.00 131.62 3171.78
   10:12:50.272.24-Mar-2020 4562.51 4435.75 86.11 5.00 131.82 3171.78
   10:12:50.472.24-Mar-2020 4562.51 4435.76 86.11 5.00 132.02 3171.78
   10:12:50.672.24-Mar-2020 4562.51 4435.76 86.11 5.00 132.22 3171.78
   10:12:50.872.24-Mar-2020 4562.51 4424.30 86.11 5.00 132.42 3171.78
   10:12:51.072.24-Mar-2020 4562.51 4424.08 86.10 5.00 132.62 3171.78
   10:12:51.272.24-Mar-2020 4562.51 4423.93 86.10 5.00 132.82 3171.78
   10:12:51.472.24-Mar-2020 4562.51 4423.70 86.10 5.00 133.02 3171.78
   10:12:51.672.24-Mar-2020 4562.51 4423.70 86.10 5.00 133.22 3171.78
   10:12:51.872.24-Mar-2020 4562.51 4423.45 86.10 5.00 133.42 3171.78
   10:12:52.073.24-Mar-2020 4562.51 4423.68 86.10 5.00 133.62 3171.78
   10:12:52.273.24-Mar-2020 4562.51 4423.36 86.10 5.00 133.83 3171.78
   10:12:52.473.24-Mar-2020 4562.51 4426.00 86.10 5.00 134.03 3171.78
   10:12:52.673.24-Mar-2020 4562.51 4426.00 86.10 5.00 134.23 3171.78
   10:12:52.873.24-Mar-2020 4562.51 4423.81 86.10 5.00 134.43 3171.78
   10:12:53.073.24-Mar-2020 4562.51 4423.22 86.10 5.00 134.63 3171.78
   10:12:53.273.24-Mar-2020 4562.51 4423.33 86.10 5.00 134.83 3171.78
   10:12:53.473.24-Mar-2020 4562.51 4422.99 86.10 5.00 135.03 3171.78
   10:12:53.673.24-Mar-2020 4562.51 4422.99 86.10 5.00 135.23 3171.78
   10:12:53.873.24-Mar-2020 4562.51 4423.07 86.09 5.00 135.43 3171.78
   10:12:54.073.24-Mar-2020 4562.51 4423.16 86.09 5.00 135.63 3171.78
   10:12:54.273.24-Mar-2020 4562.51 4423.07 86.09 5.00 135.83 3171.78
   10:12:54.473.24-Mar-2020 4562.51 4423.05 86.09 5.00 136.03 3171.78
   10:12:54.673.24-Mar-2020 4562.51 4423.05 86.09 5.00 136.23 3171.78
   10:12:54.873.24-Mar-2020 4562.51 4423.00 86.09 5.00 136.43 3171.78
   10:12:55.073.24-Mar-2020 4562.51 4422.96 86.09 5.00 136.63 3171.78
   10:12:55.273.24-Mar-2020 4562.51 4422.78 86.09 5.00 136.83 3171.78
   10:12:55.473.24-Mar-2020 4562.51 4423.28 86.09 5.00 137.03 3171.78
   10:12:55.673.24-Mar-2020 4562.51 4423.28 86.09 5.00 137.23 3171.78
   10:12:55.873.24-Mar-2020 4562.51 4423.18 86.09 5.00 137.43 3171.78
   10:12:56.073.24-Mar-2020 4562.51 4422.84 86.08 5.00 137.63 3171.78
   10:12:56.273.24-Mar-2020 4562.51 4423.09 86.08 5.00 137.83 3171.78
