~Version Information
 VERS.                  2.0:   CWLS log ASCII Standard -VERSION 2.0
 WRAP.                   NO:   One line per depth step
~Well Information Block
#MNEM.UNIT     VALUE/NAME     DESCRIPTION
#---------     -----------    ---------------------------
 STRT.S             06:00:18 24-Mar-20: START TIME 06:00:18 24-Mar-20
 STOP.S             06:06:47 24-Mar-20: STOP TIME  06:06:47 24-Mar-20
 STEP.S                   0.00: STEP TIME
 NULL.                 -999.25: NULL VALUE
 DFWT.                        :  DIST FWL TEXT
 DFST.                        :  DIST FSL TEXT
 DMF .             Drill Floor:  DRILL MEAS FROM
 STIM.      22.30.00 15-Feb-20:  START TIME
 DATE.      17.00.00 25-Mar-20:  END TIME
 SPUD.               15-Feb-20:  SPUD DATE
 NREF.                    Grid:  NORTH REFERENCE
 HPTY.       Minimum Curvature:  HOLE POS TYPE
 DMOD.             Drill Model:  DRILL MOD DESC
 SVYD.                  Survey:  SURVEY DESC
 ILTD.               Lithology:  INTERP LTH DESC
 FTOP.          Formation Tops:  FORM TOPS DESC
 SON .        AZ-XX-0906019077:  JOB NUMBER
 PDAT.          Mean Sea Level:  PERMANENT DATUM
 WTYP.                Deviated:  WELL TYPE
 MDS .        Operator Entered:  MAG DATA SOURCE
 COMP.     BP Exploration (Caspian sea) Ltd.:  COMPANY
 UWI .                     N/A:  UNIQUE WELL IDENTIFIER
 API .                     N/A:  API NUMBER
 BASE.              Azerbaijan:  LOGGING EQUIPMENT BASE LOCATION
 REGN.                   EESSA:  REGION
 PROV.                     N/A:  PROVINCE
 STAT.                     N/A:  STATE NAME
 CTRY.              Azerbaijan:  COUNTRY NAME
 FLD .                     ACG:  FIELD NAME
 SRVC.          Turan Drilling:  CONTRACTOR
 MWDS.                    Baku:  MWD SHOP
 WELL.                    E16W:  WELL NAME
 JOBN.        AZ-XX-0906019077:  JOB TICKET NUMB
 RIG .                     DWG:  RIG NAME
 CNTY.                     N/A:  COUNTY NAME
 DCON.         Sperry Drilling:  DIRECTNL CONTR
 UNIT.                     N/A:  LOGGING EQUIPMENT ID
 LOC .                        :  LOCATION
 LMF .             Drill Floor:  LOG MEASURED FROM
 TVDS.m                  43.16:  TVDSS CORRECTN
 LATI.deg                40.17:  LATITUDE
 LONG.deg                51.17:  LONGITUDE
 WHNS.m                 -15.30:  WELL HEAD N/S
 WHEW.m                  -1.29:  WELL HEAD E/W
 UTMX.m              514337.95:  UTM X
 UTMY.m             4448627.46:  UTM Y
 DFWL.m                   0.00:  DISTANCE FWL
 DFSL.m                   0.00:  DISTANCE FSL
 SDEP.m                3499.01:  START DEPTH
 TDD .m                4606.01:  TOTAL DEPTH (DRILLER)
 VSDR.deg               151.14:  VERT SEC DIRECT
 GVFD.g                   1.00:  GRAVITY FIELD
 MFLD.nT              50334.00:  MAGNETIC FIELD
 MDIP.deg                59.62:  MAGNETIC DIP
 MDEC.deg                 6.46:  MAGNETIC DECL
 GRDC.deg                 0.12:  GRID CORRECTION
 AZTC.deg                 6.34:  AZM TOTAL CORR
 EPD .m                   0.00:  ELEVATION
 EGL .m                   0.00:  GROUND ELEVATION
 WDMS.m                 176.20:  WD ELEV
 APD .m                  43.16:  DEPTH ABOVE PD
 VSEW.m                  -1.29:  VERT SEC E/W
 VSNS.m                 -15.30:  VERT SEC N/S
 AGAP.m                  43.16:  AIR GAP
 EKB .m                   0.00:  KB ELEVATION
 EDF .m                  43.16:  DF ELEVATION
 TDL .m                 103.00:  TOTAL DEPTH (LOGGER)
 VSC .                       0:  VS TO CLOSURE
 MAGU.                 1852525:  MAGUTM CHECKSUM
~Parameter Information Block
#MNEM.UNIT       Value        Description
#---------     -----------    ---------------------------
 AV  .mps                 1.01:  Ann Velocity 
 AVMX.mps                 1.32:  Max Ann Veloc 
 AZIF.deg               140.63:  Azm, Final 
 BHAT.        Rotary Steerable:  BHA Type 
 BREV.rev            151000.00:  Rev Bit Total 
 BROT.°/30m               0.65:  Build Rotating 
 BS  .in                  6.50:  Bit Size 
 BSZ .in                  6.50:  Bit Size 
 BTPL.psig              222.00:  Bit Press Loss 
 CABU.                      No:  Customer Abuse 
 CGEO.           Emin Aliyarov:  Customer Geo 
 COMM.                     öU:  Run Comments 1 
 TCS .hr                 22.89:  Time Ciculation Ended 
 CV  .mps                 2.20:  Crit Velocity 
 CVMX.mps                 3.04:  Max Crit Veloc 
 DD1 .         Intigam Rahimov:  Direct Drillr 1 
 DDSV.               Geo-Pilot:  DD Service 
 DEFF.%                  91.50:  % Det Eff 
 DLRX.°/30m               1.15:  Dogleg Rot Max 
 DLSO.°/30m               0.86:  Dogleg Oriented 
 DLSX.°/30m               1.15:  Dogleg Str Max 
 DRET.      13.10.00 24-Mar-20:  Drill End Time 
 DRST.      17.00.00 23-Mar-20:  Drill Start Tim 
 DTIM.hr                 11.87:  Time Drilling 
 EDEP.m                4606.01:  End Depth 
 ENG1.          Rasim Hashimov:  Engineer 1 
 ENG2.            Alan Tuganov:  Engineer 2 
 ENG3.         Yevgeniy Ulikov:  Engineer 3 
 ETIM.      16.00.00 25-Mar-20:  End Time 
 FLOI.gpm               400.00:  Flow In 
 FLON.gpm               350.00:  Flow In Min 
 FLOS.cptm                0.00:  Fluid Loss 
 FLOX.gpm               400.00:  Flow In Max 
 FTRO.       Formation Presure:  FTWD Run Obj 
 HFLO.                      No:  High Flow 
 HPRE.                      No:  High Pressure 
 HTEM.                      No:  High Temp 
 HYDO.m                   1.80:  Hydro Offset 
 IFIN.deg                79.55:  Inc, Final 
 IMAX.deg                79.55:  Inc Max 
 IMIN.deg                78.04:  Inc Min 
 IMND.m                4502.50:  Inc Min Depth 
 IMXD.m                4587.87:  Inc Max Depth 
 JARR.                      No:  Jarring 
 LETM.      13.10.00 24-Mar-20:  Log End Time 
 LOST.hr                     0:  Lost Rig Time 
 LSTM.      17.00.00 23-Mar-20:  Log Start Time 
 MDCL.ppm             39000.00:  Mud Chlorides 
 MDES.     Inversion Oil/Synthetic:  Mud Desc 
 DFD .sg                  1.40:  Mud Density 
 MDMN.sg                  1.40:  Dens Mud Min 
 MDMX.sg                  1.40:  Dens Mud Max 
 MOIL.                    55.2:  Run Mud Oil % 
 MOWR.                   68:32:  Run Mud OWR 
 MSND.                     0.1:  Run Mud Sand % 
 MSOL.                    17.8:  Run Mud Solids% 
 DFV .spqt               76.00:  Mud Viscosity 
 MWOD.in                  4.75:  MWD Tool OD 
 MWSI.                      No:  Serv Intrp, MWD 
 OTIM.hr                 64.35:  Time Operating 
 PCON.           Look Like New:  Pad Condition 
 PMAX.psia             5350.00:  Press Op, Max 
 PV  .cP                 26.00:  Mud PV 
 RUN .                     900:  Run Number 
 ROPA.m/hr                9.00:  ROP Avg 
 ROPN.m/hr                7.00:  ROP Min 
 ROPX.m/hr               13.00:  ROP Max 
 RPMA.rpm               140.00:  RPM Surface Avg 
 RPMN.rpm               140.00:  RPM Surface Min 
 RPMX.rpm               140.00:  RPM Surface Max 
 RRUN.                    L204:  Rig Run Number 
 RTIM.hr                  4.50:  Time Reaming 
 SAZI.deg               141.40:  Azm, Start 
 SDEP.m                4503.01:  Start Depth 
 SIDD.                      No:  Serv Intrp, DD 
 SINC.deg                78.04:  Inc, Start 
 SPPA.psig             5300.00:  SPP Avg 
 SPPN.psig             5100.00:  SPP Min 
 SPPX.psig             5500.00:  SPP Max 
 STIM.      18.00.00 22-Mar-20:  Start Time 
 SVCS.                 DD, MWD:  Services 
 SVER.                    9.20:  Sperry Version 
 TDAT.m                 103.00:  Tot Depth Attmp 
 TDDF.                      No:  Trip for DD 
 TDLG.m                 103.00:  Tot Depth Loggd 
 TFF .                      No:  Trip for Fail 
 TQAA.f-kp               14.00:  Torque Abs Avg 
 TQAN.f-kp               12.00:  Torque Abs Min 
 TQAX.f-kp               16.00:  Torque Abs Max 
 TRRT.°/30m               0.45:  Turn Rotating 
 MRT .                    HCIM:  Maximum Recorded Temperature 
 TTMX.degC               90.20:  Max Tool Temp 
 VS01.         90577859G12V7D4:  Virtual Str1 SN 
 VS02.            90519330D5C4:  Virtual Str2 SN 
 VS03.             90603450F11:  Virtual Str3 SN 
 VS04.           90515383R12C4:  Virtual Str4 SN 
 VS05.          90522017N2L2C4:  Virtual Str5 SN 
 VS06.            90512682Z1W1:  Virtual Str6 SN 
 WBMN.klb                 5.00:  WOB Min 
 WITN.        Elmaddin Rahimov:  Customer Rep 
 WITN.           Adil Mammadov:  Customer Rep 2 
 WOBA.klb                 8.00:  WOB Avg 
 WOBX.klb                13.00:  WOB Max 
 YP  .lhf2               31.00:  Yield Point 
~Curve Information Block
#MNEM.UNIT                 API CODE     Curve Description
#---------               -----------    ---------------------------
 TIME.HHMMSS            00 000 000 000:  GT Time & Date
 GTDEPTH.m              00 000 000 000:  GT Depth
 GTPQH.psia             00 000 000 000:  GT HR Quartz Pressure
 GTTQ.degC              00 000 000 000:  GT Quartz Temperature
 GTTN.NONE              00 000 000 000:  GT Test Number
 GTET.sec               00 000 000 000:  GT Elapsed Test Time
 GTTVD.m                00 000 000 000:  GT True Vertical Depth
#Other Information
#
#WARRANTY: Halliburton will use its best efforts to furnish customers with 
#accurate information and interpretations that are part of, and incident to, the services 
#provided.  However, Halliburton cannot and does not warrant the accuracy 
#or correctness of such information and interpretations.  Under no circumstances should any 
#such information or interpretation be relied upon as the sole basis for any drilling, 
#completion, production, or financial decision or any procedure involving any risk to the 
#safety of any drilling venture, drilling rig or its crew or any other third party.  The 
#Customer has full responsibility for all drilling, completion and production operation.  
#Halliburton makes no representations or warranties, either expressed or 
#implied, including, but not limited to, the implied warranties of merchantability or fitness 
#for a particular purpose, with respect to the services rendered.  In no event will 
#Halliburton be liable for failure to obtain any particular results or for 
#any damages, including, but not limited to, indirect, special or consequential damages, 
#resulting from the use of any information or interpretation provided by Halliburton.
#
~A           TIME           GTDEPTH  GTPQH  GTTQ  GTTN  GTET   GTTVD  
# ...
   06:06:26.809.24-Mar-2020 4533.01 6945.50 82.52 4.00 368.06 3165.89
   06:06:27.009.24-Mar-2020 4533.01 6945.50 82.52 4.00 368.26 3165.89
   06:06:27.209.24-Mar-2020 4533.01 6938.79 82.52 4.00 368.46 3165.89
   06:06:27.409.24-Mar-2020 4533.01 6951.17 82.52 4.00 368.66 3165.89
   06:06:27.609.24-Mar-2020 4533.01 6941.80 82.52 4.00 368.86 3165.89
   06:06:27.809.24-Mar-2020 4533.01 6947.22 82.52 4.00 369.06 3165.89
   06:06:28.009.24-Mar-2020 4533.01 6947.22 82.52 4.00 369.26 3165.89
   06:06:28.209.24-Mar-2020 4533.01 6948.85 82.52 4.00 369.46 3165.89
   06:06:28.409.24-Mar-2020 4533.01 6947.63 82.52 4.00 369.66 3165.89
   06:06:28.609.24-Mar-2020 4533.01 6945.10 82.52 4.00 369.86 3165.89
   06:06:28.809.24-Mar-2020 4533.01 6951.42 82.52 4.00 370.06 3165.89
   06:06:29.009.24-Mar-2020 4533.01 6951.42 82.52 4.00 370.26 3165.89
   06:06:29.209.24-Mar-2020 4533.01 6951.50 82.52 4.00 370.46 3165.89
   06:06:29.409.24-Mar-2020 4533.01 6948.17 82.52 4.00 370.66 3165.89
   06:06:29.609.24-Mar-2020 4533.01 6952.00 82.52 4.00 370.86 3165.89
   06:06:29.809.24-Mar-2020 4533.01 6948.91 82.51 4.00 371.06 3165.89
   06:06:30.009.24-Mar-2020 4533.01 6948.91 82.51 4.00 371.26 3165.89
   06:06:30.209.24-Mar-2020 4533.01 6951.27 82.51 4.00 371.46 3165.89
   06:06:30.409.24-Mar-2020 4533.01 6949.29 82.51 4.00 371.66 3165.89
   06:06:30.609.24-Mar-2020 4533.01 6947.64 82.51 4.00 371.86 3165.89
   06:06:30.809.24-Mar-2020 4533.01 6952.26 82.51 4.00 372.06 3165.89
   06:06:31.009.24-Mar-2020 4533.01 6952.26 82.51 4.00 372.26 3165.89
   06:06:31.209.24-Mar-2020 4533.01 6951.05 82.51 4.00 372.46 3165.89
   06:06:31.409.24-Mar-2020 4533.01 6947.43 82.51 4.00 372.66 3165.89
   06:06:31.609.24-Mar-2020 4533.01 6949.83 82.51 4.00 372.86 3165.89
   06:06:31.809.24-Mar-2020 4533.01 6947.82 82.51 4.00 373.06 3165.89
   06:06:32.009.24-Mar-2020 4533.01 6947.82 82.51 4.00 373.26 3165.89
   06:06:32.209.24-Mar-2020 4533.01 6948.82 82.51 4.00 373.46 3165.89
   06:06:32.409.24-Mar-2020 4533.01 6949.02 82.51 4.00 373.66 3165.89
   06:06:32.609.24-Mar-2020 4533.01 6949.69 82.51 4.00 373.86 3165.89
   06:06:32.810.24-Mar-2020 4533.01 6943.70 82.51 4.00 374.06 3165.89
   06:06:33.010.24-Mar-2020 4533.01 6943.70 82.51 4.00 374.26 3165.89
   06:06:33.210.24-Mar-2020 4533.01 6948.94 82.51 4.00 374.46 3165.89
   06:06:33.410.24-Mar-2020 4533.01 6943.80 82.51 4.00 374.66 3165.89
   06:06:33.610.24-Mar-2020 4533.01 6946.44 82.51 4.00 374.86 3165.89
   06:06:33.810.24-Mar-2020 4533.01 6943.10 82.50 4.00 375.06 3165.89
   06:06:34.010.24-Mar-2020 4533.01 6946.98 82.50 4.00 375.26 3165.89
   06:06:34.210.24-Mar-2020 4533.01 6941.10 82.50 4.00 375.46 3165.89
   06:06:34.410.24-Mar-2020 4533.01 6944.25 82.50 4.00 375.66 3165.89
   06:06:34.610.24-Mar-2020 4533.01 6949.23 82.50 4.00 375.86 3165.89
   06:06:34.810.24-Mar-2020 4533.01 6942.47 82.50 4.00 376.06 3165.89
   06:06:35.010.24-Mar-2020 4533.01 6942.47 82.50 4.00 376.26 3165.89
   06:06:35.210.24-Mar-2020 4533.01 6941.55 82.50 4.00 376.46 3165.89
   06:06:35.410.24-Mar-2020 4533.01 6951.67 82.50 4.00 376.66 3165.89
   06:06:35.610.24-Mar-2020 4533.01 6945.12 82.50 4.00 376.86 3165.89
   06:06:35.810.24-Mar-2020 4533.01 6951.30 82.50 4.00 377.06 3165.89
   06:06:36.010.24-Mar-2020 4533.01 6951.30 82.50 4.00 377.26 3165.89
   06:06:36.210.24-Mar-2020 4533.01 6950.49 82.50 4.00 377.46 3165.89
   06:06:36.410.24-Mar-2020 4533.01 6949.72 82.50 4.00 377.66 3165.89
   06:06:36.610.24-Mar-2020 4533.01 6950.87 82.50 4.00 377.86 3165.89
   06:06:36.810.24-Mar-2020 4533.01 6949.67 82.50 4.00 378.06 3165.89
   06:06:37.010.24-Mar-2020 4533.01 6949.67 82.50 4.00 378.26 3165.89
   06:06:37.210.24-Mar-2020 4533.01 6945.76 82.50 4.00 378.46 3165.89
   06:06:37.410.24-Mar-2020 4533.01 6951.51 82.50 4.00 378.66 3165.89
   06:06:37.610.24-Mar-2020 4533.01 6948.31 82.49 4.00 378.86 3165.89
   06:06:37.810.24-Mar-2020 4533.01 6949.84 82.49 4.00 379.06 3165.89
   06:06:38.010.24-Mar-2020 4533.01 6949.84 82.49 4.00 379.26 3165.89
   06:06:38.210.24-Mar-2020 4533.01 6948.65 82.49 4.00 379.46 3165.89
   06:06:38.410.24-Mar-2020 4533.01 6950.73 82.49 4.00 379.66 3165.89
   06:06:38.610.24-Mar-2020 4533.01 6947.76 82.49 4.00 379.86 3165.89
   06:06:38.811.24-Mar-2020 4533.01 6950.26 82.49 4.00 380.06 3165.89
   06:06:39.011.24-Mar-2020 4533.01 6950.26 82.49 4.00 380.26 3165.89
   06:06:39.211.24-Mar-2020 4533.01 6951.54 82.49 4.00 380.46 3165.89
   06:06:39.411.24-Mar-2020 4533.01 6947.63 82.49 4.00 380.66 3165.89
   06:06:39.611.24-Mar-2020 4533.01 6945.29 82.49 4.00 380.86 3165.89
   06:06:39.811.24-Mar-2020 4533.01 6949.80 82.49 4.00 381.06 3165.89
   06:06:40.011.24-Mar-2020 4533.01 6949.80 82.49 4.00 381.26 3165.89
   06:06:40.211.24-Mar-2020 4533.01 6946.05 82.49 4.00 381.46 3165.89
   06:06:40.411.24-Mar-2020 4533.01 6942.71 82.49 4.00 381.66 3165.89
   06:06:40.611.24-Mar-2020 4533.01 6947.42 82.49 4.00 381.86 3165.89
   06:06:40.811.24-Mar-2020 4533.01 6943.64 82.49 4.00 382.06 3165.89
   06:06:41.011.24-Mar-2020 4533.01 6943.64 82.49 4.00 382.26 3165.89
   06:06:41.211.24-Mar-2020 4533.01 6941.32 82.49 4.00 382.46 3165.89
   06:06:41.411.24-Mar-2020 4533.01 6944.80 82.49 4.00 382.66 3165.89
   06:06:41.611.24-Mar-2020 4533.01 6948.00 82.48 4.00 382.86 3165.89
   06:06:41.811.24-Mar-2020 4533.01 6938.30 82.48 4.00 383.06 3165.89
   06:06:42.011.24-Mar-2020 4533.01 6938.30 82.48 4.00 383.26 3165.89
   06:06:42.211.24-Mar-2020 4533.01 6942.72 82.48 4.00 383.46 3165.89
   06:06:42.411.24-Mar-2020 4533.01 6947.89 82.48 4.00 383.66 3165.89
   06:06:42.611.24-Mar-2020 4533.01 6949.38 82.48 4.00 383.86 3165.89
   06:06:42.811.24-Mar-2020 4533.01 6948.02 82.48 4.00 384.06 3165.89
   06:06:43.011.24-Mar-2020 4533.01 6950.90 82.48 4.00 384.26 3165.89
   06:06:43.211.24-Mar-2020 4533.01 6948.44 82.48 4.00 384.46 3165.89
   06:06:43.411.24-Mar-2020 4533.01 6951.90 82.48 4.00 384.66 3165.89
   06:06:43.611.24-Mar-2020 4533.01 6948.51 82.48 4.00 384.86 3165.89
   06:06:43.811.24-Mar-2020 4533.01 6945.54 82.48 4.00 385.06 3165.89
   06:06:44.011.24-Mar-2020 4533.01 6951.30 82.48 4.00 385.26 3165.89
   06:06:44.211.24-Mar-2020 4533.01 6947.00 82.48 4.00 385.46 3165.89
   06:06:44.411.24-Mar-2020 4533.01 6948.96 82.48 4.00 385.66 3165.89
   06:06:44.611.24-Mar-2020 4533.01 6951.98 82.48 4.00 385.86 3165.89
   06:06:44.812.24-Mar-2020 4533.01 6947.33 82.48 4.00 386.06 3165.89
   06:06:45.012.24-Mar-2020 4533.01 6947.33 82.48 4.00 386.26 3165.89
   06:06:45.212.24-Mar-2020 4533.01 6947.34 82.48 4.00 386.46 3165.89
   06:06:45.412.24-Mar-2020 4533.01 6951.06 82.47 4.00 386.66 3165.89
   06:06:45.612.24-Mar-2020 4533.01 6947.25 82.47 4.00 386.86 3165.89
   06:06:45.812.24-Mar-2020 4533.01 6950.11 82.47 4.00 387.06 3165.89
   06:06:46.012.24-Mar-2020 4533.01 6947.78 82.47 4.00 387.26 3165.89
   06:06:46.212.24-Mar-2020 4533.01 6950.65 82.47 4.00 387.46 3165.89
   06:06:46.412.24-Mar-2020 4533.01 6948.86 82.47 4.00 387.66 3165.89
   06:06:46.612.24-Mar-2020 4533.01 6942.92 82.47 4.00 387.86 3165.89
   06:06:46.812.24-Mar-2020 4533.01 6947.09 82.47 4.00 388.06 3165.89
   06:06:47.012.24-Mar-2020 4533.01 6947.09 82.47 4.00 388.26 3165.89
   06:06:47.212.24-Mar-2020 4533.01 6945.32 82.47 4.00 388.46 3165.89
   06:06:47.412.24-Mar-2020 4533.01 6943.69 82.47 4.00 388.66 3165.89
   06:06:47.612.24-Mar-2020 4533.01 6943.54 82.47 4.00 388.86 3165.89
