~Version Information
 VERS.                  2.0:   CWLS log ASCII Standard -VERSION 2.0
 WRAP.                   NO:   One line per depth step
~Well Information Block
#MNEM.UNIT     VALUE/NAME     DESCRIPTION
#---------     -----------    ---------------------------
 STRT.S             10:10:38 24-Mar-20: START TIME 10:10:38 24-Mar-20
 STOP.S             10:17:07 24-Mar-20: STOP TIME  10:17:07 24-Mar-20
 STEP.S                   0.00: STEP TIME
 NULL.                 -999.25: NULL VALUE
 DFWT.                        :  DIST FWL TEXT
 DFST.                        :  DIST FSL TEXT
 DMF .             Drill Floor:  DRILL MEAS FROM
 STIM.      22.30.00 15-Feb-20:  START TIME
 DATE.      17.00.00 25-Mar-20:  END TIME
 SPUD.               15-Feb-20:  SPUD DATE
 NREF.                    Grid:  NORTH REFERENCE
 HPTY.       Minimum Curvature:  HOLE POS TYPE
 DMOD.             Drill Model:  DRILL MOD DESC
 SVYD.                  Survey:  SURVEY DESC
 ILTD.               Lithology:  INTERP LTH DESC
 FTOP.          Formation Tops:  FORM TOPS DESC
 SON .        AZ-XX-0906019077:  JOB NUMBER
 PDAT.          Mean Sea Level:  PERMANENT DATUM
 WTYP.                Deviated:  WELL TYPE
 MDS .        Operator Entered:  MAG DATA SOURCE
 COMP.     BP Exploration (Caspian sea) Ltd.:  COMPANY
 UWI .                     N/A:  UNIQUE WELL IDENTIFIER
 API .                     N/A:  API NUMBER
 BASE.              Azerbaijan:  LOGGING EQUIPMENT BASE LOCATION
 REGN.                   EESSA:  REGION
 PROV.                     N/A:  PROVINCE
 STAT.                     N/A:  STATE NAME
 CTRY.              Azerbaijan:  COUNTRY NAME
 FLD .                     ACG:  FIELD NAME
 SRVC.          Turan Drilling:  CONTRACTOR
 MWDS.                    Baku:  MWD SHOP
 WELL.                    E16W:  WELL NAME
 JOBN.        AZ-XX-0906019077:  JOB TICKET NUMB
 RIG .                     DWG:  RIG NAME
 CNTY.                     N/A:  COUNTY NAME
 DCON.         Sperry Drilling:  DIRECTNL CONTR
 UNIT.                     N/A:  LOGGING EQUIPMENT ID
 LOC .                        :  LOCATION
 LMF .             Drill Floor:  LOG MEASURED FROM
 TVDS.m                  43.16:  TVDSS CORRECTN
 LATI.deg                40.17:  LATITUDE
 LONG.deg                51.17:  LONGITUDE
 WHNS.m                 -15.30:  WELL HEAD N/S
 WHEW.m                  -1.29:  WELL HEAD E/W
 UTMX.m              514337.95:  UTM X
 UTMY.m             4448627.46:  UTM Y
 DFWL.m                   0.00:  DISTANCE FWL
 DFSL.m                   0.00:  DISTANCE FSL
 SDEP.m                3499.01:  START DEPTH
 TDD .m                4606.01:  TOTAL DEPTH (DRILLER)
 VSDR.deg               151.14:  VERT SEC DIRECT
 GVFD.g                   1.00:  GRAVITY FIELD
 MFLD.nT              50334.00:  MAGNETIC FIELD
 MDIP.deg                59.62:  MAGNETIC DIP
 MDEC.deg                 6.46:  MAGNETIC DECL
 GRDC.deg                 0.12:  GRID CORRECTION
 AZTC.deg                 6.34:  AZM TOTAL CORR
 EPD .m                   0.00:  ELEVATION
 EGL .m                   0.00:  GROUND ELEVATION
 WDMS.m                 176.20:  WD ELEV
 APD .m                  43.16:  DEPTH ABOVE PD
 VSEW.m                  -1.29:  VERT SEC E/W
 VSNS.m                 -15.30:  VERT SEC N/S
 AGAP.m                  43.16:  AIR GAP
 EKB .m                   0.00:  KB ELEVATION
 EDF .m                  43.16:  DF ELEVATION
 TDL .m                 103.00:  TOTAL DEPTH (LOGGER)
 VSC .                       0:  VS TO CLOSURE
 MAGU.                 1852525:  MAGUTM CHECKSUM
~Parameter Information Block
#MNEM.UNIT       Value        Description
#---------     -----------    ---------------------------
 AV  .mps                 1.01:  Ann Velocity 
 AVMX.mps                 1.32:  Max Ann Veloc 
 AZIF.deg               140.63:  Azm, Final 
 BHAT.        Rotary Steerable:  BHA Type 
 BREV.rev            151000.00:  Rev Bit Total 
 BROT.°/30m               0.65:  Build Rotating 
 BS  .in                  6.50:  Bit Size 
 BSZ .in                  6.50:  Bit Size 
 BTPL.psig              222.00:  Bit Press Loss 
 CABU.                      No:  Customer Abuse 
 CGEO.           Emin Aliyarov:  Customer Geo 
 COMM.                     ´â}:  Run Comments 1 
 TCS .hr                 22.89:  Time Ciculation Ended 
 CV  .mps                 2.20:  Crit Velocity 
 CVMX.mps                 3.04:  Max Crit Veloc 
 DD1 .         Intigam Rahimov:  Direct Drillr 1 
 DDSV.               Geo-Pilot:  DD Service 
 DEFF.%                  91.50:  % Det Eff 
 DLRX.°/30m               1.15:  Dogleg Rot Max 
 DLSO.°/30m               0.86:  Dogleg Oriented 
 DLSX.°/30m               1.15:  Dogleg Str Max 
 DRET.      13.10.00 24-Mar-20:  Drill End Time 
 DRST.      17.00.00 23-Mar-20:  Drill Start Tim 
 DTIM.hr                 11.87:  Time Drilling 
 EDEP.m                4606.01:  End Depth 
 ENG1.          Rasim Hashimov:  Engineer 1 
 ENG2.            Alan Tuganov:  Engineer 2 
 ENG3.         Yevgeniy Ulikov:  Engineer 3 
 ETIM.      16.00.00 25-Mar-20:  End Time 
 FLOI.gpm               400.00:  Flow In 
 FLON.gpm               350.00:  Flow In Min 
 FLOS.cptm                0.00:  Fluid Loss 
 FLOX.gpm               400.00:  Flow In Max 
 FTRO.       Formation Presure:  FTWD Run Obj 
 HFLO.                      No:  High Flow 
 HPRE.                      No:  High Pressure 
 HTEM.                      No:  High Temp 
 HYDO.m                   1.80:  Hydro Offset 
 IFIN.deg                79.55:  Inc, Final 
 IMAX.deg                79.55:  Inc Max 
 IMIN.deg                78.04:  Inc Min 
 IMND.m                4502.50:  Inc Min Depth 
 IMXD.m                4587.87:  Inc Max Depth 
 JARR.                      No:  Jarring 
 LETM.      13.10.00 24-Mar-20:  Log End Time 
 LOST.hr                     0:  Lost Rig Time 
 LSTM.      17.00.00 23-Mar-20:  Log Start Time 
 MDCL.ppm             39000.00:  Mud Chlorides 
 MDES.     Inversion Oil/Synthetic:  Mud Desc 
 DFD .sg                  1.40:  Mud Density 
 MDMN.sg                  1.40:  Dens Mud Min 
 MDMX.sg                  1.40:  Dens Mud Max 
 MOIL.                    55.2:  Run Mud Oil % 
 MOWR.                   68:32:  Run Mud OWR 
 MSND.                     0.1:  Run Mud Sand % 
 MSOL.                    17.8:  Run Mud Solids% 
 DFV .spqt               76.00:  Mud Viscosity 
 MWOD.in                  4.75:  MWD Tool OD 
 MWSI.                      No:  Serv Intrp, MWD 
 OTIM.hr                 64.35:  Time Operating 
 PCON.           Look Like New:  Pad Condition 
 PMAX.psia             5350.00:  Press Op, Max 
 PV  .cP                 26.00:  Mud PV 
 RUN .                     900:  Run Number 
 ROPA.m/hr                9.00:  ROP Avg 
 ROPN.m/hr                7.00:  ROP Min 
 ROPX.m/hr               13.00:  ROP Max 
 RPMA.rpm               140.00:  RPM Surface Avg 
 RPMN.rpm               140.00:  RPM Surface Min 
 RPMX.rpm               140.00:  RPM Surface Max 
 RRUN.                    L204:  Rig Run Number 
 RTIM.hr                  4.50:  Time Reaming 
 SAZI.deg               141.40:  Azm, Start 
 SDEP.m                4503.01:  Start Depth 
 SIDD.                      No:  Serv Intrp, DD 
 SINC.deg                78.04:  Inc, Start 
 SPPA.psig             5300.00:  SPP Avg 
 SPPN.psig             5100.00:  SPP Min 
 SPPX.psig             5500.00:  SPP Max 
 STIM.      18.00.00 22-Mar-20:  Start Time 
 SVCS.                 DD, MWD:  Services 
 SVER.                    9.20:  Sperry Version 
 TDAT.m                 103.00:  Tot Depth Attmp 
 TDDF.                      No:  Trip for DD 
 TDLG.m                 103.00:  Tot Depth Loggd 
 TFF .                      No:  Trip for Fail 
 TQAA.f-kp               14.00:  Torque Abs Avg 
 TQAN.f-kp               12.00:  Torque Abs Min 
 TQAX.f-kp               16.00:  Torque Abs Max 
 TRRT.°/30m               0.45:  Turn Rotating 
 MRT .                    HCIM:  Maximum Recorded Temperature 
 TTMX.degC               90.20:  Max Tool Temp 
 VS01.         90577859G12V7D4:  Virtual Str1 SN 
 VS02.            90519330D5C4:  Virtual Str2 SN 
 VS03.             90603450F11:  Virtual Str3 SN 
 VS04.           90515383R12C4:  Virtual Str4 SN 
 VS05.          90522017N2L2C4:  Virtual Str5 SN 
 VS06.            90512682Z1W1:  Virtual Str6 SN 
 WBMN.klb                 5.00:  WOB Min 
 WITN.        Elmaddin Rahimov:  Customer Rep 
 WITN.           Adil Mammadov:  Customer Rep 2 
 WOBA.klb                 8.00:  WOB Avg 
 WOBX.klb                13.00:  WOB Max 
 YP  .lhf2               31.00:  Yield Point 
~Curve Information Block
#MNEM.UNIT                 API CODE     Curve Description
#---------               -----------    ---------------------------
 TIME.HHMMSS            00 000 000 000:  GT Time & Date
 GTDEPTH.m              00 000 000 000:  GT Depth
 GTPQH.psia             00 000 000 000:  GT HR Quartz Pressure
 GTTQ.degC              00 000 000 000:  GT Quartz Temperature
 GTTN.NONE              00 000 000 000:  GT Test Number
 GTET.sec               00 000 000 000:  GT Elapsed Test Time
 GTTVD.m                00 000 000 000:  GT True Vertical Depth
#Other Information
#
#WARRANTY: Halliburton will use its best efforts to furnish customers with 
#accurate information and interpretations that are part of, and incident to, the services 
#provided.  However, Halliburton cannot and does not warrant the accuracy 
#or correctness of such information and interpretations.  Under no circumstances should any 
#such information or interpretation be relied upon as the sole basis for any drilling, 
#completion, production, or financial decision or any procedure involving any risk to the 
#safety of any drilling venture, drilling rig or its crew or any other third party.  The 
#Customer has full responsibility for all drilling, completion and production operation.  
#Halliburton makes no representations or warranties, either expressed or 
#implied, including, but not limited to, the implied warranties of merchantability or fitness 
#for a particular purpose, with respect to the services rendered.  In no event will 
#Halliburton be liable for failure to obtain any particular results or for 
#any damages, including, but not limited to, indirect, special or consequential damages, 
#resulting from the use of any information or interpretation provided by Halliburton.
#
~A           TIME           GTDEPTH  GTPQH  GTTQ  GTTN  GTET   GTTVD  
   10:10:38.448.24-Mar-2020 4562.51 6955.82 86.78 5.00   0.00 3171.78
   10:10:38.648.24-Mar-2020 4562.51 6955.82 86.78 5.00   0.20 3171.78
   10:10:38.848.24-Mar-2020 4562.51 6956.74 86.78 5.00   0.40 3171.78
   10:10:39.048.24-Mar-2020 4562.51 6956.67 86.78 5.00   0.60 3171.78
   10:10:39.248.24-Mar-2020 4562.51 6955.22 86.78 5.00   0.80 3171.78
   10:10:39.448.24-Mar-2020 4562.51 6954.68 86.78 5.00   1.00 3171.78
   10:10:39.648.24-Mar-2020 4562.51 6954.68 86.78 5.00   1.20 3171.78
   10:10:39.848.24-Mar-2020 4562.51 6946.48 86.78 5.00   1.40 3171.78
   10:10:40.048.24-Mar-2020 4562.51 6954.05 86.78 5.00   1.60 3171.78
   10:10:40.248.24-Mar-2020 4562.51 6946.43 86.77 5.00   1.80 3171.78
   10:10:40.448.24-Mar-2020 4562.51 6950.61 86.77 5.00   2.00 3171.78
   10:10:40.648.24-Mar-2020 4562.51 6950.61 86.77 5.00   2.20 3171.78
   10:10:40.848.24-Mar-2020 4562.51 6950.29 86.77 5.00   2.40 3171.78
   10:10:41.048.24-Mar-2020 4562.51 6943.46 86.77 5.00   2.60 3171.78
   10:10:41.248.24-Mar-2020 4562.51 6948.62 86.77 5.00   2.80 3171.78
   10:10:41.448.24-Mar-2020 4562.51 6946.00 86.77 5.00   3.00 3171.78
   10:10:41.648.24-Mar-2020 4562.51 6946.00 86.77 5.00   3.20 3171.78
   10:10:41.848.24-Mar-2020 4562.51 6947.33 86.77 5.00   3.40 3171.78
   10:10:42.048.24-Mar-2020 4562.51 6947.97 86.76 5.00   3.60 3171.78
   10:10:42.248.24-Mar-2020 4562.51 6942.86 86.76 5.00   3.80 3171.78
   10:10:42.448.24-Mar-2020 4562.51 6949.79 86.76 5.00   4.00 3171.78
   10:10:42.648.24-Mar-2020 4562.51 6949.79 86.76 5.00   4.20 3171.78
   10:10:42.848.24-Mar-2020 4562.51 6949.43 86.76 5.00   4.40 3171.78
   10:10:43.048.24-Mar-2020 4562.51 6950.11 86.76 5.00   4.60 3171.78
   10:10:43.248.24-Mar-2020 4562.51 6951.01 86.76 5.00   4.80 3171.78
   10:10:43.449.24-Mar-2020 4562.51 6951.32 86.76 5.00   5.00 3171.78
   10:10:43.649.24-Mar-2020 4562.51 6951.32 86.76 5.00   5.20 3171.78
   10:10:43.849.24-Mar-2020 4562.51 6951.27 86.75 5.00   5.40 3171.78
   10:10:44.049.24-Mar-2020 4562.51 6951.62 86.75 5.00   5.60 3171.78
   10:10:44.249.24-Mar-2020 4562.51 6951.19 86.75 5.00   5.80 3171.78
   10:10:44.449.24-Mar-2020 4562.51 6952.30 86.75 5.00   6.00 3171.78
   10:10:44.649.24-Mar-2020 4562.51 6952.30 86.75 5.00   6.20 3171.78
   10:10:44.849.24-Mar-2020 4562.51 6952.38 86.75 5.00   6.40 3171.78
   10:10:45.049.24-Mar-2020 4562.51 6943.12 86.75 5.00   6.60 3171.78
   10:10:45.249.24-Mar-2020 4562.51 6955.72 86.75 5.00   6.80 3171.78
   10:10:45.449.24-Mar-2020 4562.51 6945.73 86.75 5.00   7.00 3171.78
   10:10:45.649.24-Mar-2020 4562.51 6945.73 86.75 5.00   7.20 3171.78
   10:10:45.849.24-Mar-2020 4562.51 6948.83 86.74 5.00   7.40 3171.78
   10:10:46.049.24-Mar-2020 4562.51 6950.98 86.74 5.00   7.60 3171.78
   10:10:46.249.24-Mar-2020 4562.51 6949.52 86.74 5.00   7.80 3171.78
   10:10:46.449.24-Mar-2020 4562.51 6950.62 86.74 5.00   8.00 3171.78
   10:10:46.649.24-Mar-2020 4562.51 6950.62 86.74 5.00   8.20 3171.78
   10:10:46.849.24-Mar-2020 4562.51 6950.50 86.74 5.00   8.40 3171.78
   10:10:47.049.24-Mar-2020 4562.51 6950.00 86.74 5.00   8.60 3171.78
   10:10:47.249.24-Mar-2020 4562.51 6950.40 86.74 5.00   8.80 3171.78
   10:10:47.449.24-Mar-2020 4562.51 6950.63 86.73 5.00   9.00 3171.78
   10:10:47.649.24-Mar-2020 4562.51 6950.63 86.73 5.00   9.20 3171.78
   10:10:47.849.24-Mar-2020 4562.51 6950.36 86.73 5.00   9.40 3171.78
   10:10:48.049.24-Mar-2020 4562.51 6943.83 86.73 5.00   9.60 3171.78
   10:10:48.249.24-Mar-2020 4562.51 6950.81 86.73 5.00   9.80 3171.78
   10:10:48.449.24-Mar-2020 4562.51 6944.27 86.73 5.00  10.00 3171.78
   10:10:48.649.24-Mar-2020 4562.51 6944.27 86.73 5.00  10.20 3171.78
   10:10:48.850.24-Mar-2020 4562.51 6945.11 86.73 5.00  10.40 3171.78
   10:10:49.050.24-Mar-2020 4562.51 6940.31 86.73 5.00  10.60 3171.78
   10:10:49.250.24-Mar-2020 4562.51 6942.66 86.72 5.00  10.80 3171.78
   10:10:49.450.24-Mar-2020 4562.51 6934.38 86.72 5.00  11.00 3171.78
   10:10:49.650.24-Mar-2020 4562.51 6934.38 86.72 5.00  11.20 3171.78
   10:10:49.850.24-Mar-2020 4562.51 6925.83 86.72 5.00  11.40 3171.78
   10:10:50.050.24-Mar-2020 4562.51 6929.98 86.72 5.00  11.60 3171.78
   10:10:50.250.24-Mar-2020 4562.51 6931.92 86.72 5.00  11.80 3171.78
   10:10:50.450.24-Mar-2020 4562.51 6942.61 86.72 5.00  12.00 3171.78
   10:10:50.650.24-Mar-2020 4562.51 6942.61 86.72 5.00  12.20 3171.78
   10:10:50.850.24-Mar-2020 4562.51 6928.94 86.72 5.00  12.40 3171.78
   10:10:51.050.24-Mar-2020 4562.51 6895.92 86.71 5.00  12.60 3171.78
   10:10:51.250.24-Mar-2020 4562.51 6942.27 86.71 5.00  12.80 3171.78
   10:10:51.450.24-Mar-2020 4562.51 6930.96 86.71 5.00  13.00 3171.78
   10:10:51.650.24-Mar-2020 4562.51 6930.96 86.71 5.00  13.20 3171.78
   10:10:51.850.24-Mar-2020 4562.51 6905.99 86.71 5.00  13.40 3171.78
   10:10:52.050.24-Mar-2020 4562.51 6905.78 86.71 5.00  13.60 3171.78
   10:10:52.250.24-Mar-2020 4562.51 6926.89 86.71 5.00  13.80 3171.78
   10:10:52.450.24-Mar-2020 4562.51 6904.84 86.71 5.00  14.00 3171.78
   10:10:52.650.24-Mar-2020 4562.51 6904.84 86.71 5.00  14.20 3171.78
   10:10:52.850.24-Mar-2020 4562.51 6890.42 86.70 5.00  14.40 3171.78
   10:10:53.050.24-Mar-2020 4562.51 6909.57 86.70 5.00  14.60 3171.78
   10:10:53.250.24-Mar-2020 4562.51 6897.05 86.70 5.00  14.80 3171.78
   10:10:53.450.24-Mar-2020 4562.51 6906.27 86.70 5.00  15.00 3171.78
   10:10:53.650.24-Mar-2020 4562.51 6906.27 86.70 5.00  15.20 3171.78
   10:10:53.850.24-Mar-2020 4562.51 6928.24 86.70 5.00  15.40 3171.78
   10:10:54.050.24-Mar-2020 4562.51 6923.33 86.70 5.00  15.60 3171.78
   10:10:54.251.24-Mar-2020 4562.51 6922.50 86.70 5.00  15.80 3171.78
   10:10:54.451.24-Mar-2020 4562.51 6887.27 86.70 5.00  16.00 3171.78
   10:10:54.651.24-Mar-2020 4562.51 6887.27 86.70 5.00  16.20 3171.78
   10:10:54.851.24-Mar-2020 4562.51 6887.27 86.70 5.00  16.40 3171.78
   10:10:55.051.24-Mar-2020 4562.51 6899.63 86.69 5.00  16.60 3171.78
   10:10:55.251.24-Mar-2020 4562.51 6895.68 86.69 5.00  16.80 3171.78
   10:10:55.451.24-Mar-2020 4562.51 6895.68 86.69 5.00  17.00 3171.78
   10:10:55.651.24-Mar-2020 4562.51 6911.15 86.69 5.00  17.20 3171.78
   10:10:55.851.24-Mar-2020 4562.51 6911.15 86.69 5.00  17.40 3171.78
   10:10:56.051.24-Mar-2020 4562.51 7207.79 86.69 5.00  17.60 3171.78
   10:10:56.251.24-Mar-2020 4562.51 7248.35 86.69 5.00  17.80 3171.78
   10:10:56.451.24-Mar-2020 4562.51 7295.58 86.68 5.00  18.00 3171.78
   10:10:56.651.24-Mar-2020 4562.51 7295.58 86.68 5.00  18.20 3171.78
   10:10:56.851.24-Mar-2020 4562.51 7386.85 86.68 5.00  18.40 3171.78
   10:10:57.051.24-Mar-2020 4562.51 7463.33 86.68 5.00  18.60 3171.78
   10:10:57.251.24-Mar-2020 4562.51 7527.89 86.68 5.00  18.80 3171.78
   10:10:57.451.24-Mar-2020 4562.51 7605.63 86.68 5.00  19.00 3171.78
   10:10:57.651.24-Mar-2020 4562.51 7605.63 86.68 5.00  19.20 3171.78
   10:10:57.851.24-Mar-2020 4562.51 7802.53 86.68 5.00  19.40 3171.78
   10:10:58.051.24-Mar-2020 4562.51 7760.71 86.68 5.00  19.60 3171.78
   10:10:58.251.24-Mar-2020 4562.51 7815.26 86.67 5.00  19.80 3171.78
   10:10:58.451.24-Mar-2020 4562.51 7880.44 86.67 5.00  20.00 3171.78
   10:10:58.651.24-Mar-2020 4562.51 7880.44 86.67 5.00  20.20 3171.78
   10:10:58.851.24-Mar-2020 4562.51 7853.06 86.67 5.00  20.40 3171.78
   10:10:59.051.24-Mar-2020 4562.51 7921.36 86.67 5.00  20.60 3171.78
   10:10:59.251.24-Mar-2020 4562.51 7976.80 86.67 5.00  20.80 3171.78
   10:10:59.451.24-Mar-2020 4562.51 8013.89 86.67 5.00  21.00 3171.78
   10:10:59.652.24-Mar-2020 4562.51 8013.89 86.67 5.00  21.20 3171.78
   10:10:59.852.24-Mar-2020 4562.51 7929.16 86.67 5.00  21.40 3171.78
   10:11:00.052.24-Mar-2020 4562.51 7854.20 86.67 5.00  21.60 3171.78
   10:11:00.252.24-Mar-2020 4562.51 7921.25 86.67 5.00  21.80 3171.78
   10:11:00.452.24-Mar-2020 4562.51 7972.62 86.66 5.00  22.00 3171.78
   10:11:00.652.24-Mar-2020 4562.51 7972.62 86.66 5.00  22.20 3171.78
   10:11:00.852.24-Mar-2020 4562.51 8021.39 86.66 5.00  22.40 3171.78
   10:11:01.052.24-Mar-2020 4562.51 8035.51 86.66 5.00  22.60 3171.78
   10:11:01.252.24-Mar-2020 4562.51 7831.11 86.66 5.00  22.80 3171.78
