~Version Information
 VERS.                  2.0:   CWLS log ASCII Standard -VERSION 2.0
 WRAP.                   NO:   One line per depth step
~Well Information Block
#MNEM.UNIT     VALUE/NAME     DESCRIPTION
#---------     -----------    ---------------------------
 STRT.S             00:58:12 24-Mar-20: START TIME 00:58:12 24-Mar-20
 STOP.S             01:04:43 24-Mar-20: STOP TIME  01:04:43 24-Mar-20
 STEP.S                   0.00: STEP TIME
 NULL.                 -999.25: NULL VALUE
 DFWT.                        :  DIST FWL TEXT
 DFST.                        :  DIST FSL TEXT
 DMF .             Drill Floor:  DRILL MEAS FROM
 STIM.      22.30.00 15-Feb-20:  START TIME
 DATE.      17.00.00 25-Mar-20:  END TIME
 SPUD.               15-Feb-20:  SPUD DATE
 NREF.                    Grid:  NORTH REFERENCE
 HPTY.       Minimum Curvature:  HOLE POS TYPE
 DMOD.             Drill Model:  DRILL MOD DESC
 SVYD.                  Survey:  SURVEY DESC
 ILTD.               Lithology:  INTERP LTH DESC
 FTOP.          Formation Tops:  FORM TOPS DESC
 SON .        AZ-XX-0906019077:  JOB NUMBER
 PDAT.          Mean Sea Level:  PERMANENT DATUM
 WTYP.                Deviated:  WELL TYPE
 MDS .        Operator Entered:  MAG DATA SOURCE
 COMP.     BP Exploration (Caspian sea) Ltd.:  COMPANY
 UWI .                     N/A:  UNIQUE WELL IDENTIFIER
 API .                     N/A:  API NUMBER
 BASE.              Azerbaijan:  LOGGING EQUIPMENT BASE LOCATION
 REGN.                   EESSA:  REGION
 PROV.                     N/A:  PROVINCE
 STAT.                     N/A:  STATE NAME
 CTRY.              Azerbaijan:  COUNTRY NAME
 FLD .                     ACG:  FIELD NAME
 SRVC.          Turan Drilling:  CONTRACTOR
 MWDS.                    Baku:  MWD SHOP
 WELL.                    E16W:  WELL NAME
 JOBN.        AZ-XX-0906019077:  JOB TICKET NUMB
 RIG .                     DWG:  RIG NAME
 CNTY.                     N/A:  COUNTY NAME
 DCON.         Sperry Drilling:  DIRECTNL CONTR
 UNIT.                     N/A:  LOGGING EQUIPMENT ID
 LOC .                        :  LOCATION
 LMF .             Drill Floor:  LOG MEASURED FROM
 TVDS.m                  43.16:  TVDSS CORRECTN
 LATI.deg                40.17:  LATITUDE
 LONG.deg                51.17:  LONGITUDE
 WHNS.m                 -15.30:  WELL HEAD N/S
 WHEW.m                  -1.29:  WELL HEAD E/W
 UTMX.m              514337.95:  UTM X
 UTMY.m             4448627.46:  UTM Y
 DFWL.m                   0.00:  DISTANCE FWL
 DFSL.m                   0.00:  DISTANCE FSL
 SDEP.m                3499.01:  START DEPTH
 TDD .m                4606.01:  TOTAL DEPTH (DRILLER)
 VSDR.deg               151.14:  VERT SEC DIRECT
 GVFD.g                   1.00:  GRAVITY FIELD
 MFLD.nT              50334.00:  MAGNETIC FIELD
 MDIP.deg                59.62:  MAGNETIC DIP
 MDEC.deg                 6.46:  MAGNETIC DECL
 GRDC.deg                 0.12:  GRID CORRECTION
 AZTC.deg                 6.34:  AZM TOTAL CORR
 EPD .m                   0.00:  ELEVATION
 EGL .m                   0.00:  GROUND ELEVATION
 WDMS.m                 176.20:  WD ELEV
 APD .m                  43.16:  DEPTH ABOVE PD
 VSEW.m                  -1.29:  VERT SEC E/W
 VSNS.m                 -15.30:  VERT SEC N/S
 AGAP.m                  43.16:  AIR GAP
 EKB .m                   0.00:  KB ELEVATION
 EDF .m                  43.16:  DF ELEVATION
 TDL .m                 103.00:  TOTAL DEPTH (LOGGER)
 VSC .                       0:  VS TO CLOSURE
 MAGU.                 1852525:  MAGUTM CHECKSUM
~Parameter Information Block
#MNEM.UNIT       Value        Description
#---------     -----------    ---------------------------
 AV  .mps                 1.01:  Ann Velocity 
 AVMX.mps                 1.32:  Max Ann Veloc 
 AZIF.deg               140.63:  Azm, Final 
 BHAT.        Rotary Steerable:  BHA Type 
 BREV.rev            151000.00:  Rev Bit Total 
 BROT.°/30m               0.65:  Build Rotating 
 BS  .in                  6.50:  Bit Size 
 BSZ .in                  6.50:  Bit Size 
 BTPL.psig              222.00:  Bit Press Loss 
 CABU.                      No:  Customer Abuse 
 CGEO.           Emin Aliyarov:  Customer Geo 
 COMM.                     lx{:  Run Comments 1 
 TCS .hr                 22.89:  Time Ciculation Ended 
 CV  .mps                 2.20:  Crit Velocity 
 CVMX.mps                 3.04:  Max Crit Veloc 
 DD1 .         Intigam Rahimov:  Direct Drillr 1 
 DDSV.               Geo-Pilot:  DD Service 
 DEFF.%                  91.50:  % Det Eff 
 DLRX.°/30m               1.15:  Dogleg Rot Max 
 DLSO.°/30m               0.86:  Dogleg Oriented 
 DLSX.°/30m               1.15:  Dogleg Str Max 
 DRET.      13.10.00 24-Mar-20:  Drill End Time 
 DRST.      17.00.00 23-Mar-20:  Drill Start Tim 
 DTIM.hr                 11.87:  Time Drilling 
 EDEP.m                4606.01:  End Depth 
 ENG1.          Rasim Hashimov:  Engineer 1 
 ENG2.            Alan Tuganov:  Engineer 2 
 ENG3.         Yevgeniy Ulikov:  Engineer 3 
 ETIM.      16.00.00 25-Mar-20:  End Time 
 FLOI.gpm               400.00:  Flow In 
 FLON.gpm               350.00:  Flow In Min 
 FLOS.cptm                0.00:  Fluid Loss 
 FLOX.gpm               400.00:  Flow In Max 
 FTRO.       Formation Presure:  FTWD Run Obj 
 HFLO.                      No:  High Flow 
 HPRE.                      No:  High Pressure 
 HTEM.                      No:  High Temp 
 HYDO.m                   1.80:  Hydro Offset 
 IFIN.deg                79.55:  Inc, Final 
 IMAX.deg                79.55:  Inc Max 
 IMIN.deg                78.04:  Inc Min 
 IMND.m                4502.50:  Inc Min Depth 
 IMXD.m                4587.87:  Inc Max Depth 
 JARR.                      No:  Jarring 
 LETM.      13.10.00 24-Mar-20:  Log End Time 
 LOST.hr                     0:  Lost Rig Time 
 LSTM.      17.00.00 23-Mar-20:  Log Start Time 
 MDCL.ppm             39000.00:  Mud Chlorides 
 MDES.     Inversion Oil/Synthetic:  Mud Desc 
 DFD .sg                  1.40:  Mud Density 
 MDMN.sg                  1.40:  Dens Mud Min 
 MDMX.sg                  1.40:  Dens Mud Max 
 MOIL.                    55.2:  Run Mud Oil % 
 MOWR.                   68:32:  Run Mud OWR 
 MSND.                     0.1:  Run Mud Sand % 
 MSOL.                    17.8:  Run Mud Solids% 
 DFV .spqt               76.00:  Mud Viscosity 
 MWOD.in                  4.75:  MWD Tool OD 
 MWSI.                      No:  Serv Intrp, MWD 
 OTIM.hr                 64.35:  Time Operating 
 PCON.           Look Like New:  Pad Condition 
 PMAX.psia             5350.00:  Press Op, Max 
 PV  .cP                 26.00:  Mud PV 
 RUN .                     900:  Run Number 
 ROPA.m/hr                9.00:  ROP Avg 
 ROPN.m/hr                7.00:  ROP Min 
 ROPX.m/hr               13.00:  ROP Max 
 RPMA.rpm               140.00:  RPM Surface Avg 
 RPMN.rpm               140.00:  RPM Surface Min 
 RPMX.rpm               140.00:  RPM Surface Max 
 RRUN.                    L204:  Rig Run Number 
 RTIM.hr                  4.50:  Time Reaming 
 SAZI.deg               141.40:  Azm, Start 
 SDEP.m                4503.01:  Start Depth 
 SIDD.                      No:  Serv Intrp, DD 
 SINC.deg                78.04:  Inc, Start 
 SPPA.psig             5300.00:  SPP Avg 
 SPPN.psig             5100.00:  SPP Min 
 SPPX.psig             5500.00:  SPP Max 
 STIM.      18.00.00 22-Mar-20:  Start Time 
 SVCS.                 DD, MWD:  Services 
 SVER.                    9.20:  Sperry Version 
 TDAT.m                 103.00:  Tot Depth Attmp 
 TDDF.                      No:  Trip for DD 
 TDLG.m                 103.00:  Tot Depth Loggd 
 TFF .                      No:  Trip for Fail 
 TQAA.f-kp               14.00:  Torque Abs Avg 
 TQAN.f-kp               12.00:  Torque Abs Min 
 TQAX.f-kp               16.00:  Torque Abs Max 
 TRRT.°/30m               0.45:  Turn Rotating 
 MRT .                    HCIM:  Maximum Recorded Temperature 
 TTMX.degC               90.20:  Max Tool Temp 
 VS01.         90577859G12V7D4:  Virtual Str1 SN 
 VS02.            90519330D5C4:  Virtual Str2 SN 
 VS03.             90603450F11:  Virtual Str3 SN 
 VS04.           90515383R12C4:  Virtual Str4 SN 
 VS05.          90522017N2L2C4:  Virtual Str5 SN 
 VS06.            90512682Z1W1:  Virtual Str6 SN 
 WBMN.klb                 5.00:  WOB Min 
 WITN.        Elmaddin Rahimov:  Customer Rep 
 WITN.           Adil Mammadov:  Customer Rep 2 
 WOBA.klb                 8.00:  WOB Avg 
 WOBX.klb                13.00:  WOB Max 
 YP  .lhf2               31.00:  Yield Point 
~Curve Information Block
#MNEM.UNIT                 API CODE     Curve Description
#---------               -----------    ---------------------------
 TIME.HHMMSS            00 000 000 000:  GT Time & Date
 GTDEPTH.m              00 000 000 000:  GT Depth
 GTPQH.psia             00 000 000 000:  GT HR Quartz Pressure
 GTTQ.degC              00 000 000 000:  GT Quartz Temperature
 GTTN.NONE              00 000 000 000:  GT Test Number
 GTET.sec               00 000 000 000:  GT Elapsed Test Time
 GTTVD.m                00 000 000 000:  GT True Vertical Depth
#Other Information
#
#WARRANTY: Halliburton will use its best efforts to furnish customers with 
#accurate information and interpretations that are part of, and incident to, the services 
#provided.  However, Halliburton cannot and does not warrant the accuracy 
#or correctness of such information and interpretations.  Under no circumstances should any 
#such information or interpretation be relied upon as the sole basis for any drilling, 
#completion, production, or financial decision or any procedure involving any risk to the 
#safety of any drilling venture, drilling rig or its crew or any other third party.  The 
#Customer has full responsibility for all drilling, completion and production operation.  
#Halliburton makes no representations or warranties, either expressed or 
#implied, including, but not limited to, the implied warranties of merchantability or fitness 
#for a particular purpose, with respect to the services rendered.  In no event will 
#Halliburton be liable for failure to obtain any particular results or for 
#any damages, including, but not limited to, indirect, special or consequential damages, 
#resulting from the use of any information or interpretation provided by Halliburton.
#
~A           TIME           GTDEPTH  GTPQH  GTTQ  GTTN  GTET   GTTVD  
# ...
   01:04:20.783.24-Mar-2020 4501.51 6914.54 79.86 2.00 368.06 3159.43
   01:04:20.983.24-Mar-2020 4501.51 6914.54 79.86 2.00 368.26 3159.43
   01:04:21.183.24-Mar-2020 4501.51 6914.29 79.86 2.00 368.46 3159.43
   01:04:21.383.24-Mar-2020 4501.51 6916.06 79.86 2.00 368.66 3159.43
   01:04:21.583.24-Mar-2020 4501.51 6914.64 79.85 2.00 368.86 3159.43
   01:04:21.783.24-Mar-2020 4501.51 6916.21 79.85 2.00 369.06 3159.43
   01:04:21.983.24-Mar-2020 4501.51 6916.21 79.85 2.00 369.26 3159.43
   01:04:22.183.24-Mar-2020 4501.51 6916.30 79.85 2.00 369.46 3159.43
   01:04:22.383.24-Mar-2020 4501.51 6916.12 79.85 2.00 369.66 3159.43
   01:04:22.583.24-Mar-2020 4501.51 6917.82 79.85 2.00 369.86 3159.43
   01:04:22.783.24-Mar-2020 4501.51 6917.82 79.85 2.00 370.06 3159.43
   01:04:22.983.24-Mar-2020 4501.51 6917.82 79.85 2.00 370.26 3159.43
   01:04:23.183.24-Mar-2020 4501.51 6916.44 79.85 2.00 370.46 3159.43
   01:04:23.383.24-Mar-2020 4501.51 6915.69 79.85 2.00 370.66 3159.43
   01:04:23.583.24-Mar-2020 4501.51 6910.39 79.85 2.00 370.86 3159.43
   01:04:23.783.24-Mar-2020 4501.51 6913.71 79.85 2.00 371.06 3159.43
   01:04:23.983.24-Mar-2020 4501.51 6913.71 79.85 2.00 371.26 3159.43
   01:04:24.183.24-Mar-2020 4501.51 6911.97 79.85 2.00 371.46 3159.43
   01:04:24.383.24-Mar-2020 4501.51 6913.28 79.85 2.00 371.66 3159.43
   01:04:24.583.24-Mar-2020 4501.51 6910.55 79.85 2.00 371.86 3159.43
   01:04:24.783.24-Mar-2020 4501.51 6915.32 79.85 2.00 372.06 3159.43
   01:04:24.983.24-Mar-2020 4501.51 6915.32 79.85 2.00 372.26 3159.43
   01:04:25.183.24-Mar-2020 4501.51 6911.12 79.84 2.00 372.46 3159.43
   01:04:25.383.24-Mar-2020 4501.51 6912.38 79.84 2.00 372.66 3159.43
   01:04:25.583.24-Mar-2020 4501.51 6918.06 79.84 2.00 372.86 3159.43
   01:04:25.783.24-Mar-2020 4501.51 6915.61 79.84 2.00 373.06 3159.43
   01:04:25.984.24-Mar-2020 4501.51 6915.61 79.84 2.00 373.26 3159.43
   01:04:26.184.24-Mar-2020 4501.51 6916.80 79.84 2.00 373.46 3159.43
   01:04:26.384.24-Mar-2020 4501.51 6918.97 79.84 2.00 373.66 3159.43
   01:04:26.584.24-Mar-2020 4501.51 6917.24 79.84 2.00 373.86 3159.43
   01:04:26.784.24-Mar-2020 4501.51 6918.95 79.84 2.00 374.06 3159.43
   01:04:26.984.24-Mar-2020 4501.51 6918.95 79.84 2.00 374.26 3159.43
   01:04:27.184.24-Mar-2020 4501.51 6911.51 79.84 2.00 374.46 3159.43
   01:04:27.384.24-Mar-2020 4501.51 6914.39 79.84 2.00 374.66 3159.43
   01:04:27.584.24-Mar-2020 4501.51 6917.26 79.84 2.00 374.86 3159.43
   01:04:27.784.24-Mar-2020 4501.51 6916.13 79.84 2.00 375.06 3159.43
   01:04:27.984.24-Mar-2020 4501.51 6916.13 79.84 2.00 375.26 3159.43
   01:04:28.184.24-Mar-2020 4501.51 6916.37 79.84 2.00 375.46 3159.43
   01:04:28.384.24-Mar-2020 4501.51 6915.34 79.84 2.00 375.66 3159.43
   01:04:28.584.24-Mar-2020 4501.51 6915.68 79.84 2.00 375.86 3159.43
   01:04:28.784.24-Mar-2020 4501.51 6914.89 79.83 2.00 376.07 3159.43
   01:04:28.984.24-Mar-2020 4501.51 6915.56 79.83 2.00 376.27 3159.43
   01:04:29.184.24-Mar-2020 4501.51 6914.13 79.83 2.00 376.47 3159.43
   01:04:29.384.24-Mar-2020 4501.51 6917.16 79.83 2.00 376.67 3159.43
   01:04:29.584.24-Mar-2020 4501.51 6915.07 79.83 2.00 376.87 3159.43
   01:04:29.784.24-Mar-2020 4501.51 6916.41 79.83 2.00 377.07 3159.43
   01:04:29.984.24-Mar-2020 4501.51 6916.41 79.83 2.00 377.27 3159.43
   01:04:30.184.24-Mar-2020 4501.51 6911.75 79.83 2.00 377.47 3159.43
   01:04:30.384.24-Mar-2020 4501.51 6913.01 79.83 2.00 377.67 3159.43
   01:04:30.584.24-Mar-2020 4501.51 6912.05 79.83 2.00 377.87 3159.43
   01:04:30.784.24-Mar-2020 4501.51 6908.38 79.83 2.00 378.07 3159.43
   01:04:30.984.24-Mar-2020 4501.51 6908.38 79.83 2.00 378.27 3159.43
   01:04:31.184.24-Mar-2020 4501.51 6906.92 79.83 2.00 378.47 3159.43
   01:04:31.384.24-Mar-2020 4501.51 6914.44 79.83 2.00 378.67 3159.43
   01:04:31.584.24-Mar-2020 4501.51 6913.47 79.83 2.00 378.87 3159.43
   01:04:31.785.24-Mar-2020 4501.51 6909.35 79.83 2.00 379.07 3159.43
   01:04:31.985.24-Mar-2020 4501.51 6909.35 79.83 2.00 379.27 3159.43
   01:04:32.185.24-Mar-2020 4501.51 6914.52 79.82 2.00 379.47 3159.43
   01:04:32.385.24-Mar-2020 4501.51 6914.04 79.82 2.00 379.67 3159.43
   01:04:32.585.24-Mar-2020 4501.51 6917.19 79.82 2.00 379.87 3159.43
   01:04:32.785.24-Mar-2020 4501.51 6917.50 79.82 2.00 380.07 3159.43
   01:04:32.985.24-Mar-2020 4501.51 6917.50 79.82 2.00 380.27 3159.43
   01:04:33.185.24-Mar-2020 4501.51 6917.45 79.82 2.00 380.47 3159.43
   01:04:33.385.24-Mar-2020 4501.51 6918.12 79.82 2.00 380.67 3159.43
   01:04:33.585.24-Mar-2020 4501.51 6918.28 79.82 2.00 380.87 3159.43
   01:04:33.785.24-Mar-2020 4501.51 6913.00 79.82 2.00 381.07 3159.43
   01:04:33.985.24-Mar-2020 4501.51 6913.00 79.82 2.00 381.27 3159.43
   01:04:34.185.24-Mar-2020 4501.51 6914.60 79.82 2.00 381.47 3159.43
   01:04:34.385.24-Mar-2020 4501.51 6916.92 79.82 2.00 381.67 3159.43
   01:04:34.585.24-Mar-2020 4501.51 6916.70 79.82 2.00 381.87 3159.43
   01:04:34.785.24-Mar-2020 4501.51 6917.47 79.82 2.00 382.07 3159.43
   01:04:34.985.24-Mar-2020 4501.51 6917.47 79.82 2.00 382.27 3159.43
   01:04:35.185.24-Mar-2020 4501.51 6916.80 79.82 2.00 382.47 3159.43
   01:04:35.385.24-Mar-2020 4501.51 6914.59 79.82 2.00 382.67 3159.43
   01:04:35.585.24-Mar-2020 4501.51 6916.33 79.81 2.00 382.87 3159.43
   01:04:35.785.24-Mar-2020 4501.51 6913.71 79.81 2.00 383.07 3159.43
   01:04:35.985.24-Mar-2020 4501.51 6913.71 79.81 2.00 383.27 3159.43
   01:04:36.185.24-Mar-2020 4501.51 6914.68 79.81 2.00 383.47 3159.43
   01:04:36.385.24-Mar-2020 4501.51 6917.12 79.81 2.00 383.67 3159.43
   01:04:36.585.24-Mar-2020 4501.51 6909.14 79.81 2.00 383.87 3159.43
   01:04:36.785.24-Mar-2020 4501.51 6913.30 79.81 2.00 384.07 3159.43
   01:04:36.985.24-Mar-2020 4501.51 6913.30 79.81 2.00 384.27 3159.43
   01:04:37.185.24-Mar-2020 4501.51 6908.16 79.81 2.00 384.47 3159.43
   01:04:37.385.24-Mar-2020 4501.51 6913.18 79.81 2.00 384.67 3159.43
   01:04:37.586.24-Mar-2020 4501.51 6914.77 79.81 2.00 384.87 3159.43
   01:04:37.786.24-Mar-2020 4501.51 6912.33 79.81 2.00 385.07 3159.43
   01:04:37.986.24-Mar-2020 4501.51 6912.33 79.81 2.00 385.27 3159.43
   01:04:38.186.24-Mar-2020 4501.51 6910.92 79.81 2.00 385.47 3159.43
   01:04:38.386.24-Mar-2020 4501.51 6913.71 79.81 2.00 385.67 3159.43
   01:04:38.586.24-Mar-2020 4501.51 6911.23 79.81 2.00 385.87 3159.43
   01:04:38.786.24-Mar-2020 4501.51 6909.95 79.80 2.00 386.07 3159.43
   01:04:38.986.24-Mar-2020 4501.51 6909.95 79.80 2.00 386.27 3159.43
   01:04:39.186.24-Mar-2020 4501.51 6916.04 79.80 2.00 386.47 3159.43
   01:04:39.386.24-Mar-2020 4501.51 6918.20 79.80 2.00 386.67 3159.43
   01:04:39.586.24-Mar-2020 4501.51 6916.46 79.80 2.00 386.87 3159.43
   01:04:39.786.24-Mar-2020 4501.51 6919.27 79.80 2.00 387.07 3159.43
   01:04:39.986.24-Mar-2020 4501.51 6919.27 79.80 2.00 387.27 3159.43
   01:04:40.186.24-Mar-2020 4501.51 6919.46 79.80 2.00 387.47 3159.43
   01:04:40.386.24-Mar-2020 4501.51 6917.20 79.80 2.00 387.67 3159.43
   01:04:40.586.24-Mar-2020 4501.51 6915.19 79.80 2.00 387.87 3159.43
   01:04:40.786.24-Mar-2020 4501.51 6912.61 79.80 2.00 388.07 3159.43
   01:04:40.986.24-Mar-2020 4501.51 6919.34 79.80 2.00 388.27 3159.43
   01:04:41.186.24-Mar-2020 4501.51 6917.12 79.80 2.00 388.47 3159.43
   01:04:41.386.24-Mar-2020 4501.51 6917.52 79.80 2.00 388.67 3159.43
   01:04:41.586.24-Mar-2020 4501.51 6916.03 79.80 2.00 388.87 3159.43
   01:04:41.786.24-Mar-2020 4501.51 6917.55 79.80 2.00 389.07 3159.43
   01:04:41.986.24-Mar-2020 4501.51 6917.55 79.80 2.00 389.27 3159.43
   01:04:42.186.24-Mar-2020 4501.51 6916.35 79.79 2.00 389.47 3159.43
   01:04:42.386.24-Mar-2020 4501.51 6915.23 79.79 2.00 389.67 3159.43
   01:04:42.586.24-Mar-2020 4501.51 6915.70 79.79 2.00 389.87 3159.43
   01:04:42.786.24-Mar-2020 4501.51 6916.56 79.79 2.00 390.07 3159.43
   01:04:42.986.24-Mar-2020 4501.51 6916.56 79.79 2.00 390.27 3159.43
   01:04:43.186.24-Mar-2020 4501.51 6912.65 79.79 2.00 390.47 3159.43
   01:04:43.387.24-Mar-2020 4501.51 6914.03 79.79 2.00 390.67 3159.43
   01:04:43.587.24-Mar-2020 4501.51 6913.66 79.79 2.00 390.87 3159.43
