~Version Information
 VERS.                  2.0:   CWLS log ASCII Standard -VERSION 2.0
 WRAP.                   NO:   One line per depth step
~Well Information Block
#MNEM.UNIT     VALUE/NAME     DESCRIPTION
#---------     -----------    ---------------------------
 STRT.S             12:03:05 08-Feb-20: START TIME 12:03:05 08-Feb-20
 STOP.S             12:09:57 08-Feb-20: STOP TIME  12:09:57 08-Feb-20
 STEP.S                   0.00: STEP TIME
 NULL.                 -999.25: NULL VALUE
 DFWT.                        :  DIST FWL TEXT
 DFST.                        :  DIST FSL TEXT
 DMF .             Drill Floor:  DRILL MEAS FROM
 STIM.      07.00.00 09-Jan-20:  START TIME
 DATE.      14.04.48 07-Feb-20:  END TIME
 SPUD.               09-Jan-20:  SPUD DATE
 NREF.                    Grid:  NORTH REFERENCE
 HPTY.       Minimum Curvature:  HOLE POS TYPE
 DMOD.             Drill Model:  DRILL MOD DESC
 SVYD.                  Survey:  SURVEY DESC
 ILTD.               Lithology:  INTERP LTH DESC
 FTOP.          Formation Tops:  FORM TOPS DESC
 SON .        AZ-XX-0905059384:  JOB NUMBER
 MDS .        Operator Entered:  MAG DATA SOURCE
 WTYP.                Deviated:  WELL TYPE
 COMP.     BP Exploration (Caspian Sea) Ltd.:  COMPANY
 UWI .                     N/A:  UNIQUE WELL IDENTIFIER
 API .                     N/A:  API NUMBER
 BASE.              Azerbaijan:  LOGGING EQUIPMENT BASE LOCATION
 REGN.                   EESSA:  REGION
 PROV.                    Baku:  PROVINCE
 STAT.                    Baku:  STATE NAME
 CTRY.              Azerbaijan:  COUNTRY NAME
 FLD .                     ACG:  FIELD NAME
 SRVC.     TURAN Drilling & Engineering:  CONTRACTOR
 MWDS.                    Baku:  MWD SHOP
 WELL.                     J22:  WELL NAME
 RIG .             West Chirag:  RIG NAME
 DOE .                     N/A:  DOE NUMBER
 DCON.         Sperry Drilling:  DIRECTNL CONTR
 UNIT.                     N/A:  LOGGING EQUIPMENT ID
 PDAT.          Mean Sea Level:  PERMANENT DATUM
 JOBN.        AZ-XX-0905059384:  JOB TICKET NUMB
 CNTY.                        :  COUNTY
 LOC .                        :  LOCATION
 LMF .             Drill Floor:  LOG MEASURED FROM
 TVDS.m                  43.00:  TVDSS CORRECTN
 LATI.deg                40.13:  LATITUDE
 LONG.deg                51.22:  LONGITUDE
 WHNS.m                  10.28:  WELL HEAD N/S
 WHEW.m                  -6.24:  WELL HEAD E/W
 UTMX.m              519005.06:  UTM X
 UTMY.m             4443793.85:  UTM Y
 DFWL.m                   0.00:  DISTANCE FWL
 DFSL.m                   0.00:  DISTANCE FSL
 SDEP.m                 362.00:  START DEPTH
 TDD .m                 904.00:  TOTAL DEPTH (DRILLER)
 VSDR.deg               148.53:  VERT SEC DIRECT
 GVFD.g                   1.00:  GRAVITY FIELD
 MFLD.nT              50277.00:  MAGNETIC FIELD
 MDIP.deg                59.56:  MAGNETIC DIP
 MDEC.deg                 6.42:  MAGNETIC DECL
 GRDC.deg                 0.15:  GRID CORRECTION
 AZTC.deg                 6.27:  AZM TOTAL CORR
 EPD .m                   0.00:  ELEVATION
 EGL .m                   0.00:  GROUND ELEVATION
 WDMS.m                 169.80:  WD ELEV
 APD .m                  43.00:  DEPTH ABOVE PD
 AGAP.m                  43.00:  AIR GAP
 VSEW.m                  -6.24:  VERT SEC E/W
 VSNS.m                  10.28:  VERT SEC N/S
 DEP .m                   0.00:  DEPTH
 EKB .m                   0.00:  KB ELEVATION
 EDF .m                  43.00:  DF ELEVATION
 TDL .m                1183.00:  TOTAL DEPTH (LOGGER)
 VSC .                       0:  VS TO CLOSURE
 MAGU.                 1850021:  MAGUTM CHECKSUM
~Parameter Information Block
#MNEM.UNIT       Value        Description
#---------     -----------    ---------------------------
 AV  .mps                 4.00:  Ann Velocity 
 AVMX.mps                 4.50:  Max Ann Veloc 
 AZIF.deg               145.38:  Azm, Final 
 BHAT.        Rotary Steerable:  BHA Type 
 BROT.°/30m               3.00:  Build Rotating 
 BS  .in                 12.25:  Bit Size 
 BSZ .in                 12.25:  Bit Size 
 BTPL.psig              650.00:  Bit Press Loss 
 CABU.                      No:  Customer Abuse 
 COMM.                     ÌSf:  Run Comments 1 
 TCS .hr                101.62:  Time Ciculation Ended 
 CV  .mps                 5.00:  Crit Velocity 
 CVMX.mps                 5.00:  Max Crit Veloc 
 DD1 .             Aziz Aliyev:  Direct Drillr 1 
 DD2 .      Fakhraddin Guliyev:  Direct Drillr 2 
 DDSV.                 iCruise:  DD Service 
 DEFF.%                  97.00:  % Det Eff 
 DLRX.°/30m               4.16:  Dogleg Rot Max 
 DLSO.°/30m               3.20:  Dogleg Oriented 
 DLSX.°/30m               4.10:  Dogleg Str Max 
 DRET.      23.12.00 07-Feb-20:  Drill End Time 
 DRST.      11.30.00 04-Feb-20:  Drill Start Tim 
 DTIM.hr                 61.06:  Time Drilling 
 EDEP.m                3219.01:  End Depth 
 ENG1.         Almaz Almadatov:  Engineer 1 
 ENG2.         Dair Mahammadov:  Engineer 2 
 ENG3.          Nazrin Asgarli:  Engineer 3 
 ETIM.      02.30.00 11-Feb-20:  End Time 
 FLOI.gpm              1100.00:  Flow In 
 FLON.gpm               900.00:  Flow In Min 
 FLOS.cptm               55.00:  Fluid Loss 
 FLOX.gpm              1150.00:  Flow In Max 
 FTRO.       Formation Presure:  FTWD Run Obj 
 HFLO.                      No:  High Flow 
 HPRE.                      No:  High Pressure 
 HTEM.                      No:  High Temp 
 HYDO.m                   1.80:  Hydro Offset 
 IFIN.deg                75.11:  Inc, Final 
 IMAX.deg                75.11:  Inc Max 
 IMIN.deg                33.55:  Inc Min 
 IMND.m                2186.05:  Inc Min Depth 
 IMXD.m                3205.61:  Inc Max Depth 
 JARR.                      No:  Jarring 
 LETM.      23.12.00 07-Feb-20:  Log End Time 
 LOST.hr                     0:  Lost Rig Time 
 LSTM.      11.30.00 04-Feb-20:  Log Start Time 
 MDCL.ppm             40000.00:  Mud Chlorides 
 MDES.     Inversion Oil/Synthetic:  Mud Desc 
 DFD .sg                  1.49:  Mud Density 
 MDMN.sg                  1.49:  Dens Mud Min 
 MDMX.sg                  1.49:  Dens Mud Max 
 MOIL.                      73:  Run Mud Oil % 
 MOWR.                   73:27:  Run Mud OWR 
 MSND.                     0.1:  Run Mud Sand % 
 MSOL.                    20.1:  Run Mud Solids% 
 DFV .spqt               78.00:  Mud Viscosity 
 MWOD.in                  8.00:  MWD Tool OD 
 MWSI.                      No:  Serv Intrp, MWD 
 OTIM.hr                177.15:  Time Operating 
 PCON.          Wear / Scratch:  Pad Condition 
 PMAX.psia            10493.93:  Press Op, Max 
 PV  .cP                 73.00:  Mud PV 
 RUN .                     700:  Run Number 
 ROPA.m/hr               15.00:  ROP Avg 
 ROPN.m/hr               10.00:  ROP Min 
 ROPX.m/hr               35.00:  ROP Max 
 RPMA.rpm               130.00:  RPM Surface Avg 
 RPMN.rpm                80.00:  RPM Surface Min 
 RPMX.rpm               150.00:  RPM Surface Max 
 RRUN.                    L402:  Rig Run Number 
 RTIM.hr                 80.50:  Time Reaming 
 SAZI.deg               155.55:  Azm, Start 
 SDEP.m                2036.00:  Start Depth 
 SIDD.                      No:  Serv Intrp, DD 
 SINC.deg                35.44:  Inc, Start 
 SPPA.psig             4270.00:  SPP Avg 
 SPPN.psig             2800.00:  SPP Min 
 SPPX.psig             4850.00:  SPP Max 
 STIM.      09.30.00 03-Feb-20:  Start Time 
 SVCS.                 DD, MWD:  Services 
 SVER.                    9.20:  Sperry Version 
 TDAT.m                1183.00:  Tot Depth Attmp 
 TDDF.                      No:  Trip for DD 
 TDLG.m                1183.00:  Tot Depth Loggd 
 TFF .                      No:  Trip for Fail 
 TQAA.f-kp               16.00:  Torque Abs Avg 
 TQAN.f-kp               10.00:  Torque Abs Min 
 TQAX.f-kp               20.00:  Torque Abs Max 
 TRRT.°/30m               1.00:  Turn Rotating 
 MRT .                  EWR-M5:  Maximum Recorded Temperature 
 TTMX.degC               80.39:  Max Tool Temp 
 VS01.               13098498 :  Virtual Str1 SN 
 VS02.                90569596:  Virtual Str2 SN 
 VS03.                90523599:  Virtual Str3 SN 
 VS04.                90573553:  Virtual Str4 SN 
 VS05.                90598598:  Virtual Str5 SN 
 VS06.                90577297:  Virtual Str6 SN 
 WBMN.klb                13.00:  WOB Min 
 WITN.         Alistair Sprott:  Customer Rep 
 WITN.           Rufat Babayev:  Customer Rep 2 
 WOBA.klb                15.00:  WOB Avg 
 WOBX.klb                20.00:  WOB Max 
 YP  .lhf2               39.00:  Yield Point 
~Curve Information Block
#MNEM.UNIT                 API CODE     Curve Description
#---------               -----------    ---------------------------
 TIME.HHMMSS            00 000 000 000:  GT Time & Date
 GTDEPTH.m              00 000 000 000:  GT Depth
 GTPQH.psia             00 000 000 000:  GT HR Quartz Pressure
 GTTQ.degC              00 000 000 000:  GT Quartz Temperature
 GTTN.NONE              00 000 000 000:  GT Test Number
 GTET.sec               00 000 000 000:  GT Elapsed Test Time
 GTTVD.m                00 000 000 000:  GT True Vertical Depth
#Other Information
#
#WARRANTY: Halliburton will use its best efforts to furnish customers with 
#accurate information and interpretations that are part of, and incident to, the services 
#provided.  However, Halliburton cannot and does not warrant the accuracy 
#or correctness of such information and interpretations.  Under no circumstances should any 
#such information or interpretation be relied upon as the sole basis for any drilling, 
#completion, production, or financial decision or any procedure involving any risk to the 
#safety of any drilling venture, drilling rig or its crew or any other third party.  The 
#Customer has full responsibility for all drilling, completion and production operation.  
#Halliburton makes no representations or warranties, either expressed or 
#implied, including, but not limited to, the implied warranties of merchantability or fitness 
#for a particular purpose, with respect to the services rendered.  In no event will 
#Halliburton be liable for failure to obtain any particular results or for 
#any damages, including, but not limited to, indirect, special or consequential damages, 
#resulting from the use of any information or interpretation provided by Halliburton.
#
~A           TIME           GTDEPTH  GTPQH  GTTQ  GTTN  GTET   GTTVD  
# ...
   12:04:14.000.08-Feb-2020 3069.01  748.24 66.19 7.00  69.00 2627.56
   12:04:14.200.08-Feb-2020 3069.01  748.24 66.19 7.00  69.20 2627.56
   12:04:14.400.08-Feb-2020 3069.01  563.31 66.18 7.00  69.40 2627.56
   12:04:14.600.08-Feb-2020 3069.01  472.19 66.18 7.00  69.60 2627.56
   12:04:14.800.08-Feb-2020 3069.01  393.80 66.17 7.00  69.80 2627.56
   12:04:15.000.08-Feb-2020 3069.01  315.78 66.17 7.00  70.00 2627.56
   12:04:15.200.08-Feb-2020 3069.01  315.78 66.17 7.00  70.20 2627.56
   12:04:15.400.08-Feb-2020 3069.01  173.76 66.16 7.00  70.40 2627.56
   12:04:15.600.08-Feb-2020 3069.01  121.64 66.16 7.00  70.60 2627.56
   12:04:15.800.08-Feb-2020 3069.01  104.19 66.15 7.00  70.80 2627.56
   12:04:16.000.08-Feb-2020 3069.01  100.71 66.15 7.00  71.00 2627.56
   12:04:16.200.08-Feb-2020 3069.01  100.71 66.15 7.00  71.20 2627.56
   12:04:16.400.08-Feb-2020 3069.01  142.50 66.15 7.00  71.40 2627.56
   12:04:16.600.08-Feb-2020 3069.01  177.32 66.14 7.00  71.60 2627.56
   12:04:16.800.08-Feb-2020 3069.01  214.90 66.14 7.00  71.80 2627.56
   12:04:17.000.08-Feb-2020 3069.01  256.74 66.13 7.00  72.00 2627.56
   12:04:17.200.08-Feb-2020 3069.01  256.74 66.13 7.00  72.20 2627.56
   12:04:17.400.08-Feb-2020 3069.01  359.72 66.13 7.00  72.40 2627.56
   12:04:17.600.08-Feb-2020 3069.01  419.44 66.12 7.00  72.60 2627.56
   12:04:17.800.08-Feb-2020 3069.01  485.02 66.12 7.00  72.80 2627.56
   12:04:18.000.08-Feb-2020 3069.01  555.00 66.12 7.00  73.00 2627.56
   12:04:18.200.08-Feb-2020 3069.01  555.00 66.12 7.00  73.20 2627.56
   12:04:18.400.08-Feb-2020 3069.01  703.93 66.11 7.00  73.40 2627.56
   12:04:18.600.08-Feb-2020 3069.01  781.26 66.11 7.00  73.60 2627.56
   12:04:18.800.08-Feb-2020 3069.01  859.30 66.11 7.00  73.80 2627.56
   12:04:19.000.08-Feb-2020 3069.01  937.26 66.11 7.00  74.00 2627.56
   12:04:19.200.08-Feb-2020 3069.01  937.26 66.11 7.00  74.20 2627.56
   12:04:19.400.08-Feb-2020 3069.01 1089.48 66.10 7.00  74.40 2627.56
   12:04:19.600.08-Feb-2020 3069.01 1165.12 66.10 7.00  74.60 2627.56
   12:04:19.800.08-Feb-2020 3069.01 1238.43 66.10 7.00  74.80 2627.56
   12:04:20.000.08-Feb-2020 3069.01 1310.70 66.10 7.00  75.00 2627.56
   12:04:20.200.08-Feb-2020 3069.01 1310.70 66.10 7.00  75.20 2627.56
   12:04:20.400.08-Feb-2020 3069.01 1450.35 66.10 7.00  75.40 2627.56
   12:04:20.600.08-Feb-2020 3069.01 1515.42 66.09 7.00  75.60 2627.56
   12:04:20.800.08-Feb-2020 3069.01 1581.12 66.09 7.00  75.80 2627.56
   12:04:21.000.08-Feb-2020 3069.01 1643.92 66.09 7.00  76.00 2627.56
   12:04:21.200.08-Feb-2020 3069.01 1643.92 66.09 7.00  76.20 2627.56
   12:04:21.400.08-Feb-2020 3069.01 1765.09 66.09 7.00  76.40 2627.56
   12:04:21.600.08-Feb-2020 3069.01 1822.90 66.09 7.00  76.60 2627.56
   12:04:21.800.08-Feb-2020 3069.01 1878.80 66.09 7.00  76.80 2627.56
   12:04:22.000.08-Feb-2020 3069.01 1933.31 66.09 7.00  77.00 2627.56
   12:04:22.200.08-Feb-2020 3069.01 1933.31 66.09 7.00  77.20 2627.56
   12:04:22.400.08-Feb-2020 3069.01 2037.56 66.09 7.00  77.40 2627.56
   12:04:22.600.08-Feb-2020 3069.01 2087.82 66.09 7.00  77.60 2627.56
   12:04:22.800.08-Feb-2020 3069.01 2136.45 66.09 7.00  77.80 2627.56
   12:04:23.000.08-Feb-2020 3069.01 2183.70 66.09 7.00  78.00 2627.56
   12:04:23.200.08-Feb-2020 3069.01 2183.70 66.09 7.00  78.20 2627.56
   12:04:23.400.08-Feb-2020 3069.01 2274.73 66.09 7.00  78.40 2627.56
   12:04:23.600.08-Feb-2020 3069.01 2318.31 66.10 7.00  78.60 2627.56
   12:04:23.800.08-Feb-2020 3069.01 2360.63 66.10 7.00  78.80 2627.56
   12:04:24.000.08-Feb-2020 3069.01 2401.86 66.10 7.00  79.00 2627.56
   12:04:24.200.08-Feb-2020 3069.01 2401.86 66.10 7.00  79.20 2627.56
   12:04:24.400.08-Feb-2020 3069.01 2480.05 66.10 7.00  79.40 2627.56
   12:04:24.600.08-Feb-2020 3069.01 2518.25 66.10 7.00  79.60 2627.56
   12:04:24.800.08-Feb-2020 3069.01 2555.65 66.10 7.00  79.80 2627.56
   12:04:25.000.08-Feb-2020 3069.01 2591.81 66.10 7.00  80.00 2627.56
   12:04:25.200.08-Feb-2020 3069.01 2591.81 66.10 7.00  80.20 2627.56
   12:04:25.400.08-Feb-2020 3069.01 2661.76 66.10 7.00  80.40 2627.56
   12:04:25.600.08-Feb-2020 3069.01 2695.49 66.10 7.00  80.60 2627.56
   12:04:25.800.08-Feb-2020 3069.01 2728.36 66.11 7.00  80.80 2627.56
   12:04:26.000.08-Feb-2020 3069.01 2760.45 66.11 7.00  81.00 2627.56
   12:04:26.200.08-Feb-2020 3069.01 2760.45 66.11 7.00  81.20 2627.56
   12:04:26.400.08-Feb-2020 3069.01 2820.97 66.11 7.00  81.40 2627.56
   12:04:26.600.08-Feb-2020 3069.01 2850.80 66.11 7.00  81.60 2627.56
   12:04:26.800.08-Feb-2020 3069.01 2879.81 66.11 7.00  81.80 2627.56
   12:04:27.000.08-Feb-2020 3069.01 2907.94 66.11 7.00  82.00 2627.56
   12:04:27.200.08-Feb-2020 3069.01 2907.94 66.11 7.00  82.20 2627.56
   12:04:27.400.08-Feb-2020 3069.01 2963.63 66.12 7.00  82.40 2627.56
   12:04:27.600.08-Feb-2020 3069.01 2988.47 66.12 7.00  82.60 2627.56
   12:04:27.800.08-Feb-2020 3069.01 3015.30 66.12 7.00  82.80 2627.56
   12:04:28.000.08-Feb-2020 3069.01 3040.85 66.12 7.00  83.00 2627.56
   12:04:28.200.08-Feb-2020 3069.01 3040.85 66.12 7.00  83.20 2627.56
   12:04:28.400.08-Feb-2020 3069.01 3089.92 66.12 7.00  83.40 2627.56
   12:04:28.600.08-Feb-2020 3069.01 3113.62 66.12 7.00  83.60 2627.56
   12:04:28.800.08-Feb-2020 3069.01 3136.81 66.12 7.00  83.80 2627.56
   12:04:29.000.08-Feb-2020 3069.01 3159.87 66.13 7.00  84.00 2627.56
   12:04:29.200.08-Feb-2020 3069.01 3159.87 66.13 7.00  84.20 2627.56
   12:04:29.400.08-Feb-2020 3069.01 3204.40 66.13 7.00  84.40 2627.56
   12:04:29.600.08-Feb-2020 3069.01 3225.65 66.13 7.00  84.60 2627.56
   12:04:29.800.08-Feb-2020 3069.01 3246.56 66.13 7.00  84.80 2627.56
   12:04:30.000.08-Feb-2020 3069.01 3267.30 66.13 7.00  85.00 2627.56
   12:04:30.200.08-Feb-2020 3069.01 3267.30 66.13 7.00  85.20 2627.56
   12:04:30.400.08-Feb-2020 3069.01 3307.53 66.13 7.00  85.40 2627.56
   12:04:30.600.08-Feb-2020 3069.01 3327.00 66.14 7.00  85.60 2627.56
   12:04:30.800.08-Feb-2020 3069.01 3346.08 66.14 7.00  85.80 2627.56
   12:04:31.000.08-Feb-2020 3069.01 3364.69 66.14 7.00  86.00 2627.56
   12:04:31.200.08-Feb-2020 3069.01 3364.69 66.14 7.00  86.20 2627.56
   12:04:31.400.08-Feb-2020 3069.01 3400.43 66.14 7.00  86.40 2627.56
   12:04:31.600.08-Feb-2020 3069.01 3416.82 66.14 7.00  86.60 2627.56
   12:04:31.800.08-Feb-2020 3069.01 3434.58 66.14 7.00  86.80 2627.56
   12:04:32.000.08-Feb-2020 3069.01 3451.81 66.14 7.00  87.00 2627.56
   12:04:32.200.08-Feb-2020 3069.01 3451.81 66.14 7.00  87.20 2627.56
   12:04:32.400.08-Feb-2020 3069.01 3484.80 66.14 7.00  87.40 2627.56
   12:04:32.600.08-Feb-2020 3069.01 3501.02 66.15 7.00  87.60 2627.56
   12:04:32.800.08-Feb-2020 3069.01 3516.79 66.15 7.00  87.80 2627.56
   12:04:33.000.08-Feb-2020 3069.01 3532.24 66.15 7.00  88.00 2627.56
   12:04:33.200.08-Feb-2020 3069.01 3532.24 66.15 7.00  88.20 2627.56
   12:04:33.400.08-Feb-2020 3069.01 3562.31 66.15 7.00  88.40 2627.56
   12:04:33.600.08-Feb-2020 3069.01 3575.41 66.15 7.00  88.60 2627.56
   12:04:33.800.08-Feb-2020 3069.01 3590.29 66.15 7.00  88.80 2627.56
   12:04:34.000.08-Feb-2020 3069.01 3604.14 66.15 7.00  89.00 2627.56
   12:04:34.200.08-Feb-2020 3069.01 3604.14 66.15 7.00  89.20 2627.56
   12:04:34.400.08-Feb-2020 3069.01 3631.56 66.15 7.00  89.40 2627.56
   12:04:34.600.08-Feb-2020 3069.01 3645.19 66.15 7.00  89.60 2627.56
   12:04:34.800.08-Feb-2020 3069.01 3658.83 66.16 7.00  89.80 2627.56
   12:04:35.000.08-Feb-2020 3069.01 3670.84 66.16 7.00  90.00 2627.56
   12:04:35.200.08-Feb-2020 3069.01 3670.84 66.16 7.00  90.20 2627.56
   12:04:35.400.08-Feb-2020 3069.01 3696.44 66.16 7.00  90.40 2627.56
   12:04:35.600.08-Feb-2020 3069.01 3708.91 66.16 7.00  90.60 2627.56
   12:04:35.800.08-Feb-2020 3069.01 3721.10 66.16 7.00  90.80 2627.56
   12:04:36.000.08-Feb-2020 3069.01 3732.84 66.16 7.00  91.00 2627.56
   12:04:36.200.08-Feb-2020 3069.01 3732.84 66.16 7.00  91.20 2627.56
   12:04:36.400.08-Feb-2020 3069.01 3756.10 66.16 7.00  91.40 2627.56
   12:04:36.600.08-Feb-2020 3069.01 3768.04 66.16 7.00  91.60 2627.56
   12:04:36.800.08-Feb-2020 3069.01 3779.32 66.16 7.00  91.80 2627.56
