~Version Information
 VERS.                  2.0:   CWLS log ASCII Standard -VERSION 2.0
 WRAP.                   NO:   One line per depth step
~Well Information Block
#MNEM.UNIT     VALUE/NAME     DESCRIPTION
#---------     -----------    ---------------------------
 STRT.S             09:08:12 08-Feb-20: START TIME 09:08:12 08-Feb-20
 STOP.S             09:14:54 08-Feb-20: STOP TIME  09:14:54 08-Feb-20
 STEP.S                   0.00: STEP TIME
 NULL.                 -999.25: NULL VALUE
 DFWT.                        :  DIST FWL TEXT
 DFST.                        :  DIST FSL TEXT
 DMF .             Drill Floor:  DRILL MEAS FROM
 STIM.      07.00.00 09-Jan-20:  START TIME
 DATE.      14.04.48 07-Feb-20:  END TIME
 SPUD.               09-Jan-20:  SPUD DATE
 NREF.                    Grid:  NORTH REFERENCE
 HPTY.       Minimum Curvature:  HOLE POS TYPE
 DMOD.             Drill Model:  DRILL MOD DESC
 SVYD.                  Survey:  SURVEY DESC
 ILTD.               Lithology:  INTERP LTH DESC
 FTOP.          Formation Tops:  FORM TOPS DESC
 SON .        AZ-XX-0905059384:  JOB NUMBER
 MDS .        Operator Entered:  MAG DATA SOURCE
 WTYP.                Deviated:  WELL TYPE
 COMP.     BP Exploration (Caspian Sea) Ltd.:  COMPANY
 UWI .                     N/A:  UNIQUE WELL IDENTIFIER
 API .                     N/A:  API NUMBER
 BASE.              Azerbaijan:  LOGGING EQUIPMENT BASE LOCATION
 REGN.                   EESSA:  REGION
 PROV.                    Baku:  PROVINCE
 STAT.                    Baku:  STATE NAME
 CTRY.              Azerbaijan:  COUNTRY NAME
 FLD .                     ACG:  FIELD NAME
 SRVC.     TURAN Drilling & Engineering:  CONTRACTOR
 MWDS.                    Baku:  MWD SHOP
 WELL.                     J22:  WELL NAME
 RIG .             West Chirag:  RIG NAME
 DOE .                     N/A:  DOE NUMBER
 DCON.         Sperry Drilling:  DIRECTNL CONTR
 UNIT.                     N/A:  LOGGING EQUIPMENT ID
 PDAT.          Mean Sea Level:  PERMANENT DATUM
 JOBN.        AZ-XX-0905059384:  JOB TICKET NUMB
 CNTY.                        :  COUNTY
 LOC .                        :  LOCATION
 LMF .             Drill Floor:  LOG MEASURED FROM
 TVDS.m                  43.00:  TVDSS CORRECTN
 LATI.deg                40.13:  LATITUDE
 LONG.deg                51.22:  LONGITUDE
 WHNS.m                  10.28:  WELL HEAD N/S
 WHEW.m                  -6.24:  WELL HEAD E/W
 UTMX.m              519005.06:  UTM X
 UTMY.m             4443793.85:  UTM Y
 DFWL.m                   0.00:  DISTANCE FWL
 DFSL.m                   0.00:  DISTANCE FSL
 SDEP.m                 362.00:  START DEPTH
 TDD .m                 904.00:  TOTAL DEPTH (DRILLER)
 VSDR.deg               148.53:  VERT SEC DIRECT
 GVFD.g                   1.00:  GRAVITY FIELD
 MFLD.nT              50277.00:  MAGNETIC FIELD
 MDIP.deg                59.56:  MAGNETIC DIP
 MDEC.deg                 6.42:  MAGNETIC DECL
 GRDC.deg                 0.15:  GRID CORRECTION
 AZTC.deg                 6.27:  AZM TOTAL CORR
 EPD .m                   0.00:  ELEVATION
 EGL .m                   0.00:  GROUND ELEVATION
 WDMS.m                 169.80:  WD ELEV
 APD .m                  43.00:  DEPTH ABOVE PD
 AGAP.m                  43.00:  AIR GAP
 VSEW.m                  -6.24:  VERT SEC E/W
 VSNS.m                  10.28:  VERT SEC N/S
 DEP .m                   0.00:  DEPTH
 EKB .m                   0.00:  KB ELEVATION
 EDF .m                  43.00:  DF ELEVATION
 TDL .m                1183.00:  TOTAL DEPTH (LOGGER)
 VSC .                       0:  VS TO CLOSURE
 MAGU.                 1850021:  MAGUTM CHECKSUM
~Parameter Information Block
#MNEM.UNIT       Value        Description
#---------     -----------    ---------------------------
 AV  .mps                 4.00:  Ann Velocity 
 AVMX.mps                 4.50:  Max Ann Veloc 
 AZIF.deg               145.38:  Azm, Final 
 BHAT.        Rotary Steerable:  BHA Type 
 BROT.°/30m               3.00:  Build Rotating 
 BS  .in                 12.25:  Bit Size 
 BSZ .in                 12.25:  Bit Size 
 BTPL.psig              650.00:  Bit Press Loss 
 CABU.                      No:  Customer Abuse 
 COMM.                     T!k:  Run Comments 1 
 TCS .hr                101.62:  Time Ciculation Ended 
 CV  .mps                 5.00:  Crit Velocity 
 CVMX.mps                 5.00:  Max Crit Veloc 
 DD1 .             Aziz Aliyev:  Direct Drillr 1 
 DD2 .      Fakhraddin Guliyev:  Direct Drillr 2 
 DDSV.                 iCruise:  DD Service 
 DEFF.%                  97.00:  % Det Eff 
 DLRX.°/30m               4.16:  Dogleg Rot Max 
 DLSO.°/30m               3.20:  Dogleg Oriented 
 DLSX.°/30m               4.10:  Dogleg Str Max 
 DRET.      23.12.00 07-Feb-20:  Drill End Time 
 DRST.      11.30.00 04-Feb-20:  Drill Start Tim 
 DTIM.hr                 61.06:  Time Drilling 
 EDEP.m                3219.01:  End Depth 
 ENG1.         Almaz Almadatov:  Engineer 1 
 ENG2.         Dair Mahammadov:  Engineer 2 
 ENG3.          Nazrin Asgarli:  Engineer 3 
 ETIM.      02.30.00 11-Feb-20:  End Time 
 FLOI.gpm              1100.00:  Flow In 
 FLON.gpm               900.00:  Flow In Min 
 FLOS.cptm               55.00:  Fluid Loss 
 FLOX.gpm              1150.00:  Flow In Max 
 FTRO.       Formation Presure:  FTWD Run Obj 
 HFLO.                      No:  High Flow 
 HPRE.                      No:  High Pressure 
 HTEM.                      No:  High Temp 
 HYDO.m                   1.80:  Hydro Offset 
 IFIN.deg                75.11:  Inc, Final 
 IMAX.deg                75.11:  Inc Max 
 IMIN.deg                33.55:  Inc Min 
 IMND.m                2186.05:  Inc Min Depth 
 IMXD.m                3205.61:  Inc Max Depth 
 JARR.                      No:  Jarring 
 LETM.      23.12.00 07-Feb-20:  Log End Time 
 LOST.hr                     0:  Lost Rig Time 
 LSTM.      11.30.00 04-Feb-20:  Log Start Time 
 MDCL.ppm             40000.00:  Mud Chlorides 
 MDES.     Inversion Oil/Synthetic:  Mud Desc 
 DFD .sg                  1.49:  Mud Density 
 MDMN.sg                  1.49:  Dens Mud Min 
 MDMX.sg                  1.49:  Dens Mud Max 
 MOIL.                      73:  Run Mud Oil % 
 MOWR.                   73:27:  Run Mud OWR 
 MSND.                     0.1:  Run Mud Sand % 
 MSOL.                    20.1:  Run Mud Solids% 
 DFV .spqt               78.00:  Mud Viscosity 
 MWOD.in                  8.00:  MWD Tool OD 
 MWSI.                      No:  Serv Intrp, MWD 
 OTIM.hr                177.15:  Time Operating 
 PCON.          Wear / Scratch:  Pad Condition 
 PMAX.psia            10493.93:  Press Op, Max 
 PV  .cP                 73.00:  Mud PV 
 RUN .                     700:  Run Number 
 ROPA.m/hr               15.00:  ROP Avg 
 ROPN.m/hr               10.00:  ROP Min 
 ROPX.m/hr               35.00:  ROP Max 
 RPMA.rpm               130.00:  RPM Surface Avg 
 RPMN.rpm                80.00:  RPM Surface Min 
 RPMX.rpm               150.00:  RPM Surface Max 
 RRUN.                    L402:  Rig Run Number 
 RTIM.hr                 80.50:  Time Reaming 
 SAZI.deg               155.55:  Azm, Start 
 SDEP.m                2036.00:  Start Depth 
 SIDD.                      No:  Serv Intrp, DD 
 SINC.deg                35.44:  Inc, Start 
 SPPA.psig             4270.00:  SPP Avg 
 SPPN.psig             2800.00:  SPP Min 
 SPPX.psig             4850.00:  SPP Max 
 STIM.      09.30.00 03-Feb-20:  Start Time 
 SVCS.                 DD, MWD:  Services 
 SVER.                    9.20:  Sperry Version 
 TDAT.m                1183.00:  Tot Depth Attmp 
 TDDF.                      No:  Trip for DD 
 TDLG.m                1183.00:  Tot Depth Loggd 
 TFF .                      No:  Trip for Fail 
 TQAA.f-kp               16.00:  Torque Abs Avg 
 TQAN.f-kp               10.00:  Torque Abs Min 
 TQAX.f-kp               20.00:  Torque Abs Max 
 TRRT.°/30m               1.00:  Turn Rotating 
 MRT .                  EWR-M5:  Maximum Recorded Temperature 
 TTMX.degC               80.39:  Max Tool Temp 
 VS01.               13098498 :  Virtual Str1 SN 
 VS02.                90569596:  Virtual Str2 SN 
 VS03.                90523599:  Virtual Str3 SN 
 VS04.                90573553:  Virtual Str4 SN 
 VS05.                90598598:  Virtual Str5 SN 
 VS06.                90577297:  Virtual Str6 SN 
 WBMN.klb                13.00:  WOB Min 
 WITN.         Alistair Sprott:  Customer Rep 
 WITN.           Rufat Babayev:  Customer Rep 2 
 WOBA.klb                15.00:  WOB Avg 
 WOBX.klb                20.00:  WOB Max 
 YP  .lhf2               39.00:  Yield Point 
~Curve Information Block
#MNEM.UNIT                 API CODE     Curve Description
#---------               -----------    ---------------------------
 TIME.HHMMSS            00 000 000 000:  GT Time & Date
 GTDEPTH.m              00 000 000 000:  GT Depth
 GTPQH.psia             00 000 000 000:  GT HR Quartz Pressure
 GTTQ.degC              00 000 000 000:  GT Quartz Temperature
 GTTN.NONE              00 000 000 000:  GT Test Number
 GTET.sec               00 000 000 000:  GT Elapsed Test Time
 GTTVD.m                00 000 000 000:  GT True Vertical Depth
#Other Information
#
#WARRANTY: Halliburton will use its best efforts to furnish customers with 
#accurate information and interpretations that are part of, and incident to, the services 
#provided.  However, Halliburton cannot and does not warrant the accuracy 
#or correctness of such information and interpretations.  Under no circumstances should any 
#such information or interpretation be relied upon as the sole basis for any drilling, 
#completion, production, or financial decision or any procedure involving any risk to the 
#safety of any drilling venture, drilling rig or its crew or any other third party.  The 
#Customer has full responsibility for all drilling, completion and production operation.  
#Halliburton makes no representations or warranties, either expressed or 
#implied, including, but not limited to, the implied warranties of merchantability or fitness 
#for a particular purpose, with respect to the services rendered.  In no event will 
#Halliburton be liable for failure to obtain any particular results or for 
#any damages, including, but not limited to, indirect, special or consequential damages, 
#resulting from the use of any information or interpretation provided by Halliburton.
#
~A           TIME           GTDEPTH  GTPQH  GTTQ  GTTN  GTET   GTTVD  
# ...
   09:10:30.775.08-Feb-2020 3153.21 4822.63 69.88 3.00 138.01 2652.75
   09:10:30.975.08-Feb-2020 3153.21 4822.63 69.88 3.00 138.21 2652.75
   09:10:31.175.08-Feb-2020 3153.21 4823.39 69.88 3.00 138.41 2652.75
   09:10:31.375.08-Feb-2020 3153.21 4823.10 69.88 3.00 138.61 2652.75
   09:10:31.575.08-Feb-2020 3153.21 4822.93 69.88 3.00 138.81 2652.75
   09:10:31.775.08-Feb-2020 3153.21 4823.19 69.88 3.00 139.01 2652.75
   09:10:31.975.08-Feb-2020 3153.21 4823.19 69.88 3.00 139.21 2652.75
   09:10:32.175.08-Feb-2020 3153.21 4823.09 69.88 3.00 139.41 2652.75
   09:10:32.375.08-Feb-2020 3153.21 4823.05 69.88 3.00 139.61 2652.75
   09:10:32.575.08-Feb-2020 3153.21 4823.61 69.88 3.00 139.81 2652.75
   09:10:32.775.08-Feb-2020 3153.21 4822.34 69.88 3.00 140.01 2652.75
   09:10:32.975.08-Feb-2020 3153.21 4822.34 69.88 3.00 140.21 2652.75
   09:10:33.175.08-Feb-2020 3153.21 4822.90 69.88 3.00 140.41 2652.75
   09:10:33.375.08-Feb-2020 3153.21 4822.87 69.88 3.00 140.61 2652.75
   09:10:33.575.08-Feb-2020 3153.21 4822.85 69.88 3.00 140.81 2652.75
   09:10:33.775.08-Feb-2020 3153.21 4822.74 69.88 3.00 141.01 2652.75
   09:10:33.975.08-Feb-2020 3153.21 4822.74 69.88 3.00 141.21 2652.75
   09:10:34.176.08-Feb-2020 3153.21 4823.22 69.88 3.00 141.41 2652.75
   09:10:34.376.08-Feb-2020 3153.21 4822.87 69.88 3.00 141.61 2652.75
   09:10:34.576.08-Feb-2020 3153.21 4823.01 69.88 3.00 141.81 2652.75
   09:10:34.776.08-Feb-2020 3153.21 4822.92 69.88 3.00 142.01 2652.75
   09:10:34.976.08-Feb-2020 3153.21 4822.92 69.88 3.00 142.21 2652.75
   09:10:35.176.08-Feb-2020 3153.21 4823.26 69.88 3.00 142.41 2652.75
   09:10:35.376.08-Feb-2020 3153.21 4822.46 69.88 3.00 142.61 2652.75
   09:10:35.576.08-Feb-2020 3153.21 4823.19 69.87 3.00 142.81 2652.75
   09:10:35.776.08-Feb-2020 3153.21 4823.65 69.87 3.00 143.01 2652.75
   09:10:35.976.08-Feb-2020 3153.21 4823.65 69.87 3.00 143.21 2652.75
   09:10:36.176.08-Feb-2020 3153.21 4822.79 69.87 3.00 143.41 2652.75
   09:10:36.376.08-Feb-2020 3153.21 4823.24 69.87 3.00 143.61 2652.75
   09:10:36.576.08-Feb-2020 3153.21 4822.85 69.87 3.00 143.81 2652.75
   09:10:36.776.08-Feb-2020 3153.21 4823.20 69.87 3.00 144.01 2652.75
   09:10:36.976.08-Feb-2020 3153.21 4823.20 69.87 3.00 144.21 2652.75
   09:10:37.176.08-Feb-2020 3153.21 4822.75 69.87 3.00 144.41 2652.75
   09:10:37.376.08-Feb-2020 3153.21 4822.93 69.87 3.00 144.61 2652.75
   09:10:37.576.08-Feb-2020 3153.21 4823.04 69.87 3.00 144.81 2652.75
   09:10:37.776.08-Feb-2020 3153.21 4823.00 69.87 3.00 145.01 2652.75
   09:10:37.976.08-Feb-2020 3153.21 4823.00 69.87 3.00 145.21 2652.75
   09:10:38.176.08-Feb-2020 3153.21 4823.25 69.87 3.00 145.41 2652.75
   09:10:38.376.08-Feb-2020 3153.21 4822.44 69.87 3.00 145.61 2652.75
   09:10:38.576.08-Feb-2020 3153.21 4823.35 69.87 3.00 145.81 2652.75
   09:10:38.776.08-Feb-2020 3153.21 4823.36 69.87 3.00 146.01 2652.75
   09:10:38.976.08-Feb-2020 3153.21 4823.36 69.87 3.00 146.21 2652.75
   09:10:39.176.08-Feb-2020 3153.21 4823.25 69.87 3.00 146.41 2652.75
   09:10:39.376.08-Feb-2020 3153.21 4823.15 69.87 3.00 146.61 2652.75
   09:10:39.576.08-Feb-2020 3153.21 4822.92 69.87 3.00 146.81 2652.75
   09:10:39.776.08-Feb-2020 3153.21 4823.06 69.87 3.00 147.01 2652.75
   09:10:39.976.08-Feb-2020 3153.21 4823.06 69.87 3.00 147.21 2652.75
   09:10:40.176.08-Feb-2020 3153.21 4822.09 69.87 3.00 147.41 2652.75
   09:10:40.376.08-Feb-2020 3153.21 4822.92 69.87 3.00 147.61 2652.75
   09:10:40.576.08-Feb-2020 3153.21 4824.05 69.87 3.00 147.81 2652.75
   09:10:40.776.08-Feb-2020 3153.21 4821.77 69.87 3.00 148.01 2652.75
   09:10:40.976.08-Feb-2020 3153.21 4821.77 69.87 3.00 148.21 2652.75
   09:10:41.176.08-Feb-2020 3153.21 4822.95 69.87 3.00 148.41 2652.75
   09:10:41.376.08-Feb-2020 3153.21 4823.77 69.87 3.00 148.61 2652.75
   09:10:41.576.08-Feb-2020 3153.21 4822.68 69.87 3.00 148.81 2652.75
   09:10:41.776.08-Feb-2020 3153.21 4823.15 69.87 3.00 149.01 2652.75
   09:10:41.976.08-Feb-2020 3153.21 4823.15 69.87 3.00 149.21 2652.75
   09:10:42.176.08-Feb-2020 3153.21 4822.98 69.87 3.00 149.41 2652.75
   09:10:42.376.08-Feb-2020 3153.21 4823.60 69.87 3.00 149.61 2652.75
   09:10:42.576.08-Feb-2020 3153.21 4822.89 69.87 3.00 149.81 2652.75
   09:10:42.776.08-Feb-2020 3153.21 4822.93 69.87 3.00 150.01 2652.75
   09:10:42.976.08-Feb-2020 3153.21 4822.93 69.87 3.00 150.21 2652.75
   09:10:43.176.08-Feb-2020 3153.21 4823.54 69.87 3.00 150.41 2652.75
   09:10:43.376.08-Feb-2020 3153.21 4823.36 69.87 3.00 150.61 2652.75
   09:10:43.576.08-Feb-2020 3153.21 4822.80 69.87 3.00 150.81 2652.75
   09:10:43.776.08-Feb-2020 3153.21 4823.74 69.87 3.00 151.01 2652.75
   09:10:43.976.08-Feb-2020 3153.21 4823.74 69.87 3.00 151.21 2652.75
   09:10:44.176.08-Feb-2020 3153.21 4822.94 69.87 3.00 151.41 2652.75
   09:10:44.376.08-Feb-2020 3153.21 4823.45 69.87 3.00 151.61 2652.75
   09:10:44.576.08-Feb-2020 3153.21 4823.09 69.87 3.00 151.81 2652.75
   09:10:44.776.08-Feb-2020 3153.21 4822.80 69.87 3.00 152.01 2652.75
   09:10:44.976.08-Feb-2020 3153.21 4822.80 69.87 3.00 152.21 2652.75
   09:10:45.176.08-Feb-2020 3153.21 4823.07 69.87 3.00 152.41 2652.75
   09:10:45.376.08-Feb-2020 3153.21 4823.36 69.87 3.00 152.61 2652.75
   09:10:45.576.08-Feb-2020 3153.21 4823.09 69.87 3.00 152.81 2652.75
   09:10:45.776.08-Feb-2020 3153.21 4823.00 69.87 3.00 153.01 2652.75
   09:10:45.976.08-Feb-2020 3153.21 4823.00 69.87 3.00 153.21 2652.75
   09:10:46.177.08-Feb-2020 3153.21 4823.27 69.87 3.00 153.41 2652.75
   09:10:46.377.08-Feb-2020 3153.21 4823.02 69.87 3.00 153.61 2652.75
   09:10:46.577.08-Feb-2020 3153.21 4822.84 69.87 3.00 153.81 2652.75
   09:10:46.777.08-Feb-2020 3153.21 4823.22 69.87 3.00 154.01 2652.75
   09:10:46.977.08-Feb-2020 3153.21 4823.22 69.87 3.00 154.21 2652.75
   09:10:47.177.08-Feb-2020 3153.21 4822.80 69.87 3.00 154.41 2652.75
   09:10:47.377.08-Feb-2020 3153.21 4823.26 69.87 3.00 154.61 2652.75
   09:10:47.577.08-Feb-2020 3153.21 4822.99 69.87 3.00 154.81 2652.75
   09:10:47.777.08-Feb-2020 3153.21 4822.35 69.87 3.00 155.01 2652.75
   09:10:47.977.08-Feb-2020 3153.21 4822.35 69.87 3.00 155.21 2652.75
   09:10:48.177.08-Feb-2020 3153.21 4822.46 69.87 3.00 155.41 2652.75
   09:10:48.377.08-Feb-2020 3153.21 4822.57 69.87 3.00 155.61 2652.75
   09:10:48.577.08-Feb-2020 3153.21 4823.08 69.87 3.00 155.81 2652.75
   09:10:48.777.08-Feb-2020 3153.21 4823.55 69.87 3.00 156.01 2652.75
   09:10:48.977.08-Feb-2020 3153.21 4823.55 69.87 3.00 156.21 2652.75
   09:10:49.177.08-Feb-2020 3153.21 4823.01 69.87 3.00 156.41 2652.75
   09:10:49.377.08-Feb-2020 3153.21 4822.94 69.87 3.00 156.61 2652.75
   09:10:49.577.08-Feb-2020 3153.21 4822.85 69.87 3.00 156.81 2652.75
   09:10:49.777.08-Feb-2020 3153.21 4652.38 69.87 3.00 157.01 2652.75
   09:10:49.977.08-Feb-2020 3153.21 4652.38 69.87 3.00 157.21 2652.75
   09:10:50.177.08-Feb-2020 3153.21 4362.62 69.87 3.00 157.41 2652.75
   09:10:50.377.08-Feb-2020 3153.21 4332.41 69.87 3.00 157.61 2652.75
   09:10:50.577.08-Feb-2020 3153.21 4317.55 69.87 3.00 157.81 2652.75
   09:10:50.777.08-Feb-2020 3153.21 4311.83 69.87 3.00 158.01 2652.75
   09:10:50.977.08-Feb-2020 3153.21 4311.83 69.87 3.00 158.21 2652.75
   09:10:51.177.08-Feb-2020 3153.21 4307.04 69.87 3.00 158.41 2652.75
   09:10:51.377.08-Feb-2020 3153.21 4308.06 69.87 3.00 158.61 2652.75
   09:10:51.577.08-Feb-2020 3153.21 4308.48 69.87 3.00 158.81 2652.75
   09:10:51.777.08-Feb-2020 3153.21 4310.05 69.87 3.00 159.01 2652.75
   09:10:51.977.08-Feb-2020 3153.21 4310.05 69.87 3.00 159.21 2652.75
   09:10:52.177.08-Feb-2020 3153.21 4312.09 69.87 3.00 159.41 2652.75
   09:10:52.377.08-Feb-2020 3153.21 4312.84 69.86 3.00 159.61 2652.75
   09:10:52.577.08-Feb-2020 3153.21 4314.84 69.86 3.00 159.81 2652.75
   09:10:52.777.08-Feb-2020 3153.21 4317.20 69.86 3.00 160.01 2652.75
   09:10:52.977.08-Feb-2020 3153.21 4317.20 69.86 3.00 160.21 2652.75
   09:10:53.177.08-Feb-2020 3153.21 4319.39 69.86 3.00 160.41 2652.75
   09:10:53.377.08-Feb-2020 3153.21 4320.54 69.86 3.00 160.61 2652.75
   09:10:53.577.08-Feb-2020 3153.21 4320.74 69.86 3.00 160.81 2652.75
