~Version Information
 VERS.                  2.0:   CWLS log ASCII Standard -VERSION 2.0
 WRAP.                   NO:   One line per depth step
~Well Information Block
#MNEM.UNIT     VALUE/NAME     DESCRIPTION
#---------     -----------    ---------------------------
 STRT.S             11:02:51 08-Feb-20: START TIME 11:02:51 08-Feb-20
 STOP.S             11:09:43 08-Feb-20: STOP TIME  11:09:43 08-Feb-20
 STEP.S                   0.00: STEP TIME
 NULL.                 -999.25: NULL VALUE
 DFWT.                        :  DIST FWL TEXT
 DFST.                        :  DIST FSL TEXT
 DMF .             Drill Floor:  DRILL MEAS FROM
 STIM.      07.00.00 09-Jan-20:  START TIME
 DATE.      14.04.48 07-Feb-20:  END TIME
 SPUD.               09-Jan-20:  SPUD DATE
 NREF.                    Grid:  NORTH REFERENCE
 HPTY.       Minimum Curvature:  HOLE POS TYPE
 DMOD.             Drill Model:  DRILL MOD DESC
 SVYD.                  Survey:  SURVEY DESC
 ILTD.               Lithology:  INTERP LTH DESC
 FTOP.          Formation Tops:  FORM TOPS DESC
 SON .        AZ-XX-0905059384:  JOB NUMBER
 MDS .        Operator Entered:  MAG DATA SOURCE
 WTYP.                Deviated:  WELL TYPE
 COMP.     BP Exploration (Caspian Sea) Ltd.:  COMPANY
 UWI .                     N/A:  UNIQUE WELL IDENTIFIER
 API .                     N/A:  API NUMBER
 BASE.              Azerbaijan:  LOGGING EQUIPMENT BASE LOCATION
 REGN.                   EESSA:  REGION
 PROV.                    Baku:  PROVINCE
 STAT.                    Baku:  STATE NAME
 CTRY.              Azerbaijan:  COUNTRY NAME
 FLD .                     ACG:  FIELD NAME
 SRVC.     TURAN Drilling & Engineering:  CONTRACTOR
 MWDS.                    Baku:  MWD SHOP
 WELL.                     J22:  WELL NAME
 RIG .             West Chirag:  RIG NAME
 DOE .                     N/A:  DOE NUMBER
 DCON.         Sperry Drilling:  DIRECTNL CONTR
 UNIT.                     N/A:  LOGGING EQUIPMENT ID
 PDAT.          Mean Sea Level:  PERMANENT DATUM
 JOBN.        AZ-XX-0905059384:  JOB TICKET NUMB
 CNTY.                        :  COUNTY
 LOC .                        :  LOCATION
 LMF .             Drill Floor:  LOG MEASURED FROM
 TVDS.m                  43.00:  TVDSS CORRECTN
 LATI.deg                40.13:  LATITUDE
 LONG.deg                51.22:  LONGITUDE
 WHNS.m                  10.28:  WELL HEAD N/S
 WHEW.m                  -6.24:  WELL HEAD E/W
 UTMX.m              519005.06:  UTM X
 UTMY.m             4443793.85:  UTM Y
 DFWL.m                   0.00:  DISTANCE FWL
 DFSL.m                   0.00:  DISTANCE FSL
 SDEP.m                 362.00:  START DEPTH
 TDD .m                 904.00:  TOTAL DEPTH (DRILLER)
 VSDR.deg               148.53:  VERT SEC DIRECT
 GVFD.g                   1.00:  GRAVITY FIELD
 MFLD.nT              50277.00:  MAGNETIC FIELD
 MDIP.deg                59.56:  MAGNETIC DIP
 MDEC.deg                 6.42:  MAGNETIC DECL
 GRDC.deg                 0.15:  GRID CORRECTION
 AZTC.deg                 6.27:  AZM TOTAL CORR
 EPD .m                   0.00:  ELEVATION
 EGL .m                   0.00:  GROUND ELEVATION
 WDMS.m                 169.80:  WD ELEV
 APD .m                  43.00:  DEPTH ABOVE PD
 AGAP.m                  43.00:  AIR GAP
 VSEW.m                  -6.24:  VERT SEC E/W
 VSNS.m                  10.28:  VERT SEC N/S
 DEP .m                   0.00:  DEPTH
 EKB .m                   0.00:  KB ELEVATION
 EDF .m                  43.00:  DF ELEVATION
 TDL .m                1183.00:  TOTAL DEPTH (LOGGER)
 VSC .                       0:  VS TO CLOSURE
 MAGU.                 1850021:  MAGUTM CHECKSUM
~Parameter Information Block
#MNEM.UNIT       Value        Description
#---------     -----------    ---------------------------
 AV  .mps                 4.00:  Ann Velocity 
 AVMX.mps                 4.50:  Max Ann Veloc 
 AZIF.deg               145.38:  Azm, Final 
 BHAT.        Rotary Steerable:  BHA Type 
 BROT.°/30m               3.00:  Build Rotating 
 BS  .in                 12.25:  Bit Size 
 BSZ .in                 12.25:  Bit Size 
 BTPL.psig              650.00:  Bit Press Loss 
 CABU.                      No:  Customer Abuse 
 COMM.                     Ä%€:  Run Comments 1 
 TCS .hr                101.62:  Time Ciculation Ended 
 CV  .mps                 5.00:  Crit Velocity 
 CVMX.mps                 5.00:  Max Crit Veloc 
 DD1 .             Aziz Aliyev:  Direct Drillr 1 
 DD2 .      Fakhraddin Guliyev:  Direct Drillr 2 
 DDSV.                 iCruise:  DD Service 
 DEFF.%                  97.00:  % Det Eff 
 DLRX.°/30m               4.16:  Dogleg Rot Max 
 DLSO.°/30m               3.20:  Dogleg Oriented 
 DLSX.°/30m               4.10:  Dogleg Str Max 
 DRET.      23.12.00 07-Feb-20:  Drill End Time 
 DRST.      11.30.00 04-Feb-20:  Drill Start Tim 
 DTIM.hr                 61.06:  Time Drilling 
 EDEP.m                3219.01:  End Depth 
 ENG1.         Almaz Almadatov:  Engineer 1 
 ENG2.         Dair Mahammadov:  Engineer 2 
 ENG3.          Nazrin Asgarli:  Engineer 3 
 ETIM.      02.30.00 11-Feb-20:  End Time 
 FLOI.gpm              1100.00:  Flow In 
 FLON.gpm               900.00:  Flow In Min 
 FLOS.cptm               55.00:  Fluid Loss 
 FLOX.gpm              1150.00:  Flow In Max 
 FTRO.       Formation Presure:  FTWD Run Obj 
 HFLO.                      No:  High Flow 
 HPRE.                      No:  High Pressure 
 HTEM.                      No:  High Temp 
 HYDO.m                   1.80:  Hydro Offset 
 IFIN.deg                75.11:  Inc, Final 
 IMAX.deg                75.11:  Inc Max 
 IMIN.deg                33.55:  Inc Min 
 IMND.m                2186.05:  Inc Min Depth 
 IMXD.m                3205.61:  Inc Max Depth 
 JARR.                      No:  Jarring 
 LETM.      23.12.00 07-Feb-20:  Log End Time 
 LOST.hr                     0:  Lost Rig Time 
 LSTM.      11.30.00 04-Feb-20:  Log Start Time 
 MDCL.ppm             40000.00:  Mud Chlorides 
 MDES.     Inversion Oil/Synthetic:  Mud Desc 
 DFD .sg                  1.49:  Mud Density 
 MDMN.sg                  1.49:  Dens Mud Min 
 MDMX.sg                  1.49:  Dens Mud Max 
 MOIL.                      73:  Run Mud Oil % 
 MOWR.                   73:27:  Run Mud OWR 
 MSND.                     0.1:  Run Mud Sand % 
 MSOL.                    20.1:  Run Mud Solids% 
 DFV .spqt               78.00:  Mud Viscosity 
 MWOD.in                  8.00:  MWD Tool OD 
 MWSI.                      No:  Serv Intrp, MWD 
 OTIM.hr                177.15:  Time Operating 
 PCON.          Wear / Scratch:  Pad Condition 
 PMAX.psia            10493.93:  Press Op, Max 
 PV  .cP                 73.00:  Mud PV 
 RUN .                     700:  Run Number 
 ROPA.m/hr               15.00:  ROP Avg 
 ROPN.m/hr               10.00:  ROP Min 
 ROPX.m/hr               35.00:  ROP Max 
 RPMA.rpm               130.00:  RPM Surface Avg 
 RPMN.rpm                80.00:  RPM Surface Min 
 RPMX.rpm               150.00:  RPM Surface Max 
 RRUN.                    L402:  Rig Run Number 
 RTIM.hr                 80.50:  Time Reaming 
 SAZI.deg               155.55:  Azm, Start 
 SDEP.m                2036.00:  Start Depth 
 SIDD.                      No:  Serv Intrp, DD 
 SINC.deg                35.44:  Inc, Start 
 SPPA.psig             4270.00:  SPP Avg 
 SPPN.psig             2800.00:  SPP Min 
 SPPX.psig             4850.00:  SPP Max 
 STIM.      09.30.00 03-Feb-20:  Start Time 
 SVCS.                 DD, MWD:  Services 
 SVER.                    9.20:  Sperry Version 
 TDAT.m                1183.00:  Tot Depth Attmp 
 TDDF.                      No:  Trip for DD 
 TDLG.m                1183.00:  Tot Depth Loggd 
 TFF .                      No:  Trip for Fail 
 TQAA.f-kp               16.00:  Torque Abs Avg 
 TQAN.f-kp               10.00:  Torque Abs Min 
 TQAX.f-kp               20.00:  Torque Abs Max 
 TRRT.°/30m               1.00:  Turn Rotating 
 MRT .                  EWR-M5:  Maximum Recorded Temperature 
 TTMX.degC               80.39:  Max Tool Temp 
 VS01.               13098498 :  Virtual Str1 SN 
 VS02.                90569596:  Virtual Str2 SN 
 VS03.                90523599:  Virtual Str3 SN 
 VS04.                90573553:  Virtual Str4 SN 
 VS05.                90598598:  Virtual Str5 SN 
 VS06.                90577297:  Virtual Str6 SN 
 WBMN.klb                13.00:  WOB Min 
 WITN.         Alistair Sprott:  Customer Rep 
 WITN.           Rufat Babayev:  Customer Rep 2 
 WOBA.klb                15.00:  WOB Avg 
 WOBX.klb                20.00:  WOB Max 
 YP  .lhf2               39.00:  Yield Point 
~Curve Information Block
#MNEM.UNIT                 API CODE     Curve Description
#---------               -----------    ---------------------------
 TIME.HHMMSS            00 000 000 000:  GT Time & Date
 GTDEPTH.m              00 000 000 000:  GT Depth
 GTPQH.psia             00 000 000 000:  GT HR Quartz Pressure
 GTTQ.degC              00 000 000 000:  GT Quartz Temperature
 GTTN.NONE              00 000 000 000:  GT Test Number
 GTET.sec               00 000 000 000:  GT Elapsed Test Time
 GTTVD.m                00 000 000 000:  GT True Vertical Depth
#Other Information
#
#WARRANTY: Halliburton will use its best efforts to furnish customers with 
#accurate information and interpretations that are part of, and incident to, the services 
#provided.  However, Halliburton cannot and does not warrant the accuracy 
#or correctness of such information and interpretations.  Under no circumstances should any 
#such information or interpretation be relied upon as the sole basis for any drilling, 
#completion, production, or financial decision or any procedure involving any risk to the 
#safety of any drilling venture, drilling rig or its crew or any other third party.  The 
#Customer has full responsibility for all drilling, completion and production operation.  
#Halliburton makes no representations or warranties, either expressed or 
#implied, including, but not limited to, the implied warranties of merchantability or fitness 
#for a particular purpose, with respect to the services rendered.  In no event will 
#Halliburton be liable for failure to obtain any particular results or for 
#any damages, including, but not limited to, indirect, special or consequential damages, 
#resulting from the use of any information or interpretation provided by Halliburton.
#
~A           TIME           GTDEPTH  GTPQH  GTTQ  GTTN  GTET   GTTVD  
# ...
   11:08:13.610.08-Feb-2020 3115.78 4584.26 66.92 6.00 322.17 2642.62
   11:08:13.810.08-Feb-2020 3115.78 4584.26 66.92 6.00 322.37 2642.62
   11:08:14.010.08-Feb-2020 3115.78 4582.89 66.92 6.00 322.57 2642.62
   11:08:14.210.08-Feb-2020 3115.78 4584.08 66.92 6.00 322.77 2642.62
   11:08:14.410.08-Feb-2020 3115.78 4583.41 66.92 6.00 322.97 2642.62
   11:08:14.610.08-Feb-2020 3115.78 4583.02 66.92 6.00 323.17 2642.62
   11:08:14.810.08-Feb-2020 3115.78 4583.02 66.92 6.00 323.37 2642.62
   11:08:15.010.08-Feb-2020 3115.78 4584.03 66.92 6.00 323.57 2642.62
   11:08:15.211.08-Feb-2020 3115.78 4582.84 66.92 6.00 323.77 2642.62
   11:08:15.411.08-Feb-2020 3115.78 4583.30 66.92 6.00 323.97 2642.62
   11:08:15.611.08-Feb-2020 3115.78 4583.99 66.92 6.00 324.17 2642.62
   11:08:15.811.08-Feb-2020 3115.78 4583.99 66.92 6.00 324.37 2642.62
   11:08:16.011.08-Feb-2020 3115.78 4583.95 66.92 6.00 324.57 2642.62
   11:08:16.211.08-Feb-2020 3115.78 4583.20 66.92 6.00 324.77 2642.62
   11:08:16.411.08-Feb-2020 3115.78 4583.17 66.92 6.00 324.97 2642.62
   11:08:16.611.08-Feb-2020 3115.78 4584.09 66.92 6.00 325.17 2642.62
   11:08:16.811.08-Feb-2020 3115.78 4584.09 66.92 6.00 325.37 2642.62
   11:08:17.011.08-Feb-2020 3115.78 4584.60 66.92 6.00 325.57 2642.62
   11:08:17.212.08-Feb-2020 3115.78 4583.28 66.91 6.00 325.77 2642.62
   11:08:17.412.08-Feb-2020 3115.78 4583.62 66.91 6.00 325.97 2642.62
   11:08:17.612.08-Feb-2020 3115.78 4584.52 66.91 6.00 326.17 2642.62
   11:08:17.812.08-Feb-2020 3115.78 4584.52 66.91 6.00 326.37 2642.62
   11:08:18.012.08-Feb-2020 3115.78 4583.73 66.91 6.00 326.57 2642.62
   11:08:18.212.08-Feb-2020 3115.78 4584.04 66.91 6.00 326.77 2642.62
   11:08:18.412.08-Feb-2020 3115.78 4584.35 66.91 6.00 326.97 2642.62
   11:08:18.612.08-Feb-2020 3115.78 4584.32 66.91 6.00 327.17 2642.62
   11:08:18.812.08-Feb-2020 3115.78 4584.32 66.91 6.00 327.37 2642.62
   11:08:19.013.08-Feb-2020 3115.78 4584.01 66.91 6.00 327.57 2642.62
   11:08:19.213.08-Feb-2020 3115.78 4585.34 66.91 6.00 327.77 2642.62
   11:08:19.413.08-Feb-2020 3115.78 4584.41 66.91 6.00 327.97 2642.62
   11:08:19.613.08-Feb-2020 3115.78 4583.85 66.91 6.00 328.17 2642.62
   11:08:19.813.08-Feb-2020 3115.78 4583.85 66.91 6.00 328.37 2642.62
   11:08:20.013.08-Feb-2020 3115.78 4584.91 66.91 6.00 328.57 2642.62
   11:08:20.213.08-Feb-2020 3115.78 4584.77 66.91 6.00 328.77 2642.62
   11:08:20.413.08-Feb-2020 3115.78 4585.22 66.91 6.00 328.97 2642.62
   11:08:20.613.08-Feb-2020 3115.78 4585.09 66.91 6.00 329.17 2642.62
   11:08:20.813.08-Feb-2020 3115.78 4585.09 66.91 6.00 329.37 2642.62
   11:08:21.014.08-Feb-2020 3115.78 4585.51 66.91 6.00 329.57 2642.62
   11:08:21.214.08-Feb-2020 3115.78 4584.35 66.91 6.00 329.77 2642.62
   11:08:21.414.08-Feb-2020 3115.78 4584.07 66.91 6.00 329.97 2642.62
   11:08:21.614.08-Feb-2020 3115.78 4585.57 66.91 6.00 330.17 2642.62
   11:08:21.814.08-Feb-2020 3115.78 4585.57 66.91 6.00 330.37 2642.62
   11:08:22.014.08-Feb-2020 3115.78 4584.03 66.91 6.00 330.57 2642.62
   11:08:22.214.08-Feb-2020 3115.78 4584.45 66.91 6.00 330.77 2642.62
   11:08:22.414.08-Feb-2020 3115.78 4584.88 66.91 6.00 330.97 2642.62
   11:08:22.614.08-Feb-2020 3115.78 4584.91 66.91 6.00 331.17 2642.62
   11:08:22.815.08-Feb-2020 3115.78 4584.91 66.91 6.00 331.37 2642.62
   11:08:23.015.08-Feb-2020 3115.78 4585.09 66.91 6.00 331.57 2642.62
   11:08:23.215.08-Feb-2020 3115.78 4584.95 66.91 6.00 331.77 2642.62
   11:08:23.415.08-Feb-2020 3115.78 4583.92 66.91 6.00 331.97 2642.62
   11:08:23.615.08-Feb-2020 3115.78 4584.32 66.91 6.00 332.17 2642.62
   11:08:23.815.08-Feb-2020 3115.78 4584.32 66.91 6.00 332.37 2642.62
   11:08:24.015.08-Feb-2020 3115.78 4584.71 66.91 6.00 332.57 2642.62
   11:08:24.215.08-Feb-2020 3115.78 4583.11 66.90 6.00 332.77 2642.62
   11:08:24.415.08-Feb-2020 3115.78 4583.32 66.90 6.00 332.97 2642.62
   11:08:24.615.08-Feb-2020 3115.78 4583.89 66.90 6.00 333.17 2642.62
   11:08:24.816.08-Feb-2020 3115.78 4583.89 66.90 6.00 333.37 2642.62
   11:08:25.016.08-Feb-2020 3115.78 4584.25 66.90 6.00 333.57 2642.62
   11:08:25.216.08-Feb-2020 3115.78 4583.79 66.90 6.00 333.77 2642.62
   11:08:25.416.08-Feb-2020 3115.78 4584.45 66.90 6.00 333.97 2642.62
   11:08:25.616.08-Feb-2020 3115.78 4584.58 66.90 6.00 334.17 2642.62
   11:08:25.816.08-Feb-2020 3115.78 4584.58 66.90 6.00 334.37 2642.62
   11:08:26.016.08-Feb-2020 3115.78 4584.16 66.90 6.00 334.57 2642.62
   11:08:26.216.08-Feb-2020 3115.78 4584.67 66.90 6.00 334.77 2642.62
   11:08:26.416.08-Feb-2020 3115.78 4584.71 66.90 6.00 334.98 2642.62
   11:08:26.616.08-Feb-2020 3115.78 4584.45 66.90 6.00 335.18 2642.62
   11:08:26.817.08-Feb-2020 3115.78 4584.45 66.90 6.00 335.38 2642.62
   11:08:27.017.08-Feb-2020 3115.78 4584.75 66.90 6.00 335.58 2642.62
   11:08:27.217.08-Feb-2020 3115.78 4584.91 66.90 6.00 335.78 2642.62
   11:08:27.417.08-Feb-2020 3115.78 4584.11 66.90 6.00 335.98 2642.62
   11:08:27.617.08-Feb-2020 3115.78 4584.26 66.90 6.00 336.18 2642.62
   11:08:27.817.08-Feb-2020 3115.78 4584.67 66.90 6.00 336.38 2642.62
   11:08:28.017.08-Feb-2020 3115.78 4584.66 66.90 6.00 336.58 2642.62
   11:08:28.217.08-Feb-2020 3115.78 4584.39 66.90 6.00 336.78 2642.62
   11:08:28.417.08-Feb-2020 3115.78 4585.51 66.90 6.00 336.98 2642.62
   11:08:28.618.08-Feb-2020 3115.78 4583.34 66.90 6.00 337.18 2642.62
   11:08:28.818.08-Feb-2020 3115.78 4583.34 66.90 6.00 337.38 2642.62
   11:08:29.018.08-Feb-2020 3115.78 4585.28 66.90 6.00 337.58 2642.62
   11:08:29.218.08-Feb-2020 3115.78 4583.90 66.90 6.00 337.78 2642.62
   11:08:29.418.08-Feb-2020 3115.78 4584.29 66.90 6.00 337.98 2642.62
   11:08:29.618.08-Feb-2020 3115.78 4584.47 66.90 6.00 338.18 2642.62
   11:08:29.818.08-Feb-2020 3115.78 4584.47 66.90 6.00 338.38 2642.62
   11:08:30.018.08-Feb-2020 3115.78 4582.87 66.90 6.00 338.58 2642.62
   11:08:30.218.08-Feb-2020 3115.78 4584.39 66.90 6.00 338.78 2642.62
   11:08:30.418.08-Feb-2020 3115.78 4583.67 66.90 6.00 338.98 2642.62
   11:08:30.619.08-Feb-2020 3115.78 4582.85 66.90 6.00 339.18 2642.62
   11:08:30.819.08-Feb-2020 3115.78 4582.85 66.90 6.00 339.38 2642.62
   11:08:31.019.08-Feb-2020 3115.78 4585.62 66.90 6.00 339.58 2642.62
   11:08:31.219.08-Feb-2020 3115.78 4584.27 66.90 6.00 339.78 2642.62
   11:08:31.419.08-Feb-2020 3115.78 4584.20 66.90 6.00 339.98 2642.62
   11:08:31.619.08-Feb-2020 3115.78 4582.26 66.89 6.00 340.18 2642.62
   11:08:31.819.08-Feb-2020 3115.78 4582.26 66.89 6.00 340.38 2642.62
   11:08:32.019.08-Feb-2020 3115.78 4584.16 66.89 6.00 340.58 2642.62
   11:08:32.219.08-Feb-2020 3115.78 4583.60 66.89 6.00 340.78 2642.62
   11:08:32.420.08-Feb-2020 3115.78 4583.62 66.89 6.00 340.98 2642.62
   11:08:32.620.08-Feb-2020 3115.78 4584.38 66.89 6.00 341.18 2642.62
   11:08:32.820.08-Feb-2020 3115.78 4584.38 66.89 6.00 341.38 2642.62
   11:08:33.020.08-Feb-2020 3115.78 4584.19 66.89 6.00 341.58 2642.62
   11:08:33.220.08-Feb-2020 3115.78 4584.18 66.89 6.00 341.78 2642.62
   11:08:33.420.08-Feb-2020 3115.78 4584.47 66.89 6.00 341.98 2642.62
   11:08:33.620.08-Feb-2020 3115.78 4585.84 66.89 6.00 342.18 2642.62
   11:08:33.820.08-Feb-2020 3115.78 4585.84 66.89 6.00 342.38 2642.62
   11:08:34.020.08-Feb-2020 3115.78 4583.80 66.89 6.00 342.58 2642.62
   11:08:34.220.08-Feb-2020 3115.78 4584.84 66.89 6.00 342.78 2642.62
   11:08:34.421.08-Feb-2020 3115.78 4584.85 66.89 6.00 342.98 2642.62
   11:08:34.621.08-Feb-2020 3115.78 4584.08 66.89 6.00 343.18 2642.62
   11:08:34.821.08-Feb-2020 3115.78 4584.08 66.89 6.00 343.38 2642.62
   11:08:35.021.08-Feb-2020 3115.78 4584.67 66.89 6.00 343.58 2642.62
   11:08:35.221.08-Feb-2020 3115.78 4584.47 66.89 6.00 343.78 2642.62
   11:08:35.421.08-Feb-2020 3115.78 4584.32 66.89 6.00 343.98 2642.62
   11:08:35.621.08-Feb-2020 3115.78 4584.37 66.89 6.00 344.18 2642.62
   11:08:35.821.08-Feb-2020 3115.78 4584.37 66.89 6.00 344.38 2642.62
   11:08:36.021.08-Feb-2020 3115.78 4584.73 66.89 6.00 344.58 2642.62
   11:08:36.222.08-Feb-2020 3115.78 4584.99 66.89 6.00 344.78 2642.62
   11:08:36.422.08-Feb-2020 3115.78 4584.74 66.89 6.00 344.98 2642.62
