~Version Information
 VERS.                  2.0:   CWLS log ASCII Standard -VERSION 2.0
 WRAP.                   NO:   One line per depth step
~Well Information Block
#MNEM.UNIT     VALUE/NAME     DESCRIPTION
#---------     -----------    ---------------------------
 STRT.S             11:02:51 08-Feb-20: START TIME 11:02:51 08-Feb-20
 STOP.S             11:09:43 08-Feb-20: STOP TIME  11:09:43 08-Feb-20
 STEP.S                   0.00: STEP TIME
 NULL.                 -999.25: NULL VALUE
 DFWT.                        :  DIST FWL TEXT
 DFST.                        :  DIST FSL TEXT
 DMF .             Drill Floor:  DRILL MEAS FROM
 STIM.      07.00.00 09-Jan-20:  START TIME
 DATE.      14.04.48 07-Feb-20:  END TIME
 SPUD.               09-Jan-20:  SPUD DATE
 NREF.                    Grid:  NORTH REFERENCE
 HPTY.       Minimum Curvature:  HOLE POS TYPE
 DMOD.             Drill Model:  DRILL MOD DESC
 SVYD.                  Survey:  SURVEY DESC
 ILTD.               Lithology:  INTERP LTH DESC
 FTOP.          Formation Tops:  FORM TOPS DESC
 SON .        AZ-XX-0905059384:  JOB NUMBER
 MDS .        Operator Entered:  MAG DATA SOURCE
 WTYP.                Deviated:  WELL TYPE
 COMP.     BP Exploration (Caspian Sea) Ltd.:  COMPANY
 UWI .                     N/A:  UNIQUE WELL IDENTIFIER
 API .                     N/A:  API NUMBER
 BASE.              Azerbaijan:  LOGGING EQUIPMENT BASE LOCATION
 REGN.                   EESSA:  REGION
 PROV.                    Baku:  PROVINCE
 STAT.                    Baku:  STATE NAME
 CTRY.              Azerbaijan:  COUNTRY NAME
 FLD .                     ACG:  FIELD NAME
 SRVC.     TURAN Drilling & Engineering:  CONTRACTOR
 MWDS.                    Baku:  MWD SHOP
 WELL.                     J22:  WELL NAME
 RIG .             West Chirag:  RIG NAME
 DOE .                     N/A:  DOE NUMBER
 DCON.         Sperry Drilling:  DIRECTNL CONTR
 UNIT.                     N/A:  LOGGING EQUIPMENT ID
 PDAT.          Mean Sea Level:  PERMANENT DATUM
 JOBN.        AZ-XX-0905059384:  JOB TICKET NUMB
 CNTY.                        :  COUNTY
 LOC .                        :  LOCATION
 LMF .             Drill Floor:  LOG MEASURED FROM
 TVDS.m                  43.00:  TVDSS CORRECTN
 LATI.deg                40.13:  LATITUDE
 LONG.deg                51.22:  LONGITUDE
 WHNS.m                  10.28:  WELL HEAD N/S
 WHEW.m                  -6.24:  WELL HEAD E/W
 UTMX.m              519005.06:  UTM X
 UTMY.m             4443793.85:  UTM Y
 DFWL.m                   0.00:  DISTANCE FWL
 DFSL.m                   0.00:  DISTANCE FSL
 SDEP.m                 362.00:  START DEPTH
 TDD .m                 904.00:  TOTAL DEPTH (DRILLER)
 VSDR.deg               148.53:  VERT SEC DIRECT
 GVFD.g                   1.00:  GRAVITY FIELD
 MFLD.nT              50277.00:  MAGNETIC FIELD
 MDIP.deg                59.56:  MAGNETIC DIP
 MDEC.deg                 6.42:  MAGNETIC DECL
 GRDC.deg                 0.15:  GRID CORRECTION
 AZTC.deg                 6.27:  AZM TOTAL CORR
 EPD .m                   0.00:  ELEVATION
 EGL .m                   0.00:  GROUND ELEVATION
 WDMS.m                 169.80:  WD ELEV
 APD .m                  43.00:  DEPTH ABOVE PD
 AGAP.m                  43.00:  AIR GAP
 VSEW.m                  -6.24:  VERT SEC E/W
 VSNS.m                  10.28:  VERT SEC N/S
 DEP .m                   0.00:  DEPTH
 EKB .m                   0.00:  KB ELEVATION
 EDF .m                  43.00:  DF ELEVATION
 TDL .m                1183.00:  TOTAL DEPTH (LOGGER)
 VSC .                       0:  VS TO CLOSURE
 MAGU.                 1850021:  MAGUTM CHECKSUM
~Parameter Information Block
#MNEM.UNIT       Value        Description
#---------     -----------    ---------------------------
 AV  .mps                 4.00:  Ann Velocity 
 AVMX.mps                 4.50:  Max Ann Veloc 
 AZIF.deg               145.38:  Azm, Final 
 BHAT.        Rotary Steerable:  BHA Type 
 BROT.°/30m               3.00:  Build Rotating 
 BS  .in                 12.25:  Bit Size 
 BSZ .in                 12.25:  Bit Size 
 BTPL.psig              650.00:  Bit Press Loss 
 CABU.                      No:  Customer Abuse 
 COMM.                     Ä%€:  Run Comments 1 
 TCS .hr                101.62:  Time Ciculation Ended 
 CV  .mps                 5.00:  Crit Velocity 
 CVMX.mps                 5.00:  Max Crit Veloc 
 DD1 .             Aziz Aliyev:  Direct Drillr 1 
 DD2 .      Fakhraddin Guliyev:  Direct Drillr 2 
 DDSV.                 iCruise:  DD Service 
 DEFF.%                  97.00:  % Det Eff 
 DLRX.°/30m               4.16:  Dogleg Rot Max 
 DLSO.°/30m               3.20:  Dogleg Oriented 
 DLSX.°/30m               4.10:  Dogleg Str Max 
 DRET.      23.12.00 07-Feb-20:  Drill End Time 
 DRST.      11.30.00 04-Feb-20:  Drill Start Tim 
 DTIM.hr                 61.06:  Time Drilling 
 EDEP.m                3219.01:  End Depth 
 ENG1.         Almaz Almadatov:  Engineer 1 
 ENG2.         Dair Mahammadov:  Engineer 2 
 ENG3.          Nazrin Asgarli:  Engineer 3 
 ETIM.      02.30.00 11-Feb-20:  End Time 
 FLOI.gpm              1100.00:  Flow In 
 FLON.gpm               900.00:  Flow In Min 
 FLOS.cptm               55.00:  Fluid Loss 
 FLOX.gpm              1150.00:  Flow In Max 
 FTRO.       Formation Presure:  FTWD Run Obj 
 HFLO.                      No:  High Flow 
 HPRE.                      No:  High Pressure 
 HTEM.                      No:  High Temp 
 HYDO.m                   1.80:  Hydro Offset 
 IFIN.deg                75.11:  Inc, Final 
 IMAX.deg                75.11:  Inc Max 
 IMIN.deg                33.55:  Inc Min 
 IMND.m                2186.05:  Inc Min Depth 
 IMXD.m                3205.61:  Inc Max Depth 
 JARR.                      No:  Jarring 
 LETM.      23.12.00 07-Feb-20:  Log End Time 
 LOST.hr                     0:  Lost Rig Time 
 LSTM.      11.30.00 04-Feb-20:  Log Start Time 
 MDCL.ppm             40000.00:  Mud Chlorides 
 MDES.     Inversion Oil/Synthetic:  Mud Desc 
 DFD .sg                  1.49:  Mud Density 
 MDMN.sg                  1.49:  Dens Mud Min 
 MDMX.sg                  1.49:  Dens Mud Max 
 MOIL.                      73:  Run Mud Oil % 
 MOWR.                   73:27:  Run Mud OWR 
 MSND.                     0.1:  Run Mud Sand % 
 MSOL.                    20.1:  Run Mud Solids% 
 DFV .spqt               78.00:  Mud Viscosity 
 MWOD.in                  8.00:  MWD Tool OD 
 MWSI.                      No:  Serv Intrp, MWD 
 OTIM.hr                177.15:  Time Operating 
 PCON.          Wear / Scratch:  Pad Condition 
 PMAX.psia            10493.93:  Press Op, Max 
 PV  .cP                 73.00:  Mud PV 
 RUN .                     700:  Run Number 
 ROPA.m/hr               15.00:  ROP Avg 
 ROPN.m/hr               10.00:  ROP Min 
 ROPX.m/hr               35.00:  ROP Max 
 RPMA.rpm               130.00:  RPM Surface Avg 
 RPMN.rpm                80.00:  RPM Surface Min 
 RPMX.rpm               150.00:  RPM Surface Max 
 RRUN.                    L402:  Rig Run Number 
 RTIM.hr                 80.50:  Time Reaming 
 SAZI.deg               155.55:  Azm, Start 
 SDEP.m                2036.00:  Start Depth 
 SIDD.                      No:  Serv Intrp, DD 
 SINC.deg                35.44:  Inc, Start 
 SPPA.psig             4270.00:  SPP Avg 
 SPPN.psig             2800.00:  SPP Min 
 SPPX.psig             4850.00:  SPP Max 
 STIM.      09.30.00 03-Feb-20:  Start Time 
 SVCS.                 DD, MWD:  Services 
 SVER.                    9.20:  Sperry Version 
 TDAT.m                1183.00:  Tot Depth Attmp 
 TDDF.                      No:  Trip for DD 
 TDLG.m                1183.00:  Tot Depth Loggd 
 TFF .                      No:  Trip for Fail 
 TQAA.f-kp               16.00:  Torque Abs Avg 
 TQAN.f-kp               10.00:  Torque Abs Min 
 TQAX.f-kp               20.00:  Torque Abs Max 
 TRRT.°/30m               1.00:  Turn Rotating 
 MRT .                  EWR-M5:  Maximum Recorded Temperature 
 TTMX.degC               80.39:  Max Tool Temp 
 VS01.               13098498 :  Virtual Str1 SN 
 VS02.                90569596:  Virtual Str2 SN 
 VS03.                90523599:  Virtual Str3 SN 
 VS04.                90573553:  Virtual Str4 SN 
 VS05.                90598598:  Virtual Str5 SN 
 VS06.                90577297:  Virtual Str6 SN 
 WBMN.klb                13.00:  WOB Min 
 WITN.         Alistair Sprott:  Customer Rep 
 WITN.           Rufat Babayev:  Customer Rep 2 
 WOBA.klb                15.00:  WOB Avg 
 WOBX.klb                20.00:  WOB Max 
 YP  .lhf2               39.00:  Yield Point 
~Curve Information Block
#MNEM.UNIT                 API CODE     Curve Description
#---------               -----------    ---------------------------
 TIME.HHMMSS            00 000 000 000:  GT Time & Date
 GTDEPTH.m              00 000 000 000:  GT Depth
 GTPQH.psia             00 000 000 000:  GT HR Quartz Pressure
 GTTQ.degC              00 000 000 000:  GT Quartz Temperature
 GTTN.NONE              00 000 000 000:  GT Test Number
 GTET.sec               00 000 000 000:  GT Elapsed Test Time
 GTTVD.m                00 000 000 000:  GT True Vertical Depth
#Other Information
#
#WARRANTY: Halliburton will use its best efforts to furnish customers with 
#accurate information and interpretations that are part of, and incident to, the services 
#provided.  However, Halliburton cannot and does not warrant the accuracy 
#or correctness of such information and interpretations.  Under no circumstances should any 
#such information or interpretation be relied upon as the sole basis for any drilling, 
#completion, production, or financial decision or any procedure involving any risk to the 
#safety of any drilling venture, drilling rig or its crew or any other third party.  The 
#Customer has full responsibility for all drilling, completion and production operation.  
#Halliburton makes no representations or warranties, either expressed or 
#implied, including, but not limited to, the implied warranties of merchantability or fitness 
#for a particular purpose, with respect to the services rendered.  In no event will 
#Halliburton be liable for failure to obtain any particular results or for 
#any damages, including, but not limited to, indirect, special or consequential damages, 
#resulting from the use of any information or interpretation provided by Halliburton.
#
~A           TIME           GTDEPTH  GTPQH  GTTQ  GTTN  GTET   GTTVD  
# ...
   11:07:04.574.08-Feb-2020 3115.78 4585.03 67.01 6.00 253.13 2642.62
   11:07:04.774.08-Feb-2020 3115.78 4585.03 67.01 6.00 253.33 2642.62
   11:07:04.974.08-Feb-2020 3115.78 4584.08 67.01 6.00 253.53 2642.62
   11:07:05.174.08-Feb-2020 3115.78 4584.46 67.01 6.00 253.73 2642.62
   11:07:05.374.08-Feb-2020 3115.78 4585.67 67.01 6.00 253.93 2642.62
   11:07:05.574.08-Feb-2020 3115.78 4585.76 67.01 6.00 254.13 2642.62
   11:07:05.774.08-Feb-2020 3115.78 4585.76 67.01 6.00 254.33 2642.62
   11:07:05.974.08-Feb-2020 3115.78 4585.80 67.01 6.00 254.53 2642.62
   11:07:06.174.08-Feb-2020 3115.78 4584.60 67.01 6.00 254.73 2642.62
   11:07:06.375.08-Feb-2020 3115.78 4585.57 67.01 6.00 254.93 2642.62
   11:07:06.575.08-Feb-2020 3115.78 4585.55 67.01 6.00 255.13 2642.62
   11:07:06.775.08-Feb-2020 3115.78 4585.55 67.01 6.00 255.33 2642.62
   11:07:06.975.08-Feb-2020 3115.78 4585.48 67.01 6.00 255.53 2642.62
   11:07:07.175.08-Feb-2020 3115.78 4585.01 67.01 6.00 255.73 2642.62
   11:07:07.375.08-Feb-2020 3115.78 4584.69 67.01 6.00 255.93 2642.62
   11:07:07.575.08-Feb-2020 3115.78 4585.20 67.01 6.00 256.13 2642.62
   11:07:07.775.08-Feb-2020 3115.78 4584.39 67.01 6.00 256.33 2642.62
   11:07:07.975.08-Feb-2020 3115.78 4583.88 67.01 6.00 256.53 2642.62
   11:07:08.176.08-Feb-2020 3115.78 4583.33 67.01 6.00 256.73 2642.62
   11:07:08.376.08-Feb-2020 3115.78 4584.91 67.01 6.00 256.93 2642.62
   11:07:08.576.08-Feb-2020 3115.78 4585.02 67.01 6.00 257.13 2642.62
   11:07:08.776.08-Feb-2020 3115.78 4585.02 67.01 6.00 257.33 2642.62
   11:07:08.976.08-Feb-2020 3115.78 4583.34 67.01 6.00 257.53 2642.62
   11:07:09.176.08-Feb-2020 3115.78 4586.14 67.01 6.00 257.73 2642.62
   11:07:09.376.08-Feb-2020 3115.78 4584.73 67.01 6.00 257.93 2642.62
   11:07:09.576.08-Feb-2020 3115.78 4584.11 67.01 6.00 258.13 2642.62
   11:07:09.776.08-Feb-2020 3115.78 4584.11 67.01 6.00 258.34 2642.62
   11:07:09.976.08-Feb-2020 3115.78 4585.28 67.01 6.00 258.54 2642.62
   11:07:10.177.08-Feb-2020 3115.78 4584.70 67.00 6.00 258.74 2642.62
   11:07:10.377.08-Feb-2020 3115.78 4584.52 67.00 6.00 258.94 2642.62
   11:07:10.577.08-Feb-2020 3115.78 4584.77 67.00 6.00 259.14 2642.62
   11:07:10.777.08-Feb-2020 3115.78 4584.77 67.00 6.00 259.34 2642.62
   11:07:10.977.08-Feb-2020 3115.78 4584.65 67.00 6.00 259.54 2642.62
   11:07:11.177.08-Feb-2020 3115.78 4584.56 67.00 6.00 259.74 2642.62
   11:07:11.377.08-Feb-2020 3115.78 4585.46 67.00 6.00 259.94 2642.62
   11:07:11.577.08-Feb-2020 3115.78 4584.98 67.00 6.00 260.14 2642.62
   11:07:11.777.08-Feb-2020 3115.78 4584.98 67.00 6.00 260.34 2642.62
   11:07:11.977.08-Feb-2020 3115.78 4584.52 67.00 6.00 260.54 2642.62
   11:07:12.178.08-Feb-2020 3115.78 4585.80 67.00 6.00 260.74 2642.62
   11:07:12.378.08-Feb-2020 3115.78 4585.21 67.00 6.00 260.94 2642.62
   11:07:12.578.08-Feb-2020 3115.78 4584.58 67.00 6.00 261.14 2642.62
   11:07:12.778.08-Feb-2020 3115.78 4584.58 67.00 6.00 261.34 2642.62
   11:07:12.978.08-Feb-2020 3115.78 4585.00 67.00 6.00 261.54 2642.62
   11:07:13.178.08-Feb-2020 3115.78 4584.76 67.00 6.00 261.74 2642.62
   11:07:13.378.08-Feb-2020 3115.78 4584.37 67.00 6.00 261.94 2642.62
   11:07:13.578.08-Feb-2020 3115.78 4584.56 67.00 6.00 262.14 2642.62
   11:07:13.778.08-Feb-2020 3115.78 4584.56 67.00 6.00 262.34 2642.62
   11:07:13.979.08-Feb-2020 3115.78 4584.36 67.00 6.00 262.54 2642.62
   11:07:14.179.08-Feb-2020 3115.78 4583.97 67.00 6.00 262.74 2642.62
   11:07:14.379.08-Feb-2020 3115.78 4583.85 67.00 6.00 262.94 2642.62
   11:07:14.579.08-Feb-2020 3115.78 4584.75 67.00 6.00 263.14 2642.62
   11:07:14.779.08-Feb-2020 3115.78 4584.75 67.00 6.00 263.34 2642.62
   11:07:14.979.08-Feb-2020 3115.78 4583.94 67.00 6.00 263.54 2642.62
   11:07:15.179.08-Feb-2020 3115.78 4583.30 67.00 6.00 263.74 2642.62
   11:07:15.379.08-Feb-2020 3115.78 4585.01 67.00 6.00 263.94 2642.62
   11:07:15.579.08-Feb-2020 3115.78 4583.73 67.00 6.00 264.14 2642.62
   11:07:15.779.08-Feb-2020 3115.78 4583.73 67.00 6.00 264.34 2642.62
   11:07:15.980.08-Feb-2020 3115.78 4583.67 67.00 6.00 264.54 2642.62
   11:07:16.180.08-Feb-2020 3115.78 4585.62 67.00 6.00 264.74 2642.62
   11:07:16.380.08-Feb-2020 3115.78 4584.43 67.00 6.00 264.94 2642.62
   11:07:16.580.08-Feb-2020 3115.78 4584.07 67.00 6.00 265.14 2642.62
   11:07:16.780.08-Feb-2020 3115.78 4584.07 67.00 6.00 265.34 2642.62
   11:07:16.980.08-Feb-2020 3115.78 4585.07 67.00 6.00 265.54 2642.62
   11:07:17.180.08-Feb-2020 3115.78 4583.75 66.99 6.00 265.74 2642.62
   11:07:17.380.08-Feb-2020 3115.78 4584.68 66.99 6.00 265.94 2642.62
   11:07:17.580.08-Feb-2020 3115.78 4585.25 66.99 6.00 266.14 2642.62
   11:07:17.781.08-Feb-2020 3115.78 4585.25 66.99 6.00 266.34 2642.62
   11:07:17.981.08-Feb-2020 3115.78 4584.86 66.99 6.00 266.54 2642.62
   11:07:18.181.08-Feb-2020 3115.78 4584.78 66.99 6.00 266.74 2642.62
   11:07:18.381.08-Feb-2020 3115.78 4584.76 66.99 6.00 266.94 2642.62
   11:07:18.581.08-Feb-2020 3115.78 4584.81 66.99 6.00 267.14 2642.62
   11:07:18.781.08-Feb-2020 3115.78 4584.81 66.99 6.00 267.34 2642.62
   11:07:18.981.08-Feb-2020 3115.78 4585.08 66.99 6.00 267.54 2642.62
   11:07:19.181.08-Feb-2020 3115.78 4585.62 66.99 6.00 267.74 2642.62
   11:07:19.381.08-Feb-2020 3115.78 4584.23 66.99 6.00 267.94 2642.62
   11:07:19.581.08-Feb-2020 3115.78 4584.58 66.99 6.00 268.14 2642.62
   11:07:19.782.08-Feb-2020 3115.78 4584.58 66.99 6.00 268.34 2642.62
   11:07:19.982.08-Feb-2020 3115.78 4585.06 66.99 6.00 268.54 2642.62
   11:07:20.182.08-Feb-2020 3115.78 4585.40 66.99 6.00 268.74 2642.62
   11:07:20.382.08-Feb-2020 3115.78 4586.04 66.99 6.00 268.94 2642.62
   11:07:20.582.08-Feb-2020 3115.78 4585.82 66.99 6.00 269.14 2642.62
   11:07:20.782.08-Feb-2020 3115.78 4585.82 66.99 6.00 269.34 2642.62
   11:07:20.982.08-Feb-2020 3115.78 4586.72 66.99 6.00 269.54 2642.62
   11:07:21.182.08-Feb-2020 3115.78 4583.76 66.99 6.00 269.74 2642.62
   11:07:21.382.08-Feb-2020 3115.78 4584.64 66.99 6.00 269.94 2642.62
   11:07:21.583.08-Feb-2020 3115.78 4586.58 66.99 6.00 270.14 2642.62
   11:07:21.783.08-Feb-2020 3115.78 4586.58 66.99 6.00 270.34 2642.62
   11:07:21.983.08-Feb-2020 3115.78 4585.02 66.99 6.00 270.54 2642.62
   11:07:22.183.08-Feb-2020 3115.78 4585.48 66.99 6.00 270.74 2642.62
   11:07:22.383.08-Feb-2020 3115.78 4585.00 66.99 6.00 270.94 2642.62
   11:07:22.583.08-Feb-2020 3115.78 4584.40 66.99 6.00 271.14 2642.62
   11:07:22.783.08-Feb-2020 3115.78 4584.40 66.99 6.00 271.34 2642.62
   11:07:22.983.08-Feb-2020 3115.78 4585.97 66.99 6.00 271.54 2642.62
   11:07:23.183.08-Feb-2020 3115.78 4584.77 66.99 6.00 271.74 2642.62
   11:07:23.383.08-Feb-2020 3115.78 4583.88 66.99 6.00 271.94 2642.62
   11:07:23.584.08-Feb-2020 3115.78 4586.22 66.99 6.00 272.14 2642.62
   11:07:23.784.08-Feb-2020 3115.78 4586.22 66.99 6.00 272.34 2642.62
   11:07:23.984.08-Feb-2020 3115.78 4585.60 66.99 6.00 272.54 2642.62
   11:07:24.184.08-Feb-2020 3115.78 4582.65 66.99 6.00 272.74 2642.62
   11:07:24.384.08-Feb-2020 3115.78 4539.68 66.98 6.00 272.94 2642.62
   11:07:24.584.08-Feb-2020 3115.78 4215.11 66.98 6.00 273.14 2642.62
   11:07:24.784.08-Feb-2020 3115.78 4215.11 66.98 6.00 273.34 2642.62
   11:07:24.984.08-Feb-2020 3115.78 3785.86 66.98 6.00 273.54 2642.62
   11:07:25.184.08-Feb-2020 3115.78 3646.27 66.98 6.00 273.74 2642.62
   11:07:25.384.08-Feb-2020 3115.78 3535.99 66.98 6.00 273.94 2642.62
   11:07:25.585.08-Feb-2020 3115.78 3446.81 66.98 6.00 274.14 2642.62
   11:07:25.785.08-Feb-2020 3115.78 3446.81 66.98 6.00 274.34 2642.62
   11:07:25.985.08-Feb-2020 3115.78 3312.57 66.98 6.00 274.54 2642.62
   11:07:26.185.08-Feb-2020 3115.78 3264.22 66.98 6.00 274.74 2642.62
   11:07:26.385.08-Feb-2020 3115.78 3228.59 66.98 6.00 274.94 2642.62
   11:07:26.585.08-Feb-2020 3115.78 3199.05 66.98 6.00 275.14 2642.62
   11:07:26.785.08-Feb-2020 3115.78 3199.05 66.98 6.00 275.34 2642.62
   11:07:26.985.08-Feb-2020 3115.78 3138.16 66.98 6.00 275.54 2642.62
   11:07:27.185.08-Feb-2020 3115.78 3112.54 66.97 6.00 275.74 2642.62
   11:07:27.386.08-Feb-2020 3115.78 3090.06 66.97 6.00 275.94 2642.62
