~Version Information
 VERS.                  2.0:   CWLS log ASCII Standard -VERSION 2.0
 WRAP.                   NO:   One line per depth step
~Well Information Block
#MNEM.UNIT     VALUE/NAME     DESCRIPTION
#---------     -----------    ---------------------------
 STRT.S             08:41:50 08-Feb-20: START TIME 08:41:50 08-Feb-20
 STOP.S             08:48:48 08-Feb-20: STOP TIME  08:48:48 08-Feb-20
 STEP.S                   0.00: STEP TIME
 NULL.                 -999.25: NULL VALUE
 DFWT.                        :  DIST FWL TEXT
 DFST.                        :  DIST FSL TEXT
 DMF .             Drill Floor:  DRILL MEAS FROM
 STIM.      07.00.00 09-Jan-20:  START TIME
 DATE.      14.04.48 07-Feb-20:  END TIME
 SPUD.               09-Jan-20:  SPUD DATE
 NREF.                    Grid:  NORTH REFERENCE
 HPTY.       Minimum Curvature:  HOLE POS TYPE
 DMOD.             Drill Model:  DRILL MOD DESC
 SVYD.                  Survey:  SURVEY DESC
 ILTD.               Lithology:  INTERP LTH DESC
 FTOP.          Formation Tops:  FORM TOPS DESC
 SON .        AZ-XX-0905059384:  JOB NUMBER
 MDS .        Operator Entered:  MAG DATA SOURCE
 WTYP.                Deviated:  WELL TYPE
 COMP.     BP Exploration (Caspian Sea) Ltd.:  COMPANY
 UWI .                     N/A:  UNIQUE WELL IDENTIFIER
 API .                     N/A:  API NUMBER
 BASE.              Azerbaijan:  LOGGING EQUIPMENT BASE LOCATION
 REGN.                   EESSA:  REGION
 PROV.                    Baku:  PROVINCE
 STAT.                    Baku:  STATE NAME
 CTRY.              Azerbaijan:  COUNTRY NAME
 FLD .                     ACG:  FIELD NAME
 SRVC.     TURAN Drilling & Engineering:  CONTRACTOR
 MWDS.                    Baku:  MWD SHOP
 WELL.                     J22:  WELL NAME
 RIG .             West Chirag:  RIG NAME
 DOE .                     N/A:  DOE NUMBER
 DCON.         Sperry Drilling:  DIRECTNL CONTR
 UNIT.                     N/A:  LOGGING EQUIPMENT ID
 PDAT.          Mean Sea Level:  PERMANENT DATUM
 JOBN.        AZ-XX-0905059384:  JOB TICKET NUMB
 CNTY.                        :  COUNTY
 LOC .                        :  LOCATION
 LMF .             Drill Floor:  LOG MEASURED FROM
 TVDS.m                  43.00:  TVDSS CORRECTN
 LATI.deg                40.13:  LATITUDE
 LONG.deg                51.22:  LONGITUDE
 WHNS.m                  10.28:  WELL HEAD N/S
 WHEW.m                  -6.24:  WELL HEAD E/W
 UTMX.m              519005.06:  UTM X
 UTMY.m             4443793.85:  UTM Y
 DFWL.m                   0.00:  DISTANCE FWL
 DFSL.m                   0.00:  DISTANCE FSL
 SDEP.m                 362.00:  START DEPTH
 TDD .m                 904.00:  TOTAL DEPTH (DRILLER)
 VSDR.deg               148.53:  VERT SEC DIRECT
 GVFD.g                   1.00:  GRAVITY FIELD
 MFLD.nT              50277.00:  MAGNETIC FIELD
 MDIP.deg                59.56:  MAGNETIC DIP
 MDEC.deg                 6.42:  MAGNETIC DECL
 GRDC.deg                 0.15:  GRID CORRECTION
 AZTC.deg                 6.27:  AZM TOTAL CORR
 EPD .m                   0.00:  ELEVATION
 EGL .m                   0.00:  GROUND ELEVATION
 WDMS.m                 169.80:  WD ELEV
 APD .m                  43.00:  DEPTH ABOVE PD
 AGAP.m                  43.00:  AIR GAP
 VSEW.m                  -6.24:  VERT SEC E/W
 VSNS.m                  10.28:  VERT SEC N/S
 DEP .m                   0.00:  DEPTH
 EKB .m                   0.00:  KB ELEVATION
 EDF .m                  43.00:  DF ELEVATION
 TDL .m                1183.00:  TOTAL DEPTH (LOGGER)
 VSC .                       0:  VS TO CLOSURE
 MAGU.                 1850021:  MAGUTM CHECKSUM
~Parameter Information Block
#MNEM.UNIT       Value        Description
#---------     -----------    ---------------------------
 AV  .mps                 4.00:  Ann Velocity 
 AVMX.mps                 4.50:  Max Ann Veloc 
 AZIF.deg               145.38:  Azm, Final 
 BHAT.        Rotary Steerable:  BHA Type 
 BROT.°/30m               3.00:  Build Rotating 
 BS  .in                 12.25:  Bit Size 
 BSZ .in                 12.25:  Bit Size 
 BTPL.psig              650.00:  Bit Press Loss 
 CABU.                      No:  Customer Abuse 
 COMM.                     [:  Run Comments 1 
 TCS .hr                101.62:  Time Ciculation Ended 
 CV  .mps                 5.00:  Crit Velocity 
 CVMX.mps                 5.00:  Max Crit Veloc 
 DD1 .             Aziz Aliyev:  Direct Drillr 1 
 DD2 .      Fakhraddin Guliyev:  Direct Drillr 2 
 DDSV.                 iCruise:  DD Service 
 DEFF.%                  97.00:  % Det Eff 
 DLRX.°/30m               4.16:  Dogleg Rot Max 
 DLSO.°/30m               3.20:  Dogleg Oriented 
 DLSX.°/30m               4.10:  Dogleg Str Max 
 DRET.      23.12.00 07-Feb-20:  Drill End Time 
 DRST.      11.30.00 04-Feb-20:  Drill Start Tim 
 DTIM.hr                 61.06:  Time Drilling 
 EDEP.m                3219.01:  End Depth 
 ENG1.         Almaz Almadatov:  Engineer 1 
 ENG2.         Dair Mahammadov:  Engineer 2 
 ENG3.          Nazrin Asgarli:  Engineer 3 
 ETIM.      02.30.00 11-Feb-20:  End Time 
 FLOI.gpm              1100.00:  Flow In 
 FLON.gpm               900.00:  Flow In Min 
 FLOS.cptm               55.00:  Fluid Loss 
 FLOX.gpm              1150.00:  Flow In Max 
 FTRO.       Formation Presure:  FTWD Run Obj 
 HFLO.                      No:  High Flow 
 HPRE.                      No:  High Pressure 
 HTEM.                      No:  High Temp 
 HYDO.m                   1.80:  Hydro Offset 
 IFIN.deg                75.11:  Inc, Final 
 IMAX.deg                75.11:  Inc Max 
 IMIN.deg                33.55:  Inc Min 
 IMND.m                2186.05:  Inc Min Depth 
 IMXD.m                3205.61:  Inc Max Depth 
 JARR.                      No:  Jarring 
 LETM.      23.12.00 07-Feb-20:  Log End Time 
 LOST.hr                     0:  Lost Rig Time 
 LSTM.      11.30.00 04-Feb-20:  Log Start Time 
 MDCL.ppm             40000.00:  Mud Chlorides 
 MDES.     Inversion Oil/Synthetic:  Mud Desc 
 DFD .sg                  1.49:  Mud Density 
 MDMN.sg                  1.49:  Dens Mud Min 
 MDMX.sg                  1.49:  Dens Mud Max 
 MOIL.                      73:  Run Mud Oil % 
 MOWR.                   73:27:  Run Mud OWR 
 MSND.                     0.1:  Run Mud Sand % 
 MSOL.                    20.1:  Run Mud Solids% 
 DFV .spqt               78.00:  Mud Viscosity 
 MWOD.in                  8.00:  MWD Tool OD 
 MWSI.                      No:  Serv Intrp, MWD 
 OTIM.hr                177.15:  Time Operating 
 PCON.          Wear / Scratch:  Pad Condition 
 PMAX.psia            10493.93:  Press Op, Max 
 PV  .cP                 73.00:  Mud PV 
 RUN .                     700:  Run Number 
 ROPA.m/hr               15.00:  ROP Avg 
 ROPN.m/hr               10.00:  ROP Min 
 ROPX.m/hr               35.00:  ROP Max 
 RPMA.rpm               130.00:  RPM Surface Avg 
 RPMN.rpm                80.00:  RPM Surface Min 
 RPMX.rpm               150.00:  RPM Surface Max 
 RRUN.                    L402:  Rig Run Number 
 RTIM.hr                 80.50:  Time Reaming 
 SAZI.deg               155.55:  Azm, Start 
 SDEP.m                2036.00:  Start Depth 
 SIDD.                      No:  Serv Intrp, DD 
 SINC.deg                35.44:  Inc, Start 
 SPPA.psig             4270.00:  SPP Avg 
 SPPN.psig             2800.00:  SPP Min 
 SPPX.psig             4850.00:  SPP Max 
 STIM.      09.30.00 03-Feb-20:  Start Time 
 SVCS.                 DD, MWD:  Services 
 SVER.                    9.20:  Sperry Version 
 TDAT.m                1183.00:  Tot Depth Attmp 
 TDDF.                      No:  Trip for DD 
 TDLG.m                1183.00:  Tot Depth Loggd 
 TFF .                      No:  Trip for Fail 
 TQAA.f-kp               16.00:  Torque Abs Avg 
 TQAN.f-kp               10.00:  Torque Abs Min 
 TQAX.f-kp               20.00:  Torque Abs Max 
 TRRT.°/30m               1.00:  Turn Rotating 
 MRT .                  EWR-M5:  Maximum Recorded Temperature 
 TTMX.degC               80.39:  Max Tool Temp 
 VS01.               13098498 :  Virtual Str1 SN 
 VS02.                90569596:  Virtual Str2 SN 
 VS03.                90523599:  Virtual Str3 SN 
 VS04.                90573553:  Virtual Str4 SN 
 VS05.                90598598:  Virtual Str5 SN 
 VS06.                90577297:  Virtual Str6 SN 
 WBMN.klb                13.00:  WOB Min 
 WITN.         Alistair Sprott:  Customer Rep 
 WITN.           Rufat Babayev:  Customer Rep 2 
 WOBA.klb                15.00:  WOB Avg 
 WOBX.klb                20.00:  WOB Max 
 YP  .lhf2               39.00:  Yield Point 
~Curve Information Block
#MNEM.UNIT                 API CODE     Curve Description
#---------               -----------    ---------------------------
 TIME.HHMMSS            00 000 000 000:  GT Time & Date
 GTDEPTH.m              00 000 000 000:  GT Depth
 GTPQH.psia             00 000 000 000:  GT HR Quartz Pressure
 GTTQ.degC              00 000 000 000:  GT Quartz Temperature
 GTTN.NONE              00 000 000 000:  GT Test Number
 GTET.sec               00 000 000 000:  GT Elapsed Test Time
 GTTVD.m                00 000 000 000:  GT True Vertical Depth
#Other Information
#
#WARRANTY: Halliburton will use its best efforts to furnish customers with 
#accurate information and interpretations that are part of, and incident to, the services 
#provided.  However, Halliburton cannot and does not warrant the accuracy 
#or correctness of such information and interpretations.  Under no circumstances should any 
#such information or interpretation be relied upon as the sole basis for any drilling, 
#completion, production, or financial decision or any procedure involving any risk to the 
#safety of any drilling venture, drilling rig or its crew or any other third party.  The 
#Customer has full responsibility for all drilling, completion and production operation.  
#Halliburton makes no representations or warranties, either expressed or 
#implied, including, but not limited to, the implied warranties of merchantability or fitness 
#for a particular purpose, with respect to the services rendered.  In no event will 
#Halliburton be liable for failure to obtain any particular results or for 
#any damages, including, but not limited to, indirect, special or consequential damages, 
#resulting from the use of any information or interpretation provided by Halliburton.
#
~A           TIME           GTDEPTH  GTPQH  GTTQ  GTTN  GTET   GTTVD  
# ...
   08:45:17.648.08-Feb-2020 3153.01 5767.55 71.11 2.00 207.02 2652.69
   08:45:17.848.08-Feb-2020 3153.01 5767.55 71.11 2.00 207.22 2652.69
   08:45:18.048.08-Feb-2020 3153.01 5766.91 71.11 2.00 207.42 2652.69
   08:45:18.249.08-Feb-2020 3153.01 5767.62 71.11 2.00 207.62 2652.69
   08:45:18.449.08-Feb-2020 3153.01 5766.33 71.11 2.00 207.82 2652.69
   08:45:18.649.08-Feb-2020 3153.01 5766.52 71.11 2.00 208.02 2652.69
   08:45:18.849.08-Feb-2020 3153.01 5766.52 71.11 2.00 208.22 2652.69
   08:45:19.049.08-Feb-2020 3153.01 5769.58 71.11 2.00 208.42 2652.69
   08:45:19.249.08-Feb-2020 3153.01 5767.42 71.11 2.00 208.62 2652.69
   08:45:19.449.08-Feb-2020 3153.01 5765.23 71.11 2.00 208.82 2652.69
   08:45:19.649.08-Feb-2020 3153.01 5766.19 71.11 2.00 209.02 2652.69
   08:45:19.849.08-Feb-2020 3153.01 5766.19 71.11 2.00 209.22 2652.69
   08:45:20.049.08-Feb-2020 3153.01 5765.39 71.10 2.00 209.42 2652.69
   08:45:20.249.08-Feb-2020 3153.01 5766.46 71.10 2.00 209.62 2652.69
   08:45:20.449.08-Feb-2020 3153.01 5766.44 71.10 2.00 209.82 2652.69
   08:45:20.649.08-Feb-2020 3153.01 5765.51 71.10 2.00 210.02 2652.69
   08:45:20.849.08-Feb-2020 3153.01 5765.51 71.10 2.00 210.22 2652.69
   08:45:21.049.08-Feb-2020 3153.01 5766.01 71.10 2.00 210.42 2652.69
   08:45:21.249.08-Feb-2020 3153.01 5769.17 71.10 2.00 210.62 2652.69
   08:45:21.449.08-Feb-2020 3153.01 5766.77 71.10 2.00 210.82 2652.69
   08:45:21.649.08-Feb-2020 3153.01 5767.09 71.10 2.00 211.02 2652.69
   08:45:21.849.08-Feb-2020 3153.01 5767.09 71.10 2.00 211.22 2652.69
   08:45:22.049.08-Feb-2020 3153.01 5766.82 71.10 2.00 211.42 2652.69
   08:45:22.249.08-Feb-2020 3153.01 5764.78 71.10 2.00 211.62 2652.69
   08:45:22.449.08-Feb-2020 3153.01 5767.43 71.10 2.00 211.82 2652.69
   08:45:22.649.08-Feb-2020 3153.01 5768.87 71.10 2.00 212.02 2652.69
   08:45:22.849.08-Feb-2020 3153.01 5768.87 71.10 2.00 212.22 2652.69
   08:45:23.049.08-Feb-2020 3153.01 5766.03 71.10 2.00 212.42 2652.69
   08:45:23.249.08-Feb-2020 3153.01 5768.15 71.10 2.00 212.62 2652.69
   08:45:23.449.08-Feb-2020 3153.01 5766.46 71.10 2.00 212.82 2652.69
   08:45:23.649.08-Feb-2020 3153.01 5763.74 71.10 2.00 213.02 2652.69
   08:45:23.849.08-Feb-2020 3153.01 5763.74 71.10 2.00 213.22 2652.69
   08:45:24.049.08-Feb-2020 3153.01 5771.93 71.10 2.00 213.42 2652.69
   08:45:24.249.08-Feb-2020 3153.01 5765.58 71.10 2.00 213.62 2652.69
   08:45:24.449.08-Feb-2020 3153.01 5765.31 71.10 2.00 213.82 2652.69
   08:45:24.649.08-Feb-2020 3153.01 5766.58 71.10 2.00 214.02 2652.69
   08:45:24.849.08-Feb-2020 3153.01 5766.58 71.10 2.00 214.22 2652.69
   08:45:25.049.08-Feb-2020 3153.01 5765.50 71.10 2.00 214.42 2652.69
   08:45:25.249.08-Feb-2020 3153.01 5767.11 71.10 2.00 214.62 2652.69
   08:45:25.449.08-Feb-2020 3153.01 5766.68 71.10 2.00 214.82 2652.69
   08:45:25.649.08-Feb-2020 3153.01 5765.97 71.10 2.00 215.02 2652.69
   08:45:25.849.08-Feb-2020 3153.01 5765.97 71.10 2.00 215.22 2652.69
   08:45:26.049.08-Feb-2020 3153.01 5765.85 71.10 2.00 215.42 2652.69
   08:45:26.249.08-Feb-2020 3153.01 5770.98 71.10 2.00 215.62 2652.69
   08:45:26.449.08-Feb-2020 3153.01 5765.88 71.10 2.00 215.82 2652.69
   08:45:26.649.08-Feb-2020 3153.01 5764.63 71.10 2.00 216.02 2652.69
   08:45:26.849.08-Feb-2020 3153.01 5764.63 71.10 2.00 216.22 2652.69
   08:45:27.049.08-Feb-2020 3153.01 5767.31 71.10 2.00 216.42 2652.69
   08:45:27.249.08-Feb-2020 3153.01 5766.17 71.10 2.00 216.62 2652.69
   08:45:27.449.08-Feb-2020 3153.01 5767.00 71.10 2.00 216.82 2652.69
   08:45:27.649.08-Feb-2020 3153.01 5766.69 71.10 2.00 217.02 2652.69
   08:45:27.849.08-Feb-2020 3153.01 5766.69 71.10 2.00 217.22 2652.69
   08:45:28.049.08-Feb-2020 3153.01 5766.39 71.10 2.00 217.42 2652.69
   08:45:28.249.08-Feb-2020 3153.01 5765.97 71.10 2.00 217.62 2652.69
   08:45:28.449.08-Feb-2020 3153.01 5772.15 71.10 2.00 217.82 2652.69
   08:45:28.649.08-Feb-2020 3153.01 5764.56 71.10 2.00 218.02 2652.69
   08:45:28.849.08-Feb-2020 3153.01 5764.56 71.10 2.00 218.22 2652.69
   08:45:29.049.08-Feb-2020 3153.01 5770.55 71.10 2.00 218.42 2652.69
   08:45:29.249.08-Feb-2020 3153.01 5767.47 71.10 2.00 218.62 2652.69
   08:45:29.449.08-Feb-2020 3153.01 5765.10 71.10 2.00 218.82 2652.69
   08:45:29.649.08-Feb-2020 3153.01 5765.08 71.10 2.00 219.02 2652.69
   08:45:29.849.08-Feb-2020 3153.01 5765.08 71.10 2.00 219.22 2652.69
   08:45:30.050.08-Feb-2020 3153.01 5764.67 71.09 2.00 219.42 2652.69
   08:45:30.250.08-Feb-2020 3153.01 5763.88 71.09 2.00 219.62 2652.69
   08:45:30.450.08-Feb-2020 3153.01 5770.69 71.09 2.00 219.82 2652.69
   08:45:30.650.08-Feb-2020 3153.01 5765.68 71.09 2.00 220.02 2652.69
   08:45:30.850.08-Feb-2020 3153.01 5765.68 71.09 2.00 220.22 2652.69
   08:45:31.050.08-Feb-2020 3153.01 5765.06 71.09 2.00 220.42 2652.69
   08:45:31.250.08-Feb-2020 3153.01 5768.21 71.09 2.00 220.62 2652.69
   08:45:31.450.08-Feb-2020 3153.01 5767.82 71.09 2.00 220.82 2652.69
   08:45:31.650.08-Feb-2020 3153.01 5767.09 71.09 2.00 221.02 2652.69
   08:45:31.850.08-Feb-2020 3153.01 5767.09 71.09 2.00 221.22 2652.69
   08:45:32.050.08-Feb-2020 3153.01 5766.95 71.09 2.00 221.42 2652.69
   08:45:32.250.08-Feb-2020 3153.01 5766.57 71.09 2.00 221.62 2652.69
   08:45:32.450.08-Feb-2020 3153.01 5766.49 71.09 2.00 221.82 2652.69
   08:45:32.650.08-Feb-2020 3153.01 5767.42 71.09 2.00 222.02 2652.69
   08:45:32.850.08-Feb-2020 3153.01 5767.42 71.09 2.00 222.22 2652.69
   08:45:33.050.08-Feb-2020 3153.01 5766.37 71.09 2.00 222.42 2652.69
   08:45:33.250.08-Feb-2020 3153.01 5766.46 71.09 2.00 222.62 2652.69
   08:45:33.450.08-Feb-2020 3153.01 5766.25 71.09 2.00 222.82 2652.69
   08:45:33.650.08-Feb-2020 3153.01 5768.97 71.09 2.00 223.02 2652.69
   08:45:33.850.08-Feb-2020 3153.01 5768.97 71.09 2.00 223.22 2652.69
   08:45:34.050.08-Feb-2020 3153.01 5766.27 71.09 2.00 223.42 2652.69
   08:45:34.250.08-Feb-2020 3153.01 5767.06 71.09 2.00 223.62 2652.69
   08:45:34.450.08-Feb-2020 3153.01 5767.06 71.09 2.00 223.82 2652.69
   08:45:34.650.08-Feb-2020 3153.01 5766.57 71.09 2.00 224.02 2652.69
   08:45:34.850.08-Feb-2020 3153.01 5766.57 71.09 2.00 224.22 2652.69
   08:45:35.050.08-Feb-2020 3153.01 5766.02 71.09 2.00 224.42 2652.69
   08:45:35.250.08-Feb-2020 3153.01 5766.08 71.09 2.00 224.62 2652.69
   08:45:35.450.08-Feb-2020 3153.01 5765.88 71.09 2.00 224.82 2652.69
   08:45:35.650.08-Feb-2020 3153.01 5766.63 71.09 2.00 225.02 2652.69
   08:45:35.850.08-Feb-2020 3153.01 5766.63 71.09 2.00 225.22 2652.69
   08:45:36.050.08-Feb-2020 3153.01 5766.20 71.09 2.00 225.42 2652.69
   08:45:36.250.08-Feb-2020 3153.01 5768.72 71.09 2.00 225.62 2652.69
   08:45:36.450.08-Feb-2020 3153.01 5767.83 71.09 2.00 225.82 2652.69
   08:45:36.650.08-Feb-2020 3153.01 5765.94 71.09 2.00 226.02 2652.69
   08:45:36.850.08-Feb-2020 3153.01 5765.94 71.09 2.00 226.22 2652.69
   08:45:37.050.08-Feb-2020 3153.01 5771.24 71.09 2.00 226.42 2652.69
   08:45:37.250.08-Feb-2020 3153.01 5766.44 71.09 2.00 226.62 2652.69
   08:45:37.450.08-Feb-2020 3153.01 5763.51 71.09 2.00 226.82 2652.69
   08:45:37.650.08-Feb-2020 3153.01 5770.35 71.09 2.00 227.02 2652.69
   08:45:37.850.08-Feb-2020 3153.01 5770.35 71.09 2.00 227.22 2652.69
   08:45:38.050.08-Feb-2020 3153.01 5764.00 71.09 2.00 227.42 2652.69
   08:45:38.250.08-Feb-2020 3153.01 5764.43 71.09 2.00 227.62 2652.69
   08:45:38.450.08-Feb-2020 3153.01 5773.43 71.09 2.00 227.82 2652.69
   08:45:38.650.08-Feb-2020 3153.01 5765.17 71.09 2.00 228.02 2652.69
   08:45:38.850.08-Feb-2020 3153.01 5765.17 71.09 2.00 228.22 2652.69
   08:45:39.050.08-Feb-2020 3153.01 5765.99 71.09 2.00 228.42 2652.69
   08:45:39.250.08-Feb-2020 3153.01 5767.60 71.09 2.00 228.62 2652.69
   08:45:39.450.08-Feb-2020 3153.01 5766.24 71.09 2.00 228.82 2652.69
   08:45:39.650.08-Feb-2020 3153.01 5766.36 71.08 2.00 229.02 2652.69
   08:45:39.850.08-Feb-2020 3153.01 5766.36 71.08 2.00 229.22 2652.69
   08:45:40.050.08-Feb-2020 3153.01 5766.60 71.08 2.00 229.42 2652.69
   08:45:40.250.08-Feb-2020 3153.01 5766.30 71.08 2.00 229.62 2652.69
   08:45:40.450.08-Feb-2020 3153.01 5766.33 71.08 2.00 229.82 2652.69
