~Version Information
 VERS.                  2.0:   CWLS log ASCII Standard -VERSION 2.0
 WRAP.                   NO:   One line per depth step
~Well Information Block
#MNEM.UNIT     VALUE/NAME     DESCRIPTION
#---------     -----------    ---------------------------
 STRT.S             09:08:12 08-Feb-20: START TIME 09:08:12 08-Feb-20
 STOP.S             09:14:54 08-Feb-20: STOP TIME  09:14:54 08-Feb-20
 STEP.S                   0.00: STEP TIME
 NULL.                 -999.25: NULL VALUE
 DFWT.                        :  DIST FWL TEXT
 DFST.                        :  DIST FSL TEXT
 DMF .             Drill Floor:  DRILL MEAS FROM
 STIM.      07.00.00 09-Jan-20:  START TIME
 DATE.      14.04.48 07-Feb-20:  END TIME
 SPUD.               09-Jan-20:  SPUD DATE
 NREF.                    Grid:  NORTH REFERENCE
 HPTY.       Minimum Curvature:  HOLE POS TYPE
 DMOD.             Drill Model:  DRILL MOD DESC
 SVYD.                  Survey:  SURVEY DESC
 ILTD.               Lithology:  INTERP LTH DESC
 FTOP.          Formation Tops:  FORM TOPS DESC
 SON .        AZ-XX-0905059384:  JOB NUMBER
 MDS .        Operator Entered:  MAG DATA SOURCE
 WTYP.                Deviated:  WELL TYPE
 COMP.     BP Exploration (Caspian Sea) Ltd.:  COMPANY
 UWI .                     N/A:  UNIQUE WELL IDENTIFIER
 API .                     N/A:  API NUMBER
 BASE.              Azerbaijan:  LOGGING EQUIPMENT BASE LOCATION
 REGN.                   EESSA:  REGION
 PROV.                    Baku:  PROVINCE
 STAT.                    Baku:  STATE NAME
 CTRY.              Azerbaijan:  COUNTRY NAME
 FLD .                     ACG:  FIELD NAME
 SRVC.     TURAN Drilling & Engineering:  CONTRACTOR
 MWDS.                    Baku:  MWD SHOP
 WELL.                     J22:  WELL NAME
 RIG .             West Chirag:  RIG NAME
 DOE .                     N/A:  DOE NUMBER
 DCON.         Sperry Drilling:  DIRECTNL CONTR
 UNIT.                     N/A:  LOGGING EQUIPMENT ID
 PDAT.          Mean Sea Level:  PERMANENT DATUM
 JOBN.        AZ-XX-0905059384:  JOB TICKET NUMB
 CNTY.                        :  COUNTY
 LOC .                        :  LOCATION
 LMF .             Drill Floor:  LOG MEASURED FROM
 TVDS.m                  43.00:  TVDSS CORRECTN
 LATI.deg                40.13:  LATITUDE
 LONG.deg                51.22:  LONGITUDE
 WHNS.m                  10.28:  WELL HEAD N/S
 WHEW.m                  -6.24:  WELL HEAD E/W
 UTMX.m              519005.06:  UTM X
 UTMY.m             4443793.85:  UTM Y
 DFWL.m                   0.00:  DISTANCE FWL
 DFSL.m                   0.00:  DISTANCE FSL
 SDEP.m                 362.00:  START DEPTH
 TDD .m                 904.00:  TOTAL DEPTH (DRILLER)
 VSDR.deg               148.53:  VERT SEC DIRECT
 GVFD.g                   1.00:  GRAVITY FIELD
 MFLD.nT              50277.00:  MAGNETIC FIELD
 MDIP.deg                59.56:  MAGNETIC DIP
 MDEC.deg                 6.42:  MAGNETIC DECL
 GRDC.deg                 0.15:  GRID CORRECTION
 AZTC.deg                 6.27:  AZM TOTAL CORR
 EPD .m                   0.00:  ELEVATION
 EGL .m                   0.00:  GROUND ELEVATION
 WDMS.m                 169.80:  WD ELEV
 APD .m                  43.00:  DEPTH ABOVE PD
 AGAP.m                  43.00:  AIR GAP
 VSEW.m                  -6.24:  VERT SEC E/W
 VSNS.m                  10.28:  VERT SEC N/S
 DEP .m                   0.00:  DEPTH
 EKB .m                   0.00:  KB ELEVATION
 EDF .m                  43.00:  DF ELEVATION
 TDL .m                1183.00:  TOTAL DEPTH (LOGGER)
 VSC .                       0:  VS TO CLOSURE
 MAGU.                 1850021:  MAGUTM CHECKSUM
~Parameter Information Block
#MNEM.UNIT       Value        Description
#---------     -----------    ---------------------------
 AV  .mps                 4.00:  Ann Velocity 
 AVMX.mps                 4.50:  Max Ann Veloc 
 AZIF.deg               145.38:  Azm, Final 
 BHAT.        Rotary Steerable:  BHA Type 
 BROT.°/30m               3.00:  Build Rotating 
 BS  .in                 12.25:  Bit Size 
 BSZ .in                 12.25:  Bit Size 
 BTPL.psig              650.00:  Bit Press Loss 
 CABU.                      No:  Customer Abuse 
 COMM.                     T!k:  Run Comments 1 
 TCS .hr                101.62:  Time Ciculation Ended 
 CV  .mps                 5.00:  Crit Velocity 
 CVMX.mps                 5.00:  Max Crit Veloc 
 DD1 .             Aziz Aliyev:  Direct Drillr 1 
 DD2 .      Fakhraddin Guliyev:  Direct Drillr 2 
 DDSV.                 iCruise:  DD Service 
 DEFF.%                  97.00:  % Det Eff 
 DLRX.°/30m               4.16:  Dogleg Rot Max 
 DLSO.°/30m               3.20:  Dogleg Oriented 
 DLSX.°/30m               4.10:  Dogleg Str Max 
 DRET.      23.12.00 07-Feb-20:  Drill End Time 
 DRST.      11.30.00 04-Feb-20:  Drill Start Tim 
 DTIM.hr                 61.06:  Time Drilling 
 EDEP.m                3219.01:  End Depth 
 ENG1.         Almaz Almadatov:  Engineer 1 
 ENG2.         Dair Mahammadov:  Engineer 2 
 ENG3.          Nazrin Asgarli:  Engineer 3 
 ETIM.      02.30.00 11-Feb-20:  End Time 
 FLOI.gpm              1100.00:  Flow In 
 FLON.gpm               900.00:  Flow In Min 
 FLOS.cptm               55.00:  Fluid Loss 
 FLOX.gpm              1150.00:  Flow In Max 
 FTRO.       Formation Presure:  FTWD Run Obj 
 HFLO.                      No:  High Flow 
 HPRE.                      No:  High Pressure 
 HTEM.                      No:  High Temp 
 HYDO.m                   1.80:  Hydro Offset 
 IFIN.deg                75.11:  Inc, Final 
 IMAX.deg                75.11:  Inc Max 
 IMIN.deg                33.55:  Inc Min 
 IMND.m                2186.05:  Inc Min Depth 
 IMXD.m                3205.61:  Inc Max Depth 
 JARR.                      No:  Jarring 
 LETM.      23.12.00 07-Feb-20:  Log End Time 
 LOST.hr                     0:  Lost Rig Time 
 LSTM.      11.30.00 04-Feb-20:  Log Start Time 
 MDCL.ppm             40000.00:  Mud Chlorides 
 MDES.     Inversion Oil/Synthetic:  Mud Desc 
 DFD .sg                  1.49:  Mud Density 
 MDMN.sg                  1.49:  Dens Mud Min 
 MDMX.sg                  1.49:  Dens Mud Max 
 MOIL.                      73:  Run Mud Oil % 
 MOWR.                   73:27:  Run Mud OWR 
 MSND.                     0.1:  Run Mud Sand % 
 MSOL.                    20.1:  Run Mud Solids% 
 DFV .spqt               78.00:  Mud Viscosity 
 MWOD.in                  8.00:  MWD Tool OD 
 MWSI.                      No:  Serv Intrp, MWD 
 OTIM.hr                177.15:  Time Operating 
 PCON.          Wear / Scratch:  Pad Condition 
 PMAX.psia            10493.93:  Press Op, Max 
 PV  .cP                 73.00:  Mud PV 
 RUN .                     700:  Run Number 
 ROPA.m/hr               15.00:  ROP Avg 
 ROPN.m/hr               10.00:  ROP Min 
 ROPX.m/hr               35.00:  ROP Max 
 RPMA.rpm               130.00:  RPM Surface Avg 
 RPMN.rpm                80.00:  RPM Surface Min 
 RPMX.rpm               150.00:  RPM Surface Max 
 RRUN.                    L402:  Rig Run Number 
 RTIM.hr                 80.50:  Time Reaming 
 SAZI.deg               155.55:  Azm, Start 
 SDEP.m                2036.00:  Start Depth 
 SIDD.                      No:  Serv Intrp, DD 
 SINC.deg                35.44:  Inc, Start 
 SPPA.psig             4270.00:  SPP Avg 
 SPPN.psig             2800.00:  SPP Min 
 SPPX.psig             4850.00:  SPP Max 
 STIM.      09.30.00 03-Feb-20:  Start Time 
 SVCS.                 DD, MWD:  Services 
 SVER.                    9.20:  Sperry Version 
 TDAT.m                1183.00:  Tot Depth Attmp 
 TDDF.                      No:  Trip for DD 
 TDLG.m                1183.00:  Tot Depth Loggd 
 TFF .                      No:  Trip for Fail 
 TQAA.f-kp               16.00:  Torque Abs Avg 
 TQAN.f-kp               10.00:  Torque Abs Min 
 TQAX.f-kp               20.00:  Torque Abs Max 
 TRRT.°/30m               1.00:  Turn Rotating 
 MRT .                  EWR-M5:  Maximum Recorded Temperature 
 TTMX.degC               80.39:  Max Tool Temp 
 VS01.               13098498 :  Virtual Str1 SN 
 VS02.                90569596:  Virtual Str2 SN 
 VS03.                90523599:  Virtual Str3 SN 
 VS04.                90573553:  Virtual Str4 SN 
 VS05.                90598598:  Virtual Str5 SN 
 VS06.                90577297:  Virtual Str6 SN 
 WBMN.klb                13.00:  WOB Min 
 WITN.         Alistair Sprott:  Customer Rep 
 WITN.           Rufat Babayev:  Customer Rep 2 
 WOBA.klb                15.00:  WOB Avg 
 WOBX.klb                20.00:  WOB Max 
 YP  .lhf2               39.00:  Yield Point 
~Curve Information Block
#MNEM.UNIT                 API CODE     Curve Description
#---------               -----------    ---------------------------
 TIME.HHMMSS            00 000 000 000:  GT Time & Date
 GTDEPTH.m              00 000 000 000:  GT Depth
 GTPQH.psia             00 000 000 000:  GT HR Quartz Pressure
 GTTQ.degC              00 000 000 000:  GT Quartz Temperature
 GTTN.NONE              00 000 000 000:  GT Test Number
 GTET.sec               00 000 000 000:  GT Elapsed Test Time
 GTTVD.m                00 000 000 000:  GT True Vertical Depth
#Other Information
#
#WARRANTY: Halliburton will use its best efforts to furnish customers with 
#accurate information and interpretations that are part of, and incident to, the services 
#provided.  However, Halliburton cannot and does not warrant the accuracy 
#or correctness of such information and interpretations.  Under no circumstances should any 
#such information or interpretation be relied upon as the sole basis for any drilling, 
#completion, production, or financial decision or any procedure involving any risk to the 
#safety of any drilling venture, drilling rig or its crew or any other third party.  The 
#Customer has full responsibility for all drilling, completion and production operation.  
#Halliburton makes no representations or warranties, either expressed or 
#implied, including, but not limited to, the implied warranties of merchantability or fitness 
#for a particular purpose, with respect to the services rendered.  In no event will 
#Halliburton be liable for failure to obtain any particular results or for 
#any damages, including, but not limited to, indirect, special or consequential damages, 
#resulting from the use of any information or interpretation provided by Halliburton.
#
~A           TIME           GTDEPTH  GTPQH  GTTQ  GTTN  GTET   GTTVD  
# ...
   09:09:44.771.08-Feb-2020 3153.21 4823.37 69.90 3.00  92.01 2652.75
   09:09:44.971.08-Feb-2020 3153.21 4823.37 69.90 3.00  92.21 2652.75
   09:09:45.171.08-Feb-2020 3153.21 4822.98 69.90 3.00  92.41 2652.75
   09:09:45.371.08-Feb-2020 3153.21 4823.04 69.90 3.00  92.61 2652.75
   09:09:45.571.08-Feb-2020 3153.21 4822.92 69.90 3.00  92.81 2652.75
   09:09:45.771.08-Feb-2020 3153.21 4822.87 69.90 3.00  93.01 2652.75
   09:09:45.971.08-Feb-2020 3153.21 4822.87 69.90 3.00  93.21 2652.75
   09:09:46.171.08-Feb-2020 3153.21 4822.55 69.90 3.00  93.41 2652.75
   09:09:46.372.08-Feb-2020 3153.21 4822.26 69.90 3.00  93.61 2652.75
   09:09:46.572.08-Feb-2020 3153.21 4823.34 69.90 3.00  93.81 2652.75
   09:09:46.772.08-Feb-2020 3153.21 4823.01 69.90 3.00  94.01 2652.75
   09:09:46.972.08-Feb-2020 3153.21 4823.01 69.90 3.00  94.21 2652.75
   09:09:47.172.08-Feb-2020 3153.21 4823.23 69.90 3.00  94.41 2652.75
   09:09:47.372.08-Feb-2020 3153.21 4822.96 69.90 3.00  94.61 2652.75
   09:09:47.572.08-Feb-2020 3153.21 4822.86 69.90 3.00  94.81 2652.75
   09:09:47.772.08-Feb-2020 3153.21 4822.99 69.90 3.00  95.01 2652.75
   09:09:47.972.08-Feb-2020 3153.21 4822.99 69.90 3.00  95.21 2652.75
   09:09:48.172.08-Feb-2020 3153.21 4821.75 69.90 3.00  95.41 2652.75
   09:09:48.372.08-Feb-2020 3153.21 4822.88 69.90 3.00  95.61 2652.75
   09:09:48.572.08-Feb-2020 3153.21 4823.31 69.90 3.00  95.81 2652.75
   09:09:48.772.08-Feb-2020 3153.21 4822.18 69.90 3.00  96.01 2652.75
   09:09:48.972.08-Feb-2020 3153.21 4822.18 69.90 3.00  96.21 2652.75
   09:09:49.172.08-Feb-2020 3153.21 4822.72 69.90 3.00  96.41 2652.75
   09:09:49.372.08-Feb-2020 3153.21 4823.78 69.90 3.00  96.61 2652.75
   09:09:49.572.08-Feb-2020 3153.21 4822.73 69.90 3.00  96.81 2652.75
   09:09:49.772.08-Feb-2020 3153.21 4822.95 69.90 3.00  97.01 2652.75
   09:09:49.972.08-Feb-2020 3153.21 4822.95 69.90 3.00  97.21 2652.75
   09:09:50.172.08-Feb-2020 3153.21 4822.91 69.90 3.00  97.41 2652.75
   09:09:50.372.08-Feb-2020 3153.21 4822.85 69.90 3.00  97.61 2652.75
   09:09:50.572.08-Feb-2020 3153.21 4823.14 69.90 3.00  97.81 2652.75
   09:09:50.772.08-Feb-2020 3153.21 4822.67 69.90 3.00  98.01 2652.75
   09:09:50.972.08-Feb-2020 3153.21 4822.67 69.90 3.00  98.21 2652.75
   09:09:51.172.08-Feb-2020 3153.21 4823.73 69.90 3.00  98.41 2652.75
   09:09:51.372.08-Feb-2020 3153.21 4822.82 69.90 3.00  98.61 2652.75
   09:09:51.572.08-Feb-2020 3153.21 4822.41 69.89 3.00  98.81 2652.75
   09:09:51.772.08-Feb-2020 3153.21 4823.29 69.89 3.00  99.01 2652.75
   09:09:51.972.08-Feb-2020 3153.21 4823.29 69.89 3.00  99.21 2652.75
   09:09:52.172.08-Feb-2020 3153.21 4822.87 69.89 3.00  99.41 2652.75
   09:09:52.372.08-Feb-2020 3153.21 4823.28 69.89 3.00  99.61 2652.75
   09:09:52.572.08-Feb-2020 3153.21 4822.97 69.89 3.00  99.81 2652.75
   09:09:52.772.08-Feb-2020 3153.21 4822.86 69.89 3.00 100.01 2652.75
   09:09:52.972.08-Feb-2020 3153.21 4822.86 69.89 3.00 100.21 2652.75
   09:09:53.172.08-Feb-2020 3153.21 4822.77 69.89 3.00 100.41 2652.75
   09:09:53.372.08-Feb-2020 3153.21 4822.74 69.89 3.00 100.61 2652.75
   09:09:53.572.08-Feb-2020 3153.21 4823.05 69.89 3.00 100.81 2652.75
   09:09:53.772.08-Feb-2020 3153.21 4822.47 69.89 3.00 101.01 2652.75
   09:09:53.972.08-Feb-2020 3153.21 4822.47 69.89 3.00 101.21 2652.75
   09:09:54.172.08-Feb-2020 3153.21 4823.37 69.89 3.00 101.41 2652.75
   09:09:54.372.08-Feb-2020 3153.21 4822.87 69.89 3.00 101.61 2652.75
   09:09:54.572.08-Feb-2020 3153.21 4823.08 69.89 3.00 101.81 2652.75
   09:09:54.772.08-Feb-2020 3153.21 4823.20 69.89 3.00 102.01 2652.75
   09:09:54.972.08-Feb-2020 3153.21 4823.20 69.89 3.00 102.21 2652.75
   09:09:55.172.08-Feb-2020 3153.21 4822.99 69.89 3.00 102.41 2652.75
   09:09:55.372.08-Feb-2020 3153.21 4823.64 69.89 3.00 102.61 2652.75
   09:09:55.572.08-Feb-2020 3153.21 4822.47 69.89 3.00 102.81 2652.75
   09:09:55.772.08-Feb-2020 3153.21 4822.46 69.89 3.00 103.01 2652.75
   09:09:55.972.08-Feb-2020 3153.21 4822.46 69.89 3.00 103.21 2652.75
   09:09:56.172.08-Feb-2020 3153.21 4821.69 69.89 3.00 103.41 2652.75
   09:09:56.372.08-Feb-2020 3153.21 4822.78 69.89 3.00 103.61 2652.75
   09:09:56.572.08-Feb-2020 3153.21 4823.04 69.89 3.00 103.81 2652.75
   09:09:56.772.08-Feb-2020 3153.21 4823.86 69.89 3.00 104.01 2652.75
   09:09:56.972.08-Feb-2020 3153.21 4823.86 69.89 3.00 104.21 2652.75
   09:09:57.172.08-Feb-2020 3153.21 4822.95 69.89 3.00 104.41 2652.75
   09:09:57.372.08-Feb-2020 3153.21 4823.05 69.89 3.00 104.61 2652.75
   09:09:57.572.08-Feb-2020 3153.21 4822.77 69.89 3.00 104.81 2652.75
   09:09:57.772.08-Feb-2020 3153.21 4823.70 69.89 3.00 105.01 2652.75
   09:09:57.972.08-Feb-2020 3153.21 4823.70 69.89 3.00 105.21 2652.75
   09:09:58.172.08-Feb-2020 3153.21 4822.28 69.89 3.00 105.41 2652.75
   09:09:58.373.08-Feb-2020 3153.21 4823.02 69.89 3.00 105.61 2652.75
   09:09:58.573.08-Feb-2020 3153.21 4823.16 69.89 3.00 105.81 2652.75
   09:09:58.773.08-Feb-2020 3153.21 4823.56 69.89 3.00 106.01 2652.75
   09:09:58.973.08-Feb-2020 3153.21 4823.56 69.89 3.00 106.21 2652.75
   09:09:59.173.08-Feb-2020 3153.21 4821.94 69.89 3.00 106.41 2652.75
   09:09:59.373.08-Feb-2020 3153.21 4822.26 69.89 3.00 106.61 2652.75
   09:09:59.573.08-Feb-2020 3153.21 4822.67 69.89 3.00 106.81 2652.75
   09:09:59.773.08-Feb-2020 3153.21 4822.90 69.89 3.00 107.01 2652.75
   09:09:59.973.08-Feb-2020 3153.21 4822.90 69.89 3.00 107.21 2652.75
   09:10:00.173.08-Feb-2020 3153.21 4823.01 69.89 3.00 107.41 2652.75
   09:10:00.373.08-Feb-2020 3153.21 4823.06 69.89 3.00 107.61 2652.75
   09:10:00.573.08-Feb-2020 3153.21 4823.13 69.89 3.00 107.81 2652.75
   09:10:00.773.08-Feb-2020 3153.21 4823.69 69.89 3.00 108.01 2652.75
   09:10:00.973.08-Feb-2020 3153.21 4823.69 69.89 3.00 108.21 2652.75
   09:10:01.173.08-Feb-2020 3153.21 4823.34 69.89 3.00 108.41 2652.75
   09:10:01.373.08-Feb-2020 3153.21 4822.92 69.89 3.00 108.61 2652.75
   09:10:01.573.08-Feb-2020 3153.21 4823.02 69.89 3.00 108.81 2652.75
   09:10:01.773.08-Feb-2020 3153.21 4823.31 69.89 3.00 109.01 2652.75
   09:10:01.973.08-Feb-2020 3153.21 4823.31 69.89 3.00 109.21 2652.75
   09:10:02.173.08-Feb-2020 3153.21 4823.12 69.89 3.00 109.41 2652.75
   09:10:02.373.08-Feb-2020 3153.21 4823.12 69.89 3.00 109.61 2652.75
   09:10:02.573.08-Feb-2020 3153.21 4822.84 69.89 3.00 109.81 2652.75
   09:10:02.773.08-Feb-2020 3153.21 4822.96 69.89 3.00 110.01 2652.75
   09:10:02.973.08-Feb-2020 3153.21 4822.96 69.89 3.00 110.21 2652.75
   09:10:03.173.08-Feb-2020 3153.21 4822.61 69.89 3.00 110.41 2652.75
   09:10:03.373.08-Feb-2020 3153.21 4822.95 69.89 3.00 110.61 2652.75
   09:10:03.573.08-Feb-2020 3153.21 4822.80 69.89 3.00 110.81 2652.75
   09:10:03.773.08-Feb-2020 3153.21 4822.31 69.89 3.00 111.01 2652.75
   09:10:03.973.08-Feb-2020 3153.21 4822.31 69.89 3.00 111.21 2652.75
   09:10:04.173.08-Feb-2020 3153.21 4823.34 69.89 3.00 111.41 2652.75
   09:10:04.373.08-Feb-2020 3153.21 4823.47 69.89 3.00 111.61 2652.75
   09:10:04.573.08-Feb-2020 3153.21 4822.63 69.89 3.00 111.81 2652.75
   09:10:04.773.08-Feb-2020 3153.21 4822.86 69.89 3.00 112.01 2652.75
   09:10:04.973.08-Feb-2020 3153.21 4822.86 69.89 3.00 112.21 2652.75
   09:10:05.173.08-Feb-2020 3153.21 4823.83 69.89 3.00 112.41 2652.75
   09:10:05.373.08-Feb-2020 3153.21 4821.81 69.89 3.00 112.61 2652.75
   09:10:05.573.08-Feb-2020 3153.21 4822.67 69.89 3.00 112.81 2652.75
   09:10:05.773.08-Feb-2020 3153.21 4823.10 69.89 3.00 113.01 2652.75
   09:10:05.973.08-Feb-2020 3153.21 4823.10 69.89 3.00 113.21 2652.75
   09:10:06.173.08-Feb-2020 3153.21 4822.81 69.89 3.00 113.41 2652.75
   09:10:06.373.08-Feb-2020 3153.21 4823.26 69.89 3.00 113.61 2652.75
   09:10:06.573.08-Feb-2020 3153.21 4822.77 69.89 3.00 113.81 2652.75
   09:10:06.773.08-Feb-2020 3153.21 4823.09 69.89 3.00 114.01 2652.75
   09:10:06.973.08-Feb-2020 3153.21 4823.09 69.89 3.00 114.21 2652.75
   09:10:07.173.08-Feb-2020 3153.21 4823.05 69.89 3.00 114.41 2652.75
   09:10:07.373.08-Feb-2020 3153.21 4823.25 69.89 3.00 114.61 2652.75
   09:10:07.573.08-Feb-2020 3153.21 4822.91 69.89 3.00 114.81 2652.75
