~Version Information
 VERS.                  2.0:   CWLS log ASCII Standard -VERSION 2.0
 WRAP.                   NO:   One line per depth step
~Well Information Block
#MNEM.UNIT     VALUE/NAME     DESCRIPTION
#---------     -----------    ---------------------------
 STRT.S             08:19:39 08-Feb-20: START TIME 08:19:39 08-Feb-20
 STOP.S             08:26:25 08-Feb-20: STOP TIME  08:26:25 08-Feb-20
 STEP.S                   0.00: STEP TIME
 NULL.                 -999.25: NULL VALUE
 DFWT.                        :  DIST FWL TEXT
 DFST.                        :  DIST FSL TEXT
 DMF .             Drill Floor:  DRILL MEAS FROM
 STIM.      07.00.00 09-Jan-20:  START TIME
 DATE.      14.04.48 07-Feb-20:  END TIME
 SPUD.               09-Jan-20:  SPUD DATE
 NREF.                    Grid:  NORTH REFERENCE
 HPTY.       Minimum Curvature:  HOLE POS TYPE
 DMOD.             Drill Model:  DRILL MOD DESC
 SVYD.                  Survey:  SURVEY DESC
 ILTD.               Lithology:  INTERP LTH DESC
 FTOP.          Formation Tops:  FORM TOPS DESC
 SON .        AZ-XX-0905059384:  JOB NUMBER
 MDS .        Operator Entered:  MAG DATA SOURCE
 WTYP.                Deviated:  WELL TYPE
 COMP.     BP Exploration (Caspian Sea) Ltd.:  COMPANY
 UWI .                     N/A:  UNIQUE WELL IDENTIFIER
 API .                     N/A:  API NUMBER
 BASE.              Azerbaijan:  LOGGING EQUIPMENT BASE LOCATION
 REGN.                   EESSA:  REGION
 PROV.                    Baku:  PROVINCE
 STAT.                    Baku:  STATE NAME
 CTRY.              Azerbaijan:  COUNTRY NAME
 FLD .                     ACG:  FIELD NAME
 SRVC.     TURAN Drilling & Engineering:  CONTRACTOR
 MWDS.                    Baku:  MWD SHOP
 WELL.                     J22:  WELL NAME
 RIG .             West Chirag:  RIG NAME
 DOE .                     N/A:  DOE NUMBER
 DCON.         Sperry Drilling:  DIRECTNL CONTR
 UNIT.                     N/A:  LOGGING EQUIPMENT ID
 PDAT.          Mean Sea Level:  PERMANENT DATUM
 JOBN.        AZ-XX-0905059384:  JOB TICKET NUMB
 CNTY.                        :  COUNTY
 LOC .                        :  LOCATION
 LMF .             Drill Floor:  LOG MEASURED FROM
 TVDS.m                  43.00:  TVDSS CORRECTN
 LATI.deg                40.13:  LATITUDE
 LONG.deg                51.22:  LONGITUDE
 WHNS.m                  10.28:  WELL HEAD N/S
 WHEW.m                  -6.24:  WELL HEAD E/W
 UTMX.m              519005.06:  UTM X
 UTMY.m             4443793.85:  UTM Y
 DFWL.m                   0.00:  DISTANCE FWL
 DFSL.m                   0.00:  DISTANCE FSL
 SDEP.m                 362.00:  START DEPTH
 TDD .m                 904.00:  TOTAL DEPTH (DRILLER)
 VSDR.deg               148.53:  VERT SEC DIRECT
 GVFD.g                   1.00:  GRAVITY FIELD
 MFLD.nT              50277.00:  MAGNETIC FIELD
 MDIP.deg                59.56:  MAGNETIC DIP
 MDEC.deg                 6.42:  MAGNETIC DECL
 GRDC.deg                 0.15:  GRID CORRECTION
 AZTC.deg                 6.27:  AZM TOTAL CORR
 EPD .m                   0.00:  ELEVATION
 EGL .m                   0.00:  GROUND ELEVATION
 WDMS.m                 169.80:  WD ELEV
 APD .m                  43.00:  DEPTH ABOVE PD
 AGAP.m                  43.00:  AIR GAP
 VSEW.m                  -6.24:  VERT SEC E/W
 VSNS.m                  10.28:  VERT SEC N/S
 DEP .m                   0.00:  DEPTH
 EKB .m                   0.00:  KB ELEVATION
 EDF .m                  43.00:  DF ELEVATION
 TDL .m                1183.00:  TOTAL DEPTH (LOGGER)
 VSC .                       0:  VS TO CLOSURE
 MAGU.                 1850021:  MAGUTM CHECKSUM
~Parameter Information Block
#MNEM.UNIT       Value        Description
#---------     -----------    ---------------------------
 AV  .mps                 4.00:  Ann Velocity 
 AVMX.mps                 4.50:  Max Ann Veloc 
 AZIF.deg               145.38:  Azm, Final 
 BHAT.        Rotary Steerable:  BHA Type 
 BROT.°/30m               3.00:  Build Rotating 
 BS  .in                 12.25:  Bit Size 
 BSZ .in                 12.25:  Bit Size 
 BTPL.psig              650.00:  Bit Press Loss 
 CABU.                      No:  Customer Abuse 
 COMM.                     ä7n:  Run Comments 1 
 TCS .hr                101.62:  Time Ciculation Ended 
 CV  .mps                 5.00:  Crit Velocity 
 CVMX.mps                 5.00:  Max Crit Veloc 
 DD1 .             Aziz Aliyev:  Direct Drillr 1 
 DD2 .      Fakhraddin Guliyev:  Direct Drillr 2 
 DDSV.                 iCruise:  DD Service 
 DEFF.%                  97.00:  % Det Eff 
 DLRX.°/30m               4.16:  Dogleg Rot Max 
 DLSO.°/30m               3.20:  Dogleg Oriented 
 DLSX.°/30m               4.10:  Dogleg Str Max 
 DRET.      23.12.00 07-Feb-20:  Drill End Time 
 DRST.      11.30.00 04-Feb-20:  Drill Start Tim 
 DTIM.hr                 61.06:  Time Drilling 
 EDEP.m                3219.01:  End Depth 
 ENG1.         Almaz Almadatov:  Engineer 1 
 ENG2.         Dair Mahammadov:  Engineer 2 
 ENG3.          Nazrin Asgarli:  Engineer 3 
 ETIM.      02.30.00 11-Feb-20:  End Time 
 FLOI.gpm              1100.00:  Flow In 
 FLON.gpm               900.00:  Flow In Min 
 FLOS.cptm               55.00:  Fluid Loss 
 FLOX.gpm              1150.00:  Flow In Max 
 FTRO.       Formation Presure:  FTWD Run Obj 
 HFLO.                      No:  High Flow 
 HPRE.                      No:  High Pressure 
 HTEM.                      No:  High Temp 
 HYDO.m                   1.80:  Hydro Offset 
 IFIN.deg                75.11:  Inc, Final 
 IMAX.deg                75.11:  Inc Max 
 IMIN.deg                33.55:  Inc Min 
 IMND.m                2186.05:  Inc Min Depth 
 IMXD.m                3205.61:  Inc Max Depth 
 JARR.                      No:  Jarring 
 LETM.      23.12.00 07-Feb-20:  Log End Time 
 LOST.hr                     0:  Lost Rig Time 
 LSTM.      11.30.00 04-Feb-20:  Log Start Time 
 MDCL.ppm             40000.00:  Mud Chlorides 
 MDES.     Inversion Oil/Synthetic:  Mud Desc 
 DFD .sg                  1.49:  Mud Density 
 MDMN.sg                  1.49:  Dens Mud Min 
 MDMX.sg                  1.49:  Dens Mud Max 
 MOIL.                      73:  Run Mud Oil % 
 MOWR.                   73:27:  Run Mud OWR 
 MSND.                     0.1:  Run Mud Sand % 
 MSOL.                    20.1:  Run Mud Solids% 
 DFV .spqt               78.00:  Mud Viscosity 
 MWOD.in                  8.00:  MWD Tool OD 
 MWSI.                      No:  Serv Intrp, MWD 
 OTIM.hr                177.15:  Time Operating 
 PCON.          Wear / Scratch:  Pad Condition 
 PMAX.psia            10493.93:  Press Op, Max 
 PV  .cP                 73.00:  Mud PV 
 RUN .                     700:  Run Number 
 ROPA.m/hr               15.00:  ROP Avg 
 ROPN.m/hr               10.00:  ROP Min 
 ROPX.m/hr               35.00:  ROP Max 
 RPMA.rpm               130.00:  RPM Surface Avg 
 RPMN.rpm                80.00:  RPM Surface Min 
 RPMX.rpm               150.00:  RPM Surface Max 
 RRUN.                    L402:  Rig Run Number 
 RTIM.hr                 80.50:  Time Reaming 
 SAZI.deg               155.55:  Azm, Start 
 SDEP.m                2036.00:  Start Depth 
 SIDD.                      No:  Serv Intrp, DD 
 SINC.deg                35.44:  Inc, Start 
 SPPA.psig             4270.00:  SPP Avg 
 SPPN.psig             2800.00:  SPP Min 
 SPPX.psig             4850.00:  SPP Max 
 STIM.      09.30.00 03-Feb-20:  Start Time 
 SVCS.                 DD, MWD:  Services 
 SVER.                    9.20:  Sperry Version 
 TDAT.m                1183.00:  Tot Depth Attmp 
 TDDF.                      No:  Trip for DD 
 TDLG.m                1183.00:  Tot Depth Loggd 
 TFF .                      No:  Trip for Fail 
 TQAA.f-kp               16.00:  Torque Abs Avg 
 TQAN.f-kp               10.00:  Torque Abs Min 
 TQAX.f-kp               20.00:  Torque Abs Max 
 TRRT.°/30m               1.00:  Turn Rotating 
 MRT .                  EWR-M5:  Maximum Recorded Temperature 
 TTMX.degC               80.39:  Max Tool Temp 
 VS01.               13098498 :  Virtual Str1 SN 
 VS02.                90569596:  Virtual Str2 SN 
 VS03.                90523599:  Virtual Str3 SN 
 VS04.                90573553:  Virtual Str4 SN 
 VS05.                90598598:  Virtual Str5 SN 
 VS06.                90577297:  Virtual Str6 SN 
 WBMN.klb                13.00:  WOB Min 
 WITN.         Alistair Sprott:  Customer Rep 
 WITN.           Rufat Babayev:  Customer Rep 2 
 WOBA.klb                15.00:  WOB Avg 
 WOBX.klb                20.00:  WOB Max 
 YP  .lhf2               39.00:  Yield Point 
~Curve Information Block
#MNEM.UNIT                 API CODE     Curve Description
#---------               -----------    ---------------------------
 TIME.HHMMSS            00 000 000 000:  GT Time & Date
 GTDEPTH.m              00 000 000 000:  GT Depth
 GTPQH.psia             00 000 000 000:  GT HR Quartz Pressure
 GTTQ.degC              00 000 000 000:  GT Quartz Temperature
 GTTN.NONE              00 000 000 000:  GT Test Number
 GTET.sec               00 000 000 000:  GT Elapsed Test Time
 GTTVD.m                00 000 000 000:  GT True Vertical Depth
#Other Information
#
#WARRANTY: Halliburton will use its best efforts to furnish customers with 
#accurate information and interpretations that are part of, and incident to, the services 
#provided.  However, Halliburton cannot and does not warrant the accuracy 
#or correctness of such information and interpretations.  Under no circumstances should any 
#such information or interpretation be relied upon as the sole basis for any drilling, 
#completion, production, or financial decision or any procedure involving any risk to the 
#safety of any drilling venture, drilling rig or its crew or any other third party.  The 
#Customer has full responsibility for all drilling, completion and production operation.  
#Halliburton makes no representations or warranties, either expressed or 
#implied, including, but not limited to, the implied warranties of merchantability or fitness 
#for a particular purpose, with respect to the services rendered.  In no event will 
#Halliburton be liable for failure to obtain any particular results or for 
#any damages, including, but not limited to, indirect, special or consequential damages, 
#resulting from the use of any information or interpretation provided by Halliburton.
#
~A           TIME           GTDEPTH  GTPQH  GTTQ  GTTN  GTET   GTTVD  
# ...
   08:25:47.550.08-Feb-2020 3134.51 4721.28 73.40 1.00 368.03 2647.81
   08:25:47.750.08-Feb-2020 3134.51 4721.28 73.40 1.00 368.23 2647.81
   08:25:47.950.08-Feb-2020 3134.51 4721.17 73.40 1.00 368.43 2647.81
   08:25:48.150.08-Feb-2020 3134.51 4721.31 73.40 1.00 368.63 2647.81
   08:25:48.351.08-Feb-2020 3134.51 4721.06 73.40 1.00 368.83 2647.81
   08:25:48.551.08-Feb-2020 3134.51 4721.13 73.40 1.00 369.03 2647.81
   08:25:48.751.08-Feb-2020 3134.51 4721.13 73.40 1.00 369.23 2647.81
   08:25:48.951.08-Feb-2020 3134.51 4720.95 73.40 1.00 369.43 2647.81
   08:25:49.151.08-Feb-2020 3134.51 4721.25 73.40 1.00 369.63 2647.81
   08:25:49.351.08-Feb-2020 3134.51 4721.47 73.40 1.00 369.83 2647.81
   08:25:49.551.08-Feb-2020 3134.51 4721.31 73.40 1.00 370.03 2647.81
   08:25:49.751.08-Feb-2020 3134.51 4721.31 73.40 1.00 370.23 2647.81
   08:25:49.951.08-Feb-2020 3134.51 4721.97 73.39 1.00 370.43 2647.81
   08:25:50.151.08-Feb-2020 3134.51 4722.01 73.39 1.00 370.63 2647.81
   08:25:50.351.08-Feb-2020 3134.51 4722.20 73.39 1.00 370.83 2647.81
   08:25:50.551.08-Feb-2020 3134.51 4722.22 73.39 1.00 371.03 2647.81
   08:25:50.751.08-Feb-2020 3134.51 4722.22 73.39 1.00 371.23 2647.81
   08:25:50.951.08-Feb-2020 3134.51 4722.61 73.39 1.00 371.43 2647.81
   08:25:51.151.08-Feb-2020 3134.51 4722.66 73.39 1.00 371.63 2647.81
   08:25:51.351.08-Feb-2020 3134.51 4722.49 73.39 1.00 371.83 2647.81
   08:25:51.551.08-Feb-2020 3134.51 4722.84 73.39 1.00 372.03 2647.81
   08:25:51.751.08-Feb-2020 3134.51 4722.84 73.39 1.00 372.23 2647.81
   08:25:51.951.08-Feb-2020 3134.51 4722.57 73.39 1.00 372.43 2647.81
   08:25:52.151.08-Feb-2020 3134.51 4683.59 73.39 1.00 372.63 2647.81
   08:25:52.351.08-Feb-2020 3134.51 4283.82 73.39 1.00 372.83 2647.81
   08:25:52.551.08-Feb-2020 3134.51 4542.70 73.39 1.00 373.03 2647.81
   08:25:52.751.08-Feb-2020 3134.51 4542.70 73.39 1.00 373.23 2647.81
   08:25:52.951.08-Feb-2020 3134.51 5745.40 73.39 1.00 373.43 2647.81
   08:25:53.151.08-Feb-2020 3134.51 5722.55 73.39 1.00 373.63 2647.81
   08:25:53.351.08-Feb-2020 3134.51 5707.52 73.39 1.00 373.83 2647.81
   08:25:53.551.08-Feb-2020 3134.51 5739.49 73.39 1.00 374.03 2647.81
   08:25:53.751.08-Feb-2020 3134.51 5739.49 73.39 1.00 374.23 2647.81
   08:25:53.951.08-Feb-2020 3134.51 5775.52 73.39 1.00 374.43 2647.81
   08:25:54.151.08-Feb-2020 3134.51 5806.02 73.39 1.00 374.63 2647.81
   08:25:54.351.08-Feb-2020 3134.51 5807.25 73.39 1.00 374.83 2647.81
   08:25:54.551.08-Feb-2020 3134.51 5794.14 73.39 1.00 375.03 2647.81
   08:25:54.751.08-Feb-2020 3134.51 5794.14 73.39 1.00 375.23 2647.81
   08:25:54.951.08-Feb-2020 3134.51 5751.11 73.39 1.00 375.43 2647.81
   08:25:55.151.08-Feb-2020 3134.51 5753.64 73.39 1.00 375.63 2647.81
   08:25:55.351.08-Feb-2020 3134.51 5752.13 73.39 1.00 375.83 2647.81
   08:25:55.551.08-Feb-2020 3134.51 5750.28 73.39 1.00 376.03 2647.81
   08:25:55.751.08-Feb-2020 3134.51 5750.28 73.39 1.00 376.23 2647.81
   08:25:55.951.08-Feb-2020 3134.51 5752.91 73.39 1.00 376.43 2647.81
   08:25:56.151.08-Feb-2020 3134.51 5752.36 73.39 1.00 376.63 2647.81
   08:25:56.351.08-Feb-2020 3134.51 5751.76 73.39 1.00 376.83 2647.81
   08:25:56.551.08-Feb-2020 3134.51 5752.62 73.39 1.00 377.03 2647.81
   08:25:56.751.08-Feb-2020 3134.51 5752.62 73.39 1.00 377.23 2647.81
   08:25:56.951.08-Feb-2020 3134.51 5752.57 73.39 1.00 377.43 2647.81
   08:25:57.151.08-Feb-2020 3134.51 5753.02 73.39 1.00 377.63 2647.81
   08:25:57.351.08-Feb-2020 3134.51 5751.93 73.39 1.00 377.83 2647.81
   08:25:57.551.08-Feb-2020 3134.51 5751.37 73.39 1.00 378.03 2647.81
   08:25:57.751.08-Feb-2020 3134.51 5751.37 73.39 1.00 378.23 2647.81
   08:25:57.951.08-Feb-2020 3134.51 5751.49 73.39 1.00 378.43 2647.81
   08:25:58.151.08-Feb-2020 3134.51 5754.56 73.39 1.00 378.63 2647.81
   08:25:58.351.08-Feb-2020 3134.51 5753.95 73.39 1.00 378.83 2647.81
   08:25:58.551.08-Feb-2020 3134.51 5752.18 73.39 1.00 379.03 2647.81
   08:25:58.751.08-Feb-2020 3134.51 5752.18 73.39 1.00 379.23 2647.81
   08:25:58.951.08-Feb-2020 3134.51 5752.76 73.39 1.00 379.43 2647.81
   08:25:59.151.08-Feb-2020 3134.51 5752.51 73.39 1.00 379.63 2647.81
   08:25:59.351.08-Feb-2020 3134.51 5752.78 73.39 1.00 379.83 2647.81
   08:25:59.551.08-Feb-2020 3134.51 5752.01 73.39 1.00 380.03 2647.81
   08:25:59.751.08-Feb-2020 3134.51 5752.01 73.39 1.00 380.23 2647.81
   08:25:59.951.08-Feb-2020 3134.51 5751.49 73.39 1.00 380.43 2647.81
   08:26:00.151.08-Feb-2020 3134.51 5757.21 73.39 1.00 380.63 2647.81
   08:26:00.352.08-Feb-2020 3134.51 5750.44 73.39 1.00 380.83 2647.81
   08:26:00.552.08-Feb-2020 3134.51 5749.85 73.39 1.00 381.03 2647.81
   08:26:00.752.08-Feb-2020 3134.51 5749.85 73.39 1.00 381.23 2647.81
   08:26:00.952.08-Feb-2020 3134.51 5753.18 73.39 1.00 381.43 2647.81
   08:26:01.152.08-Feb-2020 3134.51 5751.17 73.39 1.00 381.63 2647.81
   08:26:01.352.08-Feb-2020 3134.51 5753.99 73.39 1.00 381.83 2647.81
   08:26:01.552.08-Feb-2020 3134.51 5753.89 73.39 1.00 382.03 2647.81
   08:26:01.752.08-Feb-2020 3134.51 5752.51 73.39 1.00 382.23 2647.81
   08:26:01.952.08-Feb-2020 3134.51 5750.70 73.39 1.00 382.43 2647.81
   08:26:02.152.08-Feb-2020 3134.51 5751.96 73.39 1.00 382.63 2647.81
   08:26:02.352.08-Feb-2020 3134.51 5755.32 73.39 1.00 382.83 2647.81
   08:26:02.552.08-Feb-2020 3134.51 5751.98 73.39 1.00 383.03 2647.81
   08:26:02.752.08-Feb-2020 3134.51 5751.98 73.39 1.00 383.23 2647.81
   08:26:02.952.08-Feb-2020 3134.51 5754.01 73.39 1.00 383.43 2647.81
   08:26:03.152.08-Feb-2020 3134.51 5754.30 73.39 1.00 383.63 2647.81
   08:26:03.352.08-Feb-2020 3134.51 5751.40 73.39 1.00 383.83 2647.81
   08:26:03.552.08-Feb-2020 3134.51 5752.33 73.39 1.00 384.03 2647.81
   08:26:03.752.08-Feb-2020 3134.51 5752.33 73.39 1.00 384.23 2647.81
   08:26:03.952.08-Feb-2020 3134.51 5752.19 73.38 1.00 384.43 2647.81
   08:26:04.152.08-Feb-2020 3134.51 5752.66 73.38 1.00 384.63 2647.81
   08:26:04.352.08-Feb-2020 3134.51 5753.23 73.38 1.00 384.83 2647.81
   08:26:04.552.08-Feb-2020 3134.51 5752.33 73.38 1.00 385.03 2647.81
   08:26:04.752.08-Feb-2020 3134.51 5752.33 73.38 1.00 385.23 2647.81
   08:26:04.952.08-Feb-2020 3134.51 5751.91 73.38 1.00 385.43 2647.81
   08:26:05.152.08-Feb-2020 3134.51 5755.81 73.38 1.00 385.63 2647.81
   08:26:05.352.08-Feb-2020 3134.51 5753.45 73.38 1.00 385.83 2647.81
   08:26:05.552.08-Feb-2020 3134.51 5751.42 73.38 1.00 386.03 2647.81
   08:26:05.752.08-Feb-2020 3134.51 5751.42 73.38 1.00 386.23 2647.81
   08:26:05.952.08-Feb-2020 3134.51 5753.03 73.38 1.00 386.43 2647.81
   08:26:06.152.08-Feb-2020 3134.51 5751.82 73.38 1.00 386.63 2647.81
   08:26:06.352.08-Feb-2020 3134.51 5752.04 73.38 1.00 386.83 2647.81
   08:26:06.552.08-Feb-2020 3134.51 5752.45 73.38 1.00 387.03 2647.81
   08:26:06.752.08-Feb-2020 3134.51 5752.45 73.38 1.00 387.23 2647.81
   08:26:06.952.08-Feb-2020 3134.51 5751.64 73.38 1.00 387.43 2647.81
   08:26:07.152.08-Feb-2020 3134.51 5751.89 73.38 1.00 387.63 2647.81
   08:26:07.352.08-Feb-2020 3134.51 5754.24 73.38 1.00 387.83 2647.81
   08:26:07.552.08-Feb-2020 3134.51 5753.15 73.38 1.00 388.03 2647.81
   08:26:07.752.08-Feb-2020 3134.51 5753.15 73.38 1.00 388.23 2647.81
   08:26:07.952.08-Feb-2020 3134.51 5753.92 73.37 1.00 388.43 2647.81
   08:26:08.152.08-Feb-2020 3134.51 5753.54 73.37 1.00 388.63 2647.81
   08:26:08.352.08-Feb-2020 3134.51 5749.76 73.37 1.00 388.83 2647.81
   08:26:08.552.08-Feb-2020 3134.51 5756.18 73.37 1.00 389.03 2647.81
   08:26:08.752.08-Feb-2020 3134.51 5756.18 73.37 1.00 389.23 2647.81
   08:26:08.952.08-Feb-2020 3134.51 5749.58 73.37 1.00 389.43 2647.81
   08:26:09.152.08-Feb-2020 3134.51 5750.34 73.37 1.00 389.63 2647.81
   08:26:09.352.08-Feb-2020 3134.51 5750.99 73.37 1.00 389.83 2647.81
   08:26:09.552.08-Feb-2020 3134.51 5754.50 73.37 1.00 390.03 2647.81
   08:26:09.752.08-Feb-2020 3134.51 5754.50 73.37 1.00 390.23 2647.81
   08:26:09.952.08-Feb-2020 3134.51 5750.00 73.37 1.00 390.43 2647.81
   08:26:10.152.08-Feb-2020 3134.51 5756.03 73.37 1.00 390.63 2647.81
   08:26:10.352.08-Feb-2020 3134.51 5752.07 73.37 1.00 390.83 2647.81
