~Version Information
 VERS.                  2.0:   CWLS log ASCII Standard -VERSION 2.0
 WRAP.                   NO:   One line per depth step
~Well Information Block
#MNEM.UNIT     VALUE/NAME     DESCRIPTION
#---------     -----------    ---------------------------
 STRT.S             08:41:50 08-Feb-20: START TIME 08:41:50 08-Feb-20
 STOP.S             08:48:48 08-Feb-20: STOP TIME  08:48:48 08-Feb-20
 STEP.S                   0.00: STEP TIME
 NULL.                 -999.25: NULL VALUE
 DFWT.                        :  DIST FWL TEXT
 DFST.                        :  DIST FSL TEXT
 DMF .             Drill Floor:  DRILL MEAS FROM
 STIM.      07.00.00 09-Jan-20:  START TIME
 DATE.      14.04.48 07-Feb-20:  END TIME
 SPUD.               09-Jan-20:  SPUD DATE
 NREF.                    Grid:  NORTH REFERENCE
 HPTY.       Minimum Curvature:  HOLE POS TYPE
 DMOD.             Drill Model:  DRILL MOD DESC
 SVYD.                  Survey:  SURVEY DESC
 ILTD.               Lithology:  INTERP LTH DESC
 FTOP.          Formation Tops:  FORM TOPS DESC
 SON .        AZ-XX-0905059384:  JOB NUMBER
 MDS .        Operator Entered:  MAG DATA SOURCE
 WTYP.                Deviated:  WELL TYPE
 COMP.     BP Exploration (Caspian Sea) Ltd.:  COMPANY
 UWI .                     N/A:  UNIQUE WELL IDENTIFIER
 API .                     N/A:  API NUMBER
 BASE.              Azerbaijan:  LOGGING EQUIPMENT BASE LOCATION
 REGN.                   EESSA:  REGION
 PROV.                    Baku:  PROVINCE
 STAT.                    Baku:  STATE NAME
 CTRY.              Azerbaijan:  COUNTRY NAME
 FLD .                     ACG:  FIELD NAME
 SRVC.     TURAN Drilling & Engineering:  CONTRACTOR
 MWDS.                    Baku:  MWD SHOP
 WELL.                     J22:  WELL NAME
 RIG .             West Chirag:  RIG NAME
 DOE .                     N/A:  DOE NUMBER
 DCON.         Sperry Drilling:  DIRECTNL CONTR
 UNIT.                     N/A:  LOGGING EQUIPMENT ID
 PDAT.          Mean Sea Level:  PERMANENT DATUM
 JOBN.        AZ-XX-0905059384:  JOB TICKET NUMB
 CNTY.                        :  COUNTY
 LOC .                        :  LOCATION
 LMF .             Drill Floor:  LOG MEASURED FROM
 TVDS.m                  43.00:  TVDSS CORRECTN
 LATI.deg                40.13:  LATITUDE
 LONG.deg                51.22:  LONGITUDE
 WHNS.m                  10.28:  WELL HEAD N/S
 WHEW.m                  -6.24:  WELL HEAD E/W
 UTMX.m              519005.06:  UTM X
 UTMY.m             4443793.85:  UTM Y
 DFWL.m                   0.00:  DISTANCE FWL
 DFSL.m                   0.00:  DISTANCE FSL
 SDEP.m                 362.00:  START DEPTH
 TDD .m                 904.00:  TOTAL DEPTH (DRILLER)
 VSDR.deg               148.53:  VERT SEC DIRECT
 GVFD.g                   1.00:  GRAVITY FIELD
 MFLD.nT              50277.00:  MAGNETIC FIELD
 MDIP.deg                59.56:  MAGNETIC DIP
 MDEC.deg                 6.42:  MAGNETIC DECL
 GRDC.deg                 0.15:  GRID CORRECTION
 AZTC.deg                 6.27:  AZM TOTAL CORR
 EPD .m                   0.00:  ELEVATION
 EGL .m                   0.00:  GROUND ELEVATION
 WDMS.m                 169.80:  WD ELEV
 APD .m                  43.00:  DEPTH ABOVE PD
 AGAP.m                  43.00:  AIR GAP
 VSEW.m                  -6.24:  VERT SEC E/W
 VSNS.m                  10.28:  VERT SEC N/S
 DEP .m                   0.00:  DEPTH
 EKB .m                   0.00:  KB ELEVATION
 EDF .m                  43.00:  DF ELEVATION
 TDL .m                1183.00:  TOTAL DEPTH (LOGGER)
 VSC .                       0:  VS TO CLOSURE
 MAGU.                 1850021:  MAGUTM CHECKSUM
~Parameter Information Block
#MNEM.UNIT       Value        Description
#---------     -----------    ---------------------------
 AV  .mps                 4.00:  Ann Velocity 
 AVMX.mps                 4.50:  Max Ann Veloc 
 AZIF.deg               145.38:  Azm, Final 
 BHAT.        Rotary Steerable:  BHA Type 
 BROT.°/30m               3.00:  Build Rotating 
 BS  .in                 12.25:  Bit Size 
 BSZ .in                 12.25:  Bit Size 
 BTPL.psig              650.00:  Bit Press Loss 
 CABU.                      No:  Customer Abuse 
 COMM.                     [:  Run Comments 1 
 TCS .hr                101.62:  Time Ciculation Ended 
 CV  .mps                 5.00:  Crit Velocity 
 CVMX.mps                 5.00:  Max Crit Veloc 
 DD1 .             Aziz Aliyev:  Direct Drillr 1 
 DD2 .      Fakhraddin Guliyev:  Direct Drillr 2 
 DDSV.                 iCruise:  DD Service 
 DEFF.%                  97.00:  % Det Eff 
 DLRX.°/30m               4.16:  Dogleg Rot Max 
 DLSO.°/30m               3.20:  Dogleg Oriented 
 DLSX.°/30m               4.10:  Dogleg Str Max 
 DRET.      23.12.00 07-Feb-20:  Drill End Time 
 DRST.      11.30.00 04-Feb-20:  Drill Start Tim 
 DTIM.hr                 61.06:  Time Drilling 
 EDEP.m                3219.01:  End Depth 
 ENG1.         Almaz Almadatov:  Engineer 1 
 ENG2.         Dair Mahammadov:  Engineer 2 
 ENG3.          Nazrin Asgarli:  Engineer 3 
 ETIM.      02.30.00 11-Feb-20:  End Time 
 FLOI.gpm              1100.00:  Flow In 
 FLON.gpm               900.00:  Flow In Min 
 FLOS.cptm               55.00:  Fluid Loss 
 FLOX.gpm              1150.00:  Flow In Max 
 FTRO.       Formation Presure:  FTWD Run Obj 
 HFLO.                      No:  High Flow 
 HPRE.                      No:  High Pressure 
 HTEM.                      No:  High Temp 
 HYDO.m                   1.80:  Hydro Offset 
 IFIN.deg                75.11:  Inc, Final 
 IMAX.deg                75.11:  Inc Max 
 IMIN.deg                33.55:  Inc Min 
 IMND.m                2186.05:  Inc Min Depth 
 IMXD.m                3205.61:  Inc Max Depth 
 JARR.                      No:  Jarring 
 LETM.      23.12.00 07-Feb-20:  Log End Time 
 LOST.hr                     0:  Lost Rig Time 
 LSTM.      11.30.00 04-Feb-20:  Log Start Time 
 MDCL.ppm             40000.00:  Mud Chlorides 
 MDES.     Inversion Oil/Synthetic:  Mud Desc 
 DFD .sg                  1.49:  Mud Density 
 MDMN.sg                  1.49:  Dens Mud Min 
 MDMX.sg                  1.49:  Dens Mud Max 
 MOIL.                      73:  Run Mud Oil % 
 MOWR.                   73:27:  Run Mud OWR 
 MSND.                     0.1:  Run Mud Sand % 
 MSOL.                    20.1:  Run Mud Solids% 
 DFV .spqt               78.00:  Mud Viscosity 
 MWOD.in                  8.00:  MWD Tool OD 
 MWSI.                      No:  Serv Intrp, MWD 
 OTIM.hr                177.15:  Time Operating 
 PCON.          Wear / Scratch:  Pad Condition 
 PMAX.psia            10493.93:  Press Op, Max 
 PV  .cP                 73.00:  Mud PV 
 RUN .                     700:  Run Number 
 ROPA.m/hr               15.00:  ROP Avg 
 ROPN.m/hr               10.00:  ROP Min 
 ROPX.m/hr               35.00:  ROP Max 
 RPMA.rpm               130.00:  RPM Surface Avg 
 RPMN.rpm                80.00:  RPM Surface Min 
 RPMX.rpm               150.00:  RPM Surface Max 
 RRUN.                    L402:  Rig Run Number 
 RTIM.hr                 80.50:  Time Reaming 
 SAZI.deg               155.55:  Azm, Start 
 SDEP.m                2036.00:  Start Depth 
 SIDD.                      No:  Serv Intrp, DD 
 SINC.deg                35.44:  Inc, Start 
 SPPA.psig             4270.00:  SPP Avg 
 SPPN.psig             2800.00:  SPP Min 
 SPPX.psig             4850.00:  SPP Max 
 STIM.      09.30.00 03-Feb-20:  Start Time 
 SVCS.                 DD, MWD:  Services 
 SVER.                    9.20:  Sperry Version 
 TDAT.m                1183.00:  Tot Depth Attmp 
 TDDF.                      No:  Trip for DD 
 TDLG.m                1183.00:  Tot Depth Loggd 
 TFF .                      No:  Trip for Fail 
 TQAA.f-kp               16.00:  Torque Abs Avg 
 TQAN.f-kp               10.00:  Torque Abs Min 
 TQAX.f-kp               20.00:  Torque Abs Max 
 TRRT.°/30m               1.00:  Turn Rotating 
 MRT .                  EWR-M5:  Maximum Recorded Temperature 
 TTMX.degC               80.39:  Max Tool Temp 
 VS01.               13098498 :  Virtual Str1 SN 
 VS02.                90569596:  Virtual Str2 SN 
 VS03.                90523599:  Virtual Str3 SN 
 VS04.                90573553:  Virtual Str4 SN 
 VS05.                90598598:  Virtual Str5 SN 
 VS06.                90577297:  Virtual Str6 SN 
 WBMN.klb                13.00:  WOB Min 
 WITN.         Alistair Sprott:  Customer Rep 
 WITN.           Rufat Babayev:  Customer Rep 2 
 WOBA.klb                15.00:  WOB Avg 
 WOBX.klb                20.00:  WOB Max 
 YP  .lhf2               39.00:  Yield Point 
~Curve Information Block
#MNEM.UNIT                 API CODE     Curve Description
#---------               -----------    ---------------------------
 TIME.HHMMSS            00 000 000 000:  GT Time & Date
 GTDEPTH.m              00 000 000 000:  GT Depth
 GTPQH.psia             00 000 000 000:  GT HR Quartz Pressure
 GTTQ.degC              00 000 000 000:  GT Quartz Temperature
 GTTN.NONE              00 000 000 000:  GT Test Number
 GTET.sec               00 000 000 000:  GT Elapsed Test Time
 GTTVD.m                00 000 000 000:  GT True Vertical Depth
#Other Information
#
#WARRANTY: Halliburton will use its best efforts to furnish customers with 
#accurate information and interpretations that are part of, and incident to, the services 
#provided.  However, Halliburton cannot and does not warrant the accuracy 
#or correctness of such information and interpretations.  Under no circumstances should any 
#such information or interpretation be relied upon as the sole basis for any drilling, 
#completion, production, or financial decision or any procedure involving any risk to the 
#safety of any drilling venture, drilling rig or its crew or any other third party.  The 
#Customer has full responsibility for all drilling, completion and production operation.  
#Halliburton makes no representations or warranties, either expressed or 
#implied, including, but not limited to, the implied warranties of merchantability or fitness 
#for a particular purpose, with respect to the services rendered.  In no event will 
#Halliburton be liable for failure to obtain any particular results or for 
#any damages, including, but not limited to, indirect, special or consequential damages, 
#resulting from the use of any information or interpretation provided by Halliburton.
#
~A           TIME           GTDEPTH  GTPQH  GTTQ  GTTN  GTET   GTTVD  
# ...
   08:42:13.633.08-Feb-2020 3153.01 5768.24 71.35 2.00  23.00 2652.69
   08:42:13.833.08-Feb-2020 3153.01 5768.24 71.35 2.00  23.20 2652.69
   08:42:14.033.08-Feb-2020 3153.01 5767.46 71.35 2.00  23.40 2652.69
   08:42:14.233.08-Feb-2020 3153.01 5764.55 71.35 2.00  23.60 2652.69
   08:42:14.433.08-Feb-2020 3153.01 5763.63 71.35 2.00  23.80 2652.69
   08:42:14.633.08-Feb-2020 3153.01 5772.23 71.35 2.00  24.00 2652.69
   08:42:14.833.08-Feb-2020 3153.01 5772.23 71.35 2.00  24.20 2652.69
   08:42:15.033.08-Feb-2020 3153.01 5763.78 71.35 2.00  24.40 2652.69
   08:42:15.233.08-Feb-2020 3153.01 5765.39 71.35 2.00  24.60 2652.69
   08:42:15.433.08-Feb-2020 3153.01 5767.18 71.35 2.00  24.80 2652.69
   08:42:15.633.08-Feb-2020 3153.01 5765.94 71.35 2.00  25.00 2652.69
   08:42:15.833.08-Feb-2020 3153.01 5765.94 71.35 2.00  25.20 2652.69
   08:42:16.033.08-Feb-2020 3153.01 5766.65 71.34 2.00  25.40 2652.69
   08:42:16.233.08-Feb-2020 3153.01 5766.29 71.34 2.00  25.60 2652.69
   08:42:16.433.08-Feb-2020 3153.01 5765.66 71.34 2.00  25.80 2652.69
   08:42:16.633.08-Feb-2020 3153.01 5765.71 71.34 2.00  26.00 2652.69
   08:42:16.833.08-Feb-2020 3153.01 5765.71 71.34 2.00  26.20 2652.69
   08:42:17.033.08-Feb-2020 3153.01 5767.05 71.34 2.00  26.40 2652.69
   08:42:17.233.08-Feb-2020 3153.01 5765.20 71.34 2.00  26.60 2652.69
   08:42:17.433.08-Feb-2020 3153.01 5764.25 71.34 2.00  26.80 2652.69
   08:42:17.633.08-Feb-2020 3153.01 5765.90 71.34 2.00  27.00 2652.69
   08:42:17.833.08-Feb-2020 3153.01 5765.90 71.34 2.00  27.20 2652.69
   08:42:18.033.08-Feb-2020 3153.01 5764.74 71.34 2.00  27.40 2652.69
   08:42:18.233.08-Feb-2020 3153.01 5765.91 71.34 2.00  27.60 2652.69
   08:42:18.433.08-Feb-2020 3153.01 5765.37 71.34 2.00  27.80 2652.69
   08:42:18.633.08-Feb-2020 3153.01 5764.45 71.34 2.00  28.00 2652.69
   08:42:18.833.08-Feb-2020 3153.01 5764.45 71.34 2.00  28.20 2652.69
   08:42:19.033.08-Feb-2020 3153.01 5770.13 71.34 2.00  28.40 2652.69
   08:42:19.234.08-Feb-2020 3153.01 5764.26 71.34 2.00  28.60 2652.69
   08:42:19.434.08-Feb-2020 3153.01 5761.62 71.34 2.00  28.80 2652.69
   08:42:19.634.08-Feb-2020 3153.01 5770.42 71.34 2.00  29.00 2652.69
   08:42:19.834.08-Feb-2020 3153.01 5770.42 71.34 2.00  29.20 2652.69
   08:42:20.034.08-Feb-2020 3153.01 5762.38 71.34 2.00  29.40 2652.69
   08:42:20.234.08-Feb-2020 3153.01 5763.31 71.34 2.00  29.60 2652.69
   08:42:20.434.08-Feb-2020 3153.01 5769.08 71.34 2.00  29.80 2652.69
   08:42:20.634.08-Feb-2020 3153.01 5764.81 71.34 2.00  30.00 2652.69
   08:42:20.834.08-Feb-2020 3153.01 5764.81 71.34 2.00  30.20 2652.69
   08:42:21.034.08-Feb-2020 3153.01 5770.43 71.34 2.00  30.40 2652.69
   08:42:21.234.08-Feb-2020 3153.01 5763.43 71.34 2.00  30.60 2652.69
   08:42:21.434.08-Feb-2020 3153.01 5762.23 71.33 2.00  30.80 2652.69
   08:42:21.634.08-Feb-2020 3153.01 5763.47 71.33 2.00  31.00 2652.69
   08:42:21.834.08-Feb-2020 3153.01 5763.47 71.33 2.00  31.20 2652.69
   08:42:22.034.08-Feb-2020 3153.01 5767.27 71.33 2.00  31.40 2652.69
   08:42:22.234.08-Feb-2020 3153.01 5764.94 71.33 2.00  31.60 2652.69
   08:42:22.434.08-Feb-2020 3153.01 5766.36 71.33 2.00  31.80 2652.69
   08:42:22.634.08-Feb-2020 3153.01 5767.46 71.33 2.00  32.00 2652.69
   08:42:22.834.08-Feb-2020 3153.01 5767.46 71.33 2.00  32.20 2652.69
   08:42:23.034.08-Feb-2020 3153.01 5766.36 71.33 2.00  32.40 2652.69
   08:42:23.234.08-Feb-2020 3153.01 5767.30 71.33 2.00  32.60 2652.69
   08:42:23.434.08-Feb-2020 3153.01 5766.06 71.33 2.00  32.80 2652.69
   08:42:23.634.08-Feb-2020 3153.01 5766.26 71.33 2.00  33.00 2652.69
   08:42:23.834.08-Feb-2020 3153.01 5766.26 71.33 2.00  33.20 2652.69
   08:42:24.034.08-Feb-2020 3153.01 5770.18 71.33 2.00  33.40 2652.69
   08:42:24.234.08-Feb-2020 3153.01 5767.08 71.33 2.00  33.60 2652.69
   08:42:24.434.08-Feb-2020 3153.01 5765.18 71.33 2.00  33.80 2652.69
   08:42:24.634.08-Feb-2020 3153.01 5766.27 71.33 2.00  34.00 2652.69
   08:42:24.834.08-Feb-2020 3153.01 5766.27 71.33 2.00  34.20 2652.69
   08:42:25.034.08-Feb-2020 3153.01 5765.91 71.33 2.00  34.40 2652.69
   08:42:25.234.08-Feb-2020 3153.01 5766.29 71.33 2.00  34.60 2652.69
   08:42:25.434.08-Feb-2020 3153.01 5767.03 71.33 2.00  34.80 2652.69
   08:42:25.634.08-Feb-2020 3153.01 5766.04 71.33 2.00  35.00 2652.69
   08:42:25.834.08-Feb-2020 3153.01 5766.04 71.33 2.00  35.20 2652.69
   08:42:26.034.08-Feb-2020 3153.01 5766.45 71.33 2.00  35.40 2652.69
   08:42:26.234.08-Feb-2020 3153.01 5769.63 71.33 2.00  35.60 2652.69
   08:42:26.434.08-Feb-2020 3153.01 5768.08 71.33 2.00  35.80 2652.69
   08:42:26.634.08-Feb-2020 3153.01 5765.25 71.33 2.00  36.00 2652.69
   08:42:26.834.08-Feb-2020 3153.01 5765.25 71.33 2.00  36.20 2652.69
   08:42:27.034.08-Feb-2020 3153.01 5771.18 71.32 2.00  36.40 2652.69
   08:42:27.234.08-Feb-2020 3153.01 5768.02 71.32 2.00  36.60 2652.69
   08:42:27.434.08-Feb-2020 3153.01 5766.47 71.32 2.00  36.80 2652.69
   08:42:27.634.08-Feb-2020 3153.01 5765.93 71.32 2.00  37.00 2652.69
   08:42:27.834.08-Feb-2020 3153.01 5765.93 71.32 2.00  37.20 2652.69
   08:42:28.034.08-Feb-2020 3153.01 5766.92 71.32 2.00  37.40 2652.69
   08:42:28.234.08-Feb-2020 3153.01 5765.49 71.32 2.00  37.60 2652.69
   08:42:28.434.08-Feb-2020 3153.01 5765.29 71.32 2.00  37.80 2652.69
   08:42:28.634.08-Feb-2020 3153.01 5769.76 71.32 2.00  38.00 2652.69
   08:42:28.834.08-Feb-2020 3153.01 5769.76 71.32 2.00  38.20 2652.69
   08:42:29.034.08-Feb-2020 3153.01 5766.15 71.32 2.00  38.40 2652.69
   08:42:29.234.08-Feb-2020 3153.01 5770.02 71.32 2.00  38.60 2652.69
   08:42:29.434.08-Feb-2020 3153.01 5768.88 71.32 2.00  38.80 2652.69
   08:42:29.634.08-Feb-2020 3153.01 5766.34 71.32 2.00  39.00 2652.69
   08:42:29.834.08-Feb-2020 3153.01 5766.34 71.32 2.00  39.20 2652.69
   08:42:30.034.08-Feb-2020 3153.01 5769.64 71.32 2.00  39.40 2652.69
   08:42:30.234.08-Feb-2020 3153.01 5769.37 71.32 2.00  39.60 2652.69
   08:42:30.434.08-Feb-2020 3153.01 5768.13 71.32 2.00  39.80 2652.69
   08:42:30.634.08-Feb-2020 3153.01 5766.34 71.32 2.00  40.00 2652.69
   08:42:30.834.08-Feb-2020 3153.01 5766.34 71.32 2.00  40.20 2652.69
   08:42:31.035.08-Feb-2020 3153.01 5765.38 71.32 2.00  40.40 2652.69
   08:42:31.235.08-Feb-2020 3153.01 5765.19 71.32 2.00  40.60 2652.69
   08:42:31.435.08-Feb-2020 3153.01 5765.53 71.32 2.00  40.80 2652.69
   08:42:31.635.08-Feb-2020 3153.01 5765.46 71.32 2.00  41.00 2652.69
   08:42:31.835.08-Feb-2020 3153.01 5765.46 71.32 2.00  41.20 2652.69
   08:42:32.035.08-Feb-2020 3153.01 5766.71 71.32 2.00  41.40 2652.69
   08:42:32.235.08-Feb-2020 3153.01 5766.66 71.32 2.00  41.60 2652.69
   08:42:32.435.08-Feb-2020 3153.01 5770.40 71.32 2.00  41.80 2652.69
   08:42:32.635.08-Feb-2020 3153.01 5769.39 71.32 2.00  42.00 2652.69
   08:42:32.835.08-Feb-2020 3153.01 5769.39 71.32 2.00  42.20 2652.69
   08:42:33.035.08-Feb-2020 3153.01 5766.67 71.31 2.00  42.40 2652.69
   08:42:33.235.08-Feb-2020 3153.01 5766.72 71.31 2.00  42.60 2652.69
   08:42:33.435.08-Feb-2020 3153.01 5765.50 71.31 2.00  42.80 2652.69
   08:42:33.635.08-Feb-2020 3153.01 5765.38 71.31 2.00  43.00 2652.69
   08:42:33.835.08-Feb-2020 3153.01 5765.38 71.31 2.00  43.20 2652.69
   08:42:34.035.08-Feb-2020 3153.01 5764.77 71.31 2.00  43.40 2652.69
   08:42:34.235.08-Feb-2020 3153.01 5764.99 71.31 2.00  43.60 2652.69
   08:42:34.435.08-Feb-2020 3153.01 5765.94 71.31 2.00  43.80 2652.69
   08:42:34.635.08-Feb-2020 3153.01 5767.54 71.31 2.00  44.00 2652.69
   08:42:34.835.08-Feb-2020 3153.01 5767.54 71.31 2.00  44.20 2652.69
   08:42:35.035.08-Feb-2020 3153.01 5768.23 71.31 2.00  44.40 2652.69
   08:42:35.235.08-Feb-2020 3153.01 5767.28 71.31 2.00  44.60 2652.69
   08:42:35.435.08-Feb-2020 3153.01 5765.50 71.31 2.00  44.80 2652.69
   08:42:35.635.08-Feb-2020 3153.01 5763.62 71.31 2.00  45.00 2652.69
   08:42:35.835.08-Feb-2020 3153.01 5763.62 71.31 2.00  45.20 2652.69
   08:42:36.035.08-Feb-2020 3153.01 5767.11 71.31 2.00  45.40 2652.69
   08:42:36.235.08-Feb-2020 3153.01 5763.41 71.31 2.00  45.60 2652.69
   08:42:36.435.08-Feb-2020 3153.01 5766.72 71.31 2.00  45.80 2652.69
