~Version Information
 VERS.                  2.0:   CWLS log ASCII Standard -VERSION 2.0
 WRAP.                   NO:   One line per depth step
~Well Information Block
#MNEM.UNIT     VALUE/NAME     DESCRIPTION
#---------     -----------    ---------------------------
 STRT.S             12:03:05 08-Feb-20: START TIME 12:03:05 08-Feb-20
 STOP.S             12:09:57 08-Feb-20: STOP TIME  12:09:57 08-Feb-20
 STEP.S                   0.00: STEP TIME
 NULL.                 -999.25: NULL VALUE
 DFWT.                        :  DIST FWL TEXT
 DFST.                        :  DIST FSL TEXT
 DMF .             Drill Floor:  DRILL MEAS FROM
 STIM.      07.00.00 09-Jan-20:  START TIME
 DATE.      14.04.48 07-Feb-20:  END TIME
 SPUD.               09-Jan-20:  SPUD DATE
 NREF.                    Grid:  NORTH REFERENCE
 HPTY.       Minimum Curvature:  HOLE POS TYPE
 DMOD.             Drill Model:  DRILL MOD DESC
 SVYD.                  Survey:  SURVEY DESC
 ILTD.               Lithology:  INTERP LTH DESC
 FTOP.          Formation Tops:  FORM TOPS DESC
 SON .        AZ-XX-0905059384:  JOB NUMBER
 MDS .        Operator Entered:  MAG DATA SOURCE
 WTYP.                Deviated:  WELL TYPE
 COMP.     BP Exploration (Caspian Sea) Ltd.:  COMPANY
 UWI .                     N/A:  UNIQUE WELL IDENTIFIER
 API .                     N/A:  API NUMBER
 BASE.              Azerbaijan:  LOGGING EQUIPMENT BASE LOCATION
 REGN.                   EESSA:  REGION
 PROV.                    Baku:  PROVINCE
 STAT.                    Baku:  STATE NAME
 CTRY.              Azerbaijan:  COUNTRY NAME
 FLD .                     ACG:  FIELD NAME
 SRVC.     TURAN Drilling & Engineering:  CONTRACTOR
 MWDS.                    Baku:  MWD SHOP
 WELL.                     J22:  WELL NAME
 RIG .             West Chirag:  RIG NAME
 DOE .                     N/A:  DOE NUMBER
 DCON.         Sperry Drilling:  DIRECTNL CONTR
 UNIT.                     N/A:  LOGGING EQUIPMENT ID
 PDAT.          Mean Sea Level:  PERMANENT DATUM
 JOBN.        AZ-XX-0905059384:  JOB TICKET NUMB
 CNTY.                        :  COUNTY
 LOC .                        :  LOCATION
 LMF .             Drill Floor:  LOG MEASURED FROM
 TVDS.m                  43.00:  TVDSS CORRECTN
 LATI.deg                40.13:  LATITUDE
 LONG.deg                51.22:  LONGITUDE
 WHNS.m                  10.28:  WELL HEAD N/S
 WHEW.m                  -6.24:  WELL HEAD E/W
 UTMX.m              519005.06:  UTM X
 UTMY.m             4443793.85:  UTM Y
 DFWL.m                   0.00:  DISTANCE FWL
 DFSL.m                   0.00:  DISTANCE FSL
 SDEP.m                 362.00:  START DEPTH
 TDD .m                 904.00:  TOTAL DEPTH (DRILLER)
 VSDR.deg               148.53:  VERT SEC DIRECT
 GVFD.g                   1.00:  GRAVITY FIELD
 MFLD.nT              50277.00:  MAGNETIC FIELD
 MDIP.deg                59.56:  MAGNETIC DIP
 MDEC.deg                 6.42:  MAGNETIC DECL
 GRDC.deg                 0.15:  GRID CORRECTION
 AZTC.deg                 6.27:  AZM TOTAL CORR
 EPD .m                   0.00:  ELEVATION
 EGL .m                   0.00:  GROUND ELEVATION
 WDMS.m                 169.80:  WD ELEV
 APD .m                  43.00:  DEPTH ABOVE PD
 AGAP.m                  43.00:  AIR GAP
 VSEW.m                  -6.24:  VERT SEC E/W
 VSNS.m                  10.28:  VERT SEC N/S
 DEP .m                   0.00:  DEPTH
 EKB .m                   0.00:  KB ELEVATION
 EDF .m                  43.00:  DF ELEVATION
 TDL .m                1183.00:  TOTAL DEPTH (LOGGER)
 VSC .                       0:  VS TO CLOSURE
 MAGU.                 1850021:  MAGUTM CHECKSUM
~Parameter Information Block
#MNEM.UNIT       Value        Description
#---------     -----------    ---------------------------
 AV  .mps                 4.00:  Ann Velocity 
 AVMX.mps                 4.50:  Max Ann Veloc 
 AZIF.deg               145.38:  Azm, Final 
 BHAT.        Rotary Steerable:  BHA Type 
 BROT.°/30m               3.00:  Build Rotating 
 BS  .in                 12.25:  Bit Size 
 BSZ .in                 12.25:  Bit Size 
 BTPL.psig              650.00:  Bit Press Loss 
 CABU.                      No:  Customer Abuse 
 COMM.                     ÌSf:  Run Comments 1 
 TCS .hr                101.62:  Time Ciculation Ended 
 CV  .mps                 5.00:  Crit Velocity 
 CVMX.mps                 5.00:  Max Crit Veloc 
 DD1 .             Aziz Aliyev:  Direct Drillr 1 
 DD2 .      Fakhraddin Guliyev:  Direct Drillr 2 
 DDSV.                 iCruise:  DD Service 
 DEFF.%                  97.00:  % Det Eff 
 DLRX.°/30m               4.16:  Dogleg Rot Max 
 DLSO.°/30m               3.20:  Dogleg Oriented 
 DLSX.°/30m               4.10:  Dogleg Str Max 
 DRET.      23.12.00 07-Feb-20:  Drill End Time 
 DRST.      11.30.00 04-Feb-20:  Drill Start Tim 
 DTIM.hr                 61.06:  Time Drilling 
 EDEP.m                3219.01:  End Depth 
 ENG1.         Almaz Almadatov:  Engineer 1 
 ENG2.         Dair Mahammadov:  Engineer 2 
 ENG3.          Nazrin Asgarli:  Engineer 3 
 ETIM.      02.30.00 11-Feb-20:  End Time 
 FLOI.gpm              1100.00:  Flow In 
 FLON.gpm               900.00:  Flow In Min 
 FLOS.cptm               55.00:  Fluid Loss 
 FLOX.gpm              1150.00:  Flow In Max 
 FTRO.       Formation Presure:  FTWD Run Obj 
 HFLO.                      No:  High Flow 
 HPRE.                      No:  High Pressure 
 HTEM.                      No:  High Temp 
 HYDO.m                   1.80:  Hydro Offset 
 IFIN.deg                75.11:  Inc, Final 
 IMAX.deg                75.11:  Inc Max 
 IMIN.deg                33.55:  Inc Min 
 IMND.m                2186.05:  Inc Min Depth 
 IMXD.m                3205.61:  Inc Max Depth 
 JARR.                      No:  Jarring 
 LETM.      23.12.00 07-Feb-20:  Log End Time 
 LOST.hr                     0:  Lost Rig Time 
 LSTM.      11.30.00 04-Feb-20:  Log Start Time 
 MDCL.ppm             40000.00:  Mud Chlorides 
 MDES.     Inversion Oil/Synthetic:  Mud Desc 
 DFD .sg                  1.49:  Mud Density 
 MDMN.sg                  1.49:  Dens Mud Min 
 MDMX.sg                  1.49:  Dens Mud Max 
 MOIL.                      73:  Run Mud Oil % 
 MOWR.                   73:27:  Run Mud OWR 
 MSND.                     0.1:  Run Mud Sand % 
 MSOL.                    20.1:  Run Mud Solids% 
 DFV .spqt               78.00:  Mud Viscosity 
 MWOD.in                  8.00:  MWD Tool OD 
 MWSI.                      No:  Serv Intrp, MWD 
 OTIM.hr                177.15:  Time Operating 
 PCON.          Wear / Scratch:  Pad Condition 
 PMAX.psia            10493.93:  Press Op, Max 
 PV  .cP                 73.00:  Mud PV 
 RUN .                     700:  Run Number 
 ROPA.m/hr               15.00:  ROP Avg 
 ROPN.m/hr               10.00:  ROP Min 
 ROPX.m/hr               35.00:  ROP Max 
 RPMA.rpm               130.00:  RPM Surface Avg 
 RPMN.rpm                80.00:  RPM Surface Min 
 RPMX.rpm               150.00:  RPM Surface Max 
 RRUN.                    L402:  Rig Run Number 
 RTIM.hr                 80.50:  Time Reaming 
 SAZI.deg               155.55:  Azm, Start 
 SDEP.m                2036.00:  Start Depth 
 SIDD.                      No:  Serv Intrp, DD 
 SINC.deg                35.44:  Inc, Start 
 SPPA.psig             4270.00:  SPP Avg 
 SPPN.psig             2800.00:  SPP Min 
 SPPX.psig             4850.00:  SPP Max 
 STIM.      09.30.00 03-Feb-20:  Start Time 
 SVCS.                 DD, MWD:  Services 
 SVER.                    9.20:  Sperry Version 
 TDAT.m                1183.00:  Tot Depth Attmp 
 TDDF.                      No:  Trip for DD 
 TDLG.m                1183.00:  Tot Depth Loggd 
 TFF .                      No:  Trip for Fail 
 TQAA.f-kp               16.00:  Torque Abs Avg 
 TQAN.f-kp               10.00:  Torque Abs Min 
 TQAX.f-kp               20.00:  Torque Abs Max 
 TRRT.°/30m               1.00:  Turn Rotating 
 MRT .                  EWR-M5:  Maximum Recorded Temperature 
 TTMX.degC               80.39:  Max Tool Temp 
 VS01.               13098498 :  Virtual Str1 SN 
 VS02.                90569596:  Virtual Str2 SN 
 VS03.                90523599:  Virtual Str3 SN 
 VS04.                90573553:  Virtual Str4 SN 
 VS05.                90598598:  Virtual Str5 SN 
 VS06.                90577297:  Virtual Str6 SN 
 WBMN.klb                13.00:  WOB Min 
 WITN.         Alistair Sprott:  Customer Rep 
 WITN.           Rufat Babayev:  Customer Rep 2 
 WOBA.klb                15.00:  WOB Avg 
 WOBX.klb                20.00:  WOB Max 
 YP  .lhf2               39.00:  Yield Point 
~Curve Information Block
#MNEM.UNIT                 API CODE     Curve Description
#---------               -----------    ---------------------------
 TIME.HHMMSS            00 000 000 000:  GT Time & Date
 GTDEPTH.m              00 000 000 000:  GT Depth
 GTPQH.psia             00 000 000 000:  GT HR Quartz Pressure
 GTTQ.degC              00 000 000 000:  GT Quartz Temperature
 GTTN.NONE              00 000 000 000:  GT Test Number
 GTET.sec               00 000 000 000:  GT Elapsed Test Time
 GTTVD.m                00 000 000 000:  GT True Vertical Depth
#Other Information
#
#WARRANTY: Halliburton will use its best efforts to furnish customers with 
#accurate information and interpretations that are part of, and incident to, the services 
#provided.  However, Halliburton cannot and does not warrant the accuracy 
#or correctness of such information and interpretations.  Under no circumstances should any 
#such information or interpretation be relied upon as the sole basis for any drilling, 
#completion, production, or financial decision or any procedure involving any risk to the 
#safety of any drilling venture, drilling rig or its crew or any other third party.  The 
#Customer has full responsibility for all drilling, completion and production operation.  
#Halliburton makes no representations or warranties, either expressed or 
#implied, including, but not limited to, the implied warranties of merchantability or fitness 
#for a particular purpose, with respect to the services rendered.  In no event will 
#Halliburton be liable for failure to obtain any particular results or for 
#any damages, including, but not limited to, indirect, special or consequential damages, 
#resulting from the use of any information or interpretation provided by Halliburton.
#
~A           TIME           GTDEPTH  GTPQH  GTTQ  GTTN  GTET   GTTVD  
# ...
   12:08:50.000.08-Feb-2020 3069.01 4441.02 65.89 7.00 345.00 2627.56
   12:08:50.200.08-Feb-2020 3069.01 4441.02 65.89 7.00 345.20 2627.56
   12:08:50.400.08-Feb-2020 3069.01 4445.28 65.89 7.00 345.40 2627.56
   12:08:50.600.08-Feb-2020 3069.01 4448.13 65.89 7.00 345.60 2627.56
   12:08:50.800.08-Feb-2020 3069.01 4450.87 65.89 7.00 345.80 2627.56
   12:08:51.000.08-Feb-2020 3069.01 4451.84 65.89 7.00 346.00 2627.56
   12:08:51.200.08-Feb-2020 3069.01 4451.84 65.89 7.00 346.20 2627.56
   12:08:51.400.08-Feb-2020 3069.01 4457.16 65.89 7.00 346.40 2627.56
   12:08:51.600.08-Feb-2020 3069.01 4459.10 65.89 7.00 346.60 2627.56
   12:08:51.800.08-Feb-2020 3069.01 4461.65 65.89 7.00 346.80 2627.56
   12:08:52.000.08-Feb-2020 3069.01 4463.87 65.89 7.00 347.00 2627.56
   12:08:52.200.08-Feb-2020 3069.01 4463.87 65.89 7.00 347.20 2627.56
   12:08:52.400.08-Feb-2020 3069.01 4468.48 65.89 7.00 347.40 2627.56
   12:08:52.600.08-Feb-2020 3069.01 4470.69 65.89 7.00 347.60 2627.56
   12:08:52.800.08-Feb-2020 3069.01 4472.77 65.89 7.00 347.80 2627.56
   12:08:53.000.08-Feb-2020 3069.01 4475.66 65.89 7.00 348.00 2627.56
   12:08:53.200.08-Feb-2020 3069.01 4475.66 65.89 7.00 348.20 2627.56
   12:08:53.400.08-Feb-2020 3069.01 4479.22 65.89 7.00 348.40 2627.56
   12:08:53.600.08-Feb-2020 3069.01 4481.42 65.89 7.00 348.60 2627.56
   12:08:53.800.08-Feb-2020 3069.01 4483.51 65.89 7.00 348.80 2627.56
   12:08:54.000.08-Feb-2020 3069.01 4485.64 65.89 7.00 349.00 2627.56
   12:08:54.200.08-Feb-2020 3069.01 4485.64 65.89 7.00 349.20 2627.56
   12:08:54.400.08-Feb-2020 3069.01 4489.71 65.88 7.00 349.40 2627.56
   12:08:54.600.08-Feb-2020 3069.01 4491.94 65.88 7.00 349.60 2627.56
   12:08:54.800.08-Feb-2020 3069.01 4493.63 65.88 7.00 349.80 2627.56
   12:08:55.000.08-Feb-2020 3069.01 4495.62 65.88 7.00 350.00 2627.56
   12:08:55.200.08-Feb-2020 3069.01 4495.62 65.88 7.00 350.20 2627.56
   12:08:55.400.08-Feb-2020 3069.01 4499.47 65.88 7.00 350.40 2627.56
   12:08:55.600.08-Feb-2020 3069.01 4501.45 65.88 7.00 350.60 2627.56
   12:08:55.800.08-Feb-2020 3069.01 4503.46 65.88 7.00 350.80 2627.56
   12:08:56.000.08-Feb-2020 3069.01 4505.54 65.88 7.00 351.00 2627.56
   12:08:56.200.08-Feb-2020 3069.01 4505.54 65.88 7.00 351.20 2627.56
   12:08:56.400.08-Feb-2020 3069.01 4509.45 65.88 7.00 351.40 2627.56
   12:08:56.600.08-Feb-2020 3069.01 4510.70 65.88 7.00 351.60 2627.56
   12:08:56.800.08-Feb-2020 3069.01 4513.13 65.88 7.00 351.80 2627.56
   12:08:57.000.08-Feb-2020 3069.01 4515.31 65.88 7.00 352.00 2627.56
   12:08:57.200.08-Feb-2020 3069.01 4515.31 65.88 7.00 352.20 2627.56
   12:08:57.400.08-Feb-2020 3069.01 4518.33 65.88 7.00 352.40 2627.56
   12:08:57.600.08-Feb-2020 3069.01 4520.32 65.88 7.00 352.60 2627.56
   12:08:57.800.08-Feb-2020 3069.01 4521.95 65.88 7.00 352.80 2627.56
   12:08:58.000.08-Feb-2020 3069.01 4524.16 65.88 7.00 353.00 2627.56
   12:08:58.200.08-Feb-2020 3069.01 4524.16 65.88 7.00 353.20 2627.56
   12:08:58.400.08-Feb-2020 3069.01 4528.01 65.88 7.00 353.40 2627.56
   12:08:58.600.08-Feb-2020 3069.01 4529.76 65.88 7.00 353.60 2627.56
   12:08:58.800.08-Feb-2020 3069.01 4531.40 65.88 7.00 353.80 2627.56
   12:08:59.000.08-Feb-2020 3069.01 4533.41 65.88 7.00 354.00 2627.56
   12:08:59.200.08-Feb-2020 3069.01 4533.41 65.88 7.00 354.20 2627.56
   12:08:59.400.08-Feb-2020 3069.01 4536.84 65.88 7.00 354.40 2627.56
   12:08:59.600.08-Feb-2020 3069.01 4538.61 65.88 7.00 354.60 2627.56
   12:08:59.800.08-Feb-2020 3069.01 4540.29 65.88 7.00 354.80 2627.56
   12:09:00.000.08-Feb-2020 3069.01 4541.94 65.88 7.00 355.00 2627.56
   12:09:00.200.08-Feb-2020 3069.01 4541.94 65.88 7.00 355.20 2627.56
   12:09:00.400.08-Feb-2020 3069.01 4545.07 65.88 7.00 355.40 2627.56
   12:09:00.600.08-Feb-2020 3069.01 4547.23 65.87 7.00 355.60 2627.56
   12:09:00.800.08-Feb-2020 3069.01 4548.84 65.87 7.00 355.80 2627.56
   12:09:01.000.08-Feb-2020 3069.01 4550.23 65.87 7.00 356.00 2627.56
   12:09:01.200.08-Feb-2020 3069.01 4550.23 65.87 7.00 356.20 2627.56
   12:09:01.400.08-Feb-2020 3069.01 4553.73 65.87 7.00 356.40 2627.56
   12:09:01.600.08-Feb-2020 3069.01 4555.21 65.87 7.00 356.60 2627.56
   12:09:01.800.08-Feb-2020 3069.01 4556.92 65.87 7.00 356.80 2627.56
   12:09:02.000.08-Feb-2020 3069.01 4558.46 65.87 7.00 357.00 2627.56
   12:09:02.200.08-Feb-2020 3069.01 4558.46 65.87 7.00 357.20 2627.56
   12:09:02.400.08-Feb-2020 3069.01 4561.76 65.87 7.00 357.40 2627.56
   12:09:02.600.08-Feb-2020 3069.01 4563.57 65.87 7.00 357.60 2627.56
   12:09:02.800.08-Feb-2020 3069.01 4564.69 65.87 7.00 357.80 2627.56
   12:09:03.000.08-Feb-2020 3069.01 4566.29 65.87 7.00 358.00 2627.56
   12:09:03.200.08-Feb-2020 3069.01 4566.29 65.87 7.00 358.20 2627.56
   12:09:03.400.08-Feb-2020 3069.01 4569.18 65.87 7.00 358.40 2627.56
   12:09:03.600.08-Feb-2020 3069.01 4570.97 65.87 7.00 358.60 2627.56
   12:09:03.800.08-Feb-2020 3069.01 4571.62 65.87 7.00 358.80 2627.56
   12:09:04.000.08-Feb-2020 3069.01 4573.15 65.87 7.00 359.00 2627.56
   12:09:04.200.08-Feb-2020 3069.01 4573.15 65.87 7.00 359.20 2627.56
   12:09:04.400.08-Feb-2020 3069.01 4576.16 65.87 7.00 359.40 2627.56
   12:09:04.600.08-Feb-2020 3069.01 4577.96 65.87 7.00 359.60 2627.56
   12:09:04.800.08-Feb-2020 3069.01 4578.89 65.87 7.00 359.80 2627.56
   12:09:05.000.08-Feb-2020 3069.01 4580.75 65.87 7.00 360.00 2627.56
   12:09:05.200.08-Feb-2020 3069.01 4580.75 65.87 7.00 360.20 2627.56
   12:09:05.400.08-Feb-2020 3069.01 4583.54 65.87 7.00 360.40 2627.56
   12:09:05.600.08-Feb-2020 3069.01 4585.21 65.87 7.00 360.60 2627.56
   12:09:05.800.08-Feb-2020 3069.01 4586.55 65.87 7.00 360.80 2627.56
   12:09:06.000.08-Feb-2020 3069.01 4588.21 65.87 7.00 361.00 2627.56
   12:09:06.200.08-Feb-2020 3069.01 4588.21 65.87 7.00 361.20 2627.56
   12:09:06.400.08-Feb-2020 3069.01 4590.74 65.86 7.00 361.40 2627.56
   12:09:06.600.08-Feb-2020 3069.01 4592.21 65.86 7.00 361.60 2627.56
   12:09:06.800.08-Feb-2020 3069.01 4593.48 65.86 7.00 361.80 2627.56
   12:09:07.000.08-Feb-2020 3069.01 4594.95 65.86 7.00 362.00 2627.56
   12:09:07.200.08-Feb-2020 3069.01 4594.95 65.86 7.00 362.20 2627.56
   12:09:07.400.08-Feb-2020 3069.01 4597.60 65.86 7.00 362.40 2627.56
   12:09:07.600.08-Feb-2020 3069.01 4599.02 65.86 7.00 362.60 2627.56
   12:09:07.800.08-Feb-2020 3069.01 4600.72 65.86 7.00 362.80 2627.56
   12:09:08.000.08-Feb-2020 3069.01 4601.45 65.86 7.00 363.00 2627.56
   12:09:08.200.08-Feb-2020 3069.01 4601.45 65.86 7.00 363.20 2627.56
   12:09:08.400.08-Feb-2020 3069.01 4604.51 65.86 7.00 363.40 2627.56
   12:09:08.600.08-Feb-2020 3069.01 4605.58 65.86 7.00 363.60 2627.56
   12:09:08.800.08-Feb-2020 3069.01 4606.88 65.86 7.00 363.80 2627.56
   12:09:09.000.08-Feb-2020 3069.01 4608.03 65.86 7.00 364.00 2627.56
   12:09:09.200.08-Feb-2020 3069.01 4608.03 65.86 7.00 364.20 2627.56
   12:09:09.400.08-Feb-2020 3069.01 4610.85 65.86 7.00 364.40 2627.56
   12:09:09.600.08-Feb-2020 3069.01 4612.07 65.86 7.00 364.60 2627.56
   12:09:09.800.08-Feb-2020 3069.01 4613.11 65.86 7.00 364.80 2627.56
   12:09:10.000.08-Feb-2020 3069.01 4614.43 65.86 7.00 365.00 2627.56
   12:09:10.200.08-Feb-2020 3069.01 4614.43 65.86 7.00 365.20 2627.56
   12:09:10.400.08-Feb-2020 3069.01 4616.72 65.86 7.00 365.40 2627.56
   12:09:10.600.08-Feb-2020 3069.01 4617.89 65.86 7.00 365.60 2627.56
   12:09:10.800.08-Feb-2020 3069.01 4619.28 65.86 7.00 365.80 2627.56
   12:09:11.000.08-Feb-2020 3069.01 4620.01 65.86 7.00 366.00 2627.56
   12:09:11.200.08-Feb-2020 3069.01 4620.01 65.86 7.00 366.20 2627.56
   12:09:11.400.08-Feb-2020 3069.01 4622.44 65.86 7.00 366.40 2627.56
   12:09:11.600.08-Feb-2020 3069.01 4623.53 65.86 7.00 366.60 2627.56
   12:09:11.800.08-Feb-2020 3069.01 4624.50 65.86 7.00 366.80 2627.56
   12:09:12.000.08-Feb-2020 3069.01 4625.82 65.85 7.00 367.00 2627.56
   12:09:12.200.08-Feb-2020 3069.01 4625.82 65.85 7.00 367.20 2627.56
   12:09:12.400.08-Feb-2020 3069.01 4628.41 65.85 7.00 367.40 2627.56
   12:09:12.600.08-Feb-2020 3069.01 4629.21 65.85 7.00 367.60 2627.56
   12:09:12.800.08-Feb-2020 3069.01 4630.33 65.85 7.00 367.80 2627.56
