~Version Information
 VERS.                  2.0:   CWLS log ASCII Standard -VERSION 2.0
 WRAP.                   NO:   One line per depth step
~Well Information Block
#MNEM.UNIT     VALUE/NAME     DESCRIPTION
#---------     -----------    ---------------------------
 STRT.S             08:19:39 08-Feb-20: START TIME 08:19:39 08-Feb-20
 STOP.S             08:26:25 08-Feb-20: STOP TIME  08:26:25 08-Feb-20
 STEP.S                   0.00: STEP TIME
 NULL.                 -999.25: NULL VALUE
 DFWT.                        :  DIST FWL TEXT
 DFST.                        :  DIST FSL TEXT
 DMF .             Drill Floor:  DRILL MEAS FROM
 STIM.      07.00.00 09-Jan-20:  START TIME
 DATE.      14.04.48 07-Feb-20:  END TIME
 SPUD.               09-Jan-20:  SPUD DATE
 NREF.                    Grid:  NORTH REFERENCE
 HPTY.       Minimum Curvature:  HOLE POS TYPE
 DMOD.             Drill Model:  DRILL MOD DESC
 SVYD.                  Survey:  SURVEY DESC
 ILTD.               Lithology:  INTERP LTH DESC
 FTOP.          Formation Tops:  FORM TOPS DESC
 SON .        AZ-XX-0905059384:  JOB NUMBER
 MDS .        Operator Entered:  MAG DATA SOURCE
 WTYP.                Deviated:  WELL TYPE
 COMP.     BP Exploration (Caspian Sea) Ltd.:  COMPANY
 UWI .                     N/A:  UNIQUE WELL IDENTIFIER
 API .                     N/A:  API NUMBER
 BASE.              Azerbaijan:  LOGGING EQUIPMENT BASE LOCATION
 REGN.                   EESSA:  REGION
 PROV.                    Baku:  PROVINCE
 STAT.                    Baku:  STATE NAME
 CTRY.              Azerbaijan:  COUNTRY NAME
 FLD .                     ACG:  FIELD NAME
 SRVC.     TURAN Drilling & Engineering:  CONTRACTOR
 MWDS.                    Baku:  MWD SHOP
 WELL.                     J22:  WELL NAME
 RIG .             West Chirag:  RIG NAME
 DOE .                     N/A:  DOE NUMBER
 DCON.         Sperry Drilling:  DIRECTNL CONTR
 UNIT.                     N/A:  LOGGING EQUIPMENT ID
 PDAT.          Mean Sea Level:  PERMANENT DATUM
 JOBN.        AZ-XX-0905059384:  JOB TICKET NUMB
 CNTY.                        :  COUNTY
 LOC .                        :  LOCATION
 LMF .             Drill Floor:  LOG MEASURED FROM
 TVDS.m                  43.00:  TVDSS CORRECTN
 LATI.deg                40.13:  LATITUDE
 LONG.deg                51.22:  LONGITUDE
 WHNS.m                  10.28:  WELL HEAD N/S
 WHEW.m                  -6.24:  WELL HEAD E/W
 UTMX.m              519005.06:  UTM X
 UTMY.m             4443793.85:  UTM Y
 DFWL.m                   0.00:  DISTANCE FWL
 DFSL.m                   0.00:  DISTANCE FSL
 SDEP.m                 362.00:  START DEPTH
 TDD .m                 904.00:  TOTAL DEPTH (DRILLER)
 VSDR.deg               148.53:  VERT SEC DIRECT
 GVFD.g                   1.00:  GRAVITY FIELD
 MFLD.nT              50277.00:  MAGNETIC FIELD
 MDIP.deg                59.56:  MAGNETIC DIP
 MDEC.deg                 6.42:  MAGNETIC DECL
 GRDC.deg                 0.15:  GRID CORRECTION
 AZTC.deg                 6.27:  AZM TOTAL CORR
 EPD .m                   0.00:  ELEVATION
 EGL .m                   0.00:  GROUND ELEVATION
 WDMS.m                 169.80:  WD ELEV
 APD .m                  43.00:  DEPTH ABOVE PD
 AGAP.m                  43.00:  AIR GAP
 VSEW.m                  -6.24:  VERT SEC E/W
 VSNS.m                  10.28:  VERT SEC N/S
 DEP .m                   0.00:  DEPTH
 EKB .m                   0.00:  KB ELEVATION
 EDF .m                  43.00:  DF ELEVATION
 TDL .m                1183.00:  TOTAL DEPTH (LOGGER)
 VSC .                       0:  VS TO CLOSURE
 MAGU.                 1850021:  MAGUTM CHECKSUM
~Parameter Information Block
#MNEM.UNIT       Value        Description
#---------     -----------    ---------------------------
 AV  .mps                 4.00:  Ann Velocity 
 AVMX.mps                 4.50:  Max Ann Veloc 
 AZIF.deg               145.38:  Azm, Final 
 BHAT.        Rotary Steerable:  BHA Type 
 BROT.°/30m               3.00:  Build Rotating 
 BS  .in                 12.25:  Bit Size 
 BSZ .in                 12.25:  Bit Size 
 BTPL.psig              650.00:  Bit Press Loss 
 CABU.                      No:  Customer Abuse 
 COMM.                     ä7n:  Run Comments 1 
 TCS .hr                101.62:  Time Ciculation Ended 
 CV  .mps                 5.00:  Crit Velocity 
 CVMX.mps                 5.00:  Max Crit Veloc 
 DD1 .             Aziz Aliyev:  Direct Drillr 1 
 DD2 .      Fakhraddin Guliyev:  Direct Drillr 2 
 DDSV.                 iCruise:  DD Service 
 DEFF.%                  97.00:  % Det Eff 
 DLRX.°/30m               4.16:  Dogleg Rot Max 
 DLSO.°/30m               3.20:  Dogleg Oriented 
 DLSX.°/30m               4.10:  Dogleg Str Max 
 DRET.      23.12.00 07-Feb-20:  Drill End Time 
 DRST.      11.30.00 04-Feb-20:  Drill Start Tim 
 DTIM.hr                 61.06:  Time Drilling 
 EDEP.m                3219.01:  End Depth 
 ENG1.         Almaz Almadatov:  Engineer 1 
 ENG2.         Dair Mahammadov:  Engineer 2 
 ENG3.          Nazrin Asgarli:  Engineer 3 
 ETIM.      02.30.00 11-Feb-20:  End Time 
 FLOI.gpm              1100.00:  Flow In 
 FLON.gpm               900.00:  Flow In Min 
 FLOS.cptm               55.00:  Fluid Loss 
 FLOX.gpm              1150.00:  Flow In Max 
 FTRO.       Formation Presure:  FTWD Run Obj 
 HFLO.                      No:  High Flow 
 HPRE.                      No:  High Pressure 
 HTEM.                      No:  High Temp 
 HYDO.m                   1.80:  Hydro Offset 
 IFIN.deg                75.11:  Inc, Final 
 IMAX.deg                75.11:  Inc Max 
 IMIN.deg                33.55:  Inc Min 
 IMND.m                2186.05:  Inc Min Depth 
 IMXD.m                3205.61:  Inc Max Depth 
 JARR.                      No:  Jarring 
 LETM.      23.12.00 07-Feb-20:  Log End Time 
 LOST.hr                     0:  Lost Rig Time 
 LSTM.      11.30.00 04-Feb-20:  Log Start Time 
 MDCL.ppm             40000.00:  Mud Chlorides 
 MDES.     Inversion Oil/Synthetic:  Mud Desc 
 DFD .sg                  1.49:  Mud Density 
 MDMN.sg                  1.49:  Dens Mud Min 
 MDMX.sg                  1.49:  Dens Mud Max 
 MOIL.                      73:  Run Mud Oil % 
 MOWR.                   73:27:  Run Mud OWR 
 MSND.                     0.1:  Run Mud Sand % 
 MSOL.                    20.1:  Run Mud Solids% 
 DFV .spqt               78.00:  Mud Viscosity 
 MWOD.in                  8.00:  MWD Tool OD 
 MWSI.                      No:  Serv Intrp, MWD 
 OTIM.hr                177.15:  Time Operating 
 PCON.          Wear / Scratch:  Pad Condition 
 PMAX.psia            10493.93:  Press Op, Max 
 PV  .cP                 73.00:  Mud PV 
 RUN .                     700:  Run Number 
 ROPA.m/hr               15.00:  ROP Avg 
 ROPN.m/hr               10.00:  ROP Min 
 ROPX.m/hr               35.00:  ROP Max 
 RPMA.rpm               130.00:  RPM Surface Avg 
 RPMN.rpm                80.00:  RPM Surface Min 
 RPMX.rpm               150.00:  RPM Surface Max 
 RRUN.                    L402:  Rig Run Number 
 RTIM.hr                 80.50:  Time Reaming 
 SAZI.deg               155.55:  Azm, Start 
 SDEP.m                2036.00:  Start Depth 
 SIDD.                      No:  Serv Intrp, DD 
 SINC.deg                35.44:  Inc, Start 
 SPPA.psig             4270.00:  SPP Avg 
 SPPN.psig             2800.00:  SPP Min 
 SPPX.psig             4850.00:  SPP Max 
 STIM.      09.30.00 03-Feb-20:  Start Time 
 SVCS.                 DD, MWD:  Services 
 SVER.                    9.20:  Sperry Version 
 TDAT.m                1183.00:  Tot Depth Attmp 
 TDDF.                      No:  Trip for DD 
 TDLG.m                1183.00:  Tot Depth Loggd 
 TFF .                      No:  Trip for Fail 
 TQAA.f-kp               16.00:  Torque Abs Avg 
 TQAN.f-kp               10.00:  Torque Abs Min 
 TQAX.f-kp               20.00:  Torque Abs Max 
 TRRT.°/30m               1.00:  Turn Rotating 
 MRT .                  EWR-M5:  Maximum Recorded Temperature 
 TTMX.degC               80.39:  Max Tool Temp 
 VS01.               13098498 :  Virtual Str1 SN 
 VS02.                90569596:  Virtual Str2 SN 
 VS03.                90523599:  Virtual Str3 SN 
 VS04.                90573553:  Virtual Str4 SN 
 VS05.                90598598:  Virtual Str5 SN 
 VS06.                90577297:  Virtual Str6 SN 
 WBMN.klb                13.00:  WOB Min 
 WITN.         Alistair Sprott:  Customer Rep 
 WITN.           Rufat Babayev:  Customer Rep 2 
 WOBA.klb                15.00:  WOB Avg 
 WOBX.klb                20.00:  WOB Max 
 YP  .lhf2               39.00:  Yield Point 
~Curve Information Block
#MNEM.UNIT                 API CODE     Curve Description
#---------               -----------    ---------------------------
 TIME.HHMMSS            00 000 000 000:  GT Time & Date
 GTDEPTH.m              00 000 000 000:  GT Depth
 GTPQH.psia             00 000 000 000:  GT HR Quartz Pressure
 GTTQ.degC              00 000 000 000:  GT Quartz Temperature
 GTTN.NONE              00 000 000 000:  GT Test Number
 GTET.sec               00 000 000 000:  GT Elapsed Test Time
 GTTVD.m                00 000 000 000:  GT True Vertical Depth
#Other Information
#
#WARRANTY: Halliburton will use its best efforts to furnish customers with 
#accurate information and interpretations that are part of, and incident to, the services 
#provided.  However, Halliburton cannot and does not warrant the accuracy 
#or correctness of such information and interpretations.  Under no circumstances should any 
#such information or interpretation be relied upon as the sole basis for any drilling, 
#completion, production, or financial decision or any procedure involving any risk to the 
#safety of any drilling venture, drilling rig or its crew or any other third party.  The 
#Customer has full responsibility for all drilling, completion and production operation.  
#Halliburton makes no representations or warranties, either expressed or 
#implied, including, but not limited to, the implied warranties of merchantability or fitness 
#for a particular purpose, with respect to the services rendered.  In no event will 
#Halliburton be liable for failure to obtain any particular results or for 
#any damages, including, but not limited to, indirect, special or consequential damages, 
#resulting from the use of any information or interpretation provided by Halliburton.
#
~A           TIME           GTDEPTH  GTPQH  GTTQ  GTTN  GTET   GTTVD  
# ...
   08:23:29.539.08-Feb-2020 3134.51 4704.31 73.75 1.00 230.02 2647.81
   08:23:29.739.08-Feb-2020 3134.51 4704.31 73.75 1.00 230.22 2647.81
   08:23:29.939.08-Feb-2020 3134.51 4704.43 73.75 1.00 230.42 2647.81
   08:23:30.139.08-Feb-2020 3134.51 4704.70 73.75 1.00 230.62 2647.81
   08:23:30.339.08-Feb-2020 3134.51 4705.03 73.75 1.00 230.82 2647.81
   08:23:30.539.08-Feb-2020 3134.51 4705.45 73.75 1.00 231.02 2647.81
   08:23:30.739.08-Feb-2020 3134.51 4705.45 73.75 1.00 231.22 2647.81
   08:23:30.939.08-Feb-2020 3134.51 4705.53 73.75 1.00 231.42 2647.81
   08:23:31.139.08-Feb-2020 3134.51 4705.76 73.75 1.00 231.62 2647.81
   08:23:31.339.08-Feb-2020 3134.51 4705.77 73.75 1.00 231.82 2647.81
   08:23:31.539.08-Feb-2020 3134.51 4705.60 73.75 1.00 232.02 2647.81
   08:23:31.739.08-Feb-2020 3134.51 4705.60 73.75 1.00 232.22 2647.81
   08:23:31.939.08-Feb-2020 3134.51 4706.44 73.75 1.00 232.42 2647.81
   08:23:32.139.08-Feb-2020 3134.51 4706.80 73.75 1.00 232.62 2647.81
   08:23:32.339.08-Feb-2020 3134.51 4706.70 73.75 1.00 232.82 2647.81
   08:23:32.539.08-Feb-2020 3134.51 4706.90 73.75 1.00 233.02 2647.81
   08:23:32.739.08-Feb-2020 3134.51 4706.90 73.75 1.00 233.22 2647.81
   08:23:32.939.08-Feb-2020 3134.51 4707.37 73.74 1.00 233.42 2647.81
   08:23:33.139.08-Feb-2020 3134.51 4707.40 73.74 1.00 233.62 2647.81
   08:23:33.339.08-Feb-2020 3134.51 4707.51 73.74 1.00 233.82 2647.81
   08:23:33.539.08-Feb-2020 3134.51 4707.58 73.74 1.00 234.02 2647.81
   08:23:33.739.08-Feb-2020 3134.51 4707.58 73.74 1.00 234.22 2647.81
   08:23:33.939.08-Feb-2020 3134.51 4707.84 73.74 1.00 234.42 2647.81
   08:23:34.139.08-Feb-2020 3134.51 4708.14 73.74 1.00 234.62 2647.81
   08:23:34.339.08-Feb-2020 3134.51 4708.40 73.74 1.00 234.82 2647.81
   08:23:34.539.08-Feb-2020 3134.51 4708.67 73.74 1.00 235.02 2647.81
   08:23:34.739.08-Feb-2020 3134.51 4708.67 73.74 1.00 235.22 2647.81
   08:23:34.939.08-Feb-2020 3134.51 4708.78 73.74 1.00 235.42 2647.81
   08:23:35.139.08-Feb-2020 3134.51 4708.97 73.74 1.00 235.62 2647.81
   08:23:35.339.08-Feb-2020 3134.51 4709.26 73.74 1.00 235.82 2647.81
   08:23:35.539.08-Feb-2020 3134.51 4709.19 73.74 1.00 236.02 2647.81
   08:23:35.739.08-Feb-2020 3134.51 4709.19 73.74 1.00 236.22 2647.81
   08:23:35.939.08-Feb-2020 3134.51 4709.58 73.74 1.00 236.42 2647.81
   08:23:36.139.08-Feb-2020 3134.51 4709.38 73.74 1.00 236.62 2647.81
   08:23:36.339.08-Feb-2020 3134.51 4709.69 73.74 1.00 236.82 2647.81
   08:23:36.539.08-Feb-2020 3134.51 4710.03 73.73 1.00 237.02 2647.81
   08:23:36.739.08-Feb-2020 3134.51 4710.03 73.73 1.00 237.22 2647.81
   08:23:36.939.08-Feb-2020 3134.51 4710.24 73.73 1.00 237.42 2647.81
   08:23:37.140.08-Feb-2020 3134.51 4710.29 73.73 1.00 237.62 2647.81
   08:23:37.340.08-Feb-2020 3134.51 4709.98 73.73 1.00 237.82 2647.81
   08:23:37.540.08-Feb-2020 3134.51 4710.76 73.73 1.00 238.02 2647.81
   08:23:37.740.08-Feb-2020 3134.51 4710.76 73.73 1.00 238.22 2647.81
   08:23:37.940.08-Feb-2020 3134.51 4710.43 73.73 1.00 238.42 2647.81
   08:23:38.140.08-Feb-2020 3134.51 4710.96 73.73 1.00 238.62 2647.81
   08:23:38.340.08-Feb-2020 3134.51 4711.12 73.73 1.00 238.82 2647.81
   08:23:38.540.08-Feb-2020 3134.51 4710.93 73.73 1.00 239.02 2647.81
   08:23:38.740.08-Feb-2020 3134.51 4710.93 73.73 1.00 239.22 2647.81
   08:23:38.940.08-Feb-2020 3134.51 4711.14 73.73 1.00 239.42 2647.81
   08:23:39.140.08-Feb-2020 3134.51 4711.30 73.73 1.00 239.62 2647.81
   08:23:39.340.08-Feb-2020 3134.51 4711.02 73.73 1.00 239.82 2647.81
   08:23:39.540.08-Feb-2020 3134.51 4711.35 73.73 1.00 240.02 2647.81
   08:23:39.740.08-Feb-2020 3134.51 4711.35 73.73 1.00 240.22 2647.81
   08:23:39.940.08-Feb-2020 3134.51 4711.55 73.73 1.00 240.42 2647.81
   08:23:40.140.08-Feb-2020 3134.51 4711.56 73.73 1.00 240.62 2647.81
   08:23:40.340.08-Feb-2020 3134.51 4711.99 73.72 1.00 240.82 2647.81
   08:23:40.540.08-Feb-2020 3134.51 4712.08 73.72 1.00 241.02 2647.81
   08:23:40.740.08-Feb-2020 3134.51 4712.08 73.72 1.00 241.22 2647.81
   08:23:40.940.08-Feb-2020 3134.51 4712.36 73.72 1.00 241.42 2647.81
   08:23:41.140.08-Feb-2020 3134.51 4712.40 73.72 1.00 241.62 2647.81
   08:23:41.340.08-Feb-2020 3134.51 4712.34 73.72 1.00 241.82 2647.81
   08:23:41.540.08-Feb-2020 3134.51 4712.67 73.72 1.00 242.02 2647.81
   08:23:41.740.08-Feb-2020 3134.51 4712.67 73.72 1.00 242.22 2647.81
   08:23:41.940.08-Feb-2020 3134.51 4713.01 73.72 1.00 242.42 2647.81
   08:23:42.140.08-Feb-2020 3134.51 4713.42 73.72 1.00 242.62 2647.81
   08:23:42.340.08-Feb-2020 3134.51 4713.38 73.72 1.00 242.82 2647.81
   08:23:42.540.08-Feb-2020 3134.51 4712.93 73.72 1.00 243.02 2647.81
   08:23:42.740.08-Feb-2020 3134.51 4712.93 73.72 1.00 243.22 2647.81
   08:23:42.940.08-Feb-2020 3134.51 4713.14 73.72 1.00 243.42 2647.81
   08:23:43.140.08-Feb-2020 3134.51 4713.11 73.72 1.00 243.62 2647.81
   08:23:43.340.08-Feb-2020 3134.51 4713.23 73.72 1.00 243.82 2647.81
   08:23:43.540.08-Feb-2020 3134.51 4713.25 73.72 1.00 244.02 2647.81
   08:23:43.740.08-Feb-2020 3134.51 4713.25 73.72 1.00 244.22 2647.81
   08:23:43.940.08-Feb-2020 3134.51 4714.05 73.72 1.00 244.42 2647.81
   08:23:44.140.08-Feb-2020 3134.51 4713.67 73.72 1.00 244.62 2647.81
   08:23:44.340.08-Feb-2020 3134.51 4713.67 73.71 1.00 244.82 2647.81
   08:23:44.540.08-Feb-2020 3134.51 4714.24 73.71 1.00 245.02 2647.81
   08:23:44.740.08-Feb-2020 3134.51 4714.24 73.71 1.00 245.22 2647.81
   08:23:44.940.08-Feb-2020 3134.51 4714.35 73.71 1.00 245.42 2647.81
   08:23:45.140.08-Feb-2020 3134.51 4714.90 73.71 1.00 245.62 2647.81
   08:23:45.340.08-Feb-2020 3134.51 4714.85 73.71 1.00 245.82 2647.81
   08:23:45.540.08-Feb-2020 3134.51 4714.80 73.71 1.00 246.02 2647.81
   08:23:45.740.08-Feb-2020 3134.51 4714.80 73.71 1.00 246.22 2647.81
   08:23:45.940.08-Feb-2020 3134.51 4715.30 73.71 1.00 246.42 2647.81
   08:23:46.140.08-Feb-2020 3134.51 4715.21 73.71 1.00 246.62 2647.81
   08:23:46.340.08-Feb-2020 3134.51 4715.40 73.71 1.00 246.82 2647.81
   08:23:46.540.08-Feb-2020 3134.51 4715.41 73.71 1.00 247.02 2647.81
   08:23:46.740.08-Feb-2020 3134.51 4715.41 73.71 1.00 247.22 2647.81
   08:23:46.940.08-Feb-2020 3134.51 4715.84 73.71 1.00 247.42 2647.81
   08:23:47.140.08-Feb-2020 3134.51 4715.81 73.71 1.00 247.62 2647.81
   08:23:47.340.08-Feb-2020 3134.51 4715.72 73.71 1.00 247.82 2647.81
   08:23:47.540.08-Feb-2020 3134.51 4716.05 73.71 1.00 248.02 2647.81
   08:23:47.740.08-Feb-2020 3134.51 4716.05 73.71 1.00 248.22 2647.81
   08:23:47.940.08-Feb-2020 3134.51 4715.90 73.70 1.00 248.42 2647.81
   08:23:48.140.08-Feb-2020 3134.51 4716.08 73.70 1.00 248.62 2647.81
   08:23:48.340.08-Feb-2020 3134.51 4716.14 73.70 1.00 248.82 2647.81
   08:23:48.540.08-Feb-2020 3134.51 4716.12 73.70 1.00 249.02 2647.81
   08:23:48.740.08-Feb-2020 3134.51 4716.12 73.70 1.00 249.22 2647.81
   08:23:48.941.08-Feb-2020 3134.51 4716.54 73.70 1.00 249.42 2647.81
   08:23:49.141.08-Feb-2020 3134.51 4716.40 73.70 1.00 249.62 2647.81
   08:23:49.341.08-Feb-2020 3134.51 4716.59 73.70 1.00 249.82 2647.81
   08:23:49.541.08-Feb-2020 3134.51 4716.80 73.70 1.00 250.02 2647.81
   08:23:49.741.08-Feb-2020 3134.51 4716.80 73.70 1.00 250.22 2647.81
   08:23:49.941.08-Feb-2020 3134.51 4717.13 73.70 1.00 250.42 2647.81
   08:23:50.141.08-Feb-2020 3134.51 4717.18 73.70 1.00 250.62 2647.81
   08:23:50.341.08-Feb-2020 3134.51 4717.05 73.70 1.00 250.82 2647.81
   08:23:50.541.08-Feb-2020 3134.51 4717.25 73.70 1.00 251.02 2647.81
   08:23:50.741.08-Feb-2020 3134.51 4717.25 73.70 1.00 251.22 2647.81
   08:23:50.941.08-Feb-2020 3134.51 4717.13 73.70 1.00 251.42 2647.81
   08:23:51.141.08-Feb-2020 3134.51 4717.82 73.70 1.00 251.62 2647.81
   08:23:51.341.08-Feb-2020 3134.51 4717.45 73.70 1.00 251.82 2647.81
   08:23:51.541.08-Feb-2020 3134.51 4717.36 73.70 1.00 252.02 2647.81
   08:23:51.741.08-Feb-2020 3134.51 4717.36 73.70 1.00 252.22 2647.81
   08:23:51.941.08-Feb-2020 3134.51 4717.65 73.69 1.00 252.42 2647.81
   08:23:52.141.08-Feb-2020 3134.51 4717.90 73.69 1.00 252.62 2647.81
   08:23:52.341.08-Feb-2020 3134.51 4718.41 73.69 1.00 252.82 2647.81
