~Version Information
 VERS.                  2.0:   CWLS log ASCII Standard -VERSION 2.0
 WRAP.                   NO:   One line per depth step
~Well Information Block
#MNEM.UNIT     VALUE/NAME     DESCRIPTION
#---------     -----------    ---------------------------
 STRT.S             08:41:50 08-Feb-20: START TIME 08:41:50 08-Feb-20
 STOP.S             08:48:48 08-Feb-20: STOP TIME  08:48:48 08-Feb-20
 STEP.S                   0.00: STEP TIME
 NULL.                 -999.25: NULL VALUE
 DFWT.                        :  DIST FWL TEXT
 DFST.                        :  DIST FSL TEXT
 DMF .             Drill Floor:  DRILL MEAS FROM
 STIM.      07.00.00 09-Jan-20:  START TIME
 DATE.      14.04.48 07-Feb-20:  END TIME
 SPUD.               09-Jan-20:  SPUD DATE
 NREF.                    Grid:  NORTH REFERENCE
 HPTY.       Minimum Curvature:  HOLE POS TYPE
 DMOD.             Drill Model:  DRILL MOD DESC
 SVYD.                  Survey:  SURVEY DESC
 ILTD.               Lithology:  INTERP LTH DESC
 FTOP.          Formation Tops:  FORM TOPS DESC
 SON .        AZ-XX-0905059384:  JOB NUMBER
 MDS .        Operator Entered:  MAG DATA SOURCE
 WTYP.                Deviated:  WELL TYPE
 COMP.     BP Exploration (Caspian Sea) Ltd.:  COMPANY
 UWI .                     N/A:  UNIQUE WELL IDENTIFIER
 API .                     N/A:  API NUMBER
 BASE.              Azerbaijan:  LOGGING EQUIPMENT BASE LOCATION
 REGN.                   EESSA:  REGION
 PROV.                    Baku:  PROVINCE
 STAT.                    Baku:  STATE NAME
 CTRY.              Azerbaijan:  COUNTRY NAME
 FLD .                     ACG:  FIELD NAME
 SRVC.     TURAN Drilling & Engineering:  CONTRACTOR
 MWDS.                    Baku:  MWD SHOP
 WELL.                     J22:  WELL NAME
 RIG .             West Chirag:  RIG NAME
 DOE .                     N/A:  DOE NUMBER
 DCON.         Sperry Drilling:  DIRECTNL CONTR
 UNIT.                     N/A:  LOGGING EQUIPMENT ID
 PDAT.          Mean Sea Level:  PERMANENT DATUM
 JOBN.        AZ-XX-0905059384:  JOB TICKET NUMB
 CNTY.                        :  COUNTY
 LOC .                        :  LOCATION
 LMF .             Drill Floor:  LOG MEASURED FROM
 TVDS.m                  43.00:  TVDSS CORRECTN
 LATI.deg                40.13:  LATITUDE
 LONG.deg                51.22:  LONGITUDE
 WHNS.m                  10.28:  WELL HEAD N/S
 WHEW.m                  -6.24:  WELL HEAD E/W
 UTMX.m              519005.06:  UTM X
 UTMY.m             4443793.85:  UTM Y
 DFWL.m                   0.00:  DISTANCE FWL
 DFSL.m                   0.00:  DISTANCE FSL
 SDEP.m                 362.00:  START DEPTH
 TDD .m                 904.00:  TOTAL DEPTH (DRILLER)
 VSDR.deg               148.53:  VERT SEC DIRECT
 GVFD.g                   1.00:  GRAVITY FIELD
 MFLD.nT              50277.00:  MAGNETIC FIELD
 MDIP.deg                59.56:  MAGNETIC DIP
 MDEC.deg                 6.42:  MAGNETIC DECL
 GRDC.deg                 0.15:  GRID CORRECTION
 AZTC.deg                 6.27:  AZM TOTAL CORR
 EPD .m                   0.00:  ELEVATION
 EGL .m                   0.00:  GROUND ELEVATION
 WDMS.m                 169.80:  WD ELEV
 APD .m                  43.00:  DEPTH ABOVE PD
 AGAP.m                  43.00:  AIR GAP
 VSEW.m                  -6.24:  VERT SEC E/W
 VSNS.m                  10.28:  VERT SEC N/S
 DEP .m                   0.00:  DEPTH
 EKB .m                   0.00:  KB ELEVATION
 EDF .m                  43.00:  DF ELEVATION
 TDL .m                1183.00:  TOTAL DEPTH (LOGGER)
 VSC .                       0:  VS TO CLOSURE
 MAGU.                 1850021:  MAGUTM CHECKSUM
~Parameter Information Block
#MNEM.UNIT       Value        Description
#---------     -----------    ---------------------------
 AV  .mps                 4.00:  Ann Velocity 
 AVMX.mps                 4.50:  Max Ann Veloc 
 AZIF.deg               145.38:  Azm, Final 
 BHAT.        Rotary Steerable:  BHA Type 
 BROT.°/30m               3.00:  Build Rotating 
 BS  .in                 12.25:  Bit Size 
 BSZ .in                 12.25:  Bit Size 
 BTPL.psig              650.00:  Bit Press Loss 
 CABU.                      No:  Customer Abuse 
 COMM.                     [:  Run Comments 1 
 TCS .hr                101.62:  Time Ciculation Ended 
 CV  .mps                 5.00:  Crit Velocity 
 CVMX.mps                 5.00:  Max Crit Veloc 
 DD1 .             Aziz Aliyev:  Direct Drillr 1 
 DD2 .      Fakhraddin Guliyev:  Direct Drillr 2 
 DDSV.                 iCruise:  DD Service 
 DEFF.%                  97.00:  % Det Eff 
 DLRX.°/30m               4.16:  Dogleg Rot Max 
 DLSO.°/30m               3.20:  Dogleg Oriented 
 DLSX.°/30m               4.10:  Dogleg Str Max 
 DRET.      23.12.00 07-Feb-20:  Drill End Time 
 DRST.      11.30.00 04-Feb-20:  Drill Start Tim 
 DTIM.hr                 61.06:  Time Drilling 
 EDEP.m                3219.01:  End Depth 
 ENG1.         Almaz Almadatov:  Engineer 1 
 ENG2.         Dair Mahammadov:  Engineer 2 
 ENG3.          Nazrin Asgarli:  Engineer 3 
 ETIM.      02.30.00 11-Feb-20:  End Time 
 FLOI.gpm              1100.00:  Flow In 
 FLON.gpm               900.00:  Flow In Min 
 FLOS.cptm               55.00:  Fluid Loss 
 FLOX.gpm              1150.00:  Flow In Max 
 FTRO.       Formation Presure:  FTWD Run Obj 
 HFLO.                      No:  High Flow 
 HPRE.                      No:  High Pressure 
 HTEM.                      No:  High Temp 
 HYDO.m                   1.80:  Hydro Offset 
 IFIN.deg                75.11:  Inc, Final 
 IMAX.deg                75.11:  Inc Max 
 IMIN.deg                33.55:  Inc Min 
 IMND.m                2186.05:  Inc Min Depth 
 IMXD.m                3205.61:  Inc Max Depth 
 JARR.                      No:  Jarring 
 LETM.      23.12.00 07-Feb-20:  Log End Time 
 LOST.hr                     0:  Lost Rig Time 
 LSTM.      11.30.00 04-Feb-20:  Log Start Time 
 MDCL.ppm             40000.00:  Mud Chlorides 
 MDES.     Inversion Oil/Synthetic:  Mud Desc 
 DFD .sg                  1.49:  Mud Density 
 MDMN.sg                  1.49:  Dens Mud Min 
 MDMX.sg                  1.49:  Dens Mud Max 
 MOIL.                      73:  Run Mud Oil % 
 MOWR.                   73:27:  Run Mud OWR 
 MSND.                     0.1:  Run Mud Sand % 
 MSOL.                    20.1:  Run Mud Solids% 
 DFV .spqt               78.00:  Mud Viscosity 
 MWOD.in                  8.00:  MWD Tool OD 
 MWSI.                      No:  Serv Intrp, MWD 
 OTIM.hr                177.15:  Time Operating 
 PCON.          Wear / Scratch:  Pad Condition 
 PMAX.psia            10493.93:  Press Op, Max 
 PV  .cP                 73.00:  Mud PV 
 RUN .                     700:  Run Number 
 ROPA.m/hr               15.00:  ROP Avg 
 ROPN.m/hr               10.00:  ROP Min 
 ROPX.m/hr               35.00:  ROP Max 
 RPMA.rpm               130.00:  RPM Surface Avg 
 RPMN.rpm                80.00:  RPM Surface Min 
 RPMX.rpm               150.00:  RPM Surface Max 
 RRUN.                    L402:  Rig Run Number 
 RTIM.hr                 80.50:  Time Reaming 
 SAZI.deg               155.55:  Azm, Start 
 SDEP.m                2036.00:  Start Depth 
 SIDD.                      No:  Serv Intrp, DD 
 SINC.deg                35.44:  Inc, Start 
 SPPA.psig             4270.00:  SPP Avg 
 SPPN.psig             2800.00:  SPP Min 
 SPPX.psig             4850.00:  SPP Max 
 STIM.      09.30.00 03-Feb-20:  Start Time 
 SVCS.                 DD, MWD:  Services 
 SVER.                    9.20:  Sperry Version 
 TDAT.m                1183.00:  Tot Depth Attmp 
 TDDF.                      No:  Trip for DD 
 TDLG.m                1183.00:  Tot Depth Loggd 
 TFF .                      No:  Trip for Fail 
 TQAA.f-kp               16.00:  Torque Abs Avg 
 TQAN.f-kp               10.00:  Torque Abs Min 
 TQAX.f-kp               20.00:  Torque Abs Max 
 TRRT.°/30m               1.00:  Turn Rotating 
 MRT .                  EWR-M5:  Maximum Recorded Temperature 
 TTMX.degC               80.39:  Max Tool Temp 
 VS01.               13098498 :  Virtual Str1 SN 
 VS02.                90569596:  Virtual Str2 SN 
 VS03.                90523599:  Virtual Str3 SN 
 VS04.                90573553:  Virtual Str4 SN 
 VS05.                90598598:  Virtual Str5 SN 
 VS06.                90577297:  Virtual Str6 SN 
 WBMN.klb                13.00:  WOB Min 
 WITN.         Alistair Sprott:  Customer Rep 
 WITN.           Rufat Babayev:  Customer Rep 2 
 WOBA.klb                15.00:  WOB Avg 
 WOBX.klb                20.00:  WOB Max 
 YP  .lhf2               39.00:  Yield Point 
~Curve Information Block
#MNEM.UNIT                 API CODE     Curve Description
#---------               -----------    ---------------------------
 TIME.HHMMSS            00 000 000 000:  GT Time & Date
 GTDEPTH.m              00 000 000 000:  GT Depth
 GTPQH.psia             00 000 000 000:  GT HR Quartz Pressure
 GTTQ.degC              00 000 000 000:  GT Quartz Temperature
 GTTN.NONE              00 000 000 000:  GT Test Number
 GTET.sec               00 000 000 000:  GT Elapsed Test Time
 GTTVD.m                00 000 000 000:  GT True Vertical Depth
#Other Information
#
#WARRANTY: Halliburton will use its best efforts to furnish customers with 
#accurate information and interpretations that are part of, and incident to, the services 
#provided.  However, Halliburton cannot and does not warrant the accuracy 
#or correctness of such information and interpretations.  Under no circumstances should any 
#such information or interpretation be relied upon as the sole basis for any drilling, 
#completion, production, or financial decision or any procedure involving any risk to the 
#safety of any drilling venture, drilling rig or its crew or any other third party.  The 
#Customer has full responsibility for all drilling, completion and production operation.  
#Halliburton makes no representations or warranties, either expressed or 
#implied, including, but not limited to, the implied warranties of merchantability or fitness 
#for a particular purpose, with respect to the services rendered.  In no event will 
#Halliburton be liable for failure to obtain any particular results or for 
#any damages, including, but not limited to, indirect, special or consequential damages, 
#resulting from the use of any information or interpretation provided by Halliburton.
#
~A           TIME           GTDEPTH  GTPQH  GTTQ  GTTN  GTET   GTTVD  
# ...
   08:47:58.662.08-Feb-2020 3153.01 5766.84 70.95 2.00 368.03 2652.69
   08:47:58.862.08-Feb-2020 3153.01 5766.84 70.95 2.00 368.23 2652.69
   08:47:59.062.08-Feb-2020 3153.01 5767.00 70.95 2.00 368.43 2652.69
   08:47:59.262.08-Feb-2020 3153.01 5765.94 70.95 2.00 368.63 2652.69
   08:47:59.462.08-Feb-2020 3153.01 5766.14 70.95 2.00 368.83 2652.69
   08:47:59.662.08-Feb-2020 3153.01 5765.96 70.95 2.00 369.03 2652.69
   08:47:59.862.08-Feb-2020 3153.01 5765.96 70.95 2.00 369.23 2652.69
   08:48:00.062.08-Feb-2020 3153.01 5768.42 70.95 2.00 369.43 2652.69
   08:48:00.262.08-Feb-2020 3153.01 5766.54 70.95 2.00 369.63 2652.69
   08:48:00.462.08-Feb-2020 3153.01 5767.82 70.95 2.00 369.83 2652.69
   08:48:00.662.08-Feb-2020 3153.01 5768.20 70.95 2.00 370.03 2652.69
   08:48:00.862.08-Feb-2020 3153.01 5768.20 70.95 2.00 370.23 2652.69
   08:48:01.062.08-Feb-2020 3153.01 5764.43 70.95 2.00 370.43 2652.69
   08:48:01.262.08-Feb-2020 3153.01 5767.42 70.95 2.00 370.63 2652.69
   08:48:01.462.08-Feb-2020 3153.01 5768.13 70.95 2.00 370.83 2652.69
   08:48:01.662.08-Feb-2020 3153.01 5765.38 70.95 2.00 371.03 2652.69
   08:48:01.862.08-Feb-2020 3153.01 5765.38 70.95 2.00 371.23 2652.69
   08:48:02.062.08-Feb-2020 3153.01 5767.71 70.95 2.00 371.43 2652.69
   08:48:02.262.08-Feb-2020 3153.01 5766.25 70.95 2.00 371.63 2652.69
   08:48:02.462.08-Feb-2020 3153.01 5763.78 70.95 2.00 371.83 2652.69
   08:48:02.662.08-Feb-2020 3153.01 5765.40 70.95 2.00 372.03 2652.69
   08:48:02.862.08-Feb-2020 3153.01 5765.40 70.95 2.00 372.23 2652.69
   08:48:03.062.08-Feb-2020 3153.01 5765.68 70.95 2.00 372.43 2652.69
   08:48:03.262.08-Feb-2020 3153.01 5765.43 70.95 2.00 372.63 2652.69
   08:48:03.462.08-Feb-2020 3153.01 5766.63 70.95 2.00 372.83 2652.69
   08:48:03.662.08-Feb-2020 3153.01 5766.70 70.95 2.00 373.03 2652.69
   08:48:03.862.08-Feb-2020 3153.01 5766.70 70.95 2.00 373.23 2652.69
   08:48:04.062.08-Feb-2020 3153.01 5767.23 70.95 2.00 373.43 2652.69
   08:48:04.262.08-Feb-2020 3153.01 5766.79 70.95 2.00 373.63 2652.69
   08:48:04.462.08-Feb-2020 3153.01 5766.05 70.95 2.00 373.83 2652.69
   08:48:04.662.08-Feb-2020 3153.01 5766.23 70.95 2.00 374.03 2652.69
   08:48:04.862.08-Feb-2020 3153.01 5766.23 70.95 2.00 374.23 2652.69
   08:48:05.062.08-Feb-2020 3153.01 5771.93 70.95 2.00 374.43 2652.69
   08:48:05.263.08-Feb-2020 3153.01 5765.53 70.95 2.00 374.63 2652.69
   08:48:05.463.08-Feb-2020 3153.01 5764.53 70.95 2.00 374.83 2652.69
   08:48:05.663.08-Feb-2020 3153.01 5766.20 70.95 2.00 375.03 2652.69
   08:48:05.863.08-Feb-2020 3153.01 5766.20 70.95 2.00 375.23 2652.69
   08:48:06.063.08-Feb-2020 3153.01 5765.96 70.95 2.00 375.43 2652.69
   08:48:06.263.08-Feb-2020 3153.01 5766.85 70.95 2.00 375.63 2652.69
   08:48:06.463.08-Feb-2020 3153.01 5766.17 70.95 2.00 375.83 2652.69
   08:48:06.663.08-Feb-2020 3153.01 5765.85 70.94 2.00 376.03 2652.69
   08:48:06.863.08-Feb-2020 3153.01 5765.85 70.94 2.00 376.23 2652.69
   08:48:07.063.08-Feb-2020 3153.01 5765.76 70.94 2.00 376.43 2652.69
   08:48:07.263.08-Feb-2020 3153.01 5771.63 70.94 2.00 376.63 2652.69
   08:48:07.463.08-Feb-2020 3153.01 5764.85 70.94 2.00 376.83 2652.69
   08:48:07.663.08-Feb-2020 3153.01 5764.56 70.94 2.00 377.03 2652.69
   08:48:07.863.08-Feb-2020 3153.01 5764.56 70.94 2.00 377.23 2652.69
   08:48:08.063.08-Feb-2020 3153.01 5768.23 70.94 2.00 377.43 2652.69
   08:48:08.263.08-Feb-2020 3153.01 5765.11 70.94 2.00 377.63 2652.69
   08:48:08.463.08-Feb-2020 3153.01 5765.16 70.94 2.00 377.83 2652.69
   08:48:08.663.08-Feb-2020 3153.01 5769.20 70.94 2.00 378.03 2652.69
   08:48:08.863.08-Feb-2020 3153.01 5769.20 70.94 2.00 378.23 2652.69
   08:48:09.063.08-Feb-2020 3153.01 5764.25 70.94 2.00 378.43 2652.69
   08:48:09.263.08-Feb-2020 3153.01 5770.35 70.94 2.00 378.63 2652.69
   08:48:09.463.08-Feb-2020 3153.01 5766.09 70.94 2.00 378.83 2652.69
   08:48:09.663.08-Feb-2020 3153.01 5763.56 70.94 2.00 379.03 2652.69
   08:48:09.863.08-Feb-2020 3153.01 5763.56 70.94 2.00 379.23 2652.69
   08:48:10.063.08-Feb-2020 3153.01 5773.10 70.94 2.00 379.43 2652.69
   08:48:10.263.08-Feb-2020 3153.01 5764.30 70.94 2.00 379.63 2652.69
   08:48:10.463.08-Feb-2020 3153.01 5764.67 70.94 2.00 379.83 2652.69
   08:48:10.663.08-Feb-2020 3153.01 5766.07 70.94 2.00 380.03 2652.69
   08:48:10.863.08-Feb-2020 3153.01 5766.07 70.94 2.00 380.23 2652.69
   08:48:11.063.08-Feb-2020 3153.01 5765.73 70.94 2.00 380.43 2652.69
   08:48:11.263.08-Feb-2020 3153.01 5762.32 70.94 2.00 380.63 2652.69
   08:48:11.463.08-Feb-2020 3153.01 5770.61 70.94 2.00 380.83 2652.69
   08:48:11.663.08-Feb-2020 3153.01 5767.33 70.94 2.00 381.03 2652.69
   08:48:11.863.08-Feb-2020 3153.01 5767.33 70.94 2.00 381.23 2652.69
   08:48:12.063.08-Feb-2020 3153.01 5768.09 70.94 2.00 381.43 2652.69
   08:48:12.263.08-Feb-2020 3153.01 5771.36 70.94 2.00 381.63 2652.69
   08:48:12.463.08-Feb-2020 3153.01 5769.70 70.94 2.00 381.83 2652.69
   08:48:12.663.08-Feb-2020 3153.01 5767.90 70.94 2.00 382.03 2652.69
   08:48:12.863.08-Feb-2020 3153.01 5767.90 70.94 2.00 382.23 2652.69
   08:48:13.063.08-Feb-2020 3153.01 5770.46 70.94 2.00 382.43 2652.69
   08:48:13.263.08-Feb-2020 3153.01 5770.62 70.94 2.00 382.63 2652.69
   08:48:13.463.08-Feb-2020 3153.01 5772.27 70.94 2.00 382.83 2652.69
   08:48:13.663.08-Feb-2020 3153.01 5770.39 70.94 2.00 383.03 2652.69
   08:48:13.863.08-Feb-2020 3153.01 5770.39 70.94 2.00 383.23 2652.69
   08:48:14.063.08-Feb-2020 3153.01 5767.80 70.94 2.00 383.43 2652.69
   08:48:14.263.08-Feb-2020 3153.01 5767.25 70.94 2.00 383.63 2652.69
   08:48:14.463.08-Feb-2020 3153.01 5773.21 70.94 2.00 383.83 2652.69
   08:48:14.663.08-Feb-2020 3153.01 5764.85 70.94 2.00 384.03 2652.69
   08:48:14.863.08-Feb-2020 3153.01 5764.85 70.94 2.00 384.23 2652.69
   08:48:15.063.08-Feb-2020 3153.01 5771.97 70.94 2.00 384.43 2652.69
   08:48:15.263.08-Feb-2020 3153.01 5767.02 70.94 2.00 384.63 2652.69
   08:48:15.463.08-Feb-2020 3153.01 5765.33 70.94 2.00 384.83 2652.69
   08:48:15.663.08-Feb-2020 3153.01 5765.66 70.94 2.00 385.03 2652.69
   08:48:15.863.08-Feb-2020 3153.01 5765.66 70.94 2.00 385.23 2652.69
   08:48:16.063.08-Feb-2020 3153.01 5765.29 70.94 2.00 385.43 2652.69
   08:48:16.263.08-Feb-2020 3153.01 5764.34 70.94 2.00 385.63 2652.69
   08:48:16.463.08-Feb-2020 3153.01 5772.28 70.94 2.00 385.83 2652.69
   08:48:16.663.08-Feb-2020 3153.01 5766.09 70.94 2.00 386.03 2652.69
   08:48:16.863.08-Feb-2020 3153.01 5766.09 70.94 2.00 386.23 2652.69
   08:48:17.063.08-Feb-2020 3153.01 5765.47 70.94 2.00 386.43 2652.69
   08:48:17.264.08-Feb-2020 3153.01 5767.51 70.94 2.00 386.63 2652.69
   08:48:17.464.08-Feb-2020 3153.01 5769.36 70.93 2.00 386.83 2652.69
   08:48:17.664.08-Feb-2020 3153.01 5768.56 70.93 2.00 387.03 2652.69
   08:48:17.864.08-Feb-2020 3153.01 5768.56 70.93 2.00 387.23 2652.69
   08:48:18.064.08-Feb-2020 3153.01 5767.62 70.93 2.00 387.43 2652.69
   08:48:18.264.08-Feb-2020 3153.01 5767.47 70.93 2.00 387.63 2652.69
   08:48:18.464.08-Feb-2020 3153.01 5767.08 70.93 2.00 387.83 2652.69
   08:48:18.664.08-Feb-2020 3153.01 5768.18 70.93 2.00 388.03 2652.69
   08:48:18.864.08-Feb-2020 3153.01 5768.18 70.93 2.00 388.23 2652.69
   08:48:19.064.08-Feb-2020 3153.01 5766.92 70.93 2.00 388.43 2652.69
   08:48:19.264.08-Feb-2020 3153.01 5766.87 70.93 2.00 388.63 2652.69
   08:48:19.464.08-Feb-2020 3153.01 5766.55 70.93 2.00 388.83 2652.69
   08:48:19.664.08-Feb-2020 3153.01 5769.42 70.93 2.00 389.03 2652.69
   08:48:19.864.08-Feb-2020 3153.01 5769.42 70.93 2.00 389.23 2652.69
   08:48:20.064.08-Feb-2020 3153.01 5766.04 70.93 2.00 389.43 2652.69
   08:48:20.264.08-Feb-2020 3153.01 5766.91 70.93 2.00 389.63 2652.69
   08:48:20.464.08-Feb-2020 3153.01 5767.38 70.93 2.00 389.83 2652.69
   08:48:20.664.08-Feb-2020 3153.01 5766.44 70.93 2.00 390.03 2652.69
   08:48:20.864.08-Feb-2020 3153.01 5766.44 70.93 2.00 390.23 2652.69
   08:48:21.064.08-Feb-2020 3153.01 5766.05 70.93 2.00 390.43 2652.69
   08:48:21.264.08-Feb-2020 3153.01 5766.19 70.93 2.00 390.63 2652.69
   08:48:21.464.08-Feb-2020 3153.01 5766.29 70.93 2.00 390.83 2652.69
