~Version Information
 VERS.                  2.0:   CWLS log ASCII Standard -VERSION 2.0
 WRAP.                   NO:   One line per depth step
~Well Information Block
#MNEM.UNIT     VALUE/NAME     DESCRIPTION
#---------     -----------    ---------------------------
 STRT.S             11:02:51 08-Feb-20: START TIME 11:02:51 08-Feb-20
 STOP.S             11:09:43 08-Feb-20: STOP TIME  11:09:43 08-Feb-20
 STEP.S                   0.00: STEP TIME
 NULL.                 -999.25: NULL VALUE
 DFWT.                        :  DIST FWL TEXT
 DFST.                        :  DIST FSL TEXT
 DMF .             Drill Floor:  DRILL MEAS FROM
 STIM.      07.00.00 09-Jan-20:  START TIME
 DATE.      14.04.48 07-Feb-20:  END TIME
 SPUD.               09-Jan-20:  SPUD DATE
 NREF.                    Grid:  NORTH REFERENCE
 HPTY.       Minimum Curvature:  HOLE POS TYPE
 DMOD.             Drill Model:  DRILL MOD DESC
 SVYD.                  Survey:  SURVEY DESC
 ILTD.               Lithology:  INTERP LTH DESC
 FTOP.          Formation Tops:  FORM TOPS DESC
 SON .        AZ-XX-0905059384:  JOB NUMBER
 MDS .        Operator Entered:  MAG DATA SOURCE
 WTYP.                Deviated:  WELL TYPE
 COMP.     BP Exploration (Caspian Sea) Ltd.:  COMPANY
 UWI .                     N/A:  UNIQUE WELL IDENTIFIER
 API .                     N/A:  API NUMBER
 BASE.              Azerbaijan:  LOGGING EQUIPMENT BASE LOCATION
 REGN.                   EESSA:  REGION
 PROV.                    Baku:  PROVINCE
 STAT.                    Baku:  STATE NAME
 CTRY.              Azerbaijan:  COUNTRY NAME
 FLD .                     ACG:  FIELD NAME
 SRVC.     TURAN Drilling & Engineering:  CONTRACTOR
 MWDS.                    Baku:  MWD SHOP
 WELL.                     J22:  WELL NAME
 RIG .             West Chirag:  RIG NAME
 DOE .                     N/A:  DOE NUMBER
 DCON.         Sperry Drilling:  DIRECTNL CONTR
 UNIT.                     N/A:  LOGGING EQUIPMENT ID
 PDAT.          Mean Sea Level:  PERMANENT DATUM
 JOBN.        AZ-XX-0905059384:  JOB TICKET NUMB
 CNTY.                        :  COUNTY
 LOC .                        :  LOCATION
 LMF .             Drill Floor:  LOG MEASURED FROM
 TVDS.m                  43.00:  TVDSS CORRECTN
 LATI.deg                40.13:  LATITUDE
 LONG.deg                51.22:  LONGITUDE
 WHNS.m                  10.28:  WELL HEAD N/S
 WHEW.m                  -6.24:  WELL HEAD E/W
 UTMX.m              519005.06:  UTM X
 UTMY.m             4443793.85:  UTM Y
 DFWL.m                   0.00:  DISTANCE FWL
 DFSL.m                   0.00:  DISTANCE FSL
 SDEP.m                 362.00:  START DEPTH
 TDD .m                 904.00:  TOTAL DEPTH (DRILLER)
 VSDR.deg               148.53:  VERT SEC DIRECT
 GVFD.g                   1.00:  GRAVITY FIELD
 MFLD.nT              50277.00:  MAGNETIC FIELD
 MDIP.deg                59.56:  MAGNETIC DIP
 MDEC.deg                 6.42:  MAGNETIC DECL
 GRDC.deg                 0.15:  GRID CORRECTION
 AZTC.deg                 6.27:  AZM TOTAL CORR
 EPD .m                   0.00:  ELEVATION
 EGL .m                   0.00:  GROUND ELEVATION
 WDMS.m                 169.80:  WD ELEV
 APD .m                  43.00:  DEPTH ABOVE PD
 AGAP.m                  43.00:  AIR GAP
 VSEW.m                  -6.24:  VERT SEC E/W
 VSNS.m                  10.28:  VERT SEC N/S
 DEP .m                   0.00:  DEPTH
 EKB .m                   0.00:  KB ELEVATION
 EDF .m                  43.00:  DF ELEVATION
 TDL .m                1183.00:  TOTAL DEPTH (LOGGER)
 VSC .                       0:  VS TO CLOSURE
 MAGU.                 1850021:  MAGUTM CHECKSUM
~Parameter Information Block
#MNEM.UNIT       Value        Description
#---------     -----------    ---------------------------
 AV  .mps                 4.00:  Ann Velocity 
 AVMX.mps                 4.50:  Max Ann Veloc 
 AZIF.deg               145.38:  Azm, Final 
 BHAT.        Rotary Steerable:  BHA Type 
 BROT.°/30m               3.00:  Build Rotating 
 BS  .in                 12.25:  Bit Size 
 BSZ .in                 12.25:  Bit Size 
 BTPL.psig              650.00:  Bit Press Loss 
 CABU.                      No:  Customer Abuse 
 COMM.                     Ä%€:  Run Comments 1 
 TCS .hr                101.62:  Time Ciculation Ended 
 CV  .mps                 5.00:  Crit Velocity 
 CVMX.mps                 5.00:  Max Crit Veloc 
 DD1 .             Aziz Aliyev:  Direct Drillr 1 
 DD2 .      Fakhraddin Guliyev:  Direct Drillr 2 
 DDSV.                 iCruise:  DD Service 
 DEFF.%                  97.00:  % Det Eff 
 DLRX.°/30m               4.16:  Dogleg Rot Max 
 DLSO.°/30m               3.20:  Dogleg Oriented 
 DLSX.°/30m               4.10:  Dogleg Str Max 
 DRET.      23.12.00 07-Feb-20:  Drill End Time 
 DRST.      11.30.00 04-Feb-20:  Drill Start Tim 
 DTIM.hr                 61.06:  Time Drilling 
 EDEP.m                3219.01:  End Depth 
 ENG1.         Almaz Almadatov:  Engineer 1 
 ENG2.         Dair Mahammadov:  Engineer 2 
 ENG3.          Nazrin Asgarli:  Engineer 3 
 ETIM.      02.30.00 11-Feb-20:  End Time 
 FLOI.gpm              1100.00:  Flow In 
 FLON.gpm               900.00:  Flow In Min 
 FLOS.cptm               55.00:  Fluid Loss 
 FLOX.gpm              1150.00:  Flow In Max 
 FTRO.       Formation Presure:  FTWD Run Obj 
 HFLO.                      No:  High Flow 
 HPRE.                      No:  High Pressure 
 HTEM.                      No:  High Temp 
 HYDO.m                   1.80:  Hydro Offset 
 IFIN.deg                75.11:  Inc, Final 
 IMAX.deg                75.11:  Inc Max 
 IMIN.deg                33.55:  Inc Min 
 IMND.m                2186.05:  Inc Min Depth 
 IMXD.m                3205.61:  Inc Max Depth 
 JARR.                      No:  Jarring 
 LETM.      23.12.00 07-Feb-20:  Log End Time 
 LOST.hr                     0:  Lost Rig Time 
 LSTM.      11.30.00 04-Feb-20:  Log Start Time 
 MDCL.ppm             40000.00:  Mud Chlorides 
 MDES.     Inversion Oil/Synthetic:  Mud Desc 
 DFD .sg                  1.49:  Mud Density 
 MDMN.sg                  1.49:  Dens Mud Min 
 MDMX.sg                  1.49:  Dens Mud Max 
 MOIL.                      73:  Run Mud Oil % 
 MOWR.                   73:27:  Run Mud OWR 
 MSND.                     0.1:  Run Mud Sand % 
 MSOL.                    20.1:  Run Mud Solids% 
 DFV .spqt               78.00:  Mud Viscosity 
 MWOD.in                  8.00:  MWD Tool OD 
 MWSI.                      No:  Serv Intrp, MWD 
 OTIM.hr                177.15:  Time Operating 
 PCON.          Wear / Scratch:  Pad Condition 
 PMAX.psia            10493.93:  Press Op, Max 
 PV  .cP                 73.00:  Mud PV 
 RUN .                     700:  Run Number 
 ROPA.m/hr               15.00:  ROP Avg 
 ROPN.m/hr               10.00:  ROP Min 
 ROPX.m/hr               35.00:  ROP Max 
 RPMA.rpm               130.00:  RPM Surface Avg 
 RPMN.rpm                80.00:  RPM Surface Min 
 RPMX.rpm               150.00:  RPM Surface Max 
 RRUN.                    L402:  Rig Run Number 
 RTIM.hr                 80.50:  Time Reaming 
 SAZI.deg               155.55:  Azm, Start 
 SDEP.m                2036.00:  Start Depth 
 SIDD.                      No:  Serv Intrp, DD 
 SINC.deg                35.44:  Inc, Start 
 SPPA.psig             4270.00:  SPP Avg 
 SPPN.psig             2800.00:  SPP Min 
 SPPX.psig             4850.00:  SPP Max 
 STIM.      09.30.00 03-Feb-20:  Start Time 
 SVCS.                 DD, MWD:  Services 
 SVER.                    9.20:  Sperry Version 
 TDAT.m                1183.00:  Tot Depth Attmp 
 TDDF.                      No:  Trip for DD 
 TDLG.m                1183.00:  Tot Depth Loggd 
 TFF .                      No:  Trip for Fail 
 TQAA.f-kp               16.00:  Torque Abs Avg 
 TQAN.f-kp               10.00:  Torque Abs Min 
 TQAX.f-kp               20.00:  Torque Abs Max 
 TRRT.°/30m               1.00:  Turn Rotating 
 MRT .                  EWR-M5:  Maximum Recorded Temperature 
 TTMX.degC               80.39:  Max Tool Temp 
 VS01.               13098498 :  Virtual Str1 SN 
 VS02.                90569596:  Virtual Str2 SN 
 VS03.                90523599:  Virtual Str3 SN 
 VS04.                90573553:  Virtual Str4 SN 
 VS05.                90598598:  Virtual Str5 SN 
 VS06.                90577297:  Virtual Str6 SN 
 WBMN.klb                13.00:  WOB Min 
 WITN.         Alistair Sprott:  Customer Rep 
 WITN.           Rufat Babayev:  Customer Rep 2 
 WOBA.klb                15.00:  WOB Avg 
 WOBX.klb                20.00:  WOB Max 
 YP  .lhf2               39.00:  Yield Point 
~Curve Information Block
#MNEM.UNIT                 API CODE     Curve Description
#---------               -----------    ---------------------------
 TIME.HHMMSS            00 000 000 000:  GT Time & Date
 GTDEPTH.m              00 000 000 000:  GT Depth
 GTPQH.psia             00 000 000 000:  GT HR Quartz Pressure
 GTTQ.degC              00 000 000 000:  GT Quartz Temperature
 GTTN.NONE              00 000 000 000:  GT Test Number
 GTET.sec               00 000 000 000:  GT Elapsed Test Time
 GTTVD.m                00 000 000 000:  GT True Vertical Depth
#Other Information
#
#WARRANTY: Halliburton will use its best efforts to furnish customers with 
#accurate information and interpretations that are part of, and incident to, the services 
#provided.  However, Halliburton cannot and does not warrant the accuracy 
#or correctness of such information and interpretations.  Under no circumstances should any 
#such information or interpretation be relied upon as the sole basis for any drilling, 
#completion, production, or financial decision or any procedure involving any risk to the 
#safety of any drilling venture, drilling rig or its crew or any other third party.  The 
#Customer has full responsibility for all drilling, completion and production operation.  
#Halliburton makes no representations or warranties, either expressed or 
#implied, including, but not limited to, the implied warranties of merchantability or fitness 
#for a particular purpose, with respect to the services rendered.  In no event will 
#Halliburton be liable for failure to obtain any particular results or for 
#any damages, including, but not limited to, indirect, special or consequential damages, 
#resulting from the use of any information or interpretation provided by Halliburton.
#
~A           TIME           GTDEPTH  GTPQH  GTTQ  GTTN  GTET   GTTVD  
# ...
   11:04:00.477.08-Feb-2020 3115.78 3099.93 67.25 6.00  69.04 2642.62
   11:04:00.678.08-Feb-2020 3115.78 3099.93 67.25 6.00  69.24 2642.62
   11:04:00.878.08-Feb-2020 3115.78 3089.24 67.25 6.00  69.44 2642.62
   11:04:01.078.08-Feb-2020 3115.78 3105.11 67.24 6.00  69.64 2642.62
   11:04:01.278.08-Feb-2020 3115.78 3389.13 67.24 6.00  69.84 2642.62
   11:04:01.478.08-Feb-2020 3115.78 3660.24 67.24 6.00  70.04 2642.62
   11:04:01.678.08-Feb-2020 3115.78 3660.24 67.24 6.00  70.24 2642.62
   11:04:01.878.08-Feb-2020 3115.78 3999.78 67.24 6.00  70.44 2642.62
   11:04:02.078.08-Feb-2020 3115.78 4112.17 67.24 6.00  70.64 2642.62
   11:04:02.278.08-Feb-2020 3115.78 4198.99 67.24 6.00  70.84 2642.62
   11:04:02.478.08-Feb-2020 3115.78 4266.58 67.24 6.00  71.04 2642.62
   11:04:02.679.08-Feb-2020 3115.78 4266.58 67.24 6.00  71.24 2642.62
   11:04:02.879.08-Feb-2020 3115.78 4365.29 67.24 6.00  71.44 2642.62
   11:04:03.079.08-Feb-2020 3115.78 4399.15 67.24 6.00  71.64 2642.62
   11:04:03.279.08-Feb-2020 3115.78 4428.09 67.24 6.00  71.84 2642.62
   11:04:03.479.08-Feb-2020 3115.78 4450.98 67.24 6.00  72.04 2642.62
   11:04:03.679.08-Feb-2020 3115.78 4450.98 67.24 6.00  72.24 2642.62
   11:04:03.879.08-Feb-2020 3115.78 4486.22 67.24 6.00  72.44 2642.62
   11:04:04.079.08-Feb-2020 3115.78 4500.97 67.24 6.00  72.64 2642.62
   11:04:04.279.08-Feb-2020 3115.78 4509.22 67.24 6.00  72.84 2642.62
   11:04:04.480.08-Feb-2020 3115.78 4519.32 67.24 6.00  73.04 2642.62
   11:04:04.680.08-Feb-2020 3115.78 4519.32 67.24 6.00  73.24 2642.62
   11:04:04.880.08-Feb-2020 3115.78 4533.71 67.24 6.00  73.44 2642.62
   11:04:05.080.08-Feb-2020 3115.78 4539.23 67.24 6.00  73.64 2642.62
   11:04:05.280.08-Feb-2020 3115.78 4544.60 67.24 6.00  73.84 2642.62
   11:04:05.480.08-Feb-2020 3115.78 4548.93 67.24 6.00  74.04 2642.62
   11:04:05.680.08-Feb-2020 3115.78 4548.93 67.24 6.00  74.24 2642.62
   11:04:05.880.08-Feb-2020 3115.78 4555.38 67.24 6.00  74.44 2642.62
   11:04:06.080.08-Feb-2020 3115.78 4557.96 67.24 6.00  74.64 2642.62
   11:04:06.280.08-Feb-2020 3115.78 4560.49 67.24 6.00  74.84 2642.62
   11:04:06.481.08-Feb-2020 3115.78 4562.14 67.24 6.00  75.04 2642.62
   11:04:06.681.08-Feb-2020 3115.78 4562.14 67.24 6.00  75.24 2642.62
   11:04:06.881.08-Feb-2020 3115.78 4565.30 67.24 6.00  75.44 2642.62
   11:04:07.081.08-Feb-2020 3115.78 4567.29 67.25 6.00  75.64 2642.62
   11:04:07.281.08-Feb-2020 3115.78 4568.77 67.25 6.00  75.84 2642.62
   11:04:07.481.08-Feb-2020 3115.78 4569.33 67.25 6.00  76.04 2642.62
   11:04:07.681.08-Feb-2020 3115.78 4569.33 67.25 6.00  76.24 2642.62
   11:04:07.881.08-Feb-2020 3115.78 4571.06 67.25 6.00  76.44 2642.62
   11:04:08.081.08-Feb-2020 3115.78 4571.67 67.25 6.00  76.64 2642.62
   11:04:08.281.08-Feb-2020 3115.78 4572.25 67.25 6.00  76.84 2642.62
   11:04:08.482.08-Feb-2020 3115.78 4572.14 67.25 6.00  77.04 2642.62
   11:04:08.682.08-Feb-2020 3115.78 4572.14 67.25 6.00  77.24 2642.62
   11:04:08.882.08-Feb-2020 3115.78 4575.18 67.25 6.00  77.44 2642.62
   11:04:09.082.08-Feb-2020 3115.78 4574.77 67.25 6.00  77.64 2642.62
   11:04:09.282.08-Feb-2020 3115.78 4576.66 67.25 6.00  77.84 2642.62
   11:04:09.482.08-Feb-2020 3115.78 4576.17 67.25 6.00  78.04 2642.62
   11:04:09.682.08-Feb-2020 3115.78 4576.17 67.25 6.00  78.24 2642.62
   11:04:09.882.08-Feb-2020 3115.78 4579.22 67.25 6.00  78.44 2642.62
   11:04:10.082.08-Feb-2020 3115.78 4578.13 67.25 6.00  78.64 2642.62
   11:04:10.283.08-Feb-2020 3115.78 4578.59 67.25 6.00  78.84 2642.62
   11:04:10.483.08-Feb-2020 3115.78 4579.67 67.25 6.00  79.04 2642.62
   11:04:10.683.08-Feb-2020 3115.78 4579.67 67.25 6.00  79.24 2642.62
   11:04:10.883.08-Feb-2020 3115.78 4580.53 67.25 6.00  79.44 2642.62
   11:04:11.083.08-Feb-2020 3115.78 4581.39 67.25 6.00  79.64 2642.62
   11:04:11.283.08-Feb-2020 3115.78 4580.10 67.25 6.00  79.84 2642.62
   11:04:11.483.08-Feb-2020 3115.78 4580.58 67.25 6.00  80.04 2642.62
   11:04:11.683.08-Feb-2020 3115.78 4580.58 67.25 6.00  80.24 2642.62
   11:04:11.883.08-Feb-2020 3115.78 4581.67 67.25 6.00  80.44 2642.62
   11:04:12.083.08-Feb-2020 3115.78 4581.44 67.25 6.00  80.64 2642.62
   11:04:12.284.08-Feb-2020 3115.78 4581.17 67.25 6.00  80.84 2642.62
   11:04:12.484.08-Feb-2020 3115.78 4581.26 67.25 6.00  81.04 2642.62
   11:04:12.684.08-Feb-2020 3115.78 4581.26 67.25 6.00  81.24 2642.62
   11:04:12.884.08-Feb-2020 3115.78 4581.10 67.25 6.00  81.44 2642.62
   11:04:13.084.08-Feb-2020 3115.78 4580.83 67.25 6.00  81.64 2642.62
   11:04:13.284.08-Feb-2020 3115.78 4581.28 67.25 6.00  81.84 2642.62
   11:04:13.484.08-Feb-2020 3115.78 4581.53 67.25 6.00  82.04 2642.62
   11:04:13.684.08-Feb-2020 3115.78 4581.53 67.25 6.00  82.24 2642.62
   11:04:13.884.08-Feb-2020 3115.78 4581.37 67.25 6.00  82.44 2642.62
   11:04:14.085.08-Feb-2020 3115.78 4582.50 67.25 6.00  82.64 2642.62
   11:04:14.285.08-Feb-2020 3115.78 4582.65 67.25 6.00  82.84 2642.62
   11:04:14.485.08-Feb-2020 3115.78 4582.51 67.25 6.00  83.04 2642.62
   11:04:14.685.08-Feb-2020 3115.78 4582.51 67.25 6.00  83.24 2642.62
   11:04:14.885.08-Feb-2020 3115.78 4582.36 67.25 6.00  83.44 2642.62
   11:04:15.085.08-Feb-2020 3115.78 4582.39 67.25 6.00  83.64 2642.62
   11:04:15.285.08-Feb-2020 3115.78 4582.94 67.25 6.00  83.84 2642.62
   11:04:15.485.08-Feb-2020 3115.78 4584.50 67.25 6.00  84.04 2642.62
   11:04:15.685.08-Feb-2020 3115.78 4584.50 67.25 6.00  84.24 2642.62
   11:04:15.885.08-Feb-2020 3115.78 4584.78 67.25 6.00  84.44 2642.62
   11:04:16.086.08-Feb-2020 3115.78 4584.92 67.25 6.00  84.64 2642.62
   11:04:16.286.08-Feb-2020 3115.78 4584.44 67.25 6.00  84.84 2642.62
   11:04:16.486.08-Feb-2020 3115.78 4584.78 67.25 6.00  85.04 2642.62
   11:04:16.686.08-Feb-2020 3115.78 4584.78 67.25 6.00  85.24 2642.62
   11:04:16.886.08-Feb-2020 3115.78 4584.70 67.25 6.00  85.44 2642.62
   11:04:17.086.08-Feb-2020 3115.78 4584.60 67.25 6.00  85.64 2642.62
   11:04:17.286.08-Feb-2020 3115.78 4585.50 67.25 6.00  85.84 2642.62
   11:04:17.486.08-Feb-2020 3115.78 4585.15 67.25 6.00  86.04 2642.62
   11:04:17.686.08-Feb-2020 3115.78 4585.15 67.25 6.00  86.25 2642.62
   11:04:17.887.08-Feb-2020 3115.78 4584.48 67.25 6.00  86.45 2642.62
   11:04:18.087.08-Feb-2020 3115.78 4585.19 67.25 6.00  86.65 2642.62
   11:04:18.287.08-Feb-2020 3115.78 4586.32 67.25 6.00  86.85 2642.62
   11:04:18.487.08-Feb-2020 3115.78 4584.77 67.25 6.00  87.05 2642.62
   11:04:18.687.08-Feb-2020 3115.78 4584.77 67.25 6.00  87.25 2642.62
   11:04:18.887.08-Feb-2020 3115.78 4586.30 67.25 6.00  87.45 2642.62
   11:04:19.087.08-Feb-2020 3115.78 4585.78 67.25 6.00  87.65 2642.62
   11:04:19.287.08-Feb-2020 3115.78 4585.19 67.25 6.00  87.85 2642.62
   11:04:19.487.08-Feb-2020 3115.78 4585.21 67.25 6.00  88.05 2642.62
   11:04:19.687.08-Feb-2020 3115.78 4585.21 67.25 6.00  88.25 2642.62
   11:04:19.888.08-Feb-2020 3115.78 4584.96 67.25 6.00  88.45 2642.62
   11:04:20.088.08-Feb-2020 3115.78 4585.12 67.25 6.00  88.65 2642.62
   11:04:20.288.08-Feb-2020 3115.78 4585.10 67.25 6.00  88.85 2642.62
   11:04:20.488.08-Feb-2020 3115.78 4586.13 67.25 6.00  89.05 2642.62
   11:04:20.688.08-Feb-2020 3115.78 4586.13 67.25 6.00  89.25 2642.62
   11:04:20.888.08-Feb-2020 3115.78 4585.40 67.25 6.00  89.45 2642.62
   11:04:21.088.08-Feb-2020 3115.78 4585.83 67.25 6.00  89.65 2642.62
   11:04:21.288.08-Feb-2020 3115.78 4586.15 67.25 6.00  89.85 2642.62
   11:04:21.488.08-Feb-2020 3115.78 4585.67 67.25 6.00  90.05 2642.62
   11:04:21.688.08-Feb-2020 3115.78 4585.67 67.25 6.00  90.25 2642.62
   11:04:21.889.08-Feb-2020 3115.78 4585.26 67.25 6.00  90.45 2642.62
   11:04:22.089.08-Feb-2020 3115.78 4585.05 67.25 6.00  90.65 2642.62
   11:04:22.289.08-Feb-2020 3115.78 4584.89 67.25 6.00  90.85 2642.62
   11:04:22.489.08-Feb-2020 3115.78 4584.78 67.25 6.00  91.05 2642.62
   11:04:22.689.08-Feb-2020 3115.78 4584.78 67.25 6.00  91.25 2642.62
   11:04:22.889.08-Feb-2020 3115.78 4585.65 67.25 6.00  91.45 2642.62
   11:04:23.089.08-Feb-2020 3115.78 4586.24 67.24 6.00  91.65 2642.62
   11:04:23.289.08-Feb-2020 3115.78 4585.35 67.24 6.00  91.85 2642.62
