~Version Information
 VERS.                  2.0:   CWLS log ASCII Standard -VERSION 2.0
 WRAP.                   NO:   One line per depth step
~Well Information Block
#MNEM.UNIT     VALUE/NAME     DESCRIPTION
#---------     -----------    ---------------------------
 STRT.S             10:04:49 08-Feb-20: START TIME 10:04:49 08-Feb-20
 STOP.S             10:11:45 08-Feb-20: STOP TIME  10:11:45 08-Feb-20
 STEP.S                   0.00: STEP TIME
 NULL.                 -999.25: NULL VALUE
 DFWT.                        :  DIST FWL TEXT
 DFST.                        :  DIST FSL TEXT
 DMF .             Drill Floor:  DRILL MEAS FROM
 STIM.      07.00.00 09-Jan-20:  START TIME
 DATE.      14.04.48 07-Feb-20:  END TIME
 SPUD.               09-Jan-20:  SPUD DATE
 NREF.                    Grid:  NORTH REFERENCE
 HPTY.       Minimum Curvature:  HOLE POS TYPE
 DMOD.             Drill Model:  DRILL MOD DESC
 SVYD.                  Survey:  SURVEY DESC
 ILTD.               Lithology:  INTERP LTH DESC
 FTOP.          Formation Tops:  FORM TOPS DESC
 SON .        AZ-XX-0905059384:  JOB NUMBER
 MDS .        Operator Entered:  MAG DATA SOURCE
 WTYP.                Deviated:  WELL TYPE
 COMP.     BP Exploration (Caspian Sea) Ltd.:  COMPANY
 UWI .                     N/A:  UNIQUE WELL IDENTIFIER
 API .                     N/A:  API NUMBER
 BASE.              Azerbaijan:  LOGGING EQUIPMENT BASE LOCATION
 REGN.                   EESSA:  REGION
 PROV.                    Baku:  PROVINCE
 STAT.                    Baku:  STATE NAME
 CTRY.              Azerbaijan:  COUNTRY NAME
 FLD .                     ACG:  FIELD NAME
 SRVC.     TURAN Drilling & Engineering:  CONTRACTOR
 MWDS.                    Baku:  MWD SHOP
 WELL.                     J22:  WELL NAME
 RIG .             West Chirag:  RIG NAME
 DOE .                     N/A:  DOE NUMBER
 DCON.         Sperry Drilling:  DIRECTNL CONTR
 UNIT.                     N/A:  LOGGING EQUIPMENT ID
 PDAT.          Mean Sea Level:  PERMANENT DATUM
 JOBN.        AZ-XX-0905059384:  JOB TICKET NUMB
 CNTY.                        :  COUNTY
 LOC .                        :  LOCATION
 LMF .             Drill Floor:  LOG MEASURED FROM
 TVDS.m                  43.00:  TVDSS CORRECTN
 LATI.deg                40.13:  LATITUDE
 LONG.deg                51.22:  LONGITUDE
 WHNS.m                  10.28:  WELL HEAD N/S
 WHEW.m                  -6.24:  WELL HEAD E/W
 UTMX.m              519005.06:  UTM X
 UTMY.m             4443793.85:  UTM Y
 DFWL.m                   0.00:  DISTANCE FWL
 DFSL.m                   0.00:  DISTANCE FSL
 SDEP.m                 362.00:  START DEPTH
 TDD .m                 904.00:  TOTAL DEPTH (DRILLER)
 VSDR.deg               148.53:  VERT SEC DIRECT
 GVFD.g                   1.00:  GRAVITY FIELD
 MFLD.nT              50277.00:  MAGNETIC FIELD
 MDIP.deg                59.56:  MAGNETIC DIP
 MDEC.deg                 6.42:  MAGNETIC DECL
 GRDC.deg                 0.15:  GRID CORRECTION
 AZTC.deg                 6.27:  AZM TOTAL CORR
 EPD .m                   0.00:  ELEVATION
 EGL .m                   0.00:  GROUND ELEVATION
 WDMS.m                 169.80:  WD ELEV
 APD .m                  43.00:  DEPTH ABOVE PD
 AGAP.m                  43.00:  AIR GAP
 VSEW.m                  -6.24:  VERT SEC E/W
 VSNS.m                  10.28:  VERT SEC N/S
 DEP .m                   0.00:  DEPTH
 EKB .m                   0.00:  KB ELEVATION
 EDF .m                  43.00:  DF ELEVATION
 TDL .m                1183.00:  TOTAL DEPTH (LOGGER)
 VSC .                       0:  VS TO CLOSURE
 MAGU.                 1850021:  MAGUTM CHECKSUM
~Parameter Information Block
#MNEM.UNIT       Value        Description
#---------     -----------    ---------------------------
 AV  .mps                 4.00:  Ann Velocity 
 AVMX.mps                 4.50:  Max Ann Veloc 
 AZIF.deg               145.38:  Azm, Final 
 BHAT.        Rotary Steerable:  BHA Type 
 BROT.°/30m               3.00:  Build Rotating 
 BS  .in                 12.25:  Bit Size 
 BSZ .in                 12.25:  Bit Size 
 BTPL.psig              650.00:  Bit Press Loss 
 CABU.                      No:  Customer Abuse 
 COMM.                     |¶Q:  Run Comments 1 
 TCS .hr                101.62:  Time Ciculation Ended 
 CV  .mps                 5.00:  Crit Velocity 
 CVMX.mps                 5.00:  Max Crit Veloc 
 DD1 .             Aziz Aliyev:  Direct Drillr 1 
 DD2 .      Fakhraddin Guliyev:  Direct Drillr 2 
 DDSV.                 iCruise:  DD Service 
 DEFF.%                  97.00:  % Det Eff 
 DLRX.°/30m               4.16:  Dogleg Rot Max 
 DLSO.°/30m               3.20:  Dogleg Oriented 
 DLSX.°/30m               4.10:  Dogleg Str Max 
 DRET.      23.12.00 07-Feb-20:  Drill End Time 
 DRST.      11.30.00 04-Feb-20:  Drill Start Tim 
 DTIM.hr                 61.06:  Time Drilling 
 EDEP.m                3219.01:  End Depth 
 ENG1.         Almaz Almadatov:  Engineer 1 
 ENG2.         Dair Mahammadov:  Engineer 2 
 ENG3.          Nazrin Asgarli:  Engineer 3 
 ETIM.      02.30.00 11-Feb-20:  End Time 
 FLOI.gpm              1100.00:  Flow In 
 FLON.gpm               900.00:  Flow In Min 
 FLOS.cptm               55.00:  Fluid Loss 
 FLOX.gpm              1150.00:  Flow In Max 
 FTRO.       Formation Presure:  FTWD Run Obj 
 HFLO.                      No:  High Flow 
 HPRE.                      No:  High Pressure 
 HTEM.                      No:  High Temp 
 HYDO.m                   1.80:  Hydro Offset 
 IFIN.deg                75.11:  Inc, Final 
 IMAX.deg                75.11:  Inc Max 
 IMIN.deg                33.55:  Inc Min 
 IMND.m                2186.05:  Inc Min Depth 
 IMXD.m                3205.61:  Inc Max Depth 
 JARR.                      No:  Jarring 
 LETM.      23.12.00 07-Feb-20:  Log End Time 
 LOST.hr                     0:  Lost Rig Time 
 LSTM.      11.30.00 04-Feb-20:  Log Start Time 
 MDCL.ppm             40000.00:  Mud Chlorides 
 MDES.     Inversion Oil/Synthetic:  Mud Desc 
 DFD .sg                  1.49:  Mud Density 
 MDMN.sg                  1.49:  Dens Mud Min 
 MDMX.sg                  1.49:  Dens Mud Max 
 MOIL.                      73:  Run Mud Oil % 
 MOWR.                   73:27:  Run Mud OWR 
 MSND.                     0.1:  Run Mud Sand % 
 MSOL.                    20.1:  Run Mud Solids% 
 DFV .spqt               78.00:  Mud Viscosity 
 MWOD.in                  8.00:  MWD Tool OD 
 MWSI.                      No:  Serv Intrp, MWD 
 OTIM.hr                177.15:  Time Operating 
 PCON.          Wear / Scratch:  Pad Condition 
 PMAX.psia            10493.93:  Press Op, Max 
 PV  .cP                 73.00:  Mud PV 
 RUN .                     700:  Run Number 
 ROPA.m/hr               15.00:  ROP Avg 
 ROPN.m/hr               10.00:  ROP Min 
 ROPX.m/hr               35.00:  ROP Max 
 RPMA.rpm               130.00:  RPM Surface Avg 
 RPMN.rpm                80.00:  RPM Surface Min 
 RPMX.rpm               150.00:  RPM Surface Max 
 RRUN.                    L402:  Rig Run Number 
 RTIM.hr                 80.50:  Time Reaming 
 SAZI.deg               155.55:  Azm, Start 
 SDEP.m                2036.00:  Start Depth 
 SIDD.                      No:  Serv Intrp, DD 
 SINC.deg                35.44:  Inc, Start 
 SPPA.psig             4270.00:  SPP Avg 
 SPPN.psig             2800.00:  SPP Min 
 SPPX.psig             4850.00:  SPP Max 
 STIM.      09.30.00 03-Feb-20:  Start Time 
 SVCS.                 DD, MWD:  Services 
 SVER.                    9.20:  Sperry Version 
 TDAT.m                1183.00:  Tot Depth Attmp 
 TDDF.                      No:  Trip for DD 
 TDLG.m                1183.00:  Tot Depth Loggd 
 TFF .                      No:  Trip for Fail 
 TQAA.f-kp               16.00:  Torque Abs Avg 
 TQAN.f-kp               10.00:  Torque Abs Min 
 TQAX.f-kp               20.00:  Torque Abs Max 
 TRRT.°/30m               1.00:  Turn Rotating 
 MRT .                  EWR-M5:  Maximum Recorded Temperature 
 TTMX.degC               80.39:  Max Tool Temp 
 VS01.               13098498 :  Virtual Str1 SN 
 VS02.                90569596:  Virtual Str2 SN 
 VS03.                90523599:  Virtual Str3 SN 
 VS04.                90573553:  Virtual Str4 SN 
 VS05.                90598598:  Virtual Str5 SN 
 VS06.                90577297:  Virtual Str6 SN 
 WBMN.klb                13.00:  WOB Min 
 WITN.         Alistair Sprott:  Customer Rep 
 WITN.           Rufat Babayev:  Customer Rep 2 
 WOBA.klb                15.00:  WOB Avg 
 WOBX.klb                20.00:  WOB Max 
 YP  .lhf2               39.00:  Yield Point 
~Curve Information Block
#MNEM.UNIT                 API CODE     Curve Description
#---------               -----------    ---------------------------
 TIME.HHMMSS            00 000 000 000:  GT Time & Date
 GTDEPTH.m              00 000 000 000:  GT Depth
 GTPQH.psia             00 000 000 000:  GT HR Quartz Pressure
 GTTQ.degC              00 000 000 000:  GT Quartz Temperature
 GTTN.NONE              00 000 000 000:  GT Test Number
 GTET.sec               00 000 000 000:  GT Elapsed Test Time
 GTTVD.m                00 000 000 000:  GT True Vertical Depth
#Other Information
#
#WARRANTY: Halliburton will use its best efforts to furnish customers with 
#accurate information and interpretations that are part of, and incident to, the services 
#provided.  However, Halliburton cannot and does not warrant the accuracy 
#or correctness of such information and interpretations.  Under no circumstances should any 
#such information or interpretation be relied upon as the sole basis for any drilling, 
#completion, production, or financial decision or any procedure involving any risk to the 
#safety of any drilling venture, drilling rig or its crew or any other third party.  The 
#Customer has full responsibility for all drilling, completion and production operation.  
#Halliburton makes no representations or warranties, either expressed or 
#implied, including, but not limited to, the implied warranties of merchantability or fitness 
#for a particular purpose, with respect to the services rendered.  In no event will 
#Halliburton be liable for failure to obtain any particular results or for 
#any damages, including, but not limited to, indirect, special or consequential damages, 
#resulting from the use of any information or interpretation provided by Halliburton.
#
~A           TIME           GTDEPTH  GTPQH  GTTQ  GTTN  GTET   GTTVD  
# ...
   10:10:11.280.08-Feb-2020 3159.51 4881.81 68.41 5.00 322.10 2654.38
   10:10:11.480.08-Feb-2020 3159.51 4881.81 68.41 5.00 322.30 2654.38
   10:10:11.680.08-Feb-2020 3159.51 4881.33 68.41 5.00 322.50 2654.38
   10:10:11.880.08-Feb-2020 3159.51 4881.46 68.41 5.00 322.70 2654.38
   10:10:12.080.08-Feb-2020 3159.51 4881.48 68.41 5.00 322.90 2654.38
   10:10:12.281.08-Feb-2020 3159.51 4881.41 68.41 5.00 323.10 2654.38
   10:10:12.481.08-Feb-2020 3159.51 4881.41 68.41 5.00 323.30 2654.38
   10:10:12.681.08-Feb-2020 3159.51 4881.45 68.41 5.00 323.50 2654.38
   10:10:12.881.08-Feb-2020 3159.51 4881.42 68.41 5.00 323.70 2654.38
   10:10:13.081.08-Feb-2020 3159.51 4881.41 68.41 5.00 323.90 2654.38
   10:10:13.281.08-Feb-2020 3159.51 4881.46 68.41 5.00 324.10 2654.38
   10:10:13.481.08-Feb-2020 3159.51 4881.46 68.41 5.00 324.30 2654.38
   10:10:13.681.08-Feb-2020 3159.51 4880.94 68.41 5.00 324.50 2654.38
   10:10:13.881.08-Feb-2020 3159.51 4881.06 68.41 5.00 324.70 2654.38
   10:10:14.081.08-Feb-2020 3159.51 4881.52 68.41 5.00 324.90 2654.38
   10:10:14.281.08-Feb-2020 3159.51 4881.53 68.41 5.00 325.10 2654.38
   10:10:14.481.08-Feb-2020 3159.51 4881.53 68.41 5.00 325.30 2654.38
   10:10:14.681.08-Feb-2020 3159.51 4881.45 68.41 5.00 325.50 2654.38
   10:10:14.881.08-Feb-2020 3159.51 4881.50 68.41 5.00 325.70 2654.38
   10:10:15.081.08-Feb-2020 3159.51 4881.41 68.41 5.00 325.90 2654.38
   10:10:15.281.08-Feb-2020 3159.51 4881.38 68.41 5.00 326.10 2654.38
   10:10:15.482.08-Feb-2020 3159.51 4881.38 68.41 5.00 326.30 2654.38
   10:10:15.682.08-Feb-2020 3159.51 4881.38 68.41 5.00 326.50 2654.38
   10:10:15.882.08-Feb-2020 3159.51 4881.41 68.41 5.00 326.70 2654.38
   10:10:16.082.08-Feb-2020 3159.51 4881.31 68.41 5.00 326.90 2654.38
   10:10:16.282.08-Feb-2020 3159.51 4881.47 68.41 5.00 327.10 2654.38
   10:10:16.482.08-Feb-2020 3159.51 4881.47 68.41 5.00 327.30 2654.38
   10:10:16.682.08-Feb-2020 3159.51 4881.75 68.41 5.00 327.50 2654.38
   10:10:16.882.08-Feb-2020 3159.51 4880.95 68.41 5.00 327.70 2654.38
   10:10:17.082.08-Feb-2020 3159.51 4881.26 68.41 5.00 327.90 2654.38
   10:10:17.282.08-Feb-2020 3159.51 4881.33 68.41 5.00 328.10 2654.38
   10:10:17.482.08-Feb-2020 3159.51 4881.33 68.41 5.00 328.30 2654.38
   10:10:17.682.08-Feb-2020 3159.51 4881.45 68.41 5.00 328.50 2654.38
   10:10:17.882.08-Feb-2020 3159.51 4881.27 68.41 5.00 328.70 2654.38
   10:10:18.082.08-Feb-2020 3159.51 4881.45 68.41 5.00 328.90 2654.38
   10:10:18.282.08-Feb-2020 3159.51 4881.59 68.41 5.00 329.10 2654.38
   10:10:18.482.08-Feb-2020 3159.51 4881.59 68.41 5.00 329.30 2654.38
   10:10:18.682.08-Feb-2020 3159.51 4881.38 68.41 5.00 329.50 2654.38
   10:10:18.883.08-Feb-2020 3159.51 4881.52 68.41 5.00 329.70 2654.38
   10:10:19.083.08-Feb-2020 3159.51 4881.49 68.41 5.00 329.90 2654.38
   10:10:19.283.08-Feb-2020 3159.51 4881.44 68.41 5.00 330.10 2654.38
   10:10:19.483.08-Feb-2020 3159.51 4881.44 68.41 5.00 330.30 2654.38
   10:10:19.683.08-Feb-2020 3159.51 4881.49 68.41 5.00 330.50 2654.38
   10:10:19.883.08-Feb-2020 3159.51 4881.38 68.41 5.00 330.70 2654.38
   10:10:20.083.08-Feb-2020 3159.51 4881.45 68.41 5.00 330.90 2654.38
   10:10:20.283.08-Feb-2020 3159.51 4881.47 68.41 5.00 331.10 2654.38
   10:10:20.483.08-Feb-2020 3159.51 4881.47 68.41 5.00 331.30 2654.38
   10:10:20.683.08-Feb-2020 3159.51 4881.48 68.40 5.00 331.50 2654.38
   10:10:20.883.08-Feb-2020 3159.51 4881.34 68.40 5.00 331.70 2654.38
   10:10:21.083.08-Feb-2020 3159.51 4881.45 68.40 5.00 331.90 2654.38
   10:10:21.283.08-Feb-2020 3159.51 4881.45 68.40 5.00 332.10 2654.38
   10:10:21.483.08-Feb-2020 3159.51 4881.45 68.40 5.00 332.30 2654.38
   10:10:21.683.08-Feb-2020 3159.51 4881.45 68.40 5.00 332.50 2654.38
   10:10:21.883.08-Feb-2020 3159.51 4881.47 68.40 5.00 332.70 2654.38
   10:10:22.084.08-Feb-2020 3159.51 4881.40 68.40 5.00 332.90 2654.38
   10:10:22.284.08-Feb-2020 3159.51 4881.43 68.40 5.00 333.10 2654.38
   10:10:22.484.08-Feb-2020 3159.51 4881.43 68.40 5.00 333.30 2654.38
   10:10:22.684.08-Feb-2020 3159.51 4881.20 68.40 5.00 333.50 2654.38
   10:10:22.884.08-Feb-2020 3159.51 4881.33 68.40 5.00 333.70 2654.38
   10:10:23.084.08-Feb-2020 3159.51 4882.01 68.40 5.00 333.90 2654.38
   10:10:23.284.08-Feb-2020 3159.51 4881.03 68.40 5.00 334.10 2654.38
   10:10:23.484.08-Feb-2020 3159.51 4881.03 68.40 5.00 334.30 2654.38
   10:10:23.684.08-Feb-2020 3159.51 4882.13 68.40 5.00 334.50 2654.38
   10:10:23.884.08-Feb-2020 3159.51 4881.10 68.40 5.00 334.70 2654.38
   10:10:24.084.08-Feb-2020 3159.51 4881.04 68.40 5.00 334.90 2654.38
   10:10:24.284.08-Feb-2020 3159.51 4881.67 68.40 5.00 335.10 2654.38
   10:10:24.484.08-Feb-2020 3159.51 4881.67 68.40 5.00 335.30 2654.38
   10:10:24.684.08-Feb-2020 3159.51 4881.28 68.40 5.00 335.50 2654.38
   10:10:24.884.08-Feb-2020 3159.51 4882.02 68.40 5.00 335.70 2654.38
   10:10:25.084.08-Feb-2020 3159.51 4880.99 68.40 5.00 335.90 2654.38
   10:10:25.285.08-Feb-2020 3159.51 4881.22 68.40 5.00 336.10 2654.38
   10:10:25.485.08-Feb-2020 3159.51 4881.22 68.40 5.00 336.30 2654.38
   10:10:25.685.08-Feb-2020 3159.51 4881.60 68.40 5.00 336.50 2654.38
   10:10:25.885.08-Feb-2020 3159.51 4881.43 68.40 5.00 336.70 2654.38
   10:10:26.085.08-Feb-2020 3159.51 4881.47 68.40 5.00 336.90 2654.38
   10:10:26.285.08-Feb-2020 3159.51 4881.50 68.40 5.00 337.10 2654.38
   10:10:26.485.08-Feb-2020 3159.51 4881.50 68.40 5.00 337.30 2654.38
   10:10:26.685.08-Feb-2020 3159.51 4881.45 68.40 5.00 337.50 2654.38
   10:10:26.885.08-Feb-2020 3159.51 4881.41 68.40 5.00 337.70 2654.38
   10:10:27.085.08-Feb-2020 3159.51 4881.47 68.40 5.00 337.91 2654.38
   10:10:27.285.08-Feb-2020 3159.51 4881.45 68.40 5.00 338.11 2654.38
   10:10:27.485.08-Feb-2020 3159.51 4881.45 68.40 5.00 338.31 2654.38
   10:10:27.685.08-Feb-2020 3159.51 4881.44 68.40 5.00 338.51 2654.38
   10:10:27.885.08-Feb-2020 3159.51 4881.44 68.40 5.00 338.71 2654.38
   10:10:28.085.08-Feb-2020 3159.51 4881.46 68.40 5.00 338.91 2654.38
   10:10:28.285.08-Feb-2020 3159.51 4881.45 68.40 5.00 339.11 2654.38
   10:10:28.486.08-Feb-2020 3159.51 4881.45 68.40 5.00 339.31 2654.38
   10:10:28.686.08-Feb-2020 3159.51 4881.47 68.40 5.00 339.51 2654.38
   10:10:28.886.08-Feb-2020 3159.51 4881.48 68.40 5.00 339.71 2654.38
   10:10:29.086.08-Feb-2020 3159.51 4881.41 68.40 5.00 339.91 2654.38
   10:10:29.286.08-Feb-2020 3159.51 4882.27 68.40 5.00 340.11 2654.38
   10:10:29.486.08-Feb-2020 3159.51 4882.27 68.40 5.00 340.31 2654.38
   10:10:29.686.08-Feb-2020 3159.51 4881.05 68.40 5.00 340.51 2654.38
   10:10:29.886.08-Feb-2020 3159.51 4882.08 68.40 5.00 340.71 2654.38
   10:10:30.086.08-Feb-2020 3159.51 4881.23 68.40 5.00 340.91 2654.38
   10:10:30.286.08-Feb-2020 3159.51 4881.07 68.40 5.00 341.11 2654.38
   10:10:30.486.08-Feb-2020 3159.51 4881.07 68.40 5.00 341.31 2654.38
   10:10:30.686.08-Feb-2020 3159.51 4881.65 68.40 5.00 341.51 2654.38
   10:10:30.886.08-Feb-2020 3159.51 4881.18 68.40 5.00 341.71 2654.38
   10:10:31.086.08-Feb-2020 3159.51 4882.22 68.40 5.00 341.91 2654.38
   10:10:31.286.08-Feb-2020 3159.51 4880.90 68.40 5.00 342.11 2654.38
   10:10:31.486.08-Feb-2020 3159.51 4880.90 68.40 5.00 342.31 2654.38
   10:10:31.687.08-Feb-2020 3159.51 4881.39 68.40 5.00 342.51 2654.38
   10:10:31.887.08-Feb-2020 3159.51 4881.91 68.40 5.00 342.71 2654.38
   10:10:32.087.08-Feb-2020 3159.51 4881.31 68.40 5.00 342.91 2654.38
   10:10:32.287.08-Feb-2020 3159.51 4881.30 68.40 5.00 343.11 2654.38
   10:10:32.487.08-Feb-2020 3159.51 4881.30 68.40 5.00 343.31 2654.38
   10:10:32.687.08-Feb-2020 3159.51 4881.50 68.40 5.00 343.51 2654.38
   10:10:32.887.08-Feb-2020 3159.51 4881.44 68.40 5.00 343.71 2654.38
   10:10:33.087.08-Feb-2020 3159.51 4881.51 68.40 5.00 343.91 2654.38
   10:10:33.287.08-Feb-2020 3159.51 4881.46 68.40 5.00 344.11 2654.38
   10:10:33.487.08-Feb-2020 3159.51 4881.46 68.40 5.00 344.31 2654.38
   10:10:33.687.08-Feb-2020 3159.51 4881.41 68.40 5.00 344.51 2654.38
   10:10:33.887.08-Feb-2020 3159.51 4881.48 68.40 5.00 344.71 2654.38
   10:10:34.087.08-Feb-2020 3159.51 4882.15 68.40 5.00 344.91 2654.38
