~Version Information
 VERS.                  2.0:   CWLS log ASCII Standard -VERSION 2.0
 WRAP.                   NO:   One line per depth step
~Well Information Block
#MNEM.UNIT     VALUE/NAME     DESCRIPTION
#---------     -----------    ---------------------------
 STRT.S             11:02:51 08-Feb-20: START TIME 11:02:51 08-Feb-20
 STOP.S             11:09:43 08-Feb-20: STOP TIME  11:09:43 08-Feb-20
 STEP.S                   0.00: STEP TIME
 NULL.                 -999.25: NULL VALUE
 DFWT.                        :  DIST FWL TEXT
 DFST.                        :  DIST FSL TEXT
 DMF .             Drill Floor:  DRILL MEAS FROM
 STIM.      07.00.00 09-Jan-20:  START TIME
 DATE.      14.04.48 07-Feb-20:  END TIME
 SPUD.               09-Jan-20:  SPUD DATE
 NREF.                    Grid:  NORTH REFERENCE
 HPTY.       Minimum Curvature:  HOLE POS TYPE
 DMOD.             Drill Model:  DRILL MOD DESC
 SVYD.                  Survey:  SURVEY DESC
 ILTD.               Lithology:  INTERP LTH DESC
 FTOP.          Formation Tops:  FORM TOPS DESC
 SON .        AZ-XX-0905059384:  JOB NUMBER
 MDS .        Operator Entered:  MAG DATA SOURCE
 WTYP.                Deviated:  WELL TYPE
 COMP.     BP Exploration (Caspian Sea) Ltd.:  COMPANY
 UWI .                     N/A:  UNIQUE WELL IDENTIFIER
 API .                     N/A:  API NUMBER
 BASE.              Azerbaijan:  LOGGING EQUIPMENT BASE LOCATION
 REGN.                   EESSA:  REGION
 PROV.                    Baku:  PROVINCE
 STAT.                    Baku:  STATE NAME
 CTRY.              Azerbaijan:  COUNTRY NAME
 FLD .                     ACG:  FIELD NAME
 SRVC.     TURAN Drilling & Engineering:  CONTRACTOR
 MWDS.                    Baku:  MWD SHOP
 WELL.                     J22:  WELL NAME
 RIG .             West Chirag:  RIG NAME
 DOE .                     N/A:  DOE NUMBER
 DCON.         Sperry Drilling:  DIRECTNL CONTR
 UNIT.                     N/A:  LOGGING EQUIPMENT ID
 PDAT.          Mean Sea Level:  PERMANENT DATUM
 JOBN.        AZ-XX-0905059384:  JOB TICKET NUMB
 CNTY.                        :  COUNTY
 LOC .                        :  LOCATION
 LMF .             Drill Floor:  LOG MEASURED FROM
 TVDS.m                  43.00:  TVDSS CORRECTN
 LATI.deg                40.13:  LATITUDE
 LONG.deg                51.22:  LONGITUDE
 WHNS.m                  10.28:  WELL HEAD N/S
 WHEW.m                  -6.24:  WELL HEAD E/W
 UTMX.m              519005.06:  UTM X
 UTMY.m             4443793.85:  UTM Y
 DFWL.m                   0.00:  DISTANCE FWL
 DFSL.m                   0.00:  DISTANCE FSL
 SDEP.m                 362.00:  START DEPTH
 TDD .m                 904.00:  TOTAL DEPTH (DRILLER)
 VSDR.deg               148.53:  VERT SEC DIRECT
 GVFD.g                   1.00:  GRAVITY FIELD
 MFLD.nT              50277.00:  MAGNETIC FIELD
 MDIP.deg                59.56:  MAGNETIC DIP
 MDEC.deg                 6.42:  MAGNETIC DECL
 GRDC.deg                 0.15:  GRID CORRECTION
 AZTC.deg                 6.27:  AZM TOTAL CORR
 EPD .m                   0.00:  ELEVATION
 EGL .m                   0.00:  GROUND ELEVATION
 WDMS.m                 169.80:  WD ELEV
 APD .m                  43.00:  DEPTH ABOVE PD
 AGAP.m                  43.00:  AIR GAP
 VSEW.m                  -6.24:  VERT SEC E/W
 VSNS.m                  10.28:  VERT SEC N/S
 DEP .m                   0.00:  DEPTH
 EKB .m                   0.00:  KB ELEVATION
 EDF .m                  43.00:  DF ELEVATION
 TDL .m                1183.00:  TOTAL DEPTH (LOGGER)
 VSC .                       0:  VS TO CLOSURE
 MAGU.                 1850021:  MAGUTM CHECKSUM
~Parameter Information Block
#MNEM.UNIT       Value        Description
#---------     -----------    ---------------------------
 AV  .mps                 4.00:  Ann Velocity 
 AVMX.mps                 4.50:  Max Ann Veloc 
 AZIF.deg               145.38:  Azm, Final 
 BHAT.        Rotary Steerable:  BHA Type 
 BROT.°/30m               3.00:  Build Rotating 
 BS  .in                 12.25:  Bit Size 
 BSZ .in                 12.25:  Bit Size 
 BTPL.psig              650.00:  Bit Press Loss 
 CABU.                      No:  Customer Abuse 
 COMM.                     Ä%€:  Run Comments 1 
 TCS .hr                101.62:  Time Ciculation Ended 
 CV  .mps                 5.00:  Crit Velocity 
 CVMX.mps                 5.00:  Max Crit Veloc 
 DD1 .             Aziz Aliyev:  Direct Drillr 1 
 DD2 .      Fakhraddin Guliyev:  Direct Drillr 2 
 DDSV.                 iCruise:  DD Service 
 DEFF.%                  97.00:  % Det Eff 
 DLRX.°/30m               4.16:  Dogleg Rot Max 
 DLSO.°/30m               3.20:  Dogleg Oriented 
 DLSX.°/30m               4.10:  Dogleg Str Max 
 DRET.      23.12.00 07-Feb-20:  Drill End Time 
 DRST.      11.30.00 04-Feb-20:  Drill Start Tim 
 DTIM.hr                 61.06:  Time Drilling 
 EDEP.m                3219.01:  End Depth 
 ENG1.         Almaz Almadatov:  Engineer 1 
 ENG2.         Dair Mahammadov:  Engineer 2 
 ENG3.          Nazrin Asgarli:  Engineer 3 
 ETIM.      02.30.00 11-Feb-20:  End Time 
 FLOI.gpm              1100.00:  Flow In 
 FLON.gpm               900.00:  Flow In Min 
 FLOS.cptm               55.00:  Fluid Loss 
 FLOX.gpm              1150.00:  Flow In Max 
 FTRO.       Formation Presure:  FTWD Run Obj 
 HFLO.                      No:  High Flow 
 HPRE.                      No:  High Pressure 
 HTEM.                      No:  High Temp 
 HYDO.m                   1.80:  Hydro Offset 
 IFIN.deg                75.11:  Inc, Final 
 IMAX.deg                75.11:  Inc Max 
 IMIN.deg                33.55:  Inc Min 
 IMND.m                2186.05:  Inc Min Depth 
 IMXD.m                3205.61:  Inc Max Depth 
 JARR.                      No:  Jarring 
 LETM.      23.12.00 07-Feb-20:  Log End Time 
 LOST.hr                     0:  Lost Rig Time 
 LSTM.      11.30.00 04-Feb-20:  Log Start Time 
 MDCL.ppm             40000.00:  Mud Chlorides 
 MDES.     Inversion Oil/Synthetic:  Mud Desc 
 DFD .sg                  1.49:  Mud Density 
 MDMN.sg                  1.49:  Dens Mud Min 
 MDMX.sg                  1.49:  Dens Mud Max 
 MOIL.                      73:  Run Mud Oil % 
 MOWR.                   73:27:  Run Mud OWR 
 MSND.                     0.1:  Run Mud Sand % 
 MSOL.                    20.1:  Run Mud Solids% 
 DFV .spqt               78.00:  Mud Viscosity 
 MWOD.in                  8.00:  MWD Tool OD 
 MWSI.                      No:  Serv Intrp, MWD 
 OTIM.hr                177.15:  Time Operating 
 PCON.          Wear / Scratch:  Pad Condition 
 PMAX.psia            10493.93:  Press Op, Max 
 PV  .cP                 73.00:  Mud PV 
 RUN .                     700:  Run Number 
 ROPA.m/hr               15.00:  ROP Avg 
 ROPN.m/hr               10.00:  ROP Min 
 ROPX.m/hr               35.00:  ROP Max 
 RPMA.rpm               130.00:  RPM Surface Avg 
 RPMN.rpm                80.00:  RPM Surface Min 
 RPMX.rpm               150.00:  RPM Surface Max 
 RRUN.                    L402:  Rig Run Number 
 RTIM.hr                 80.50:  Time Reaming 
 SAZI.deg               155.55:  Azm, Start 
 SDEP.m                2036.00:  Start Depth 
 SIDD.                      No:  Serv Intrp, DD 
 SINC.deg                35.44:  Inc, Start 
 SPPA.psig             4270.00:  SPP Avg 
 SPPN.psig             2800.00:  SPP Min 
 SPPX.psig             4850.00:  SPP Max 
 STIM.      09.30.00 03-Feb-20:  Start Time 
 SVCS.                 DD, MWD:  Services 
 SVER.                    9.20:  Sperry Version 
 TDAT.m                1183.00:  Tot Depth Attmp 
 TDDF.                      No:  Trip for DD 
 TDLG.m                1183.00:  Tot Depth Loggd 
 TFF .                      No:  Trip for Fail 
 TQAA.f-kp               16.00:  Torque Abs Avg 
 TQAN.f-kp               10.00:  Torque Abs Min 
 TQAX.f-kp               20.00:  Torque Abs Max 
 TRRT.°/30m               1.00:  Turn Rotating 
 MRT .                  EWR-M5:  Maximum Recorded Temperature 
 TTMX.degC               80.39:  Max Tool Temp 
 VS01.               13098498 :  Virtual Str1 SN 
 VS02.                90569596:  Virtual Str2 SN 
 VS03.                90523599:  Virtual Str3 SN 
 VS04.                90573553:  Virtual Str4 SN 
 VS05.                90598598:  Virtual Str5 SN 
 VS06.                90577297:  Virtual Str6 SN 
 WBMN.klb                13.00:  WOB Min 
 WITN.         Alistair Sprott:  Customer Rep 
 WITN.           Rufat Babayev:  Customer Rep 2 
 WOBA.klb                15.00:  WOB Avg 
 WOBX.klb                20.00:  WOB Max 
 YP  .lhf2               39.00:  Yield Point 
~Curve Information Block
#MNEM.UNIT                 API CODE     Curve Description
#---------               -----------    ---------------------------
 TIME.HHMMSS            00 000 000 000:  GT Time & Date
 GTDEPTH.m              00 000 000 000:  GT Depth
 GTPQH.psia             00 000 000 000:  GT HR Quartz Pressure
 GTTQ.degC              00 000 000 000:  GT Quartz Temperature
 GTTN.NONE              00 000 000 000:  GT Test Number
 GTET.sec               00 000 000 000:  GT Elapsed Test Time
 GTTVD.m                00 000 000 000:  GT True Vertical Depth
#Other Information
#
#WARRANTY: Halliburton will use its best efforts to furnish customers with 
#accurate information and interpretations that are part of, and incident to, the services 
#provided.  However, Halliburton cannot and does not warrant the accuracy 
#or correctness of such information and interpretations.  Under no circumstances should any 
#such information or interpretation be relied upon as the sole basis for any drilling, 
#completion, production, or financial decision or any procedure involving any risk to the 
#safety of any drilling venture, drilling rig or its crew or any other third party.  The 
#Customer has full responsibility for all drilling, completion and production operation.  
#Halliburton makes no representations or warranties, either expressed or 
#implied, including, but not limited to, the implied warranties of merchantability or fitness 
#for a particular purpose, with respect to the services rendered.  In no event will 
#Halliburton be liable for failure to obtain any particular results or for 
#any damages, including, but not limited to, indirect, special or consequential damages, 
#resulting from the use of any information or interpretation provided by Halliburton.
#
~A           TIME           GTDEPTH  GTPQH  GTTQ  GTTN  GTET   GTTVD  
   11:02:51.441.08-Feb-2020 3115.78 5780.72 67.43 6.00   0.00 2642.62
   11:02:51.641.08-Feb-2020 3115.78 5780.72 67.43 6.00   0.20 2642.62
   11:02:51.842.08-Feb-2020 3115.78 5781.78 67.43 6.00   0.40 2642.62
   11:02:52.042.08-Feb-2020 3115.78 5780.41 67.43 6.00   0.60 2642.62
   11:02:52.242.08-Feb-2020 3115.78 5781.30 67.43 6.00   0.80 2642.62
   11:02:52.442.08-Feb-2020 3115.78 5781.20 67.43 6.00   1.00 2642.62
   11:02:52.642.08-Feb-2020 3115.78 5781.20 67.43 6.00   1.20 2642.62
   11:02:52.842.08-Feb-2020 3115.78 5783.53 67.43 6.00   1.40 2642.62
   11:02:53.042.08-Feb-2020 3115.78 5787.11 67.43 6.00   1.60 2642.62
   11:02:53.242.08-Feb-2020 3115.78 5786.81 67.43 6.00   1.80 2642.62
   11:02:53.442.08-Feb-2020 3115.78 5784.01 67.43 6.00   2.00 2642.62
   11:02:53.642.08-Feb-2020 3115.78 5784.01 67.43 6.00   2.20 2642.62
   11:02:53.843.08-Feb-2020 3115.78 5785.65 67.43 6.00   2.40 2642.62
   11:02:54.043.08-Feb-2020 3115.78 5786.30 67.43 6.00   2.60 2642.62
   11:02:54.243.08-Feb-2020 3115.78 5786.93 67.43 6.00   2.80 2642.62
   11:02:54.443.08-Feb-2020 3115.78 5788.70 67.43 6.00   3.00 2642.62
   11:02:54.643.08-Feb-2020 3115.78 5788.70 67.43 6.00   3.20 2642.62
   11:02:54.843.08-Feb-2020 3115.78 5788.76 67.43 6.00   3.40 2642.62
   11:02:55.043.08-Feb-2020 3115.78 5785.95 67.43 6.00   3.60 2642.62
   11:02:55.243.08-Feb-2020 3115.78 5784.93 67.43 6.00   3.80 2642.62
   11:02:55.443.08-Feb-2020 3115.78 5783.94 67.43 6.00   4.00 2642.62
   11:02:55.644.08-Feb-2020 3115.78 5783.94 67.43 6.00   4.20 2642.62
   11:02:55.844.08-Feb-2020 3115.78 5785.72 67.43 6.00   4.40 2642.62
   11:02:56.044.08-Feb-2020 3115.78 5783.21 67.43 6.00   4.60 2642.62
   11:02:56.244.08-Feb-2020 3115.78 5779.74 67.43 6.00   4.80 2642.62
   11:02:56.444.08-Feb-2020 3115.78 5778.51 67.43 6.00   5.00 2642.62
   11:02:56.644.08-Feb-2020 3115.78 5778.51 67.43 6.00   5.20 2642.62
   11:02:56.844.08-Feb-2020 3115.78 5776.56 67.42 6.00   5.40 2642.62
   11:02:57.044.08-Feb-2020 3115.78 5781.35 67.42 6.00   5.60 2642.62
   11:02:57.244.08-Feb-2020 3115.78 5778.83 67.42 6.00   5.80 2642.62
   11:02:57.444.08-Feb-2020 3115.78 5776.28 67.42 6.00   6.00 2642.62
   11:02:57.645.08-Feb-2020 3115.78 5776.28 67.42 6.00   6.20 2642.62
   11:02:57.845.08-Feb-2020 3115.78 5776.33 67.42 6.00   6.40 2642.62
   11:02:58.045.08-Feb-2020 3115.78 5776.22 67.42 6.00   6.60 2642.62
   11:02:58.245.08-Feb-2020 3115.78 5775.75 67.42 6.00   6.80 2642.62
   11:02:58.445.08-Feb-2020 3115.78 5776.22 67.42 6.00   7.00 2642.62
   11:02:58.645.08-Feb-2020 3115.78 5776.22 67.42 6.00   7.20 2642.62
   11:02:58.845.08-Feb-2020 3115.78 5776.62 67.42 6.00   7.40 2642.62
   11:02:59.045.08-Feb-2020 3115.78 5776.64 67.42 6.00   7.60 2642.62
   11:02:59.245.08-Feb-2020 3115.78 5782.36 67.42 6.00   7.80 2642.62
   11:02:59.446.08-Feb-2020 3115.78 5776.46 67.42 6.00   8.00 2642.62
   11:02:59.646.08-Feb-2020 3115.78 5776.46 67.42 6.00   8.20 2642.62
   11:02:59.846.08-Feb-2020 3115.78 5774.62 67.42 6.00   8.40 2642.62
   11:03:00.046.08-Feb-2020 3115.78 5773.86 67.42 6.00   8.60 2642.62
   11:03:00.246.08-Feb-2020 3115.78 5773.77 67.42 6.00   8.80 2642.62
   11:03:00.446.08-Feb-2020 3115.78 5772.59 67.42 6.00   9.00 2642.62
   11:03:00.646.08-Feb-2020 3115.78 5772.59 67.42 6.00   9.20 2642.62
   11:03:00.846.08-Feb-2020 3115.78 5772.29 67.42 6.00   9.40 2642.62
   11:03:01.046.08-Feb-2020 3115.78 5771.75 67.42 6.00   9.61 2642.62
   11:03:01.246.08-Feb-2020 3115.78 5771.39 67.42 6.00   9.81 2642.62
   11:03:01.447.08-Feb-2020 3115.78 5774.42 67.42 6.00  10.01 2642.62
   11:03:01.647.08-Feb-2020 3115.78 5774.42 67.42 6.00  10.21 2642.62
   11:03:01.847.08-Feb-2020 3115.78 5770.00 67.41 6.00  10.41 2642.62
   11:03:02.047.08-Feb-2020 3115.78 5770.65 67.41 6.00  10.61 2642.62
   11:03:02.247.08-Feb-2020 3115.78 5777.64 67.41 6.00  10.81 2642.62
   11:03:02.447.08-Feb-2020 3115.78 5771.61 67.41 6.00  11.01 2642.62
   11:03:02.647.08-Feb-2020 3115.78 5771.61 67.41 6.00  11.21 2642.62
   11:03:02.847.08-Feb-2020 3115.78 5770.23 67.41 6.00  11.41 2642.62
   11:03:03.047.08-Feb-2020 3115.78 5777.31 67.41 6.00  11.61 2642.62
   11:03:03.248.08-Feb-2020 3115.78 5771.10 67.41 6.00  11.81 2642.62
   11:03:03.448.08-Feb-2020 3115.78 5773.27 67.41 6.00  12.01 2642.62
   11:03:03.648.08-Feb-2020 3115.78 5773.27 67.41 6.00  12.21 2642.62
   11:03:03.848.08-Feb-2020 3115.78 5777.60 67.41 6.00  12.41 2642.62
   11:03:04.048.08-Feb-2020 3115.78 5774.77 67.41 6.00  12.61 2642.62
   11:03:04.248.08-Feb-2020 3115.78 5773.36 67.41 6.00  12.81 2642.62
   11:03:04.448.08-Feb-2020 3115.78 5776.78 67.41 6.00  13.01 2642.62
   11:03:04.648.08-Feb-2020 3115.78 5776.78 67.41 6.00  13.21 2642.62
   11:03:04.848.08-Feb-2020 3115.78 5774.96 67.41 6.00  13.41 2642.62
   11:03:05.048.08-Feb-2020 3115.78 5775.14 67.41 6.00  13.61 2642.62
   11:03:05.249.08-Feb-2020 3115.78 5775.57 67.41 6.00  13.81 2642.62
   11:03:05.449.08-Feb-2020 3115.78 5778.92 67.41 6.00  14.01 2642.62
   11:03:05.649.08-Feb-2020 3115.78 5778.92 67.41 6.00  14.21 2642.62
   11:03:05.849.08-Feb-2020 3115.78 5775.88 67.41 6.00  14.41 2642.62
   11:03:06.049.08-Feb-2020 3115.78 5774.45 67.41 6.00  14.61 2642.62
   11:03:06.249.08-Feb-2020 3115.78 5774.42 67.41 6.00  14.81 2642.62
   11:03:06.449.08-Feb-2020 3115.78 5773.79 67.41 6.00  15.01 2642.62
   11:03:06.649.08-Feb-2020 3115.78 5773.79 67.41 6.00  15.21 2642.62
   11:03:06.849.08-Feb-2020 3115.78 5774.99 67.40 6.00  15.41 2642.62
   11:03:07.049.08-Feb-2020 3115.78 5775.92 67.40 6.00  15.61 2642.62
   11:03:07.250.08-Feb-2020 3115.78 5776.87 67.40 6.00  15.81 2642.62
   11:03:07.450.08-Feb-2020 3115.78 5777.41 67.40 6.00  16.01 2642.62
   11:03:07.650.08-Feb-2020 3115.78 5777.41 67.40 6.00  16.21 2642.62
   11:03:07.850.08-Feb-2020 3115.78 5777.41 67.40 6.00  16.41 2642.62
   11:03:08.050.08-Feb-2020 3115.78 5778.42 67.40 6.00  16.61 2642.62
   11:03:08.250.08-Feb-2020 3115.78 5778.06 67.40 6.00  16.81 2642.62
   11:03:08.450.08-Feb-2020 3115.78 5778.50 67.40 6.00  17.01 2642.62
   11:03:08.650.08-Feb-2020 3115.78 5778.50 67.40 6.00  17.21 2642.62
   11:03:08.850.08-Feb-2020 3115.78 5778.03 67.40 6.00  17.41 2642.62
   11:03:09.051.08-Feb-2020 3115.78 5777.81 67.40 6.00  17.61 2642.62
   11:03:09.251.08-Feb-2020 3115.78 5777.69 67.40 6.00  17.81 2642.62
   11:03:09.451.08-Feb-2020 3115.78 5777.72 67.40 6.00  18.01 2642.62
   11:03:09.651.08-Feb-2020 3115.78 5777.72 67.40 6.00  18.21 2642.62
   11:03:09.851.08-Feb-2020 3115.78 5781.06 67.40 6.00  18.41 2642.62
   11:03:10.051.08-Feb-2020 3115.78 5780.48 67.40 6.00  18.61 2642.62
   11:03:10.251.08-Feb-2020 3115.78 5779.33 67.40 6.00  18.81 2642.62
   11:03:10.451.08-Feb-2020 3115.78 5781.20 67.40 6.00  19.01 2642.62
   11:03:10.651.08-Feb-2020 3115.78 5781.20 67.40 6.00  19.21 2642.62
   11:03:10.851.08-Feb-2020 3115.78 5777.77 67.40 6.00  19.41 2642.62
   11:03:11.052.08-Feb-2020 3115.78 5777.62 67.40 6.00  19.61 2642.62
   11:03:11.252.08-Feb-2020 3115.78 5780.77 67.40 6.00  19.81 2642.62
   11:03:11.452.08-Feb-2020 3115.78 5779.45 67.40 6.00  20.01 2642.62
   11:03:11.652.08-Feb-2020 3115.78 5779.45 67.40 6.00  20.21 2642.62
   11:03:11.852.08-Feb-2020 3115.78 5779.81 67.39 6.00  20.41 2642.62
   11:03:12.052.08-Feb-2020 3115.78 5780.18 67.39 6.00  20.61 2642.62
   11:03:12.252.08-Feb-2020 3115.78 5779.39 67.39 6.00  20.81 2642.62
   11:03:12.452.08-Feb-2020 3115.78 5776.98 67.39 6.00  21.01 2642.62
   11:03:12.652.08-Feb-2020 3115.78 5776.98 67.39 6.00  21.21 2642.62
   11:03:12.853.08-Feb-2020 3115.78 5777.09 67.39 6.00  21.41 2642.62
   11:03:13.053.08-Feb-2020 3115.78 5778.19 67.39 6.00  21.61 2642.62
   11:03:13.253.08-Feb-2020 3115.78 5778.19 67.39 6.00  21.81 2642.62
   11:03:13.453.08-Feb-2020 3115.78 5778.20 67.39 6.00  22.01 2642.62
   11:03:13.653.08-Feb-2020 3115.78 5778.20 67.39 6.00  22.21 2642.62
   11:03:13.853.08-Feb-2020 3115.78 5778.73 67.39 6.00  22.41 2642.62
   11:03:14.053.08-Feb-2020 3115.78 5778.53 67.39 6.00  22.61 2642.62
   11:03:14.253.08-Feb-2020 3115.78 5777.97 67.39 6.00  22.81 2642.62
