~Version Information
 VERS.                  2.0:   CWLS log ASCII Standard -VERSION 2.0
 WRAP.                   NO:   One line per depth step
~Well Information Block
#MNEM.UNIT     VALUE/NAME     DESCRIPTION
#---------     -----------    ---------------------------
 STRT.S             10:04:49 08-Feb-20: START TIME 10:04:49 08-Feb-20
 STOP.S             10:11:45 08-Feb-20: STOP TIME  10:11:45 08-Feb-20
 STEP.S                   0.00: STEP TIME
 NULL.                 -999.25: NULL VALUE
 DFWT.                        :  DIST FWL TEXT
 DFST.                        :  DIST FSL TEXT
 DMF .             Drill Floor:  DRILL MEAS FROM
 STIM.      07.00.00 09-Jan-20:  START TIME
 DATE.      14.04.48 07-Feb-20:  END TIME
 SPUD.               09-Jan-20:  SPUD DATE
 NREF.                    Grid:  NORTH REFERENCE
 HPTY.       Minimum Curvature:  HOLE POS TYPE
 DMOD.             Drill Model:  DRILL MOD DESC
 SVYD.                  Survey:  SURVEY DESC
 ILTD.               Lithology:  INTERP LTH DESC
 FTOP.          Formation Tops:  FORM TOPS DESC
 SON .        AZ-XX-0905059384:  JOB NUMBER
 MDS .        Operator Entered:  MAG DATA SOURCE
 WTYP.                Deviated:  WELL TYPE
 COMP.     BP Exploration (Caspian Sea) Ltd.:  COMPANY
 UWI .                     N/A:  UNIQUE WELL IDENTIFIER
 API .                     N/A:  API NUMBER
 BASE.              Azerbaijan:  LOGGING EQUIPMENT BASE LOCATION
 REGN.                   EESSA:  REGION
 PROV.                    Baku:  PROVINCE
 STAT.                    Baku:  STATE NAME
 CTRY.              Azerbaijan:  COUNTRY NAME
 FLD .                     ACG:  FIELD NAME
 SRVC.     TURAN Drilling & Engineering:  CONTRACTOR
 MWDS.                    Baku:  MWD SHOP
 WELL.                     J22:  WELL NAME
 RIG .             West Chirag:  RIG NAME
 DOE .                     N/A:  DOE NUMBER
 DCON.         Sperry Drilling:  DIRECTNL CONTR
 UNIT.                     N/A:  LOGGING EQUIPMENT ID
 PDAT.          Mean Sea Level:  PERMANENT DATUM
 JOBN.        AZ-XX-0905059384:  JOB TICKET NUMB
 CNTY.                        :  COUNTY
 LOC .                        :  LOCATION
 LMF .             Drill Floor:  LOG MEASURED FROM
 TVDS.m                  43.00:  TVDSS CORRECTN
 LATI.deg                40.13:  LATITUDE
 LONG.deg                51.22:  LONGITUDE
 WHNS.m                  10.28:  WELL HEAD N/S
 WHEW.m                  -6.24:  WELL HEAD E/W
 UTMX.m              519005.06:  UTM X
 UTMY.m             4443793.85:  UTM Y
 DFWL.m                   0.00:  DISTANCE FWL
 DFSL.m                   0.00:  DISTANCE FSL
 SDEP.m                 362.00:  START DEPTH
 TDD .m                 904.00:  TOTAL DEPTH (DRILLER)
 VSDR.deg               148.53:  VERT SEC DIRECT
 GVFD.g                   1.00:  GRAVITY FIELD
 MFLD.nT              50277.00:  MAGNETIC FIELD
 MDIP.deg                59.56:  MAGNETIC DIP
 MDEC.deg                 6.42:  MAGNETIC DECL
 GRDC.deg                 0.15:  GRID CORRECTION
 AZTC.deg                 6.27:  AZM TOTAL CORR
 EPD .m                   0.00:  ELEVATION
 EGL .m                   0.00:  GROUND ELEVATION
 WDMS.m                 169.80:  WD ELEV
 APD .m                  43.00:  DEPTH ABOVE PD
 AGAP.m                  43.00:  AIR GAP
 VSEW.m                  -6.24:  VERT SEC E/W
 VSNS.m                  10.28:  VERT SEC N/S
 DEP .m                   0.00:  DEPTH
 EKB .m                   0.00:  KB ELEVATION
 EDF .m                  43.00:  DF ELEVATION
 TDL .m                1183.00:  TOTAL DEPTH (LOGGER)
 VSC .                       0:  VS TO CLOSURE
 MAGU.                 1850021:  MAGUTM CHECKSUM
~Parameter Information Block
#MNEM.UNIT       Value        Description
#---------     -----------    ---------------------------
 AV  .mps                 4.00:  Ann Velocity 
 AVMX.mps                 4.50:  Max Ann Veloc 
 AZIF.deg               145.38:  Azm, Final 
 BHAT.        Rotary Steerable:  BHA Type 
 BROT.°/30m               3.00:  Build Rotating 
 BS  .in                 12.25:  Bit Size 
 BSZ .in                 12.25:  Bit Size 
 BTPL.psig              650.00:  Bit Press Loss 
 CABU.                      No:  Customer Abuse 
 COMM.                     |¶Q:  Run Comments 1 
 TCS .hr                101.62:  Time Ciculation Ended 
 CV  .mps                 5.00:  Crit Velocity 
 CVMX.mps                 5.00:  Max Crit Veloc 
 DD1 .             Aziz Aliyev:  Direct Drillr 1 
 DD2 .      Fakhraddin Guliyev:  Direct Drillr 2 
 DDSV.                 iCruise:  DD Service 
 DEFF.%                  97.00:  % Det Eff 
 DLRX.°/30m               4.16:  Dogleg Rot Max 
 DLSO.°/30m               3.20:  Dogleg Oriented 
 DLSX.°/30m               4.10:  Dogleg Str Max 
 DRET.      23.12.00 07-Feb-20:  Drill End Time 
 DRST.      11.30.00 04-Feb-20:  Drill Start Tim 
 DTIM.hr                 61.06:  Time Drilling 
 EDEP.m                3219.01:  End Depth 
 ENG1.         Almaz Almadatov:  Engineer 1 
 ENG2.         Dair Mahammadov:  Engineer 2 
 ENG3.          Nazrin Asgarli:  Engineer 3 
 ETIM.      02.30.00 11-Feb-20:  End Time 
 FLOI.gpm              1100.00:  Flow In 
 FLON.gpm               900.00:  Flow In Min 
 FLOS.cptm               55.00:  Fluid Loss 
 FLOX.gpm              1150.00:  Flow In Max 
 FTRO.       Formation Presure:  FTWD Run Obj 
 HFLO.                      No:  High Flow 
 HPRE.                      No:  High Pressure 
 HTEM.                      No:  High Temp 
 HYDO.m                   1.80:  Hydro Offset 
 IFIN.deg                75.11:  Inc, Final 
 IMAX.deg                75.11:  Inc Max 
 IMIN.deg                33.55:  Inc Min 
 IMND.m                2186.05:  Inc Min Depth 
 IMXD.m                3205.61:  Inc Max Depth 
 JARR.                      No:  Jarring 
 LETM.      23.12.00 07-Feb-20:  Log End Time 
 LOST.hr                     0:  Lost Rig Time 
 LSTM.      11.30.00 04-Feb-20:  Log Start Time 
 MDCL.ppm             40000.00:  Mud Chlorides 
 MDES.     Inversion Oil/Synthetic:  Mud Desc 
 DFD .sg                  1.49:  Mud Density 
 MDMN.sg                  1.49:  Dens Mud Min 
 MDMX.sg                  1.49:  Dens Mud Max 
 MOIL.                      73:  Run Mud Oil % 
 MOWR.                   73:27:  Run Mud OWR 
 MSND.                     0.1:  Run Mud Sand % 
 MSOL.                    20.1:  Run Mud Solids% 
 DFV .spqt               78.00:  Mud Viscosity 
 MWOD.in                  8.00:  MWD Tool OD 
 MWSI.                      No:  Serv Intrp, MWD 
 OTIM.hr                177.15:  Time Operating 
 PCON.          Wear / Scratch:  Pad Condition 
 PMAX.psia            10493.93:  Press Op, Max 
 PV  .cP                 73.00:  Mud PV 
 RUN .                     700:  Run Number 
 ROPA.m/hr               15.00:  ROP Avg 
 ROPN.m/hr               10.00:  ROP Min 
 ROPX.m/hr               35.00:  ROP Max 
 RPMA.rpm               130.00:  RPM Surface Avg 
 RPMN.rpm                80.00:  RPM Surface Min 
 RPMX.rpm               150.00:  RPM Surface Max 
 RRUN.                    L402:  Rig Run Number 
 RTIM.hr                 80.50:  Time Reaming 
 SAZI.deg               155.55:  Azm, Start 
 SDEP.m                2036.00:  Start Depth 
 SIDD.                      No:  Serv Intrp, DD 
 SINC.deg                35.44:  Inc, Start 
 SPPA.psig             4270.00:  SPP Avg 
 SPPN.psig             2800.00:  SPP Min 
 SPPX.psig             4850.00:  SPP Max 
 STIM.      09.30.00 03-Feb-20:  Start Time 
 SVCS.                 DD, MWD:  Services 
 SVER.                    9.20:  Sperry Version 
 TDAT.m                1183.00:  Tot Depth Attmp 
 TDDF.                      No:  Trip for DD 
 TDLG.m                1183.00:  Tot Depth Loggd 
 TFF .                      No:  Trip for Fail 
 TQAA.f-kp               16.00:  Torque Abs Avg 
 TQAN.f-kp               10.00:  Torque Abs Min 
 TQAX.f-kp               20.00:  Torque Abs Max 
 TRRT.°/30m               1.00:  Turn Rotating 
 MRT .                  EWR-M5:  Maximum Recorded Temperature 
 TTMX.degC               80.39:  Max Tool Temp 
 VS01.               13098498 :  Virtual Str1 SN 
 VS02.                90569596:  Virtual Str2 SN 
 VS03.                90523599:  Virtual Str3 SN 
 VS04.                90573553:  Virtual Str4 SN 
 VS05.                90598598:  Virtual Str5 SN 
 VS06.                90577297:  Virtual Str6 SN 
 WBMN.klb                13.00:  WOB Min 
 WITN.         Alistair Sprott:  Customer Rep 
 WITN.           Rufat Babayev:  Customer Rep 2 
 WOBA.klb                15.00:  WOB Avg 
 WOBX.klb                20.00:  WOB Max 
 YP  .lhf2               39.00:  Yield Point 
~Curve Information Block
#MNEM.UNIT                 API CODE     Curve Description
#---------               -----------    ---------------------------
 TIME.HHMMSS            00 000 000 000:  GT Time & Date
 GTDEPTH.m              00 000 000 000:  GT Depth
 GTPQH.psia             00 000 000 000:  GT HR Quartz Pressure
 GTTQ.degC              00 000 000 000:  GT Quartz Temperature
 GTTN.NONE              00 000 000 000:  GT Test Number
 GTET.sec               00 000 000 000:  GT Elapsed Test Time
 GTTVD.m                00 000 000 000:  GT True Vertical Depth
#Other Information
#
#WARRANTY: Halliburton will use its best efforts to furnish customers with 
#accurate information and interpretations that are part of, and incident to, the services 
#provided.  However, Halliburton cannot and does not warrant the accuracy 
#or correctness of such information and interpretations.  Under no circumstances should any 
#such information or interpretation be relied upon as the sole basis for any drilling, 
#completion, production, or financial decision or any procedure involving any risk to the 
#safety of any drilling venture, drilling rig or its crew or any other third party.  The 
#Customer has full responsibility for all drilling, completion and production operation.  
#Halliburton makes no representations or warranties, either expressed or 
#implied, including, but not limited to, the implied warranties of merchantability or fitness 
#for a particular purpose, with respect to the services rendered.  In no event will 
#Halliburton be liable for failure to obtain any particular results or for 
#any damages, including, but not limited to, indirect, special or consequential damages, 
#resulting from the use of any information or interpretation provided by Halliburton.
#
~A           TIME           GTDEPTH  GTPQH  GTTQ  GTTN  GTET   GTTVD  
# ...
   10:05:12.187.08-Feb-2020 3159.51 5782.21 68.54 5.00  23.01 2654.38
   10:05:12.387.08-Feb-2020 3159.51 5782.21 68.54 5.00  23.21 2654.38
   10:05:12.587.08-Feb-2020 3159.51 5784.60 68.54 5.00  23.41 2654.38
   10:05:12.787.08-Feb-2020 3159.51 5781.62 68.54 5.00  23.61 2654.38
   10:05:12.988.08-Feb-2020 3159.51 5787.33 68.54 5.00  23.81 2654.38
   10:05:13.188.08-Feb-2020 3159.51 5784.19 68.54 5.00  24.01 2654.38
   10:05:13.388.08-Feb-2020 3159.51 5784.19 68.54 5.00  24.21 2654.38
   10:05:13.588.08-Feb-2020 3159.51 5780.81 68.54 5.00  24.41 2654.38
   10:05:13.788.08-Feb-2020 3159.51 5784.99 68.54 5.00  24.61 2654.38
   10:05:13.988.08-Feb-2020 3159.51 5785.36 68.54 5.00  24.81 2654.38
   10:05:14.188.08-Feb-2020 3159.51 5781.17 68.54 5.00  25.01 2654.38
   10:05:14.388.08-Feb-2020 3159.51 5781.17 68.54 5.00  25.21 2654.38
   10:05:14.588.08-Feb-2020 3159.51 5785.79 68.54 5.00  25.41 2654.38
   10:05:14.788.08-Feb-2020 3159.51 5784.46 68.54 5.00  25.61 2654.38
   10:05:14.988.08-Feb-2020 3159.51 5780.90 68.54 5.00  25.81 2654.38
   10:05:15.188.08-Feb-2020 3159.51 5781.87 68.54 5.00  26.01 2654.38
   10:05:15.388.08-Feb-2020 3159.51 5781.87 68.54 5.00  26.21 2654.38
   10:05:15.588.08-Feb-2020 3159.51 5782.70 68.54 5.00  26.41 2654.38
   10:05:15.788.08-Feb-2020 3159.51 5781.74 68.54 5.00  26.61 2654.38
   10:05:15.988.08-Feb-2020 3159.51 5782.75 68.54 5.00  26.81 2654.38
   10:05:16.188.08-Feb-2020 3159.51 5782.50 68.54 5.00  27.01 2654.38
   10:05:16.389.08-Feb-2020 3159.51 5782.50 68.54 5.00  27.21 2654.38
   10:05:16.589.08-Feb-2020 3159.51 5782.88 68.54 5.00  27.41 2654.38
   10:05:16.789.08-Feb-2020 3159.51 5782.24 68.54 5.00  27.61 2654.38
   10:05:16.989.08-Feb-2020 3159.51 5781.40 68.54 5.00  27.81 2654.38
   10:05:17.189.08-Feb-2020 3159.51 5781.11 68.54 5.00  28.01 2654.38
   10:05:17.389.08-Feb-2020 3159.51 5781.11 68.54 5.00  28.21 2654.38
   10:05:17.589.08-Feb-2020 3159.51 5782.67 68.54 5.00  28.41 2654.38
   10:05:17.789.08-Feb-2020 3159.51 5784.62 68.54 5.00  28.61 2654.38
   10:05:17.989.08-Feb-2020 3159.51 5782.46 68.54 5.00  28.81 2654.38
   10:05:18.189.08-Feb-2020 3159.51 5782.26 68.54 5.00  29.01 2654.38
   10:05:18.389.08-Feb-2020 3159.51 5782.26 68.54 5.00  29.21 2654.38
   10:05:18.589.08-Feb-2020 3159.51 5783.04 68.54 5.00  29.41 2654.38
   10:05:18.789.08-Feb-2020 3159.51 5783.20 68.54 5.00  29.61 2654.38
   10:05:18.989.08-Feb-2020 3159.51 5782.69 68.54 5.00  29.81 2654.38
   10:05:19.189.08-Feb-2020 3159.51 5782.71 68.54 5.00  30.01 2654.38
   10:05:19.389.08-Feb-2020 3159.51 5782.71 68.54 5.00  30.21 2654.38
   10:05:19.590.08-Feb-2020 3159.51 5782.14 68.54 5.00  30.41 2654.38
   10:05:19.790.08-Feb-2020 3159.51 5787.13 68.54 5.00  30.61 2654.38
   10:05:19.990.08-Feb-2020 3159.51 5783.22 68.54 5.00  30.81 2654.38
   10:05:20.190.08-Feb-2020 3159.51 5781.54 68.54 5.00  31.01 2654.38
   10:05:20.390.08-Feb-2020 3159.51 5781.54 68.54 5.00  31.21 2654.38
   10:05:20.590.08-Feb-2020 3159.51 5783.27 68.54 5.00  31.41 2654.38
   10:05:20.790.08-Feb-2020 3159.51 5782.00 68.54 5.00  31.61 2654.38
   10:05:20.990.08-Feb-2020 3159.51 5781.50 68.54 5.00  31.81 2654.38
   10:05:21.190.08-Feb-2020 3159.51 5787.17 68.54 5.00  32.01 2654.38
   10:05:21.390.08-Feb-2020 3159.51 5787.17 68.54 5.00  32.21 2654.38
   10:05:21.590.08-Feb-2020 3159.51 5780.99 68.54 5.00  32.41 2654.38
   10:05:21.790.08-Feb-2020 3159.51 5781.33 68.54 5.00  32.61 2654.38
   10:05:21.990.08-Feb-2020 3159.51 5786.43 68.54 5.00  32.81 2654.38
   10:05:22.190.08-Feb-2020 3159.51 5784.12 68.54 5.00  33.01 2654.38
   10:05:22.390.08-Feb-2020 3159.51 5784.12 68.54 5.00  33.21 2654.38
   10:05:22.590.08-Feb-2020 3159.51 5782.13 68.54 5.00  33.41 2654.38
   10:05:22.791.08-Feb-2020 3159.51 5790.21 68.54 5.00  33.61 2654.38
   10:05:22.991.08-Feb-2020 3159.51 5782.14 68.54 5.00  33.81 2654.38
   10:05:23.191.08-Feb-2020 3159.51 5782.66 68.54 5.00  34.01 2654.38
   10:05:23.391.08-Feb-2020 3159.51 5782.66 68.54 5.00  34.21 2654.38
   10:05:23.591.08-Feb-2020 3159.51 5784.30 68.54 5.00  34.41 2654.38
   10:05:23.791.08-Feb-2020 3159.51 5783.05 68.54 5.00  34.61 2654.38
   10:05:23.991.08-Feb-2020 3159.51 5785.20 68.54 5.00  34.81 2654.38
   10:05:24.191.08-Feb-2020 3159.51 5784.39 68.54 5.00  35.01 2654.38
   10:05:24.391.08-Feb-2020 3159.51 5784.39 68.54 5.00  35.21 2654.38
   10:05:24.591.08-Feb-2020 3159.51 5783.51 68.54 5.00  35.41 2654.38
   10:05:24.791.08-Feb-2020 3159.51 5783.74 68.54 5.00  35.61 2654.38
   10:05:24.991.08-Feb-2020 3159.51 5789.32 68.54 5.00  35.81 2654.38
   10:05:25.191.08-Feb-2020 3159.51 5783.95 68.54 5.00  36.01 2654.38
   10:05:25.391.08-Feb-2020 3159.51 5783.95 68.54 5.00  36.21 2654.38
   10:05:25.591.08-Feb-2020 3159.51 5784.04 68.53 5.00  36.41 2654.38
   10:05:25.791.08-Feb-2020 3159.51 5785.11 68.54 5.00  36.61 2654.38
   10:05:25.992.08-Feb-2020 3159.51 5784.00 68.53 5.00  36.81 2654.38
   10:05:26.192.08-Feb-2020 3159.51 5784.48 68.53 5.00  37.01 2654.38
   10:05:26.392.08-Feb-2020 3159.51 5784.48 68.53 5.00  37.21 2654.38
   10:05:26.592.08-Feb-2020 3159.51 5783.55 68.53 5.00  37.41 2654.38
   10:05:26.792.08-Feb-2020 3159.51 5782.96 68.53 5.00  37.61 2654.38
   10:05:26.992.08-Feb-2020 3159.51 5782.22 68.53 5.00  37.81 2654.38
   10:05:27.192.08-Feb-2020 3159.51 5789.06 68.53 5.00  38.01 2654.38
   10:05:27.392.08-Feb-2020 3159.51 5789.06 68.53 5.00  38.21 2654.38
   10:05:27.592.08-Feb-2020 3159.51 5781.47 68.53 5.00  38.41 2654.38
   10:05:27.792.08-Feb-2020 3159.51 5782.09 68.53 5.00  38.61 2654.38
   10:05:27.992.08-Feb-2020 3159.51 5789.56 68.53 5.00  38.81 2654.38
   10:05:28.192.08-Feb-2020 3159.51 5783.66 68.53 5.00  39.01 2654.38
   10:05:28.392.08-Feb-2020 3159.51 5783.66 68.53 5.00  39.21 2654.38
   10:05:28.592.08-Feb-2020 3159.51 5781.53 68.53 5.00  39.41 2654.38
   10:05:28.792.08-Feb-2020 3159.51 5787.73 68.53 5.00  39.61 2654.38
   10:05:28.992.08-Feb-2020 3159.51 5783.45 68.53 5.00  39.81 2654.38
   10:05:29.193.08-Feb-2020 3159.51 5781.34 68.53 5.00  40.01 2654.38
   10:05:29.393.08-Feb-2020 3159.51 5781.34 68.53 5.00  40.21 2654.38
   10:05:29.593.08-Feb-2020 3159.51 5789.29 68.53 5.00  40.41 2654.38
   10:05:29.793.08-Feb-2020 3159.51 5782.12 68.53 5.00  40.61 2654.38
   10:05:29.993.08-Feb-2020 3159.51 5781.34 68.53 5.00  40.81 2654.38
   10:05:30.193.08-Feb-2020 3159.51 5789.10 68.53 5.00  41.01 2654.38
   10:05:30.393.08-Feb-2020 3159.51 5789.10 68.53 5.00  41.21 2654.38
   10:05:30.593.08-Feb-2020 3159.51 5781.27 68.53 5.00  41.41 2654.38
   10:05:30.793.08-Feb-2020 3159.51 5783.79 68.53 5.00  41.61 2654.38
   10:05:30.993.08-Feb-2020 3159.51 5784.39 68.53 5.00  41.81 2654.38
   10:05:31.193.08-Feb-2020 3159.51 5786.76 68.53 5.00  42.01 2654.38
   10:05:31.393.08-Feb-2020 3159.51 5786.76 68.53 5.00  42.21 2654.38
   10:05:31.593.08-Feb-2020 3159.51 5782.85 68.53 5.00  42.41 2654.38
   10:05:31.793.08-Feb-2020 3159.51 5782.72 68.53 5.00  42.61 2654.38
   10:05:31.993.08-Feb-2020 3159.51 5781.84 68.53 5.00  42.81 2654.38
   10:05:32.193.08-Feb-2020 3159.51 5780.87 68.53 5.00  43.01 2654.38
   10:05:32.394.08-Feb-2020 3159.51 5780.87 68.53 5.00  43.21 2654.38
   10:05:32.594.08-Feb-2020 3159.51 5781.57 68.53 5.00  43.41 2654.38
   10:05:32.794.08-Feb-2020 3159.51 5782.06 68.53 5.00  43.61 2654.38
   10:05:32.994.08-Feb-2020 3159.51 5782.37 68.53 5.00  43.81 2654.38
   10:05:33.194.08-Feb-2020 3159.51 5782.83 68.53 5.00  44.01 2654.38
   10:05:33.394.08-Feb-2020 3159.51 5782.83 68.53 5.00  44.21 2654.38
   10:05:33.594.08-Feb-2020 3159.51 5782.47 68.53 5.00  44.41 2654.38
   10:05:33.794.08-Feb-2020 3159.51 5781.83 68.53 5.00  44.61 2654.38
   10:05:33.994.08-Feb-2020 3159.51 5783.57 68.53 5.00  44.81 2654.38
   10:05:34.194.08-Feb-2020 3159.51 5783.74 68.53 5.00  45.01 2654.38
   10:05:34.394.08-Feb-2020 3159.51 5783.74 68.53 5.00  45.21 2654.38
   10:05:34.594.08-Feb-2020 3159.51 5782.47 68.53 5.00  45.41 2654.38
   10:05:34.794.08-Feb-2020 3159.51 5782.86 68.53 5.00  45.61 2654.38
   10:05:34.994.08-Feb-2020 3159.51 5782.01 68.53 5.00  45.81 2654.38
