~Version Information
 VERS.                  2.0:   CWLS log ASCII Standard -VERSION 2.0
 WRAP.                   NO:   One line per depth step
~Well Information Block
#MNEM.UNIT     VALUE/NAME     DESCRIPTION
#---------     -----------    ---------------------------
 STRT.S             10:04:49 08-Feb-20: START TIME 10:04:49 08-Feb-20
 STOP.S             10:11:45 08-Feb-20: STOP TIME  10:11:45 08-Feb-20
 STEP.S                   0.00: STEP TIME
 NULL.                 -999.25: NULL VALUE
 DFWT.                        :  DIST FWL TEXT
 DFST.                        :  DIST FSL TEXT
 DMF .             Drill Floor:  DRILL MEAS FROM
 STIM.      07.00.00 09-Jan-20:  START TIME
 DATE.      14.04.48 07-Feb-20:  END TIME
 SPUD.               09-Jan-20:  SPUD DATE
 NREF.                    Grid:  NORTH REFERENCE
 HPTY.       Minimum Curvature:  HOLE POS TYPE
 DMOD.             Drill Model:  DRILL MOD DESC
 SVYD.                  Survey:  SURVEY DESC
 ILTD.               Lithology:  INTERP LTH DESC
 FTOP.          Formation Tops:  FORM TOPS DESC
 SON .        AZ-XX-0905059384:  JOB NUMBER
 MDS .        Operator Entered:  MAG DATA SOURCE
 WTYP.                Deviated:  WELL TYPE
 COMP.     BP Exploration (Caspian Sea) Ltd.:  COMPANY
 UWI .                     N/A:  UNIQUE WELL IDENTIFIER
 API .                     N/A:  API NUMBER
 BASE.              Azerbaijan:  LOGGING EQUIPMENT BASE LOCATION
 REGN.                   EESSA:  REGION
 PROV.                    Baku:  PROVINCE
 STAT.                    Baku:  STATE NAME
 CTRY.              Azerbaijan:  COUNTRY NAME
 FLD .                     ACG:  FIELD NAME
 SRVC.     TURAN Drilling & Engineering:  CONTRACTOR
 MWDS.                    Baku:  MWD SHOP
 WELL.                     J22:  WELL NAME
 RIG .             West Chirag:  RIG NAME
 DOE .                     N/A:  DOE NUMBER
 DCON.         Sperry Drilling:  DIRECTNL CONTR
 UNIT.                     N/A:  LOGGING EQUIPMENT ID
 PDAT.          Mean Sea Level:  PERMANENT DATUM
 JOBN.        AZ-XX-0905059384:  JOB TICKET NUMB
 CNTY.                        :  COUNTY
 LOC .                        :  LOCATION
 LMF .             Drill Floor:  LOG MEASURED FROM
 TVDS.m                  43.00:  TVDSS CORRECTN
 LATI.deg                40.13:  LATITUDE
 LONG.deg                51.22:  LONGITUDE
 WHNS.m                  10.28:  WELL HEAD N/S
 WHEW.m                  -6.24:  WELL HEAD E/W
 UTMX.m              519005.06:  UTM X
 UTMY.m             4443793.85:  UTM Y
 DFWL.m                   0.00:  DISTANCE FWL
 DFSL.m                   0.00:  DISTANCE FSL
 SDEP.m                 362.00:  START DEPTH
 TDD .m                 904.00:  TOTAL DEPTH (DRILLER)
 VSDR.deg               148.53:  VERT SEC DIRECT
 GVFD.g                   1.00:  GRAVITY FIELD
 MFLD.nT              50277.00:  MAGNETIC FIELD
 MDIP.deg                59.56:  MAGNETIC DIP
 MDEC.deg                 6.42:  MAGNETIC DECL
 GRDC.deg                 0.15:  GRID CORRECTION
 AZTC.deg                 6.27:  AZM TOTAL CORR
 EPD .m                   0.00:  ELEVATION
 EGL .m                   0.00:  GROUND ELEVATION
 WDMS.m                 169.80:  WD ELEV
 APD .m                  43.00:  DEPTH ABOVE PD
 AGAP.m                  43.00:  AIR GAP
 VSEW.m                  -6.24:  VERT SEC E/W
 VSNS.m                  10.28:  VERT SEC N/S
 DEP .m                   0.00:  DEPTH
 EKB .m                   0.00:  KB ELEVATION
 EDF .m                  43.00:  DF ELEVATION
 TDL .m                1183.00:  TOTAL DEPTH (LOGGER)
 VSC .                       0:  VS TO CLOSURE
 MAGU.                 1850021:  MAGUTM CHECKSUM
~Parameter Information Block
#MNEM.UNIT       Value        Description
#---------     -----------    ---------------------------
 AV  .mps                 4.00:  Ann Velocity 
 AVMX.mps                 4.50:  Max Ann Veloc 
 AZIF.deg               145.38:  Azm, Final 
 BHAT.        Rotary Steerable:  BHA Type 
 BROT.°/30m               3.00:  Build Rotating 
 BS  .in                 12.25:  Bit Size 
 BSZ .in                 12.25:  Bit Size 
 BTPL.psig              650.00:  Bit Press Loss 
 CABU.                      No:  Customer Abuse 
 COMM.                     |¶Q:  Run Comments 1 
 TCS .hr                101.62:  Time Ciculation Ended 
 CV  .mps                 5.00:  Crit Velocity 
 CVMX.mps                 5.00:  Max Crit Veloc 
 DD1 .             Aziz Aliyev:  Direct Drillr 1 
 DD2 .      Fakhraddin Guliyev:  Direct Drillr 2 
 DDSV.                 iCruise:  DD Service 
 DEFF.%                  97.00:  % Det Eff 
 DLRX.°/30m               4.16:  Dogleg Rot Max 
 DLSO.°/30m               3.20:  Dogleg Oriented 
 DLSX.°/30m               4.10:  Dogleg Str Max 
 DRET.      23.12.00 07-Feb-20:  Drill End Time 
 DRST.      11.30.00 04-Feb-20:  Drill Start Tim 
 DTIM.hr                 61.06:  Time Drilling 
 EDEP.m                3219.01:  End Depth 
 ENG1.         Almaz Almadatov:  Engineer 1 
 ENG2.         Dair Mahammadov:  Engineer 2 
 ENG3.          Nazrin Asgarli:  Engineer 3 
 ETIM.      02.30.00 11-Feb-20:  End Time 
 FLOI.gpm              1100.00:  Flow In 
 FLON.gpm               900.00:  Flow In Min 
 FLOS.cptm               55.00:  Fluid Loss 
 FLOX.gpm              1150.00:  Flow In Max 
 FTRO.       Formation Presure:  FTWD Run Obj 
 HFLO.                      No:  High Flow 
 HPRE.                      No:  High Pressure 
 HTEM.                      No:  High Temp 
 HYDO.m                   1.80:  Hydro Offset 
 IFIN.deg                75.11:  Inc, Final 
 IMAX.deg                75.11:  Inc Max 
 IMIN.deg                33.55:  Inc Min 
 IMND.m                2186.05:  Inc Min Depth 
 IMXD.m                3205.61:  Inc Max Depth 
 JARR.                      No:  Jarring 
 LETM.      23.12.00 07-Feb-20:  Log End Time 
 LOST.hr                     0:  Lost Rig Time 
 LSTM.      11.30.00 04-Feb-20:  Log Start Time 
 MDCL.ppm             40000.00:  Mud Chlorides 
 MDES.     Inversion Oil/Synthetic:  Mud Desc 
 DFD .sg                  1.49:  Mud Density 
 MDMN.sg                  1.49:  Dens Mud Min 
 MDMX.sg                  1.49:  Dens Mud Max 
 MOIL.                      73:  Run Mud Oil % 
 MOWR.                   73:27:  Run Mud OWR 
 MSND.                     0.1:  Run Mud Sand % 
 MSOL.                    20.1:  Run Mud Solids% 
 DFV .spqt               78.00:  Mud Viscosity 
 MWOD.in                  8.00:  MWD Tool OD 
 MWSI.                      No:  Serv Intrp, MWD 
 OTIM.hr                177.15:  Time Operating 
 PCON.          Wear / Scratch:  Pad Condition 
 PMAX.psia            10493.93:  Press Op, Max 
 PV  .cP                 73.00:  Mud PV 
 RUN .                     700:  Run Number 
 ROPA.m/hr               15.00:  ROP Avg 
 ROPN.m/hr               10.00:  ROP Min 
 ROPX.m/hr               35.00:  ROP Max 
 RPMA.rpm               130.00:  RPM Surface Avg 
 RPMN.rpm                80.00:  RPM Surface Min 
 RPMX.rpm               150.00:  RPM Surface Max 
 RRUN.                    L402:  Rig Run Number 
 RTIM.hr                 80.50:  Time Reaming 
 SAZI.deg               155.55:  Azm, Start 
 SDEP.m                2036.00:  Start Depth 
 SIDD.                      No:  Serv Intrp, DD 
 SINC.deg                35.44:  Inc, Start 
 SPPA.psig             4270.00:  SPP Avg 
 SPPN.psig             2800.00:  SPP Min 
 SPPX.psig             4850.00:  SPP Max 
 STIM.      09.30.00 03-Feb-20:  Start Time 
 SVCS.                 DD, MWD:  Services 
 SVER.                    9.20:  Sperry Version 
 TDAT.m                1183.00:  Tot Depth Attmp 
 TDDF.                      No:  Trip for DD 
 TDLG.m                1183.00:  Tot Depth Loggd 
 TFF .                      No:  Trip for Fail 
 TQAA.f-kp               16.00:  Torque Abs Avg 
 TQAN.f-kp               10.00:  Torque Abs Min 
 TQAX.f-kp               20.00:  Torque Abs Max 
 TRRT.°/30m               1.00:  Turn Rotating 
 MRT .                  EWR-M5:  Maximum Recorded Temperature 
 TTMX.degC               80.39:  Max Tool Temp 
 VS01.               13098498 :  Virtual Str1 SN 
 VS02.                90569596:  Virtual Str2 SN 
 VS03.                90523599:  Virtual Str3 SN 
 VS04.                90573553:  Virtual Str4 SN 
 VS05.                90598598:  Virtual Str5 SN 
 VS06.                90577297:  Virtual Str6 SN 
 WBMN.klb                13.00:  WOB Min 
 WITN.         Alistair Sprott:  Customer Rep 
 WITN.           Rufat Babayev:  Customer Rep 2 
 WOBA.klb                15.00:  WOB Avg 
 WOBX.klb                20.00:  WOB Max 
 YP  .lhf2               39.00:  Yield Point 
~Curve Information Block
#MNEM.UNIT                 API CODE     Curve Description
#---------               -----------    ---------------------------
 TIME.HHMMSS            00 000 000 000:  GT Time & Date
 GTDEPTH.m              00 000 000 000:  GT Depth
 GTPQH.psia             00 000 000 000:  GT HR Quartz Pressure
 GTTQ.degC              00 000 000 000:  GT Quartz Temperature
 GTTN.NONE              00 000 000 000:  GT Test Number
 GTET.sec               00 000 000 000:  GT Elapsed Test Time
 GTTVD.m                00 000 000 000:  GT True Vertical Depth
#Other Information
#
#WARRANTY: Halliburton will use its best efforts to furnish customers with 
#accurate information and interpretations that are part of, and incident to, the services 
#provided.  However, Halliburton cannot and does not warrant the accuracy 
#or correctness of such information and interpretations.  Under no circumstances should any 
#such information or interpretation be relied upon as the sole basis for any drilling, 
#completion, production, or financial decision or any procedure involving any risk to the 
#safety of any drilling venture, drilling rig or its crew or any other third party.  The 
#Customer has full responsibility for all drilling, completion and production operation.  
#Halliburton makes no representations or warranties, either expressed or 
#implied, including, but not limited to, the implied warranties of merchantability or fitness 
#for a particular purpose, with respect to the services rendered.  In no event will 
#Halliburton be liable for failure to obtain any particular results or for 
#any damages, including, but not limited to, indirect, special or consequential damages, 
#resulting from the use of any information or interpretation provided by Halliburton.
#
~A           TIME           GTDEPTH  GTPQH  GTTQ  GTTN  GTET   GTTVD  
# ...
   10:06:44.216.08-Feb-2020 3159.51 4881.55 68.50 5.00 115.04 2654.38
   10:06:44.416.08-Feb-2020 3159.51 4881.55 68.50 5.00 115.24 2654.38
   10:06:44.616.08-Feb-2020 3159.51 4880.76 68.50 5.00 115.44 2654.38
   10:06:44.816.08-Feb-2020 3159.51 4881.19 68.50 5.00 115.64 2654.38
   10:06:45.016.08-Feb-2020 3159.51 4881.45 68.50 5.00 115.84 2654.38
   10:06:45.216.08-Feb-2020 3159.51 4881.67 68.50 5.00 116.04 2654.38
   10:06:45.416.08-Feb-2020 3159.51 4881.67 68.50 5.00 116.24 2654.38
   10:06:45.616.08-Feb-2020 3159.51 4881.50 68.50 5.00 116.44 2654.38
   10:06:45.816.08-Feb-2020 3159.51 4881.60 68.50 5.00 116.64 2654.38
   10:06:46.016.08-Feb-2020 3159.51 4881.51 68.50 5.00 116.84 2654.38
   10:06:46.216.08-Feb-2020 3159.51 4881.50 68.50 5.00 117.04 2654.38
   10:06:46.417.08-Feb-2020 3159.51 4881.50 68.50 5.00 117.24 2654.38
   10:06:46.617.08-Feb-2020 3159.51 4881.40 68.50 5.00 117.44 2654.38
   10:06:46.817.08-Feb-2020 3159.51 4881.38 68.50 5.00 117.64 2654.38
   10:06:47.017.08-Feb-2020 3159.51 4881.47 68.50 5.00 117.84 2654.38
   10:06:47.217.08-Feb-2020 3159.51 4881.23 68.50 5.00 118.04 2654.38
   10:06:47.417.08-Feb-2020 3159.51 4881.23 68.50 5.00 118.24 2654.38
   10:06:47.617.08-Feb-2020 3159.51 4881.74 68.50 5.00 118.44 2654.38
   10:06:47.817.08-Feb-2020 3159.51 4881.17 68.50 5.00 118.64 2654.38
   10:06:48.017.08-Feb-2020 3159.51 4881.36 68.50 5.00 118.84 2654.38
   10:06:48.217.08-Feb-2020 3159.51 4881.36 68.50 5.00 119.04 2654.38
   10:06:48.417.08-Feb-2020 3159.51 4881.36 68.50 5.00 119.24 2654.38
   10:06:48.617.08-Feb-2020 3159.51 4881.50 68.50 5.00 119.44 2654.38
   10:06:48.817.08-Feb-2020 3159.51 4881.33 68.50 5.00 119.64 2654.38
   10:06:49.017.08-Feb-2020 3159.51 4881.45 68.50 5.00 119.84 2654.38
   10:06:49.217.08-Feb-2020 3159.51 4881.52 68.50 5.00 120.04 2654.38
   10:06:49.417.08-Feb-2020 3159.51 4881.52 68.50 5.00 120.24 2654.38
   10:06:49.618.08-Feb-2020 3159.51 4881.55 68.50 5.00 120.44 2654.38
   10:06:49.818.08-Feb-2020 3159.51 4881.58 68.50 5.00 120.64 2654.38
   10:06:50.018.08-Feb-2020 3159.51 4881.60 68.50 5.00 120.84 2654.38
   10:06:50.218.08-Feb-2020 3159.51 4881.53 68.50 5.00 121.04 2654.38
   10:06:50.418.08-Feb-2020 3159.51 4881.53 68.50 5.00 121.24 2654.38
   10:06:50.618.08-Feb-2020 3159.51 4881.60 68.50 5.00 121.44 2654.38
   10:06:50.818.08-Feb-2020 3159.51 4881.48 68.50 5.00 121.64 2654.38
   10:06:51.018.08-Feb-2020 3159.51 4881.52 68.50 5.00 121.84 2654.38
   10:06:51.218.08-Feb-2020 3159.51 4881.57 68.50 5.00 122.04 2654.38
   10:06:51.418.08-Feb-2020 3159.51 4881.57 68.50 5.00 122.24 2654.38
   10:06:51.618.08-Feb-2020 3159.51 4881.47 68.50 5.00 122.44 2654.38
   10:06:51.818.08-Feb-2020 3159.51 4881.45 68.50 5.00 122.64 2654.38
   10:06:52.018.08-Feb-2020 3159.51 4881.60 68.50 5.00 122.84 2654.38
   10:06:52.218.08-Feb-2020 3159.51 4881.55 68.50 5.00 123.04 2654.38
   10:06:52.418.08-Feb-2020 3159.51 4881.55 68.50 5.00 123.24 2654.38
   10:06:52.618.08-Feb-2020 3159.51 4881.53 68.50 5.00 123.44 2654.38
   10:06:52.819.08-Feb-2020 3159.51 4881.57 68.50 5.00 123.64 2654.38
   10:06:53.019.08-Feb-2020 3159.51 4881.48 68.50 5.00 123.84 2654.38
   10:06:53.219.08-Feb-2020 3159.51 4881.52 68.50 5.00 124.04 2654.38
   10:06:53.419.08-Feb-2020 3159.51 4881.52 68.50 5.00 124.24 2654.38
   10:06:53.619.08-Feb-2020 3159.51 4881.30 68.50 5.00 124.44 2654.38
   10:06:53.819.08-Feb-2020 3159.51 4881.39 68.50 5.00 124.64 2654.38
   10:06:54.019.08-Feb-2020 3159.51 4881.93 68.50 5.00 124.84 2654.38
   10:06:54.219.08-Feb-2020 3159.51 4881.16 68.50 5.00 125.04 2654.38
   10:06:54.419.08-Feb-2020 3159.51 4881.16 68.50 5.00 125.24 2654.38
   10:06:54.619.08-Feb-2020 3159.51 4882.03 68.50 5.00 125.44 2654.38
   10:06:54.819.08-Feb-2020 3159.51 4881.07 68.50 5.00 125.64 2654.38
   10:06:55.019.08-Feb-2020 3159.51 4881.17 68.50 5.00 125.84 2654.38
   10:06:55.219.08-Feb-2020 3159.51 4881.52 68.50 5.00 126.04 2654.38
   10:06:55.419.08-Feb-2020 3159.51 4881.52 68.50 5.00 126.24 2654.38
   10:06:55.619.08-Feb-2020 3159.51 4881.39 68.50 5.00 126.44 2654.38
   10:06:55.819.08-Feb-2020 3159.51 4881.46 68.50 5.00 126.64 2654.38
   10:06:56.020.08-Feb-2020 3159.51 4882.27 68.50 5.00 126.84 2654.38
   10:06:56.220.08-Feb-2020 3159.51 4881.28 68.50 5.00 127.04 2654.38
   10:06:56.420.08-Feb-2020 3159.51 4881.28 68.50 5.00 127.24 2654.38
   10:06:56.620.08-Feb-2020 3159.51 4881.48 68.50 5.00 127.44 2654.38
   10:06:56.820.08-Feb-2020 3159.51 4881.66 68.50 5.00 127.64 2654.38
   10:06:57.020.08-Feb-2020 3159.51 4881.45 68.50 5.00 127.84 2654.38
   10:06:57.220.08-Feb-2020 3159.51 4881.56 68.50 5.00 128.04 2654.38
   10:06:57.420.08-Feb-2020 3159.51 4881.56 68.50 5.00 128.24 2654.38
   10:06:57.620.08-Feb-2020 3159.51 4881.54 68.50 5.00 128.44 2654.38
   10:06:57.820.08-Feb-2020 3159.51 4881.50 68.50 5.00 128.64 2654.38
   10:06:58.020.08-Feb-2020 3159.51 4881.55 68.50 5.00 128.84 2654.38
   10:06:58.220.08-Feb-2020 3159.51 4881.53 68.50 5.00 129.04 2654.38
   10:06:58.420.08-Feb-2020 3159.51 4881.53 68.50 5.00 129.24 2654.38
   10:06:58.620.08-Feb-2020 3159.51 4881.45 68.50 5.00 129.44 2654.38
   10:06:58.820.08-Feb-2020 3159.51 4881.52 68.50 5.00 129.64 2654.38
   10:06:59.020.08-Feb-2020 3159.51 4881.62 68.50 5.00 129.84 2654.38
   10:06:59.221.08-Feb-2020 3159.51 4881.54 68.50 5.00 130.04 2654.38
   10:06:59.421.08-Feb-2020 3159.51 4881.54 68.50 5.00 130.24 2654.38
   10:06:59.621.08-Feb-2020 3159.51 4881.56 68.50 5.00 130.44 2654.38
   10:06:59.821.08-Feb-2020 3159.51 4881.60 68.50 5.00 130.64 2654.38
   10:07:00.021.08-Feb-2020 3159.51 4881.45 68.50 5.00 130.84 2654.38
   10:07:00.221.08-Feb-2020 3159.51 4881.56 68.50 5.00 131.04 2654.38
   10:07:00.421.08-Feb-2020 3159.51 4881.56 68.50 5.00 131.24 2654.38
   10:07:00.621.08-Feb-2020 3159.51 4880.73 68.50 5.00 131.44 2654.38
   10:07:00.821.08-Feb-2020 3159.51 4881.21 68.50 5.00 131.64 2654.38
   10:07:01.021.08-Feb-2020 3159.51 4882.04 68.50 5.00 131.84 2654.38
   10:07:01.221.08-Feb-2020 3159.51 4881.15 68.50 5.00 132.04 2654.38
   10:07:01.421.08-Feb-2020 3159.51 4881.15 68.50 5.00 132.24 2654.38
   10:07:01.621.08-Feb-2020 3159.51 4881.42 68.50 5.00 132.44 2654.38
   10:07:01.821.08-Feb-2020 3159.51 4881.72 68.50 5.00 132.64 2654.38
   10:07:02.021.08-Feb-2020 3159.51 4881.45 68.50 5.00 132.84 2654.38
   10:07:02.221.08-Feb-2020 3159.51 4882.44 68.50 5.00 133.04 2654.38
   10:07:02.422.08-Feb-2020 3159.51 4882.44 68.50 5.00 133.24 2654.38
   10:07:02.622.08-Feb-2020 3159.51 4881.09 68.50 5.00 133.44 2654.38
   10:07:02.822.08-Feb-2020 3159.51 4881.45 68.50 5.00 133.64 2654.38
   10:07:03.022.08-Feb-2020 3159.51 4881.93 68.50 5.00 133.84 2654.38
   10:07:03.222.08-Feb-2020 3159.51 4881.40 68.50 5.00 134.04 2654.38
   10:07:03.422.08-Feb-2020 3159.51 4881.40 68.50 5.00 134.24 2654.38
   10:07:03.622.08-Feb-2020 3159.51 4881.65 68.50 5.00 134.44 2654.38
   10:07:03.822.08-Feb-2020 3159.51 4881.60 68.50 5.00 134.64 2654.38
   10:07:04.022.08-Feb-2020 3159.51 4881.52 68.50 5.00 134.84 2654.38
   10:07:04.222.08-Feb-2020 3159.51 4881.63 68.50 5.00 135.04 2654.38
   10:07:04.422.08-Feb-2020 3159.51 4881.63 68.50 5.00 135.24 2654.38
   10:07:04.622.08-Feb-2020 3159.51 4881.51 68.50 5.00 135.44 2654.38
   10:07:04.822.08-Feb-2020 3159.51 4881.49 68.50 5.00 135.64 2654.38
   10:07:05.022.08-Feb-2020 3159.51 4881.56 68.50 5.00 135.84 2654.38
   10:07:05.222.08-Feb-2020 3159.51 4882.36 68.50 5.00 136.04 2654.38
   10:07:05.422.08-Feb-2020 3159.51 4882.36 68.50 5.00 136.24 2654.38
   10:07:05.623.08-Feb-2020 3159.51 4881.21 68.50 5.00 136.44 2654.38
   10:07:05.823.08-Feb-2020 3159.51 4881.52 68.49 5.00 136.64 2654.38
   10:07:06.023.08-Feb-2020 3159.51 4881.63 68.50 5.00 136.84 2654.38
   10:07:06.223.08-Feb-2020 3159.51 4881.46 68.49 5.00 137.04 2654.38
   10:07:06.423.08-Feb-2020 3159.51 4881.46 68.49 5.00 137.24 2654.38
   10:07:06.623.08-Feb-2020 3159.51 4881.60 68.49 5.00 137.44 2654.38
   10:07:06.823.08-Feb-2020 3159.51 4881.52 68.49 5.00 137.64 2654.38
   10:07:07.023.08-Feb-2020 3159.51 4881.52 68.49 5.00 137.84 2654.38
