~Version Information
 VERS.                  2.0:   CWLS log ASCII Standard -VERSION 2.0
 WRAP.                   NO:   One line per depth step
~Well Information Block
#MNEM.UNIT     VALUE/NAME     DESCRIPTION
#---------     -----------    ---------------------------
 STRT.S             09:08:12 08-Feb-20: START TIME 09:08:12 08-Feb-20
 STOP.S             09:14:54 08-Feb-20: STOP TIME  09:14:54 08-Feb-20
 STEP.S                   0.00: STEP TIME
 NULL.                 -999.25: NULL VALUE
 DFWT.                        :  DIST FWL TEXT
 DFST.                        :  DIST FSL TEXT
 DMF .             Drill Floor:  DRILL MEAS FROM
 STIM.      07.00.00 09-Jan-20:  START TIME
 DATE.      14.04.48 07-Feb-20:  END TIME
 SPUD.               09-Jan-20:  SPUD DATE
 NREF.                    Grid:  NORTH REFERENCE
 HPTY.       Minimum Curvature:  HOLE POS TYPE
 DMOD.             Drill Model:  DRILL MOD DESC
 SVYD.                  Survey:  SURVEY DESC
 ILTD.               Lithology:  INTERP LTH DESC
 FTOP.          Formation Tops:  FORM TOPS DESC
 SON .        AZ-XX-0905059384:  JOB NUMBER
 MDS .        Operator Entered:  MAG DATA SOURCE
 WTYP.                Deviated:  WELL TYPE
 COMP.     BP Exploration (Caspian Sea) Ltd.:  COMPANY
 UWI .                     N/A:  UNIQUE WELL IDENTIFIER
 API .                     N/A:  API NUMBER
 BASE.              Azerbaijan:  LOGGING EQUIPMENT BASE LOCATION
 REGN.                   EESSA:  REGION
 PROV.                    Baku:  PROVINCE
 STAT.                    Baku:  STATE NAME
 CTRY.              Azerbaijan:  COUNTRY NAME
 FLD .                     ACG:  FIELD NAME
 SRVC.     TURAN Drilling & Engineering:  CONTRACTOR
 MWDS.                    Baku:  MWD SHOP
 WELL.                     J22:  WELL NAME
 RIG .             West Chirag:  RIG NAME
 DOE .                     N/A:  DOE NUMBER
 DCON.         Sperry Drilling:  DIRECTNL CONTR
 UNIT.                     N/A:  LOGGING EQUIPMENT ID
 PDAT.          Mean Sea Level:  PERMANENT DATUM
 JOBN.        AZ-XX-0905059384:  JOB TICKET NUMB
 CNTY.                        :  COUNTY
 LOC .                        :  LOCATION
 LMF .             Drill Floor:  LOG MEASURED FROM
 TVDS.m                  43.00:  TVDSS CORRECTN
 LATI.deg                40.13:  LATITUDE
 LONG.deg                51.22:  LONGITUDE
 WHNS.m                  10.28:  WELL HEAD N/S
 WHEW.m                  -6.24:  WELL HEAD E/W
 UTMX.m              519005.06:  UTM X
 UTMY.m             4443793.85:  UTM Y
 DFWL.m                   0.00:  DISTANCE FWL
 DFSL.m                   0.00:  DISTANCE FSL
 SDEP.m                 362.00:  START DEPTH
 TDD .m                 904.00:  TOTAL DEPTH (DRILLER)
 VSDR.deg               148.53:  VERT SEC DIRECT
 GVFD.g                   1.00:  GRAVITY FIELD
 MFLD.nT              50277.00:  MAGNETIC FIELD
 MDIP.deg                59.56:  MAGNETIC DIP
 MDEC.deg                 6.42:  MAGNETIC DECL
 GRDC.deg                 0.15:  GRID CORRECTION
 AZTC.deg                 6.27:  AZM TOTAL CORR
 EPD .m                   0.00:  ELEVATION
 EGL .m                   0.00:  GROUND ELEVATION
 WDMS.m                 169.80:  WD ELEV
 APD .m                  43.00:  DEPTH ABOVE PD
 AGAP.m                  43.00:  AIR GAP
 VSEW.m                  -6.24:  VERT SEC E/W
 VSNS.m                  10.28:  VERT SEC N/S
 DEP .m                   0.00:  DEPTH
 EKB .m                   0.00:  KB ELEVATION
 EDF .m                  43.00:  DF ELEVATION
 TDL .m                1183.00:  TOTAL DEPTH (LOGGER)
 VSC .                       0:  VS TO CLOSURE
 MAGU.                 1850021:  MAGUTM CHECKSUM
~Parameter Information Block
#MNEM.UNIT       Value        Description
#---------     -----------    ---------------------------
 AV  .mps                 4.00:  Ann Velocity 
 AVMX.mps                 4.50:  Max Ann Veloc 
 AZIF.deg               145.38:  Azm, Final 
 BHAT.        Rotary Steerable:  BHA Type 
 BROT.°/30m               3.00:  Build Rotating 
 BS  .in                 12.25:  Bit Size 
 BSZ .in                 12.25:  Bit Size 
 BTPL.psig              650.00:  Bit Press Loss 
 CABU.                      No:  Customer Abuse 
 COMM.                     T!k:  Run Comments 1 
 TCS .hr                101.62:  Time Ciculation Ended 
 CV  .mps                 5.00:  Crit Velocity 
 CVMX.mps                 5.00:  Max Crit Veloc 
 DD1 .             Aziz Aliyev:  Direct Drillr 1 
 DD2 .      Fakhraddin Guliyev:  Direct Drillr 2 
 DDSV.                 iCruise:  DD Service 
 DEFF.%                  97.00:  % Det Eff 
 DLRX.°/30m               4.16:  Dogleg Rot Max 
 DLSO.°/30m               3.20:  Dogleg Oriented 
 DLSX.°/30m               4.10:  Dogleg Str Max 
 DRET.      23.12.00 07-Feb-20:  Drill End Time 
 DRST.      11.30.00 04-Feb-20:  Drill Start Tim 
 DTIM.hr                 61.06:  Time Drilling 
 EDEP.m                3219.01:  End Depth 
 ENG1.         Almaz Almadatov:  Engineer 1 
 ENG2.         Dair Mahammadov:  Engineer 2 
 ENG3.          Nazrin Asgarli:  Engineer 3 
 ETIM.      02.30.00 11-Feb-20:  End Time 
 FLOI.gpm              1100.00:  Flow In 
 FLON.gpm               900.00:  Flow In Min 
 FLOS.cptm               55.00:  Fluid Loss 
 FLOX.gpm              1150.00:  Flow In Max 
 FTRO.       Formation Presure:  FTWD Run Obj 
 HFLO.                      No:  High Flow 
 HPRE.                      No:  High Pressure 
 HTEM.                      No:  High Temp 
 HYDO.m                   1.80:  Hydro Offset 
 IFIN.deg                75.11:  Inc, Final 
 IMAX.deg                75.11:  Inc Max 
 IMIN.deg                33.55:  Inc Min 
 IMND.m                2186.05:  Inc Min Depth 
 IMXD.m                3205.61:  Inc Max Depth 
 JARR.                      No:  Jarring 
 LETM.      23.12.00 07-Feb-20:  Log End Time 
 LOST.hr                     0:  Lost Rig Time 
 LSTM.      11.30.00 04-Feb-20:  Log Start Time 
 MDCL.ppm             40000.00:  Mud Chlorides 
 MDES.     Inversion Oil/Synthetic:  Mud Desc 
 DFD .sg                  1.49:  Mud Density 
 MDMN.sg                  1.49:  Dens Mud Min 
 MDMX.sg                  1.49:  Dens Mud Max 
 MOIL.                      73:  Run Mud Oil % 
 MOWR.                   73:27:  Run Mud OWR 
 MSND.                     0.1:  Run Mud Sand % 
 MSOL.                    20.1:  Run Mud Solids% 
 DFV .spqt               78.00:  Mud Viscosity 
 MWOD.in                  8.00:  MWD Tool OD 
 MWSI.                      No:  Serv Intrp, MWD 
 OTIM.hr                177.15:  Time Operating 
 PCON.          Wear / Scratch:  Pad Condition 
 PMAX.psia            10493.93:  Press Op, Max 
 PV  .cP                 73.00:  Mud PV 
 RUN .                     700:  Run Number 
 ROPA.m/hr               15.00:  ROP Avg 
 ROPN.m/hr               10.00:  ROP Min 
 ROPX.m/hr               35.00:  ROP Max 
 RPMA.rpm               130.00:  RPM Surface Avg 
 RPMN.rpm                80.00:  RPM Surface Min 
 RPMX.rpm               150.00:  RPM Surface Max 
 RRUN.                    L402:  Rig Run Number 
 RTIM.hr                 80.50:  Time Reaming 
 SAZI.deg               155.55:  Azm, Start 
 SDEP.m                2036.00:  Start Depth 
 SIDD.                      No:  Serv Intrp, DD 
 SINC.deg                35.44:  Inc, Start 
 SPPA.psig             4270.00:  SPP Avg 
 SPPN.psig             2800.00:  SPP Min 
 SPPX.psig             4850.00:  SPP Max 
 STIM.      09.30.00 03-Feb-20:  Start Time 
 SVCS.                 DD, MWD:  Services 
 SVER.                    9.20:  Sperry Version 
 TDAT.m                1183.00:  Tot Depth Attmp 
 TDDF.                      No:  Trip for DD 
 TDLG.m                1183.00:  Tot Depth Loggd 
 TFF .                      No:  Trip for Fail 
 TQAA.f-kp               16.00:  Torque Abs Avg 
 TQAN.f-kp               10.00:  Torque Abs Min 
 TQAX.f-kp               20.00:  Torque Abs Max 
 TRRT.°/30m               1.00:  Turn Rotating 
 MRT .                  EWR-M5:  Maximum Recorded Temperature 
 TTMX.degC               80.39:  Max Tool Temp 
 VS01.               13098498 :  Virtual Str1 SN 
 VS02.                90569596:  Virtual Str2 SN 
 VS03.                90523599:  Virtual Str3 SN 
 VS04.                90573553:  Virtual Str4 SN 
 VS05.                90598598:  Virtual Str5 SN 
 VS06.                90577297:  Virtual Str6 SN 
 WBMN.klb                13.00:  WOB Min 
 WITN.         Alistair Sprott:  Customer Rep 
 WITN.           Rufat Babayev:  Customer Rep 2 
 WOBA.klb                15.00:  WOB Avg 
 WOBX.klb                20.00:  WOB Max 
 YP  .lhf2               39.00:  Yield Point 
~Curve Information Block
#MNEM.UNIT                 API CODE     Curve Description
#---------               -----------    ---------------------------
 TIME.HHMMSS            00 000 000 000:  GT Time & Date
 GTDEPTH.m              00 000 000 000:  GT Depth
 GTPQH.psia             00 000 000 000:  GT HR Quartz Pressure
 GTTQ.degC              00 000 000 000:  GT Quartz Temperature
 GTTN.NONE              00 000 000 000:  GT Test Number
 GTET.sec               00 000 000 000:  GT Elapsed Test Time
 GTTVD.m                00 000 000 000:  GT True Vertical Depth
#Other Information
#
#WARRANTY: Halliburton will use its best efforts to furnish customers with 
#accurate information and interpretations that are part of, and incident to, the services 
#provided.  However, Halliburton cannot and does not warrant the accuracy 
#or correctness of such information and interpretations.  Under no circumstances should any 
#such information or interpretation be relied upon as the sole basis for any drilling, 
#completion, production, or financial decision or any procedure involving any risk to the 
#safety of any drilling venture, drilling rig or its crew or any other third party.  The 
#Customer has full responsibility for all drilling, completion and production operation.  
#Halliburton makes no representations or warranties, either expressed or 
#implied, including, but not limited to, the implied warranties of merchantability or fitness 
#for a particular purpose, with respect to the services rendered.  In no event will 
#Halliburton be liable for failure to obtain any particular results or for 
#any damages, including, but not limited to, indirect, special or consequential damages, 
#resulting from the use of any information or interpretation provided by Halliburton.
#
~A           TIME           GTDEPTH  GTPQH  GTTQ  GTTN  GTET   GTTVD  
   09:08:12.764.08-Feb-2020 3153.21 5787.89 70.00 3.00   0.00 2652.75
   09:08:12.964.08-Feb-2020 3153.21 5787.89 70.00 3.00   0.20 2652.75
   09:08:13.164.08-Feb-2020 3153.21 5788.28 70.00 3.00   0.40 2652.75
   09:08:13.364.08-Feb-2020 3153.21 5789.71 70.00 3.00   0.60 2652.75
   09:08:13.564.08-Feb-2020 3153.21 5788.65 70.00 3.00   0.80 2652.75
   09:08:13.764.08-Feb-2020 3153.21 5789.00 70.00 3.00   1.00 2652.75
   09:08:13.964.08-Feb-2020 3153.21 5789.00 70.00 3.00   1.20 2652.75
   09:08:14.164.08-Feb-2020 3153.21 5792.02 70.00 3.00   1.40 2652.75
   09:08:14.364.08-Feb-2020 3153.21 5795.11 70.00 3.00   1.60 2652.75
   09:08:14.564.08-Feb-2020 3153.21 5795.30 70.00 3.00   1.80 2652.75
   09:08:14.764.08-Feb-2020 3153.21 5793.99 70.00 3.00   2.00 2652.75
   09:08:14.964.08-Feb-2020 3153.21 5793.99 70.00 3.00   2.20 2652.75
   09:08:15.164.08-Feb-2020 3153.21 5794.31 70.00 3.00   2.40 2652.75
   09:08:15.364.08-Feb-2020 3153.21 5794.22 70.00 3.00   2.60 2652.75
   09:08:15.564.08-Feb-2020 3153.21 5794.07 70.00 3.00   2.80 2652.75
   09:08:15.764.08-Feb-2020 3153.21 5794.12 70.00 3.00   3.00 2652.75
   09:08:15.964.08-Feb-2020 3153.21 5794.12 70.00 3.00   3.20 2652.75
   09:08:16.164.08-Feb-2020 3153.21 5794.76 70.00 3.00   3.40 2652.75
   09:08:16.364.08-Feb-2020 3153.21 5794.44 70.00 3.00   3.60 2652.75
   09:08:16.564.08-Feb-2020 3153.21 5798.15 70.00 3.00   3.80 2652.75
   09:08:16.764.08-Feb-2020 3153.21 5795.53 70.00 3.00   4.00 2652.75
   09:08:16.964.08-Feb-2020 3153.21 5795.53 70.00 3.00   4.20 2652.75
   09:08:17.164.08-Feb-2020 3153.21 5792.39 70.00 3.00   4.40 2652.75
   09:08:17.364.08-Feb-2020 3153.21 5791.43 70.00 3.00   4.60 2652.75
   09:08:17.564.08-Feb-2020 3153.21 5789.11 70.00 3.00   4.80 2652.75
   09:08:17.764.08-Feb-2020 3153.21 5788.57 70.00 3.00   5.00 2652.75
   09:08:17.964.08-Feb-2020 3153.21 5788.57 70.00 3.00   5.20 2652.75
   09:08:18.164.08-Feb-2020 3153.21 5786.16 70.00 3.00   5.40 2652.75
   09:08:18.364.08-Feb-2020 3153.21 5785.21 70.00 3.00   5.60 2652.75
   09:08:18.564.08-Feb-2020 3153.21 5788.09 70.00 3.00   5.80 2652.75
   09:08:18.764.08-Feb-2020 3153.21 5787.25 70.00 3.00   6.00 2652.75
   09:08:18.964.08-Feb-2020 3153.21 5787.25 70.00 3.00   6.20 2652.75
   09:08:19.164.08-Feb-2020 3153.21 5787.25 70.00 3.00   6.40 2652.75
   09:08:19.364.08-Feb-2020 3153.21 5785.92 70.00 3.00   6.60 2652.75
   09:08:19.564.08-Feb-2020 3153.21 5790.40 70.00 3.00   6.80 2652.75
   09:08:19.764.08-Feb-2020 3153.21 5787.12 70.00 3.00   7.00 2652.75
   09:08:19.964.08-Feb-2020 3153.21 5787.12 70.00 3.00   7.20 2652.75
   09:08:20.164.08-Feb-2020 3153.21 5784.91 70.00 3.00   7.40 2652.75
   09:08:20.364.08-Feb-2020 3153.21 5784.91 70.00 3.00   7.60 2652.75
   09:08:20.564.08-Feb-2020 3153.21 5788.20 70.00 3.00   7.80 2652.75
   09:08:20.764.08-Feb-2020 3153.21 5783.89 70.00 3.00   8.00 2652.75
   09:08:20.964.08-Feb-2020 3153.21 5783.89 70.00 3.00   8.20 2652.75
   09:08:21.164.08-Feb-2020 3153.21 5786.32 69.99 3.00   8.40 2652.75
   09:08:21.364.08-Feb-2020 3153.21 5783.66 69.99 3.00   8.60 2652.75
   09:08:21.564.08-Feb-2020 3153.21 5784.02 69.99 3.00   8.80 2652.75
   09:08:21.764.08-Feb-2020 3153.21 5783.42 69.99 3.00   9.00 2652.75
   09:08:21.964.08-Feb-2020 3153.21 5783.42 69.99 3.00   9.20 2652.75
   09:08:22.164.08-Feb-2020 3153.21 5779.95 69.99 3.00   9.40 2652.75
   09:08:22.364.08-Feb-2020 3153.21 5781.16 69.99 3.00   9.60 2652.75
   09:08:22.564.08-Feb-2020 3153.21 5786.55 69.99 3.00   9.80 2652.75
   09:08:22.764.08-Feb-2020 3153.21 5780.23 69.99 3.00  10.00 2652.75
   09:08:22.965.08-Feb-2020 3153.21 5780.23 69.99 3.00  10.20 2652.75
   09:08:23.165.08-Feb-2020 3153.21 5779.24 69.99 3.00  10.40 2652.75
   09:08:23.365.08-Feb-2020 3153.21 5779.01 69.99 3.00  10.60 2652.75
   09:08:23.565.08-Feb-2020 3153.21 5777.50 69.99 3.00  10.80 2652.75
   09:08:23.765.08-Feb-2020 3153.21 5778.07 69.99 3.00  11.00 2652.75
   09:08:23.965.08-Feb-2020 3153.21 5778.07 69.99 3.00  11.20 2652.75
   09:08:24.165.08-Feb-2020 3153.21 5778.52 69.99 3.00  11.40 2652.75
   09:08:24.365.08-Feb-2020 3153.21 5779.52 69.99 3.00  11.60 2652.75
   09:08:24.565.08-Feb-2020 3153.21 5780.39 69.99 3.00  11.80 2652.75
   09:08:24.765.08-Feb-2020 3153.21 5782.24 69.99 3.00  12.00 2652.75
   09:08:24.965.08-Feb-2020 3153.21 5782.24 69.99 3.00  12.20 2652.75
   09:08:25.165.08-Feb-2020 3153.21 5782.87 69.99 3.00  12.40 2652.75
   09:08:25.365.08-Feb-2020 3153.21 5781.62 69.99 3.00  12.60 2652.75
   09:08:25.565.08-Feb-2020 3153.21 5781.83 69.99 3.00  12.80 2652.75
   09:08:25.765.08-Feb-2020 3153.21 5782.00 69.99 3.00  13.00 2652.75
   09:08:25.965.08-Feb-2020 3153.21 5782.00 69.99 3.00  13.20 2652.75
   09:08:26.165.08-Feb-2020 3153.21 5781.10 69.99 3.00  13.40 2652.75
   09:08:26.365.08-Feb-2020 3153.21 5780.66 69.99 3.00  13.60 2652.75
   09:08:26.565.08-Feb-2020 3153.21 5780.31 69.99 3.00  13.80 2652.75
   09:08:26.765.08-Feb-2020 3153.21 5780.26 69.99 3.00  14.00 2652.75
   09:08:26.965.08-Feb-2020 3153.21 5780.26 69.99 3.00  14.20 2652.75
   09:08:27.165.08-Feb-2020 3153.21 5781.67 69.99 3.00  14.40 2652.75
   09:08:27.365.08-Feb-2020 3153.21 5780.17 69.99 3.00  14.60 2652.75
   09:08:27.565.08-Feb-2020 3153.21 5787.52 69.99 3.00  14.80 2652.75
   09:08:27.765.08-Feb-2020 3153.21 5781.79 69.99 3.00  15.00 2652.75
   09:08:27.965.08-Feb-2020 3153.21 5781.79 69.99 3.00  15.20 2652.75
   09:08:28.165.08-Feb-2020 3153.21 5780.48 69.99 3.00  15.40 2652.75
   09:08:28.365.08-Feb-2020 3153.21 5786.88 69.99 3.00  15.60 2652.75
   09:08:28.565.08-Feb-2020 3153.21 5783.68 69.99 3.00  15.80 2652.75
   09:08:28.765.08-Feb-2020 3153.21 5781.44 69.99 3.00  16.00 2652.75
   09:08:28.965.08-Feb-2020 3153.21 5781.44 69.99 3.00  16.20 2652.75
   09:08:29.165.08-Feb-2020 3153.21 5789.18 69.99 3.00  16.40 2652.75
   09:08:29.365.08-Feb-2020 3153.21 5784.55 69.99 3.00  16.60 2652.75
   09:08:29.565.08-Feb-2020 3153.21 5782.96 69.98 3.00  16.80 2652.75
   09:08:29.765.08-Feb-2020 3153.21 5784.20 69.98 3.00  17.00 2652.75
   09:08:29.965.08-Feb-2020 3153.21 5784.20 69.98 3.00  17.20 2652.75
   09:08:30.165.08-Feb-2020 3153.21 5787.23 69.98 3.00  17.40 2652.75
   09:08:30.365.08-Feb-2020 3153.21 5785.98 69.98 3.00  17.60 2652.75
   09:08:30.565.08-Feb-2020 3153.21 5787.23 69.98 3.00  17.80 2652.75
   09:08:30.765.08-Feb-2020 3153.21 5787.21 69.98 3.00  18.00 2652.75
   09:08:30.965.08-Feb-2020 3153.21 5787.21 69.98 3.00  18.20 2652.75
   09:08:31.165.08-Feb-2020 3153.21 5788.52 69.98 3.00  18.40 2652.75
   09:08:31.365.08-Feb-2020 3153.21 5787.65 69.98 3.00  18.60 2652.75
   09:08:31.565.08-Feb-2020 3153.21 5786.42 69.98 3.00  18.80 2652.75
   09:08:31.765.08-Feb-2020 3153.21 5786.20 69.98 3.00  19.00 2652.75
   09:08:31.965.08-Feb-2020 3153.21 5786.20 69.98 3.00  19.20 2652.75
   09:08:32.165.08-Feb-2020 3153.21 5792.37 69.98 3.00  19.40 2652.75
   09:08:32.365.08-Feb-2020 3153.21 5785.24 69.98 3.00  19.60 2652.75
   09:08:32.565.08-Feb-2020 3153.21 5784.85 69.98 3.00  19.80 2652.75
   09:08:32.765.08-Feb-2020 3153.21 5786.44 69.98 3.00  20.00 2652.75
   09:08:32.965.08-Feb-2020 3153.21 5786.44 69.98 3.00  20.20 2652.75
   09:08:33.165.08-Feb-2020 3153.21 5786.23 69.98 3.00  20.40 2652.75
   09:08:33.365.08-Feb-2020 3153.21 5787.18 69.98 3.00  20.60 2652.75
   09:08:33.565.08-Feb-2020 3153.21 5786.63 69.98 3.00  20.80 2652.75
   09:08:33.765.08-Feb-2020 3153.21 5786.66 69.98 3.00  21.00 2652.75
   09:08:33.965.08-Feb-2020 3153.21 5786.66 69.98 3.00  21.20 2652.75
   09:08:34.165.08-Feb-2020 3153.21 5785.95 69.98 3.00  21.40 2652.75
   09:08:34.365.08-Feb-2020 3153.21 5790.35 69.98 3.00  21.60 2652.75
   09:08:34.565.08-Feb-2020 3153.21 5786.70 69.98 3.00  21.80 2652.75
   09:08:34.766.08-Feb-2020 3153.21 5785.71 69.98 3.00  22.00 2652.75
   09:08:34.966.08-Feb-2020 3153.21 5785.71 69.98 3.00  22.20 2652.75
   09:08:35.166.08-Feb-2020 3153.21 5789.84 69.98 3.00  22.40 2652.75
   09:08:35.366.08-Feb-2020 3153.21 5785.56 69.98 3.00  22.60 2652.75
   09:08:35.566.08-Feb-2020 3153.21 5785.68 69.98 3.00  22.80 2652.75
