~Version Information
 VERS.                  2.0:   CWLS log ASCII Standard -VERSION 2.0
 WRAP.                   NO:   One line per depth step
~Well Information Block
#MNEM.UNIT     VALUE/NAME     DESCRIPTION
#---------     -----------    ---------------------------
 STRT.S             08:41:50 08-Feb-20: START TIME 08:41:50 08-Feb-20
 STOP.S             08:48:48 08-Feb-20: STOP TIME  08:48:48 08-Feb-20
 STEP.S                   0.00: STEP TIME
 NULL.                 -999.25: NULL VALUE
 DFWT.                        :  DIST FWL TEXT
 DFST.                        :  DIST FSL TEXT
 DMF .             Drill Floor:  DRILL MEAS FROM
 STIM.      07.00.00 09-Jan-20:  START TIME
 DATE.      14.04.48 07-Feb-20:  END TIME
 SPUD.               09-Jan-20:  SPUD DATE
 NREF.                    Grid:  NORTH REFERENCE
 HPTY.       Minimum Curvature:  HOLE POS TYPE
 DMOD.             Drill Model:  DRILL MOD DESC
 SVYD.                  Survey:  SURVEY DESC
 ILTD.               Lithology:  INTERP LTH DESC
 FTOP.          Formation Tops:  FORM TOPS DESC
 SON .        AZ-XX-0905059384:  JOB NUMBER
 MDS .        Operator Entered:  MAG DATA SOURCE
 WTYP.                Deviated:  WELL TYPE
 COMP.     BP Exploration (Caspian Sea) Ltd.:  COMPANY
 UWI .                     N/A:  UNIQUE WELL IDENTIFIER
 API .                     N/A:  API NUMBER
 BASE.              Azerbaijan:  LOGGING EQUIPMENT BASE LOCATION
 REGN.                   EESSA:  REGION
 PROV.                    Baku:  PROVINCE
 STAT.                    Baku:  STATE NAME
 CTRY.              Azerbaijan:  COUNTRY NAME
 FLD .                     ACG:  FIELD NAME
 SRVC.     TURAN Drilling & Engineering:  CONTRACTOR
 MWDS.                    Baku:  MWD SHOP
 WELL.                     J22:  WELL NAME
 RIG .             West Chirag:  RIG NAME
 DOE .                     N/A:  DOE NUMBER
 DCON.         Sperry Drilling:  DIRECTNL CONTR
 UNIT.                     N/A:  LOGGING EQUIPMENT ID
 PDAT.          Mean Sea Level:  PERMANENT DATUM
 JOBN.        AZ-XX-0905059384:  JOB TICKET NUMB
 CNTY.                        :  COUNTY
 LOC .                        :  LOCATION
 LMF .             Drill Floor:  LOG MEASURED FROM
 TVDS.m                  43.00:  TVDSS CORRECTN
 LATI.deg                40.13:  LATITUDE
 LONG.deg                51.22:  LONGITUDE
 WHNS.m                  10.28:  WELL HEAD N/S
 WHEW.m                  -6.24:  WELL HEAD E/W
 UTMX.m              519005.06:  UTM X
 UTMY.m             4443793.85:  UTM Y
 DFWL.m                   0.00:  DISTANCE FWL
 DFSL.m                   0.00:  DISTANCE FSL
 SDEP.m                 362.00:  START DEPTH
 TDD .m                 904.00:  TOTAL DEPTH (DRILLER)
 VSDR.deg               148.53:  VERT SEC DIRECT
 GVFD.g                   1.00:  GRAVITY FIELD
 MFLD.nT              50277.00:  MAGNETIC FIELD
 MDIP.deg                59.56:  MAGNETIC DIP
 MDEC.deg                 6.42:  MAGNETIC DECL
 GRDC.deg                 0.15:  GRID CORRECTION
 AZTC.deg                 6.27:  AZM TOTAL CORR
 EPD .m                   0.00:  ELEVATION
 EGL .m                   0.00:  GROUND ELEVATION
 WDMS.m                 169.80:  WD ELEV
 APD .m                  43.00:  DEPTH ABOVE PD
 AGAP.m                  43.00:  AIR GAP
 VSEW.m                  -6.24:  VERT SEC E/W
 VSNS.m                  10.28:  VERT SEC N/S
 DEP .m                   0.00:  DEPTH
 EKB .m                   0.00:  KB ELEVATION
 EDF .m                  43.00:  DF ELEVATION
 TDL .m                1183.00:  TOTAL DEPTH (LOGGER)
 VSC .                       0:  VS TO CLOSURE
 MAGU.                 1850021:  MAGUTM CHECKSUM
~Parameter Information Block
#MNEM.UNIT       Value        Description
#---------     -----------    ---------------------------
 AV  .mps                 4.00:  Ann Velocity 
 AVMX.mps                 4.50:  Max Ann Veloc 
 AZIF.deg               145.38:  Azm, Final 
 BHAT.        Rotary Steerable:  BHA Type 
 BROT.°/30m               3.00:  Build Rotating 
 BS  .in                 12.25:  Bit Size 
 BSZ .in                 12.25:  Bit Size 
 BTPL.psig              650.00:  Bit Press Loss 
 CABU.                      No:  Customer Abuse 
 COMM.                     [:  Run Comments 1 
 TCS .hr                101.62:  Time Ciculation Ended 
 CV  .mps                 5.00:  Crit Velocity 
 CVMX.mps                 5.00:  Max Crit Veloc 
 DD1 .             Aziz Aliyev:  Direct Drillr 1 
 DD2 .      Fakhraddin Guliyev:  Direct Drillr 2 
 DDSV.                 iCruise:  DD Service 
 DEFF.%                  97.00:  % Det Eff 
 DLRX.°/30m               4.16:  Dogleg Rot Max 
 DLSO.°/30m               3.20:  Dogleg Oriented 
 DLSX.°/30m               4.10:  Dogleg Str Max 
 DRET.      23.12.00 07-Feb-20:  Drill End Time 
 DRST.      11.30.00 04-Feb-20:  Drill Start Tim 
 DTIM.hr                 61.06:  Time Drilling 
 EDEP.m                3219.01:  End Depth 
 ENG1.         Almaz Almadatov:  Engineer 1 
 ENG2.         Dair Mahammadov:  Engineer 2 
 ENG3.          Nazrin Asgarli:  Engineer 3 
 ETIM.      02.30.00 11-Feb-20:  End Time 
 FLOI.gpm              1100.00:  Flow In 
 FLON.gpm               900.00:  Flow In Min 
 FLOS.cptm               55.00:  Fluid Loss 
 FLOX.gpm              1150.00:  Flow In Max 
 FTRO.       Formation Presure:  FTWD Run Obj 
 HFLO.                      No:  High Flow 
 HPRE.                      No:  High Pressure 
 HTEM.                      No:  High Temp 
 HYDO.m                   1.80:  Hydro Offset 
 IFIN.deg                75.11:  Inc, Final 
 IMAX.deg                75.11:  Inc Max 
 IMIN.deg                33.55:  Inc Min 
 IMND.m                2186.05:  Inc Min Depth 
 IMXD.m                3205.61:  Inc Max Depth 
 JARR.                      No:  Jarring 
 LETM.      23.12.00 07-Feb-20:  Log End Time 
 LOST.hr                     0:  Lost Rig Time 
 LSTM.      11.30.00 04-Feb-20:  Log Start Time 
 MDCL.ppm             40000.00:  Mud Chlorides 
 MDES.     Inversion Oil/Synthetic:  Mud Desc 
 DFD .sg                  1.49:  Mud Density 
 MDMN.sg                  1.49:  Dens Mud Min 
 MDMX.sg                  1.49:  Dens Mud Max 
 MOIL.                      73:  Run Mud Oil % 
 MOWR.                   73:27:  Run Mud OWR 
 MSND.                     0.1:  Run Mud Sand % 
 MSOL.                    20.1:  Run Mud Solids% 
 DFV .spqt               78.00:  Mud Viscosity 
 MWOD.in                  8.00:  MWD Tool OD 
 MWSI.                      No:  Serv Intrp, MWD 
 OTIM.hr                177.15:  Time Operating 
 PCON.          Wear / Scratch:  Pad Condition 
 PMAX.psia            10493.93:  Press Op, Max 
 PV  .cP                 73.00:  Mud PV 
 RUN .                     700:  Run Number 
 ROPA.m/hr               15.00:  ROP Avg 
 ROPN.m/hr               10.00:  ROP Min 
 ROPX.m/hr               35.00:  ROP Max 
 RPMA.rpm               130.00:  RPM Surface Avg 
 RPMN.rpm                80.00:  RPM Surface Min 
 RPMX.rpm               150.00:  RPM Surface Max 
 RRUN.                    L402:  Rig Run Number 
 RTIM.hr                 80.50:  Time Reaming 
 SAZI.deg               155.55:  Azm, Start 
 SDEP.m                2036.00:  Start Depth 
 SIDD.                      No:  Serv Intrp, DD 
 SINC.deg                35.44:  Inc, Start 
 SPPA.psig             4270.00:  SPP Avg 
 SPPN.psig             2800.00:  SPP Min 
 SPPX.psig             4850.00:  SPP Max 
 STIM.      09.30.00 03-Feb-20:  Start Time 
 SVCS.                 DD, MWD:  Services 
 SVER.                    9.20:  Sperry Version 
 TDAT.m                1183.00:  Tot Depth Attmp 
 TDDF.                      No:  Trip for DD 
 TDLG.m                1183.00:  Tot Depth Loggd 
 TFF .                      No:  Trip for Fail 
 TQAA.f-kp               16.00:  Torque Abs Avg 
 TQAN.f-kp               10.00:  Torque Abs Min 
 TQAX.f-kp               20.00:  Torque Abs Max 
 TRRT.°/30m               1.00:  Turn Rotating 
 MRT .                  EWR-M5:  Maximum Recorded Temperature 
 TTMX.degC               80.39:  Max Tool Temp 
 VS01.               13098498 :  Virtual Str1 SN 
 VS02.                90569596:  Virtual Str2 SN 
 VS03.                90523599:  Virtual Str3 SN 
 VS04.                90573553:  Virtual Str4 SN 
 VS05.                90598598:  Virtual Str5 SN 
 VS06.                90577297:  Virtual Str6 SN 
 WBMN.klb                13.00:  WOB Min 
 WITN.         Alistair Sprott:  Customer Rep 
 WITN.           Rufat Babayev:  Customer Rep 2 
 WOBA.klb                15.00:  WOB Avg 
 WOBX.klb                20.00:  WOB Max 
 YP  .lhf2               39.00:  Yield Point 
~Curve Information Block
#MNEM.UNIT                 API CODE     Curve Description
#---------               -----------    ---------------------------
 TIME.HHMMSS            00 000 000 000:  GT Time & Date
 GTDEPTH.m              00 000 000 000:  GT Depth
 GTPQH.psia             00 000 000 000:  GT HR Quartz Pressure
 GTTQ.degC              00 000 000 000:  GT Quartz Temperature
 GTTN.NONE              00 000 000 000:  GT Test Number
 GTET.sec               00 000 000 000:  GT Elapsed Test Time
 GTTVD.m                00 000 000 000:  GT True Vertical Depth
#Other Information
#
#WARRANTY: Halliburton will use its best efforts to furnish customers with 
#accurate information and interpretations that are part of, and incident to, the services 
#provided.  However, Halliburton cannot and does not warrant the accuracy 
#or correctness of such information and interpretations.  Under no circumstances should any 
#such information or interpretation be relied upon as the sole basis for any drilling, 
#completion, production, or financial decision or any procedure involving any risk to the 
#safety of any drilling venture, drilling rig or its crew or any other third party.  The 
#Customer has full responsibility for all drilling, completion and production operation.  
#Halliburton makes no representations or warranties, either expressed or 
#implied, including, but not limited to, the implied warranties of merchantability or fitness 
#for a particular purpose, with respect to the services rendered.  In no event will 
#Halliburton be liable for failure to obtain any particular results or for 
#any damages, including, but not limited to, indirect, special or consequential damages, 
#resulting from the use of any information or interpretation provided by Halliburton.
#
~A           TIME           GTDEPTH  GTPQH  GTTQ  GTTN  GTET   GTTVD  
# ...
   08:42:59.637.08-Feb-2020 3153.01 5765.33 71.27 2.00  69.01 2652.69
   08:42:59.837.08-Feb-2020 3153.01 5765.33 71.27 2.00  69.21 2652.69
   08:43:00.037.08-Feb-2020 3153.01 5765.42 71.27 2.00  69.41 2652.69
   08:43:00.237.08-Feb-2020 3153.01 5765.51 71.27 2.00  69.61 2652.69
   08:43:00.437.08-Feb-2020 3153.01 5765.53 71.27 2.00  69.81 2652.69
   08:43:00.637.08-Feb-2020 3153.01 5764.53 71.27 2.00  70.01 2652.69
   08:43:00.837.08-Feb-2020 3153.01 5764.53 71.27 2.00  70.21 2652.69
   08:43:01.037.08-Feb-2020 3153.01 5763.59 71.27 2.00  70.41 2652.69
   08:43:01.237.08-Feb-2020 3153.01 5764.07 71.27 2.00  70.61 2652.69
   08:43:01.437.08-Feb-2020 3153.01 5770.73 71.27 2.00  70.81 2652.69
   08:43:01.637.08-Feb-2020 3153.01 5764.28 71.27 2.00  71.01 2652.69
   08:43:01.837.08-Feb-2020 3153.01 5764.28 71.27 2.00  71.21 2652.69
   08:43:02.037.08-Feb-2020 3153.01 5764.94 71.27 2.00  71.41 2652.69
   08:43:02.237.08-Feb-2020 3153.01 5765.65 71.27 2.00  71.61 2652.69
   08:43:02.437.08-Feb-2020 3153.01 5765.15 71.27 2.00  71.81 2652.69
   08:43:02.637.08-Feb-2020 3153.01 5764.50 71.27 2.00  72.01 2652.69
   08:43:02.837.08-Feb-2020 3153.01 5764.50 71.27 2.00  72.21 2652.69
   08:43:03.037.08-Feb-2020 3153.01 5765.86 71.27 2.00  72.41 2652.69
   08:43:03.237.08-Feb-2020 3153.01 5765.26 71.27 2.00  72.61 2652.69
   08:43:03.437.08-Feb-2020 3153.01 5765.08 71.27 2.00  72.81 2652.69
   08:43:03.637.08-Feb-2020 3153.01 5769.55 71.27 2.00  73.01 2652.69
   08:43:03.837.08-Feb-2020 3153.01 5769.55 71.27 2.00  73.21 2652.69
   08:43:04.037.08-Feb-2020 3153.01 5764.57 71.27 2.00  73.41 2652.69
   08:43:04.237.08-Feb-2020 3153.01 5769.53 71.27 2.00  73.61 2652.69
   08:43:04.437.08-Feb-2020 3153.01 5769.02 71.27 2.00  73.81 2652.69
   08:43:04.637.08-Feb-2020 3153.01 5765.07 71.26 2.00  74.01 2652.69
   08:43:04.837.08-Feb-2020 3153.01 5765.07 71.26 2.00  74.21 2652.69
   08:43:05.037.08-Feb-2020 3153.01 5767.06 71.26 2.00  74.41 2652.69
   08:43:05.237.08-Feb-2020 3153.01 5764.74 71.26 2.00  74.61 2652.69
   08:43:05.437.08-Feb-2020 3153.01 5765.91 71.26 2.00  74.81 2652.69
   08:43:05.637.08-Feb-2020 3153.01 5766.50 71.26 2.00  75.01 2652.69
   08:43:05.837.08-Feb-2020 3153.01 5766.50 71.26 2.00  75.21 2652.69
   08:43:06.037.08-Feb-2020 3153.01 5765.89 71.26 2.00  75.41 2652.69
   08:43:06.237.08-Feb-2020 3153.01 5764.79 71.26 2.00  75.61 2652.69
   08:43:06.437.08-Feb-2020 3153.01 5769.01 71.26 2.00  75.81 2652.69
   08:43:06.637.08-Feb-2020 3153.01 5768.25 71.26 2.00  76.01 2652.69
   08:43:06.838.08-Feb-2020 3153.01 5768.25 71.26 2.00  76.21 2652.69
   08:43:07.038.08-Feb-2020 3153.01 5766.82 71.26 2.00  76.41 2652.69
   08:43:07.238.08-Feb-2020 3153.01 5766.95 71.26 2.00  76.61 2652.69
   08:43:07.438.08-Feb-2020 3153.01 5766.30 71.26 2.00  76.81 2652.69
   08:43:07.638.08-Feb-2020 3153.01 5767.34 71.26 2.00  77.01 2652.69
   08:43:07.838.08-Feb-2020 3153.01 5767.34 71.26 2.00  77.21 2652.69
   08:43:08.038.08-Feb-2020 3153.01 5766.40 71.26 2.00  77.41 2652.69
   08:43:08.238.08-Feb-2020 3153.01 5766.23 71.26 2.00  77.61 2652.69
   08:43:08.438.08-Feb-2020 3153.01 5766.11 71.26 2.00  77.81 2652.69
   08:43:08.638.08-Feb-2020 3153.01 5771.21 71.26 2.00  78.01 2652.69
   08:43:08.838.08-Feb-2020 3153.01 5771.21 71.26 2.00  78.21 2652.69
   08:43:09.038.08-Feb-2020 3153.01 5765.52 71.26 2.00  78.41 2652.69
   08:43:09.238.08-Feb-2020 3153.01 5766.45 71.26 2.00  78.61 2652.69
   08:43:09.438.08-Feb-2020 3153.01 5767.15 71.26 2.00  78.81 2652.69
   08:43:09.638.08-Feb-2020 3153.01 5765.65 71.26 2.00  79.01 2652.69
   08:43:09.838.08-Feb-2020 3153.01 5765.65 71.26 2.00  79.21 2652.69
   08:43:10.038.08-Feb-2020 3153.01 5766.60 71.26 2.00  79.41 2652.69
   08:43:10.238.08-Feb-2020 3153.01 5765.84 71.26 2.00  79.61 2652.69
   08:43:10.438.08-Feb-2020 3153.01 5766.49 71.26 2.00  79.81 2652.69
   08:43:10.638.08-Feb-2020 3153.01 5765.96 71.26 2.00  80.01 2652.69
   08:43:10.838.08-Feb-2020 3153.01 5765.96 71.26 2.00  80.21 2652.69
   08:43:11.038.08-Feb-2020 3153.01 5767.56 71.26 2.00  80.41 2652.69
   08:43:11.238.08-Feb-2020 3153.01 5765.53 71.26 2.00  80.61 2652.69
   08:43:11.438.08-Feb-2020 3153.01 5769.42 71.26 2.00  80.81 2652.69
   08:43:11.638.08-Feb-2020 3153.01 5768.12 71.26 2.00  81.01 2652.69
   08:43:11.838.08-Feb-2020 3153.01 5768.12 71.26 2.00  81.21 2652.69
   08:43:12.038.08-Feb-2020 3153.01 5767.82 71.25 2.00  81.41 2652.69
   08:43:12.238.08-Feb-2020 3153.01 5768.83 71.25 2.00  81.61 2652.69
   08:43:12.438.08-Feb-2020 3153.01 5765.65 71.25 2.00  81.81 2652.69
   08:43:12.638.08-Feb-2020 3153.01 5767.63 71.25 2.00  82.01 2652.69
   08:43:12.838.08-Feb-2020 3153.01 5767.63 71.25 2.00  82.21 2652.69
   08:43:13.038.08-Feb-2020 3153.01 5765.99 71.25 2.00  82.41 2652.69
   08:43:13.238.08-Feb-2020 3153.01 5763.24 71.25 2.00  82.61 2652.69
   08:43:13.438.08-Feb-2020 3153.01 5769.17 71.25 2.00  82.81 2652.69
   08:43:13.638.08-Feb-2020 3153.01 5767.86 71.25 2.00  83.01 2652.69
   08:43:13.838.08-Feb-2020 3153.01 5767.86 71.25 2.00  83.21 2652.69
   08:43:14.038.08-Feb-2020 3153.01 5765.24 71.25 2.00  83.41 2652.69
   08:43:14.238.08-Feb-2020 3153.01 5767.21 71.25 2.00  83.61 2652.69
   08:43:14.438.08-Feb-2020 3153.01 5766.04 71.25 2.00  83.81 2652.69
   08:43:14.638.08-Feb-2020 3153.01 5765.92 71.25 2.00  84.01 2652.69
   08:43:14.838.08-Feb-2020 3153.01 5765.92 71.25 2.00  84.21 2652.69
   08:43:15.038.08-Feb-2020 3153.01 5766.61 71.25 2.00  84.41 2652.69
   08:43:15.238.08-Feb-2020 3153.01 5765.91 71.25 2.00  84.61 2652.69
   08:43:15.438.08-Feb-2020 3153.01 5766.47 71.25 2.00  84.81 2652.69
   08:43:15.638.08-Feb-2020 3153.01 5766.14 71.25 2.00  85.01 2652.69
   08:43:15.838.08-Feb-2020 3153.01 5766.14 71.25 2.00  85.21 2652.69
   08:43:16.038.08-Feb-2020 3153.01 5767.11 71.25 2.00  85.41 2652.69
   08:43:16.238.08-Feb-2020 3153.01 5765.49 71.25 2.00  85.61 2652.69
   08:43:16.438.08-Feb-2020 3153.01 5766.63 71.25 2.00  85.81 2652.69
   08:43:16.638.08-Feb-2020 3153.01 5766.64 71.25 2.00  86.01 2652.69
   08:43:16.838.08-Feb-2020 3153.01 5766.64 71.25 2.00  86.21 2652.69
   08:43:17.038.08-Feb-2020 3153.01 5767.20 71.25 2.00  86.41 2652.69
   08:43:17.238.08-Feb-2020 3153.01 5766.60 71.25 2.00  86.61 2652.69
   08:43:17.438.08-Feb-2020 3153.01 5765.98 71.25 2.00  86.81 2652.69
   08:43:17.638.08-Feb-2020 3153.01 5766.50 71.25 2.00  87.01 2652.69
   08:43:17.838.08-Feb-2020 3153.01 5766.50 71.25 2.00  87.21 2652.69
   08:43:18.038.08-Feb-2020 3153.01 5768.16 71.25 2.00  87.41 2652.69
   08:43:18.238.08-Feb-2020 3153.01 5764.70 71.25 2.00  87.61 2652.69
   08:43:18.438.08-Feb-2020 3153.01 5771.17 71.25 2.00  87.81 2652.69
   08:43:18.638.08-Feb-2020 3153.01 5767.25 71.25 2.00  88.01 2652.69
   08:43:18.839.08-Feb-2020 3153.01 5767.25 71.25 2.00  88.21 2652.69
   08:43:19.039.08-Feb-2020 3153.01 5764.89 71.24 2.00  88.41 2652.69
   08:43:19.239.08-Feb-2020 3153.01 5765.66 71.24 2.00  88.61 2652.69
   08:43:19.439.08-Feb-2020 3153.01 5769.08 71.24 2.00  88.81 2652.69
   08:43:19.639.08-Feb-2020 3153.01 5766.39 71.24 2.00  89.01 2652.69
   08:43:19.839.08-Feb-2020 3153.01 5766.39 71.24 2.00  89.21 2652.69
   08:43:20.039.08-Feb-2020 3153.01 5767.40 71.24 2.00  89.41 2652.69
   08:43:20.239.08-Feb-2020 3153.01 5765.66 71.24 2.00  89.61 2652.69
   08:43:20.439.08-Feb-2020 3153.01 5765.77 71.24 2.00  89.81 2652.69
   08:43:20.639.08-Feb-2020 3153.01 5768.54 71.24 2.00  90.01 2652.69
   08:43:20.839.08-Feb-2020 3153.01 5768.54 71.24 2.00  90.21 2652.69
   08:43:21.039.08-Feb-2020 3153.01 5764.55 71.24 2.00  90.41 2652.69
   08:43:21.239.08-Feb-2020 3153.01 5766.76 71.24 2.00  90.61 2652.69
   08:43:21.439.08-Feb-2020 3153.01 5767.81 71.24 2.00  90.81 2652.69
   08:43:21.639.08-Feb-2020 3153.01 5766.32 71.24 2.00  91.01 2652.69
   08:43:21.839.08-Feb-2020 3153.01 5766.32 71.24 2.00  91.21 2652.69
   08:43:22.039.08-Feb-2020 3153.01 5767.55 71.24 2.00  91.41 2652.69
   08:43:22.239.08-Feb-2020 3153.01 5766.70 71.24 2.00  91.61 2652.69
   08:43:22.439.08-Feb-2020 3153.01 5766.65 71.24 2.00  91.81 2652.69
