~Version Information
 VERS.                  2.0:   CWLS log ASCII Standard -VERSION 2.0
 WRAP.                   NO:   One line per depth step
~Well Information Block
#MNEM.UNIT     VALUE/NAME     DESCRIPTION
#---------     -----------    ---------------------------
 STRT.S             09:27:25 08-Feb-20: START TIME 09:27:25 08-Feb-20
 STOP.S             09:34:14 08-Feb-20: STOP TIME  09:34:14 08-Feb-20
 STEP.S                   0.00: STEP TIME
 NULL.                 -999.25: NULL VALUE
 DFWT.                        :  DIST FWL TEXT
 DFST.                        :  DIST FSL TEXT
 DMF .             Drill Floor:  DRILL MEAS FROM
 STIM.      07.00.00 09-Jan-20:  START TIME
 DATE.      14.04.48 07-Feb-20:  END TIME
 SPUD.               09-Jan-20:  SPUD DATE
 NREF.                    Grid:  NORTH REFERENCE
 HPTY.       Minimum Curvature:  HOLE POS TYPE
 DMOD.             Drill Model:  DRILL MOD DESC
 SVYD.                  Survey:  SURVEY DESC
 ILTD.               Lithology:  INTERP LTH DESC
 FTOP.          Formation Tops:  FORM TOPS DESC
 SON .        AZ-XX-0905059384:  JOB NUMBER
 MDS .        Operator Entered:  MAG DATA SOURCE
 WTYP.                Deviated:  WELL TYPE
 COMP.     BP Exploration (Caspian Sea) Ltd.:  COMPANY
 UWI .                     N/A:  UNIQUE WELL IDENTIFIER
 API .                     N/A:  API NUMBER
 BASE.              Azerbaijan:  LOGGING EQUIPMENT BASE LOCATION
 REGN.                   EESSA:  REGION
 PROV.                    Baku:  PROVINCE
 STAT.                    Baku:  STATE NAME
 CTRY.              Azerbaijan:  COUNTRY NAME
 FLD .                     ACG:  FIELD NAME
 SRVC.     TURAN Drilling & Engineering:  CONTRACTOR
 MWDS.                    Baku:  MWD SHOP
 WELL.                     J22:  WELL NAME
 RIG .             West Chirag:  RIG NAME
 DOE .                     N/A:  DOE NUMBER
 DCON.         Sperry Drilling:  DIRECTNL CONTR
 UNIT.                     N/A:  LOGGING EQUIPMENT ID
 PDAT.          Mean Sea Level:  PERMANENT DATUM
 JOBN.        AZ-XX-0905059384:  JOB TICKET NUMB
 CNTY.                        :  COUNTY
 LOC .                        :  LOCATION
 LMF .             Drill Floor:  LOG MEASURED FROM
 TVDS.m                  43.00:  TVDSS CORRECTN
 LATI.deg                40.13:  LATITUDE
 LONG.deg                51.22:  LONGITUDE
 WHNS.m                  10.28:  WELL HEAD N/S
 WHEW.m                  -6.24:  WELL HEAD E/W
 UTMX.m              519005.06:  UTM X
 UTMY.m             4443793.85:  UTM Y
 DFWL.m                   0.00:  DISTANCE FWL
 DFSL.m                   0.00:  DISTANCE FSL
 SDEP.m                 362.00:  START DEPTH
 TDD .m                 904.00:  TOTAL DEPTH (DRILLER)
 VSDR.deg               148.53:  VERT SEC DIRECT
 GVFD.g                   1.00:  GRAVITY FIELD
 MFLD.nT              50277.00:  MAGNETIC FIELD
 MDIP.deg                59.56:  MAGNETIC DIP
 MDEC.deg                 6.42:  MAGNETIC DECL
 GRDC.deg                 0.15:  GRID CORRECTION
 AZTC.deg                 6.27:  AZM TOTAL CORR
 EPD .m                   0.00:  ELEVATION
 EGL .m                   0.00:  GROUND ELEVATION
 WDMS.m                 169.80:  WD ELEV
 APD .m                  43.00:  DEPTH ABOVE PD
 AGAP.m                  43.00:  AIR GAP
 VSEW.m                  -6.24:  VERT SEC E/W
 VSNS.m                  10.28:  VERT SEC N/S
 DEP .m                   0.00:  DEPTH
 EKB .m                   0.00:  KB ELEVATION
 EDF .m                  43.00:  DF ELEVATION
 TDL .m                1183.00:  TOTAL DEPTH (LOGGER)
 VSC .                       0:  VS TO CLOSURE
 MAGU.                 1850021:  MAGUTM CHECKSUM
~Parameter Information Block
#MNEM.UNIT       Value        Description
#---------     -----------    ---------------------------
 AV  .mps                 4.00:  Ann Velocity 
 AVMX.mps                 4.50:  Max Ann Veloc 
 AZIF.deg               145.38:  Azm, Final 
 BHAT.        Rotary Steerable:  BHA Type 
 BROT.∞/30m               3.00:  Build Rotating 
 BS  .in                 12.25:  Bit Size 
 BSZ .in                 12.25:  Bit Size 
 BTPL.psig              650.00:  Bit Press Loss 
 CABU.                      No:  Customer Abuse 
 COMM.                     $ÊW:  Run Comments 1 
 TCS .hr                101.62:  Time Ciculation Ended 
 CV  .mps                 5.00:  Crit Velocity 
 CVMX.mps                 5.00:  Max Crit Veloc 
 DD1 .             Aziz Aliyev:  Direct Drillr 1 
 DD2 .      Fakhraddin Guliyev:  Direct Drillr 2 
 DDSV.                 iCruise:  DD Service 
 DEFF.%                  97.00:  % Det Eff 
 DLRX.∞/30m               4.16:  Dogleg Rot Max 
 DLSO.∞/30m               3.20:  Dogleg Oriented 
 DLSX.∞/30m               4.10:  Dogleg Str Max 
 DRET.      23.12.00 07-Feb-20:  Drill End Time 
 DRST.      11.30.00 04-Feb-20:  Drill Start Tim 
 DTIM.hr                 61.06:  Time Drilling 
 EDEP.m                3219.01:  End Depth 
 ENG1.         Almaz Almadatov:  Engineer 1 
 ENG2.         Dair Mahammadov:  Engineer 2 
 ENG3.          Nazrin Asgarli:  Engineer 3 
 ETIM.      02.30.00 11-Feb-20:  End Time 
 FLOI.gpm              1100.00:  Flow In 
 FLON.gpm               900.00:  Flow In Min 
 FLOS.cptm               55.00:  Fluid Loss 
 FLOX.gpm              1150.00:  Flow In Max 
 FTRO.       Formation Presure:  FTWD Run Obj 
 HFLO.                      No:  High Flow 
 HPRE.                      No:  High Pressure 
 HTEM.                      No:  High Temp 
 HYDO.m                   1.80:  Hydro Offset 
 IFIN.deg                75.11:  Inc, Final 
 IMAX.deg                75.11:  Inc Max 
 IMIN.deg                33.55:  Inc Min 
 IMND.m                2186.05:  Inc Min Depth 
 IMXD.m                3205.61:  Inc Max Depth 
 JARR.                      No:  Jarring 
 LETM.      23.12.00 07-Feb-20:  Log End Time 
 LOST.hr                     0:  Lost Rig Time 
 LSTM.      11.30.00 04-Feb-20:  Log Start Time 
 MDCL.ppm             40000.00:  Mud Chlorides 
 MDES.     Inversion Oil/Synthetic:  Mud Desc 
 DFD .sg                  1.49:  Mud Density 
 MDMN.sg                  1.49:  Dens Mud Min 
 MDMX.sg                  1.49:  Dens Mud Max 
 MOIL.                      73:  Run Mud Oil % 
 MOWR.                   73:27:  Run Mud OWR 
 MSND.                     0.1:  Run Mud Sand % 
 MSOL.                    20.1:  Run Mud Solids% 
 DFV .spqt               78.00:  Mud Viscosity 
 MWOD.in                  8.00:  MWD Tool OD 
 MWSI.                      No:  Serv Intrp, MWD 
 OTIM.hr                177.15:  Time Operating 
 PCON.          Wear / Scratch:  Pad Condition 
 PMAX.psia            10493.93:  Press Op, Max 
 PV  .cP                 73.00:  Mud PV 
 RUN .                     700:  Run Number 
 ROPA.m/hr               15.00:  ROP Avg 
 ROPN.m/hr               10.00:  ROP Min 
 ROPX.m/hr               35.00:  ROP Max 
 RPMA.rpm               130.00:  RPM Surface Avg 
 RPMN.rpm                80.00:  RPM Surface Min 
 RPMX.rpm               150.00:  RPM Surface Max 
 RRUN.                    L402:  Rig Run Number 
 RTIM.hr                 80.50:  Time Reaming 
 SAZI.deg               155.55:  Azm, Start 
 SDEP.m                2036.00:  Start Depth 
 SIDD.                      No:  Serv Intrp, DD 
 SINC.deg                35.44:  Inc, Start 
 SPPA.psig             4270.00:  SPP Avg 
 SPPN.psig             2800.00:  SPP Min 
 SPPX.psig             4850.00:  SPP Max 
 STIM.      09.30.00 03-Feb-20:  Start Time 
 SVCS.                 DD, MWD:  Services 
 SVER.                    9.20:  Sperry Version 
 TDAT.m                1183.00:  Tot Depth Attmp 
 TDDF.                      No:  Trip for DD 
 TDLG.m                1183.00:  Tot Depth Loggd 
 TFF .                      No:  Trip for Fail 
 TQAA.f-kp               16.00:  Torque Abs Avg 
 TQAN.f-kp               10.00:  Torque Abs Min 
 TQAX.f-kp               20.00:  Torque Abs Max 
 TRRT.∞/30m               1.00:  Turn Rotating 
 MRT .                  EWR-M5:  Maximum Recorded Temperature 
 TTMX.degC               80.39:  Max Tool Temp 
 VS01.               13098498 :  Virtual Str1 SN 
 VS02.                90569596:  Virtual Str2 SN 
 VS03.                90523599:  Virtual Str3 SN 
 VS04.                90573553:  Virtual Str4 SN 
 VS05.                90598598:  Virtual Str5 SN 
 VS06.                90577297:  Virtual Str6 SN 
 WBMN.klb                13.00:  WOB Min 
 WITN.         Alistair Sprott:  Customer Rep 
 WITN.           Rufat Babayev:  Customer Rep 2 
 WOBA.klb                15.00:  WOB Avg 
 WOBX.klb                20.00:  WOB Max 
 YP  .lhf2               39.00:  Yield Point 
~Curve Information Block
#MNEM.UNIT                 API CODE     Curve Description
#---------               -----------    ---------------------------
 TIME.HHMMSS            00 000 000 000:  GT Time & Date
 GTDEPTH.m              00 000 000 000:  GT Depth
 GTPQH.psia             00 000 000 000:  GT HR Quartz Pressure
 GTTQ.degC              00 000 000 000:  GT Quartz Temperature
 GTTN.NONE              00 000 000 000:  GT Test Number
 GTET.sec               00 000 000 000:  GT Elapsed Test Time
 GTTVD.m                00 000 000 000:  GT True Vertical Depth
#Other Information
#
#WARRANTY: Halliburton will use its best efforts to furnish customers with 
#accurate information and interpretations that are part of, and incident to, the services 
#provided.  However, Halliburton cannot and does not warrant the accuracy 
#or correctness of such information and interpretations.  Under no circumstances should any 
#such information or interpretation be relied upon as the sole basis for any drilling, 
#completion, production, or financial decision or any procedure involving any risk to the 
#safety of any drilling venture, drilling rig or its crew or any other third party.  The 
#Customer has full responsibility for all drilling, completion and production operation.  
#Halliburton makes no representations or warranties, either expressed or 
#implied, including, but not limited to, the implied warranties of merchantability or fitness 
#for a particular purpose, with respect to the services rendered.  In no event will 
#Halliburton be liable for failure to obtain any particular results or for 
#any damages, including, but not limited to, indirect, special or consequential damages, 
#resulting from the use of any information or interpretation provided by Halliburton.
#
~A           TIME           GTDEPTH  GTPQH  GTTQ  GTTN  GTET   GTTVD  
# ...
   09:32:47.887.08-Feb-2020 3135.01 4727.80 69.11 4.00 322.03 2647.94
   09:32:48.087.08-Feb-2020 3135.01 4727.80 69.11 4.00 322.23 2647.94
   09:32:48.287.08-Feb-2020 3135.01 4728.77 69.11 4.00 322.43 2647.94
   09:32:48.487.08-Feb-2020 3135.01 4726.76 69.11 4.00 322.63 2647.94
   09:32:48.687.08-Feb-2020 3135.01 4727.69 69.11 4.00 322.83 2647.94
   09:32:48.887.08-Feb-2020 3135.01 4728.25 69.11 4.00 323.03 2647.94
   09:32:49.087.08-Feb-2020 3135.01 4728.25 69.11 4.00 323.23 2647.94
   09:32:49.287.08-Feb-2020 3135.01 4728.25 69.11 4.00 323.43 2647.94
   09:32:49.487.08-Feb-2020 3135.01 4728.20 69.11 4.00 323.63 2647.94
   09:32:49.687.08-Feb-2020 3135.01 4727.77 69.11 4.00 323.83 2647.94
   09:32:49.887.08-Feb-2020 3135.01 4728.37 69.11 4.00 324.03 2647.94
   09:32:50.087.08-Feb-2020 3135.01 4728.37 69.11 4.00 324.23 2647.94
   09:32:50.287.08-Feb-2020 3135.01 4727.88 69.11 4.00 324.43 2647.94
   09:32:50.487.08-Feb-2020 3135.01 4729.18 69.11 4.00 324.63 2647.94
   09:32:50.687.08-Feb-2020 3135.01 4727.56 69.11 4.00 324.83 2647.94
   09:32:50.887.08-Feb-2020 3135.01 4728.64 69.11 4.00 325.03 2647.94
   09:32:51.088.08-Feb-2020 3135.01 4728.64 69.11 4.00 325.23 2647.94
   09:32:51.288.08-Feb-2020 3135.01 4727.88 69.11 4.00 325.43 2647.94
   09:32:51.488.08-Feb-2020 3135.01 4728.33 69.11 4.00 325.63 2647.94
   09:32:51.688.08-Feb-2020 3135.01 4728.93 69.11 4.00 325.83 2647.94
   09:32:51.888.08-Feb-2020 3135.01 4727.53 69.11 4.00 326.03 2647.94
   09:32:52.088.08-Feb-2020 3135.01 4727.53 69.11 4.00 326.23 2647.94
   09:32:52.288.08-Feb-2020 3135.01 4728.31 69.11 4.00 326.43 2647.94
   09:32:52.488.08-Feb-2020 3135.01 4727.92 69.11 4.00 326.63 2647.94
   09:32:52.688.08-Feb-2020 3135.01 4727.86 69.11 4.00 326.83 2647.94
   09:32:52.888.08-Feb-2020 3135.01 4727.92 69.11 4.00 327.03 2647.94
   09:32:53.088.08-Feb-2020 3135.01 4727.92 69.11 4.00 327.23 2647.94
   09:32:53.288.08-Feb-2020 3135.01 4727.82 69.11 4.00 327.43 2647.94
   09:32:53.488.08-Feb-2020 3135.01 4727.98 69.11 4.00 327.63 2647.94
   09:32:53.688.08-Feb-2020 3135.01 4727.51 69.11 4.00 327.83 2647.94
   09:32:53.888.08-Feb-2020 3135.01 4728.61 69.11 4.00 328.03 2647.94
   09:32:54.088.08-Feb-2020 3135.01 4728.61 69.11 4.00 328.23 2647.94
   09:32:54.288.08-Feb-2020 3135.01 4727.74 69.11 4.00 328.43 2647.94
   09:32:54.488.08-Feb-2020 3135.01 4728.17 69.11 4.00 328.63 2647.94
   09:32:54.688.08-Feb-2020 3135.01 4728.16 69.11 4.00 328.83 2647.94
   09:32:54.888.08-Feb-2020 3135.01 4727.75 69.11 4.00 329.03 2647.94
   09:32:55.088.08-Feb-2020 3135.01 4727.75 69.11 4.00 329.23 2647.94
   09:32:55.288.08-Feb-2020 3135.01 4728.01 69.11 4.00 329.43 2647.94
   09:32:55.488.08-Feb-2020 3135.01 4727.79 69.11 4.00 329.63 2647.94
   09:32:55.688.08-Feb-2020 3135.01 4728.75 69.11 4.00 329.83 2647.94
   09:32:55.888.08-Feb-2020 3135.01 4727.66 69.10 4.00 330.03 2647.94
   09:32:56.088.08-Feb-2020 3135.01 4727.66 69.10 4.00 330.23 2647.94
   09:32:56.288.08-Feb-2020 3135.01 4729.00 69.10 4.00 330.43 2647.94
   09:32:56.488.08-Feb-2020 3135.01 4727.27 69.10 4.00 330.63 2647.94
   09:32:56.688.08-Feb-2020 3135.01 4727.48 69.10 4.00 330.83 2647.94
   09:32:56.888.08-Feb-2020 3135.01 4728.10 69.10 4.00 331.03 2647.94
   09:32:57.088.08-Feb-2020 3135.01 4728.10 69.10 4.00 331.23 2647.94
   09:32:57.288.08-Feb-2020 3135.01 4728.56 69.10 4.00 331.43 2647.94
   09:32:57.488.08-Feb-2020 3135.01 4727.57 69.10 4.00 331.63 2647.94
   09:32:57.688.08-Feb-2020 3135.01 4727.97 69.10 4.00 331.83 2647.94
   09:32:57.888.08-Feb-2020 3135.01 4728.18 69.10 4.00 332.03 2647.94
   09:32:58.088.08-Feb-2020 3135.01 4728.18 69.10 4.00 332.23 2647.94
   09:32:58.288.08-Feb-2020 3135.01 4728.37 69.10 4.00 332.43 2647.94
   09:32:58.488.08-Feb-2020 3135.01 4727.57 69.10 4.00 332.63 2647.94
   09:32:58.688.08-Feb-2020 3135.01 4729.32 69.10 4.00 332.83 2647.94
   09:32:58.888.08-Feb-2020 3135.01 4727.29 69.10 4.00 333.03 2647.94
   09:32:59.088.08-Feb-2020 3135.01 4727.29 69.10 4.00 333.23 2647.94
   09:32:59.288.08-Feb-2020 3135.01 4728.08 69.10 4.00 333.43 2647.94
   09:32:59.488.08-Feb-2020 3135.01 4727.91 69.10 4.00 333.63 2647.94
   09:32:59.688.08-Feb-2020 3135.01 4727.82 69.10 4.00 333.83 2647.94
   09:32:59.888.08-Feb-2020 3135.01 4728.20 69.10 4.00 334.03 2647.94
   09:33:00.088.08-Feb-2020 3135.01 4728.20 69.10 4.00 334.23 2647.94
   09:33:00.288.08-Feb-2020 3135.01 4727.78 69.10 4.00 334.43 2647.94
   09:33:00.488.08-Feb-2020 3135.01 4727.90 69.10 4.00 334.63 2647.94
   09:33:00.688.08-Feb-2020 3135.01 4727.93 69.10 4.00 334.83 2647.94
   09:33:00.888.08-Feb-2020 3135.01 4727.90 69.10 4.00 335.03 2647.94
   09:33:01.088.08-Feb-2020 3135.01 4727.90 69.10 4.00 335.23 2647.94
   09:33:01.288.08-Feb-2020 3135.01 4728.20 69.10 4.00 335.43 2647.94
   09:33:01.488.08-Feb-2020 3135.01 4727.60 69.10 4.00 335.63 2647.94
   09:33:01.688.08-Feb-2020 3135.01 4728.48 69.10 4.00 335.83 2647.94
   09:33:01.888.08-Feb-2020 3135.01 4728.37 69.10 4.00 336.03 2647.94
   09:33:02.088.08-Feb-2020 3135.01 4728.37 69.10 4.00 336.23 2647.94
   09:33:02.288.08-Feb-2020 3135.01 4728.03 69.10 4.00 336.43 2647.94
   09:33:02.488.08-Feb-2020 3135.01 4728.45 69.10 4.00 336.63 2647.94
   09:33:02.688.08-Feb-2020 3135.01 4728.17 69.10 4.00 336.83 2647.94
   09:33:02.888.08-Feb-2020 3135.01 4728.14 69.10 4.00 337.03 2647.94
   09:33:03.089.08-Feb-2020 3135.01 4728.14 69.10 4.00 337.23 2647.94
   09:33:03.289.08-Feb-2020 3135.01 4728.04 69.10 4.00 337.43 2647.94
   09:33:03.489.08-Feb-2020 3135.01 4728.30 69.10 4.00 337.63 2647.94
   09:33:03.689.08-Feb-2020 3135.01 4727.37 69.10 4.00 337.83 2647.94
   09:33:03.889.08-Feb-2020 3135.01 4728.58 69.10 4.00 338.03 2647.94
   09:33:04.089.08-Feb-2020 3135.01 4728.58 69.10 4.00 338.23 2647.94
   09:33:04.289.08-Feb-2020 3135.01 4728.55 69.10 4.00 338.43 2647.94
   09:33:04.489.08-Feb-2020 3135.01 4728.05 69.10 4.00 338.63 2647.94
   09:33:04.689.08-Feb-2020 3135.01 4727.67 69.10 4.00 338.83 2647.94
   09:33:04.889.08-Feb-2020 3135.01 4727.66 69.10 4.00 339.03 2647.94
   09:33:05.089.08-Feb-2020 3135.01 4727.66 69.10 4.00 339.23 2647.94
   09:33:05.289.08-Feb-2020 3135.01 4727.87 69.10 4.00 339.43 2647.94
   09:33:05.489.08-Feb-2020 3135.01 4728.28 69.10 4.00 339.63 2647.94
   09:33:05.689.08-Feb-2020 3135.01 4728.57 69.10 4.00 339.83 2647.94
   09:33:05.889.08-Feb-2020 3135.01 4727.82 69.10 4.00 340.03 2647.94
   09:33:06.089.08-Feb-2020 3135.01 4727.82 69.10 4.00 340.23 2647.94
   09:33:06.289.08-Feb-2020 3135.01 4728.45 69.10 4.00 340.43 2647.94
   09:33:06.489.08-Feb-2020 3135.01 4727.79 69.10 4.00 340.63 2647.94
   09:33:06.689.08-Feb-2020 3135.01 4727.84 69.10 4.00 340.83 2647.94
   09:33:06.889.08-Feb-2020 3135.01 4728.46 69.10 4.00 341.03 2647.94
   09:33:07.089.08-Feb-2020 3135.01 4728.46 69.10 4.00 341.23 2647.94
   09:33:07.289.08-Feb-2020 3135.01 4728.00 69.10 4.00 341.43 2647.94
   09:33:07.489.08-Feb-2020 3135.01 4728.11 69.10 4.00 341.63 2647.94
   09:33:07.689.08-Feb-2020 3135.01 4727.91 69.10 4.00 341.83 2647.94
   09:33:07.889.08-Feb-2020 3135.01 4727.84 69.10 4.00 342.03 2647.94
   09:33:08.089.08-Feb-2020 3135.01 4727.84 69.10 4.00 342.23 2647.94
   09:33:08.289.08-Feb-2020 3135.01 4727.88 69.10 4.00 342.43 2647.94
   09:33:08.489.08-Feb-2020 3135.01 4727.93 69.10 4.00 342.63 2647.94
   09:33:08.689.08-Feb-2020 3135.01 4728.80 69.10 4.00 342.83 2647.94
   09:33:08.889.08-Feb-2020 3135.01 4727.73 69.10 4.00 343.03 2647.94
   09:33:09.089.08-Feb-2020 3135.01 4727.73 69.10 4.00 343.23 2647.94
   09:33:09.289.08-Feb-2020 3135.01 4728.47 69.10 4.00 343.43 2647.94
   09:33:09.489.08-Feb-2020 3135.01 4727.95 69.10 4.00 343.63 2647.94
   09:33:09.689.08-Feb-2020 3135.01 4727.91 69.10 4.00 343.83 2647.94
   09:33:09.889.08-Feb-2020 3135.01 4728.11 69.10 4.00 344.03 2647.94
   09:33:10.089.08-Feb-2020 3135.01 4728.11 69.10 4.00 344.23 2647.94
   09:33:10.289.08-Feb-2020 3135.01 4727.87 69.10 4.00 344.43 2647.94
   09:33:10.489.08-Feb-2020 3135.01 4729.06 69.10 4.00 344.63 2647.94
   09:33:10.689.08-Feb-2020 3135.01 4727.22 69.10 4.00 344.83 2647.94
