~Version Information
 VERS.                  2.0:   CWLS log ASCII Standard -VERSION 2.0
 WRAP.                   NO:   One line per depth step
~Well Information Block
#MNEM.UNIT     VALUE/NAME     DESCRIPTION
#---------     -----------    ---------------------------
 STRT.S             11:02:51 08-Feb-20: START TIME 11:02:51 08-Feb-20
 STOP.S             11:09:43 08-Feb-20: STOP TIME  11:09:43 08-Feb-20
 STEP.S                   0.00: STEP TIME
 NULL.                 -999.25: NULL VALUE
 DFWT.                        :  DIST FWL TEXT
 DFST.                        :  DIST FSL TEXT
 DMF .             Drill Floor:  DRILL MEAS FROM
 STIM.      07.00.00 09-Jan-20:  START TIME
 DATE.      14.04.48 07-Feb-20:  END TIME
 SPUD.               09-Jan-20:  SPUD DATE
 NREF.                    Grid:  NORTH REFERENCE
 HPTY.       Minimum Curvature:  HOLE POS TYPE
 DMOD.             Drill Model:  DRILL MOD DESC
 SVYD.                  Survey:  SURVEY DESC
 ILTD.               Lithology:  INTERP LTH DESC
 FTOP.          Formation Tops:  FORM TOPS DESC
 SON .        AZ-XX-0905059384:  JOB NUMBER
 MDS .        Operator Entered:  MAG DATA SOURCE
 WTYP.                Deviated:  WELL TYPE
 COMP.     BP Exploration (Caspian Sea) Ltd.:  COMPANY
 UWI .                     N/A:  UNIQUE WELL IDENTIFIER
 API .                     N/A:  API NUMBER
 BASE.              Azerbaijan:  LOGGING EQUIPMENT BASE LOCATION
 REGN.                   EESSA:  REGION
 PROV.                    Baku:  PROVINCE
 STAT.                    Baku:  STATE NAME
 CTRY.              Azerbaijan:  COUNTRY NAME
 FLD .                     ACG:  FIELD NAME
 SRVC.     TURAN Drilling & Engineering:  CONTRACTOR
 MWDS.                    Baku:  MWD SHOP
 WELL.                     J22:  WELL NAME
 RIG .             West Chirag:  RIG NAME
 DOE .                     N/A:  DOE NUMBER
 DCON.         Sperry Drilling:  DIRECTNL CONTR
 UNIT.                     N/A:  LOGGING EQUIPMENT ID
 PDAT.          Mean Sea Level:  PERMANENT DATUM
 JOBN.        AZ-XX-0905059384:  JOB TICKET NUMB
 CNTY.                        :  COUNTY
 LOC .                        :  LOCATION
 LMF .             Drill Floor:  LOG MEASURED FROM
 TVDS.m                  43.00:  TVDSS CORRECTN
 LATI.deg                40.13:  LATITUDE
 LONG.deg                51.22:  LONGITUDE
 WHNS.m                  10.28:  WELL HEAD N/S
 WHEW.m                  -6.24:  WELL HEAD E/W
 UTMX.m              519005.06:  UTM X
 UTMY.m             4443793.85:  UTM Y
 DFWL.m                   0.00:  DISTANCE FWL
 DFSL.m                   0.00:  DISTANCE FSL
 SDEP.m                 362.00:  START DEPTH
 TDD .m                 904.00:  TOTAL DEPTH (DRILLER)
 VSDR.deg               148.53:  VERT SEC DIRECT
 GVFD.g                   1.00:  GRAVITY FIELD
 MFLD.nT              50277.00:  MAGNETIC FIELD
 MDIP.deg                59.56:  MAGNETIC DIP
 MDEC.deg                 6.42:  MAGNETIC DECL
 GRDC.deg                 0.15:  GRID CORRECTION
 AZTC.deg                 6.27:  AZM TOTAL CORR
 EPD .m                   0.00:  ELEVATION
 EGL .m                   0.00:  GROUND ELEVATION
 WDMS.m                 169.80:  WD ELEV
 APD .m                  43.00:  DEPTH ABOVE PD
 AGAP.m                  43.00:  AIR GAP
 VSEW.m                  -6.24:  VERT SEC E/W
 VSNS.m                  10.28:  VERT SEC N/S
 DEP .m                   0.00:  DEPTH
 EKB .m                   0.00:  KB ELEVATION
 EDF .m                  43.00:  DF ELEVATION
 TDL .m                1183.00:  TOTAL DEPTH (LOGGER)
 VSC .                       0:  VS TO CLOSURE
 MAGU.                 1850021:  MAGUTM CHECKSUM
~Parameter Information Block
#MNEM.UNIT       Value        Description
#---------     -----------    ---------------------------
 AV  .mps                 4.00:  Ann Velocity 
 AVMX.mps                 4.50:  Max Ann Veloc 
 AZIF.deg               145.38:  Azm, Final 
 BHAT.        Rotary Steerable:  BHA Type 
 BROT.°/30m               3.00:  Build Rotating 
 BS  .in                 12.25:  Bit Size 
 BSZ .in                 12.25:  Bit Size 
 BTPL.psig              650.00:  Bit Press Loss 
 CABU.                      No:  Customer Abuse 
 COMM.                     Ä%€:  Run Comments 1 
 TCS .hr                101.62:  Time Ciculation Ended 
 CV  .mps                 5.00:  Crit Velocity 
 CVMX.mps                 5.00:  Max Crit Veloc 
 DD1 .             Aziz Aliyev:  Direct Drillr 1 
 DD2 .      Fakhraddin Guliyev:  Direct Drillr 2 
 DDSV.                 iCruise:  DD Service 
 DEFF.%                  97.00:  % Det Eff 
 DLRX.°/30m               4.16:  Dogleg Rot Max 
 DLSO.°/30m               3.20:  Dogleg Oriented 
 DLSX.°/30m               4.10:  Dogleg Str Max 
 DRET.      23.12.00 07-Feb-20:  Drill End Time 
 DRST.      11.30.00 04-Feb-20:  Drill Start Tim 
 DTIM.hr                 61.06:  Time Drilling 
 EDEP.m                3219.01:  End Depth 
 ENG1.         Almaz Almadatov:  Engineer 1 
 ENG2.         Dair Mahammadov:  Engineer 2 
 ENG3.          Nazrin Asgarli:  Engineer 3 
 ETIM.      02.30.00 11-Feb-20:  End Time 
 FLOI.gpm              1100.00:  Flow In 
 FLON.gpm               900.00:  Flow In Min 
 FLOS.cptm               55.00:  Fluid Loss 
 FLOX.gpm              1150.00:  Flow In Max 
 FTRO.       Formation Presure:  FTWD Run Obj 
 HFLO.                      No:  High Flow 
 HPRE.                      No:  High Pressure 
 HTEM.                      No:  High Temp 
 HYDO.m                   1.80:  Hydro Offset 
 IFIN.deg                75.11:  Inc, Final 
 IMAX.deg                75.11:  Inc Max 
 IMIN.deg                33.55:  Inc Min 
 IMND.m                2186.05:  Inc Min Depth 
 IMXD.m                3205.61:  Inc Max Depth 
 JARR.                      No:  Jarring 
 LETM.      23.12.00 07-Feb-20:  Log End Time 
 LOST.hr                     0:  Lost Rig Time 
 LSTM.      11.30.00 04-Feb-20:  Log Start Time 
 MDCL.ppm             40000.00:  Mud Chlorides 
 MDES.     Inversion Oil/Synthetic:  Mud Desc 
 DFD .sg                  1.49:  Mud Density 
 MDMN.sg                  1.49:  Dens Mud Min 
 MDMX.sg                  1.49:  Dens Mud Max 
 MOIL.                      73:  Run Mud Oil % 
 MOWR.                   73:27:  Run Mud OWR 
 MSND.                     0.1:  Run Mud Sand % 
 MSOL.                    20.1:  Run Mud Solids% 
 DFV .spqt               78.00:  Mud Viscosity 
 MWOD.in                  8.00:  MWD Tool OD 
 MWSI.                      No:  Serv Intrp, MWD 
 OTIM.hr                177.15:  Time Operating 
 PCON.          Wear / Scratch:  Pad Condition 
 PMAX.psia            10493.93:  Press Op, Max 
 PV  .cP                 73.00:  Mud PV 
 RUN .                     700:  Run Number 
 ROPA.m/hr               15.00:  ROP Avg 
 ROPN.m/hr               10.00:  ROP Min 
 ROPX.m/hr               35.00:  ROP Max 
 RPMA.rpm               130.00:  RPM Surface Avg 
 RPMN.rpm                80.00:  RPM Surface Min 
 RPMX.rpm               150.00:  RPM Surface Max 
 RRUN.                    L402:  Rig Run Number 
 RTIM.hr                 80.50:  Time Reaming 
 SAZI.deg               155.55:  Azm, Start 
 SDEP.m                2036.00:  Start Depth 
 SIDD.                      No:  Serv Intrp, DD 
 SINC.deg                35.44:  Inc, Start 
 SPPA.psig             4270.00:  SPP Avg 
 SPPN.psig             2800.00:  SPP Min 
 SPPX.psig             4850.00:  SPP Max 
 STIM.      09.30.00 03-Feb-20:  Start Time 
 SVCS.                 DD, MWD:  Services 
 SVER.                    9.20:  Sperry Version 
 TDAT.m                1183.00:  Tot Depth Attmp 
 TDDF.                      No:  Trip for DD 
 TDLG.m                1183.00:  Tot Depth Loggd 
 TFF .                      No:  Trip for Fail 
 TQAA.f-kp               16.00:  Torque Abs Avg 
 TQAN.f-kp               10.00:  Torque Abs Min 
 TQAX.f-kp               20.00:  Torque Abs Max 
 TRRT.°/30m               1.00:  Turn Rotating 
 MRT .                  EWR-M5:  Maximum Recorded Temperature 
 TTMX.degC               80.39:  Max Tool Temp 
 VS01.               13098498 :  Virtual Str1 SN 
 VS02.                90569596:  Virtual Str2 SN 
 VS03.                90523599:  Virtual Str3 SN 
 VS04.                90573553:  Virtual Str4 SN 
 VS05.                90598598:  Virtual Str5 SN 
 VS06.                90577297:  Virtual Str6 SN 
 WBMN.klb                13.00:  WOB Min 
 WITN.         Alistair Sprott:  Customer Rep 
 WITN.           Rufat Babayev:  Customer Rep 2 
 WOBA.klb                15.00:  WOB Avg 
 WOBX.klb                20.00:  WOB Max 
 YP  .lhf2               39.00:  Yield Point 
~Curve Information Block
#MNEM.UNIT                 API CODE     Curve Description
#---------               -----------    ---------------------------
 TIME.HHMMSS            00 000 000 000:  GT Time & Date
 GTDEPTH.m              00 000 000 000:  GT Depth
 GTPQH.psia             00 000 000 000:  GT HR Quartz Pressure
 GTTQ.degC              00 000 000 000:  GT Quartz Temperature
 GTTN.NONE              00 000 000 000:  GT Test Number
 GTET.sec               00 000 000 000:  GT Elapsed Test Time
 GTTVD.m                00 000 000 000:  GT True Vertical Depth
#Other Information
#
#WARRANTY: Halliburton will use its best efforts to furnish customers with 
#accurate information and interpretations that are part of, and incident to, the services 
#provided.  However, Halliburton cannot and does not warrant the accuracy 
#or correctness of such information and interpretations.  Under no circumstances should any 
#such information or interpretation be relied upon as the sole basis for any drilling, 
#completion, production, or financial decision or any procedure involving any risk to the 
#safety of any drilling venture, drilling rig or its crew or any other third party.  The 
#Customer has full responsibility for all drilling, completion and production operation.  
#Halliburton makes no representations or warranties, either expressed or 
#implied, including, but not limited to, the implied warranties of merchantability or fitness 
#for a particular purpose, with respect to the services rendered.  In no event will 
#Halliburton be liable for failure to obtain any particular results or for 
#any damages, including, but not limited to, indirect, special or consequential damages, 
#resulting from the use of any information or interpretation provided by Halliburton.
#
~A           TIME           GTDEPTH  GTPQH  GTTQ  GTTN  GTET   GTTVD  
# ...
   11:06:41.562.08-Feb-2020 3115.78 4585.71 67.05 6.00 230.12 2642.62
   11:06:41.762.08-Feb-2020 3115.78 4585.71 67.05 6.00 230.32 2642.62
   11:06:41.962.08-Feb-2020 3115.78 4584.32 67.05 6.00 230.52 2642.62
   11:06:42.162.08-Feb-2020 3115.78 4585.12 67.05 6.00 230.72 2642.62
   11:06:42.362.08-Feb-2020 3115.78 4584.43 67.05 6.00 230.92 2642.62
   11:06:42.562.08-Feb-2020 3115.78 4584.00 67.05 6.00 231.12 2642.62
   11:06:42.762.08-Feb-2020 3115.78 4584.00 67.05 6.00 231.32 2642.62
   11:06:42.962.08-Feb-2020 3115.78 4584.70 67.04 6.00 231.52 2642.62
   11:06:43.162.08-Feb-2020 3115.78 4584.23 67.04 6.00 231.72 2642.62
   11:06:43.363.08-Feb-2020 3115.78 4584.20 67.04 6.00 231.92 2642.62
   11:06:43.563.08-Feb-2020 3115.78 4584.47 67.04 6.00 232.12 2642.62
   11:06:43.763.08-Feb-2020 3115.78 4584.47 67.04 6.00 232.32 2642.62
   11:06:43.963.08-Feb-2020 3115.78 4585.26 67.04 6.00 232.52 2642.62
   11:06:44.163.08-Feb-2020 3115.78 4584.54 67.04 6.00 232.72 2642.62
   11:06:44.363.08-Feb-2020 3115.78 4584.00 67.04 6.00 232.92 2642.62
   11:06:44.563.08-Feb-2020 3115.78 4585.19 67.04 6.00 233.12 2642.62
   11:06:44.763.08-Feb-2020 3115.78 4585.19 67.04 6.00 233.32 2642.62
   11:06:44.963.08-Feb-2020 3115.78 4583.78 67.04 6.00 233.52 2642.62
   11:06:45.163.08-Feb-2020 3115.78 4584.86 67.04 6.00 233.72 2642.62
   11:06:45.364.08-Feb-2020 3115.78 4583.44 67.04 6.00 233.92 2642.62
   11:06:45.564.08-Feb-2020 3115.78 4582.96 67.04 6.00 234.12 2642.62
   11:06:45.764.08-Feb-2020 3115.78 4582.96 67.04 6.00 234.32 2642.62
   11:06:45.964.08-Feb-2020 3115.78 4585.10 67.04 6.00 234.52 2642.62
   11:06:46.164.08-Feb-2020 3115.78 4583.27 67.04 6.00 234.72 2642.62
   11:06:46.364.08-Feb-2020 3115.78 4582.63 67.04 6.00 234.92 2642.62
   11:06:46.564.08-Feb-2020 3115.78 4583.50 67.04 6.00 235.12 2642.62
   11:06:46.764.08-Feb-2020 3115.78 4583.50 67.04 6.00 235.32 2642.62
   11:06:46.964.08-Feb-2020 3115.78 4585.57 67.04 6.00 235.52 2642.62
   11:06:47.165.08-Feb-2020 3115.78 4584.49 67.04 6.00 235.72 2642.62
   11:06:47.365.08-Feb-2020 3115.78 4583.23 67.04 6.00 235.92 2642.62
   11:06:47.565.08-Feb-2020 3115.78 4584.05 67.04 6.00 236.12 2642.62
   11:06:47.765.08-Feb-2020 3115.78 4584.49 67.04 6.00 236.32 2642.62
   11:06:47.965.08-Feb-2020 3115.78 4584.25 67.04 6.00 236.52 2642.62
   11:06:48.165.08-Feb-2020 3115.78 4583.93 67.04 6.00 236.72 2642.62
   11:06:48.365.08-Feb-2020 3115.78 4584.19 67.04 6.00 236.92 2642.62
   11:06:48.565.08-Feb-2020 3115.78 4584.29 67.04 6.00 237.12 2642.62
   11:06:48.765.08-Feb-2020 3115.78 4584.29 67.04 6.00 237.32 2642.62
   11:06:48.965.08-Feb-2020 3115.78 4583.71 67.04 6.00 237.52 2642.62
   11:06:49.166.08-Feb-2020 3115.78 4584.77 67.04 6.00 237.72 2642.62
   11:06:49.366.08-Feb-2020 3115.78 4585.32 67.04 6.00 237.92 2642.62
   11:06:49.566.08-Feb-2020 3115.78 4584.22 67.03 6.00 238.12 2642.62
   11:06:49.766.08-Feb-2020 3115.78 4584.22 67.03 6.00 238.32 2642.62
   11:06:49.966.08-Feb-2020 3115.78 4585.00 67.03 6.00 238.52 2642.62
   11:06:50.166.08-Feb-2020 3115.78 4584.82 67.03 6.00 238.72 2642.62
   11:06:50.366.08-Feb-2020 3115.78 4584.35 67.03 6.00 238.92 2642.62
   11:06:50.566.08-Feb-2020 3115.78 4584.34 67.03 6.00 239.12 2642.62
   11:06:50.766.08-Feb-2020 3115.78 4584.34 67.03 6.00 239.33 2642.62
   11:06:50.967.08-Feb-2020 3115.78 4584.62 67.03 6.00 239.53 2642.62
   11:06:51.167.08-Feb-2020 3115.78 4584.56 67.03 6.00 239.73 2642.62
   11:06:51.367.08-Feb-2020 3115.78 4584.53 67.03 6.00 239.93 2642.62
   11:06:51.567.08-Feb-2020 3115.78 4584.42 67.03 6.00 240.13 2642.62
   11:06:51.767.08-Feb-2020 3115.78 4584.42 67.03 6.00 240.33 2642.62
   11:06:51.967.08-Feb-2020 3115.78 4584.30 67.03 6.00 240.53 2642.62
   11:06:52.167.08-Feb-2020 3115.78 4584.05 67.03 6.00 240.73 2642.62
   11:06:52.367.08-Feb-2020 3115.78 4585.41 67.03 6.00 240.93 2642.62
   11:06:52.567.08-Feb-2020 3115.78 4586.70 67.03 6.00 241.13 2642.62
   11:06:52.767.08-Feb-2020 3115.78 4586.70 67.03 6.00 241.33 2642.62
   11:06:52.968.08-Feb-2020 3115.78 4584.56 67.03 6.00 241.53 2642.62
   11:06:53.168.08-Feb-2020 3115.78 4585.42 67.03 6.00 241.73 2642.62
   11:06:53.368.08-Feb-2020 3115.78 4585.76 67.03 6.00 241.93 2642.62
   11:06:53.568.08-Feb-2020 3115.78 4582.81 67.03 6.00 242.13 2642.62
   11:06:53.768.08-Feb-2020 3115.78 4582.81 67.03 6.00 242.33 2642.62
   11:06:53.968.08-Feb-2020 3115.78 4585.46 67.03 6.00 242.53 2642.62
   11:06:54.168.08-Feb-2020 3115.78 4584.93 67.03 6.00 242.73 2642.62
   11:06:54.368.08-Feb-2020 3115.78 4585.12 67.03 6.00 242.93 2642.62
   11:06:54.568.08-Feb-2020 3115.78 4584.65 67.03 6.00 243.13 2642.62
   11:06:54.768.08-Feb-2020 3115.78 4584.65 67.03 6.00 243.33 2642.62
   11:06:54.969.08-Feb-2020 3115.78 4585.72 67.03 6.00 243.53 2642.62
   11:06:55.169.08-Feb-2020 3115.78 4584.87 67.03 6.00 243.73 2642.62
   11:06:55.369.08-Feb-2020 3115.78 4584.84 67.03 6.00 243.93 2642.62
   11:06:55.569.08-Feb-2020 3115.78 4585.23 67.03 6.00 244.13 2642.62
   11:06:55.769.08-Feb-2020 3115.78 4585.23 67.03 6.00 244.33 2642.62
   11:06:55.969.08-Feb-2020 3115.78 4584.39 67.03 6.00 244.53 2642.62
   11:06:56.169.08-Feb-2020 3115.78 4583.96 67.03 6.00 244.73 2642.62
   11:06:56.369.08-Feb-2020 3115.78 4583.63 67.02 6.00 244.93 2642.62
   11:06:56.569.08-Feb-2020 3115.78 4585.17 67.02 6.00 245.13 2642.62
   11:06:56.770.08-Feb-2020 3115.78 4585.17 67.02 6.00 245.33 2642.62
   11:06:56.970.08-Feb-2020 3115.78 4584.10 67.02 6.00 245.53 2642.62
   11:06:57.170.08-Feb-2020 3115.78 4585.09 67.02 6.00 245.73 2642.62
   11:06:57.370.08-Feb-2020 3115.78 4584.80 67.02 6.00 245.93 2642.62
   11:06:57.570.08-Feb-2020 3115.78 4584.40 67.02 6.00 246.13 2642.62
   11:06:57.770.08-Feb-2020 3115.78 4584.40 67.02 6.00 246.33 2642.62
   11:06:57.970.08-Feb-2020 3115.78 4584.67 67.02 6.00 246.53 2642.62
   11:06:58.170.08-Feb-2020 3115.78 4584.60 67.02 6.00 246.73 2642.62
   11:06:58.370.08-Feb-2020 3115.78 4585.76 67.02 6.00 246.93 2642.62
   11:06:58.570.08-Feb-2020 3115.78 4583.52 67.02 6.00 247.13 2642.62
   11:06:58.771.08-Feb-2020 3115.78 4583.52 67.02 6.00 247.33 2642.62
   11:06:58.971.08-Feb-2020 3115.78 4586.03 67.02 6.00 247.53 2642.62
   11:06:59.171.08-Feb-2020 3115.78 4583.91 67.02 6.00 247.73 2642.62
   11:06:59.371.08-Feb-2020 3115.78 4584.14 67.02 6.00 247.93 2642.62
   11:06:59.571.08-Feb-2020 3115.78 4584.79 67.02 6.00 248.13 2642.62
   11:06:59.771.08-Feb-2020 3115.78 4584.79 67.02 6.00 248.33 2642.62
   11:06:59.971.08-Feb-2020 3115.78 4584.56 67.02 6.00 248.53 2642.62
   11:07:00.171.08-Feb-2020 3115.78 4585.60 67.02 6.00 248.73 2642.62
   11:07:00.371.08-Feb-2020 3115.78 4585.10 67.02 6.00 248.93 2642.62
   11:07:00.572.08-Feb-2020 3115.78 4583.86 67.02 6.00 249.13 2642.62
   11:07:00.772.08-Feb-2020 3115.78 4583.86 67.02 6.00 249.33 2642.62
   11:07:00.972.08-Feb-2020 3115.78 4583.86 67.02 6.00 249.53 2642.62
   11:07:01.172.08-Feb-2020 3115.78 4584.44 67.02 6.00 249.73 2642.62
   11:07:01.372.08-Feb-2020 3115.78 4584.66 67.02 6.00 249.93 2642.62
   11:07:01.572.08-Feb-2020 3115.78 4583.97 67.02 6.00 250.13 2642.62
   11:07:01.772.08-Feb-2020 3115.78 4583.97 67.02 6.00 250.33 2642.62
   11:07:01.972.08-Feb-2020 3115.78 4582.78 67.02 6.00 250.53 2642.62
   11:07:02.172.08-Feb-2020 3115.78 4584.28 67.02 6.00 250.73 2642.62
   11:07:02.372.08-Feb-2020 3115.78 4584.34 67.02 6.00 250.93 2642.62
   11:07:02.573.08-Feb-2020 3115.78 4583.61 67.02 6.00 251.13 2642.62
   11:07:02.773.08-Feb-2020 3115.78 4583.61 67.02 6.00 251.33 2642.62
   11:07:02.973.08-Feb-2020 3115.78 4584.65 67.02 6.00 251.53 2642.62
   11:07:03.173.08-Feb-2020 3115.78 4584.61 67.01 6.00 251.73 2642.62
   11:07:03.373.08-Feb-2020 3115.78 4583.84 67.01 6.00 251.93 2642.62
   11:07:03.573.08-Feb-2020 3115.78 4583.80 67.01 6.00 252.13 2642.62
   11:07:03.773.08-Feb-2020 3115.78 4583.80 67.01 6.00 252.33 2642.62
   11:07:03.973.08-Feb-2020 3115.78 4585.83 67.01 6.00 252.53 2642.62
   11:07:04.173.08-Feb-2020 3115.78 4582.75 67.01 6.00 252.73 2642.62
   11:07:04.374.08-Feb-2020 3115.78 4583.81 67.01 6.00 252.93 2642.62
