~Version Information
 VERS.                  2.0:   CWLS log ASCII Standard -VERSION 2.0
 WRAP.                   NO:   One line per depth step
~Well Information Block
#MNEM.UNIT     VALUE/NAME     DESCRIPTION
#---------     -----------    ---------------------------
 STRT.S             11:02:51 08-Feb-20: START TIME 11:02:51 08-Feb-20
 STOP.S             11:09:43 08-Feb-20: STOP TIME  11:09:43 08-Feb-20
 STEP.S                   0.00: STEP TIME
 NULL.                 -999.25: NULL VALUE
 DFWT.                        :  DIST FWL TEXT
 DFST.                        :  DIST FSL TEXT
 DMF .             Drill Floor:  DRILL MEAS FROM
 STIM.      07.00.00 09-Jan-20:  START TIME
 DATE.      14.04.48 07-Feb-20:  END TIME
 SPUD.               09-Jan-20:  SPUD DATE
 NREF.                    Grid:  NORTH REFERENCE
 HPTY.       Minimum Curvature:  HOLE POS TYPE
 DMOD.             Drill Model:  DRILL MOD DESC
 SVYD.                  Survey:  SURVEY DESC
 ILTD.               Lithology:  INTERP LTH DESC
 FTOP.          Formation Tops:  FORM TOPS DESC
 SON .        AZ-XX-0905059384:  JOB NUMBER
 MDS .        Operator Entered:  MAG DATA SOURCE
 WTYP.                Deviated:  WELL TYPE
 COMP.     BP Exploration (Caspian Sea) Ltd.:  COMPANY
 UWI .                     N/A:  UNIQUE WELL IDENTIFIER
 API .                     N/A:  API NUMBER
 BASE.              Azerbaijan:  LOGGING EQUIPMENT BASE LOCATION
 REGN.                   EESSA:  REGION
 PROV.                    Baku:  PROVINCE
 STAT.                    Baku:  STATE NAME
 CTRY.              Azerbaijan:  COUNTRY NAME
 FLD .                     ACG:  FIELD NAME
 SRVC.     TURAN Drilling & Engineering:  CONTRACTOR
 MWDS.                    Baku:  MWD SHOP
 WELL.                     J22:  WELL NAME
 RIG .             West Chirag:  RIG NAME
 DOE .                     N/A:  DOE NUMBER
 DCON.         Sperry Drilling:  DIRECTNL CONTR
 UNIT.                     N/A:  LOGGING EQUIPMENT ID
 PDAT.          Mean Sea Level:  PERMANENT DATUM
 JOBN.        AZ-XX-0905059384:  JOB TICKET NUMB
 CNTY.                        :  COUNTY
 LOC .                        :  LOCATION
 LMF .             Drill Floor:  LOG MEASURED FROM
 TVDS.m                  43.00:  TVDSS CORRECTN
 LATI.deg                40.13:  LATITUDE
 LONG.deg                51.22:  LONGITUDE
 WHNS.m                  10.28:  WELL HEAD N/S
 WHEW.m                  -6.24:  WELL HEAD E/W
 UTMX.m              519005.06:  UTM X
 UTMY.m             4443793.85:  UTM Y
 DFWL.m                   0.00:  DISTANCE FWL
 DFSL.m                   0.00:  DISTANCE FSL
 SDEP.m                 362.00:  START DEPTH
 TDD .m                 904.00:  TOTAL DEPTH (DRILLER)
 VSDR.deg               148.53:  VERT SEC DIRECT
 GVFD.g                   1.00:  GRAVITY FIELD
 MFLD.nT              50277.00:  MAGNETIC FIELD
 MDIP.deg                59.56:  MAGNETIC DIP
 MDEC.deg                 6.42:  MAGNETIC DECL
 GRDC.deg                 0.15:  GRID CORRECTION
 AZTC.deg                 6.27:  AZM TOTAL CORR
 EPD .m                   0.00:  ELEVATION
 EGL .m                   0.00:  GROUND ELEVATION
 WDMS.m                 169.80:  WD ELEV
 APD .m                  43.00:  DEPTH ABOVE PD
 AGAP.m                  43.00:  AIR GAP
 VSEW.m                  -6.24:  VERT SEC E/W
 VSNS.m                  10.28:  VERT SEC N/S
 DEP .m                   0.00:  DEPTH
 EKB .m                   0.00:  KB ELEVATION
 EDF .m                  43.00:  DF ELEVATION
 TDL .m                1183.00:  TOTAL DEPTH (LOGGER)
 VSC .                       0:  VS TO CLOSURE
 MAGU.                 1850021:  MAGUTM CHECKSUM
~Parameter Information Block
#MNEM.UNIT       Value        Description
#---------     -----------    ---------------------------
 AV  .mps                 4.00:  Ann Velocity 
 AVMX.mps                 4.50:  Max Ann Veloc 
 AZIF.deg               145.38:  Azm, Final 
 BHAT.        Rotary Steerable:  BHA Type 
 BROT.°/30m               3.00:  Build Rotating 
 BS  .in                 12.25:  Bit Size 
 BSZ .in                 12.25:  Bit Size 
 BTPL.psig              650.00:  Bit Press Loss 
 CABU.                      No:  Customer Abuse 
 COMM.                     Ä%€:  Run Comments 1 
 TCS .hr                101.62:  Time Ciculation Ended 
 CV  .mps                 5.00:  Crit Velocity 
 CVMX.mps                 5.00:  Max Crit Veloc 
 DD1 .             Aziz Aliyev:  Direct Drillr 1 
 DD2 .      Fakhraddin Guliyev:  Direct Drillr 2 
 DDSV.                 iCruise:  DD Service 
 DEFF.%                  97.00:  % Det Eff 
 DLRX.°/30m               4.16:  Dogleg Rot Max 
 DLSO.°/30m               3.20:  Dogleg Oriented 
 DLSX.°/30m               4.10:  Dogleg Str Max 
 DRET.      23.12.00 07-Feb-20:  Drill End Time 
 DRST.      11.30.00 04-Feb-20:  Drill Start Tim 
 DTIM.hr                 61.06:  Time Drilling 
 EDEP.m                3219.01:  End Depth 
 ENG1.         Almaz Almadatov:  Engineer 1 
 ENG2.         Dair Mahammadov:  Engineer 2 
 ENG3.          Nazrin Asgarli:  Engineer 3 
 ETIM.      02.30.00 11-Feb-20:  End Time 
 FLOI.gpm              1100.00:  Flow In 
 FLON.gpm               900.00:  Flow In Min 
 FLOS.cptm               55.00:  Fluid Loss 
 FLOX.gpm              1150.00:  Flow In Max 
 FTRO.       Formation Presure:  FTWD Run Obj 
 HFLO.                      No:  High Flow 
 HPRE.                      No:  High Pressure 
 HTEM.                      No:  High Temp 
 HYDO.m                   1.80:  Hydro Offset 
 IFIN.deg                75.11:  Inc, Final 
 IMAX.deg                75.11:  Inc Max 
 IMIN.deg                33.55:  Inc Min 
 IMND.m                2186.05:  Inc Min Depth 
 IMXD.m                3205.61:  Inc Max Depth 
 JARR.                      No:  Jarring 
 LETM.      23.12.00 07-Feb-20:  Log End Time 
 LOST.hr                     0:  Lost Rig Time 
 LSTM.      11.30.00 04-Feb-20:  Log Start Time 
 MDCL.ppm             40000.00:  Mud Chlorides 
 MDES.     Inversion Oil/Synthetic:  Mud Desc 
 DFD .sg                  1.49:  Mud Density 
 MDMN.sg                  1.49:  Dens Mud Min 
 MDMX.sg                  1.49:  Dens Mud Max 
 MOIL.                      73:  Run Mud Oil % 
 MOWR.                   73:27:  Run Mud OWR 
 MSND.                     0.1:  Run Mud Sand % 
 MSOL.                    20.1:  Run Mud Solids% 
 DFV .spqt               78.00:  Mud Viscosity 
 MWOD.in                  8.00:  MWD Tool OD 
 MWSI.                      No:  Serv Intrp, MWD 
 OTIM.hr                177.15:  Time Operating 
 PCON.          Wear / Scratch:  Pad Condition 
 PMAX.psia            10493.93:  Press Op, Max 
 PV  .cP                 73.00:  Mud PV 
 RUN .                     700:  Run Number 
 ROPA.m/hr               15.00:  ROP Avg 
 ROPN.m/hr               10.00:  ROP Min 
 ROPX.m/hr               35.00:  ROP Max 
 RPMA.rpm               130.00:  RPM Surface Avg 
 RPMN.rpm                80.00:  RPM Surface Min 
 RPMX.rpm               150.00:  RPM Surface Max 
 RRUN.                    L402:  Rig Run Number 
 RTIM.hr                 80.50:  Time Reaming 
 SAZI.deg               155.55:  Azm, Start 
 SDEP.m                2036.00:  Start Depth 
 SIDD.                      No:  Serv Intrp, DD 
 SINC.deg                35.44:  Inc, Start 
 SPPA.psig             4270.00:  SPP Avg 
 SPPN.psig             2800.00:  SPP Min 
 SPPX.psig             4850.00:  SPP Max 
 STIM.      09.30.00 03-Feb-20:  Start Time 
 SVCS.                 DD, MWD:  Services 
 SVER.                    9.20:  Sperry Version 
 TDAT.m                1183.00:  Tot Depth Attmp 
 TDDF.                      No:  Trip for DD 
 TDLG.m                1183.00:  Tot Depth Loggd 
 TFF .                      No:  Trip for Fail 
 TQAA.f-kp               16.00:  Torque Abs Avg 
 TQAN.f-kp               10.00:  Torque Abs Min 
 TQAX.f-kp               20.00:  Torque Abs Max 
 TRRT.°/30m               1.00:  Turn Rotating 
 MRT .                  EWR-M5:  Maximum Recorded Temperature 
 TTMX.degC               80.39:  Max Tool Temp 
 VS01.               13098498 :  Virtual Str1 SN 
 VS02.                90569596:  Virtual Str2 SN 
 VS03.                90523599:  Virtual Str3 SN 
 VS04.                90573553:  Virtual Str4 SN 
 VS05.                90598598:  Virtual Str5 SN 
 VS06.                90577297:  Virtual Str6 SN 
 WBMN.klb                13.00:  WOB Min 
 WITN.         Alistair Sprott:  Customer Rep 
 WITN.           Rufat Babayev:  Customer Rep 2 
 WOBA.klb                15.00:  WOB Avg 
 WOBX.klb                20.00:  WOB Max 
 YP  .lhf2               39.00:  Yield Point 
~Curve Information Block
#MNEM.UNIT                 API CODE     Curve Description
#---------               -----------    ---------------------------
 TIME.HHMMSS            00 000 000 000:  GT Time & Date
 GTDEPTH.m              00 000 000 000:  GT Depth
 GTPQH.psia             00 000 000 000:  GT HR Quartz Pressure
 GTTQ.degC              00 000 000 000:  GT Quartz Temperature
 GTTN.NONE              00 000 000 000:  GT Test Number
 GTET.sec               00 000 000 000:  GT Elapsed Test Time
 GTTVD.m                00 000 000 000:  GT True Vertical Depth
#Other Information
#
#WARRANTY: Halliburton will use its best efforts to furnish customers with 
#accurate information and interpretations that are part of, and incident to, the services 
#provided.  However, Halliburton cannot and does not warrant the accuracy 
#or correctness of such information and interpretations.  Under no circumstances should any 
#such information or interpretation be relied upon as the sole basis for any drilling, 
#completion, production, or financial decision or any procedure involving any risk to the 
#safety of any drilling venture, drilling rig or its crew or any other third party.  The 
#Customer has full responsibility for all drilling, completion and production operation.  
#Halliburton makes no representations or warranties, either expressed or 
#implied, including, but not limited to, the implied warranties of merchantability or fitness 
#for a particular purpose, with respect to the services rendered.  In no event will 
#Halliburton be liable for failure to obtain any particular results or for 
#any damages, including, but not limited to, indirect, special or consequential damages, 
#resulting from the use of any information or interpretation provided by Halliburton.
#
~A           TIME           GTDEPTH  GTPQH  GTTQ  GTTN  GTET   GTTVD  
# ...
   11:08:59.634.08-Feb-2020 3115.78 4584.52 66.86 6.00 368.19 2642.62
   11:08:59.834.08-Feb-2020 3115.78 4584.52 66.86 6.00 368.39 2642.62
   11:09:00.034.08-Feb-2020 3115.78 4585.48 66.86 6.00 368.59 2642.62
   11:09:00.234.08-Feb-2020 3115.78 4584.00 66.86 6.00 368.79 2642.62
   11:09:00.434.08-Feb-2020 3115.78 4584.71 66.86 6.00 368.99 2642.62
   11:09:00.634.08-Feb-2020 3115.78 4585.31 66.86 6.00 369.19 2642.62
   11:09:00.834.08-Feb-2020 3115.78 4585.31 66.86 6.00 369.39 2642.62
   11:09:01.034.08-Feb-2020 3115.78 4583.70 66.86 6.00 369.59 2642.62
   11:09:01.235.08-Feb-2020 3115.78 4584.89 66.85 6.00 369.79 2642.62
   11:09:01.435.08-Feb-2020 3115.78 4585.47 66.85 6.00 369.99 2642.62
   11:09:01.635.08-Feb-2020 3115.78 4585.39 66.85 6.00 370.19 2642.62
   11:09:01.835.08-Feb-2020 3115.78 4585.39 66.85 6.00 370.39 2642.62
   11:09:02.035.08-Feb-2020 3115.78 4584.10 66.85 6.00 370.59 2642.62
   11:09:02.235.08-Feb-2020 3115.78 4584.88 66.85 6.00 370.79 2642.62
   11:09:02.435.08-Feb-2020 3115.78 4584.75 66.85 6.00 370.99 2642.62
   11:09:02.635.08-Feb-2020 3115.78 4583.98 66.85 6.00 371.19 2642.62
   11:09:02.835.08-Feb-2020 3115.78 4583.98 66.85 6.00 371.39 2642.62
   11:09:03.036.08-Feb-2020 3115.78 4584.44 66.85 6.00 371.59 2642.62
   11:09:03.236.08-Feb-2020 3115.78 4584.67 66.85 6.00 371.79 2642.62
   11:09:03.436.08-Feb-2020 3115.78 4585.21 66.85 6.00 371.99 2642.62
   11:09:03.636.08-Feb-2020 3115.78 4583.93 66.85 6.00 372.19 2642.62
   11:09:03.836.08-Feb-2020 3115.78 4583.93 66.85 6.00 372.39 2642.62
   11:09:04.036.08-Feb-2020 3115.78 4585.04 66.85 6.00 372.59 2642.62
   11:09:04.236.08-Feb-2020 3115.78 4584.31 66.85 6.00 372.79 2642.62
   11:09:04.436.08-Feb-2020 3115.78 4584.59 66.85 6.00 372.99 2642.62
   11:09:04.636.08-Feb-2020 3115.78 4584.98 66.85 6.00 373.20 2642.62
   11:09:04.836.08-Feb-2020 3115.78 4584.98 66.85 6.00 373.40 2642.62
   11:09:05.037.08-Feb-2020 3115.78 4584.50 66.85 6.00 373.60 2642.62
   11:09:05.237.08-Feb-2020 3115.78 4584.60 66.85 6.00 373.80 2642.62
   11:09:05.437.08-Feb-2020 3115.78 4585.55 66.85 6.00 374.00 2642.62
   11:09:05.637.08-Feb-2020 3115.78 4584.73 66.85 6.00 374.20 2642.62
   11:09:05.837.08-Feb-2020 3115.78 4584.73 66.85 6.00 374.40 2642.62
   11:09:06.037.08-Feb-2020 3115.78 4585.44 66.85 6.00 374.60 2642.62
   11:09:06.237.08-Feb-2020 3115.78 4585.27 66.85 6.00 374.80 2642.62
   11:09:06.437.08-Feb-2020 3115.78 4585.85 66.85 6.00 375.00 2642.62
   11:09:06.637.08-Feb-2020 3115.78 4584.75 66.85 6.00 375.20 2642.62
   11:09:06.838.08-Feb-2020 3115.78 4584.75 66.85 6.00 375.40 2642.62
   11:09:07.038.08-Feb-2020 3115.78 4586.54 66.85 6.00 375.60 2642.62
   11:09:07.238.08-Feb-2020 3115.78 4584.63 66.85 6.00 375.80 2642.62
   11:09:07.438.08-Feb-2020 3115.78 4584.53 66.85 6.00 376.00 2642.62
   11:09:07.638.08-Feb-2020 3115.78 4585.07 66.85 6.00 376.20 2642.62
   11:09:07.838.08-Feb-2020 3115.78 4585.07 66.85 6.00 376.40 2642.62
   11:09:08.038.08-Feb-2020 3115.78 4584.23 66.85 6.00 376.60 2642.62
   11:09:08.238.08-Feb-2020 3115.78 4583.51 66.85 6.00 376.80 2642.62
   11:09:08.438.08-Feb-2020 3115.78 4584.25 66.85 6.00 377.00 2642.62
   11:09:08.638.08-Feb-2020 3115.78 4586.48 66.84 6.00 377.20 2642.62
   11:09:08.839.08-Feb-2020 3115.78 4586.48 66.84 6.00 377.40 2642.62
   11:09:09.039.08-Feb-2020 3115.78 4584.30 66.84 6.00 377.60 2642.62
   11:09:09.239.08-Feb-2020 3115.78 4585.24 66.84 6.00 377.80 2642.62
   11:09:09.439.08-Feb-2020 3115.78 4601.87 66.84 6.00 378.00 2642.62
   11:09:09.639.08-Feb-2020 3115.78 4751.57 66.84 6.00 378.20 2642.62
   11:09:09.839.08-Feb-2020 3115.78 4751.57 66.84 6.00 378.40 2642.62
   11:09:10.039.08-Feb-2020 3115.78 5189.83 66.84 6.00 378.60 2642.62
   11:09:10.239.08-Feb-2020 3115.78 5328.77 66.84 6.00 378.80 2642.62
   11:09:10.439.08-Feb-2020 3115.78 5341.45 66.84 6.00 379.00 2642.62
   11:09:10.640.08-Feb-2020 3115.78 5358.17 66.84 6.00 379.20 2642.62
   11:09:10.840.08-Feb-2020 3115.78 5358.17 66.84 6.00 379.40 2642.62
   11:09:11.040.08-Feb-2020 3115.78 5659.66 66.84 6.00 379.60 2642.62
   11:09:11.240.08-Feb-2020 3115.78 5737.39 66.84 6.00 379.80 2642.62
   11:09:11.440.08-Feb-2020 3115.78 5797.09 66.84 6.00 380.00 2642.62
   11:09:11.640.08-Feb-2020 3115.78 5715.45 66.84 6.00 380.20 2642.62
   11:09:11.840.08-Feb-2020 3115.78 5715.45 66.84 6.00 380.40 2642.62
   11:09:12.040.08-Feb-2020 3115.78 5759.58 66.84 6.00 380.60 2642.62
   11:09:12.240.08-Feb-2020 3115.78 5769.58 66.85 6.00 380.80 2642.62
   11:09:12.440.08-Feb-2020 3115.78 5765.41 66.85 6.00 381.00 2642.62
   11:09:12.641.08-Feb-2020 3115.78 5768.16 66.85 6.00 381.20 2642.62
   11:09:12.841.08-Feb-2020 3115.78 5768.16 66.85 6.00 381.40 2642.62
   11:09:13.041.08-Feb-2020 3115.78 5771.54 66.85 6.00 381.60 2642.62
   11:09:13.241.08-Feb-2020 3115.78 5771.29 66.85 6.00 381.80 2642.62
   11:09:13.441.08-Feb-2020 3115.78 5770.10 66.85 6.00 382.00 2642.62
   11:09:13.641.08-Feb-2020 3115.78 5772.91 66.85 6.00 382.20 2642.62
   11:09:13.841.08-Feb-2020 3115.78 5772.91 66.85 6.00 382.40 2642.62
   11:09:14.041.08-Feb-2020 3115.78 5770.85 66.85 6.00 382.60 2642.62
   11:09:14.241.08-Feb-2020 3115.78 5771.09 66.85 6.00 382.80 2642.62
   11:09:14.441.08-Feb-2020 3115.78 5775.26 66.85 6.00 383.00 2642.62
   11:09:14.642.08-Feb-2020 3115.78 5769.67 66.85 6.00 383.20 2642.62
   11:09:14.842.08-Feb-2020 3115.78 5769.67 66.85 6.00 383.40 2642.62
   11:09:15.042.08-Feb-2020 3115.78 5769.48 66.85 6.00 383.60 2642.62
   11:09:15.242.08-Feb-2020 3115.78 5775.68 66.85 6.00 383.80 2642.62
   11:09:15.442.08-Feb-2020 3115.78 5768.39 66.85 6.00 384.00 2642.62
   11:09:15.642.08-Feb-2020 3115.78 5771.60 66.85 6.00 384.20 2642.62
   11:09:15.842.08-Feb-2020 3115.78 5771.60 66.85 6.00 384.40 2642.62
   11:09:16.042.08-Feb-2020 3115.78 5773.74 66.86 6.00 384.60 2642.62
   11:09:16.242.08-Feb-2020 3115.78 5774.05 66.86 6.00 384.80 2642.62
   11:09:16.443.08-Feb-2020 3115.78 5771.61 66.86 6.00 385.00 2642.62
   11:09:16.643.08-Feb-2020 3115.78 5771.16 66.86 6.00 385.20 2642.62
   11:09:16.843.08-Feb-2020 3115.78 5771.16 66.86 6.00 385.40 2642.62
   11:09:17.043.08-Feb-2020 3115.78 5771.43 66.86 6.00 385.60 2642.62
   11:09:17.243.08-Feb-2020 3115.78 5772.03 66.86 6.00 385.80 2642.62
   11:09:17.443.08-Feb-2020 3115.78 5771.35 66.86 6.00 386.00 2642.62
   11:09:17.643.08-Feb-2020 3115.78 5770.90 66.86 6.00 386.20 2642.62
   11:09:17.843.08-Feb-2020 3115.78 5770.90 66.86 6.00 386.40 2642.62
   11:09:18.043.08-Feb-2020 3115.78 5770.76 66.86 6.00 386.60 2642.62
   11:09:18.243.08-Feb-2020 3115.78 5775.55 66.86 6.00 386.80 2642.62
   11:09:18.444.08-Feb-2020 3115.78 5772.80 66.86 6.00 387.00 2642.62
   11:09:18.644.08-Feb-2020 3115.78 5771.33 66.86 6.00 387.20 2642.62
   11:09:18.844.08-Feb-2020 3115.78 5771.33 66.86 6.00 387.40 2642.62
   11:09:19.044.08-Feb-2020 3115.78 5772.00 66.86 6.00 387.60 2642.62
   11:09:19.244.08-Feb-2020 3115.78 5772.52 66.86 6.00 387.80 2642.62
   11:09:19.444.08-Feb-2020 3115.78 5771.67 66.86 6.00 388.00 2642.62
   11:09:19.644.08-Feb-2020 3115.78 5771.29 66.86 6.00 388.20 2642.62
   11:09:19.844.08-Feb-2020 3115.78 5771.29 66.86 6.00 388.40 2642.62
   11:09:20.044.08-Feb-2020 3115.78 5770.52 66.86 6.00 388.60 2642.62
   11:09:20.245.08-Feb-2020 3115.78 5770.29 66.86 6.00 388.80 2642.62
   11:09:20.445.08-Feb-2020 3115.78 5772.82 66.86 6.00 389.00 2642.62
   11:09:20.645.08-Feb-2020 3115.78 5772.46 66.86 6.00 389.20 2642.62
   11:09:20.845.08-Feb-2020 3115.78 5772.46 66.86 6.00 389.40 2642.62
   11:09:21.045.08-Feb-2020 3115.78 5774.01 66.86 6.00 389.60 2642.62
   11:09:21.245.08-Feb-2020 3115.78 5773.32 66.86 6.00 389.80 2642.62
   11:09:21.445.08-Feb-2020 3115.78 5770.78 66.86 6.00 390.00 2642.62
   11:09:21.645.08-Feb-2020 3115.78 5773.83 66.86 6.00 390.20 2642.62
   11:09:21.845.08-Feb-2020 3115.78 5773.83 66.86 6.00 390.40 2642.62
   11:09:22.045.08-Feb-2020 3115.78 5769.73 66.86 6.00 390.60 2642.62
   11:09:22.246.08-Feb-2020 3115.78 5776.49 66.86 6.00 390.80 2642.62
   11:09:22.446.08-Feb-2020 3115.78 5768.64 66.86 6.00 391.00 2642.62
