~Version Information
 VERS.                  2.0:   CWLS log ASCII Standard -VERSION 2.0
 WRAP.                   NO:   One line per depth step
~Well Information Block
#MNEM.UNIT     VALUE/NAME     DESCRIPTION
#---------     -----------    ---------------------------
 STRT.S             08:41:50 08-Feb-20: START TIME 08:41:50 08-Feb-20
 STOP.S             08:48:48 08-Feb-20: STOP TIME  08:48:48 08-Feb-20
 STEP.S                   0.00: STEP TIME
 NULL.                 -999.25: NULL VALUE
 DFWT.                        :  DIST FWL TEXT
 DFST.                        :  DIST FSL TEXT
 DMF .             Drill Floor:  DRILL MEAS FROM
 STIM.      07.00.00 09-Jan-20:  START TIME
 DATE.      14.04.48 07-Feb-20:  END TIME
 SPUD.               09-Jan-20:  SPUD DATE
 NREF.                    Grid:  NORTH REFERENCE
 HPTY.       Minimum Curvature:  HOLE POS TYPE
 DMOD.             Drill Model:  DRILL MOD DESC
 SVYD.                  Survey:  SURVEY DESC
 ILTD.               Lithology:  INTERP LTH DESC
 FTOP.          Formation Tops:  FORM TOPS DESC
 SON .        AZ-XX-0905059384:  JOB NUMBER
 MDS .        Operator Entered:  MAG DATA SOURCE
 WTYP.                Deviated:  WELL TYPE
 COMP.     BP Exploration (Caspian Sea) Ltd.:  COMPANY
 UWI .                     N/A:  UNIQUE WELL IDENTIFIER
 API .                     N/A:  API NUMBER
 BASE.              Azerbaijan:  LOGGING EQUIPMENT BASE LOCATION
 REGN.                   EESSA:  REGION
 PROV.                    Baku:  PROVINCE
 STAT.                    Baku:  STATE NAME
 CTRY.              Azerbaijan:  COUNTRY NAME
 FLD .                     ACG:  FIELD NAME
 SRVC.     TURAN Drilling & Engineering:  CONTRACTOR
 MWDS.                    Baku:  MWD SHOP
 WELL.                     J22:  WELL NAME
 RIG .             West Chirag:  RIG NAME
 DOE .                     N/A:  DOE NUMBER
 DCON.         Sperry Drilling:  DIRECTNL CONTR
 UNIT.                     N/A:  LOGGING EQUIPMENT ID
 PDAT.          Mean Sea Level:  PERMANENT DATUM
 JOBN.        AZ-XX-0905059384:  JOB TICKET NUMB
 CNTY.                        :  COUNTY
 LOC .                        :  LOCATION
 LMF .             Drill Floor:  LOG MEASURED FROM
 TVDS.m                  43.00:  TVDSS CORRECTN
 LATI.deg                40.13:  LATITUDE
 LONG.deg                51.22:  LONGITUDE
 WHNS.m                  10.28:  WELL HEAD N/S
 WHEW.m                  -6.24:  WELL HEAD E/W
 UTMX.m              519005.06:  UTM X
 UTMY.m             4443793.85:  UTM Y
 DFWL.m                   0.00:  DISTANCE FWL
 DFSL.m                   0.00:  DISTANCE FSL
 SDEP.m                 362.00:  START DEPTH
 TDD .m                 904.00:  TOTAL DEPTH (DRILLER)
 VSDR.deg               148.53:  VERT SEC DIRECT
 GVFD.g                   1.00:  GRAVITY FIELD
 MFLD.nT              50277.00:  MAGNETIC FIELD
 MDIP.deg                59.56:  MAGNETIC DIP
 MDEC.deg                 6.42:  MAGNETIC DECL
 GRDC.deg                 0.15:  GRID CORRECTION
 AZTC.deg                 6.27:  AZM TOTAL CORR
 EPD .m                   0.00:  ELEVATION
 EGL .m                   0.00:  GROUND ELEVATION
 WDMS.m                 169.80:  WD ELEV
 APD .m                  43.00:  DEPTH ABOVE PD
 AGAP.m                  43.00:  AIR GAP
 VSEW.m                  -6.24:  VERT SEC E/W
 VSNS.m                  10.28:  VERT SEC N/S
 DEP .m                   0.00:  DEPTH
 EKB .m                   0.00:  KB ELEVATION
 EDF .m                  43.00:  DF ELEVATION
 TDL .m                1183.00:  TOTAL DEPTH (LOGGER)
 VSC .                       0:  VS TO CLOSURE
 MAGU.                 1850021:  MAGUTM CHECKSUM
~Parameter Information Block
#MNEM.UNIT       Value        Description
#---------     -----------    ---------------------------
 AV  .mps                 4.00:  Ann Velocity 
 AVMX.mps                 4.50:  Max Ann Veloc 
 AZIF.deg               145.38:  Azm, Final 
 BHAT.        Rotary Steerable:  BHA Type 
 BROT.°/30m               3.00:  Build Rotating 
 BS  .in                 12.25:  Bit Size 
 BSZ .in                 12.25:  Bit Size 
 BTPL.psig              650.00:  Bit Press Loss 
 CABU.                      No:  Customer Abuse 
 COMM.                     [:  Run Comments 1 
 TCS .hr                101.62:  Time Ciculation Ended 
 CV  .mps                 5.00:  Crit Velocity 
 CVMX.mps                 5.00:  Max Crit Veloc 
 DD1 .             Aziz Aliyev:  Direct Drillr 1 
 DD2 .      Fakhraddin Guliyev:  Direct Drillr 2 
 DDSV.                 iCruise:  DD Service 
 DEFF.%                  97.00:  % Det Eff 
 DLRX.°/30m               4.16:  Dogleg Rot Max 
 DLSO.°/30m               3.20:  Dogleg Oriented 
 DLSX.°/30m               4.10:  Dogleg Str Max 
 DRET.      23.12.00 07-Feb-20:  Drill End Time 
 DRST.      11.30.00 04-Feb-20:  Drill Start Tim 
 DTIM.hr                 61.06:  Time Drilling 
 EDEP.m                3219.01:  End Depth 
 ENG1.         Almaz Almadatov:  Engineer 1 
 ENG2.         Dair Mahammadov:  Engineer 2 
 ENG3.          Nazrin Asgarli:  Engineer 3 
 ETIM.      02.30.00 11-Feb-20:  End Time 
 FLOI.gpm              1100.00:  Flow In 
 FLON.gpm               900.00:  Flow In Min 
 FLOS.cptm               55.00:  Fluid Loss 
 FLOX.gpm              1150.00:  Flow In Max 
 FTRO.       Formation Presure:  FTWD Run Obj 
 HFLO.                      No:  High Flow 
 HPRE.                      No:  High Pressure 
 HTEM.                      No:  High Temp 
 HYDO.m                   1.80:  Hydro Offset 
 IFIN.deg                75.11:  Inc, Final 
 IMAX.deg                75.11:  Inc Max 
 IMIN.deg                33.55:  Inc Min 
 IMND.m                2186.05:  Inc Min Depth 
 IMXD.m                3205.61:  Inc Max Depth 
 JARR.                      No:  Jarring 
 LETM.      23.12.00 07-Feb-20:  Log End Time 
 LOST.hr                     0:  Lost Rig Time 
 LSTM.      11.30.00 04-Feb-20:  Log Start Time 
 MDCL.ppm             40000.00:  Mud Chlorides 
 MDES.     Inversion Oil/Synthetic:  Mud Desc 
 DFD .sg                  1.49:  Mud Density 
 MDMN.sg                  1.49:  Dens Mud Min 
 MDMX.sg                  1.49:  Dens Mud Max 
 MOIL.                      73:  Run Mud Oil % 
 MOWR.                   73:27:  Run Mud OWR 
 MSND.                     0.1:  Run Mud Sand % 
 MSOL.                    20.1:  Run Mud Solids% 
 DFV .spqt               78.00:  Mud Viscosity 
 MWOD.in                  8.00:  MWD Tool OD 
 MWSI.                      No:  Serv Intrp, MWD 
 OTIM.hr                177.15:  Time Operating 
 PCON.          Wear / Scratch:  Pad Condition 
 PMAX.psia            10493.93:  Press Op, Max 
 PV  .cP                 73.00:  Mud PV 
 RUN .                     700:  Run Number 
 ROPA.m/hr               15.00:  ROP Avg 
 ROPN.m/hr               10.00:  ROP Min 
 ROPX.m/hr               35.00:  ROP Max 
 RPMA.rpm               130.00:  RPM Surface Avg 
 RPMN.rpm                80.00:  RPM Surface Min 
 RPMX.rpm               150.00:  RPM Surface Max 
 RRUN.                    L402:  Rig Run Number 
 RTIM.hr                 80.50:  Time Reaming 
 SAZI.deg               155.55:  Azm, Start 
 SDEP.m                2036.00:  Start Depth 
 SIDD.                      No:  Serv Intrp, DD 
 SINC.deg                35.44:  Inc, Start 
 SPPA.psig             4270.00:  SPP Avg 
 SPPN.psig             2800.00:  SPP Min 
 SPPX.psig             4850.00:  SPP Max 
 STIM.      09.30.00 03-Feb-20:  Start Time 
 SVCS.                 DD, MWD:  Services 
 SVER.                    9.20:  Sperry Version 
 TDAT.m                1183.00:  Tot Depth Attmp 
 TDDF.                      No:  Trip for DD 
 TDLG.m                1183.00:  Tot Depth Loggd 
 TFF .                      No:  Trip for Fail 
 TQAA.f-kp               16.00:  Torque Abs Avg 
 TQAN.f-kp               10.00:  Torque Abs Min 
 TQAX.f-kp               20.00:  Torque Abs Max 
 TRRT.°/30m               1.00:  Turn Rotating 
 MRT .                  EWR-M5:  Maximum Recorded Temperature 
 TTMX.degC               80.39:  Max Tool Temp 
 VS01.               13098498 :  Virtual Str1 SN 
 VS02.                90569596:  Virtual Str2 SN 
 VS03.                90523599:  Virtual Str3 SN 
 VS04.                90573553:  Virtual Str4 SN 
 VS05.                90598598:  Virtual Str5 SN 
 VS06.                90577297:  Virtual Str6 SN 
 WBMN.klb                13.00:  WOB Min 
 WITN.         Alistair Sprott:  Customer Rep 
 WITN.           Rufat Babayev:  Customer Rep 2 
 WOBA.klb                15.00:  WOB Avg 
 WOBX.klb                20.00:  WOB Max 
 YP  .lhf2               39.00:  Yield Point 
~Curve Information Block
#MNEM.UNIT                 API CODE     Curve Description
#---------               -----------    ---------------------------
 TIME.HHMMSS            00 000 000 000:  GT Time & Date
 GTDEPTH.m              00 000 000 000:  GT Depth
 GTPQH.psia             00 000 000 000:  GT HR Quartz Pressure
 GTTQ.degC              00 000 000 000:  GT Quartz Temperature
 GTTN.NONE              00 000 000 000:  GT Test Number
 GTET.sec               00 000 000 000:  GT Elapsed Test Time
 GTTVD.m                00 000 000 000:  GT True Vertical Depth
#Other Information
#
#WARRANTY: Halliburton will use its best efforts to furnish customers with 
#accurate information and interpretations that are part of, and incident to, the services 
#provided.  However, Halliburton cannot and does not warrant the accuracy 
#or correctness of such information and interpretations.  Under no circumstances should any 
#such information or interpretation be relied upon as the sole basis for any drilling, 
#completion, production, or financial decision or any procedure involving any risk to the 
#safety of any drilling venture, drilling rig or its crew or any other third party.  The 
#Customer has full responsibility for all drilling, completion and production operation.  
#Halliburton makes no representations or warranties, either expressed or 
#implied, including, but not limited to, the implied warranties of merchantability or fitness 
#for a particular purpose, with respect to the services rendered.  In no event will 
#Halliburton be liable for failure to obtain any particular results or for 
#any damages, including, but not limited to, indirect, special or consequential damages, 
#resulting from the use of any information or interpretation provided by Halliburton.
#
~A           TIME           GTDEPTH  GTPQH  GTTQ  GTTN  GTET   GTTVD  
# ...
   08:44:08.643.08-Feb-2020 3153.01 5766.73 71.18 2.00 138.01 2652.69
   08:44:08.843.08-Feb-2020 3153.01 5766.73 71.18 2.00 138.21 2652.69
   08:44:09.043.08-Feb-2020 3153.01 5768.83 71.18 2.00 138.41 2652.69
   08:44:09.243.08-Feb-2020 3153.01 5767.73 71.18 2.00 138.61 2652.69
   08:44:09.443.08-Feb-2020 3153.01 5764.62 71.18 2.00 138.81 2652.69
   08:44:09.643.08-Feb-2020 3153.01 5764.95 71.18 2.00 139.01 2652.69
   08:44:09.843.08-Feb-2020 3153.01 5764.95 71.18 2.00 139.21 2652.69
   08:44:10.043.08-Feb-2020 3153.01 5766.29 71.18 2.00 139.41 2652.69
   08:44:10.243.08-Feb-2020 3153.01 5764.49 71.18 2.00 139.61 2652.69
   08:44:10.443.08-Feb-2020 3153.01 5769.02 71.18 2.00 139.81 2652.69
   08:44:10.643.08-Feb-2020 3153.01 5767.24 71.18 2.00 140.01 2652.69
   08:44:10.843.08-Feb-2020 3153.01 5767.24 71.18 2.00 140.21 2652.69
   08:44:11.043.08-Feb-2020 3153.01 5765.48 71.18 2.00 140.41 2652.69
   08:44:11.243.08-Feb-2020 3153.01 5773.12 71.18 2.00 140.61 2652.69
   08:44:11.443.08-Feb-2020 3153.01 5765.12 71.18 2.00 140.81 2652.69
   08:44:11.643.08-Feb-2020 3153.01 5765.38 71.18 2.00 141.01 2652.69
   08:44:11.843.08-Feb-2020 3153.01 5765.38 71.18 2.00 141.21 2652.69
   08:44:12.043.08-Feb-2020 3153.01 5767.28 71.18 2.00 141.41 2652.69
   08:44:12.243.08-Feb-2020 3153.01 5765.95 71.18 2.00 141.61 2652.69
   08:44:12.443.08-Feb-2020 3153.01 5767.27 71.18 2.00 141.81 2652.69
   08:44:12.643.08-Feb-2020 3153.01 5767.26 71.18 2.00 142.01 2652.69
   08:44:12.843.08-Feb-2020 3153.01 5767.26 71.18 2.00 142.21 2652.69
   08:44:13.043.08-Feb-2020 3153.01 5766.38 71.18 2.00 142.41 2652.69
   08:44:13.243.08-Feb-2020 3153.01 5766.34 71.18 2.00 142.61 2652.69
   08:44:13.443.08-Feb-2020 3153.01 5769.57 71.18 2.00 142.81 2652.69
   08:44:13.643.08-Feb-2020 3153.01 5767.39 71.18 2.00 143.01 2652.69
   08:44:13.843.08-Feb-2020 3153.01 5767.39 71.18 2.00 143.21 2652.69
   08:44:14.043.08-Feb-2020 3153.01 5766.09 71.18 2.00 143.41 2652.69
   08:44:14.243.08-Feb-2020 3153.01 5766.95 71.18 2.00 143.61 2652.69
   08:44:14.443.08-Feb-2020 3153.01 5766.16 71.18 2.00 143.81 2652.69
   08:44:14.643.08-Feb-2020 3153.01 5766.70 71.18 2.00 144.01 2652.69
   08:44:14.843.08-Feb-2020 3153.01 5766.70 71.18 2.00 144.21 2652.69
   08:44:15.043.08-Feb-2020 3153.01 5765.69 71.18 2.00 144.41 2652.69
   08:44:15.243.08-Feb-2020 3153.01 5766.10 71.17 2.00 144.61 2652.69
   08:44:15.443.08-Feb-2020 3153.01 5765.67 71.17 2.00 144.81 2652.69
   08:44:15.643.08-Feb-2020 3153.01 5772.48 71.17 2.00 145.01 2652.69
   08:44:15.843.08-Feb-2020 3153.01 5772.48 71.17 2.00 145.21 2652.69
   08:44:16.043.08-Feb-2020 3153.01 5764.47 71.17 2.00 145.41 2652.69
   08:44:16.243.08-Feb-2020 3153.01 5771.32 71.17 2.00 145.61 2652.69
   08:44:16.443.08-Feb-2020 3153.01 5766.94 71.17 2.00 145.81 2652.69
   08:44:16.643.08-Feb-2020 3153.01 5765.21 71.17 2.00 146.01 2652.69
   08:44:16.843.08-Feb-2020 3153.01 5765.21 71.17 2.00 146.21 2652.69
   08:44:17.043.08-Feb-2020 3153.01 5771.37 71.17 2.00 146.41 2652.69
   08:44:17.243.08-Feb-2020 3153.01 5765.85 71.17 2.00 146.61 2652.69
   08:44:17.443.08-Feb-2020 3153.01 5764.38 71.17 2.00 146.81 2652.69
   08:44:17.643.08-Feb-2020 3153.01 5772.14 71.17 2.00 147.01 2652.69
   08:44:17.843.08-Feb-2020 3153.01 5772.14 71.17 2.00 147.21 2652.69
   08:44:18.043.08-Feb-2020 3153.01 5763.52 71.17 2.00 147.41 2652.69
   08:44:18.243.08-Feb-2020 3153.01 5765.05 71.17 2.00 147.61 2652.69
   08:44:18.444.08-Feb-2020 3153.01 5772.26 71.17 2.00 147.81 2652.69
   08:44:18.644.08-Feb-2020 3153.01 5766.08 71.17 2.00 148.01 2652.69
   08:44:18.844.08-Feb-2020 3153.01 5766.08 71.17 2.00 148.21 2652.69
   08:44:19.044.08-Feb-2020 3153.01 5766.04 71.17 2.00 148.41 2652.69
   08:44:19.244.08-Feb-2020 3153.01 5767.29 71.17 2.00 148.61 2652.69
   08:44:19.444.08-Feb-2020 3153.01 5765.77 71.17 2.00 148.81 2652.69
   08:44:19.644.08-Feb-2020 3153.01 5766.33 71.17 2.00 149.01 2652.69
   08:44:19.844.08-Feb-2020 3153.01 5766.33 71.17 2.00 149.21 2652.69
   08:44:20.044.08-Feb-2020 3153.01 5766.12 71.17 2.00 149.41 2652.69
   08:44:20.244.08-Feb-2020 3153.01 5765.99 71.17 2.00 149.61 2652.69
   08:44:20.444.08-Feb-2020 3153.01 5766.17 71.17 2.00 149.81 2652.69
   08:44:20.644.08-Feb-2020 3153.01 5767.19 71.17 2.00 150.01 2652.69
   08:44:20.844.08-Feb-2020 3153.01 5767.19 71.17 2.00 150.21 2652.69
   08:44:21.044.08-Feb-2020 3153.01 5766.91 71.17 2.00 150.41 2652.69
   08:44:21.244.08-Feb-2020 3153.01 5765.77 71.17 2.00 150.61 2652.69
   08:44:21.444.08-Feb-2020 3153.01 5766.82 71.17 2.00 150.81 2652.69
   08:44:21.644.08-Feb-2020 3153.01 5766.75 71.17 2.00 151.01 2652.69
   08:44:21.844.08-Feb-2020 3153.01 5766.75 71.17 2.00 151.21 2652.69
   08:44:22.044.08-Feb-2020 3153.01 5766.24 71.17 2.00 151.41 2652.69
   08:44:22.244.08-Feb-2020 3153.01 5766.09 71.17 2.00 151.61 2652.69
   08:44:22.444.08-Feb-2020 3153.01 5766.24 71.17 2.00 151.81 2652.69
   08:44:22.644.08-Feb-2020 3153.01 5766.46 71.17 2.00 152.01 2652.69
   08:44:22.844.08-Feb-2020 3153.01 5766.46 71.17 2.00 152.21 2652.69
   08:44:23.044.08-Feb-2020 3153.01 5766.77 71.17 2.00 152.41 2652.69
   08:44:23.244.08-Feb-2020 3153.01 5764.57 71.17 2.00 152.61 2652.69
   08:44:23.444.08-Feb-2020 3153.01 5772.34 71.17 2.00 152.81 2652.69
   08:44:23.644.08-Feb-2020 3153.01 5765.92 71.17 2.00 153.01 2652.69
   08:44:23.844.08-Feb-2020 3153.01 5765.92 71.17 2.00 153.21 2652.69
   08:44:24.044.08-Feb-2020 3153.01 5764.92 71.16 2.00 153.41 2652.69
   08:44:24.244.08-Feb-2020 3153.01 5769.81 71.16 2.00 153.61 2652.69
   08:44:24.444.08-Feb-2020 3153.01 5767.42 71.16 2.00 153.81 2652.69
   08:44:24.644.08-Feb-2020 3153.01 5763.97 71.16 2.00 154.01 2652.69
   08:44:24.844.08-Feb-2020 3153.01 5763.97 71.16 2.00 154.21 2652.69
   08:44:25.044.08-Feb-2020 3153.01 5765.38 71.16 2.00 154.41 2652.69
   08:44:25.244.08-Feb-2020 3153.01 5763.36 71.16 2.00 154.61 2652.69
   08:44:25.444.08-Feb-2020 3153.01 5763.92 71.16 2.00 154.81 2652.69
   08:44:25.644.08-Feb-2020 3153.01 5769.69 71.16 2.00 155.01 2652.69
   08:44:25.844.08-Feb-2020 3153.01 5769.69 71.16 2.00 155.21 2652.69
   08:44:26.044.08-Feb-2020 3153.01 5764.89 71.16 2.00 155.41 2652.69
   08:44:26.244.08-Feb-2020 3153.01 5766.18 71.16 2.00 155.61 2652.69
   08:44:26.444.08-Feb-2020 3153.01 5767.52 71.16 2.00 155.81 2652.69
   08:44:26.644.08-Feb-2020 3153.01 5765.75 71.16 2.00 156.01 2652.69
   08:44:26.844.08-Feb-2020 3153.01 5765.75 71.16 2.00 156.21 2652.69
   08:44:27.044.08-Feb-2020 3153.01 5767.40 71.16 2.00 156.41 2652.69
   08:44:27.244.08-Feb-2020 3153.01 5766.34 71.16 2.00 156.61 2652.69
   08:44:27.444.08-Feb-2020 3153.01 5766.31 71.16 2.00 156.81 2652.69
   08:44:27.644.08-Feb-2020 3153.01 5766.57 71.16 2.00 157.01 2652.69
   08:44:27.844.08-Feb-2020 3153.01 5766.57 71.16 2.00 157.21 2652.69
   08:44:28.044.08-Feb-2020 3153.01 5765.36 71.16 2.00 157.41 2652.69
   08:44:28.244.08-Feb-2020 3153.01 5764.62 71.16 2.00 157.61 2652.69
   08:44:28.444.08-Feb-2020 3153.01 5766.24 71.16 2.00 157.81 2652.69
   08:44:28.644.08-Feb-2020 3153.01 5767.61 71.16 2.00 158.01 2652.69
   08:44:28.844.08-Feb-2020 3153.01 5767.61 71.16 2.00 158.21 2652.69
   08:44:29.044.08-Feb-2020 3153.01 5766.32 71.16 2.00 158.41 2652.69
   08:44:29.244.08-Feb-2020 3153.01 5767.13 71.16 2.00 158.61 2652.69
   08:44:29.444.08-Feb-2020 3153.01 5766.01 71.16 2.00 158.81 2652.69
   08:44:29.644.08-Feb-2020 3153.01 5765.93 71.16 2.00 159.01 2652.69
   08:44:29.844.08-Feb-2020 3153.01 5765.93 71.16 2.00 159.21 2652.69
   08:44:30.044.08-Feb-2020 3153.01 5769.73 71.16 2.00 159.41 2652.69
   08:44:30.244.08-Feb-2020 3153.01 5766.40 71.16 2.00 159.61 2652.69
   08:44:30.445.08-Feb-2020 3153.01 5764.07 71.16 2.00 159.81 2652.69
   08:44:30.645.08-Feb-2020 3153.01 5769.30 71.16 2.00 160.01 2652.69
   08:44:30.845.08-Feb-2020 3153.01 5769.30 71.16 2.00 160.21 2652.69
   08:44:31.045.08-Feb-2020 3153.01 5764.46 71.16 2.00 160.41 2652.69
   08:44:31.245.08-Feb-2020 3153.01 5765.75 71.16 2.00 160.61 2652.69
   08:44:31.445.08-Feb-2020 3153.01 5769.04 71.16 2.00 160.81 2652.69
