~Version Information
 VERS.                  2.0:   CWLS log ASCII Standard -VERSION 2.0
 WRAP.                   NO:   One line per depth step
~Well Information Block
#MNEM.UNIT     VALUE/NAME     DESCRIPTION
#---------     -----------    ---------------------------
 STRT.S             10:04:49 08-Feb-20: START TIME 10:04:49 08-Feb-20
 STOP.S             10:11:45 08-Feb-20: STOP TIME  10:11:45 08-Feb-20
 STEP.S                   0.00: STEP TIME
 NULL.                 -999.25: NULL VALUE
 DFWT.                        :  DIST FWL TEXT
 DFST.                        :  DIST FSL TEXT
 DMF .             Drill Floor:  DRILL MEAS FROM
 STIM.      07.00.00 09-Jan-20:  START TIME
 DATE.      14.04.48 07-Feb-20:  END TIME
 SPUD.               09-Jan-20:  SPUD DATE
 NREF.                    Grid:  NORTH REFERENCE
 HPTY.       Minimum Curvature:  HOLE POS TYPE
 DMOD.             Drill Model:  DRILL MOD DESC
 SVYD.                  Survey:  SURVEY DESC
 ILTD.               Lithology:  INTERP LTH DESC
 FTOP.          Formation Tops:  FORM TOPS DESC
 SON .        AZ-XX-0905059384:  JOB NUMBER
 MDS .        Operator Entered:  MAG DATA SOURCE
 WTYP.                Deviated:  WELL TYPE
 COMP.     BP Exploration (Caspian Sea) Ltd.:  COMPANY
 UWI .                     N/A:  UNIQUE WELL IDENTIFIER
 API .                     N/A:  API NUMBER
 BASE.              Azerbaijan:  LOGGING EQUIPMENT BASE LOCATION
 REGN.                   EESSA:  REGION
 PROV.                    Baku:  PROVINCE
 STAT.                    Baku:  STATE NAME
 CTRY.              Azerbaijan:  COUNTRY NAME
 FLD .                     ACG:  FIELD NAME
 SRVC.     TURAN Drilling & Engineering:  CONTRACTOR
 MWDS.                    Baku:  MWD SHOP
 WELL.                     J22:  WELL NAME
 RIG .             West Chirag:  RIG NAME
 DOE .                     N/A:  DOE NUMBER
 DCON.         Sperry Drilling:  DIRECTNL CONTR
 UNIT.                     N/A:  LOGGING EQUIPMENT ID
 PDAT.          Mean Sea Level:  PERMANENT DATUM
 JOBN.        AZ-XX-0905059384:  JOB TICKET NUMB
 CNTY.                        :  COUNTY
 LOC .                        :  LOCATION
 LMF .             Drill Floor:  LOG MEASURED FROM
 TVDS.m                  43.00:  TVDSS CORRECTN
 LATI.deg                40.13:  LATITUDE
 LONG.deg                51.22:  LONGITUDE
 WHNS.m                  10.28:  WELL HEAD N/S
 WHEW.m                  -6.24:  WELL HEAD E/W
 UTMX.m              519005.06:  UTM X
 UTMY.m             4443793.85:  UTM Y
 DFWL.m                   0.00:  DISTANCE FWL
 DFSL.m                   0.00:  DISTANCE FSL
 SDEP.m                 362.00:  START DEPTH
 TDD .m                 904.00:  TOTAL DEPTH (DRILLER)
 VSDR.deg               148.53:  VERT SEC DIRECT
 GVFD.g                   1.00:  GRAVITY FIELD
 MFLD.nT              50277.00:  MAGNETIC FIELD
 MDIP.deg                59.56:  MAGNETIC DIP
 MDEC.deg                 6.42:  MAGNETIC DECL
 GRDC.deg                 0.15:  GRID CORRECTION
 AZTC.deg                 6.27:  AZM TOTAL CORR
 EPD .m                   0.00:  ELEVATION
 EGL .m                   0.00:  GROUND ELEVATION
 WDMS.m                 169.80:  WD ELEV
 APD .m                  43.00:  DEPTH ABOVE PD
 AGAP.m                  43.00:  AIR GAP
 VSEW.m                  -6.24:  VERT SEC E/W
 VSNS.m                  10.28:  VERT SEC N/S
 DEP .m                   0.00:  DEPTH
 EKB .m                   0.00:  KB ELEVATION
 EDF .m                  43.00:  DF ELEVATION
 TDL .m                1183.00:  TOTAL DEPTH (LOGGER)
 VSC .                       0:  VS TO CLOSURE
 MAGU.                 1850021:  MAGUTM CHECKSUM
~Parameter Information Block
#MNEM.UNIT       Value        Description
#---------     -----------    ---------------------------
 AV  .mps                 4.00:  Ann Velocity 
 AVMX.mps                 4.50:  Max Ann Veloc 
 AZIF.deg               145.38:  Azm, Final 
 BHAT.        Rotary Steerable:  BHA Type 
 BROT.°/30m               3.00:  Build Rotating 
 BS  .in                 12.25:  Bit Size 
 BSZ .in                 12.25:  Bit Size 
 BTPL.psig              650.00:  Bit Press Loss 
 CABU.                      No:  Customer Abuse 
 COMM.                     |¶Q:  Run Comments 1 
 TCS .hr                101.62:  Time Ciculation Ended 
 CV  .mps                 5.00:  Crit Velocity 
 CVMX.mps                 5.00:  Max Crit Veloc 
 DD1 .             Aziz Aliyev:  Direct Drillr 1 
 DD2 .      Fakhraddin Guliyev:  Direct Drillr 2 
 DDSV.                 iCruise:  DD Service 
 DEFF.%                  97.00:  % Det Eff 
 DLRX.°/30m               4.16:  Dogleg Rot Max 
 DLSO.°/30m               3.20:  Dogleg Oriented 
 DLSX.°/30m               4.10:  Dogleg Str Max 
 DRET.      23.12.00 07-Feb-20:  Drill End Time 
 DRST.      11.30.00 04-Feb-20:  Drill Start Tim 
 DTIM.hr                 61.06:  Time Drilling 
 EDEP.m                3219.01:  End Depth 
 ENG1.         Almaz Almadatov:  Engineer 1 
 ENG2.         Dair Mahammadov:  Engineer 2 
 ENG3.          Nazrin Asgarli:  Engineer 3 
 ETIM.      02.30.00 11-Feb-20:  End Time 
 FLOI.gpm              1100.00:  Flow In 
 FLON.gpm               900.00:  Flow In Min 
 FLOS.cptm               55.00:  Fluid Loss 
 FLOX.gpm              1150.00:  Flow In Max 
 FTRO.       Formation Presure:  FTWD Run Obj 
 HFLO.                      No:  High Flow 
 HPRE.                      No:  High Pressure 
 HTEM.                      No:  High Temp 
 HYDO.m                   1.80:  Hydro Offset 
 IFIN.deg                75.11:  Inc, Final 
 IMAX.deg                75.11:  Inc Max 
 IMIN.deg                33.55:  Inc Min 
 IMND.m                2186.05:  Inc Min Depth 
 IMXD.m                3205.61:  Inc Max Depth 
 JARR.                      No:  Jarring 
 LETM.      23.12.00 07-Feb-20:  Log End Time 
 LOST.hr                     0:  Lost Rig Time 
 LSTM.      11.30.00 04-Feb-20:  Log Start Time 
 MDCL.ppm             40000.00:  Mud Chlorides 
 MDES.     Inversion Oil/Synthetic:  Mud Desc 
 DFD .sg                  1.49:  Mud Density 
 MDMN.sg                  1.49:  Dens Mud Min 
 MDMX.sg                  1.49:  Dens Mud Max 
 MOIL.                      73:  Run Mud Oil % 
 MOWR.                   73:27:  Run Mud OWR 
 MSND.                     0.1:  Run Mud Sand % 
 MSOL.                    20.1:  Run Mud Solids% 
 DFV .spqt               78.00:  Mud Viscosity 
 MWOD.in                  8.00:  MWD Tool OD 
 MWSI.                      No:  Serv Intrp, MWD 
 OTIM.hr                177.15:  Time Operating 
 PCON.          Wear / Scratch:  Pad Condition 
 PMAX.psia            10493.93:  Press Op, Max 
 PV  .cP                 73.00:  Mud PV 
 RUN .                     700:  Run Number 
 ROPA.m/hr               15.00:  ROP Avg 
 ROPN.m/hr               10.00:  ROP Min 
 ROPX.m/hr               35.00:  ROP Max 
 RPMA.rpm               130.00:  RPM Surface Avg 
 RPMN.rpm                80.00:  RPM Surface Min 
 RPMX.rpm               150.00:  RPM Surface Max 
 RRUN.                    L402:  Rig Run Number 
 RTIM.hr                 80.50:  Time Reaming 
 SAZI.deg               155.55:  Azm, Start 
 SDEP.m                2036.00:  Start Depth 
 SIDD.                      No:  Serv Intrp, DD 
 SINC.deg                35.44:  Inc, Start 
 SPPA.psig             4270.00:  SPP Avg 
 SPPN.psig             2800.00:  SPP Min 
 SPPX.psig             4850.00:  SPP Max 
 STIM.      09.30.00 03-Feb-20:  Start Time 
 SVCS.                 DD, MWD:  Services 
 SVER.                    9.20:  Sperry Version 
 TDAT.m                1183.00:  Tot Depth Attmp 
 TDDF.                      No:  Trip for DD 
 TDLG.m                1183.00:  Tot Depth Loggd 
 TFF .                      No:  Trip for Fail 
 TQAA.f-kp               16.00:  Torque Abs Avg 
 TQAN.f-kp               10.00:  Torque Abs Min 
 TQAX.f-kp               20.00:  Torque Abs Max 
 TRRT.°/30m               1.00:  Turn Rotating 
 MRT .                  EWR-M5:  Maximum Recorded Temperature 
 TTMX.degC               80.39:  Max Tool Temp 
 VS01.               13098498 :  Virtual Str1 SN 
 VS02.                90569596:  Virtual Str2 SN 
 VS03.                90523599:  Virtual Str3 SN 
 VS04.                90573553:  Virtual Str4 SN 
 VS05.                90598598:  Virtual Str5 SN 
 VS06.                90577297:  Virtual Str6 SN 
 WBMN.klb                13.00:  WOB Min 
 WITN.         Alistair Sprott:  Customer Rep 
 WITN.           Rufat Babayev:  Customer Rep 2 
 WOBA.klb                15.00:  WOB Avg 
 WOBX.klb                20.00:  WOB Max 
 YP  .lhf2               39.00:  Yield Point 
~Curve Information Block
#MNEM.UNIT                 API CODE     Curve Description
#---------               -----------    ---------------------------
 TIME.HHMMSS            00 000 000 000:  GT Time & Date
 GTDEPTH.m              00 000 000 000:  GT Depth
 GTPQH.psia             00 000 000 000:  GT HR Quartz Pressure
 GTTQ.degC              00 000 000 000:  GT Quartz Temperature
 GTTN.NONE              00 000 000 000:  GT Test Number
 GTET.sec               00 000 000 000:  GT Elapsed Test Time
 GTTVD.m                00 000 000 000:  GT True Vertical Depth
#Other Information
#
#WARRANTY: Halliburton will use its best efforts to furnish customers with 
#accurate information and interpretations that are part of, and incident to, the services 
#provided.  However, Halliburton cannot and does not warrant the accuracy 
#or correctness of such information and interpretations.  Under no circumstances should any 
#such information or interpretation be relied upon as the sole basis for any drilling, 
#completion, production, or financial decision or any procedure involving any risk to the 
#safety of any drilling venture, drilling rig or its crew or any other third party.  The 
#Customer has full responsibility for all drilling, completion and production operation.  
#Halliburton makes no representations or warranties, either expressed or 
#implied, including, but not limited to, the implied warranties of merchantability or fitness 
#for a particular purpose, with respect to the services rendered.  In no event will 
#Halliburton be liable for failure to obtain any particular results or for 
#any damages, including, but not limited to, indirect, special or consequential damages, 
#resulting from the use of any information or interpretation provided by Halliburton.
#
~A           TIME           GTDEPTH  GTPQH  GTTQ  GTTN  GTET   GTTVD  
# ...
   10:07:53.237.08-Feb-2020 3159.51 4880.95 68.48 5.00 184.06 2654.38
   10:07:53.437.08-Feb-2020 3159.51 4880.95 68.48 5.00 184.26 2654.38
   10:07:53.637.08-Feb-2020 3159.51 4880.99 68.48 5.00 184.46 2654.38
   10:07:53.837.08-Feb-2020 3159.51 4881.12 68.48 5.00 184.66 2654.38
   10:07:54.038.08-Feb-2020 3159.51 4880.99 68.48 5.00 184.86 2654.38
   10:07:54.238.08-Feb-2020 3159.51 4881.01 68.48 5.00 185.06 2654.38
   10:07:54.438.08-Feb-2020 3159.51 4881.01 68.48 5.00 185.26 2654.38
   10:07:54.638.08-Feb-2020 3159.51 4881.10 68.48 5.00 185.46 2654.38
   10:07:54.838.08-Feb-2020 3159.51 4881.05 68.48 5.00 185.66 2654.38
   10:07:55.038.08-Feb-2020 3159.51 4881.17 68.48 5.00 185.86 2654.38
   10:07:55.238.08-Feb-2020 3159.51 4881.08 68.48 5.00 186.06 2654.38
   10:07:55.438.08-Feb-2020 3159.51 4881.08 68.48 5.00 186.26 2654.38
   10:07:55.638.08-Feb-2020 3159.51 4881.11 68.48 5.00 186.46 2654.38
   10:07:55.838.08-Feb-2020 3159.51 4881.45 68.48 5.00 186.66 2654.38
   10:07:56.038.08-Feb-2020 3159.51 4880.74 68.48 5.00 186.86 2654.38
   10:07:56.238.08-Feb-2020 3159.51 4880.97 68.48 5.00 187.06 2654.38
   10:07:56.438.08-Feb-2020 3159.51 4880.97 68.48 5.00 187.26 2654.38
   10:07:56.638.08-Feb-2020 3159.51 4880.92 68.48 5.00 187.46 2654.38
   10:07:56.838.08-Feb-2020 3159.51 4880.87 68.48 5.00 187.66 2654.38
   10:07:57.038.08-Feb-2020 3159.51 4881.12 68.48 5.00 187.86 2654.38
   10:07:57.239.08-Feb-2020 3159.51 4881.31 68.48 5.00 188.06 2654.38
   10:07:57.439.08-Feb-2020 3159.51 4881.31 68.48 5.00 188.26 2654.38
   10:07:57.639.08-Feb-2020 3159.51 4880.61 68.48 5.00 188.46 2654.38
   10:07:57.839.08-Feb-2020 3159.51 4880.93 68.48 5.00 188.66 2654.38
   10:07:58.039.08-Feb-2020 3159.51 4881.22 68.48 5.00 188.86 2654.38
   10:07:58.239.08-Feb-2020 3159.51 4881.14 68.48 5.00 189.06 2654.38
   10:07:58.439.08-Feb-2020 3159.51 4881.14 68.48 5.00 189.26 2654.38
   10:07:58.639.08-Feb-2020 3159.51 4881.20 68.48 5.00 189.46 2654.38
   10:07:58.839.08-Feb-2020 3159.51 4881.26 68.48 5.00 189.66 2654.38
   10:07:59.039.08-Feb-2020 3159.51 4881.36 68.48 5.00 189.86 2654.38
   10:07:59.239.08-Feb-2020 3159.51 4881.30 68.48 5.00 190.06 2654.38
   10:07:59.439.08-Feb-2020 3159.51 4881.30 68.48 5.00 190.26 2654.38
   10:07:59.639.08-Feb-2020 3159.51 4881.24 68.48 5.00 190.46 2654.38
   10:07:59.839.08-Feb-2020 3159.51 4881.21 68.48 5.00 190.66 2654.38
   10:08:00.039.08-Feb-2020 3159.51 4881.32 68.48 5.00 190.86 2654.38
   10:08:00.239.08-Feb-2020 3159.51 4881.30 68.48 5.00 191.06 2654.38
   10:08:00.440.08-Feb-2020 3159.51 4881.30 68.48 5.00 191.26 2654.38
   10:08:00.640.08-Feb-2020 3159.51 4881.25 68.48 5.00 191.46 2654.38
   10:08:00.840.08-Feb-2020 3159.51 4881.27 68.48 5.00 191.66 2654.38
   10:08:01.040.08-Feb-2020 3159.51 4881.28 68.48 5.00 191.86 2654.38
   10:08:01.240.08-Feb-2020 3159.51 4881.93 68.48 5.00 192.06 2654.38
   10:08:01.440.08-Feb-2020 3159.51 4881.93 68.48 5.00 192.26 2654.38
   10:08:01.640.08-Feb-2020 3159.51 4881.09 68.48 5.00 192.46 2654.38
   10:08:01.840.08-Feb-2020 3159.51 4881.33 68.48 5.00 192.66 2654.38
   10:08:02.040.08-Feb-2020 3159.51 4881.38 68.48 5.00 192.86 2654.38
   10:08:02.240.08-Feb-2020 3159.51 4881.28 68.48 5.00 193.06 2654.38
   10:08:02.440.08-Feb-2020 3159.51 4881.28 68.48 5.00 193.26 2654.38
   10:08:02.640.08-Feb-2020 3159.51 4881.29 68.48 5.00 193.46 2654.38
   10:08:02.840.08-Feb-2020 3159.51 4881.25 68.48 5.00 193.66 2654.38
   10:08:03.040.08-Feb-2020 3159.51 4881.22 68.48 5.00 193.86 2654.38
   10:08:03.240.08-Feb-2020 3159.51 4881.27 68.48 5.00 194.06 2654.38
   10:08:03.440.08-Feb-2020 3159.51 4881.27 68.48 5.00 194.26 2654.38
   10:08:03.641.08-Feb-2020 3159.51 4881.47 68.48 5.00 194.46 2654.38
   10:08:03.841.08-Feb-2020 3159.51 4881.24 68.48 5.00 194.66 2654.38
   10:08:04.041.08-Feb-2020 3159.51 4881.38 68.48 5.00 194.86 2654.38
   10:08:04.241.08-Feb-2020 3159.51 4881.45 68.48 5.00 195.06 2654.38
   10:08:04.441.08-Feb-2020 3159.51 4881.45 68.48 5.00 195.26 2654.38
   10:08:04.641.08-Feb-2020 3159.51 4880.81 68.48 5.00 195.46 2654.38
   10:08:04.841.08-Feb-2020 3159.51 4881.06 68.48 5.00 195.66 2654.38
   10:08:05.041.08-Feb-2020 3159.51 4881.19 68.48 5.00 195.86 2654.38
   10:08:05.241.08-Feb-2020 3159.51 4881.42 68.48 5.00 196.06 2654.38
   10:08:05.441.08-Feb-2020 3159.51 4881.42 68.48 5.00 196.26 2654.38
   10:08:05.641.08-Feb-2020 3159.51 4881.18 68.48 5.00 196.46 2654.38
   10:08:05.841.08-Feb-2020 3159.51 4881.45 68.48 5.00 196.66 2654.38
   10:08:06.041.08-Feb-2020 3159.51 4881.29 68.48 5.00 196.86 2654.38
   10:08:06.241.08-Feb-2020 3159.51 4881.24 68.48 5.00 197.06 2654.38
   10:08:06.441.08-Feb-2020 3159.51 4881.24 68.48 5.00 197.26 2654.38
   10:08:06.641.08-Feb-2020 3159.51 4881.43 68.48 5.00 197.46 2654.38
   10:08:06.842.08-Feb-2020 3159.51 4881.38 68.48 5.00 197.66 2654.38
   10:08:07.042.08-Feb-2020 3159.51 4881.36 68.48 5.00 197.86 2654.38
   10:08:07.242.08-Feb-2020 3159.51 4881.41 68.48 5.00 198.06 2654.38
   10:08:07.442.08-Feb-2020 3159.51 4881.41 68.48 5.00 198.26 2654.38
   10:08:07.642.08-Feb-2020 3159.51 4881.42 68.48 5.00 198.46 2654.38
   10:08:07.842.08-Feb-2020 3159.51 4881.38 68.48 5.00 198.66 2654.38
   10:08:08.042.08-Feb-2020 3159.51 4881.39 68.48 5.00 198.86 2654.38
   10:08:08.242.08-Feb-2020 3159.51 4881.21 68.48 5.00 199.06 2654.38
   10:08:08.442.08-Feb-2020 3159.51 4881.21 68.48 5.00 199.26 2654.38
   10:08:08.642.08-Feb-2020 3159.51 4881.29 68.48 5.00 199.46 2654.38
   10:08:08.842.08-Feb-2020 3159.51 4881.37 68.48 5.00 199.66 2654.38
   10:08:09.042.08-Feb-2020 3159.51 4881.36 68.48 5.00 199.86 2654.38
   10:08:09.242.08-Feb-2020 3159.51 4881.31 68.48 5.00 200.06 2654.38
   10:08:09.442.08-Feb-2020 3159.51 4881.31 68.48 5.00 200.26 2654.38
   10:08:09.642.08-Feb-2020 3159.51 4881.43 68.48 5.00 200.46 2654.38
   10:08:09.842.08-Feb-2020 3159.51 4881.34 68.48 5.00 200.66 2654.38
   10:08:10.043.08-Feb-2020 3159.51 4881.40 68.48 5.00 200.86 2654.38
   10:08:10.243.08-Feb-2020 3159.51 4881.82 68.48 5.00 201.06 2654.38
   10:08:10.443.08-Feb-2020 3159.51 4881.82 68.48 5.00 201.26 2654.38
   10:08:10.643.08-Feb-2020 3159.51 4881.28 68.48 5.00 201.46 2654.38
   10:08:10.843.08-Feb-2020 3159.51 4882.13 68.48 5.00 201.66 2654.38
   10:08:11.043.08-Feb-2020 3159.51 4881.09 68.48 5.00 201.86 2654.38
   10:08:11.243.08-Feb-2020 3159.51 4881.04 68.48 5.00 202.06 2654.38
   10:08:11.443.08-Feb-2020 3159.51 4881.04 68.48 5.00 202.26 2654.38
   10:08:11.643.08-Feb-2020 3159.51 4881.31 68.48 5.00 202.46 2654.38
   10:08:11.843.08-Feb-2020 3159.51 4881.13 68.48 5.00 202.66 2654.38
   10:08:12.043.08-Feb-2020 3159.51 4881.79 68.48 5.00 202.86 2654.38
   10:08:12.243.08-Feb-2020 3159.51 4881.05 68.48 5.00 203.06 2654.38
   10:08:12.443.08-Feb-2020 3159.51 4881.05 68.48 5.00 203.26 2654.38
   10:08:12.643.08-Feb-2020 3159.51 4881.30 68.48 5.00 203.46 2654.38
   10:08:12.843.08-Feb-2020 3159.51 4882.30 68.48 5.00 203.66 2654.38
   10:08:13.043.08-Feb-2020 3159.51 4881.04 68.48 5.00 203.86 2654.38
   10:08:13.244.08-Feb-2020 3159.51 4881.05 68.48 5.00 204.06 2654.38
   10:08:13.444.08-Feb-2020 3159.51 4881.05 68.48 5.00 204.26 2654.38
   10:08:13.644.08-Feb-2020 3159.51 4881.53 68.48 5.00 204.46 2654.38
   10:08:13.844.08-Feb-2020 3159.51 4881.39 68.48 5.00 204.66 2654.38
   10:08:14.044.08-Feb-2020 3159.51 4881.50 68.47 5.00 204.86 2654.38
   10:08:14.244.08-Feb-2020 3159.51 4881.47 68.48 5.00 205.06 2654.38
   10:08:14.444.08-Feb-2020 3159.51 4881.47 68.48 5.00 205.26 2654.38
   10:08:14.644.08-Feb-2020 3159.51 4881.38 68.47 5.00 205.46 2654.38
   10:08:14.844.08-Feb-2020 3159.51 4881.45 68.47 5.00 205.66 2654.38
   10:08:15.044.08-Feb-2020 3159.51 4881.75 68.47 5.00 205.86 2654.38
   10:08:15.244.08-Feb-2020 3159.51 4880.94 68.47 5.00 206.06 2654.38
   10:08:15.444.08-Feb-2020 3159.51 4880.94 68.47 5.00 206.26 2654.38
   10:08:15.644.08-Feb-2020 3159.51 4881.35 68.47 5.00 206.46 2654.38
   10:08:15.844.08-Feb-2020 3159.51 4881.52 68.47 5.00 206.66 2654.38
   10:08:16.044.08-Feb-2020 3159.51 4881.40 68.47 5.00 206.86 2654.38
