~Version Information
 VERS.                  2.0:   CWLS log ASCII Standard -VERSION 2.0
 WRAP.                   NO:   One line per depth step
~Well Information Block
#MNEM.UNIT     VALUE/NAME     DESCRIPTION
#---------     -----------    ---------------------------
 STRT.S             11:02:51 08-Feb-20: START TIME 11:02:51 08-Feb-20
 STOP.S             11:09:43 08-Feb-20: STOP TIME  11:09:43 08-Feb-20
 STEP.S                   0.00: STEP TIME
 NULL.                 -999.25: NULL VALUE
 DFWT.                        :  DIST FWL TEXT
 DFST.                        :  DIST FSL TEXT
 DMF .             Drill Floor:  DRILL MEAS FROM
 STIM.      07.00.00 09-Jan-20:  START TIME
 DATE.      14.04.48 07-Feb-20:  END TIME
 SPUD.               09-Jan-20:  SPUD DATE
 NREF.                    Grid:  NORTH REFERENCE
 HPTY.       Minimum Curvature:  HOLE POS TYPE
 DMOD.             Drill Model:  DRILL MOD DESC
 SVYD.                  Survey:  SURVEY DESC
 ILTD.               Lithology:  INTERP LTH DESC
 FTOP.          Formation Tops:  FORM TOPS DESC
 SON .        AZ-XX-0905059384:  JOB NUMBER
 MDS .        Operator Entered:  MAG DATA SOURCE
 WTYP.                Deviated:  WELL TYPE
 COMP.     BP Exploration (Caspian Sea) Ltd.:  COMPANY
 UWI .                     N/A:  UNIQUE WELL IDENTIFIER
 API .                     N/A:  API NUMBER
 BASE.              Azerbaijan:  LOGGING EQUIPMENT BASE LOCATION
 REGN.                   EESSA:  REGION
 PROV.                    Baku:  PROVINCE
 STAT.                    Baku:  STATE NAME
 CTRY.              Azerbaijan:  COUNTRY NAME
 FLD .                     ACG:  FIELD NAME
 SRVC.     TURAN Drilling & Engineering:  CONTRACTOR
 MWDS.                    Baku:  MWD SHOP
 WELL.                     J22:  WELL NAME
 RIG .             West Chirag:  RIG NAME
 DOE .                     N/A:  DOE NUMBER
 DCON.         Sperry Drilling:  DIRECTNL CONTR
 UNIT.                     N/A:  LOGGING EQUIPMENT ID
 PDAT.          Mean Sea Level:  PERMANENT DATUM
 JOBN.        AZ-XX-0905059384:  JOB TICKET NUMB
 CNTY.                        :  COUNTY
 LOC .                        :  LOCATION
 LMF .             Drill Floor:  LOG MEASURED FROM
 TVDS.m                  43.00:  TVDSS CORRECTN
 LATI.deg                40.13:  LATITUDE
 LONG.deg                51.22:  LONGITUDE
 WHNS.m                  10.28:  WELL HEAD N/S
 WHEW.m                  -6.24:  WELL HEAD E/W
 UTMX.m              519005.06:  UTM X
 UTMY.m             4443793.85:  UTM Y
 DFWL.m                   0.00:  DISTANCE FWL
 DFSL.m                   0.00:  DISTANCE FSL
 SDEP.m                 362.00:  START DEPTH
 TDD .m                 904.00:  TOTAL DEPTH (DRILLER)
 VSDR.deg               148.53:  VERT SEC DIRECT
 GVFD.g                   1.00:  GRAVITY FIELD
 MFLD.nT              50277.00:  MAGNETIC FIELD
 MDIP.deg                59.56:  MAGNETIC DIP
 MDEC.deg                 6.42:  MAGNETIC DECL
 GRDC.deg                 0.15:  GRID CORRECTION
 AZTC.deg                 6.27:  AZM TOTAL CORR
 EPD .m                   0.00:  ELEVATION
 EGL .m                   0.00:  GROUND ELEVATION
 WDMS.m                 169.80:  WD ELEV
 APD .m                  43.00:  DEPTH ABOVE PD
 AGAP.m                  43.00:  AIR GAP
 VSEW.m                  -6.24:  VERT SEC E/W
 VSNS.m                  10.28:  VERT SEC N/S
 DEP .m                   0.00:  DEPTH
 EKB .m                   0.00:  KB ELEVATION
 EDF .m                  43.00:  DF ELEVATION
 TDL .m                1183.00:  TOTAL DEPTH (LOGGER)
 VSC .                       0:  VS TO CLOSURE
 MAGU.                 1850021:  MAGUTM CHECKSUM
~Parameter Information Block
#MNEM.UNIT       Value        Description
#---------     -----------    ---------------------------
 AV  .mps                 4.00:  Ann Velocity 
 AVMX.mps                 4.50:  Max Ann Veloc 
 AZIF.deg               145.38:  Azm, Final 
 BHAT.        Rotary Steerable:  BHA Type 
 BROT.°/30m               3.00:  Build Rotating 
 BS  .in                 12.25:  Bit Size 
 BSZ .in                 12.25:  Bit Size 
 BTPL.psig              650.00:  Bit Press Loss 
 CABU.                      No:  Customer Abuse 
 COMM.                     Ä%€:  Run Comments 1 
 TCS .hr                101.62:  Time Ciculation Ended 
 CV  .mps                 5.00:  Crit Velocity 
 CVMX.mps                 5.00:  Max Crit Veloc 
 DD1 .             Aziz Aliyev:  Direct Drillr 1 
 DD2 .      Fakhraddin Guliyev:  Direct Drillr 2 
 DDSV.                 iCruise:  DD Service 
 DEFF.%                  97.00:  % Det Eff 
 DLRX.°/30m               4.16:  Dogleg Rot Max 
 DLSO.°/30m               3.20:  Dogleg Oriented 
 DLSX.°/30m               4.10:  Dogleg Str Max 
 DRET.      23.12.00 07-Feb-20:  Drill End Time 
 DRST.      11.30.00 04-Feb-20:  Drill Start Tim 
 DTIM.hr                 61.06:  Time Drilling 
 EDEP.m                3219.01:  End Depth 
 ENG1.         Almaz Almadatov:  Engineer 1 
 ENG2.         Dair Mahammadov:  Engineer 2 
 ENG3.          Nazrin Asgarli:  Engineer 3 
 ETIM.      02.30.00 11-Feb-20:  End Time 
 FLOI.gpm              1100.00:  Flow In 
 FLON.gpm               900.00:  Flow In Min 
 FLOS.cptm               55.00:  Fluid Loss 
 FLOX.gpm              1150.00:  Flow In Max 
 FTRO.       Formation Presure:  FTWD Run Obj 
 HFLO.                      No:  High Flow 
 HPRE.                      No:  High Pressure 
 HTEM.                      No:  High Temp 
 HYDO.m                   1.80:  Hydro Offset 
 IFIN.deg                75.11:  Inc, Final 
 IMAX.deg                75.11:  Inc Max 
 IMIN.deg                33.55:  Inc Min 
 IMND.m                2186.05:  Inc Min Depth 
 IMXD.m                3205.61:  Inc Max Depth 
 JARR.                      No:  Jarring 
 LETM.      23.12.00 07-Feb-20:  Log End Time 
 LOST.hr                     0:  Lost Rig Time 
 LSTM.      11.30.00 04-Feb-20:  Log Start Time 
 MDCL.ppm             40000.00:  Mud Chlorides 
 MDES.     Inversion Oil/Synthetic:  Mud Desc 
 DFD .sg                  1.49:  Mud Density 
 MDMN.sg                  1.49:  Dens Mud Min 
 MDMX.sg                  1.49:  Dens Mud Max 
 MOIL.                      73:  Run Mud Oil % 
 MOWR.                   73:27:  Run Mud OWR 
 MSND.                     0.1:  Run Mud Sand % 
 MSOL.                    20.1:  Run Mud Solids% 
 DFV .spqt               78.00:  Mud Viscosity 
 MWOD.in                  8.00:  MWD Tool OD 
 MWSI.                      No:  Serv Intrp, MWD 
 OTIM.hr                177.15:  Time Operating 
 PCON.          Wear / Scratch:  Pad Condition 
 PMAX.psia            10493.93:  Press Op, Max 
 PV  .cP                 73.00:  Mud PV 
 RUN .                     700:  Run Number 
 ROPA.m/hr               15.00:  ROP Avg 
 ROPN.m/hr               10.00:  ROP Min 
 ROPX.m/hr               35.00:  ROP Max 
 RPMA.rpm               130.00:  RPM Surface Avg 
 RPMN.rpm                80.00:  RPM Surface Min 
 RPMX.rpm               150.00:  RPM Surface Max 
 RRUN.                    L402:  Rig Run Number 
 RTIM.hr                 80.50:  Time Reaming 
 SAZI.deg               155.55:  Azm, Start 
 SDEP.m                2036.00:  Start Depth 
 SIDD.                      No:  Serv Intrp, DD 
 SINC.deg                35.44:  Inc, Start 
 SPPA.psig             4270.00:  SPP Avg 
 SPPN.psig             2800.00:  SPP Min 
 SPPX.psig             4850.00:  SPP Max 
 STIM.      09.30.00 03-Feb-20:  Start Time 
 SVCS.                 DD, MWD:  Services 
 SVER.                    9.20:  Sperry Version 
 TDAT.m                1183.00:  Tot Depth Attmp 
 TDDF.                      No:  Trip for DD 
 TDLG.m                1183.00:  Tot Depth Loggd 
 TFF .                      No:  Trip for Fail 
 TQAA.f-kp               16.00:  Torque Abs Avg 
 TQAN.f-kp               10.00:  Torque Abs Min 
 TQAX.f-kp               20.00:  Torque Abs Max 
 TRRT.°/30m               1.00:  Turn Rotating 
 MRT .                  EWR-M5:  Maximum Recorded Temperature 
 TTMX.degC               80.39:  Max Tool Temp 
 VS01.               13098498 :  Virtual Str1 SN 
 VS02.                90569596:  Virtual Str2 SN 
 VS03.                90523599:  Virtual Str3 SN 
 VS04.                90573553:  Virtual Str4 SN 
 VS05.                90598598:  Virtual Str5 SN 
 VS06.                90577297:  Virtual Str6 SN 
 WBMN.klb                13.00:  WOB Min 
 WITN.         Alistair Sprott:  Customer Rep 
 WITN.           Rufat Babayev:  Customer Rep 2 
 WOBA.klb                15.00:  WOB Avg 
 WOBX.klb                20.00:  WOB Max 
 YP  .lhf2               39.00:  Yield Point 
~Curve Information Block
#MNEM.UNIT                 API CODE     Curve Description
#---------               -----------    ---------------------------
 TIME.HHMMSS            00 000 000 000:  GT Time & Date
 GTDEPTH.m              00 000 000 000:  GT Depth
 GTPQH.psia             00 000 000 000:  GT HR Quartz Pressure
 GTTQ.degC              00 000 000 000:  GT Quartz Temperature
 GTTN.NONE              00 000 000 000:  GT Test Number
 GTET.sec               00 000 000 000:  GT Elapsed Test Time
 GTTVD.m                00 000 000 000:  GT True Vertical Depth
#Other Information
#
#WARRANTY: Halliburton will use its best efforts to furnish customers with 
#accurate information and interpretations that are part of, and incident to, the services 
#provided.  However, Halliburton cannot and does not warrant the accuracy 
#or correctness of such information and interpretations.  Under no circumstances should any 
#such information or interpretation be relied upon as the sole basis for any drilling, 
#completion, production, or financial decision or any procedure involving any risk to the 
#safety of any drilling venture, drilling rig or its crew or any other third party.  The 
#Customer has full responsibility for all drilling, completion and production operation.  
#Halliburton makes no representations or warranties, either expressed or 
#implied, including, but not limited to, the implied warranties of merchantability or fitness 
#for a particular purpose, with respect to the services rendered.  In no event will 
#Halliburton be liable for failure to obtain any particular results or for 
#any damages, including, but not limited to, indirect, special or consequential damages, 
#resulting from the use of any information or interpretation provided by Halliburton.
#
~A           TIME           GTDEPTH  GTPQH  GTTQ  GTTN  GTET   GTTVD  
# ...
   11:04:46.501.08-Feb-2020 3115.78 4584.74 67.21 6.00 115.06 2642.62
   11:04:46.702.08-Feb-2020 3115.78 4584.74 67.21 6.00 115.26 2642.62
   11:04:46.902.08-Feb-2020 3115.78 4585.43 67.21 6.00 115.46 2642.62
   11:04:47.102.08-Feb-2020 3115.78 4585.27 67.21 6.00 115.66 2642.62
   11:04:47.302.08-Feb-2020 3115.78 4583.85 67.21 6.00 115.86 2642.62
   11:04:47.502.08-Feb-2020 3115.78 4584.11 67.21 6.00 116.06 2642.62
   11:04:47.702.08-Feb-2020 3115.78 4585.46 67.21 6.00 116.26 2642.62
   11:04:47.902.08-Feb-2020 3115.78 4584.76 67.21 6.00 116.46 2642.62
   11:04:48.102.08-Feb-2020 3115.78 4585.27 67.21 6.00 116.66 2642.62
   11:04:48.302.08-Feb-2020 3115.78 4585.25 67.21 6.00 116.86 2642.62
   11:04:48.503.08-Feb-2020 3115.78 4585.26 67.21 6.00 117.06 2642.62
   11:04:48.703.08-Feb-2020 3115.78 4585.26 67.21 6.00 117.26 2642.62
   11:04:48.903.08-Feb-2020 3115.78 4585.29 67.21 6.00 117.46 2642.62
   11:04:49.103.08-Feb-2020 3115.78 4585.19 67.21 6.00 117.66 2642.62
   11:04:49.303.08-Feb-2020 3115.78 4585.32 67.21 6.00 117.86 2642.62
   11:04:49.503.08-Feb-2020 3115.78 4585.28 67.21 6.00 118.06 2642.62
   11:04:49.703.08-Feb-2020 3115.78 4585.28 67.21 6.00 118.26 2642.62
   11:04:49.903.08-Feb-2020 3115.78 4585.20 67.21 6.00 118.46 2642.62
   11:04:50.103.08-Feb-2020 3115.78 4585.05 67.21 6.00 118.66 2642.62
   11:04:50.303.08-Feb-2020 3115.78 4586.16 67.21 6.00 118.86 2642.62
   11:04:50.504.08-Feb-2020 3115.78 4586.19 67.21 6.00 119.06 2642.62
   11:04:50.704.08-Feb-2020 3115.78 4586.19 67.21 6.00 119.26 2642.62
   11:04:50.904.08-Feb-2020 3115.78 4585.31 67.20 6.00 119.46 2642.62
   11:04:51.104.08-Feb-2020 3115.78 4585.70 67.20 6.00 119.66 2642.62
   11:04:51.304.08-Feb-2020 3115.78 4585.64 67.20 6.00 119.86 2642.62
   11:04:51.504.08-Feb-2020 3115.78 4585.25 67.20 6.00 120.06 2642.62
   11:04:51.704.08-Feb-2020 3115.78 4585.25 67.20 6.00 120.26 2642.62
   11:04:51.904.08-Feb-2020 3115.78 4585.20 67.20 6.00 120.46 2642.62
   11:04:52.104.08-Feb-2020 3115.78 4585.44 67.20 6.00 120.66 2642.62
   11:04:52.304.08-Feb-2020 3115.78 4586.13 67.20 6.00 120.86 2642.62
   11:04:52.505.08-Feb-2020 3115.78 4586.38 67.20 6.00 121.06 2642.62
   11:04:52.705.08-Feb-2020 3115.78 4586.38 67.20 6.00 121.26 2642.62
   11:04:52.905.08-Feb-2020 3115.78 4585.63 67.20 6.00 121.46 2642.62
   11:04:53.105.08-Feb-2020 3115.78 4585.75 67.20 6.00 121.66 2642.62
   11:04:53.305.08-Feb-2020 3115.78 4585.38 67.20 6.00 121.86 2642.62
   11:04:53.505.08-Feb-2020 3115.78 4586.13 67.20 6.00 122.06 2642.62
   11:04:53.705.08-Feb-2020 3115.78 4586.13 67.20 6.00 122.26 2642.62
   11:04:53.905.08-Feb-2020 3115.78 4584.39 67.20 6.00 122.46 2642.62
   11:04:54.105.08-Feb-2020 3115.78 4585.84 67.20 6.00 122.66 2642.62
   11:04:54.306.08-Feb-2020 3115.78 4586.37 67.20 6.00 122.86 2642.62
   11:04:54.506.08-Feb-2020 3115.78 4587.79 67.20 6.00 123.06 2642.62
   11:04:54.706.08-Feb-2020 3115.78 4587.79 67.20 6.00 123.26 2642.62
   11:04:54.906.08-Feb-2020 3115.78 4585.73 67.20 6.00 123.46 2642.62
   11:04:55.106.08-Feb-2020 3115.78 4586.95 67.20 6.00 123.66 2642.62
   11:04:55.306.08-Feb-2020 3115.78 4587.28 67.20 6.00 123.86 2642.62
   11:04:55.506.08-Feb-2020 3115.78 4585.49 67.20 6.00 124.06 2642.62
   11:04:55.706.08-Feb-2020 3115.78 4585.49 67.20 6.00 124.26 2642.62
   11:04:55.906.08-Feb-2020 3115.78 4585.45 67.20 6.00 124.47 2642.62
   11:04:56.106.08-Feb-2020 3115.78 4584.46 67.20 6.00 124.67 2642.62
   11:04:56.307.08-Feb-2020 3115.78 4585.00 67.20 6.00 124.87 2642.62
   11:04:56.507.08-Feb-2020 3115.78 4585.40 67.20 6.00 125.07 2642.62
   11:04:56.707.08-Feb-2020 3115.78 4585.40 67.20 6.00 125.27 2642.62
   11:04:56.907.08-Feb-2020 3115.78 4584.96 67.20 6.00 125.47 2642.62
   11:04:57.107.08-Feb-2020 3115.78 4585.00 67.20 6.00 125.67 2642.62
   11:04:57.307.08-Feb-2020 3115.78 4585.19 67.20 6.00 125.87 2642.62
   11:04:57.507.08-Feb-2020 3115.78 4586.15 67.19 6.00 126.07 2642.62
   11:04:57.707.08-Feb-2020 3115.78 4586.15 67.19 6.00 126.27 2642.62
   11:04:57.907.08-Feb-2020 3115.78 4585.37 67.19 6.00 126.47 2642.62
   11:04:58.108.08-Feb-2020 3115.78 4586.07 67.19 6.00 126.67 2642.62
   11:04:58.308.08-Feb-2020 3115.78 4585.28 67.19 6.00 126.87 2642.62
   11:04:58.508.08-Feb-2020 3115.78 4585.13 67.19 6.00 127.07 2642.62
   11:04:58.708.08-Feb-2020 3115.78 4585.13 67.19 6.00 127.27 2642.62
   11:04:58.908.08-Feb-2020 3115.78 4585.60 67.19 6.00 127.47 2642.62
   11:04:59.108.08-Feb-2020 3115.78 4585.19 67.19 6.00 127.67 2642.62
   11:04:59.308.08-Feb-2020 3115.78 4585.01 67.19 6.00 127.87 2642.62
   11:04:59.508.08-Feb-2020 3115.78 4585.05 67.19 6.00 128.07 2642.62
   11:04:59.708.08-Feb-2020 3115.78 4585.05 67.19 6.00 128.27 2642.62
   11:04:59.908.08-Feb-2020 3115.78 4586.07 67.19 6.00 128.47 2642.62
   11:05:00.109.08-Feb-2020 3115.78 4585.15 67.19 6.00 128.67 2642.62
   11:05:00.309.08-Feb-2020 3115.78 4584.66 67.19 6.00 128.87 2642.62
   11:05:00.509.08-Feb-2020 3115.78 4585.83 67.19 6.00 129.07 2642.62
   11:05:00.709.08-Feb-2020 3115.78 4585.83 67.19 6.00 129.27 2642.62
   11:05:00.909.08-Feb-2020 3115.78 4584.82 67.19 6.00 129.47 2642.62
   11:05:01.109.08-Feb-2020 3115.78 4585.51 67.19 6.00 129.67 2642.62
   11:05:01.309.08-Feb-2020 3115.78 4584.32 67.19 6.00 129.87 2642.62
   11:05:01.509.08-Feb-2020 3115.78 4584.81 67.19 6.00 130.07 2642.62
   11:05:01.709.08-Feb-2020 3115.78 4584.81 67.19 6.00 130.27 2642.62
   11:05:01.910.08-Feb-2020 3115.78 4584.75 67.19 6.00 130.47 2642.62
   11:05:02.110.08-Feb-2020 3115.78 4583.60 67.19 6.00 130.67 2642.62
   11:05:02.310.08-Feb-2020 3115.78 4584.08 67.19 6.00 130.87 2642.62
   11:05:02.510.08-Feb-2020 3115.78 4585.28 67.19 6.00 131.07 2642.62
   11:05:02.710.08-Feb-2020 3115.78 4585.28 67.19 6.00 131.27 2642.62
   11:05:02.910.08-Feb-2020 3115.78 4584.26 67.19 6.00 131.47 2642.62
   11:05:03.110.08-Feb-2020 3115.78 4584.82 67.19 6.00 131.67 2642.62
   11:05:03.310.08-Feb-2020 3115.78 4585.22 67.19 6.00 131.87 2642.62
   11:05:03.510.08-Feb-2020 3115.78 4585.06 67.19 6.00 132.07 2642.62
   11:05:03.710.08-Feb-2020 3115.78 4585.06 67.19 6.00 132.27 2642.62
   11:05:03.911.08-Feb-2020 3115.78 4585.60 67.19 6.00 132.47 2642.62
   11:05:04.111.08-Feb-2020 3115.78 4585.33 67.19 6.00 132.67 2642.62
   11:05:04.311.08-Feb-2020 3115.78 4585.25 67.18 6.00 132.87 2642.62
   11:05:04.511.08-Feb-2020 3115.78 4585.30 67.18 6.00 133.07 2642.62
   11:05:04.711.08-Feb-2020 3115.78 4585.30 67.18 6.00 133.27 2642.62
   11:05:04.911.08-Feb-2020 3115.78 4585.06 67.18 6.00 133.47 2642.62
   11:05:05.111.08-Feb-2020 3115.78 4585.39 67.18 6.00 133.67 2642.62
   11:05:05.311.08-Feb-2020 3115.78 4586.24 67.18 6.00 133.87 2642.62
   11:05:05.511.08-Feb-2020 3115.78 4587.98 67.18 6.00 134.07 2642.62
   11:05:05.712.08-Feb-2020 3115.78 4587.98 67.18 6.00 134.27 2642.62
   11:05:05.912.08-Feb-2020 3115.78 4587.14 67.18 6.00 134.47 2642.62
   11:05:06.112.08-Feb-2020 3115.78 4586.87 67.18 6.00 134.67 2642.62
   11:05:06.312.08-Feb-2020 3115.78 4586.57 67.18 6.00 134.87 2642.62
   11:05:06.512.08-Feb-2020 3115.78 4586.38 67.18 6.00 135.07 2642.62
   11:05:06.712.08-Feb-2020 3115.78 4586.38 67.18 6.00 135.27 2642.62
   11:05:06.912.08-Feb-2020 3115.78 4586.48 67.18 6.00 135.47 2642.62
   11:05:07.112.08-Feb-2020 3115.78 4584.34 67.18 6.00 135.67 2642.62
   11:05:07.312.08-Feb-2020 3115.78 4586.18 67.18 6.00 135.87 2642.62
   11:05:07.512.08-Feb-2020 3115.78 4584.74 67.18 6.00 136.07 2642.62
   11:05:07.713.08-Feb-2020 3115.78 4584.56 67.18 6.00 136.27 2642.62
   11:05:07.913.08-Feb-2020 3115.78 4585.44 67.18 6.00 136.47 2642.62
   11:05:08.113.08-Feb-2020 3115.78 4584.81 67.18 6.00 136.67 2642.62
   11:05:08.313.08-Feb-2020 3115.78 4584.79 67.18 6.00 136.87 2642.62
   11:05:08.513.08-Feb-2020 3115.78 4584.45 67.18 6.00 137.07 2642.62
   11:05:08.713.08-Feb-2020 3115.78 4584.45 67.18 6.00 137.27 2642.62
   11:05:08.913.08-Feb-2020 3115.78 4585.95 67.18 6.00 137.47 2642.62
   11:05:09.113.08-Feb-2020 3115.78 4584.68 67.18 6.00 137.67 2642.62
   11:05:09.313.08-Feb-2020 3115.78 4584.01 67.18 6.00 137.87 2642.62
