~Version Information
 VERS.                  2.0:   CWLS log ASCII Standard -VERSION 2.0
 WRAP.                   NO:   One line per depth step
~Well Information Block
#MNEM.UNIT     VALUE/NAME     DESCRIPTION
#---------     -----------    ---------------------------
 STRT.S             09:27:25 08-Feb-20: START TIME 09:27:25 08-Feb-20
 STOP.S             09:34:14 08-Feb-20: STOP TIME  09:34:14 08-Feb-20
 STEP.S                   0.00: STEP TIME
 NULL.                 -999.25: NULL VALUE
 DFWT.                        :  DIST FWL TEXT
 DFST.                        :  DIST FSL TEXT
 DMF .             Drill Floor:  DRILL MEAS FROM
 STIM.      07.00.00 09-Jan-20:  START TIME
 DATE.      14.04.48 07-Feb-20:  END TIME
 SPUD.               09-Jan-20:  SPUD DATE
 NREF.                    Grid:  NORTH REFERENCE
 HPTY.       Minimum Curvature:  HOLE POS TYPE
 DMOD.             Drill Model:  DRILL MOD DESC
 SVYD.                  Survey:  SURVEY DESC
 ILTD.               Lithology:  INTERP LTH DESC
 FTOP.          Formation Tops:  FORM TOPS DESC
 SON .        AZ-XX-0905059384:  JOB NUMBER
 MDS .        Operator Entered:  MAG DATA SOURCE
 WTYP.                Deviated:  WELL TYPE
 COMP.     BP Exploration (Caspian Sea) Ltd.:  COMPANY
 UWI .                     N/A:  UNIQUE WELL IDENTIFIER
 API .                     N/A:  API NUMBER
 BASE.              Azerbaijan:  LOGGING EQUIPMENT BASE LOCATION
 REGN.                   EESSA:  REGION
 PROV.                    Baku:  PROVINCE
 STAT.                    Baku:  STATE NAME
 CTRY.              Azerbaijan:  COUNTRY NAME
 FLD .                     ACG:  FIELD NAME
 SRVC.     TURAN Drilling & Engineering:  CONTRACTOR
 MWDS.                    Baku:  MWD SHOP
 WELL.                     J22:  WELL NAME
 RIG .             West Chirag:  RIG NAME
 DOE .                     N/A:  DOE NUMBER
 DCON.         Sperry Drilling:  DIRECTNL CONTR
 UNIT.                     N/A:  LOGGING EQUIPMENT ID
 PDAT.          Mean Sea Level:  PERMANENT DATUM
 JOBN.        AZ-XX-0905059384:  JOB TICKET NUMB
 CNTY.                        :  COUNTY
 LOC .                        :  LOCATION
 LMF .             Drill Floor:  LOG MEASURED FROM
 TVDS.m                  43.00:  TVDSS CORRECTN
 LATI.deg                40.13:  LATITUDE
 LONG.deg                51.22:  LONGITUDE
 WHNS.m                  10.28:  WELL HEAD N/S
 WHEW.m                  -6.24:  WELL HEAD E/W
 UTMX.m              519005.06:  UTM X
 UTMY.m             4443793.85:  UTM Y
 DFWL.m                   0.00:  DISTANCE FWL
 DFSL.m                   0.00:  DISTANCE FSL
 SDEP.m                 362.00:  START DEPTH
 TDD .m                 904.00:  TOTAL DEPTH (DRILLER)
 VSDR.deg               148.53:  VERT SEC DIRECT
 GVFD.g                   1.00:  GRAVITY FIELD
 MFLD.nT              50277.00:  MAGNETIC FIELD
 MDIP.deg                59.56:  MAGNETIC DIP
 MDEC.deg                 6.42:  MAGNETIC DECL
 GRDC.deg                 0.15:  GRID CORRECTION
 AZTC.deg                 6.27:  AZM TOTAL CORR
 EPD .m                   0.00:  ELEVATION
 EGL .m                   0.00:  GROUND ELEVATION
 WDMS.m                 169.80:  WD ELEV
 APD .m                  43.00:  DEPTH ABOVE PD
 AGAP.m                  43.00:  AIR GAP
 VSEW.m                  -6.24:  VERT SEC E/W
 VSNS.m                  10.28:  VERT SEC N/S
 DEP .m                   0.00:  DEPTH
 EKB .m                   0.00:  KB ELEVATION
 EDF .m                  43.00:  DF ELEVATION
 TDL .m                1183.00:  TOTAL DEPTH (LOGGER)
 VSC .                       0:  VS TO CLOSURE
 MAGU.                 1850021:  MAGUTM CHECKSUM
~Parameter Information Block
#MNEM.UNIT       Value        Description
#---------     -----------    ---------------------------
 AV  .mps                 4.00:  Ann Velocity 
 AVMX.mps                 4.50:  Max Ann Veloc 
 AZIF.deg               145.38:  Azm, Final 
 BHAT.        Rotary Steerable:  BHA Type 
 BROT.∞/30m               3.00:  Build Rotating 
 BS  .in                 12.25:  Bit Size 
 BSZ .in                 12.25:  Bit Size 
 BTPL.psig              650.00:  Bit Press Loss 
 CABU.                      No:  Customer Abuse 
 COMM.                     $ÊW:  Run Comments 1 
 TCS .hr                101.62:  Time Ciculation Ended 
 CV  .mps                 5.00:  Crit Velocity 
 CVMX.mps                 5.00:  Max Crit Veloc 
 DD1 .             Aziz Aliyev:  Direct Drillr 1 
 DD2 .      Fakhraddin Guliyev:  Direct Drillr 2 
 DDSV.                 iCruise:  DD Service 
 DEFF.%                  97.00:  % Det Eff 
 DLRX.∞/30m               4.16:  Dogleg Rot Max 
 DLSO.∞/30m               3.20:  Dogleg Oriented 
 DLSX.∞/30m               4.10:  Dogleg Str Max 
 DRET.      23.12.00 07-Feb-20:  Drill End Time 
 DRST.      11.30.00 04-Feb-20:  Drill Start Tim 
 DTIM.hr                 61.06:  Time Drilling 
 EDEP.m                3219.01:  End Depth 
 ENG1.         Almaz Almadatov:  Engineer 1 
 ENG2.         Dair Mahammadov:  Engineer 2 
 ENG3.          Nazrin Asgarli:  Engineer 3 
 ETIM.      02.30.00 11-Feb-20:  End Time 
 FLOI.gpm              1100.00:  Flow In 
 FLON.gpm               900.00:  Flow In Min 
 FLOS.cptm               55.00:  Fluid Loss 
 FLOX.gpm              1150.00:  Flow In Max 
 FTRO.       Formation Presure:  FTWD Run Obj 
 HFLO.                      No:  High Flow 
 HPRE.                      No:  High Pressure 
 HTEM.                      No:  High Temp 
 HYDO.m                   1.80:  Hydro Offset 
 IFIN.deg                75.11:  Inc, Final 
 IMAX.deg                75.11:  Inc Max 
 IMIN.deg                33.55:  Inc Min 
 IMND.m                2186.05:  Inc Min Depth 
 IMXD.m                3205.61:  Inc Max Depth 
 JARR.                      No:  Jarring 
 LETM.      23.12.00 07-Feb-20:  Log End Time 
 LOST.hr                     0:  Lost Rig Time 
 LSTM.      11.30.00 04-Feb-20:  Log Start Time 
 MDCL.ppm             40000.00:  Mud Chlorides 
 MDES.     Inversion Oil/Synthetic:  Mud Desc 
 DFD .sg                  1.49:  Mud Density 
 MDMN.sg                  1.49:  Dens Mud Min 
 MDMX.sg                  1.49:  Dens Mud Max 
 MOIL.                      73:  Run Mud Oil % 
 MOWR.                   73:27:  Run Mud OWR 
 MSND.                     0.1:  Run Mud Sand % 
 MSOL.                    20.1:  Run Mud Solids% 
 DFV .spqt               78.00:  Mud Viscosity 
 MWOD.in                  8.00:  MWD Tool OD 
 MWSI.                      No:  Serv Intrp, MWD 
 OTIM.hr                177.15:  Time Operating 
 PCON.          Wear / Scratch:  Pad Condition 
 PMAX.psia            10493.93:  Press Op, Max 
 PV  .cP                 73.00:  Mud PV 
 RUN .                     700:  Run Number 
 ROPA.m/hr               15.00:  ROP Avg 
 ROPN.m/hr               10.00:  ROP Min 
 ROPX.m/hr               35.00:  ROP Max 
 RPMA.rpm               130.00:  RPM Surface Avg 
 RPMN.rpm                80.00:  RPM Surface Min 
 RPMX.rpm               150.00:  RPM Surface Max 
 RRUN.                    L402:  Rig Run Number 
 RTIM.hr                 80.50:  Time Reaming 
 SAZI.deg               155.55:  Azm, Start 
 SDEP.m                2036.00:  Start Depth 
 SIDD.                      No:  Serv Intrp, DD 
 SINC.deg                35.44:  Inc, Start 
 SPPA.psig             4270.00:  SPP Avg 
 SPPN.psig             2800.00:  SPP Min 
 SPPX.psig             4850.00:  SPP Max 
 STIM.      09.30.00 03-Feb-20:  Start Time 
 SVCS.                 DD, MWD:  Services 
 SVER.                    9.20:  Sperry Version 
 TDAT.m                1183.00:  Tot Depth Attmp 
 TDDF.                      No:  Trip for DD 
 TDLG.m                1183.00:  Tot Depth Loggd 
 TFF .                      No:  Trip for Fail 
 TQAA.f-kp               16.00:  Torque Abs Avg 
 TQAN.f-kp               10.00:  Torque Abs Min 
 TQAX.f-kp               20.00:  Torque Abs Max 
 TRRT.∞/30m               1.00:  Turn Rotating 
 MRT .                  EWR-M5:  Maximum Recorded Temperature 
 TTMX.degC               80.39:  Max Tool Temp 
 VS01.               13098498 :  Virtual Str1 SN 
 VS02.                90569596:  Virtual Str2 SN 
 VS03.                90523599:  Virtual Str3 SN 
 VS04.                90573553:  Virtual Str4 SN 
 VS05.                90598598:  Virtual Str5 SN 
 VS06.                90577297:  Virtual Str6 SN 
 WBMN.klb                13.00:  WOB Min 
 WITN.         Alistair Sprott:  Customer Rep 
 WITN.           Rufat Babayev:  Customer Rep 2 
 WOBA.klb                15.00:  WOB Avg 
 WOBX.klb                20.00:  WOB Max 
 YP  .lhf2               39.00:  Yield Point 
~Curve Information Block
#MNEM.UNIT                 API CODE     Curve Description
#---------               -----------    ---------------------------
 TIME.HHMMSS            00 000 000 000:  GT Time & Date
 GTDEPTH.m              00 000 000 000:  GT Depth
 GTPQH.psia             00 000 000 000:  GT HR Quartz Pressure
 GTTQ.degC              00 000 000 000:  GT Quartz Temperature
 GTTN.NONE              00 000 000 000:  GT Test Number
 GTET.sec               00 000 000 000:  GT Elapsed Test Time
 GTTVD.m                00 000 000 000:  GT True Vertical Depth
#Other Information
#
#WARRANTY: Halliburton will use its best efforts to furnish customers with 
#accurate information and interpretations that are part of, and incident to, the services 
#provided.  However, Halliburton cannot and does not warrant the accuracy 
#or correctness of such information and interpretations.  Under no circumstances should any 
#such information or interpretation be relied upon as the sole basis for any drilling, 
#completion, production, or financial decision or any procedure involving any risk to the 
#safety of any drilling venture, drilling rig or its crew or any other third party.  The 
#Customer has full responsibility for all drilling, completion and production operation.  
#Halliburton makes no representations or warranties, either expressed or 
#implied, including, but not limited to, the implied warranties of merchantability or fitness 
#for a particular purpose, with respect to the services rendered.  In no event will 
#Halliburton be liable for failure to obtain any particular results or for 
#any damages, including, but not limited to, indirect, special or consequential damages, 
#resulting from the use of any information or interpretation provided by Halliburton.
#
~A           TIME           GTDEPTH  GTPQH  GTTQ  GTTN  GTET   GTTVD  
# ...
   09:27:48.862.08-Feb-2020 3135.01 5778.89 69.28 4.00  23.00 2647.94
   09:27:49.062.08-Feb-2020 3135.01 5778.89 69.28 4.00  23.20 2647.94
   09:27:49.262.08-Feb-2020 3135.01 5778.04 69.28 4.00  23.40 2647.94
   09:27:49.462.08-Feb-2020 3135.01 5778.43 69.28 4.00  23.60 2647.94
   09:27:49.662.08-Feb-2020 3135.01 5778.40 69.28 4.00  23.80 2647.94
   09:27:49.862.08-Feb-2020 3135.01 5777.34 69.28 4.00  24.00 2647.94
   09:27:50.062.08-Feb-2020 3135.01 5777.34 69.28 4.00  24.20 2647.94
   09:27:50.262.08-Feb-2020 3135.01 5779.24 69.28 4.00  24.40 2647.94
   09:27:50.462.08-Feb-2020 3135.01 5777.99 69.28 4.00  24.60 2647.94
   09:27:50.662.08-Feb-2020 3135.01 5774.85 69.28 4.00  24.80 2647.94
   09:27:50.862.08-Feb-2020 3135.01 5775.34 69.27 4.00  25.00 2647.94
   09:27:51.062.08-Feb-2020 3135.01 5775.34 69.27 4.00  25.20 2647.94
   09:27:51.262.08-Feb-2020 3135.01 5774.89 69.27 4.00  25.40 2647.94
   09:27:51.462.08-Feb-2020 3135.01 5775.25 69.27 4.00  25.60 2647.94
   09:27:51.662.08-Feb-2020 3135.01 5776.19 69.27 4.00  25.80 2647.94
   09:27:51.862.08-Feb-2020 3135.01 5775.86 69.27 4.00  26.00 2647.94
   09:27:52.062.08-Feb-2020 3135.01 5775.86 69.27 4.00  26.20 2647.94
   09:27:52.262.08-Feb-2020 3135.01 5777.14 69.27 4.00  26.40 2647.94
   09:27:52.462.08-Feb-2020 3135.01 5777.84 69.27 4.00  26.60 2647.94
   09:27:52.663.08-Feb-2020 3135.01 5776.32 69.27 4.00  26.80 2647.94
   09:27:52.863.08-Feb-2020 3135.01 5778.22 69.27 4.00  27.00 2647.94
   09:27:53.063.08-Feb-2020 3135.01 5778.22 69.27 4.00  27.20 2647.94
   09:27:53.263.08-Feb-2020 3135.01 5776.29 69.27 4.00  27.40 2647.94
   09:27:53.463.08-Feb-2020 3135.01 5773.38 69.27 4.00  27.60 2647.94
   09:27:53.663.08-Feb-2020 3135.01 5778.33 69.27 4.00  27.80 2647.94
   09:27:53.863.08-Feb-2020 3135.01 5776.46 69.27 4.00  28.00 2647.94
   09:27:54.063.08-Feb-2020 3135.01 5776.46 69.27 4.00  28.20 2647.94
   09:27:54.263.08-Feb-2020 3135.01 5773.36 69.27 4.00  28.40 2647.94
   09:27:54.463.08-Feb-2020 3135.01 5777.63 69.27 4.00  28.60 2647.94
   09:27:54.663.08-Feb-2020 3135.01 5774.98 69.27 4.00  28.80 2647.94
   09:27:54.863.08-Feb-2020 3135.01 5772.45 69.27 4.00  29.00 2647.94
   09:27:55.063.08-Feb-2020 3135.01 5772.45 69.27 4.00  29.20 2647.94
   09:27:55.263.08-Feb-2020 3135.01 5776.53 69.27 4.00  29.40 2647.94
   09:27:55.463.08-Feb-2020 3135.01 5773.97 69.27 4.00  29.60 2647.94
   09:27:55.663.08-Feb-2020 3135.01 5774.85 69.27 4.00  29.80 2647.94
   09:27:55.863.08-Feb-2020 3135.01 5776.58 69.27 4.00  30.00 2647.94
   09:27:56.063.08-Feb-2020 3135.01 5776.58 69.27 4.00  30.20 2647.94
   09:27:56.263.08-Feb-2020 3135.01 5775.33 69.27 4.00  30.40 2647.94
   09:27:56.463.08-Feb-2020 3135.01 5776.53 69.27 4.00  30.60 2647.94
   09:27:56.663.08-Feb-2020 3135.01 5775.66 69.27 4.00  30.80 2647.94
   09:27:56.863.08-Feb-2020 3135.01 5774.81 69.27 4.00  31.00 2647.94
   09:27:57.063.08-Feb-2020 3135.01 5774.81 69.27 4.00  31.20 2647.94
   09:27:57.263.08-Feb-2020 3135.01 5781.60 69.27 4.00  31.40 2647.94
   09:27:57.463.08-Feb-2020 3135.01 5775.40 69.27 4.00  31.60 2647.94
   09:27:57.663.08-Feb-2020 3135.01 5775.15 69.27 4.00  31.80 2647.94
   09:27:57.863.08-Feb-2020 3135.01 5775.89 69.27 4.00  32.00 2647.94
   09:27:58.063.08-Feb-2020 3135.01 5775.89 69.27 4.00  32.20 2647.94
   09:27:58.263.08-Feb-2020 3135.01 5776.93 69.27 4.00  32.40 2647.94
   09:27:58.463.08-Feb-2020 3135.01 5776.66 69.27 4.00  32.60 2647.94
   09:27:58.663.08-Feb-2020 3135.01 5777.42 69.27 4.00  32.80 2647.94
   09:27:58.863.08-Feb-2020 3135.01 5776.74 69.27 4.00  33.00 2647.94
   09:27:59.063.08-Feb-2020 3135.01 5776.74 69.27 4.00  33.20 2647.94
   09:27:59.263.08-Feb-2020 3135.01 5776.41 69.27 4.00  33.40 2647.94
   09:27:59.463.08-Feb-2020 3135.01 5780.25 69.27 4.00  33.60 2647.94
   09:27:59.663.08-Feb-2020 3135.01 5776.80 69.27 4.00  33.80 2647.94
   09:27:59.863.08-Feb-2020 3135.01 5775.10 69.27 4.00  34.00 2647.94
   09:28:00.063.08-Feb-2020 3135.01 5775.10 69.27 4.00  34.20 2647.94
   09:28:00.263.08-Feb-2020 3135.01 5779.43 69.27 4.00  34.40 2647.94
   09:28:00.463.08-Feb-2020 3135.01 5775.62 69.26 4.00  34.60 2647.94
   09:28:00.663.08-Feb-2020 3135.01 5776.21 69.26 4.00  34.80 2647.94
   09:28:00.863.08-Feb-2020 3135.01 5780.06 69.26 4.00  35.00 2647.94
   09:28:01.063.08-Feb-2020 3135.01 5780.06 69.26 4.00  35.20 2647.94
   09:28:01.263.08-Feb-2020 3135.01 5775.78 69.26 4.00  35.40 2647.94
   09:28:01.463.08-Feb-2020 3135.01 5782.79 69.26 4.00  35.60 2647.94
   09:28:01.663.08-Feb-2020 3135.01 5776.33 69.26 4.00  35.80 2647.94
   09:28:01.863.08-Feb-2020 3135.01 5774.58 69.26 4.00  36.00 2647.94
   09:28:02.063.08-Feb-2020 3135.01 5774.58 69.26 4.00  36.20 2647.94
   09:28:02.263.08-Feb-2020 3135.01 5780.67 69.26 4.00  36.40 2647.94
   09:28:02.463.08-Feb-2020 3135.01 5779.92 69.26 4.00  36.60 2647.94
   09:28:02.663.08-Feb-2020 3135.01 5777.25 69.26 4.00  36.80 2647.94
   09:28:02.863.08-Feb-2020 3135.01 5778.45 69.26 4.00  37.00 2647.94
   09:28:03.063.08-Feb-2020 3135.01 5778.45 69.26 4.00  37.20 2647.94
   09:28:03.263.08-Feb-2020 3135.01 5777.28 69.26 4.00  37.40 2647.94
   09:28:03.463.08-Feb-2020 3135.01 5778.39 69.26 4.00  37.60 2647.94
   09:28:03.663.08-Feb-2020 3135.01 5778.41 69.26 4.00  37.80 2647.94
   09:28:03.863.08-Feb-2020 3135.01 5776.14 69.26 4.00  38.00 2647.94
   09:28:04.063.08-Feb-2020 3135.01 5776.14 69.26 4.00  38.20 2647.94
   09:28:04.263.08-Feb-2020 3135.01 5775.50 69.26 4.00  38.40 2647.94
   09:28:04.463.08-Feb-2020 3135.01 5779.24 69.26 4.00  38.60 2647.94
   09:28:04.664.08-Feb-2020 3135.01 5777.37 69.26 4.00  38.80 2647.94
   09:28:04.864.08-Feb-2020 3135.01 5775.72 69.26 4.00  39.00 2647.94
   09:28:05.064.08-Feb-2020 3135.01 5775.72 69.26 4.00  39.20 2647.94
   09:28:05.264.08-Feb-2020 3135.01 5775.89 69.26 4.00  39.40 2647.94
   09:28:05.464.08-Feb-2020 3135.01 5773.21 69.26 4.00  39.60 2647.94
   09:28:05.664.08-Feb-2020 3135.01 5771.99 69.26 4.00  39.80 2647.94
   09:28:05.864.08-Feb-2020 3135.01 5770.52 69.26 4.00  40.00 2647.94
   09:28:06.064.08-Feb-2020 3135.01 5770.52 69.26 4.00  40.20 2647.94
   09:28:06.264.08-Feb-2020 3135.01 5762.90 69.26 4.00  40.40 2647.94
   09:28:06.464.08-Feb-2020 3135.01 5759.15 69.26 4.00  40.60 2647.94
   09:28:06.664.08-Feb-2020 3135.01 5753.97 69.26 4.00  40.80 2647.94
   09:28:06.864.08-Feb-2020 3135.01 5740.31 69.26 4.00  41.00 2647.94
   09:28:07.064.08-Feb-2020 3135.01 5740.31 69.26 4.00  41.20 2647.94
   09:28:07.264.08-Feb-2020 3135.01 5690.47 69.26 4.00  41.40 2647.94
   09:28:07.464.08-Feb-2020 3135.01 5656.22 69.26 4.00  41.60 2647.94
   09:28:07.664.08-Feb-2020 3135.01 5629.82 69.26 4.00  41.80 2647.94
   09:28:07.864.08-Feb-2020 3135.01 5684.93 69.26 4.00  42.00 2647.94
   09:28:08.064.08-Feb-2020 3135.01 5684.93 69.26 4.00  42.20 2647.94
   09:28:08.264.08-Feb-2020 3135.01 5602.97 69.26 4.00  42.40 2647.94
   09:28:08.464.08-Feb-2020 3135.01 5558.08 69.26 4.00  42.60 2647.94
   09:28:08.664.08-Feb-2020 3135.01 5557.85 69.26 4.00  42.80 2647.94
   09:28:08.864.08-Feb-2020 3135.01 5493.68 69.26 4.00  43.00 2647.94
   09:28:09.064.08-Feb-2020 3135.01 5493.68 69.26 4.00  43.20 2647.94
   09:28:09.264.08-Feb-2020 3135.01 5361.59 69.26 4.00  43.40 2647.94
   09:28:09.464.08-Feb-2020 3135.01 5383.48 69.26 4.00  43.60 2647.94
   09:28:09.664.08-Feb-2020 3135.01 5415.77 69.26 4.00  43.80 2647.94
   09:28:09.864.08-Feb-2020 3135.01 5334.84 69.25 4.00  44.00 2647.94
   09:28:10.064.08-Feb-2020 3135.01 5334.84 69.25 4.00  44.20 2647.94
   09:28:10.264.08-Feb-2020 3135.01 5305.15 69.25 4.00  44.40 2647.94
   09:28:10.464.08-Feb-2020 3135.01 5629.75 69.25 4.00  44.60 2647.94
   09:28:10.664.08-Feb-2020 3135.01 5560.32 69.25 4.00  44.80 2647.94
   09:28:10.864.08-Feb-2020 3135.01 5467.23 69.25 4.00  45.00 2647.94
   09:28:11.064.08-Feb-2020 3135.01 5467.23 69.25 4.00  45.20 2647.94
   09:28:11.264.08-Feb-2020 3135.01 5369.82 69.25 4.00  45.40 2647.94
   09:28:11.464.08-Feb-2020 3135.01 5464.81 69.25 4.00  45.60 2647.94
   09:28:11.664.08-Feb-2020 3135.01 5583.63 69.25 4.00  45.80 2647.94
