~Version Information
 VERS.                  2.0:   CWLS log ASCII Standard -VERSION 2.0
 WRAP.                   NO:   One line per depth step
~Well Information Block
#MNEM.UNIT     VALUE/NAME     DESCRIPTION
#---------     -----------    ---------------------------
 STRT.S             08:19:39 08-Feb-20: START TIME 08:19:39 08-Feb-20
 STOP.S             08:26:25 08-Feb-20: STOP TIME  08:26:25 08-Feb-20
 STEP.S                   0.00: STEP TIME
 NULL.                 -999.25: NULL VALUE
 DFWT.                        :  DIST FWL TEXT
 DFST.                        :  DIST FSL TEXT
 DMF .             Drill Floor:  DRILL MEAS FROM
 STIM.      07.00.00 09-Jan-20:  START TIME
 DATE.      14.04.48 07-Feb-20:  END TIME
 SPUD.               09-Jan-20:  SPUD DATE
 NREF.                    Grid:  NORTH REFERENCE
 HPTY.       Minimum Curvature:  HOLE POS TYPE
 DMOD.             Drill Model:  DRILL MOD DESC
 SVYD.                  Survey:  SURVEY DESC
 ILTD.               Lithology:  INTERP LTH DESC
 FTOP.          Formation Tops:  FORM TOPS DESC
 SON .        AZ-XX-0905059384:  JOB NUMBER
 MDS .        Operator Entered:  MAG DATA SOURCE
 WTYP.                Deviated:  WELL TYPE
 COMP.     BP Exploration (Caspian Sea) Ltd.:  COMPANY
 UWI .                     N/A:  UNIQUE WELL IDENTIFIER
 API .                     N/A:  API NUMBER
 BASE.              Azerbaijan:  LOGGING EQUIPMENT BASE LOCATION
 REGN.                   EESSA:  REGION
 PROV.                    Baku:  PROVINCE
 STAT.                    Baku:  STATE NAME
 CTRY.              Azerbaijan:  COUNTRY NAME
 FLD .                     ACG:  FIELD NAME
 SRVC.     TURAN Drilling & Engineering:  CONTRACTOR
 MWDS.                    Baku:  MWD SHOP
 WELL.                     J22:  WELL NAME
 RIG .             West Chirag:  RIG NAME
 DOE .                     N/A:  DOE NUMBER
 DCON.         Sperry Drilling:  DIRECTNL CONTR
 UNIT.                     N/A:  LOGGING EQUIPMENT ID
 PDAT.          Mean Sea Level:  PERMANENT DATUM
 JOBN.        AZ-XX-0905059384:  JOB TICKET NUMB
 CNTY.                        :  COUNTY
 LOC .                        :  LOCATION
 LMF .             Drill Floor:  LOG MEASURED FROM
 TVDS.m                  43.00:  TVDSS CORRECTN
 LATI.deg                40.13:  LATITUDE
 LONG.deg                51.22:  LONGITUDE
 WHNS.m                  10.28:  WELL HEAD N/S
 WHEW.m                  -6.24:  WELL HEAD E/W
 UTMX.m              519005.06:  UTM X
 UTMY.m             4443793.85:  UTM Y
 DFWL.m                   0.00:  DISTANCE FWL
 DFSL.m                   0.00:  DISTANCE FSL
 SDEP.m                 362.00:  START DEPTH
 TDD .m                 904.00:  TOTAL DEPTH (DRILLER)
 VSDR.deg               148.53:  VERT SEC DIRECT
 GVFD.g                   1.00:  GRAVITY FIELD
 MFLD.nT              50277.00:  MAGNETIC FIELD
 MDIP.deg                59.56:  MAGNETIC DIP
 MDEC.deg                 6.42:  MAGNETIC DECL
 GRDC.deg                 0.15:  GRID CORRECTION
 AZTC.deg                 6.27:  AZM TOTAL CORR
 EPD .m                   0.00:  ELEVATION
 EGL .m                   0.00:  GROUND ELEVATION
 WDMS.m                 169.80:  WD ELEV
 APD .m                  43.00:  DEPTH ABOVE PD
 AGAP.m                  43.00:  AIR GAP
 VSEW.m                  -6.24:  VERT SEC E/W
 VSNS.m                  10.28:  VERT SEC N/S
 DEP .m                   0.00:  DEPTH
 EKB .m                   0.00:  KB ELEVATION
 EDF .m                  43.00:  DF ELEVATION
 TDL .m                1183.00:  TOTAL DEPTH (LOGGER)
 VSC .                       0:  VS TO CLOSURE
 MAGU.                 1850021:  MAGUTM CHECKSUM
~Parameter Information Block
#MNEM.UNIT       Value        Description
#---------     -----------    ---------------------------
 AV  .mps                 4.00:  Ann Velocity 
 AVMX.mps                 4.50:  Max Ann Veloc 
 AZIF.deg               145.38:  Azm, Final 
 BHAT.        Rotary Steerable:  BHA Type 
 BROT.°/30m               3.00:  Build Rotating 
 BS  .in                 12.25:  Bit Size 
 BSZ .in                 12.25:  Bit Size 
 BTPL.psig              650.00:  Bit Press Loss 
 CABU.                      No:  Customer Abuse 
 COMM.                     ä7n:  Run Comments 1 
 TCS .hr                101.62:  Time Ciculation Ended 
 CV  .mps                 5.00:  Crit Velocity 
 CVMX.mps                 5.00:  Max Crit Veloc 
 DD1 .             Aziz Aliyev:  Direct Drillr 1 
 DD2 .      Fakhraddin Guliyev:  Direct Drillr 2 
 DDSV.                 iCruise:  DD Service 
 DEFF.%                  97.00:  % Det Eff 
 DLRX.°/30m               4.16:  Dogleg Rot Max 
 DLSO.°/30m               3.20:  Dogleg Oriented 
 DLSX.°/30m               4.10:  Dogleg Str Max 
 DRET.      23.12.00 07-Feb-20:  Drill End Time 
 DRST.      11.30.00 04-Feb-20:  Drill Start Tim 
 DTIM.hr                 61.06:  Time Drilling 
 EDEP.m                3219.01:  End Depth 
 ENG1.         Almaz Almadatov:  Engineer 1 
 ENG2.         Dair Mahammadov:  Engineer 2 
 ENG3.          Nazrin Asgarli:  Engineer 3 
 ETIM.      02.30.00 11-Feb-20:  End Time 
 FLOI.gpm              1100.00:  Flow In 
 FLON.gpm               900.00:  Flow In Min 
 FLOS.cptm               55.00:  Fluid Loss 
 FLOX.gpm              1150.00:  Flow In Max 
 FTRO.       Formation Presure:  FTWD Run Obj 
 HFLO.                      No:  High Flow 
 HPRE.                      No:  High Pressure 
 HTEM.                      No:  High Temp 
 HYDO.m                   1.80:  Hydro Offset 
 IFIN.deg                75.11:  Inc, Final 
 IMAX.deg                75.11:  Inc Max 
 IMIN.deg                33.55:  Inc Min 
 IMND.m                2186.05:  Inc Min Depth 
 IMXD.m                3205.61:  Inc Max Depth 
 JARR.                      No:  Jarring 
 LETM.      23.12.00 07-Feb-20:  Log End Time 
 LOST.hr                     0:  Lost Rig Time 
 LSTM.      11.30.00 04-Feb-20:  Log Start Time 
 MDCL.ppm             40000.00:  Mud Chlorides 
 MDES.     Inversion Oil/Synthetic:  Mud Desc 
 DFD .sg                  1.49:  Mud Density 
 MDMN.sg                  1.49:  Dens Mud Min 
 MDMX.sg                  1.49:  Dens Mud Max 
 MOIL.                      73:  Run Mud Oil % 
 MOWR.                   73:27:  Run Mud OWR 
 MSND.                     0.1:  Run Mud Sand % 
 MSOL.                    20.1:  Run Mud Solids% 
 DFV .spqt               78.00:  Mud Viscosity 
 MWOD.in                  8.00:  MWD Tool OD 
 MWSI.                      No:  Serv Intrp, MWD 
 OTIM.hr                177.15:  Time Operating 
 PCON.          Wear / Scratch:  Pad Condition 
 PMAX.psia            10493.93:  Press Op, Max 
 PV  .cP                 73.00:  Mud PV 
 RUN .                     700:  Run Number 
 ROPA.m/hr               15.00:  ROP Avg 
 ROPN.m/hr               10.00:  ROP Min 
 ROPX.m/hr               35.00:  ROP Max 
 RPMA.rpm               130.00:  RPM Surface Avg 
 RPMN.rpm                80.00:  RPM Surface Min 
 RPMX.rpm               150.00:  RPM Surface Max 
 RRUN.                    L402:  Rig Run Number 
 RTIM.hr                 80.50:  Time Reaming 
 SAZI.deg               155.55:  Azm, Start 
 SDEP.m                2036.00:  Start Depth 
 SIDD.                      No:  Serv Intrp, DD 
 SINC.deg                35.44:  Inc, Start 
 SPPA.psig             4270.00:  SPP Avg 
 SPPN.psig             2800.00:  SPP Min 
 SPPX.psig             4850.00:  SPP Max 
 STIM.      09.30.00 03-Feb-20:  Start Time 
 SVCS.                 DD, MWD:  Services 
 SVER.                    9.20:  Sperry Version 
 TDAT.m                1183.00:  Tot Depth Attmp 
 TDDF.                      No:  Trip for DD 
 TDLG.m                1183.00:  Tot Depth Loggd 
 TFF .                      No:  Trip for Fail 
 TQAA.f-kp               16.00:  Torque Abs Avg 
 TQAN.f-kp               10.00:  Torque Abs Min 
 TQAX.f-kp               20.00:  Torque Abs Max 
 TRRT.°/30m               1.00:  Turn Rotating 
 MRT .                  EWR-M5:  Maximum Recorded Temperature 
 TTMX.degC               80.39:  Max Tool Temp 
 VS01.               13098498 :  Virtual Str1 SN 
 VS02.                90569596:  Virtual Str2 SN 
 VS03.                90523599:  Virtual Str3 SN 
 VS04.                90573553:  Virtual Str4 SN 
 VS05.                90598598:  Virtual Str5 SN 
 VS06.                90577297:  Virtual Str6 SN 
 WBMN.klb                13.00:  WOB Min 
 WITN.         Alistair Sprott:  Customer Rep 
 WITN.           Rufat Babayev:  Customer Rep 2 
 WOBA.klb                15.00:  WOB Avg 
 WOBX.klb                20.00:  WOB Max 
 YP  .lhf2               39.00:  Yield Point 
~Curve Information Block
#MNEM.UNIT                 API CODE     Curve Description
#---------               -----------    ---------------------------
 TIME.HHMMSS            00 000 000 000:  GT Time & Date
 GTDEPTH.m              00 000 000 000:  GT Depth
 GTPQH.psia             00 000 000 000:  GT HR Quartz Pressure
 GTTQ.degC              00 000 000 000:  GT Quartz Temperature
 GTTN.NONE              00 000 000 000:  GT Test Number
 GTET.sec               00 000 000 000:  GT Elapsed Test Time
 GTTVD.m                00 000 000 000:  GT True Vertical Depth
#Other Information
#
#WARRANTY: Halliburton will use its best efforts to furnish customers with 
#accurate information and interpretations that are part of, and incident to, the services 
#provided.  However, Halliburton cannot and does not warrant the accuracy 
#or correctness of such information and interpretations.  Under no circumstances should any 
#such information or interpretation be relied upon as the sole basis for any drilling, 
#completion, production, or financial decision or any procedure involving any risk to the 
#safety of any drilling venture, drilling rig or its crew or any other third party.  The 
#Customer has full responsibility for all drilling, completion and production operation.  
#Halliburton makes no representations or warranties, either expressed or 
#implied, including, but not limited to, the implied warranties of merchantability or fitness 
#for a particular purpose, with respect to the services rendered.  In no event will 
#Halliburton be liable for failure to obtain any particular results or for 
#any damages, including, but not limited to, indirect, special or consequential damages, 
#resulting from the use of any information or interpretation provided by Halliburton.
#
~A           TIME           GTDEPTH  GTPQH  GTTQ  GTTN  GTET   GTTVD  
# ...
   08:20:25.523.08-Feb-2020 3134.51 5372.66 74.23 1.00  46.00 2647.81
   08:20:25.723.08-Feb-2020 3134.51 5372.66 74.23 1.00  46.20 2647.81
   08:20:25.923.08-Feb-2020 3134.51 5361.24 74.23 1.00  46.40 2647.81
   08:20:26.124.08-Feb-2020 3134.51 5335.69 74.23 1.00  46.60 2647.81
   08:20:26.324.08-Feb-2020 3134.51 5377.97 74.23 1.00  46.80 2647.81
   08:20:26.524.08-Feb-2020 3134.51 5381.14 74.23 1.00  47.00 2647.81
   08:20:26.724.08-Feb-2020 3134.51 5381.14 74.23 1.00  47.20 2647.81
   08:20:26.924.08-Feb-2020 3134.51 5405.34 74.22 1.00  47.40 2647.81
   08:20:27.124.08-Feb-2020 3134.51 5386.80 74.22 1.00  47.60 2647.81
   08:20:27.324.08-Feb-2020 3134.51 5373.10 74.22 1.00  47.80 2647.81
   08:20:27.524.08-Feb-2020 3134.51 5353.19 74.22 1.00  48.00 2647.81
   08:20:27.724.08-Feb-2020 3134.51 5353.19 74.22 1.00  48.20 2647.81
   08:20:27.924.08-Feb-2020 3134.51 5428.43 74.22 1.00  48.40 2647.81
   08:20:28.124.08-Feb-2020 3134.51 5420.76 74.22 1.00  48.60 2647.81
   08:20:28.324.08-Feb-2020 3134.51 5448.28 74.22 1.00  48.80 2647.81
   08:20:28.524.08-Feb-2020 3134.51 5455.01 74.22 1.00  49.00 2647.81
   08:20:28.724.08-Feb-2020 3134.51 5455.01 74.22 1.00  49.20 2647.81
   08:20:28.924.08-Feb-2020 3134.51 5489.23 74.22 1.00  49.40 2647.81
   08:20:29.124.08-Feb-2020 3134.51 5512.23 74.22 1.00  49.60 2647.81
   08:20:29.324.08-Feb-2020 3134.51 5533.75 74.22 1.00  49.80 2647.81
   08:20:29.524.08-Feb-2020 3134.51 5544.59 74.22 1.00  50.00 2647.81
   08:20:29.724.08-Feb-2020 3134.51 5544.59 74.22 1.00  50.20 2647.81
   08:20:29.924.08-Feb-2020 3134.51 5587.62 74.21 1.00  50.40 2647.81
   08:20:30.124.08-Feb-2020 3134.51 5598.58 74.21 1.00  50.60 2647.81
   08:20:30.324.08-Feb-2020 3134.51 5585.62 74.21 1.00  50.80 2647.81
   08:20:30.524.08-Feb-2020 3134.51 5616.46 74.21 1.00  51.00 2647.81
   08:20:30.724.08-Feb-2020 3134.51 5616.46 74.21 1.00  51.20 2647.81
   08:20:30.924.08-Feb-2020 3134.51 5682.84 74.21 1.00  51.40 2647.81
   08:20:31.124.08-Feb-2020 3134.51 5745.25 74.21 1.00  51.60 2647.81
   08:20:31.324.08-Feb-2020 3134.51 5777.53 74.21 1.00  51.80 2647.81
   08:20:31.524.08-Feb-2020 3134.51 5751.04 74.21 1.00  52.00 2647.81
   08:20:31.724.08-Feb-2020 3134.51 5751.04 74.21 1.00  52.20 2647.81
   08:20:31.924.08-Feb-2020 3134.51 5819.66 74.21 1.00  52.40 2647.81
   08:20:32.124.08-Feb-2020 3134.51 5847.60 74.21 1.00  52.60 2647.81
   08:20:32.324.08-Feb-2020 3134.51 5808.50 74.21 1.00  52.80 2647.81
   08:20:32.524.08-Feb-2020 3134.51 5794.92 74.21 1.00  53.00 2647.81
   08:20:32.724.08-Feb-2020 3134.51 5794.92 74.21 1.00  53.20 2647.81
   08:20:32.924.08-Feb-2020 3134.51 5821.68 74.21 1.00  53.40 2647.81
   08:20:33.124.08-Feb-2020 3134.51 5829.37 74.21 1.00  53.60 2647.81
   08:20:33.324.08-Feb-2020 3134.51 5875.17 74.21 1.00  53.80 2647.81
   08:20:33.524.08-Feb-2020 3134.51 5874.74 74.21 1.00  54.00 2647.81
   08:20:33.724.08-Feb-2020 3134.51 5874.74 74.21 1.00  54.20 2647.81
   08:20:33.924.08-Feb-2020 3134.51 4968.92 74.21 1.00  54.40 2647.81
   08:20:34.124.08-Feb-2020 3134.51 4944.52 74.21 1.00  54.60 2647.81
   08:20:34.324.08-Feb-2020 3134.51 4854.84 74.21 1.00  54.80 2647.81
   08:20:34.524.08-Feb-2020 3134.51 4723.30 74.21 1.00  55.00 2647.81
   08:20:34.724.08-Feb-2020 3134.51 4723.30 74.21 1.00  55.20 2647.81
   08:20:34.924.08-Feb-2020 3134.51 4379.32 74.20 1.00  55.40 2647.81
   08:20:35.124.08-Feb-2020 3134.51 4198.18 74.20 1.00  55.60 2647.81
   08:20:35.324.08-Feb-2020 3134.51 4019.34 74.20 1.00  55.80 2647.81
   08:20:35.524.08-Feb-2020 3134.51 3853.01 74.20 1.00  56.00 2647.81
   08:20:35.724.08-Feb-2020 3134.51 3853.01 74.20 1.00  56.20 2647.81
   08:20:35.924.08-Feb-2020 3134.51 3558.05 74.20 1.00  56.40 2647.81
   08:20:36.124.08-Feb-2020 3134.51 3462.03 74.20 1.00  56.60 2647.81
   08:20:36.324.08-Feb-2020 3134.51 3374.71 74.20 1.00  56.80 2647.81
   08:20:36.524.08-Feb-2020 3134.51 3307.17 74.19 1.00  57.00 2647.81
   08:20:36.724.08-Feb-2020 3134.51 3307.17 74.19 1.00  57.20 2647.81
   08:20:36.924.08-Feb-2020 3134.51 3192.73 74.19 1.00  57.40 2647.81
   08:20:37.124.08-Feb-2020 3134.51 3131.23 74.19 1.00  57.60 2647.81
   08:20:37.324.08-Feb-2020 3134.51 3075.46 74.19 1.00  57.80 2647.81
   08:20:37.524.08-Feb-2020 3134.51 3041.15 74.18 1.00  58.00 2647.81
   08:20:37.724.08-Feb-2020 3134.51 3041.15 74.18 1.00  58.20 2647.81
   08:20:37.925.08-Feb-2020 3134.51 2975.45 74.18 1.00  58.40 2647.81
   08:20:38.125.08-Feb-2020 3134.51 2851.28 74.18 1.00  58.60 2647.81
   08:20:38.325.08-Feb-2020 3134.51 2740.53 74.17 1.00  58.80 2647.81
   08:20:38.525.08-Feb-2020 3134.51 2646.95 74.17 1.00  59.00 2647.81
   08:20:38.725.08-Feb-2020 3134.51 2646.95 74.17 1.00  59.20 2647.81
   08:20:38.925.08-Feb-2020 3134.51 2570.28 74.17 1.00  59.40 2647.81
   08:20:39.125.08-Feb-2020 3134.51 2582.34 74.16 1.00  59.60 2647.81
   08:20:39.325.08-Feb-2020 3134.51 2642.83 74.16 1.00  59.81 2647.81
   08:20:39.525.08-Feb-2020 3134.51 2617.47 74.16 1.00  60.01 2647.81
   08:20:39.725.08-Feb-2020 3134.51 2617.47 74.16 1.00  60.21 2647.81
   08:20:39.925.08-Feb-2020 3134.51 2428.64 74.15 1.00  60.41 2647.81
   08:20:40.125.08-Feb-2020 3134.51 2335.99 74.15 1.00  60.61 2647.81
   08:20:40.325.08-Feb-2020 3134.51 2252.96 74.15 1.00  60.81 2647.81
   08:20:40.525.08-Feb-2020 3134.51 2172.26 74.15 1.00  61.01 2647.81
   08:20:40.725.08-Feb-2020 3134.51 2172.26 74.15 1.00  61.21 2647.81
   08:20:40.925.08-Feb-2020 3134.51 2080.84 74.14 1.00  61.41 2647.81
   08:20:41.125.08-Feb-2020 3134.51 2043.88 74.14 1.00  61.61 2647.81
   08:20:41.325.08-Feb-2020 3134.51 2007.88 74.14 1.00  61.81 2647.81
   08:20:41.525.08-Feb-2020 3134.51 1972.86 74.13 1.00  62.01 2647.81
   08:20:41.725.08-Feb-2020 3134.51 1972.86 74.13 1.00  62.21 2647.81
   08:20:41.925.08-Feb-2020 3134.51 1905.53 74.13 1.00  62.41 2647.81
   08:20:42.125.08-Feb-2020 3134.51 1871.98 74.13 1.00  62.61 2647.81
   08:20:42.325.08-Feb-2020 3134.51 1840.70 74.12 1.00  62.81 2647.81
   08:20:42.525.08-Feb-2020 3134.51 1818.46 74.12 1.00  63.01 2647.81
   08:20:42.725.08-Feb-2020 3134.51 1818.46 74.12 1.00  63.21 2647.81
   08:20:42.925.08-Feb-2020 3134.51 1751.60 74.12 1.00  63.41 2647.81
   08:20:43.125.08-Feb-2020 3134.51 1732.81 74.12 1.00  63.61 2647.81
   08:20:43.325.08-Feb-2020 3134.51 1700.04 74.11 1.00  63.81 2647.81
   08:20:43.525.08-Feb-2020 3134.51 1678.94 74.11 1.00  64.01 2647.81
   08:20:43.725.08-Feb-2020 3134.51 1678.94 74.11 1.00  64.21 2647.81
   08:20:43.925.08-Feb-2020 3134.51 1644.38 74.11 1.00  64.41 2647.81
   08:20:44.125.08-Feb-2020 3134.51 1717.84 74.10 1.00  64.61 2647.81
   08:20:44.325.08-Feb-2020 3134.51 2053.51 74.10 1.00  64.81 2647.81
   08:20:44.525.08-Feb-2020 3134.51 2346.90 74.10 1.00  65.01 2647.81
   08:20:44.725.08-Feb-2020 3134.51 2346.90 74.10 1.00  65.21 2647.81
   08:20:44.925.08-Feb-2020 3134.51 2805.36 74.10 1.00  65.41 2647.81
   08:20:45.125.08-Feb-2020 3134.51 2988.76 74.09 1.00  65.61 2647.81
   08:20:45.325.08-Feb-2020 3134.51 3147.65 74.09 1.00  65.81 2647.81
   08:20:45.525.08-Feb-2020 3134.51 3285.74 74.09 1.00  66.01 2647.81
   08:20:45.725.08-Feb-2020 3134.51 3285.74 74.09 1.00  66.21 2647.81
   08:20:45.925.08-Feb-2020 3134.51 3515.66 74.09 1.00  66.41 2647.81
   08:20:46.125.08-Feb-2020 3134.51 3611.19 74.09 1.00  66.61 2647.81
   08:20:46.325.08-Feb-2020 3134.51 3695.66 74.09 1.00  66.81 2647.81
   08:20:46.525.08-Feb-2020 3134.51 3771.05 74.09 1.00  67.01 2647.81
   08:20:46.725.08-Feb-2020 3134.51 3771.05 74.09 1.00  67.21 2647.81
   08:20:46.925.08-Feb-2020 3134.51 3898.62 74.09 1.00  67.41 2647.81
   08:20:47.125.08-Feb-2020 3134.51 3952.65 74.09 1.00  67.61 2647.81
   08:20:47.325.08-Feb-2020 3134.51 4001.58 74.09 1.00  67.81 2647.81
   08:20:47.525.08-Feb-2020 3134.51 4045.70 74.09 1.00  68.01 2647.81
   08:20:47.725.08-Feb-2020 3134.51 4045.70 74.09 1.00  68.21 2647.81
   08:20:47.925.08-Feb-2020 3134.51 4120.86 74.09 1.00  68.41 2647.81
   08:20:48.125.08-Feb-2020 3134.51 4154.35 74.09 1.00  68.61 2647.81
   08:20:48.325.08-Feb-2020 3134.51 4185.32 74.09 1.00  68.81 2647.81
