~Version Information
 VERS.                  2.0:   CWLS log ASCII Standard -VERSION 2.0
 WRAP.                   NO:   One line per depth step
~Well Information Block
#MNEM.UNIT     VALUE/NAME     DESCRIPTION
#---------     -----------    ---------------------------
 STRT.S             12:03:05 08-Feb-20: START TIME 12:03:05 08-Feb-20
 STOP.S             12:09:57 08-Feb-20: STOP TIME  12:09:57 08-Feb-20
 STEP.S                   0.00: STEP TIME
 NULL.                 -999.25: NULL VALUE
 DFWT.                        :  DIST FWL TEXT
 DFST.                        :  DIST FSL TEXT
 DMF .             Drill Floor:  DRILL MEAS FROM
 STIM.      07.00.00 09-Jan-20:  START TIME
 DATE.      14.04.48 07-Feb-20:  END TIME
 SPUD.               09-Jan-20:  SPUD DATE
 NREF.                    Grid:  NORTH REFERENCE
 HPTY.       Minimum Curvature:  HOLE POS TYPE
 DMOD.             Drill Model:  DRILL MOD DESC
 SVYD.                  Survey:  SURVEY DESC
 ILTD.               Lithology:  INTERP LTH DESC
 FTOP.          Formation Tops:  FORM TOPS DESC
 SON .        AZ-XX-0905059384:  JOB NUMBER
 MDS .        Operator Entered:  MAG DATA SOURCE
 WTYP.                Deviated:  WELL TYPE
 COMP.     BP Exploration (Caspian Sea) Ltd.:  COMPANY
 UWI .                     N/A:  UNIQUE WELL IDENTIFIER
 API .                     N/A:  API NUMBER
 BASE.              Azerbaijan:  LOGGING EQUIPMENT BASE LOCATION
 REGN.                   EESSA:  REGION
 PROV.                    Baku:  PROVINCE
 STAT.                    Baku:  STATE NAME
 CTRY.              Azerbaijan:  COUNTRY NAME
 FLD .                     ACG:  FIELD NAME
 SRVC.     TURAN Drilling & Engineering:  CONTRACTOR
 MWDS.                    Baku:  MWD SHOP
 WELL.                     J22:  WELL NAME
 RIG .             West Chirag:  RIG NAME
 DOE .                     N/A:  DOE NUMBER
 DCON.         Sperry Drilling:  DIRECTNL CONTR
 UNIT.                     N/A:  LOGGING EQUIPMENT ID
 PDAT.          Mean Sea Level:  PERMANENT DATUM
 JOBN.        AZ-XX-0905059384:  JOB TICKET NUMB
 CNTY.                        :  COUNTY
 LOC .                        :  LOCATION
 LMF .             Drill Floor:  LOG MEASURED FROM
 TVDS.m                  43.00:  TVDSS CORRECTN
 LATI.deg                40.13:  LATITUDE
 LONG.deg                51.22:  LONGITUDE
 WHNS.m                  10.28:  WELL HEAD N/S
 WHEW.m                  -6.24:  WELL HEAD E/W
 UTMX.m              519005.06:  UTM X
 UTMY.m             4443793.85:  UTM Y
 DFWL.m                   0.00:  DISTANCE FWL
 DFSL.m                   0.00:  DISTANCE FSL
 SDEP.m                 362.00:  START DEPTH
 TDD .m                 904.00:  TOTAL DEPTH (DRILLER)
 VSDR.deg               148.53:  VERT SEC DIRECT
 GVFD.g                   1.00:  GRAVITY FIELD
 MFLD.nT              50277.00:  MAGNETIC FIELD
 MDIP.deg                59.56:  MAGNETIC DIP
 MDEC.deg                 6.42:  MAGNETIC DECL
 GRDC.deg                 0.15:  GRID CORRECTION
 AZTC.deg                 6.27:  AZM TOTAL CORR
 EPD .m                   0.00:  ELEVATION
 EGL .m                   0.00:  GROUND ELEVATION
 WDMS.m                 169.80:  WD ELEV
 APD .m                  43.00:  DEPTH ABOVE PD
 AGAP.m                  43.00:  AIR GAP
 VSEW.m                  -6.24:  VERT SEC E/W
 VSNS.m                  10.28:  VERT SEC N/S
 DEP .m                   0.00:  DEPTH
 EKB .m                   0.00:  KB ELEVATION
 EDF .m                  43.00:  DF ELEVATION
 TDL .m                1183.00:  TOTAL DEPTH (LOGGER)
 VSC .                       0:  VS TO CLOSURE
 MAGU.                 1850021:  MAGUTM CHECKSUM
~Parameter Information Block
#MNEM.UNIT       Value        Description
#---------     -----------    ---------------------------
 AV  .mps                 4.00:  Ann Velocity 
 AVMX.mps                 4.50:  Max Ann Veloc 
 AZIF.deg               145.38:  Azm, Final 
 BHAT.        Rotary Steerable:  BHA Type 
 BROT.°/30m               3.00:  Build Rotating 
 BS  .in                 12.25:  Bit Size 
 BSZ .in                 12.25:  Bit Size 
 BTPL.psig              650.00:  Bit Press Loss 
 CABU.                      No:  Customer Abuse 
 COMM.                     ÌSf:  Run Comments 1 
 TCS .hr                101.62:  Time Ciculation Ended 
 CV  .mps                 5.00:  Crit Velocity 
 CVMX.mps                 5.00:  Max Crit Veloc 
 DD1 .             Aziz Aliyev:  Direct Drillr 1 
 DD2 .      Fakhraddin Guliyev:  Direct Drillr 2 
 DDSV.                 iCruise:  DD Service 
 DEFF.%                  97.00:  % Det Eff 
 DLRX.°/30m               4.16:  Dogleg Rot Max 
 DLSO.°/30m               3.20:  Dogleg Oriented 
 DLSX.°/30m               4.10:  Dogleg Str Max 
 DRET.      23.12.00 07-Feb-20:  Drill End Time 
 DRST.      11.30.00 04-Feb-20:  Drill Start Tim 
 DTIM.hr                 61.06:  Time Drilling 
 EDEP.m                3219.01:  End Depth 
 ENG1.         Almaz Almadatov:  Engineer 1 
 ENG2.         Dair Mahammadov:  Engineer 2 
 ENG3.          Nazrin Asgarli:  Engineer 3 
 ETIM.      02.30.00 11-Feb-20:  End Time 
 FLOI.gpm              1100.00:  Flow In 
 FLON.gpm               900.00:  Flow In Min 
 FLOS.cptm               55.00:  Fluid Loss 
 FLOX.gpm              1150.00:  Flow In Max 
 FTRO.       Formation Presure:  FTWD Run Obj 
 HFLO.                      No:  High Flow 
 HPRE.                      No:  High Pressure 
 HTEM.                      No:  High Temp 
 HYDO.m                   1.80:  Hydro Offset 
 IFIN.deg                75.11:  Inc, Final 
 IMAX.deg                75.11:  Inc Max 
 IMIN.deg                33.55:  Inc Min 
 IMND.m                2186.05:  Inc Min Depth 
 IMXD.m                3205.61:  Inc Max Depth 
 JARR.                      No:  Jarring 
 LETM.      23.12.00 07-Feb-20:  Log End Time 
 LOST.hr                     0:  Lost Rig Time 
 LSTM.      11.30.00 04-Feb-20:  Log Start Time 
 MDCL.ppm             40000.00:  Mud Chlorides 
 MDES.     Inversion Oil/Synthetic:  Mud Desc 
 DFD .sg                  1.49:  Mud Density 
 MDMN.sg                  1.49:  Dens Mud Min 
 MDMX.sg                  1.49:  Dens Mud Max 
 MOIL.                      73:  Run Mud Oil % 
 MOWR.                   73:27:  Run Mud OWR 
 MSND.                     0.1:  Run Mud Sand % 
 MSOL.                    20.1:  Run Mud Solids% 
 DFV .spqt               78.00:  Mud Viscosity 
 MWOD.in                  8.00:  MWD Tool OD 
 MWSI.                      No:  Serv Intrp, MWD 
 OTIM.hr                177.15:  Time Operating 
 PCON.          Wear / Scratch:  Pad Condition 
 PMAX.psia            10493.93:  Press Op, Max 
 PV  .cP                 73.00:  Mud PV 
 RUN .                     700:  Run Number 
 ROPA.m/hr               15.00:  ROP Avg 
 ROPN.m/hr               10.00:  ROP Min 
 ROPX.m/hr               35.00:  ROP Max 
 RPMA.rpm               130.00:  RPM Surface Avg 
 RPMN.rpm                80.00:  RPM Surface Min 
 RPMX.rpm               150.00:  RPM Surface Max 
 RRUN.                    L402:  Rig Run Number 
 RTIM.hr                 80.50:  Time Reaming 
 SAZI.deg               155.55:  Azm, Start 
 SDEP.m                2036.00:  Start Depth 
 SIDD.                      No:  Serv Intrp, DD 
 SINC.deg                35.44:  Inc, Start 
 SPPA.psig             4270.00:  SPP Avg 
 SPPN.psig             2800.00:  SPP Min 
 SPPX.psig             4850.00:  SPP Max 
 STIM.      09.30.00 03-Feb-20:  Start Time 
 SVCS.                 DD, MWD:  Services 
 SVER.                    9.20:  Sperry Version 
 TDAT.m                1183.00:  Tot Depth Attmp 
 TDDF.                      No:  Trip for DD 
 TDLG.m                1183.00:  Tot Depth Loggd 
 TFF .                      No:  Trip for Fail 
 TQAA.f-kp               16.00:  Torque Abs Avg 
 TQAN.f-kp               10.00:  Torque Abs Min 
 TQAX.f-kp               20.00:  Torque Abs Max 
 TRRT.°/30m               1.00:  Turn Rotating 
 MRT .                  EWR-M5:  Maximum Recorded Temperature 
 TTMX.degC               80.39:  Max Tool Temp 
 VS01.               13098498 :  Virtual Str1 SN 
 VS02.                90569596:  Virtual Str2 SN 
 VS03.                90523599:  Virtual Str3 SN 
 VS04.                90573553:  Virtual Str4 SN 
 VS05.                90598598:  Virtual Str5 SN 
 VS06.                90577297:  Virtual Str6 SN 
 WBMN.klb                13.00:  WOB Min 
 WITN.         Alistair Sprott:  Customer Rep 
 WITN.           Rufat Babayev:  Customer Rep 2 
 WOBA.klb                15.00:  WOB Avg 
 WOBX.klb                20.00:  WOB Max 
 YP  .lhf2               39.00:  Yield Point 
~Curve Information Block
#MNEM.UNIT                 API CODE     Curve Description
#---------               -----------    ---------------------------
 TIME.HHMMSS            00 000 000 000:  GT Time & Date
 GTDEPTH.m              00 000 000 000:  GT Depth
 GTPQH.psia             00 000 000 000:  GT HR Quartz Pressure
 GTTQ.degC              00 000 000 000:  GT Quartz Temperature
 GTTN.NONE              00 000 000 000:  GT Test Number
 GTET.sec               00 000 000 000:  GT Elapsed Test Time
 GTTVD.m                00 000 000 000:  GT True Vertical Depth
#Other Information
#
#WARRANTY: Halliburton will use its best efforts to furnish customers with 
#accurate information and interpretations that are part of, and incident to, the services 
#provided.  However, Halliburton cannot and does not warrant the accuracy 
#or correctness of such information and interpretations.  Under no circumstances should any 
#such information or interpretation be relied upon as the sole basis for any drilling, 
#completion, production, or financial decision or any procedure involving any risk to the 
#safety of any drilling venture, drilling rig or its crew or any other third party.  The 
#Customer has full responsibility for all drilling, completion and production operation.  
#Halliburton makes no representations or warranties, either expressed or 
#implied, including, but not limited to, the implied warranties of merchantability or fitness 
#for a particular purpose, with respect to the services rendered.  In no event will 
#Halliburton be liable for failure to obtain any particular results or for 
#any damages, including, but not limited to, indirect, special or consequential damages, 
#resulting from the use of any information or interpretation provided by Halliburton.
#
~A           TIME           GTDEPTH  GTPQH  GTTQ  GTTN  GTET   GTTVD  
# ...
   12:07:18.000.08-Feb-2020 3069.01 4543.89 66.03 7.00 253.00 2627.56
   12:07:18.200.08-Feb-2020 3069.01 4543.89 66.03 7.00 253.20 2627.56
   12:07:18.400.08-Feb-2020 3069.01 4547.28 66.03 7.00 253.40 2627.56
   12:07:18.600.08-Feb-2020 3069.01 4548.78 66.03 7.00 253.60 2627.56
   12:07:18.800.08-Feb-2020 3069.01 4550.75 66.03 7.00 253.80 2627.56
   12:07:19.000.08-Feb-2020 3069.01 4552.56 66.03 7.00 254.00 2627.56
   12:07:19.200.08-Feb-2020 3069.01 4552.56 66.03 7.00 254.20 2627.56
   12:07:19.400.08-Feb-2020 3069.01 4555.90 66.03 7.00 254.40 2627.56
   12:07:19.600.08-Feb-2020 3069.01 4557.53 66.03 7.00 254.60 2627.56
   12:07:19.800.08-Feb-2020 3069.01 4559.11 66.03 7.00 254.80 2627.56
   12:07:20.000.08-Feb-2020 3069.01 4560.99 66.02 7.00 255.00 2627.56
   12:07:20.200.08-Feb-2020 3069.01 4560.99 66.02 7.00 255.20 2627.56
   12:07:20.400.08-Feb-2020 3069.01 4564.54 66.02 7.00 255.40 2627.56
   12:07:20.600.08-Feb-2020 3069.01 4566.22 66.02 7.00 255.60 2627.56
   12:07:20.800.08-Feb-2020 3069.01 4567.47 66.02 7.00 255.80 2627.56
   12:07:21.000.08-Feb-2020 3069.01 4568.94 66.02 7.00 256.00 2627.56
   12:07:21.200.08-Feb-2020 3069.01 4568.94 66.02 7.00 256.20 2627.56
   12:07:21.400.08-Feb-2020 3069.01 4571.86 66.02 7.00 256.40 2627.56
   12:07:21.600.08-Feb-2020 3069.01 4573.59 66.02 7.00 256.60 2627.56
   12:07:21.800.08-Feb-2020 3069.01 4575.16 66.02 7.00 256.80 2627.56
   12:07:22.000.08-Feb-2020 3069.01 4576.67 66.02 7.00 257.00 2627.56
   12:07:22.200.08-Feb-2020 3069.01 4576.67 66.02 7.00 257.20 2627.56
   12:07:22.400.08-Feb-2020 3069.01 4579.70 66.02 7.00 257.40 2627.56
   12:07:22.600.08-Feb-2020 3069.01 4581.21 66.02 7.00 257.60 2627.56
   12:07:22.800.08-Feb-2020 3069.01 4582.73 66.02 7.00 257.80 2627.56
   12:07:23.000.08-Feb-2020 3069.01 4584.64 66.02 7.00 258.00 2627.56
   12:07:23.200.08-Feb-2020 3069.01 4584.64 66.02 7.00 258.20 2627.56
   12:07:23.400.08-Feb-2020 3069.01 4587.00 66.02 7.00 258.40 2627.56
   12:07:23.600.08-Feb-2020 3069.01 4588.93 66.02 7.00 258.60 2627.56
   12:07:23.800.08-Feb-2020 3069.01 4589.37 66.02 7.00 258.80 2627.56
   12:07:24.000.08-Feb-2020 3069.01 4591.32 66.02 7.00 259.00 2627.56
   12:07:24.200.08-Feb-2020 3069.01 4591.32 66.02 7.00 259.20 2627.56
   12:07:24.400.08-Feb-2020 3069.01 4594.08 66.02 7.00 259.40 2627.56
   12:07:24.600.08-Feb-2020 3069.01 4595.56 66.02 7.00 259.60 2627.56
   12:07:24.800.08-Feb-2020 3069.01 4596.96 66.02 7.00 259.80 2627.56
   12:07:25.000.08-Feb-2020 3069.01 4598.16 66.02 7.00 260.00 2627.56
   12:07:25.200.08-Feb-2020 3069.01 4598.16 66.02 7.00 260.20 2627.56
   12:07:25.400.08-Feb-2020 3069.01 4601.27 66.02 7.00 260.40 2627.56
   12:07:25.600.08-Feb-2020 3069.01 4602.75 66.02 7.00 260.60 2627.56
   12:07:25.800.08-Feb-2020 3069.01 4604.04 66.02 7.00 260.80 2627.56
   12:07:26.000.08-Feb-2020 3069.01 4605.72 66.02 7.00 261.00 2627.56
   12:07:26.200.08-Feb-2020 3069.01 4605.72 66.02 7.00 261.20 2627.56
   12:07:26.400.08-Feb-2020 3069.01 4608.10 66.01 7.00 261.40 2627.56
   12:07:26.600.08-Feb-2020 3069.01 4609.53 66.01 7.00 261.60 2627.56
   12:07:26.800.08-Feb-2020 3069.01 4610.79 66.01 7.00 261.80 2627.56
   12:07:27.000.08-Feb-2020 3069.01 4612.02 66.01 7.00 262.00 2627.56
   12:07:27.200.08-Feb-2020 3069.01 4612.02 66.01 7.00 262.20 2627.56
   12:07:27.400.08-Feb-2020 3069.01 4614.69 66.01 7.00 262.40 2627.56
   12:07:27.600.08-Feb-2020 3069.01 4616.06 66.01 7.00 262.60 2627.56
   12:07:27.800.08-Feb-2020 3069.01 4617.29 66.01 7.00 262.80 2627.56
   12:07:28.000.08-Feb-2020 3069.01 4618.50 66.01 7.00 263.00 2627.56
   12:07:28.200.08-Feb-2020 3069.01 4618.50 66.01 7.00 263.20 2627.56
   12:07:28.400.08-Feb-2020 3069.01 4621.00 66.01 7.00 263.40 2627.56
   12:07:28.600.08-Feb-2020 3069.01 4622.35 66.01 7.00 263.60 2627.56
   12:07:28.800.08-Feb-2020 3069.01 4623.79 66.01 7.00 263.80 2627.56
   12:07:29.000.08-Feb-2020 3069.01 4625.07 66.01 7.00 264.00 2627.56
   12:07:29.200.08-Feb-2020 3069.01 4625.07 66.01 7.00 264.20 2627.56
   12:07:29.400.08-Feb-2020 3069.01 4627.26 66.01 7.00 264.40 2627.56
   12:07:29.600.08-Feb-2020 3069.01 4628.55 66.01 7.00 264.60 2627.56
   12:07:29.800.08-Feb-2020 3069.01 4629.70 66.01 7.00 264.80 2627.56
   12:07:30.000.08-Feb-2020 3069.01 4630.89 66.01 7.00 265.00 2627.56
   12:07:30.200.08-Feb-2020 3069.01 4630.89 66.01 7.00 265.20 2627.56
   12:07:30.400.08-Feb-2020 3069.01 4633.18 66.01 7.00 265.40 2627.56
   12:07:30.600.08-Feb-2020 3069.01 4634.07 66.01 7.00 265.60 2627.56
   12:07:30.800.08-Feb-2020 3069.01 4635.67 66.01 7.00 265.80 2627.56
   12:07:31.000.08-Feb-2020 3069.01 4636.32 66.01 7.00 266.00 2627.56
   12:07:31.200.08-Feb-2020 3069.01 4636.32 66.01 7.00 266.20 2627.56
   12:07:31.400.08-Feb-2020 3069.01 4638.87 66.01 7.00 266.40 2627.56
   12:07:31.600.08-Feb-2020 3069.01 4639.76 66.01 7.00 266.60 2627.56
   12:07:31.800.08-Feb-2020 3069.01 4640.95 66.01 7.00 266.80 2627.56
   12:07:32.000.08-Feb-2020 3069.01 4641.73 66.01 7.00 267.00 2627.56
   12:07:32.200.08-Feb-2020 3069.01 4641.73 66.01 7.00 267.20 2627.56
   12:07:32.400.08-Feb-2020 3069.01 4644.10 66.00 7.00 267.40 2627.56
   12:07:32.600.08-Feb-2020 3069.01 4645.04 66.00 7.00 267.60 2627.56
   12:07:32.800.08-Feb-2020 3069.01 4646.20 66.00 7.00 267.80 2627.56
   12:07:33.000.08-Feb-2020 3069.01 4647.34 66.00 7.00 268.00 2627.56
   12:07:33.200.08-Feb-2020 3069.01 4647.34 66.00 7.00 268.20 2627.56
   12:07:33.400.08-Feb-2020 3069.01 4649.41 66.00 7.00 268.40 2627.56
   12:07:33.600.08-Feb-2020 3069.01 4650.49 66.00 7.00 268.60 2627.56
   12:07:33.800.08-Feb-2020 3069.01 4650.91 66.00 7.00 268.80 2627.56
   12:07:34.000.08-Feb-2020 3069.01 4652.58 66.00 7.00 269.00 2627.56
   12:07:34.200.08-Feb-2020 3069.01 4652.58 66.00 7.00 269.20 2627.56
   12:07:34.400.08-Feb-2020 3069.01 4654.41 66.00 7.00 269.40 2627.56
   12:07:34.600.08-Feb-2020 3069.01 4655.70 66.00 7.00 269.60 2627.56
   12:07:34.800.08-Feb-2020 3069.01 4656.62 66.00 7.00 269.80 2627.56
   12:07:35.000.08-Feb-2020 3069.01 4657.55 66.00 7.00 270.00 2627.56
   12:07:35.200.08-Feb-2020 3069.01 4657.55 66.00 7.00 270.20 2627.56
   12:07:35.400.08-Feb-2020 3069.01 4659.79 66.00 7.00 270.40 2627.56
   12:07:35.600.08-Feb-2020 3069.01 4660.87 66.00 7.00 270.60 2627.56
   12:07:35.800.08-Feb-2020 3069.01 4662.21 66.00 7.00 270.80 2627.56
   12:07:36.000.08-Feb-2020 3069.01 4662.40 66.00 7.00 271.00 2627.56
   12:07:36.200.08-Feb-2020 3069.01 4662.40 66.00 7.00 271.20 2627.56
   12:07:36.400.08-Feb-2020 3069.01 4665.08 66.00 7.00 271.40 2627.56
   12:07:36.600.08-Feb-2020 3069.01 4666.00 66.00 7.00 271.60 2627.56
   12:07:36.800.08-Feb-2020 3069.01 4666.77 66.00 7.00 271.80 2627.56
   12:07:37.000.08-Feb-2020 3069.01 4667.86 66.00 7.00 272.00 2627.56
   12:07:37.200.08-Feb-2020 3069.01 4667.86 66.00 7.00 272.20 2627.56
   12:07:37.400.08-Feb-2020 3069.01 4669.70 66.00 7.00 272.40 2627.56
   12:07:37.600.08-Feb-2020 3069.01 4670.64 66.00 7.00 272.60 2627.56
   12:07:37.800.08-Feb-2020 3069.01 4671.55 66.00 7.00 272.80 2627.56
   12:07:38.000.08-Feb-2020 3069.01 4672.15 66.00 7.00 273.00 2627.56
   12:07:38.200.08-Feb-2020 3069.01 4672.15 66.00 7.00 273.20 2627.56
   12:07:38.400.08-Feb-2020 3069.01 3818.59 65.99 7.00 273.40 2627.56
   12:07:38.600.08-Feb-2020 3069.01 2054.38 65.99 7.00 273.60 2627.56
   12:07:38.800.08-Feb-2020 3069.01 1888.12 65.99 7.00 273.80 2627.56
   12:07:39.000.08-Feb-2020 3069.01 1784.92 65.99 7.00 274.00 2627.56
   12:07:39.200.08-Feb-2020 3069.01 1784.92 65.99 7.00 274.20 2627.56
   12:07:39.400.08-Feb-2020 3069.01 1581.35 65.99 7.00 274.40 2627.56
   12:07:39.600.08-Feb-2020 3069.01 1483.71 65.99 7.00 274.60 2627.56
   12:07:39.800.08-Feb-2020 3069.01 1394.06 65.99 7.00 274.80 2627.56
   12:07:40.000.08-Feb-2020 3069.01 1288.80 65.99 7.00 275.00 2627.56
   12:07:40.200.08-Feb-2020 3069.01 1288.80 65.99 7.00 275.20 2627.56
   12:07:40.400.08-Feb-2020 3069.01 1103.85 65.98 7.00 275.40 2627.56
   12:07:40.600.08-Feb-2020 3069.01 1007.40 65.98 7.00 275.60 2627.56
   12:07:40.800.08-Feb-2020 3069.01  915.05 65.98 7.00 275.80 2627.56
