~Version Information
 VERS.                  2.0:   CWLS log ASCII Standard -VERSION 2.0
 WRAP.                   NO:   One line per depth step
~Well Information Block
#MNEM.UNIT     VALUE/NAME     DESCRIPTION
#---------     -----------    ---------------------------
 STRT.S             09:27:25 08-Feb-20: START TIME 09:27:25 08-Feb-20
 STOP.S             09:34:14 08-Feb-20: STOP TIME  09:34:14 08-Feb-20
 STEP.S                   0.00: STEP TIME
 NULL.                 -999.25: NULL VALUE
 DFWT.                        :  DIST FWL TEXT
 DFST.                        :  DIST FSL TEXT
 DMF .             Drill Floor:  DRILL MEAS FROM
 STIM.      07.00.00 09-Jan-20:  START TIME
 DATE.      14.04.48 07-Feb-20:  END TIME
 SPUD.               09-Jan-20:  SPUD DATE
 NREF.                    Grid:  NORTH REFERENCE
 HPTY.       Minimum Curvature:  HOLE POS TYPE
 DMOD.             Drill Model:  DRILL MOD DESC
 SVYD.                  Survey:  SURVEY DESC
 ILTD.               Lithology:  INTERP LTH DESC
 FTOP.          Formation Tops:  FORM TOPS DESC
 SON .        AZ-XX-0905059384:  JOB NUMBER
 MDS .        Operator Entered:  MAG DATA SOURCE
 WTYP.                Deviated:  WELL TYPE
 COMP.     BP Exploration (Caspian Sea) Ltd.:  COMPANY
 UWI .                     N/A:  UNIQUE WELL IDENTIFIER
 API .                     N/A:  API NUMBER
 BASE.              Azerbaijan:  LOGGING EQUIPMENT BASE LOCATION
 REGN.                   EESSA:  REGION
 PROV.                    Baku:  PROVINCE
 STAT.                    Baku:  STATE NAME
 CTRY.              Azerbaijan:  COUNTRY NAME
 FLD .                     ACG:  FIELD NAME
 SRVC.     TURAN Drilling & Engineering:  CONTRACTOR
 MWDS.                    Baku:  MWD SHOP
 WELL.                     J22:  WELL NAME
 RIG .             West Chirag:  RIG NAME
 DOE .                     N/A:  DOE NUMBER
 DCON.         Sperry Drilling:  DIRECTNL CONTR
 UNIT.                     N/A:  LOGGING EQUIPMENT ID
 PDAT.          Mean Sea Level:  PERMANENT DATUM
 JOBN.        AZ-XX-0905059384:  JOB TICKET NUMB
 CNTY.                        :  COUNTY
 LOC .                        :  LOCATION
 LMF .             Drill Floor:  LOG MEASURED FROM
 TVDS.m                  43.00:  TVDSS CORRECTN
 LATI.deg                40.13:  LATITUDE
 LONG.deg                51.22:  LONGITUDE
 WHNS.m                  10.28:  WELL HEAD N/S
 WHEW.m                  -6.24:  WELL HEAD E/W
 UTMX.m              519005.06:  UTM X
 UTMY.m             4443793.85:  UTM Y
 DFWL.m                   0.00:  DISTANCE FWL
 DFSL.m                   0.00:  DISTANCE FSL
 SDEP.m                 362.00:  START DEPTH
 TDD .m                 904.00:  TOTAL DEPTH (DRILLER)
 VSDR.deg               148.53:  VERT SEC DIRECT
 GVFD.g                   1.00:  GRAVITY FIELD
 MFLD.nT              50277.00:  MAGNETIC FIELD
 MDIP.deg                59.56:  MAGNETIC DIP
 MDEC.deg                 6.42:  MAGNETIC DECL
 GRDC.deg                 0.15:  GRID CORRECTION
 AZTC.deg                 6.27:  AZM TOTAL CORR
 EPD .m                   0.00:  ELEVATION
 EGL .m                   0.00:  GROUND ELEVATION
 WDMS.m                 169.80:  WD ELEV
 APD .m                  43.00:  DEPTH ABOVE PD
 AGAP.m                  43.00:  AIR GAP
 VSEW.m                  -6.24:  VERT SEC E/W
 VSNS.m                  10.28:  VERT SEC N/S
 DEP .m                   0.00:  DEPTH
 EKB .m                   0.00:  KB ELEVATION
 EDF .m                  43.00:  DF ELEVATION
 TDL .m                1183.00:  TOTAL DEPTH (LOGGER)
 VSC .                       0:  VS TO CLOSURE
 MAGU.                 1850021:  MAGUTM CHECKSUM
~Parameter Information Block
#MNEM.UNIT       Value        Description
#---------     -----------    ---------------------------
 AV  .mps                 4.00:  Ann Velocity 
 AVMX.mps                 4.50:  Max Ann Veloc 
 AZIF.deg               145.38:  Azm, Final 
 BHAT.        Rotary Steerable:  BHA Type 
 BROT.∞/30m               3.00:  Build Rotating 
 BS  .in                 12.25:  Bit Size 
 BSZ .in                 12.25:  Bit Size 
 BTPL.psig              650.00:  Bit Press Loss 
 CABU.                      No:  Customer Abuse 
 COMM.                     $ÊW:  Run Comments 1 
 TCS .hr                101.62:  Time Ciculation Ended 
 CV  .mps                 5.00:  Crit Velocity 
 CVMX.mps                 5.00:  Max Crit Veloc 
 DD1 .             Aziz Aliyev:  Direct Drillr 1 
 DD2 .      Fakhraddin Guliyev:  Direct Drillr 2 
 DDSV.                 iCruise:  DD Service 
 DEFF.%                  97.00:  % Det Eff 
 DLRX.∞/30m               4.16:  Dogleg Rot Max 
 DLSO.∞/30m               3.20:  Dogleg Oriented 
 DLSX.∞/30m               4.10:  Dogleg Str Max 
 DRET.      23.12.00 07-Feb-20:  Drill End Time 
 DRST.      11.30.00 04-Feb-20:  Drill Start Tim 
 DTIM.hr                 61.06:  Time Drilling 
 EDEP.m                3219.01:  End Depth 
 ENG1.         Almaz Almadatov:  Engineer 1 
 ENG2.         Dair Mahammadov:  Engineer 2 
 ENG3.          Nazrin Asgarli:  Engineer 3 
 ETIM.      02.30.00 11-Feb-20:  End Time 
 FLOI.gpm              1100.00:  Flow In 
 FLON.gpm               900.00:  Flow In Min 
 FLOS.cptm               55.00:  Fluid Loss 
 FLOX.gpm              1150.00:  Flow In Max 
 FTRO.       Formation Presure:  FTWD Run Obj 
 HFLO.                      No:  High Flow 
 HPRE.                      No:  High Pressure 
 HTEM.                      No:  High Temp 
 HYDO.m                   1.80:  Hydro Offset 
 IFIN.deg                75.11:  Inc, Final 
 IMAX.deg                75.11:  Inc Max 
 IMIN.deg                33.55:  Inc Min 
 IMND.m                2186.05:  Inc Min Depth 
 IMXD.m                3205.61:  Inc Max Depth 
 JARR.                      No:  Jarring 
 LETM.      23.12.00 07-Feb-20:  Log End Time 
 LOST.hr                     0:  Lost Rig Time 
 LSTM.      11.30.00 04-Feb-20:  Log Start Time 
 MDCL.ppm             40000.00:  Mud Chlorides 
 MDES.     Inversion Oil/Synthetic:  Mud Desc 
 DFD .sg                  1.49:  Mud Density 
 MDMN.sg                  1.49:  Dens Mud Min 
 MDMX.sg                  1.49:  Dens Mud Max 
 MOIL.                      73:  Run Mud Oil % 
 MOWR.                   73:27:  Run Mud OWR 
 MSND.                     0.1:  Run Mud Sand % 
 MSOL.                    20.1:  Run Mud Solids% 
 DFV .spqt               78.00:  Mud Viscosity 
 MWOD.in                  8.00:  MWD Tool OD 
 MWSI.                      No:  Serv Intrp, MWD 
 OTIM.hr                177.15:  Time Operating 
 PCON.          Wear / Scratch:  Pad Condition 
 PMAX.psia            10493.93:  Press Op, Max 
 PV  .cP                 73.00:  Mud PV 
 RUN .                     700:  Run Number 
 ROPA.m/hr               15.00:  ROP Avg 
 ROPN.m/hr               10.00:  ROP Min 
 ROPX.m/hr               35.00:  ROP Max 
 RPMA.rpm               130.00:  RPM Surface Avg 
 RPMN.rpm                80.00:  RPM Surface Min 
 RPMX.rpm               150.00:  RPM Surface Max 
 RRUN.                    L402:  Rig Run Number 
 RTIM.hr                 80.50:  Time Reaming 
 SAZI.deg               155.55:  Azm, Start 
 SDEP.m                2036.00:  Start Depth 
 SIDD.                      No:  Serv Intrp, DD 
 SINC.deg                35.44:  Inc, Start 
 SPPA.psig             4270.00:  SPP Avg 
 SPPN.psig             2800.00:  SPP Min 
 SPPX.psig             4850.00:  SPP Max 
 STIM.      09.30.00 03-Feb-20:  Start Time 
 SVCS.                 DD, MWD:  Services 
 SVER.                    9.20:  Sperry Version 
 TDAT.m                1183.00:  Tot Depth Attmp 
 TDDF.                      No:  Trip for DD 
 TDLG.m                1183.00:  Tot Depth Loggd 
 TFF .                      No:  Trip for Fail 
 TQAA.f-kp               16.00:  Torque Abs Avg 
 TQAN.f-kp               10.00:  Torque Abs Min 
 TQAX.f-kp               20.00:  Torque Abs Max 
 TRRT.∞/30m               1.00:  Turn Rotating 
 MRT .                  EWR-M5:  Maximum Recorded Temperature 
 TTMX.degC               80.39:  Max Tool Temp 
 VS01.               13098498 :  Virtual Str1 SN 
 VS02.                90569596:  Virtual Str2 SN 
 VS03.                90523599:  Virtual Str3 SN 
 VS04.                90573553:  Virtual Str4 SN 
 VS05.                90598598:  Virtual Str5 SN 
 VS06.                90577297:  Virtual Str6 SN 
 WBMN.klb                13.00:  WOB Min 
 WITN.         Alistair Sprott:  Customer Rep 
 WITN.           Rufat Babayev:  Customer Rep 2 
 WOBA.klb                15.00:  WOB Avg 
 WOBX.klb                20.00:  WOB Max 
 YP  .lhf2               39.00:  Yield Point 
~Curve Information Block
#MNEM.UNIT                 API CODE     Curve Description
#---------               -----------    ---------------------------
 TIME.HHMMSS            00 000 000 000:  GT Time & Date
 GTDEPTH.m              00 000 000 000:  GT Depth
 GTPQH.psia             00 000 000 000:  GT HR Quartz Pressure
 GTTQ.degC              00 000 000 000:  GT Quartz Temperature
 GTTN.NONE              00 000 000 000:  GT Test Number
 GTET.sec               00 000 000 000:  GT Elapsed Test Time
 GTTVD.m                00 000 000 000:  GT True Vertical Depth
#Other Information
#
#WARRANTY: Halliburton will use its best efforts to furnish customers with 
#accurate information and interpretations that are part of, and incident to, the services 
#provided.  However, Halliburton cannot and does not warrant the accuracy 
#or correctness of such information and interpretations.  Under no circumstances should any 
#such information or interpretation be relied upon as the sole basis for any drilling, 
#completion, production, or financial decision or any procedure involving any risk to the 
#safety of any drilling venture, drilling rig or its crew or any other third party.  The 
#Customer has full responsibility for all drilling, completion and production operation.  
#Halliburton makes no representations or warranties, either expressed or 
#implied, including, but not limited to, the implied warranties of merchantability or fitness 
#for a particular purpose, with respect to the services rendered.  In no event will 
#Halliburton be liable for failure to obtain any particular results or for 
#any damages, including, but not limited to, indirect, special or consequential damages, 
#resulting from the use of any information or interpretation provided by Halliburton.
#
~A           TIME           GTDEPTH  GTPQH  GTTQ  GTTN  GTET   GTTVD  
# ...
   09:33:33.891.08-Feb-2020 3135.01 4728.14 69.09 4.00 368.03 2647.94
   09:33:34.091.08-Feb-2020 3135.01 4728.14 69.09 4.00 368.23 2647.94
   09:33:34.291.08-Feb-2020 3135.01 4727.87 69.09 4.00 368.43 2647.94
   09:33:34.491.08-Feb-2020 3135.01 4728.55 69.09 4.00 368.63 2647.94
   09:33:34.691.08-Feb-2020 3135.01 4728.42 69.09 4.00 368.83 2647.94
   09:33:34.891.08-Feb-2020 3135.01 4728.95 69.09 4.00 369.03 2647.94
   09:33:35.091.08-Feb-2020 3135.01 4728.95 69.09 4.00 369.23 2647.94
   09:33:35.291.08-Feb-2020 3135.01 4728.02 69.09 4.00 369.43 2647.94
   09:33:35.491.08-Feb-2020 3135.01 4728.85 69.09 4.00 369.63 2647.94
   09:33:35.691.08-Feb-2020 3135.01 4728.53 69.09 4.00 369.83 2647.94
   09:33:35.891.08-Feb-2020 3135.01 4727.85 69.09 4.00 370.03 2647.94
   09:33:36.091.08-Feb-2020 3135.01 4727.85 69.09 4.00 370.23 2647.94
   09:33:36.291.08-Feb-2020 3135.01 4728.63 69.09 4.00 370.43 2647.94
   09:33:36.491.08-Feb-2020 3135.01 4728.17 69.09 4.00 370.63 2647.94
   09:33:36.691.08-Feb-2020 3135.01 4728.11 69.09 4.00 370.83 2647.94
   09:33:36.891.08-Feb-2020 3135.01 4728.26 69.09 4.00 371.03 2647.94
   09:33:37.091.08-Feb-2020 3135.01 4728.26 69.09 4.00 371.23 2647.94
   09:33:37.291.08-Feb-2020 3135.01 4728.01 69.09 4.00 371.43 2647.94
   09:33:37.491.08-Feb-2020 3135.01 4728.19 69.09 4.00 371.63 2647.94
   09:33:37.691.08-Feb-2020 3135.01 4728.04 69.09 4.00 371.83 2647.94
   09:33:37.891.08-Feb-2020 3135.01 4728.11 69.09 4.00 372.03 2647.94
   09:33:38.091.08-Feb-2020 3135.01 4728.11 69.09 4.00 372.23 2647.94
   09:33:38.291.08-Feb-2020 3135.01 4727.81 69.09 4.00 372.43 2647.94
   09:33:38.491.08-Feb-2020 3135.01 4728.20 69.09 4.00 372.63 2647.94
   09:33:38.691.08-Feb-2020 3135.01 4728.55 69.09 4.00 372.83 2647.94
   09:33:38.892.08-Feb-2020 3135.01 4728.04 69.09 4.00 373.03 2647.94
   09:33:39.092.08-Feb-2020 3135.01 4728.04 69.09 4.00 373.23 2647.94
   09:33:39.292.08-Feb-2020 3135.01 4728.23 69.09 4.00 373.43 2647.94
   09:33:39.492.08-Feb-2020 3135.01 4728.05 69.09 4.00 373.63 2647.94
   09:33:39.692.08-Feb-2020 3135.01 4727.94 69.09 4.00 373.83 2647.94
   09:33:39.892.08-Feb-2020 3135.01 4729.16 69.09 4.00 374.03 2647.94
   09:33:40.092.08-Feb-2020 3135.01 4729.16 69.09 4.00 374.23 2647.94
   09:33:40.292.08-Feb-2020 3135.01 4727.90 69.09 4.00 374.43 2647.94
   09:33:40.492.08-Feb-2020 3135.01 4728.76 69.09 4.00 374.63 2647.94
   09:33:40.692.08-Feb-2020 3135.01 4743.99 69.09 4.00 374.83 2647.94
   09:33:40.892.08-Feb-2020 3135.01 4604.89 69.09 4.00 375.03 2647.94
   09:33:41.092.08-Feb-2020 3135.01 4604.89 69.09 4.00 375.23 2647.94
   09:33:41.292.08-Feb-2020 3135.01 4991.69 69.09 4.00 375.43 2647.94
   09:33:41.492.08-Feb-2020 3135.01 5730.68 69.09 4.00 375.63 2647.94
   09:33:41.692.08-Feb-2020 3135.01 5787.66 69.09 4.00 375.83 2647.94
   09:33:41.892.08-Feb-2020 3135.01 5819.51 69.09 4.00 376.03 2647.94
   09:33:42.092.08-Feb-2020 3135.01 5819.51 69.09 4.00 376.23 2647.94
   09:33:42.292.08-Feb-2020 3135.01 5774.55 69.09 4.00 376.43 2647.94
   09:33:42.492.08-Feb-2020 3135.01 5822.03 69.09 4.00 376.63 2647.94
   09:33:42.692.08-Feb-2020 3135.01 5847.71 69.09 4.00 376.83 2647.94
   09:33:42.892.08-Feb-2020 3135.01 5897.78 69.09 4.00 377.03 2647.94
   09:33:43.092.08-Feb-2020 3135.01 5897.78 69.09 4.00 377.23 2647.94
   09:33:43.292.08-Feb-2020 3135.01 5773.92 69.09 4.00 377.43 2647.94
   09:33:43.492.08-Feb-2020 3135.01 5772.01 69.09 4.00 377.63 2647.94
   09:33:43.692.08-Feb-2020 3135.01 5772.32 69.09 4.00 377.83 2647.94
   09:33:43.892.08-Feb-2020 3135.01 5772.65 69.09 4.00 378.03 2647.94
   09:33:44.092.08-Feb-2020 3135.01 5772.65 69.09 4.00 378.23 2647.94
   09:33:44.292.08-Feb-2020 3135.01 5772.51 69.09 4.00 378.43 2647.94
   09:33:44.492.08-Feb-2020 3135.01 5771.66 69.09 4.00 378.63 2647.94
   09:33:44.692.08-Feb-2020 3135.01 5771.77 69.09 4.00 378.83 2647.94
   09:33:44.892.08-Feb-2020 3135.01 5771.77 69.09 4.00 379.03 2647.94
   09:33:45.092.08-Feb-2020 3135.01 5771.77 69.09 4.00 379.23 2647.94
   09:33:45.292.08-Feb-2020 3135.01 5774.46 69.10 4.00 379.43 2647.94
   09:33:45.492.08-Feb-2020 3135.01 5775.00 69.10 4.00 379.63 2647.94
   09:33:45.692.08-Feb-2020 3135.01 5772.23 69.10 4.00 379.83 2647.94
   09:33:45.892.08-Feb-2020 3135.01 5772.68 69.10 4.00 380.03 2647.94
   09:33:46.092.08-Feb-2020 3135.01 5772.68 69.10 4.00 380.23 2647.94
   09:33:46.292.08-Feb-2020 3135.01 5772.49 69.10 4.00 380.43 2647.94
   09:33:46.492.08-Feb-2020 3135.01 5772.12 69.10 4.00 380.63 2647.94
   09:33:46.692.08-Feb-2020 3135.01 5772.52 69.10 4.00 380.83 2647.94
   09:33:46.892.08-Feb-2020 3135.01 5771.81 69.10 4.00 381.03 2647.94
   09:33:47.092.08-Feb-2020 3135.01 5771.81 69.10 4.00 381.23 2647.94
   09:33:47.292.08-Feb-2020 3135.01 5777.96 69.10 4.00 381.43 2647.94
   09:33:47.492.08-Feb-2020 3135.01 5771.92 69.10 4.00 381.63 2647.94
   09:33:47.692.08-Feb-2020 3135.01 5770.45 69.10 4.00 381.83 2647.94
   09:33:47.892.08-Feb-2020 3135.01 5776.83 69.10 4.00 382.03 2647.94
   09:33:48.092.08-Feb-2020 3135.01 5776.83 69.10 4.00 382.23 2647.94
   09:33:48.292.08-Feb-2020 3135.01 5771.66 69.10 4.00 382.43 2647.94
   09:33:48.492.08-Feb-2020 3135.01 5771.07 69.10 4.00 382.63 2647.94
   09:33:48.692.08-Feb-2020 3135.01 5775.83 69.10 4.00 382.83 2647.94
   09:33:48.892.08-Feb-2020 3135.01 5775.22 69.11 4.00 383.03 2647.94
   09:33:49.092.08-Feb-2020 3135.01 5775.22 69.11 4.00 383.23 2647.94
   09:33:49.292.08-Feb-2020 3135.01 5772.06 69.11 4.00 383.43 2647.94
   09:33:49.492.08-Feb-2020 3135.01 5778.52 69.11 4.00 383.63 2647.94
   09:33:49.692.08-Feb-2020 3135.01 5771.16 69.11 4.00 383.83 2647.94
   09:33:49.892.08-Feb-2020 3135.01 5771.19 69.11 4.00 384.03 2647.94
   09:33:50.092.08-Feb-2020 3135.01 5771.19 69.11 4.00 384.23 2647.94
   09:33:50.292.08-Feb-2020 3135.01 5771.56 69.11 4.00 384.43 2647.94
   09:33:50.492.08-Feb-2020 3135.01 5775.53 69.11 4.00 384.63 2647.94
   09:33:50.692.08-Feb-2020 3135.01 5775.62 69.11 4.00 384.83 2647.94
   09:33:50.893.08-Feb-2020 3135.01 5772.70 69.11 4.00 385.03 2647.94
   09:33:51.093.08-Feb-2020 3135.01 5772.70 69.11 4.00 385.23 2647.94
   09:33:51.293.08-Feb-2020 3135.01 5772.96 69.11 4.00 385.43 2647.94
   09:33:51.493.08-Feb-2020 3135.01 5773.27 69.11 4.00 385.63 2647.94
   09:33:51.693.08-Feb-2020 3135.01 5772.85 69.11 4.00 385.83 2647.94
   09:33:51.893.08-Feb-2020 3135.01 5771.94 69.11 4.00 386.03 2647.94
   09:33:52.093.08-Feb-2020 3135.01 5771.94 69.11 4.00 386.23 2647.94
   09:33:52.293.08-Feb-2020 3135.01 5772.07 69.11 4.00 386.43 2647.94
   09:33:52.493.08-Feb-2020 3135.01 5771.96 69.11 4.00 386.63 2647.94
   09:33:52.693.08-Feb-2020 3135.01 5776.27 69.11 4.00 386.83 2647.94
   09:33:52.893.08-Feb-2020 3135.01 5774.16 69.11 4.00 387.03 2647.94
   09:33:53.093.08-Feb-2020 3135.01 5774.16 69.11 4.00 387.23 2647.94
   09:33:53.293.08-Feb-2020 3135.01 5772.87 69.11 4.00 387.43 2647.94
   09:33:53.493.08-Feb-2020 3135.01 5774.25 69.11 4.00 387.63 2647.94
   09:33:53.693.08-Feb-2020 3135.01 5773.32 69.11 4.00 387.83 2647.94
   09:33:53.893.08-Feb-2020 3135.01 5772.74 69.11 4.00 388.03 2647.94
   09:33:54.093.08-Feb-2020 3135.01 5772.74 69.11 4.00 388.23 2647.94
   09:33:54.293.08-Feb-2020 3135.01 5772.34 69.11 4.00 388.43 2647.94
   09:33:54.493.08-Feb-2020 3135.01 5771.51 69.11 4.00 388.63 2647.94
   09:33:54.693.08-Feb-2020 3135.01 5771.37 69.11 4.00 388.83 2647.94
   09:33:54.893.08-Feb-2020 3135.01 5774.82 69.11 4.00 389.03 2647.94
   09:33:55.093.08-Feb-2020 3135.01 5774.82 69.11 4.00 389.23 2647.94
   09:33:55.293.08-Feb-2020 3135.01 5772.40 69.11 4.00 389.43 2647.94
   09:33:55.493.08-Feb-2020 3135.01 5775.24 69.11 4.00 389.63 2647.94
   09:33:55.693.08-Feb-2020 3135.01 5774.63 69.11 4.00 389.83 2647.94
   09:33:55.893.08-Feb-2020 3135.01 5770.85 69.11 4.00 390.03 2647.94
   09:33:56.093.08-Feb-2020 3135.01 5770.85 69.11 4.00 390.23 2647.94
   09:33:56.293.08-Feb-2020 3135.01 5775.66 69.11 4.00 390.43 2647.94
   09:33:56.493.08-Feb-2020 3135.01 5773.61 69.11 4.00 390.63 2647.94
   09:33:56.693.08-Feb-2020 3135.01 5771.25 69.11 4.00 390.83 2647.94
