~Version Information
 VERS.                  2.0:   CWLS log ASCII Standard -VERSION 2.0
 WRAP.                   NO:   One line per depth step
~Well Information Block
#MNEM.UNIT     VALUE/NAME     DESCRIPTION
#---------     -----------    ---------------------------
 STRT.S             08:41:50 08-Feb-20: START TIME 08:41:50 08-Feb-20
 STOP.S             08:48:48 08-Feb-20: STOP TIME  08:48:48 08-Feb-20
 STEP.S                   0.00: STEP TIME
 NULL.                 -999.25: NULL VALUE
 DFWT.                        :  DIST FWL TEXT
 DFST.                        :  DIST FSL TEXT
 DMF .             Drill Floor:  DRILL MEAS FROM
 STIM.      07.00.00 09-Jan-20:  START TIME
 DATE.      14.04.48 07-Feb-20:  END TIME
 SPUD.               09-Jan-20:  SPUD DATE
 NREF.                    Grid:  NORTH REFERENCE
 HPTY.       Minimum Curvature:  HOLE POS TYPE
 DMOD.             Drill Model:  DRILL MOD DESC
 SVYD.                  Survey:  SURVEY DESC
 ILTD.               Lithology:  INTERP LTH DESC
 FTOP.          Formation Tops:  FORM TOPS DESC
 SON .        AZ-XX-0905059384:  JOB NUMBER
 MDS .        Operator Entered:  MAG DATA SOURCE
 WTYP.                Deviated:  WELL TYPE
 COMP.     BP Exploration (Caspian Sea) Ltd.:  COMPANY
 UWI .                     N/A:  UNIQUE WELL IDENTIFIER
 API .                     N/A:  API NUMBER
 BASE.              Azerbaijan:  LOGGING EQUIPMENT BASE LOCATION
 REGN.                   EESSA:  REGION
 PROV.                    Baku:  PROVINCE
 STAT.                    Baku:  STATE NAME
 CTRY.              Azerbaijan:  COUNTRY NAME
 FLD .                     ACG:  FIELD NAME
 SRVC.     TURAN Drilling & Engineering:  CONTRACTOR
 MWDS.                    Baku:  MWD SHOP
 WELL.                     J22:  WELL NAME
 RIG .             West Chirag:  RIG NAME
 DOE .                     N/A:  DOE NUMBER
 DCON.         Sperry Drilling:  DIRECTNL CONTR
 UNIT.                     N/A:  LOGGING EQUIPMENT ID
 PDAT.          Mean Sea Level:  PERMANENT DATUM
 JOBN.        AZ-XX-0905059384:  JOB TICKET NUMB
 CNTY.                        :  COUNTY
 LOC .                        :  LOCATION
 LMF .             Drill Floor:  LOG MEASURED FROM
 TVDS.m                  43.00:  TVDSS CORRECTN
 LATI.deg                40.13:  LATITUDE
 LONG.deg                51.22:  LONGITUDE
 WHNS.m                  10.28:  WELL HEAD N/S
 WHEW.m                  -6.24:  WELL HEAD E/W
 UTMX.m              519005.06:  UTM X
 UTMY.m             4443793.85:  UTM Y
 DFWL.m                   0.00:  DISTANCE FWL
 DFSL.m                   0.00:  DISTANCE FSL
 SDEP.m                 362.00:  START DEPTH
 TDD .m                 904.00:  TOTAL DEPTH (DRILLER)
 VSDR.deg               148.53:  VERT SEC DIRECT
 GVFD.g                   1.00:  GRAVITY FIELD
 MFLD.nT              50277.00:  MAGNETIC FIELD
 MDIP.deg                59.56:  MAGNETIC DIP
 MDEC.deg                 6.42:  MAGNETIC DECL
 GRDC.deg                 0.15:  GRID CORRECTION
 AZTC.deg                 6.27:  AZM TOTAL CORR
 EPD .m                   0.00:  ELEVATION
 EGL .m                   0.00:  GROUND ELEVATION
 WDMS.m                 169.80:  WD ELEV
 APD .m                  43.00:  DEPTH ABOVE PD
 AGAP.m                  43.00:  AIR GAP
 VSEW.m                  -6.24:  VERT SEC E/W
 VSNS.m                  10.28:  VERT SEC N/S
 DEP .m                   0.00:  DEPTH
 EKB .m                   0.00:  KB ELEVATION
 EDF .m                  43.00:  DF ELEVATION
 TDL .m                1183.00:  TOTAL DEPTH (LOGGER)
 VSC .                       0:  VS TO CLOSURE
 MAGU.                 1850021:  MAGUTM CHECKSUM
~Parameter Information Block
#MNEM.UNIT       Value        Description
#---------     -----------    ---------------------------
 AV  .mps                 4.00:  Ann Velocity 
 AVMX.mps                 4.50:  Max Ann Veloc 
 AZIF.deg               145.38:  Azm, Final 
 BHAT.        Rotary Steerable:  BHA Type 
 BROT.°/30m               3.00:  Build Rotating 
 BS  .in                 12.25:  Bit Size 
 BSZ .in                 12.25:  Bit Size 
 BTPL.psig              650.00:  Bit Press Loss 
 CABU.                      No:  Customer Abuse 
 COMM.                     [:  Run Comments 1 
 TCS .hr                101.62:  Time Ciculation Ended 
 CV  .mps                 5.00:  Crit Velocity 
 CVMX.mps                 5.00:  Max Crit Veloc 
 DD1 .             Aziz Aliyev:  Direct Drillr 1 
 DD2 .      Fakhraddin Guliyev:  Direct Drillr 2 
 DDSV.                 iCruise:  DD Service 
 DEFF.%                  97.00:  % Det Eff 
 DLRX.°/30m               4.16:  Dogleg Rot Max 
 DLSO.°/30m               3.20:  Dogleg Oriented 
 DLSX.°/30m               4.10:  Dogleg Str Max 
 DRET.      23.12.00 07-Feb-20:  Drill End Time 
 DRST.      11.30.00 04-Feb-20:  Drill Start Tim 
 DTIM.hr                 61.06:  Time Drilling 
 EDEP.m                3219.01:  End Depth 
 ENG1.         Almaz Almadatov:  Engineer 1 
 ENG2.         Dair Mahammadov:  Engineer 2 
 ENG3.          Nazrin Asgarli:  Engineer 3 
 ETIM.      02.30.00 11-Feb-20:  End Time 
 FLOI.gpm              1100.00:  Flow In 
 FLON.gpm               900.00:  Flow In Min 
 FLOS.cptm               55.00:  Fluid Loss 
 FLOX.gpm              1150.00:  Flow In Max 
 FTRO.       Formation Presure:  FTWD Run Obj 
 HFLO.                      No:  High Flow 
 HPRE.                      No:  High Pressure 
 HTEM.                      No:  High Temp 
 HYDO.m                   1.80:  Hydro Offset 
 IFIN.deg                75.11:  Inc, Final 
 IMAX.deg                75.11:  Inc Max 
 IMIN.deg                33.55:  Inc Min 
 IMND.m                2186.05:  Inc Min Depth 
 IMXD.m                3205.61:  Inc Max Depth 
 JARR.                      No:  Jarring 
 LETM.      23.12.00 07-Feb-20:  Log End Time 
 LOST.hr                     0:  Lost Rig Time 
 LSTM.      11.30.00 04-Feb-20:  Log Start Time 
 MDCL.ppm             40000.00:  Mud Chlorides 
 MDES.     Inversion Oil/Synthetic:  Mud Desc 
 DFD .sg                  1.49:  Mud Density 
 MDMN.sg                  1.49:  Dens Mud Min 
 MDMX.sg                  1.49:  Dens Mud Max 
 MOIL.                      73:  Run Mud Oil % 
 MOWR.                   73:27:  Run Mud OWR 
 MSND.                     0.1:  Run Mud Sand % 
 MSOL.                    20.1:  Run Mud Solids% 
 DFV .spqt               78.00:  Mud Viscosity 
 MWOD.in                  8.00:  MWD Tool OD 
 MWSI.                      No:  Serv Intrp, MWD 
 OTIM.hr                177.15:  Time Operating 
 PCON.          Wear / Scratch:  Pad Condition 
 PMAX.psia            10493.93:  Press Op, Max 
 PV  .cP                 73.00:  Mud PV 
 RUN .                     700:  Run Number 
 ROPA.m/hr               15.00:  ROP Avg 
 ROPN.m/hr               10.00:  ROP Min 
 ROPX.m/hr               35.00:  ROP Max 
 RPMA.rpm               130.00:  RPM Surface Avg 
 RPMN.rpm                80.00:  RPM Surface Min 
 RPMX.rpm               150.00:  RPM Surface Max 
 RRUN.                    L402:  Rig Run Number 
 RTIM.hr                 80.50:  Time Reaming 
 SAZI.deg               155.55:  Azm, Start 
 SDEP.m                2036.00:  Start Depth 
 SIDD.                      No:  Serv Intrp, DD 
 SINC.deg                35.44:  Inc, Start 
 SPPA.psig             4270.00:  SPP Avg 
 SPPN.psig             2800.00:  SPP Min 
 SPPX.psig             4850.00:  SPP Max 
 STIM.      09.30.00 03-Feb-20:  Start Time 
 SVCS.                 DD, MWD:  Services 
 SVER.                    9.20:  Sperry Version 
 TDAT.m                1183.00:  Tot Depth Attmp 
 TDDF.                      No:  Trip for DD 
 TDLG.m                1183.00:  Tot Depth Loggd 
 TFF .                      No:  Trip for Fail 
 TQAA.f-kp               16.00:  Torque Abs Avg 
 TQAN.f-kp               10.00:  Torque Abs Min 
 TQAX.f-kp               20.00:  Torque Abs Max 
 TRRT.°/30m               1.00:  Turn Rotating 
 MRT .                  EWR-M5:  Maximum Recorded Temperature 
 TTMX.degC               80.39:  Max Tool Temp 
 VS01.               13098498 :  Virtual Str1 SN 
 VS02.                90569596:  Virtual Str2 SN 
 VS03.                90523599:  Virtual Str3 SN 
 VS04.                90573553:  Virtual Str4 SN 
 VS05.                90598598:  Virtual Str5 SN 
 VS06.                90577297:  Virtual Str6 SN 
 WBMN.klb                13.00:  WOB Min 
 WITN.         Alistair Sprott:  Customer Rep 
 WITN.           Rufat Babayev:  Customer Rep 2 
 WOBA.klb                15.00:  WOB Avg 
 WOBX.klb                20.00:  WOB Max 
 YP  .lhf2               39.00:  Yield Point 
~Curve Information Block
#MNEM.UNIT                 API CODE     Curve Description
#---------               -----------    ---------------------------
 TIME.HHMMSS            00 000 000 000:  GT Time & Date
 GTDEPTH.m              00 000 000 000:  GT Depth
 GTPQH.psia             00 000 000 000:  GT HR Quartz Pressure
 GTTQ.degC              00 000 000 000:  GT Quartz Temperature
 GTTN.NONE              00 000 000 000:  GT Test Number
 GTET.sec               00 000 000 000:  GT Elapsed Test Time
 GTTVD.m                00 000 000 000:  GT True Vertical Depth
#Other Information
#
#WARRANTY: Halliburton will use its best efforts to furnish customers with 
#accurate information and interpretations that are part of, and incident to, the services 
#provided.  However, Halliburton cannot and does not warrant the accuracy 
#or correctness of such information and interpretations.  Under no circumstances should any 
#such information or interpretation be relied upon as the sole basis for any drilling, 
#completion, production, or financial decision or any procedure involving any risk to the 
#safety of any drilling venture, drilling rig or its crew or any other third party.  The 
#Customer has full responsibility for all drilling, completion and production operation.  
#Halliburton makes no representations or warranties, either expressed or 
#implied, including, but not limited to, the implied warranties of merchantability or fitness 
#for a particular purpose, with respect to the services rendered.  In no event will 
#Halliburton be liable for failure to obtain any particular results or for 
#any damages, including, but not limited to, indirect, special or consequential damages, 
#resulting from the use of any information or interpretation provided by Halliburton.
#
~A           TIME           GTDEPTH  GTPQH  GTTQ  GTTN  GTET   GTTVD  
# ...
   08:46:26.654.08-Feb-2020 3153.01 5763.36 71.04 2.00 276.02 2652.69
   08:46:26.854.08-Feb-2020 3153.01 5763.36 71.04 2.00 276.22 2652.69
   08:46:27.054.08-Feb-2020 3153.01 5766.97 71.04 2.00 276.42 2652.69
   08:46:27.254.08-Feb-2020 3153.01 5763.30 71.04 2.00 276.62 2652.69
   08:46:27.454.08-Feb-2020 3153.01 5764.24 71.04 2.00 276.82 2652.69
   08:46:27.654.08-Feb-2020 3153.01 5767.69 71.04 2.00 277.02 2652.69
   08:46:27.854.08-Feb-2020 3153.01 5767.69 71.04 2.00 277.22 2652.69
   08:46:28.054.08-Feb-2020 3153.01 5763.00 71.04 2.00 277.42 2652.69
   08:46:28.254.08-Feb-2020 3153.01 5767.16 71.04 2.00 277.62 2652.69
   08:46:28.454.08-Feb-2020 3153.01 5765.93 71.04 2.00 277.82 2652.69
   08:46:28.654.08-Feb-2020 3153.01 5762.36 71.04 2.00 278.02 2652.69
   08:46:28.854.08-Feb-2020 3153.01 5762.36 71.04 2.00 278.22 2652.69
   08:46:29.054.08-Feb-2020 3153.01 5769.76 71.04 2.00 278.42 2652.69
   08:46:29.254.08-Feb-2020 3153.01 5764.23 71.04 2.00 278.62 2652.69
   08:46:29.454.08-Feb-2020 3153.01 5763.78 71.04 2.00 278.82 2652.69
   08:46:29.654.08-Feb-2020 3153.01 5764.84 71.04 2.00 279.02 2652.69
   08:46:29.855.08-Feb-2020 3153.01 5764.84 71.04 2.00 279.22 2652.69
   08:46:30.055.08-Feb-2020 3153.01 5763.64 71.04 2.00 279.42 2652.69
   08:46:30.255.08-Feb-2020 3153.01 5765.22 71.04 2.00 279.62 2652.69
   08:46:30.455.08-Feb-2020 3153.01 5765.15 71.03 2.00 279.82 2652.69
   08:46:30.655.08-Feb-2020 3153.01 5764.06 71.03 2.00 280.02 2652.69
   08:46:30.855.08-Feb-2020 3153.01 5764.06 71.03 2.00 280.22 2652.69
   08:46:31.055.08-Feb-2020 3153.01 5764.26 71.03 2.00 280.42 2652.69
   08:46:31.255.08-Feb-2020 3153.01 5770.99 71.03 2.00 280.62 2652.69
   08:46:31.455.08-Feb-2020 3153.01 5762.83 71.03 2.00 280.82 2652.69
   08:46:31.655.08-Feb-2020 3153.01 5762.63 71.03 2.00 281.02 2652.69
   08:46:31.855.08-Feb-2020 3153.01 5762.63 71.03 2.00 281.22 2652.69
   08:46:32.055.08-Feb-2020 3153.01 5765.47 71.03 2.00 281.42 2652.69
   08:46:32.255.08-Feb-2020 3153.01 5764.21 71.03 2.00 281.62 2652.69
   08:46:32.455.08-Feb-2020 3153.01 5765.09 71.03 2.00 281.82 2652.69
   08:46:32.655.08-Feb-2020 3153.01 5764.93 71.03 2.00 282.02 2652.69
   08:46:32.855.08-Feb-2020 3153.01 5764.93 71.03 2.00 282.22 2652.69
   08:46:33.055.08-Feb-2020 3153.01 5764.67 71.03 2.00 282.42 2652.69
   08:46:33.255.08-Feb-2020 3153.01 5764.29 71.03 2.00 282.62 2652.69
   08:46:33.455.08-Feb-2020 3153.01 5769.67 71.03 2.00 282.82 2652.69
   08:46:33.655.08-Feb-2020 3153.01 5763.17 71.03 2.00 283.02 2652.69
   08:46:33.855.08-Feb-2020 3153.01 5763.17 71.03 2.00 283.22 2652.69
   08:46:34.055.08-Feb-2020 3153.01 5767.58 71.03 2.00 283.42 2652.69
   08:46:34.255.08-Feb-2020 3153.01 5766.86 71.03 2.00 283.62 2652.69
   08:46:34.455.08-Feb-2020 3153.01 5763.13 71.03 2.00 283.82 2652.69
   08:46:34.655.08-Feb-2020 3153.01 5764.20 71.03 2.00 284.02 2652.69
   08:46:34.855.08-Feb-2020 3153.01 5764.20 71.03 2.00 284.22 2652.69
   08:46:35.055.08-Feb-2020 3153.01 5765.93 71.03 2.00 284.42 2652.69
   08:46:35.255.08-Feb-2020 3153.01 5764.08 71.03 2.00 284.62 2652.69
   08:46:35.455.08-Feb-2020 3153.01 5769.08 71.03 2.00 284.82 2652.69
   08:46:35.655.08-Feb-2020 3153.01 5766.61 71.03 2.00 285.02 2652.69
   08:46:35.855.08-Feb-2020 3153.01 5766.61 71.03 2.00 285.22 2652.69
   08:46:36.055.08-Feb-2020 3153.01 5764.72 71.03 2.00 285.42 2652.69
   08:46:36.255.08-Feb-2020 3153.01 5769.43 71.03 2.00 285.62 2652.69
   08:46:36.455.08-Feb-2020 3153.01 5767.02 71.03 2.00 285.82 2652.69
   08:46:36.655.08-Feb-2020 3153.01 5765.46 71.03 2.00 286.02 2652.69
   08:46:36.855.08-Feb-2020 3153.01 5765.46 71.03 2.00 286.22 2652.69
   08:46:37.055.08-Feb-2020 3153.01 5766.73 71.03 2.00 286.42 2652.69
   08:46:37.255.08-Feb-2020 3153.01 5765.99 71.03 2.00 286.62 2652.69
   08:46:37.455.08-Feb-2020 3153.01 5766.55 71.03 2.00 286.82 2652.69
   08:46:37.655.08-Feb-2020 3153.01 5767.23 71.03 2.00 287.02 2652.69
   08:46:37.855.08-Feb-2020 3153.01 5767.23 71.03 2.00 287.22 2652.69
   08:46:38.055.08-Feb-2020 3153.01 5766.30 71.03 2.00 287.42 2652.69
   08:46:38.255.08-Feb-2020 3153.01 5766.27 71.03 2.00 287.62 2652.69
   08:46:38.455.08-Feb-2020 3153.01 5765.96 71.03 2.00 287.82 2652.69
   08:46:38.655.08-Feb-2020 3153.01 5769.09 71.03 2.00 288.02 2652.69
   08:46:38.855.08-Feb-2020 3153.01 5769.09 71.03 2.00 288.22 2652.69
   08:46:39.055.08-Feb-2020 3153.01 5766.27 71.03 2.00 288.42 2652.69
   08:46:39.255.08-Feb-2020 3153.01 5766.83 71.03 2.00 288.62 2652.69
   08:46:39.455.08-Feb-2020 3153.01 5766.85 71.03 2.00 288.82 2652.69
   08:46:39.655.08-Feb-2020 3153.01 5766.60 71.03 2.00 289.02 2652.69
   08:46:39.855.08-Feb-2020 3153.01 5766.60 71.03 2.00 289.22 2652.69
   08:46:40.055.08-Feb-2020 3153.01 5765.93 71.03 2.00 289.42 2652.69
   08:46:40.255.08-Feb-2020 3153.01 5766.10 71.03 2.00 289.62 2652.69
   08:46:40.455.08-Feb-2020 3153.01 5765.76 71.03 2.00 289.82 2652.69
   08:46:40.655.08-Feb-2020 3153.01 5768.02 71.03 2.00 290.02 2652.69
   08:46:40.855.08-Feb-2020 3153.01 5768.02 71.03 2.00 290.22 2652.69
   08:46:41.055.08-Feb-2020 3153.01 5764.84 71.02 2.00 290.42 2652.69
   08:46:41.255.08-Feb-2020 3153.01 5770.11 71.02 2.00 290.62 2652.69
   08:46:41.455.08-Feb-2020 3153.01 5766.67 71.02 2.00 290.82 2652.69
   08:46:41.655.08-Feb-2020 3153.01 5765.25 71.02 2.00 291.02 2652.69
   08:46:41.856.08-Feb-2020 3153.01 5765.25 71.02 2.00 291.22 2652.69
   08:46:42.056.08-Feb-2020 3153.01 5770.38 71.02 2.00 291.42 2652.69
   08:46:42.256.08-Feb-2020 3153.01 5766.85 71.02 2.00 291.62 2652.69
   08:46:42.456.08-Feb-2020 3153.01 5763.75 71.02 2.00 291.82 2652.69
   08:46:42.656.08-Feb-2020 3153.01 5771.09 71.02 2.00 292.02 2652.69
   08:46:42.856.08-Feb-2020 3153.01 5771.09 71.02 2.00 292.22 2652.69
   08:46:43.056.08-Feb-2020 3153.01 5763.82 71.02 2.00 292.42 2652.69
   08:46:43.256.08-Feb-2020 3153.01 5764.79 71.02 2.00 292.62 2652.69
   08:46:43.456.08-Feb-2020 3153.01 5771.65 71.02 2.00 292.82 2652.69
   08:46:43.656.08-Feb-2020 3153.01 5766.04 71.02 2.00 293.02 2652.69
   08:46:43.856.08-Feb-2020 3153.01 5766.04 71.02 2.00 293.22 2652.69
   08:46:44.056.08-Feb-2020 3153.01 5766.30 71.02 2.00 293.42 2652.69
   08:46:44.256.08-Feb-2020 3153.01 5767.55 71.02 2.00 293.62 2652.69
   08:46:44.456.08-Feb-2020 3153.01 5765.87 71.02 2.00 293.82 2652.69
   08:46:44.656.08-Feb-2020 3153.01 5766.43 71.02 2.00 294.02 2652.69
   08:46:44.856.08-Feb-2020 3153.01 5766.43 71.02 2.00 294.22 2652.69
   08:46:45.056.08-Feb-2020 3153.01 5766.54 71.02 2.00 294.42 2652.69
   08:46:45.256.08-Feb-2020 3153.01 5766.50 71.02 2.00 294.62 2652.69
   08:46:45.456.08-Feb-2020 3153.01 5766.60 71.02 2.00 294.82 2652.69
   08:46:45.656.08-Feb-2020 3153.01 5773.08 71.02 2.00 295.02 2652.69
   08:46:45.856.08-Feb-2020 3153.01 5773.08 71.02 2.00 295.22 2652.69
   08:46:46.056.08-Feb-2020 3153.01 5764.16 71.02 2.00 295.42 2652.69
   08:46:46.256.08-Feb-2020 3153.01 5765.33 71.02 2.00 295.62 2652.69
   08:46:46.456.08-Feb-2020 3153.01 5767.06 71.02 2.00 295.82 2652.69
   08:46:46.656.08-Feb-2020 3153.01 5765.88 71.02 2.00 296.02 2652.69
   08:46:46.856.08-Feb-2020 3153.01 5765.88 71.02 2.00 296.22 2652.69
   08:46:47.056.08-Feb-2020 3153.01 5766.73 71.02 2.00 296.42 2652.69
   08:46:47.256.08-Feb-2020 3153.01 5765.89 71.02 2.00 296.62 2652.69
   08:46:47.456.08-Feb-2020 3153.01 5765.67 71.02 2.00 296.82 2652.69
   08:46:47.656.08-Feb-2020 3153.01 5766.19 71.02 2.00 297.02 2652.69
   08:46:47.856.08-Feb-2020 3153.01 5766.19 71.02 2.00 297.22 2652.69
   08:46:48.056.08-Feb-2020 3153.01 5765.46 71.02 2.00 297.42 2652.69
   08:46:48.256.08-Feb-2020 3153.01 5764.12 71.02 2.00 297.62 2652.69
   08:46:48.456.08-Feb-2020 3153.01 5769.83 71.02 2.00 297.82 2652.69
   08:46:48.656.08-Feb-2020 3153.01 5768.57 71.02 2.00 298.02 2652.69
   08:46:48.856.08-Feb-2020 3153.01 5768.57 71.02 2.00 298.22 2652.69
   08:46:49.056.08-Feb-2020 3153.01 5765.66 71.02 2.00 298.42 2652.69
   08:46:49.256.08-Feb-2020 3153.01 5772.31 71.02 2.00 298.63 2652.69
   08:46:49.456.08-Feb-2020 3153.01 5764.96 71.02 2.00 298.83 2652.69
