~Version Information
 VERS.                  2.0:   CWLS log ASCII Standard -VERSION 2.0
 WRAP.                   NO:   One line per depth step
~Well Information Block
#MNEM.UNIT     VALUE/NAME     DESCRIPTION
#---------     -----------    ---------------------------
 STRT.S             12:03:05 08-Feb-20: START TIME 12:03:05 08-Feb-20
 STOP.S             12:09:57 08-Feb-20: STOP TIME  12:09:57 08-Feb-20
 STEP.S                   0.00: STEP TIME
 NULL.                 -999.25: NULL VALUE
 DFWT.                        :  DIST FWL TEXT
 DFST.                        :  DIST FSL TEXT
 DMF .             Drill Floor:  DRILL MEAS FROM
 STIM.      07.00.00 09-Jan-20:  START TIME
 DATE.      14.04.48 07-Feb-20:  END TIME
 SPUD.               09-Jan-20:  SPUD DATE
 NREF.                    Grid:  NORTH REFERENCE
 HPTY.       Minimum Curvature:  HOLE POS TYPE
 DMOD.             Drill Model:  DRILL MOD DESC
 SVYD.                  Survey:  SURVEY DESC
 ILTD.               Lithology:  INTERP LTH DESC
 FTOP.          Formation Tops:  FORM TOPS DESC
 SON .        AZ-XX-0905059384:  JOB NUMBER
 MDS .        Operator Entered:  MAG DATA SOURCE
 WTYP.                Deviated:  WELL TYPE
 COMP.     BP Exploration (Caspian Sea) Ltd.:  COMPANY
 UWI .                     N/A:  UNIQUE WELL IDENTIFIER
 API .                     N/A:  API NUMBER
 BASE.              Azerbaijan:  LOGGING EQUIPMENT BASE LOCATION
 REGN.                   EESSA:  REGION
 PROV.                    Baku:  PROVINCE
 STAT.                    Baku:  STATE NAME
 CTRY.              Azerbaijan:  COUNTRY NAME
 FLD .                     ACG:  FIELD NAME
 SRVC.     TURAN Drilling & Engineering:  CONTRACTOR
 MWDS.                    Baku:  MWD SHOP
 WELL.                     J22:  WELL NAME
 RIG .             West Chirag:  RIG NAME
 DOE .                     N/A:  DOE NUMBER
 DCON.         Sperry Drilling:  DIRECTNL CONTR
 UNIT.                     N/A:  LOGGING EQUIPMENT ID
 PDAT.          Mean Sea Level:  PERMANENT DATUM
 JOBN.        AZ-XX-0905059384:  JOB TICKET NUMB
 CNTY.                        :  COUNTY
 LOC .                        :  LOCATION
 LMF .             Drill Floor:  LOG MEASURED FROM
 TVDS.m                  43.00:  TVDSS CORRECTN
 LATI.deg                40.13:  LATITUDE
 LONG.deg                51.22:  LONGITUDE
 WHNS.m                  10.28:  WELL HEAD N/S
 WHEW.m                  -6.24:  WELL HEAD E/W
 UTMX.m              519005.06:  UTM X
 UTMY.m             4443793.85:  UTM Y
 DFWL.m                   0.00:  DISTANCE FWL
 DFSL.m                   0.00:  DISTANCE FSL
 SDEP.m                 362.00:  START DEPTH
 TDD .m                 904.00:  TOTAL DEPTH (DRILLER)
 VSDR.deg               148.53:  VERT SEC DIRECT
 GVFD.g                   1.00:  GRAVITY FIELD
 MFLD.nT              50277.00:  MAGNETIC FIELD
 MDIP.deg                59.56:  MAGNETIC DIP
 MDEC.deg                 6.42:  MAGNETIC DECL
 GRDC.deg                 0.15:  GRID CORRECTION
 AZTC.deg                 6.27:  AZM TOTAL CORR
 EPD .m                   0.00:  ELEVATION
 EGL .m                   0.00:  GROUND ELEVATION
 WDMS.m                 169.80:  WD ELEV
 APD .m                  43.00:  DEPTH ABOVE PD
 AGAP.m                  43.00:  AIR GAP
 VSEW.m                  -6.24:  VERT SEC E/W
 VSNS.m                  10.28:  VERT SEC N/S
 DEP .m                   0.00:  DEPTH
 EKB .m                   0.00:  KB ELEVATION
 EDF .m                  43.00:  DF ELEVATION
 TDL .m                1183.00:  TOTAL DEPTH (LOGGER)
 VSC .                       0:  VS TO CLOSURE
 MAGU.                 1850021:  MAGUTM CHECKSUM
~Parameter Information Block
#MNEM.UNIT       Value        Description
#---------     -----------    ---------------------------
 AV  .mps                 4.00:  Ann Velocity 
 AVMX.mps                 4.50:  Max Ann Veloc 
 AZIF.deg               145.38:  Azm, Final 
 BHAT.        Rotary Steerable:  BHA Type 
 BROT.°/30m               3.00:  Build Rotating 
 BS  .in                 12.25:  Bit Size 
 BSZ .in                 12.25:  Bit Size 
 BTPL.psig              650.00:  Bit Press Loss 
 CABU.                      No:  Customer Abuse 
 COMM.                     ÌSf:  Run Comments 1 
 TCS .hr                101.62:  Time Ciculation Ended 
 CV  .mps                 5.00:  Crit Velocity 
 CVMX.mps                 5.00:  Max Crit Veloc 
 DD1 .             Aziz Aliyev:  Direct Drillr 1 
 DD2 .      Fakhraddin Guliyev:  Direct Drillr 2 
 DDSV.                 iCruise:  DD Service 
 DEFF.%                  97.00:  % Det Eff 
 DLRX.°/30m               4.16:  Dogleg Rot Max 
 DLSO.°/30m               3.20:  Dogleg Oriented 
 DLSX.°/30m               4.10:  Dogleg Str Max 
 DRET.      23.12.00 07-Feb-20:  Drill End Time 
 DRST.      11.30.00 04-Feb-20:  Drill Start Tim 
 DTIM.hr                 61.06:  Time Drilling 
 EDEP.m                3219.01:  End Depth 
 ENG1.         Almaz Almadatov:  Engineer 1 
 ENG2.         Dair Mahammadov:  Engineer 2 
 ENG3.          Nazrin Asgarli:  Engineer 3 
 ETIM.      02.30.00 11-Feb-20:  End Time 
 FLOI.gpm              1100.00:  Flow In 
 FLON.gpm               900.00:  Flow In Min 
 FLOS.cptm               55.00:  Fluid Loss 
 FLOX.gpm              1150.00:  Flow In Max 
 FTRO.       Formation Presure:  FTWD Run Obj 
 HFLO.                      No:  High Flow 
 HPRE.                      No:  High Pressure 
 HTEM.                      No:  High Temp 
 HYDO.m                   1.80:  Hydro Offset 
 IFIN.deg                75.11:  Inc, Final 
 IMAX.deg                75.11:  Inc Max 
 IMIN.deg                33.55:  Inc Min 
 IMND.m                2186.05:  Inc Min Depth 
 IMXD.m                3205.61:  Inc Max Depth 
 JARR.                      No:  Jarring 
 LETM.      23.12.00 07-Feb-20:  Log End Time 
 LOST.hr                     0:  Lost Rig Time 
 LSTM.      11.30.00 04-Feb-20:  Log Start Time 
 MDCL.ppm             40000.00:  Mud Chlorides 
 MDES.     Inversion Oil/Synthetic:  Mud Desc 
 DFD .sg                  1.49:  Mud Density 
 MDMN.sg                  1.49:  Dens Mud Min 
 MDMX.sg                  1.49:  Dens Mud Max 
 MOIL.                      73:  Run Mud Oil % 
 MOWR.                   73:27:  Run Mud OWR 
 MSND.                     0.1:  Run Mud Sand % 
 MSOL.                    20.1:  Run Mud Solids% 
 DFV .spqt               78.00:  Mud Viscosity 
 MWOD.in                  8.00:  MWD Tool OD 
 MWSI.                      No:  Serv Intrp, MWD 
 OTIM.hr                177.15:  Time Operating 
 PCON.          Wear / Scratch:  Pad Condition 
 PMAX.psia            10493.93:  Press Op, Max 
 PV  .cP                 73.00:  Mud PV 
 RUN .                     700:  Run Number 
 ROPA.m/hr               15.00:  ROP Avg 
 ROPN.m/hr               10.00:  ROP Min 
 ROPX.m/hr               35.00:  ROP Max 
 RPMA.rpm               130.00:  RPM Surface Avg 
 RPMN.rpm                80.00:  RPM Surface Min 
 RPMX.rpm               150.00:  RPM Surface Max 
 RRUN.                    L402:  Rig Run Number 
 RTIM.hr                 80.50:  Time Reaming 
 SAZI.deg               155.55:  Azm, Start 
 SDEP.m                2036.00:  Start Depth 
 SIDD.                      No:  Serv Intrp, DD 
 SINC.deg                35.44:  Inc, Start 
 SPPA.psig             4270.00:  SPP Avg 
 SPPN.psig             2800.00:  SPP Min 
 SPPX.psig             4850.00:  SPP Max 
 STIM.      09.30.00 03-Feb-20:  Start Time 
 SVCS.                 DD, MWD:  Services 
 SVER.                    9.20:  Sperry Version 
 TDAT.m                1183.00:  Tot Depth Attmp 
 TDDF.                      No:  Trip for DD 
 TDLG.m                1183.00:  Tot Depth Loggd 
 TFF .                      No:  Trip for Fail 
 TQAA.f-kp               16.00:  Torque Abs Avg 
 TQAN.f-kp               10.00:  Torque Abs Min 
 TQAX.f-kp               20.00:  Torque Abs Max 
 TRRT.°/30m               1.00:  Turn Rotating 
 MRT .                  EWR-M5:  Maximum Recorded Temperature 
 TTMX.degC               80.39:  Max Tool Temp 
 VS01.               13098498 :  Virtual Str1 SN 
 VS02.                90569596:  Virtual Str2 SN 
 VS03.                90523599:  Virtual Str3 SN 
 VS04.                90573553:  Virtual Str4 SN 
 VS05.                90598598:  Virtual Str5 SN 
 VS06.                90577297:  Virtual Str6 SN 
 WBMN.klb                13.00:  WOB Min 
 WITN.         Alistair Sprott:  Customer Rep 
 WITN.           Rufat Babayev:  Customer Rep 2 
 WOBA.klb                15.00:  WOB Avg 
 WOBX.klb                20.00:  WOB Max 
 YP  .lhf2               39.00:  Yield Point 
~Curve Information Block
#MNEM.UNIT                 API CODE     Curve Description
#---------               -----------    ---------------------------
 TIME.HHMMSS            00 000 000 000:  GT Time & Date
 GTDEPTH.m              00 000 000 000:  GT Depth
 GTPQH.psia             00 000 000 000:  GT HR Quartz Pressure
 GTTQ.degC              00 000 000 000:  GT Quartz Temperature
 GTTN.NONE              00 000 000 000:  GT Test Number
 GTET.sec               00 000 000 000:  GT Elapsed Test Time
 GTTVD.m                00 000 000 000:  GT True Vertical Depth
#Other Information
#
#WARRANTY: Halliburton will use its best efforts to furnish customers with 
#accurate information and interpretations that are part of, and incident to, the services 
#provided.  However, Halliburton cannot and does not warrant the accuracy 
#or correctness of such information and interpretations.  Under no circumstances should any 
#such information or interpretation be relied upon as the sole basis for any drilling, 
#completion, production, or financial decision or any procedure involving any risk to the 
#safety of any drilling venture, drilling rig or its crew or any other third party.  The 
#Customer has full responsibility for all drilling, completion and production operation.  
#Halliburton makes no representations or warranties, either expressed or 
#implied, including, but not limited to, the implied warranties of merchantability or fitness 
#for a particular purpose, with respect to the services rendered.  In no event will 
#Halliburton be liable for failure to obtain any particular results or for 
#any damages, including, but not limited to, indirect, special or consequential damages, 
#resulting from the use of any information or interpretation provided by Halliburton.
#
~A           TIME           GTDEPTH  GTPQH  GTTQ  GTTN  GTET   GTTVD  
# ...
   12:05:00.000.08-Feb-2020 3069.01 4459.85 66.18 7.00 115.00 2627.56
   12:05:00.200.08-Feb-2020 3069.01 4459.85 66.18 7.00 115.20 2627.56
   12:05:00.400.08-Feb-2020 3069.01 4465.45 66.18 7.00 115.40 2627.56
   12:05:00.600.08-Feb-2020 3069.01 4467.93 66.18 7.00 115.60 2627.56
   12:05:00.800.08-Feb-2020 3069.01 4470.57 66.18 7.00 115.80 2627.56
   12:05:01.000.08-Feb-2020 3069.01 4473.59 66.18 7.00 116.00 2627.56
   12:05:01.200.08-Feb-2020 3069.01 4473.59 66.18 7.00 116.20 2627.56
   12:05:01.400.08-Feb-2020 3069.01 4478.21 66.18 7.00 116.40 2627.56
   12:05:01.600.08-Feb-2020 3069.01 4481.03 66.18 7.00 116.60 2627.56
   12:05:01.800.08-Feb-2020 3069.01 4484.08 66.18 7.00 116.80 2627.56
   12:05:02.000.08-Feb-2020 3069.01 4485.43 66.18 7.00 117.00 2627.56
   12:05:02.200.08-Feb-2020 3069.01 4485.43 66.18 7.00 117.20 2627.56
   12:05:02.400.08-Feb-2020 3069.01 4491.02 66.18 7.00 117.40 2627.56
   12:05:02.600.08-Feb-2020 3069.01 4493.23 66.18 7.00 117.60 2627.56
   12:05:02.800.08-Feb-2020 3069.01 4495.65 66.18 7.00 117.80 2627.56
   12:05:03.000.08-Feb-2020 3069.01 4498.55 66.18 7.00 118.00 2627.56
   12:05:03.200.08-Feb-2020 3069.01 4498.55 66.18 7.00 118.20 2627.56
   12:05:03.400.08-Feb-2020 3069.01 4503.05 66.18 7.00 118.40 2627.56
   12:05:03.600.08-Feb-2020 3069.01 4505.29 66.18 7.00 118.60 2627.56
   12:05:03.800.08-Feb-2020 3069.01 4507.77 66.17 7.00 118.80 2627.56
   12:05:04.000.08-Feb-2020 3069.01 4509.59 66.17 7.00 119.00 2627.56
   12:05:04.200.08-Feb-2020 3069.01 4509.59 66.17 7.00 119.20 2627.56
   12:05:04.400.08-Feb-2020 3069.01 4514.55 66.17 7.00 119.40 2627.56
   12:05:04.600.08-Feb-2020 3069.01 4516.86 66.17 7.00 119.60 2627.56
   12:05:04.800.08-Feb-2020 3069.01 4519.34 66.17 7.00 119.80 2627.56
   12:05:05.000.08-Feb-2020 3069.01 4521.54 66.17 7.00 120.00 2627.56
   12:05:05.200.08-Feb-2020 3069.01 4521.54 66.17 7.00 120.20 2627.56
   12:05:05.400.08-Feb-2020 3069.01 4525.85 66.17 7.00 120.40 2627.56
   12:05:05.600.08-Feb-2020 3069.01 4527.95 66.17 7.00 120.60 2627.56
   12:05:05.800.08-Feb-2020 3069.01 4530.26 66.17 7.00 120.80 2627.56
   12:05:06.000.08-Feb-2020 3069.01 4532.80 66.17 7.00 121.00 2627.56
   12:05:06.200.08-Feb-2020 3069.01 4532.80 66.17 7.00 121.20 2627.56
   12:05:06.400.08-Feb-2020 3069.01 4536.83 66.17 7.00 121.40 2627.56
   12:05:06.600.08-Feb-2020 3069.01 4538.92 66.17 7.00 121.60 2627.56
   12:05:06.800.08-Feb-2020 3069.01 4541.03 66.17 7.00 121.80 2627.56
   12:05:07.000.08-Feb-2020 3069.01 4543.17 66.17 7.00 122.00 2627.56
   12:05:07.200.08-Feb-2020 3069.01 4543.17 66.17 7.00 122.20 2627.56
   12:05:07.400.08-Feb-2020 3069.01 4547.12 66.17 7.00 122.40 2627.56
   12:05:07.600.08-Feb-2020 3069.01 4549.18 66.17 7.00 122.60 2627.56
   12:05:07.800.08-Feb-2020 3069.01 4551.57 66.17 7.00 122.80 2627.56
   12:05:08.000.08-Feb-2020 3069.01 4552.88 66.17 7.00 123.00 2627.56
   12:05:08.200.08-Feb-2020 3069.01 4552.88 66.17 7.00 123.20 2627.56
   12:05:08.400.08-Feb-2020 3069.01 4557.42 66.17 7.00 123.40 2627.56
   12:05:08.600.08-Feb-2020 3069.01 4558.28 66.17 7.00 123.60 2627.56
   12:05:08.800.08-Feb-2020 3069.01 4560.70 66.17 7.00 123.80 2627.56
   12:05:09.000.08-Feb-2020 3069.01 4562.77 66.17 7.00 124.00 2627.56
   12:05:09.200.08-Feb-2020 3069.01 4562.77 66.17 7.00 124.20 2627.56
   12:05:09.400.08-Feb-2020 3069.01 4567.07 66.17 7.00 124.40 2627.56
   12:05:09.600.08-Feb-2020 3069.01 4568.65 66.17 7.00 124.60 2627.56
   12:05:09.800.08-Feb-2020 3069.01 4570.15 66.17 7.00 124.80 2627.56
   12:05:10.000.08-Feb-2020 3069.01 4572.03 66.17 7.00 125.00 2627.56
   12:05:10.200.08-Feb-2020 3069.01 4572.03 66.17 7.00 125.20 2627.56
   12:05:10.400.08-Feb-2020 3069.01 4575.33 66.17 7.00 125.40 2627.56
   12:05:10.600.08-Feb-2020 3069.01 4577.35 66.17 7.00 125.60 2627.56
   12:05:10.800.08-Feb-2020 3069.01 4579.56 66.17 7.00 125.80 2627.56
   12:05:11.000.08-Feb-2020 3069.01 4580.96 66.17 7.00 126.00 2627.56
   12:05:11.200.08-Feb-2020 3069.01 4580.96 66.17 7.00 126.20 2627.56
   12:05:11.400.08-Feb-2020 3069.01 4584.86 66.17 7.00 126.40 2627.56
   12:05:11.600.08-Feb-2020 3069.01 4586.50 66.17 7.00 126.60 2627.56
   12:05:11.800.08-Feb-2020 3069.01 4588.22 66.17 7.00 126.80 2627.56
   12:05:12.000.08-Feb-2020 3069.01 4589.96 66.17 7.00 127.00 2627.56
   12:05:12.200.08-Feb-2020 3069.01 4589.96 66.17 7.00 127.20 2627.56
   12:05:12.400.08-Feb-2020 3069.01 4593.54 66.17 7.00 127.40 2627.56
   12:05:12.600.08-Feb-2020 3069.01 4595.10 66.17 7.00 127.60 2627.56
   12:05:12.800.08-Feb-2020 3069.01 4596.54 66.17 7.00 127.80 2627.56
   12:05:13.000.08-Feb-2020 3069.01 4598.46 66.17 7.00 128.00 2627.56
   12:05:13.200.08-Feb-2020 3069.01 4598.46 66.17 7.00 128.20 2627.56
   12:05:13.400.08-Feb-2020 3069.01 4601.53 66.17 7.00 128.40 2627.56
   12:05:13.600.08-Feb-2020 3069.01 4603.23 66.17 7.00 128.60 2627.56
   12:05:13.800.08-Feb-2020 3069.01 4604.92 66.17 7.00 128.80 2627.56
   12:05:14.000.08-Feb-2020 3069.01 4606.42 66.17 7.00 129.00 2627.56
   12:05:14.200.08-Feb-2020 3069.01 4606.42 66.17 7.00 129.20 2627.56
   12:05:14.400.08-Feb-2020 3069.01 4609.48 66.17 7.00 129.40 2627.56
   12:05:14.600.08-Feb-2020 3069.01 4611.00 66.17 7.00 129.60 2627.56
   12:05:14.800.08-Feb-2020 3069.01 4612.78 66.17 7.00 129.80 2627.56
   12:05:15.000.08-Feb-2020 3069.01 4613.76 66.17 7.00 130.00 2627.56
   12:05:15.200.08-Feb-2020 3069.01 4613.76 66.17 7.00 130.20 2627.56
   12:05:15.400.08-Feb-2020 3069.01 4617.08 66.17 7.00 130.40 2627.56
   12:05:15.600.08-Feb-2020 3069.01 4617.65 66.17 7.00 130.60 2627.56
   12:05:15.800.08-Feb-2020 3069.01 4619.39 66.17 7.00 130.80 2627.56
   12:05:16.000.08-Feb-2020 3069.01 4621.10 66.16 7.00 131.00 2627.56
   12:05:16.200.08-Feb-2020 3069.01 4621.10 66.16 7.00 131.20 2627.56
   12:05:16.400.08-Feb-2020 3069.01 4624.25 66.16 7.00 131.40 2627.56
   12:05:16.600.08-Feb-2020 3069.01 4625.15 66.16 7.00 131.60 2627.56
   12:05:16.800.08-Feb-2020 3069.01 4627.23 66.16 7.00 131.80 2627.56
   12:05:17.000.08-Feb-2020 3069.01 4628.98 66.16 7.00 132.00 2627.56
   12:05:17.200.08-Feb-2020 3069.01 4628.98 66.16 7.00 132.20 2627.56
   12:05:17.400.08-Feb-2020 3069.01 4631.09 66.16 7.00 132.40 2627.56
   12:05:17.600.08-Feb-2020 3069.01 4633.07 66.16 7.00 132.60 2627.56
   12:05:17.800.08-Feb-2020 3069.01 4633.49 66.16 7.00 132.80 2627.56
   12:05:18.000.08-Feb-2020 3069.01 4635.58 66.16 7.00 133.00 2627.56
   12:05:18.200.08-Feb-2020 3069.01 4635.58 66.16 7.00 133.20 2627.56
   12:05:18.400.08-Feb-2020 3069.01 4638.25 66.16 7.00 133.40 2627.56
   12:05:18.600.08-Feb-2020 3069.01 4639.71 66.16 7.00 133.60 2627.56
   12:05:18.800.08-Feb-2020 3069.01 4641.18 66.16 7.00 133.80 2627.56
   12:05:19.000.08-Feb-2020 3069.01 4642.22 66.16 7.00 134.00 2627.56
   12:05:19.200.08-Feb-2020 3069.01 4642.22 66.16 7.00 134.20 2627.56
   12:05:19.400.08-Feb-2020 3069.01 4644.99 66.16 7.00 134.40 2627.56
   12:05:19.600.08-Feb-2020 3069.01 4646.29 66.16 7.00 134.60 2627.56
   12:05:19.800.08-Feb-2020 3069.01 4647.82 66.16 7.00 134.80 2627.56
   12:05:20.000.08-Feb-2020 3069.01 4648.40 66.16 7.00 135.00 2627.56
   12:05:20.200.08-Feb-2020 3069.01 4648.40 66.16 7.00 135.20 2627.56
   12:05:20.400.08-Feb-2020 3069.01 4651.21 66.16 7.00 135.40 2627.56
   12:05:20.600.08-Feb-2020 3069.01 4652.55 66.16 7.00 135.60 2627.56
   12:05:20.800.08-Feb-2020 3069.01 4653.81 66.16 7.00 135.80 2627.56
   12:05:21.000.08-Feb-2020 3069.01 4654.98 66.16 7.00 136.00 2627.56
   12:05:21.200.08-Feb-2020 3069.01 4654.98 66.16 7.00 136.20 2627.56
   12:05:21.400.08-Feb-2020 3069.01 4657.37 66.16 7.00 136.40 2627.56
   12:05:21.600.08-Feb-2020 3069.01 4658.55 66.16 7.00 136.60 2627.56
   12:05:21.800.08-Feb-2020 3069.01 4659.73 66.16 7.00 136.80 2627.56
   12:05:22.000.08-Feb-2020 3069.01 4660.67 66.16 7.00 137.00 2627.56
   12:05:22.200.08-Feb-2020 3069.01 4660.67 66.16 7.00 137.20 2627.56
   12:05:22.400.08-Feb-2020 3069.01 4663.20 66.16 7.00 137.40 2627.56
   12:05:22.600.08-Feb-2020 3069.01 4664.00 66.16 7.00 137.60 2627.56
   12:05:22.800.08-Feb-2020 3069.01 4665.60 66.16 7.00 137.80 2627.56
