~Version Information
 VERS.                  2.0:   CWLS log ASCII Standard -VERSION 2.0
 WRAP.                   NO:   One line per depth step
~Well Information Block
#MNEM.UNIT     VALUE/NAME     DESCRIPTION
#---------     -----------    ---------------------------
 STRT.S             10:04:49 08-Feb-20: START TIME 10:04:49 08-Feb-20
 STOP.S             10:11:45 08-Feb-20: STOP TIME  10:11:45 08-Feb-20
 STEP.S                   0.00: STEP TIME
 NULL.                 -999.25: NULL VALUE
 DFWT.                        :  DIST FWL TEXT
 DFST.                        :  DIST FSL TEXT
 DMF .             Drill Floor:  DRILL MEAS FROM
 STIM.      07.00.00 09-Jan-20:  START TIME
 DATE.      14.04.48 07-Feb-20:  END TIME
 SPUD.               09-Jan-20:  SPUD DATE
 NREF.                    Grid:  NORTH REFERENCE
 HPTY.       Minimum Curvature:  HOLE POS TYPE
 DMOD.             Drill Model:  DRILL MOD DESC
 SVYD.                  Survey:  SURVEY DESC
 ILTD.               Lithology:  INTERP LTH DESC
 FTOP.          Formation Tops:  FORM TOPS DESC
 SON .        AZ-XX-0905059384:  JOB NUMBER
 MDS .        Operator Entered:  MAG DATA SOURCE
 WTYP.                Deviated:  WELL TYPE
 COMP.     BP Exploration (Caspian Sea) Ltd.:  COMPANY
 UWI .                     N/A:  UNIQUE WELL IDENTIFIER
 API .                     N/A:  API NUMBER
 BASE.              Azerbaijan:  LOGGING EQUIPMENT BASE LOCATION
 REGN.                   EESSA:  REGION
 PROV.                    Baku:  PROVINCE
 STAT.                    Baku:  STATE NAME
 CTRY.              Azerbaijan:  COUNTRY NAME
 FLD .                     ACG:  FIELD NAME
 SRVC.     TURAN Drilling & Engineering:  CONTRACTOR
 MWDS.                    Baku:  MWD SHOP
 WELL.                     J22:  WELL NAME
 RIG .             West Chirag:  RIG NAME
 DOE .                     N/A:  DOE NUMBER
 DCON.         Sperry Drilling:  DIRECTNL CONTR
 UNIT.                     N/A:  LOGGING EQUIPMENT ID
 PDAT.          Mean Sea Level:  PERMANENT DATUM
 JOBN.        AZ-XX-0905059384:  JOB TICKET NUMB
 CNTY.                        :  COUNTY
 LOC .                        :  LOCATION
 LMF .             Drill Floor:  LOG MEASURED FROM
 TVDS.m                  43.00:  TVDSS CORRECTN
 LATI.deg                40.13:  LATITUDE
 LONG.deg                51.22:  LONGITUDE
 WHNS.m                  10.28:  WELL HEAD N/S
 WHEW.m                  -6.24:  WELL HEAD E/W
 UTMX.m              519005.06:  UTM X
 UTMY.m             4443793.85:  UTM Y
 DFWL.m                   0.00:  DISTANCE FWL
 DFSL.m                   0.00:  DISTANCE FSL
 SDEP.m                 362.00:  START DEPTH
 TDD .m                 904.00:  TOTAL DEPTH (DRILLER)
 VSDR.deg               148.53:  VERT SEC DIRECT
 GVFD.g                   1.00:  GRAVITY FIELD
 MFLD.nT              50277.00:  MAGNETIC FIELD
 MDIP.deg                59.56:  MAGNETIC DIP
 MDEC.deg                 6.42:  MAGNETIC DECL
 GRDC.deg                 0.15:  GRID CORRECTION
 AZTC.deg                 6.27:  AZM TOTAL CORR
 EPD .m                   0.00:  ELEVATION
 EGL .m                   0.00:  GROUND ELEVATION
 WDMS.m                 169.80:  WD ELEV
 APD .m                  43.00:  DEPTH ABOVE PD
 AGAP.m                  43.00:  AIR GAP
 VSEW.m                  -6.24:  VERT SEC E/W
 VSNS.m                  10.28:  VERT SEC N/S
 DEP .m                   0.00:  DEPTH
 EKB .m                   0.00:  KB ELEVATION
 EDF .m                  43.00:  DF ELEVATION
 TDL .m                1183.00:  TOTAL DEPTH (LOGGER)
 VSC .                       0:  VS TO CLOSURE
 MAGU.                 1850021:  MAGUTM CHECKSUM
~Parameter Information Block
#MNEM.UNIT       Value        Description
#---------     -----------    ---------------------------
 AV  .mps                 4.00:  Ann Velocity 
 AVMX.mps                 4.50:  Max Ann Veloc 
 AZIF.deg               145.38:  Azm, Final 
 BHAT.        Rotary Steerable:  BHA Type 
 BROT.°/30m               3.00:  Build Rotating 
 BS  .in                 12.25:  Bit Size 
 BSZ .in                 12.25:  Bit Size 
 BTPL.psig              650.00:  Bit Press Loss 
 CABU.                      No:  Customer Abuse 
 COMM.                     |¶Q:  Run Comments 1 
 TCS .hr                101.62:  Time Ciculation Ended 
 CV  .mps                 5.00:  Crit Velocity 
 CVMX.mps                 5.00:  Max Crit Veloc 
 DD1 .             Aziz Aliyev:  Direct Drillr 1 
 DD2 .      Fakhraddin Guliyev:  Direct Drillr 2 
 DDSV.                 iCruise:  DD Service 
 DEFF.%                  97.00:  % Det Eff 
 DLRX.°/30m               4.16:  Dogleg Rot Max 
 DLSO.°/30m               3.20:  Dogleg Oriented 
 DLSX.°/30m               4.10:  Dogleg Str Max 
 DRET.      23.12.00 07-Feb-20:  Drill End Time 
 DRST.      11.30.00 04-Feb-20:  Drill Start Tim 
 DTIM.hr                 61.06:  Time Drilling 
 EDEP.m                3219.01:  End Depth 
 ENG1.         Almaz Almadatov:  Engineer 1 
 ENG2.         Dair Mahammadov:  Engineer 2 
 ENG3.          Nazrin Asgarli:  Engineer 3 
 ETIM.      02.30.00 11-Feb-20:  End Time 
 FLOI.gpm              1100.00:  Flow In 
 FLON.gpm               900.00:  Flow In Min 
 FLOS.cptm               55.00:  Fluid Loss 
 FLOX.gpm              1150.00:  Flow In Max 
 FTRO.       Formation Presure:  FTWD Run Obj 
 HFLO.                      No:  High Flow 
 HPRE.                      No:  High Pressure 
 HTEM.                      No:  High Temp 
 HYDO.m                   1.80:  Hydro Offset 
 IFIN.deg                75.11:  Inc, Final 
 IMAX.deg                75.11:  Inc Max 
 IMIN.deg                33.55:  Inc Min 
 IMND.m                2186.05:  Inc Min Depth 
 IMXD.m                3205.61:  Inc Max Depth 
 JARR.                      No:  Jarring 
 LETM.      23.12.00 07-Feb-20:  Log End Time 
 LOST.hr                     0:  Lost Rig Time 
 LSTM.      11.30.00 04-Feb-20:  Log Start Time 
 MDCL.ppm             40000.00:  Mud Chlorides 
 MDES.     Inversion Oil/Synthetic:  Mud Desc 
 DFD .sg                  1.49:  Mud Density 
 MDMN.sg                  1.49:  Dens Mud Min 
 MDMX.sg                  1.49:  Dens Mud Max 
 MOIL.                      73:  Run Mud Oil % 
 MOWR.                   73:27:  Run Mud OWR 
 MSND.                     0.1:  Run Mud Sand % 
 MSOL.                    20.1:  Run Mud Solids% 
 DFV .spqt               78.00:  Mud Viscosity 
 MWOD.in                  8.00:  MWD Tool OD 
 MWSI.                      No:  Serv Intrp, MWD 
 OTIM.hr                177.15:  Time Operating 
 PCON.          Wear / Scratch:  Pad Condition 
 PMAX.psia            10493.93:  Press Op, Max 
 PV  .cP                 73.00:  Mud PV 
 RUN .                     700:  Run Number 
 ROPA.m/hr               15.00:  ROP Avg 
 ROPN.m/hr               10.00:  ROP Min 
 ROPX.m/hr               35.00:  ROP Max 
 RPMA.rpm               130.00:  RPM Surface Avg 
 RPMN.rpm                80.00:  RPM Surface Min 
 RPMX.rpm               150.00:  RPM Surface Max 
 RRUN.                    L402:  Rig Run Number 
 RTIM.hr                 80.50:  Time Reaming 
 SAZI.deg               155.55:  Azm, Start 
 SDEP.m                2036.00:  Start Depth 
 SIDD.                      No:  Serv Intrp, DD 
 SINC.deg                35.44:  Inc, Start 
 SPPA.psig             4270.00:  SPP Avg 
 SPPN.psig             2800.00:  SPP Min 
 SPPX.psig             4850.00:  SPP Max 
 STIM.      09.30.00 03-Feb-20:  Start Time 
 SVCS.                 DD, MWD:  Services 
 SVER.                    9.20:  Sperry Version 
 TDAT.m                1183.00:  Tot Depth Attmp 
 TDDF.                      No:  Trip for DD 
 TDLG.m                1183.00:  Tot Depth Loggd 
 TFF .                      No:  Trip for Fail 
 TQAA.f-kp               16.00:  Torque Abs Avg 
 TQAN.f-kp               10.00:  Torque Abs Min 
 TQAX.f-kp               20.00:  Torque Abs Max 
 TRRT.°/30m               1.00:  Turn Rotating 
 MRT .                  EWR-M5:  Maximum Recorded Temperature 
 TTMX.degC               80.39:  Max Tool Temp 
 VS01.               13098498 :  Virtual Str1 SN 
 VS02.                90569596:  Virtual Str2 SN 
 VS03.                90523599:  Virtual Str3 SN 
 VS04.                90573553:  Virtual Str4 SN 
 VS05.                90598598:  Virtual Str5 SN 
 VS06.                90577297:  Virtual Str6 SN 
 WBMN.klb                13.00:  WOB Min 
 WITN.         Alistair Sprott:  Customer Rep 
 WITN.           Rufat Babayev:  Customer Rep 2 
 WOBA.klb                15.00:  WOB Avg 
 WOBX.klb                20.00:  WOB Max 
 YP  .lhf2               39.00:  Yield Point 
~Curve Information Block
#MNEM.UNIT                 API CODE     Curve Description
#---------               -----------    ---------------------------
 TIME.HHMMSS            00 000 000 000:  GT Time & Date
 GTDEPTH.m              00 000 000 000:  GT Depth
 GTPQH.psia             00 000 000 000:  GT HR Quartz Pressure
 GTTQ.degC              00 000 000 000:  GT Quartz Temperature
 GTTN.NONE              00 000 000 000:  GT Test Number
 GTET.sec               00 000 000 000:  GT Elapsed Test Time
 GTTVD.m                00 000 000 000:  GT True Vertical Depth
#Other Information
#
#WARRANTY: Halliburton will use its best efforts to furnish customers with 
#accurate information and interpretations that are part of, and incident to, the services 
#provided.  However, Halliburton cannot and does not warrant the accuracy 
#or correctness of such information and interpretations.  Under no circumstances should any 
#such information or interpretation be relied upon as the sole basis for any drilling, 
#completion, production, or financial decision or any procedure involving any risk to the 
#safety of any drilling venture, drilling rig or its crew or any other third party.  The 
#Customer has full responsibility for all drilling, completion and production operation.  
#Halliburton makes no representations or warranties, either expressed or 
#implied, including, but not limited to, the implied warranties of merchantability or fitness 
#for a particular purpose, with respect to the services rendered.  In no event will 
#Halliburton be liable for failure to obtain any particular results or for 
#any damages, including, but not limited to, indirect, special or consequential damages, 
#resulting from the use of any information or interpretation provided by Halliburton.
#
~A           TIME           GTDEPTH  GTPQH  GTTQ  GTTN  GTET   GTTVD  
# ...
   10:05:35.194.08-Feb-2020 3159.51 5781.41 68.53 5.00  46.01 2654.38
   10:05:35.394.08-Feb-2020 3159.51 5781.41 68.53 5.00  46.21 2654.38
   10:05:35.595.08-Feb-2020 3159.51 5755.11 68.53 5.00  46.41 2654.38
   10:05:35.795.08-Feb-2020 3159.51 5737.35 68.53 5.00  46.61 2654.38
   10:05:35.995.08-Feb-2020 3159.51 5686.15 68.53 5.00  46.81 2654.38
   10:05:36.195.08-Feb-2020 3159.51 5699.48 68.53 5.00  47.01 2654.38
   10:05:36.395.08-Feb-2020 3159.51 5699.48 68.53 5.00  47.21 2654.38
   10:05:36.595.08-Feb-2020 3159.51 5623.53 68.53 5.00  47.41 2654.38
   10:05:36.795.08-Feb-2020 3159.51 5564.92 68.53 5.00  47.61 2654.38
   10:05:36.995.08-Feb-2020 3159.51 5509.53 68.53 5.00  47.81 2654.38
   10:05:37.195.08-Feb-2020 3159.51 5461.00 68.53 5.00  48.01 2654.38
   10:05:37.395.08-Feb-2020 3159.51 5461.00 68.53 5.00  48.21 2654.38
   10:05:37.595.08-Feb-2020 3159.51 5365.54 68.53 5.00  48.42 2654.38
   10:05:37.795.08-Feb-2020 3159.51 5459.36 68.53 5.00  48.62 2654.38
   10:05:37.995.08-Feb-2020 3159.51 5396.08 68.53 5.00  48.82 2654.38
   10:05:38.195.08-Feb-2020 3159.51 5335.32 68.53 5.00  49.02 2654.38
   10:05:38.395.08-Feb-2020 3159.51 5335.32 68.53 5.00  49.22 2654.38
   10:05:38.595.08-Feb-2020 3159.51 5472.62 68.53 5.00  49.42 2654.38
   10:05:38.796.08-Feb-2020 3159.51 5702.77 68.53 5.00  49.62 2654.38
   10:05:38.996.08-Feb-2020 3159.51 5643.77 68.53 5.00  49.82 2654.38
   10:05:39.196.08-Feb-2020 3159.51 5614.28 68.53 5.00  50.02 2654.38
   10:05:39.396.08-Feb-2020 3159.51 5614.28 68.53 5.00  50.22 2654.38
   10:05:39.596.08-Feb-2020 3159.51 5587.46 68.53 5.00  50.42 2654.38
   10:05:39.796.08-Feb-2020 3159.51 5583.77 68.53 5.00  50.62 2654.38
   10:05:39.996.08-Feb-2020 3159.51 5551.73 68.53 5.00  50.82 2654.38
   10:05:40.196.08-Feb-2020 3159.51 5542.86 68.53 5.00  51.02 2654.38
   10:05:40.396.08-Feb-2020 3159.51 5542.86 68.53 5.00  51.22 2654.38
   10:05:40.596.08-Feb-2020 3159.51 5565.93 68.53 5.00  51.42 2654.38
   10:05:40.796.08-Feb-2020 3159.51 5564.49 68.53 5.00  51.62 2654.38
   10:05:40.996.08-Feb-2020 3159.51 5562.82 68.53 5.00  51.82 2654.38
   10:05:41.196.08-Feb-2020 3159.51 5590.24 68.53 5.00  52.02 2654.38
   10:05:41.396.08-Feb-2020 3159.51 5590.24 68.53 5.00  52.22 2654.38
   10:05:41.596.08-Feb-2020 3159.51 5653.12 68.53 5.00  52.42 2654.38
   10:05:41.796.08-Feb-2020 3159.51 5669.19 68.53 5.00  52.62 2654.38
   10:05:41.997.08-Feb-2020 3159.51 5748.66 68.53 5.00  52.82 2654.38
   10:05:42.197.08-Feb-2020 3159.51 5698.14 68.53 5.00  53.02 2654.38
   10:05:42.397.08-Feb-2020 3159.51 5698.14 68.53 5.00  53.22 2654.38
   10:05:42.597.08-Feb-2020 3159.51 5733.47 68.52 5.00  53.42 2654.38
   10:05:42.797.08-Feb-2020 3159.51 5761.14 68.52 5.00  53.62 2654.38
   10:05:42.997.08-Feb-2020 3159.51 5756.55 68.52 5.00  53.82 2654.38
   10:05:43.197.08-Feb-2020 3159.51 5772.09 68.52 5.00  54.02 2654.38
   10:05:43.397.08-Feb-2020 3159.51 5772.09 68.52 5.00  54.22 2654.38
   10:05:43.597.08-Feb-2020 3159.51 5865.86 68.52 5.00  54.42 2654.38
   10:05:43.797.08-Feb-2020 3159.51 5877.21 68.52 5.00  54.62 2654.38
   10:05:43.997.08-Feb-2020 3159.51 5930.78 68.52 5.00  54.82 2654.38
   10:05:44.197.08-Feb-2020 3159.51 5973.06 68.52 5.00  55.02 2654.38
   10:05:44.397.08-Feb-2020 3159.51 5973.06 68.52 5.00  55.22 2654.38
   10:05:44.597.08-Feb-2020 3159.51 5999.45 68.53 5.00  55.42 2654.38
   10:05:44.797.08-Feb-2020 3159.51 6019.20 68.53 5.00  55.62 2654.38
   10:05:44.997.08-Feb-2020 3159.51 6052.39 68.53 5.00  55.82 2654.38
   10:05:45.198.08-Feb-2020 3159.51 6063.29 68.53 5.00  56.02 2654.38
   10:05:45.398.08-Feb-2020 3159.51 6063.29 68.53 5.00  56.22 2654.38
   10:05:45.598.08-Feb-2020 3159.51 6086.83 68.53 5.00  56.42 2654.38
   10:05:45.798.08-Feb-2020 3159.51 6117.50 68.53 5.00  56.62 2654.38
   10:05:45.998.08-Feb-2020 3159.51 6118.17 68.53 5.00  56.82 2654.38
   10:05:46.198.08-Feb-2020 3159.51 6138.97 68.53 5.00  57.02 2654.38
   10:05:46.398.08-Feb-2020 3159.51 6138.97 68.53 5.00  57.22 2654.38
   10:05:46.598.08-Feb-2020 3159.51 6186.53 68.53 5.00  57.42 2654.38
   10:05:46.798.08-Feb-2020 3159.51 6188.18 68.53 5.00  57.62 2654.38
   10:05:46.998.08-Feb-2020 3159.51 6202.42 68.53 5.00  57.82 2654.38
   10:05:47.198.08-Feb-2020 3159.51 6226.52 68.53 5.00  58.02 2654.38
   10:05:47.398.08-Feb-2020 3159.51 6226.52 68.53 5.00  58.22 2654.38
   10:05:47.598.08-Feb-2020 3159.51 6277.46 68.53 5.00  58.42 2654.38
   10:05:47.798.08-Feb-2020 3159.51 6345.39 68.53 5.00  58.62 2654.38
   10:05:47.998.08-Feb-2020 3159.51 6321.25 68.53 5.00  58.82 2654.38
   10:05:48.198.08-Feb-2020 3159.51 6294.10 68.53 5.00  59.02 2654.38
   10:05:48.399.08-Feb-2020 3159.51 6294.10 68.53 5.00  59.22 2654.38
   10:05:48.599.08-Feb-2020 3159.51 6340.42 68.53 5.00  59.42 2654.38
   10:05:48.799.08-Feb-2020 3159.51 6361.64 68.53 5.00  59.62 2654.38
   10:05:48.999.08-Feb-2020 3159.51 6390.59 68.53 5.00  59.82 2654.38
   10:05:49.199.08-Feb-2020 3159.51 6404.25 68.53 5.00  60.02 2654.38
   10:05:49.399.08-Feb-2020 3159.51 6404.25 68.53 5.00  60.22 2654.38
   10:05:49.599.08-Feb-2020 3159.51 6438.66 68.53 5.00  60.42 2654.38
   10:05:49.799.08-Feb-2020 3159.51 6448.37 68.53 5.00  60.62 2654.38
   10:05:49.999.08-Feb-2020 3159.51 6455.45 68.53 5.00  60.82 2654.38
   10:05:50.199.08-Feb-2020 3159.51 6469.13 68.53 5.00  61.02 2654.38
   10:05:50.399.08-Feb-2020 3159.51 6469.13 68.53 5.00  61.22 2654.38
   10:05:50.599.08-Feb-2020 3159.51 6463.31 68.53 5.00  61.42 2654.38
   10:05:50.799.08-Feb-2020 3159.51 6146.05 68.54 5.00  61.62 2654.38
   10:05:50.999.08-Feb-2020 3159.51 5650.84 68.54 5.00  61.82 2654.38
   10:05:51.199.08-Feb-2020 3159.51 5532.34 68.54 5.00  62.02 2654.38
   10:05:51.399.08-Feb-2020 3159.51 5532.34 68.54 5.00  62.22 2654.38
   10:05:51.600.08-Feb-2020 3159.51 5199.85 68.54 5.00  62.42 2654.38
   10:05:51.800.08-Feb-2020 3159.51 4979.38 68.54 5.00  62.62 2654.38
   10:05:52.000.08-Feb-2020 3159.51 4814.54 68.54 5.00  62.82 2654.38
   10:05:52.200.08-Feb-2020 3159.51 4793.08 68.54 5.00  63.02 2654.38
   10:05:52.400.08-Feb-2020 3159.51 4793.08 68.54 5.00  63.22 2654.38
   10:05:52.600.08-Feb-2020 3159.51 4777.53 68.53 5.00  63.42 2654.38
   10:05:52.800.08-Feb-2020 3159.51 4774.23 68.53 5.00  63.62 2654.38
   10:05:53.000.08-Feb-2020 3159.51 4773.56 68.53 5.00  63.82 2654.38
   10:05:53.200.08-Feb-2020 3159.51 4775.01 68.53 5.00  64.02 2654.38
   10:05:53.400.08-Feb-2020 3159.51 4775.01 68.53 5.00  64.22 2654.38
   10:05:53.600.08-Feb-2020 3159.51 4773.24 68.53 5.00  64.42 2654.38
   10:05:53.800.08-Feb-2020 3159.51 4774.03 68.53 5.00  64.62 2654.38
   10:05:54.000.08-Feb-2020 3159.51 4773.12 68.53 5.00  64.82 2654.38
   10:05:54.200.08-Feb-2020 3159.51 4772.85 68.53 5.00  65.02 2654.38
   10:05:54.400.08-Feb-2020 3159.51 4772.85 68.53 5.00  65.22 2654.38
   10:05:54.600.08-Feb-2020 3159.51 4773.53 68.53 5.00  65.42 2654.38
   10:05:54.800.08-Feb-2020 3159.51 4773.68 68.52 5.00  65.62 2654.38
   10:05:55.001.08-Feb-2020 3159.51 4774.66 68.52 5.00  65.82 2654.38
   10:05:55.201.08-Feb-2020 3159.51 4775.17 68.52 5.00  66.02 2654.38
   10:05:55.401.08-Feb-2020 3159.51 4775.17 68.52 5.00  66.22 2654.38
   10:05:55.601.08-Feb-2020 3159.51 4776.35 68.52 5.00  66.42 2654.38
   10:05:55.801.08-Feb-2020 3159.51 4776.37 68.52 5.00  66.62 2654.38
   10:05:56.001.08-Feb-2020 3159.51 4777.20 68.52 5.00  66.82 2654.38
   10:05:56.201.08-Feb-2020 3159.51 4778.04 68.52 5.00  67.02 2654.38
   10:05:56.401.08-Feb-2020 3159.51 4778.04 68.52 5.00  67.22 2654.38
   10:05:56.601.08-Feb-2020 3159.51 4778.71 68.52 5.00  67.42 2654.38
   10:05:56.801.08-Feb-2020 3159.51 4779.62 68.51 5.00  67.62 2654.38
   10:05:57.001.08-Feb-2020 3159.51 4779.88 68.51 5.00  67.82 2654.38
   10:05:57.201.08-Feb-2020 3159.51 4779.82 68.51 5.00  68.02 2654.38
   10:05:57.401.08-Feb-2020 3159.51 4779.82 68.51 5.00  68.22 2654.38
   10:05:57.601.08-Feb-2020 3159.51 4781.32 68.51 5.00  68.42 2654.38
   10:05:57.801.08-Feb-2020 3159.51 4781.28 68.51 5.00  68.62 2654.38
   10:05:58.001.08-Feb-2020 3159.51 4782.56 68.51 5.00  68.82 2654.38
