~Version Information
 VERS.                  2.0:   CWLS log ASCII Standard -VERSION 2.0
 WRAP.                   NO:   One line per depth step
~Well Information Block
#MNEM.UNIT     VALUE/NAME     DESCRIPTION
#---------     -----------    ---------------------------
 STRT.S             09:08:12 08-Feb-20: START TIME 09:08:12 08-Feb-20
 STOP.S             09:14:54 08-Feb-20: STOP TIME  09:14:54 08-Feb-20
 STEP.S                   0.00: STEP TIME
 NULL.                 -999.25: NULL VALUE
 DFWT.                        :  DIST FWL TEXT
 DFST.                        :  DIST FSL TEXT
 DMF .             Drill Floor:  DRILL MEAS FROM
 STIM.      07.00.00 09-Jan-20:  START TIME
 DATE.      14.04.48 07-Feb-20:  END TIME
 SPUD.               09-Jan-20:  SPUD DATE
 NREF.                    Grid:  NORTH REFERENCE
 HPTY.       Minimum Curvature:  HOLE POS TYPE
 DMOD.             Drill Model:  DRILL MOD DESC
 SVYD.                  Survey:  SURVEY DESC
 ILTD.               Lithology:  INTERP LTH DESC
 FTOP.          Formation Tops:  FORM TOPS DESC
 SON .        AZ-XX-0905059384:  JOB NUMBER
 MDS .        Operator Entered:  MAG DATA SOURCE
 WTYP.                Deviated:  WELL TYPE
 COMP.     BP Exploration (Caspian Sea) Ltd.:  COMPANY
 UWI .                     N/A:  UNIQUE WELL IDENTIFIER
 API .                     N/A:  API NUMBER
 BASE.              Azerbaijan:  LOGGING EQUIPMENT BASE LOCATION
 REGN.                   EESSA:  REGION
 PROV.                    Baku:  PROVINCE
 STAT.                    Baku:  STATE NAME
 CTRY.              Azerbaijan:  COUNTRY NAME
 FLD .                     ACG:  FIELD NAME
 SRVC.     TURAN Drilling & Engineering:  CONTRACTOR
 MWDS.                    Baku:  MWD SHOP
 WELL.                     J22:  WELL NAME
 RIG .             West Chirag:  RIG NAME
 DOE .                     N/A:  DOE NUMBER
 DCON.         Sperry Drilling:  DIRECTNL CONTR
 UNIT.                     N/A:  LOGGING EQUIPMENT ID
 PDAT.          Mean Sea Level:  PERMANENT DATUM
 JOBN.        AZ-XX-0905059384:  JOB TICKET NUMB
 CNTY.                        :  COUNTY
 LOC .                        :  LOCATION
 LMF .             Drill Floor:  LOG MEASURED FROM
 TVDS.m                  43.00:  TVDSS CORRECTN
 LATI.deg                40.13:  LATITUDE
 LONG.deg                51.22:  LONGITUDE
 WHNS.m                  10.28:  WELL HEAD N/S
 WHEW.m                  -6.24:  WELL HEAD E/W
 UTMX.m              519005.06:  UTM X
 UTMY.m             4443793.85:  UTM Y
 DFWL.m                   0.00:  DISTANCE FWL
 DFSL.m                   0.00:  DISTANCE FSL
 SDEP.m                 362.00:  START DEPTH
 TDD .m                 904.00:  TOTAL DEPTH (DRILLER)
 VSDR.deg               148.53:  VERT SEC DIRECT
 GVFD.g                   1.00:  GRAVITY FIELD
 MFLD.nT              50277.00:  MAGNETIC FIELD
 MDIP.deg                59.56:  MAGNETIC DIP
 MDEC.deg                 6.42:  MAGNETIC DECL
 GRDC.deg                 0.15:  GRID CORRECTION
 AZTC.deg                 6.27:  AZM TOTAL CORR
 EPD .m                   0.00:  ELEVATION
 EGL .m                   0.00:  GROUND ELEVATION
 WDMS.m                 169.80:  WD ELEV
 APD .m                  43.00:  DEPTH ABOVE PD
 AGAP.m                  43.00:  AIR GAP
 VSEW.m                  -6.24:  VERT SEC E/W
 VSNS.m                  10.28:  VERT SEC N/S
 DEP .m                   0.00:  DEPTH
 EKB .m                   0.00:  KB ELEVATION
 EDF .m                  43.00:  DF ELEVATION
 TDL .m                1183.00:  TOTAL DEPTH (LOGGER)
 VSC .                       0:  VS TO CLOSURE
 MAGU.                 1850021:  MAGUTM CHECKSUM
~Parameter Information Block
#MNEM.UNIT       Value        Description
#---------     -----------    ---------------------------
 AV  .mps                 4.00:  Ann Velocity 
 AVMX.mps                 4.50:  Max Ann Veloc 
 AZIF.deg               145.38:  Azm, Final 
 BHAT.        Rotary Steerable:  BHA Type 
 BROT.°/30m               3.00:  Build Rotating 
 BS  .in                 12.25:  Bit Size 
 BSZ .in                 12.25:  Bit Size 
 BTPL.psig              650.00:  Bit Press Loss 
 CABU.                      No:  Customer Abuse 
 COMM.                     T!k:  Run Comments 1 
 TCS .hr                101.62:  Time Ciculation Ended 
 CV  .mps                 5.00:  Crit Velocity 
 CVMX.mps                 5.00:  Max Crit Veloc 
 DD1 .             Aziz Aliyev:  Direct Drillr 1 
 DD2 .      Fakhraddin Guliyev:  Direct Drillr 2 
 DDSV.                 iCruise:  DD Service 
 DEFF.%                  97.00:  % Det Eff 
 DLRX.°/30m               4.16:  Dogleg Rot Max 
 DLSO.°/30m               3.20:  Dogleg Oriented 
 DLSX.°/30m               4.10:  Dogleg Str Max 
 DRET.      23.12.00 07-Feb-20:  Drill End Time 
 DRST.      11.30.00 04-Feb-20:  Drill Start Tim 
 DTIM.hr                 61.06:  Time Drilling 
 EDEP.m                3219.01:  End Depth 
 ENG1.         Almaz Almadatov:  Engineer 1 
 ENG2.         Dair Mahammadov:  Engineer 2 
 ENG3.          Nazrin Asgarli:  Engineer 3 
 ETIM.      02.30.00 11-Feb-20:  End Time 
 FLOI.gpm              1100.00:  Flow In 
 FLON.gpm               900.00:  Flow In Min 
 FLOS.cptm               55.00:  Fluid Loss 
 FLOX.gpm              1150.00:  Flow In Max 
 FTRO.       Formation Presure:  FTWD Run Obj 
 HFLO.                      No:  High Flow 
 HPRE.                      No:  High Pressure 
 HTEM.                      No:  High Temp 
 HYDO.m                   1.80:  Hydro Offset 
 IFIN.deg                75.11:  Inc, Final 
 IMAX.deg                75.11:  Inc Max 
 IMIN.deg                33.55:  Inc Min 
 IMND.m                2186.05:  Inc Min Depth 
 IMXD.m                3205.61:  Inc Max Depth 
 JARR.                      No:  Jarring 
 LETM.      23.12.00 07-Feb-20:  Log End Time 
 LOST.hr                     0:  Lost Rig Time 
 LSTM.      11.30.00 04-Feb-20:  Log Start Time 
 MDCL.ppm             40000.00:  Mud Chlorides 
 MDES.     Inversion Oil/Synthetic:  Mud Desc 
 DFD .sg                  1.49:  Mud Density 
 MDMN.sg                  1.49:  Dens Mud Min 
 MDMX.sg                  1.49:  Dens Mud Max 
 MOIL.                      73:  Run Mud Oil % 
 MOWR.                   73:27:  Run Mud OWR 
 MSND.                     0.1:  Run Mud Sand % 
 MSOL.                    20.1:  Run Mud Solids% 
 DFV .spqt               78.00:  Mud Viscosity 
 MWOD.in                  8.00:  MWD Tool OD 
 MWSI.                      No:  Serv Intrp, MWD 
 OTIM.hr                177.15:  Time Operating 
 PCON.          Wear / Scratch:  Pad Condition 
 PMAX.psia            10493.93:  Press Op, Max 
 PV  .cP                 73.00:  Mud PV 
 RUN .                     700:  Run Number 
 ROPA.m/hr               15.00:  ROP Avg 
 ROPN.m/hr               10.00:  ROP Min 
 ROPX.m/hr               35.00:  ROP Max 
 RPMA.rpm               130.00:  RPM Surface Avg 
 RPMN.rpm                80.00:  RPM Surface Min 
 RPMX.rpm               150.00:  RPM Surface Max 
 RRUN.                    L402:  Rig Run Number 
 RTIM.hr                 80.50:  Time Reaming 
 SAZI.deg               155.55:  Azm, Start 
 SDEP.m                2036.00:  Start Depth 
 SIDD.                      No:  Serv Intrp, DD 
 SINC.deg                35.44:  Inc, Start 
 SPPA.psig             4270.00:  SPP Avg 
 SPPN.psig             2800.00:  SPP Min 
 SPPX.psig             4850.00:  SPP Max 
 STIM.      09.30.00 03-Feb-20:  Start Time 
 SVCS.                 DD, MWD:  Services 
 SVER.                    9.20:  Sperry Version 
 TDAT.m                1183.00:  Tot Depth Attmp 
 TDDF.                      No:  Trip for DD 
 TDLG.m                1183.00:  Tot Depth Loggd 
 TFF .                      No:  Trip for Fail 
 TQAA.f-kp               16.00:  Torque Abs Avg 
 TQAN.f-kp               10.00:  Torque Abs Min 
 TQAX.f-kp               20.00:  Torque Abs Max 
 TRRT.°/30m               1.00:  Turn Rotating 
 MRT .                  EWR-M5:  Maximum Recorded Temperature 
 TTMX.degC               80.39:  Max Tool Temp 
 VS01.               13098498 :  Virtual Str1 SN 
 VS02.                90569596:  Virtual Str2 SN 
 VS03.                90523599:  Virtual Str3 SN 
 VS04.                90573553:  Virtual Str4 SN 
 VS05.                90598598:  Virtual Str5 SN 
 VS06.                90577297:  Virtual Str6 SN 
 WBMN.klb                13.00:  WOB Min 
 WITN.         Alistair Sprott:  Customer Rep 
 WITN.           Rufat Babayev:  Customer Rep 2 
 WOBA.klb                15.00:  WOB Avg 
 WOBX.klb                20.00:  WOB Max 
 YP  .lhf2               39.00:  Yield Point 
~Curve Information Block
#MNEM.UNIT                 API CODE     Curve Description
#---------               -----------    ---------------------------
 TIME.HHMMSS            00 000 000 000:  GT Time & Date
 GTDEPTH.m              00 000 000 000:  GT Depth
 GTPQH.psia             00 000 000 000:  GT HR Quartz Pressure
 GTTQ.degC              00 000 000 000:  GT Quartz Temperature
 GTTN.NONE              00 000 000 000:  GT Test Number
 GTET.sec               00 000 000 000:  GT Elapsed Test Time
 GTTVD.m                00 000 000 000:  GT True Vertical Depth
#Other Information
#
#WARRANTY: Halliburton will use its best efforts to furnish customers with 
#accurate information and interpretations that are part of, and incident to, the services 
#provided.  However, Halliburton cannot and does not warrant the accuracy 
#or correctness of such information and interpretations.  Under no circumstances should any 
#such information or interpretation be relied upon as the sole basis for any drilling, 
#completion, production, or financial decision or any procedure involving any risk to the 
#safety of any drilling venture, drilling rig or its crew or any other third party.  The 
#Customer has full responsibility for all drilling, completion and production operation.  
#Halliburton makes no representations or warranties, either expressed or 
#implied, including, but not limited to, the implied warranties of merchantability or fitness 
#for a particular purpose, with respect to the services rendered.  In no event will 
#Halliburton be liable for failure to obtain any particular results or for 
#any damages, including, but not limited to, indirect, special or consequential damages, 
#resulting from the use of any information or interpretation provided by Halliburton.
#
~A           TIME           GTDEPTH  GTPQH  GTTQ  GTTN  GTET   GTTVD  
# ...
   09:13:11.789.08-Feb-2020 3153.21 4822.75 69.81 3.00 299.03 2652.75
   09:13:11.989.08-Feb-2020 3153.21 4822.75 69.81 3.00 299.23 2652.75
   09:13:12.189.08-Feb-2020 3153.21 4823.09 69.81 3.00 299.43 2652.75
   09:13:12.389.08-Feb-2020 3153.21 4822.71 69.81 3.00 299.63 2652.75
   09:13:12.589.08-Feb-2020 3153.21 4822.65 69.81 3.00 299.83 2652.75
   09:13:12.789.08-Feb-2020 3153.21 4822.76 69.81 3.00 300.03 2652.75
   09:13:12.989.08-Feb-2020 3153.21 4822.76 69.81 3.00 300.23 2652.75
   09:13:13.189.08-Feb-2020 3153.21 4823.02 69.81 3.00 300.43 2652.75
   09:13:13.389.08-Feb-2020 3153.21 4823.19 69.81 3.00 300.63 2652.75
   09:13:13.589.08-Feb-2020 3153.21 4822.52 69.81 3.00 300.83 2652.75
   09:13:13.789.08-Feb-2020 3153.21 4822.84 69.81 3.00 301.03 2652.75
   09:13:13.989.08-Feb-2020 3153.21 4822.84 69.81 3.00 301.23 2652.75
   09:13:14.189.08-Feb-2020 3153.21 4822.52 69.81 3.00 301.43 2652.75
   09:13:14.389.08-Feb-2020 3153.21 4822.74 69.81 3.00 301.63 2652.75
   09:13:14.589.08-Feb-2020 3153.21 4822.74 69.81 3.00 301.83 2652.75
   09:13:14.789.08-Feb-2020 3153.21 4822.66 69.81 3.00 302.03 2652.75
   09:13:14.989.08-Feb-2020 3153.21 4822.66 69.81 3.00 302.23 2652.75
   09:13:15.189.08-Feb-2020 3153.21 4823.17 69.81 3.00 302.43 2652.75
   09:13:15.389.08-Feb-2020 3153.21 4822.51 69.81 3.00 302.63 2652.75
   09:13:15.589.08-Feb-2020 3153.21 4822.27 69.81 3.00 302.83 2652.75
   09:13:15.789.08-Feb-2020 3153.21 4823.50 69.81 3.00 303.03 2652.75
   09:13:15.989.08-Feb-2020 3153.21 4823.50 69.81 3.00 303.23 2652.75
   09:13:16.189.08-Feb-2020 3153.21 4822.73 69.81 3.00 303.43 2652.75
   09:13:16.389.08-Feb-2020 3153.21 4822.56 69.81 3.00 303.63 2652.75
   09:13:16.589.08-Feb-2020 3153.21 4823.52 69.81 3.00 303.83 2652.75
   09:13:16.789.08-Feb-2020 3153.21 4822.67 69.81 3.00 304.03 2652.75
   09:13:16.989.08-Feb-2020 3153.21 4822.67 69.81 3.00 304.23 2652.75
   09:13:17.189.08-Feb-2020 3153.21 4822.66 69.81 3.00 304.43 2652.75
   09:13:17.389.08-Feb-2020 3153.21 4822.58 69.81 3.00 304.63 2652.75
   09:13:17.589.08-Feb-2020 3153.21 4823.29 69.81 3.00 304.83 2652.75
   09:13:17.789.08-Feb-2020 3153.21 4822.13 69.81 3.00 305.03 2652.75
   09:13:17.989.08-Feb-2020 3153.21 4822.13 69.81 3.00 305.23 2652.75
   09:13:18.189.08-Feb-2020 3153.21 4822.55 69.81 3.00 305.43 2652.75
   09:13:18.389.08-Feb-2020 3153.21 4823.04 69.81 3.00 305.63 2652.75
   09:13:18.589.08-Feb-2020 3153.21 4823.42 69.81 3.00 305.83 2652.75
   09:13:18.789.08-Feb-2020 3153.21 4822.38 69.81 3.00 306.03 2652.75
   09:13:18.989.08-Feb-2020 3153.21 4822.38 69.81 3.00 306.23 2652.75
   09:13:19.189.08-Feb-2020 3153.21 4822.98 69.81 3.00 306.43 2652.75
   09:13:19.389.08-Feb-2020 3153.21 4822.57 69.81 3.00 306.63 2652.75
   09:13:19.589.08-Feb-2020 3153.21 4822.93 69.81 3.00 306.83 2652.75
   09:13:19.789.08-Feb-2020 3153.21 4822.75 69.81 3.00 307.03 2652.75
   09:13:19.989.08-Feb-2020 3153.21 4822.75 69.81 3.00 307.23 2652.75
   09:13:20.189.08-Feb-2020 3153.21 4822.71 69.81 3.00 307.43 2652.75
   09:13:20.389.08-Feb-2020 3153.21 4822.72 69.81 3.00 307.63 2652.75
   09:13:20.589.08-Feb-2020 3153.21 4823.34 69.81 3.00 307.83 2652.75
   09:13:20.789.08-Feb-2020 3153.21 4822.21 69.81 3.00 308.03 2652.75
   09:13:20.989.08-Feb-2020 3153.21 4822.21 69.81 3.00 308.23 2652.75
   09:13:21.189.08-Feb-2020 3153.21 4822.54 69.81 3.00 308.43 2652.75
   09:13:21.390.08-Feb-2020 3153.21 4822.83 69.81 3.00 308.63 2652.75
   09:13:21.590.08-Feb-2020 3153.21 4822.90 69.81 3.00 308.83 2652.75
   09:13:21.790.08-Feb-2020 3153.21 4822.66 69.81 3.00 309.03 2652.75
   09:13:21.990.08-Feb-2020 3153.21 4822.66 69.81 3.00 309.23 2652.75
   09:13:22.190.08-Feb-2020 3153.21 4822.75 69.81 3.00 309.43 2652.75
   09:13:22.390.08-Feb-2020 3153.21 4822.58 69.81 3.00 309.63 2652.75
   09:13:22.590.08-Feb-2020 3153.21 4822.70 69.81 3.00 309.83 2652.75
   09:13:22.790.08-Feb-2020 3153.21 4823.32 69.81 3.00 310.03 2652.75
   09:13:22.990.08-Feb-2020 3153.21 4823.32 69.81 3.00 310.23 2652.75
   09:13:23.190.08-Feb-2020 3153.21 4822.73 69.81 3.00 310.43 2652.75
   09:13:23.390.08-Feb-2020 3153.21 4823.08 69.81 3.00 310.63 2652.75
   09:13:23.590.08-Feb-2020 3153.21 4822.28 69.81 3.00 310.83 2652.75
   09:13:23.790.08-Feb-2020 3153.21 4822.47 69.81 3.00 311.03 2652.75
   09:13:23.990.08-Feb-2020 3153.21 4822.47 69.81 3.00 311.23 2652.75
   09:13:24.190.08-Feb-2020 3153.21 4823.39 69.81 3.00 311.43 2652.75
   09:13:24.390.08-Feb-2020 3153.21 4822.60 69.81 3.00 311.63 2652.75
   09:13:24.590.08-Feb-2020 3153.21 4822.63 69.81 3.00 311.83 2652.75
   09:13:24.790.08-Feb-2020 3153.21 4822.80 69.81 3.00 312.03 2652.75
   09:13:24.990.08-Feb-2020 3153.21 4822.80 69.81 3.00 312.23 2652.75
   09:13:25.190.08-Feb-2020 3153.21 4822.11 69.81 3.00 312.43 2652.75
   09:13:25.390.08-Feb-2020 3153.21 4822.61 69.81 3.00 312.63 2652.75
   09:13:25.590.08-Feb-2020 3153.21 4822.74 69.81 3.00 312.83 2652.75
   09:13:25.790.08-Feb-2020 3153.21 4823.29 69.81 3.00 313.03 2652.75
   09:13:25.990.08-Feb-2020 3153.21 4823.29 69.81 3.00 313.23 2652.75
   09:13:26.190.08-Feb-2020 3153.21 4823.05 69.81 3.00 313.43 2652.75
   09:13:26.390.08-Feb-2020 3153.21 4822.66 69.81 3.00 313.63 2652.75
   09:13:26.590.08-Feb-2020 3153.21 4823.10 69.81 3.00 313.83 2652.75
   09:13:26.790.08-Feb-2020 3153.21 4823.00 69.81 3.00 314.03 2652.75
   09:13:26.990.08-Feb-2020 3153.21 4823.00 69.81 3.00 314.23 2652.75
   09:13:27.190.08-Feb-2020 3153.21 4822.93 69.81 3.00 314.43 2652.75
   09:13:27.390.08-Feb-2020 3153.21 4822.67 69.81 3.00 314.63 2652.75
   09:13:27.590.08-Feb-2020 3153.21 4822.64 69.81 3.00 314.83 2652.75
   09:13:27.790.08-Feb-2020 3153.21 4822.90 69.81 3.00 315.03 2652.75
   09:13:27.990.08-Feb-2020 3153.21 4822.90 69.81 3.00 315.23 2652.75
   09:13:28.190.08-Feb-2020 3153.21 4822.17 69.81 3.00 315.43 2652.75
   09:13:28.390.08-Feb-2020 3153.21 4822.84 69.81 3.00 315.63 2652.75
   09:13:28.590.08-Feb-2020 3153.21 4822.82 69.81 3.00 315.83 2652.75
   09:13:28.790.08-Feb-2020 3153.21 4822.71 69.81 3.00 316.03 2652.75
   09:13:28.990.08-Feb-2020 3153.21 4822.71 69.81 3.00 316.23 2652.75
   09:13:29.190.08-Feb-2020 3153.21 4822.81 69.81 3.00 316.43 2652.75
   09:13:29.390.08-Feb-2020 3153.21 4822.70 69.80 3.00 316.63 2652.75
   09:13:29.590.08-Feb-2020 3153.21 4822.95 69.80 3.00 316.83 2652.75
   09:13:29.790.08-Feb-2020 3153.21 4822.65 69.80 3.00 317.03 2652.75
   09:13:29.990.08-Feb-2020 3153.21 4822.65 69.80 3.00 317.23 2652.75
   09:13:30.190.08-Feb-2020 3153.21 4822.81 69.80 3.00 317.43 2652.75
   09:13:30.390.08-Feb-2020 3153.21 4822.89 69.80 3.00 317.63 2652.75
   09:13:30.590.08-Feb-2020 3153.21 4822.06 69.80 3.00 317.83 2652.75
   09:13:30.790.08-Feb-2020 3153.21 4823.24 69.80 3.00 318.03 2652.75
   09:13:30.990.08-Feb-2020 3153.21 4823.24 69.80 3.00 318.23 2652.75
   09:13:31.190.08-Feb-2020 3153.21 4821.83 69.80 3.00 318.43 2652.75
   09:13:31.390.08-Feb-2020 3153.21 4822.96 69.80 3.00 318.63 2652.75
   09:13:31.590.08-Feb-2020 3153.21 4823.51 69.80 3.00 318.83 2652.75
   09:13:31.790.08-Feb-2020 3153.21 4822.85 69.80 3.00 319.03 2652.75
   09:13:31.990.08-Feb-2020 3153.21 4822.85 69.80 3.00 319.23 2652.75
   09:13:32.190.08-Feb-2020 3153.21 4822.90 69.80 3.00 319.43 2652.75
   09:13:32.390.08-Feb-2020 3153.21 4822.65 69.80 3.00 319.63 2652.75
   09:13:32.590.08-Feb-2020 3153.21 4823.11 69.80 3.00 319.83 2652.75
   09:13:32.790.08-Feb-2020 3153.21 4822.78 69.80 3.00 320.03 2652.75
   09:13:32.990.08-Feb-2020 3153.21 4822.78 69.80 3.00 320.23 2652.75
   09:13:33.191.08-Feb-2020 3153.21 4823.73 69.80 3.00 320.43 2652.75
   09:13:33.391.08-Feb-2020 3153.21 4822.37 69.80 3.00 320.63 2652.75
   09:13:33.591.08-Feb-2020 3153.21 4822.86 69.80 3.00 320.83 2652.75
   09:13:33.791.08-Feb-2020 3153.21 4822.79 69.80 3.00 321.03 2652.75
   09:13:33.991.08-Feb-2020 3153.21 4822.79 69.80 3.00 321.23 2652.75
   09:13:34.191.08-Feb-2020 3153.21 4822.97 69.80 3.00 321.43 2652.75
   09:13:34.391.08-Feb-2020 3153.21 4822.93 69.80 3.00 321.63 2652.75
   09:13:34.591.08-Feb-2020 3153.21 4822.86 69.80 3.00 321.83 2652.75
