~Version Information
 VERS.                  2.0:   CWLS log ASCII Standard -VERSION 2.0
 WRAP.                   NO:   One line per depth step
~Well Information Block
#MNEM.UNIT     VALUE/NAME     DESCRIPTION
#---------     -----------    ---------------------------
 STRT.S             12:03:05 08-Feb-20: START TIME 12:03:05 08-Feb-20
 STOP.S             12:09:57 08-Feb-20: STOP TIME  12:09:57 08-Feb-20
 STEP.S                   0.00: STEP TIME
 NULL.                 -999.25: NULL VALUE
 DFWT.                        :  DIST FWL TEXT
 DFST.                        :  DIST FSL TEXT
 DMF .             Drill Floor:  DRILL MEAS FROM
 STIM.      07.00.00 09-Jan-20:  START TIME
 DATE.      14.04.48 07-Feb-20:  END TIME
 SPUD.               09-Jan-20:  SPUD DATE
 NREF.                    Grid:  NORTH REFERENCE
 HPTY.       Minimum Curvature:  HOLE POS TYPE
 DMOD.             Drill Model:  DRILL MOD DESC
 SVYD.                  Survey:  SURVEY DESC
 ILTD.               Lithology:  INTERP LTH DESC
 FTOP.          Formation Tops:  FORM TOPS DESC
 SON .        AZ-XX-0905059384:  JOB NUMBER
 MDS .        Operator Entered:  MAG DATA SOURCE
 WTYP.                Deviated:  WELL TYPE
 COMP.     BP Exploration (Caspian Sea) Ltd.:  COMPANY
 UWI .                     N/A:  UNIQUE WELL IDENTIFIER
 API .                     N/A:  API NUMBER
 BASE.              Azerbaijan:  LOGGING EQUIPMENT BASE LOCATION
 REGN.                   EESSA:  REGION
 PROV.                    Baku:  PROVINCE
 STAT.                    Baku:  STATE NAME
 CTRY.              Azerbaijan:  COUNTRY NAME
 FLD .                     ACG:  FIELD NAME
 SRVC.     TURAN Drilling & Engineering:  CONTRACTOR
 MWDS.                    Baku:  MWD SHOP
 WELL.                     J22:  WELL NAME
 RIG .             West Chirag:  RIG NAME
 DOE .                     N/A:  DOE NUMBER
 DCON.         Sperry Drilling:  DIRECTNL CONTR
 UNIT.                     N/A:  LOGGING EQUIPMENT ID
 PDAT.          Mean Sea Level:  PERMANENT DATUM
 JOBN.        AZ-XX-0905059384:  JOB TICKET NUMB
 CNTY.                        :  COUNTY
 LOC .                        :  LOCATION
 LMF .             Drill Floor:  LOG MEASURED FROM
 TVDS.m                  43.00:  TVDSS CORRECTN
 LATI.deg                40.13:  LATITUDE
 LONG.deg                51.22:  LONGITUDE
 WHNS.m                  10.28:  WELL HEAD N/S
 WHEW.m                  -6.24:  WELL HEAD E/W
 UTMX.m              519005.06:  UTM X
 UTMY.m             4443793.85:  UTM Y
 DFWL.m                   0.00:  DISTANCE FWL
 DFSL.m                   0.00:  DISTANCE FSL
 SDEP.m                 362.00:  START DEPTH
 TDD .m                 904.00:  TOTAL DEPTH (DRILLER)
 VSDR.deg               148.53:  VERT SEC DIRECT
 GVFD.g                   1.00:  GRAVITY FIELD
 MFLD.nT              50277.00:  MAGNETIC FIELD
 MDIP.deg                59.56:  MAGNETIC DIP
 MDEC.deg                 6.42:  MAGNETIC DECL
 GRDC.deg                 0.15:  GRID CORRECTION
 AZTC.deg                 6.27:  AZM TOTAL CORR
 EPD .m                   0.00:  ELEVATION
 EGL .m                   0.00:  GROUND ELEVATION
 WDMS.m                 169.80:  WD ELEV
 APD .m                  43.00:  DEPTH ABOVE PD
 AGAP.m                  43.00:  AIR GAP
 VSEW.m                  -6.24:  VERT SEC E/W
 VSNS.m                  10.28:  VERT SEC N/S
 DEP .m                   0.00:  DEPTH
 EKB .m                   0.00:  KB ELEVATION
 EDF .m                  43.00:  DF ELEVATION
 TDL .m                1183.00:  TOTAL DEPTH (LOGGER)
 VSC .                       0:  VS TO CLOSURE
 MAGU.                 1850021:  MAGUTM CHECKSUM
~Parameter Information Block
#MNEM.UNIT       Value        Description
#---------     -----------    ---------------------------
 AV  .mps                 4.00:  Ann Velocity 
 AVMX.mps                 4.50:  Max Ann Veloc 
 AZIF.deg               145.38:  Azm, Final 
 BHAT.        Rotary Steerable:  BHA Type 
 BROT.°/30m               3.00:  Build Rotating 
 BS  .in                 12.25:  Bit Size 
 BSZ .in                 12.25:  Bit Size 
 BTPL.psig              650.00:  Bit Press Loss 
 CABU.                      No:  Customer Abuse 
 COMM.                     ÌSf:  Run Comments 1 
 TCS .hr                101.62:  Time Ciculation Ended 
 CV  .mps                 5.00:  Crit Velocity 
 CVMX.mps                 5.00:  Max Crit Veloc 
 DD1 .             Aziz Aliyev:  Direct Drillr 1 
 DD2 .      Fakhraddin Guliyev:  Direct Drillr 2 
 DDSV.                 iCruise:  DD Service 
 DEFF.%                  97.00:  % Det Eff 
 DLRX.°/30m               4.16:  Dogleg Rot Max 
 DLSO.°/30m               3.20:  Dogleg Oriented 
 DLSX.°/30m               4.10:  Dogleg Str Max 
 DRET.      23.12.00 07-Feb-20:  Drill End Time 
 DRST.      11.30.00 04-Feb-20:  Drill Start Tim 
 DTIM.hr                 61.06:  Time Drilling 
 EDEP.m                3219.01:  End Depth 
 ENG1.         Almaz Almadatov:  Engineer 1 
 ENG2.         Dair Mahammadov:  Engineer 2 
 ENG3.          Nazrin Asgarli:  Engineer 3 
 ETIM.      02.30.00 11-Feb-20:  End Time 
 FLOI.gpm              1100.00:  Flow In 
 FLON.gpm               900.00:  Flow In Min 
 FLOS.cptm               55.00:  Fluid Loss 
 FLOX.gpm              1150.00:  Flow In Max 
 FTRO.       Formation Presure:  FTWD Run Obj 
 HFLO.                      No:  High Flow 
 HPRE.                      No:  High Pressure 
 HTEM.                      No:  High Temp 
 HYDO.m                   1.80:  Hydro Offset 
 IFIN.deg                75.11:  Inc, Final 
 IMAX.deg                75.11:  Inc Max 
 IMIN.deg                33.55:  Inc Min 
 IMND.m                2186.05:  Inc Min Depth 
 IMXD.m                3205.61:  Inc Max Depth 
 JARR.                      No:  Jarring 
 LETM.      23.12.00 07-Feb-20:  Log End Time 
 LOST.hr                     0:  Lost Rig Time 
 LSTM.      11.30.00 04-Feb-20:  Log Start Time 
 MDCL.ppm             40000.00:  Mud Chlorides 
 MDES.     Inversion Oil/Synthetic:  Mud Desc 
 DFD .sg                  1.49:  Mud Density 
 MDMN.sg                  1.49:  Dens Mud Min 
 MDMX.sg                  1.49:  Dens Mud Max 
 MOIL.                      73:  Run Mud Oil % 
 MOWR.                   73:27:  Run Mud OWR 
 MSND.                     0.1:  Run Mud Sand % 
 MSOL.                    20.1:  Run Mud Solids% 
 DFV .spqt               78.00:  Mud Viscosity 
 MWOD.in                  8.00:  MWD Tool OD 
 MWSI.                      No:  Serv Intrp, MWD 
 OTIM.hr                177.15:  Time Operating 
 PCON.          Wear / Scratch:  Pad Condition 
 PMAX.psia            10493.93:  Press Op, Max 
 PV  .cP                 73.00:  Mud PV 
 RUN .                     700:  Run Number 
 ROPA.m/hr               15.00:  ROP Avg 
 ROPN.m/hr               10.00:  ROP Min 
 ROPX.m/hr               35.00:  ROP Max 
 RPMA.rpm               130.00:  RPM Surface Avg 
 RPMN.rpm                80.00:  RPM Surface Min 
 RPMX.rpm               150.00:  RPM Surface Max 
 RRUN.                    L402:  Rig Run Number 
 RTIM.hr                 80.50:  Time Reaming 
 SAZI.deg               155.55:  Azm, Start 
 SDEP.m                2036.00:  Start Depth 
 SIDD.                      No:  Serv Intrp, DD 
 SINC.deg                35.44:  Inc, Start 
 SPPA.psig             4270.00:  SPP Avg 
 SPPN.psig             2800.00:  SPP Min 
 SPPX.psig             4850.00:  SPP Max 
 STIM.      09.30.00 03-Feb-20:  Start Time 
 SVCS.                 DD, MWD:  Services 
 SVER.                    9.20:  Sperry Version 
 TDAT.m                1183.00:  Tot Depth Attmp 
 TDDF.                      No:  Trip for DD 
 TDLG.m                1183.00:  Tot Depth Loggd 
 TFF .                      No:  Trip for Fail 
 TQAA.f-kp               16.00:  Torque Abs Avg 
 TQAN.f-kp               10.00:  Torque Abs Min 
 TQAX.f-kp               20.00:  Torque Abs Max 
 TRRT.°/30m               1.00:  Turn Rotating 
 MRT .                  EWR-M5:  Maximum Recorded Temperature 
 TTMX.degC               80.39:  Max Tool Temp 
 VS01.               13098498 :  Virtual Str1 SN 
 VS02.                90569596:  Virtual Str2 SN 
 VS03.                90523599:  Virtual Str3 SN 
 VS04.                90573553:  Virtual Str4 SN 
 VS05.                90598598:  Virtual Str5 SN 
 VS06.                90577297:  Virtual Str6 SN 
 WBMN.klb                13.00:  WOB Min 
 WITN.         Alistair Sprott:  Customer Rep 
 WITN.           Rufat Babayev:  Customer Rep 2 
 WOBA.klb                15.00:  WOB Avg 
 WOBX.klb                20.00:  WOB Max 
 YP  .lhf2               39.00:  Yield Point 
~Curve Information Block
#MNEM.UNIT                 API CODE     Curve Description
#---------               -----------    ---------------------------
 TIME.HHMMSS            00 000 000 000:  GT Time & Date
 GTDEPTH.m              00 000 000 000:  GT Depth
 GTPQH.psia             00 000 000 000:  GT HR Quartz Pressure
 GTTQ.degC              00 000 000 000:  GT Quartz Temperature
 GTTN.NONE              00 000 000 000:  GT Test Number
 GTET.sec               00 000 000 000:  GT Elapsed Test Time
 GTTVD.m                00 000 000 000:  GT True Vertical Depth
#Other Information
#
#WARRANTY: Halliburton will use its best efforts to furnish customers with 
#accurate information and interpretations that are part of, and incident to, the services 
#provided.  However, Halliburton cannot and does not warrant the accuracy 
#or correctness of such information and interpretations.  Under no circumstances should any 
#such information or interpretation be relied upon as the sole basis for any drilling, 
#completion, production, or financial decision or any procedure involving any risk to the 
#safety of any drilling venture, drilling rig or its crew or any other third party.  The 
#Customer has full responsibility for all drilling, completion and production operation.  
#Halliburton makes no representations or warranties, either expressed or 
#implied, including, but not limited to, the implied warranties of merchantability or fitness 
#for a particular purpose, with respect to the services rendered.  In no event will 
#Halliburton be liable for failure to obtain any particular results or for 
#any damages, including, but not limited to, indirect, special or consequential damages, 
#resulting from the use of any information or interpretation provided by Halliburton.
#
~A           TIME           GTDEPTH  GTPQH  GTTQ  GTTN  GTET   GTTVD  
# ...
   12:07:41.000.08-Feb-2020 3069.01  824.11 65.97 7.00 276.00 2627.56
   12:07:41.200.08-Feb-2020 3069.01  824.11 65.97 7.00 276.20 2627.56
   12:07:41.400.08-Feb-2020 3069.01  653.58 65.97 7.00 276.40 2627.56
   12:07:41.600.08-Feb-2020 3069.01  570.39 65.96 7.00 276.60 2627.56
   12:07:41.800.08-Feb-2020 3069.01  491.53 65.96 7.00 276.80 2627.56
   12:07:42.000.08-Feb-2020 3069.01  416.95 65.96 7.00 277.00 2627.56
   12:07:42.200.08-Feb-2020 3069.01  416.95 65.96 7.00 277.20 2627.56
   12:07:42.400.08-Feb-2020 3069.01  289.32 65.95 7.00 277.40 2627.56
   12:07:42.600.08-Feb-2020 3069.01  241.78 65.95 7.00 277.60 2627.56
   12:07:42.800.08-Feb-2020 3069.01  191.36 65.94 7.00 277.80 2627.56
   12:07:43.000.08-Feb-2020 3069.01  159.40 65.94 7.00 278.00 2627.56
   12:07:43.200.08-Feb-2020 3069.01  159.40 65.94 7.00 278.20 2627.56
   12:07:43.400.08-Feb-2020 3069.01  127.30 65.93 7.00 278.40 2627.56
   12:07:43.600.08-Feb-2020 3069.01  118.96 65.93 7.00 278.60 2627.56
   12:07:43.800.08-Feb-2020 3069.01  112.54 65.93 7.00 278.80 2627.56
   12:07:44.000.08-Feb-2020 3069.01  107.90 65.92 7.00 279.00 2627.56
   12:07:44.200.08-Feb-2020 3069.01  107.90 65.92 7.00 279.20 2627.56
   12:07:44.400.08-Feb-2020 3069.01  101.38 65.92 7.00 279.40 2627.56
   12:07:44.600.08-Feb-2020 3069.01   98.90 65.91 7.00 279.60 2627.56
   12:07:44.800.08-Feb-2020 3069.01   96.90 65.91 7.00 279.80 2627.56
   12:07:45.000.08-Feb-2020 3069.01   95.38 65.91 7.00 280.00 2627.56
   12:07:45.200.08-Feb-2020 3069.01   95.38 65.91 7.00 280.20 2627.56
   12:07:45.400.08-Feb-2020 3069.01   93.08 65.90 7.00 280.40 2627.56
   12:07:45.600.08-Feb-2020 3069.01   92.22 65.90 7.00 280.60 2627.56
   12:07:45.800.08-Feb-2020 3069.01   91.35 65.90 7.00 280.80 2627.56
   12:07:46.000.08-Feb-2020 3069.01   90.57 65.89 7.00 281.00 2627.56
   12:07:46.200.08-Feb-2020 3069.01   90.57 65.89 7.00 281.20 2627.56
   12:07:46.400.08-Feb-2020 3069.01   89.10 65.89 7.00 281.40 2627.56
   12:07:46.600.08-Feb-2020 3069.01   88.27 65.89 7.00 281.60 2627.56
   12:07:46.800.08-Feb-2020 3069.01   87.63 65.88 7.00 281.80 2627.56
   12:07:47.000.08-Feb-2020 3069.01   89.58 65.88 7.00 282.00 2627.56
   12:07:47.200.08-Feb-2020 3069.01   89.58 65.88 7.00 282.20 2627.56
   12:07:47.400.08-Feb-2020 3069.01   97.63 65.88 7.00 282.40 2627.56
   12:07:47.600.08-Feb-2020 3069.01  101.51 65.88 7.00 282.60 2627.56
   12:07:47.800.08-Feb-2020 3069.01  105.43 65.87 7.00 282.80 2627.56
   12:07:48.000.08-Feb-2020 3069.01  109.38 65.87 7.00 283.00 2627.56
   12:07:48.200.08-Feb-2020 3069.01  109.38 65.87 7.00 283.20 2627.56
   12:07:48.400.08-Feb-2020 3069.01  117.41 65.87 7.00 283.40 2627.56
   12:07:48.600.08-Feb-2020 3069.01  121.52 65.87 7.00 283.60 2627.56
   12:07:48.800.08-Feb-2020 3069.01  125.71 65.86 7.00 283.80 2627.56
   12:07:49.000.08-Feb-2020 3069.01  129.98 65.86 7.00 284.00 2627.56
   12:07:49.200.08-Feb-2020 3069.01  129.98 65.86 7.00 284.20 2627.56
   12:07:49.400.08-Feb-2020 3069.01  138.92 65.86 7.00 284.40 2627.56
   12:07:49.600.08-Feb-2020 3069.01  143.76 65.86 7.00 284.60 2627.56
   12:07:49.800.08-Feb-2020 3069.01  148.64 65.86 7.00 284.80 2627.56
   12:07:50.000.08-Feb-2020 3069.01  153.81 65.86 7.00 285.00 2627.56
   12:07:50.200.08-Feb-2020 3069.01  153.81 65.86 7.00 285.20 2627.56
   12:07:50.400.08-Feb-2020 3069.01  166.43 65.85 7.00 285.40 2627.56
   12:07:50.600.08-Feb-2020 3069.01  174.24 65.85 7.00 285.60 2627.56
   12:07:50.800.08-Feb-2020 3069.01  181.94 65.85 7.00 285.80 2627.56
   12:07:51.000.08-Feb-2020 3069.01  189.52 65.85 7.00 286.00 2627.56
   12:07:51.200.08-Feb-2020 3069.01  189.52 65.85 7.00 286.20 2627.56
   12:07:51.400.08-Feb-2020 3069.01  205.27 65.85 7.00 286.40 2627.56
   12:07:51.600.08-Feb-2020 3069.01  214.19 65.85 7.00 286.60 2627.56
   12:07:51.800.08-Feb-2020 3069.01  223.78 65.85 7.00 286.80 2627.56
   12:07:52.000.08-Feb-2020 3069.01  233.62 65.85 7.00 287.00 2627.56
   12:07:52.200.08-Feb-2020 3069.01  233.62 65.85 7.00 287.20 2627.56
   12:07:52.400.08-Feb-2020 3069.01  254.34 65.85 7.00 287.40 2627.56
   12:07:52.600.08-Feb-2020 3069.01  265.76 65.85 7.00 287.60 2627.56
   12:07:52.800.08-Feb-2020 3069.01  278.48 65.85 7.00 287.80 2627.56
   12:07:53.000.08-Feb-2020 3069.01  291.88 65.85 7.00 288.00 2627.56
   12:07:53.200.08-Feb-2020 3069.01  291.88 65.85 7.00 288.20 2627.56
   12:07:53.400.08-Feb-2020 3069.01  321.49 65.84 7.00 288.40 2627.56
   12:07:53.600.08-Feb-2020 3069.01  338.16 65.84 7.00 288.60 2627.56
   12:07:53.800.08-Feb-2020 3069.01  356.26 65.84 7.00 288.80 2627.56
   12:07:54.000.08-Feb-2020 3069.01  376.03 65.84 7.00 289.00 2627.56
   12:07:54.200.08-Feb-2020 3069.01  376.03 65.84 7.00 289.20 2627.56
   12:07:54.400.08-Feb-2020 3069.01  420.77 65.84 7.00 289.40 2627.56
   12:07:54.600.08-Feb-2020 3069.01  446.06 65.84 7.00 289.60 2627.56
   12:07:54.800.08-Feb-2020 3069.01  473.57 65.84 7.00 289.80 2627.56
   12:07:55.000.08-Feb-2020 3069.01  503.45 65.84 7.00 290.00 2627.56
   12:07:55.200.08-Feb-2020 3069.01  503.45 65.84 7.00 290.20 2627.56
   12:07:55.400.08-Feb-2020 3069.01  569.39 65.84 7.00 290.40 2627.56
   12:07:55.600.08-Feb-2020 3069.01  605.74 65.84 7.00 290.60 2627.56
   12:07:55.800.08-Feb-2020 3069.01  644.00 65.84 7.00 290.80 2627.56
   12:07:56.000.08-Feb-2020 3069.01  684.21 65.84 7.00 291.00 2627.56
   12:07:56.200.08-Feb-2020 3069.01  684.21 65.84 7.00 291.20 2627.56
   12:07:56.400.08-Feb-2020 3069.01  769.36 65.84 7.00 291.40 2627.56
   12:07:56.600.08-Feb-2020 3069.01  813.99 65.84 7.00 291.60 2627.56
   12:07:56.800.08-Feb-2020 3069.01  859.70 65.84 7.00 291.80 2627.56
   12:07:57.000.08-Feb-2020 3069.01  905.87 65.84 7.00 292.00 2627.56
   12:07:57.200.08-Feb-2020 3069.01  905.87 65.84 7.00 292.20 2627.56
   12:07:57.400.08-Feb-2020 3069.01 1001.24 65.84 7.00 292.40 2627.56
   12:07:57.600.08-Feb-2020 3069.01 1049.14 65.84 7.00 292.60 2627.56
   12:07:57.800.08-Feb-2020 3069.01 1097.33 65.85 7.00 292.80 2627.56
   12:07:58.000.08-Feb-2020 3069.01 1145.37 65.85 7.00 293.00 2627.56
   12:07:58.200.08-Feb-2020 3069.01 1145.37 65.85 7.00 293.20 2627.56
   12:07:58.400.08-Feb-2020 3069.01 1241.25 65.85 7.00 293.40 2627.56
   12:07:58.600.08-Feb-2020 3069.01 1288.57 65.85 7.00 293.60 2627.56
   12:07:58.800.08-Feb-2020 3069.01 1335.30 65.85 7.00 293.80 2627.56
   12:07:59.000.08-Feb-2020 3069.01 1381.81 65.85 7.00 294.00 2627.56
   12:07:59.200.08-Feb-2020 3069.01 1381.81 65.85 7.00 294.20 2627.56
   12:07:59.400.08-Feb-2020 3069.01 1473.48 65.85 7.00 294.40 2627.56
   12:07:59.600.08-Feb-2020 3069.01 1518.73 65.85 7.00 294.60 2627.56
   12:07:59.800.08-Feb-2020 3069.01 1563.04 65.85 7.00 294.80 2627.56
   12:08:00.000.08-Feb-2020 3069.01 1606.90 65.85 7.00 295.00 2627.56
   12:08:00.200.08-Feb-2020 3069.01 1606.90 65.85 7.00 295.20 2627.56
   12:08:00.400.08-Feb-2020 3069.01 1691.86 65.85 7.00 295.40 2627.56
   12:08:00.600.08-Feb-2020 3069.01 1734.18 65.85 7.00 295.60 2627.56
   12:08:00.800.08-Feb-2020 3069.01 1775.21 65.86 7.00 295.80 2627.56
   12:08:01.000.08-Feb-2020 3069.01 1815.72 65.86 7.00 296.00 2627.56
   12:08:01.200.08-Feb-2020 3069.01 1815.72 65.86 7.00 296.20 2627.56
   12:08:01.400.08-Feb-2020 3069.01 1894.93 65.86 7.00 296.40 2627.56
   12:08:01.600.08-Feb-2020 3069.01 1932.55 65.86 7.00 296.60 2627.56
   12:08:01.800.08-Feb-2020 3069.01 1971.01 65.86 7.00 296.80 2627.56
   12:08:02.000.08-Feb-2020 3069.01 2008.21 65.86 7.00 297.00 2627.56
   12:08:02.200.08-Feb-2020 3069.01 2008.21 65.86 7.00 297.20 2627.56
   12:08:02.400.08-Feb-2020 3069.01 2080.53 65.86 7.00 297.40 2627.56
   12:08:02.600.08-Feb-2020 3069.01 2115.67 65.86 7.00 297.60 2627.56
   12:08:02.800.08-Feb-2020 3069.01 2150.26 65.87 7.00 297.80 2627.56
   12:08:03.000.08-Feb-2020 3069.01 2184.26 65.87 7.00 298.00 2627.56
   12:08:03.200.08-Feb-2020 3069.01 2184.26 65.87 7.00 298.20 2627.56
   12:08:03.400.08-Feb-2020 3069.01 2250.14 65.87 7.00 298.40 2627.56
   12:08:03.600.08-Feb-2020 3069.01 2282.35 65.87 7.00 298.60 2627.56
   12:08:03.800.08-Feb-2020 3069.01 2312.67 65.87 7.00 298.80 2627.56
