~Version Information
 VERS.                  2.0:   CWLS log ASCII Standard -VERSION 2.0
 WRAP.                   NO:   One line per depth step
~Well Information Block
#MNEM.UNIT     VALUE/NAME     DESCRIPTION
#---------     -----------    ---------------------------
 STRT.S             11:02:51 08-Feb-20: START TIME 11:02:51 08-Feb-20
 STOP.S             11:09:43 08-Feb-20: STOP TIME  11:09:43 08-Feb-20
 STEP.S                   0.00: STEP TIME
 NULL.                 -999.25: NULL VALUE
 DFWT.                        :  DIST FWL TEXT
 DFST.                        :  DIST FSL TEXT
 DMF .             Drill Floor:  DRILL MEAS FROM
 STIM.      07.00.00 09-Jan-20:  START TIME
 DATE.      14.04.48 07-Feb-20:  END TIME
 SPUD.               09-Jan-20:  SPUD DATE
 NREF.                    Grid:  NORTH REFERENCE
 HPTY.       Minimum Curvature:  HOLE POS TYPE
 DMOD.             Drill Model:  DRILL MOD DESC
 SVYD.                  Survey:  SURVEY DESC
 ILTD.               Lithology:  INTERP LTH DESC
 FTOP.          Formation Tops:  FORM TOPS DESC
 SON .        AZ-XX-0905059384:  JOB NUMBER
 MDS .        Operator Entered:  MAG DATA SOURCE
 WTYP.                Deviated:  WELL TYPE
 COMP.     BP Exploration (Caspian Sea) Ltd.:  COMPANY
 UWI .                     N/A:  UNIQUE WELL IDENTIFIER
 API .                     N/A:  API NUMBER
 BASE.              Azerbaijan:  LOGGING EQUIPMENT BASE LOCATION
 REGN.                   EESSA:  REGION
 PROV.                    Baku:  PROVINCE
 STAT.                    Baku:  STATE NAME
 CTRY.              Azerbaijan:  COUNTRY NAME
 FLD .                     ACG:  FIELD NAME
 SRVC.     TURAN Drilling & Engineering:  CONTRACTOR
 MWDS.                    Baku:  MWD SHOP
 WELL.                     J22:  WELL NAME
 RIG .             West Chirag:  RIG NAME
 DOE .                     N/A:  DOE NUMBER
 DCON.         Sperry Drilling:  DIRECTNL CONTR
 UNIT.                     N/A:  LOGGING EQUIPMENT ID
 PDAT.          Mean Sea Level:  PERMANENT DATUM
 JOBN.        AZ-XX-0905059384:  JOB TICKET NUMB
 CNTY.                        :  COUNTY
 LOC .                        :  LOCATION
 LMF .             Drill Floor:  LOG MEASURED FROM
 TVDS.m                  43.00:  TVDSS CORRECTN
 LATI.deg                40.13:  LATITUDE
 LONG.deg                51.22:  LONGITUDE
 WHNS.m                  10.28:  WELL HEAD N/S
 WHEW.m                  -6.24:  WELL HEAD E/W
 UTMX.m              519005.06:  UTM X
 UTMY.m             4443793.85:  UTM Y
 DFWL.m                   0.00:  DISTANCE FWL
 DFSL.m                   0.00:  DISTANCE FSL
 SDEP.m                 362.00:  START DEPTH
 TDD .m                 904.00:  TOTAL DEPTH (DRILLER)
 VSDR.deg               148.53:  VERT SEC DIRECT
 GVFD.g                   1.00:  GRAVITY FIELD
 MFLD.nT              50277.00:  MAGNETIC FIELD
 MDIP.deg                59.56:  MAGNETIC DIP
 MDEC.deg                 6.42:  MAGNETIC DECL
 GRDC.deg                 0.15:  GRID CORRECTION
 AZTC.deg                 6.27:  AZM TOTAL CORR
 EPD .m                   0.00:  ELEVATION
 EGL .m                   0.00:  GROUND ELEVATION
 WDMS.m                 169.80:  WD ELEV
 APD .m                  43.00:  DEPTH ABOVE PD
 AGAP.m                  43.00:  AIR GAP
 VSEW.m                  -6.24:  VERT SEC E/W
 VSNS.m                  10.28:  VERT SEC N/S
 DEP .m                   0.00:  DEPTH
 EKB .m                   0.00:  KB ELEVATION
 EDF .m                  43.00:  DF ELEVATION
 TDL .m                1183.00:  TOTAL DEPTH (LOGGER)
 VSC .                       0:  VS TO CLOSURE
 MAGU.                 1850021:  MAGUTM CHECKSUM
~Parameter Information Block
#MNEM.UNIT       Value        Description
#---------     -----------    ---------------------------
 AV  .mps                 4.00:  Ann Velocity 
 AVMX.mps                 4.50:  Max Ann Veloc 
 AZIF.deg               145.38:  Azm, Final 
 BHAT.        Rotary Steerable:  BHA Type 
 BROT.°/30m               3.00:  Build Rotating 
 BS  .in                 12.25:  Bit Size 
 BSZ .in                 12.25:  Bit Size 
 BTPL.psig              650.00:  Bit Press Loss 
 CABU.                      No:  Customer Abuse 
 COMM.                     Ä%€:  Run Comments 1 
 TCS .hr                101.62:  Time Ciculation Ended 
 CV  .mps                 5.00:  Crit Velocity 
 CVMX.mps                 5.00:  Max Crit Veloc 
 DD1 .             Aziz Aliyev:  Direct Drillr 1 
 DD2 .      Fakhraddin Guliyev:  Direct Drillr 2 
 DDSV.                 iCruise:  DD Service 
 DEFF.%                  97.00:  % Det Eff 
 DLRX.°/30m               4.16:  Dogleg Rot Max 
 DLSO.°/30m               3.20:  Dogleg Oriented 
 DLSX.°/30m               4.10:  Dogleg Str Max 
 DRET.      23.12.00 07-Feb-20:  Drill End Time 
 DRST.      11.30.00 04-Feb-20:  Drill Start Tim 
 DTIM.hr                 61.06:  Time Drilling 
 EDEP.m                3219.01:  End Depth 
 ENG1.         Almaz Almadatov:  Engineer 1 
 ENG2.         Dair Mahammadov:  Engineer 2 
 ENG3.          Nazrin Asgarli:  Engineer 3 
 ETIM.      02.30.00 11-Feb-20:  End Time 
 FLOI.gpm              1100.00:  Flow In 
 FLON.gpm               900.00:  Flow In Min 
 FLOS.cptm               55.00:  Fluid Loss 
 FLOX.gpm              1150.00:  Flow In Max 
 FTRO.       Formation Presure:  FTWD Run Obj 
 HFLO.                      No:  High Flow 
 HPRE.                      No:  High Pressure 
 HTEM.                      No:  High Temp 
 HYDO.m                   1.80:  Hydro Offset 
 IFIN.deg                75.11:  Inc, Final 
 IMAX.deg                75.11:  Inc Max 
 IMIN.deg                33.55:  Inc Min 
 IMND.m                2186.05:  Inc Min Depth 
 IMXD.m                3205.61:  Inc Max Depth 
 JARR.                      No:  Jarring 
 LETM.      23.12.00 07-Feb-20:  Log End Time 
 LOST.hr                     0:  Lost Rig Time 
 LSTM.      11.30.00 04-Feb-20:  Log Start Time 
 MDCL.ppm             40000.00:  Mud Chlorides 
 MDES.     Inversion Oil/Synthetic:  Mud Desc 
 DFD .sg                  1.49:  Mud Density 
 MDMN.sg                  1.49:  Dens Mud Min 
 MDMX.sg                  1.49:  Dens Mud Max 
 MOIL.                      73:  Run Mud Oil % 
 MOWR.                   73:27:  Run Mud OWR 
 MSND.                     0.1:  Run Mud Sand % 
 MSOL.                    20.1:  Run Mud Solids% 
 DFV .spqt               78.00:  Mud Viscosity 
 MWOD.in                  8.00:  MWD Tool OD 
 MWSI.                      No:  Serv Intrp, MWD 
 OTIM.hr                177.15:  Time Operating 
 PCON.          Wear / Scratch:  Pad Condition 
 PMAX.psia            10493.93:  Press Op, Max 
 PV  .cP                 73.00:  Mud PV 
 RUN .                     700:  Run Number 
 ROPA.m/hr               15.00:  ROP Avg 
 ROPN.m/hr               10.00:  ROP Min 
 ROPX.m/hr               35.00:  ROP Max 
 RPMA.rpm               130.00:  RPM Surface Avg 
 RPMN.rpm                80.00:  RPM Surface Min 
 RPMX.rpm               150.00:  RPM Surface Max 
 RRUN.                    L402:  Rig Run Number 
 RTIM.hr                 80.50:  Time Reaming 
 SAZI.deg               155.55:  Azm, Start 
 SDEP.m                2036.00:  Start Depth 
 SIDD.                      No:  Serv Intrp, DD 
 SINC.deg                35.44:  Inc, Start 
 SPPA.psig             4270.00:  SPP Avg 
 SPPN.psig             2800.00:  SPP Min 
 SPPX.psig             4850.00:  SPP Max 
 STIM.      09.30.00 03-Feb-20:  Start Time 
 SVCS.                 DD, MWD:  Services 
 SVER.                    9.20:  Sperry Version 
 TDAT.m                1183.00:  Tot Depth Attmp 
 TDDF.                      No:  Trip for DD 
 TDLG.m                1183.00:  Tot Depth Loggd 
 TFF .                      No:  Trip for Fail 
 TQAA.f-kp               16.00:  Torque Abs Avg 
 TQAN.f-kp               10.00:  Torque Abs Min 
 TQAX.f-kp               20.00:  Torque Abs Max 
 TRRT.°/30m               1.00:  Turn Rotating 
 MRT .                  EWR-M5:  Maximum Recorded Temperature 
 TTMX.degC               80.39:  Max Tool Temp 
 VS01.               13098498 :  Virtual Str1 SN 
 VS02.                90569596:  Virtual Str2 SN 
 VS03.                90523599:  Virtual Str3 SN 
 VS04.                90573553:  Virtual Str4 SN 
 VS05.                90598598:  Virtual Str5 SN 
 VS06.                90577297:  Virtual Str6 SN 
 WBMN.klb                13.00:  WOB Min 
 WITN.         Alistair Sprott:  Customer Rep 
 WITN.           Rufat Babayev:  Customer Rep 2 
 WOBA.klb                15.00:  WOB Avg 
 WOBX.klb                20.00:  WOB Max 
 YP  .lhf2               39.00:  Yield Point 
~Curve Information Block
#MNEM.UNIT                 API CODE     Curve Description
#---------               -----------    ---------------------------
 TIME.HHMMSS            00 000 000 000:  GT Time & Date
 GTDEPTH.m              00 000 000 000:  GT Depth
 GTPQH.psia             00 000 000 000:  GT HR Quartz Pressure
 GTTQ.degC              00 000 000 000:  GT Quartz Temperature
 GTTN.NONE              00 000 000 000:  GT Test Number
 GTET.sec               00 000 000 000:  GT Elapsed Test Time
 GTTVD.m                00 000 000 000:  GT True Vertical Depth
#Other Information
#
#WARRANTY: Halliburton will use its best efforts to furnish customers with 
#accurate information and interpretations that are part of, and incident to, the services 
#provided.  However, Halliburton cannot and does not warrant the accuracy 
#or correctness of such information and interpretations.  Under no circumstances should any 
#such information or interpretation be relied upon as the sole basis for any drilling, 
#completion, production, or financial decision or any procedure involving any risk to the 
#safety of any drilling venture, drilling rig or its crew or any other third party.  The 
#Customer has full responsibility for all drilling, completion and production operation.  
#Halliburton makes no representations or warranties, either expressed or 
#implied, including, but not limited to, the implied warranties of merchantability or fitness 
#for a particular purpose, with respect to the services rendered.  In no event will 
#Halliburton be liable for failure to obtain any particular results or for 
#any damages, including, but not limited to, indirect, special or consequential damages, 
#resulting from the use of any information or interpretation provided by Halliburton.
#
~A           TIME           GTDEPTH  GTPQH  GTTQ  GTTN  GTET   GTTVD  
# ...
   11:03:37.465.08-Feb-2020 3115.78 5380.18 67.34 6.00  46.02 2642.62
   11:03:37.665.08-Feb-2020 3115.78 5380.18 67.34 6.00  46.22 2642.62
   11:03:37.866.08-Feb-2020 3115.78 5388.23 67.34 6.00  46.42 2642.62
   11:03:38.066.08-Feb-2020 3115.78 5383.00 67.34 6.00  46.62 2642.62
   11:03:38.266.08-Feb-2020 3115.78 5363.12 67.34 6.00  46.82 2642.62
   11:03:38.466.08-Feb-2020 3115.78 5377.30 67.34 6.00  47.02 2642.62
   11:03:38.666.08-Feb-2020 3115.78 5377.30 67.34 6.00  47.22 2642.62
   11:03:38.866.08-Feb-2020 3115.78 5380.98 67.34 6.00  47.42 2642.62
   11:03:39.066.08-Feb-2020 3115.78 5391.19 67.34 6.00  47.62 2642.62
   11:03:39.266.08-Feb-2020 3115.78 5391.64 67.33 6.00  47.82 2642.62
   11:03:39.466.08-Feb-2020 3115.78 5396.30 67.33 6.00  48.03 2642.62
   11:03:39.667.08-Feb-2020 3115.78 5396.30 67.33 6.00  48.23 2642.62
   11:03:39.867.08-Feb-2020 3115.78 5413.24 67.33 6.00  48.43 2642.62
   11:03:40.067.08-Feb-2020 3115.78 5430.85 67.33 6.00  48.63 2642.62
   11:03:40.267.08-Feb-2020 3115.78 5432.90 67.33 6.00  48.83 2642.62
   11:03:40.467.08-Feb-2020 3115.78 5453.91 67.33 6.00  49.03 2642.62
   11:03:40.667.08-Feb-2020 3115.78 5453.91 67.33 6.00  49.23 2642.62
   11:03:40.867.08-Feb-2020 3115.78 5482.61 67.33 6.00  49.43 2642.62
   11:03:41.067.08-Feb-2020 3115.78 5492.40 67.33 6.00  49.63 2642.62
   11:03:41.267.08-Feb-2020 3115.78 5495.96 67.33 6.00  49.83 2642.62
   11:03:41.467.08-Feb-2020 3115.78 5506.87 67.33 6.00  50.03 2642.62
   11:03:41.668.08-Feb-2020 3115.78 5506.87 67.33 6.00  50.23 2642.62
   11:03:41.868.08-Feb-2020 3115.78 5540.68 67.33 6.00  50.43 2642.62
   11:03:42.068.08-Feb-2020 3115.78 5559.08 67.33 6.00  50.63 2642.62
   11:03:42.268.08-Feb-2020 3115.78 5568.20 67.33 6.00  50.83 2642.62
   11:03:42.468.08-Feb-2020 3115.78 5585.95 67.33 6.00  51.03 2642.62
   11:03:42.668.08-Feb-2020 3115.78 5585.95 67.33 6.00  51.23 2642.62
   11:03:42.868.08-Feb-2020 3115.78 5599.78 67.33 6.00  51.43 2642.62
   11:03:43.068.08-Feb-2020 3115.78 5619.02 67.33 6.00  51.63 2642.62
   11:03:43.268.08-Feb-2020 3115.78 5646.56 67.33 6.00  51.83 2642.62
   11:03:43.469.08-Feb-2020 3115.78 5676.83 67.33 6.00  52.03 2642.62
   11:03:43.669.08-Feb-2020 3115.78 5676.83 67.33 6.00  52.23 2642.62
   11:03:43.869.08-Feb-2020 3115.78 5709.42 67.33 6.00  52.43 2642.62
   11:03:44.069.08-Feb-2020 3115.78 5749.51 67.32 6.00  52.63 2642.62
   11:03:44.269.08-Feb-2020 3115.78 5757.67 67.32 6.00  52.83 2642.62
   11:03:44.469.08-Feb-2020 3115.78 5787.69 67.32 6.00  53.03 2642.62
   11:03:44.669.08-Feb-2020 3115.78 5787.69 67.32 6.00  53.23 2642.62
   11:03:44.869.08-Feb-2020 3115.78 5792.74 67.32 6.00  53.43 2642.62
   11:03:45.069.08-Feb-2020 3115.78 5802.17 67.32 6.00  53.63 2642.62
   11:03:45.269.08-Feb-2020 3115.78 5817.06 67.32 6.00  53.83 2642.62
   11:03:45.470.08-Feb-2020 3115.78 5852.97 67.32 6.00  54.03 2642.62
   11:03:45.670.08-Feb-2020 3115.78 5852.97 67.32 6.00  54.23 2642.62
   11:03:45.870.08-Feb-2020 3115.78 5913.07 67.32 6.00  54.43 2642.62
   11:03:46.070.08-Feb-2020 3115.78 5954.39 67.32 6.00  54.63 2642.62
   11:03:46.270.08-Feb-2020 3115.78 6044.46 67.32 6.00  54.83 2642.62
   11:03:46.470.08-Feb-2020 3115.78 6026.74 67.32 6.00  55.03 2642.62
   11:03:46.670.08-Feb-2020 3115.78 6026.74 67.32 6.00  55.23 2642.62
   11:03:46.870.08-Feb-2020 3115.78 6035.65 67.32 6.00  55.43 2642.62
   11:03:47.070.08-Feb-2020 3115.78 5984.99 67.32 6.00  55.63 2642.62
   11:03:47.271.08-Feb-2020 3115.78 5975.74 67.32 6.00  55.83 2642.62
   11:03:47.471.08-Feb-2020 3115.78 5970.72 67.32 6.00  56.03 2642.62
   11:03:47.671.08-Feb-2020 3115.78 6006.08 67.32 6.00  56.23 2642.62
   11:03:47.871.08-Feb-2020 3115.78 5995.47 67.32 6.00  56.43 2642.62
   11:03:48.071.08-Feb-2020 3115.78 6008.97 67.32 6.00  56.63 2642.62
   11:03:48.271.08-Feb-2020 3115.78 6001.67 67.32 6.00  56.83 2642.62
   11:03:48.471.08-Feb-2020 3115.78 6021.64 67.32 6.00  57.03 2642.62
   11:03:48.671.08-Feb-2020 3115.78 6021.64 67.32 6.00  57.23 2642.62
   11:03:48.871.08-Feb-2020 3115.78 6085.53 67.32 6.00  57.43 2642.62
   11:03:49.071.08-Feb-2020 3115.78 6088.93 67.32 6.00  57.63 2642.62
   11:03:49.272.08-Feb-2020 3115.78 6098.68 67.32 6.00  57.83 2642.62
   11:03:49.472.08-Feb-2020 3115.78 6098.36 67.32 6.00  58.03 2642.62
   11:03:49.672.08-Feb-2020 3115.78 6098.36 67.32 6.00  58.23 2642.62
   11:03:49.872.08-Feb-2020 3115.78 6082.20 67.32 6.00  58.43 2642.62
   11:03:50.072.08-Feb-2020 3115.78 6100.75 67.32 6.00  58.63 2642.62
   11:03:50.272.08-Feb-2020 3115.78 6104.08 67.32 6.00  58.83 2642.62
   11:03:50.472.08-Feb-2020 3115.78 6105.39 67.32 6.00  59.03 2642.62
   11:03:50.672.08-Feb-2020 3115.78 6105.39 67.32 6.00  59.23 2642.62
   11:03:50.872.08-Feb-2020 3115.78 4782.63 67.32 6.00  59.43 2642.62
   11:03:51.072.08-Feb-2020 3115.78 4543.57 67.32 6.00  59.63 2642.62
   11:03:51.273.08-Feb-2020 3115.78 4297.35 67.32 6.00  59.83 2642.62
   11:03:51.473.08-Feb-2020 3115.78 4095.49 67.32 6.00  60.03 2642.62
   11:03:51.673.08-Feb-2020 3115.78 4095.49 67.32 6.00  60.23 2642.62
   11:03:51.873.08-Feb-2020 3115.78 3926.58 67.32 6.00  60.43 2642.62
   11:03:52.073.08-Feb-2020 3115.78 3896.93 67.32 6.00  60.63 2642.62
   11:03:52.273.08-Feb-2020 3115.78 3858.70 67.32 6.00  60.83 2642.62
   11:03:52.473.08-Feb-2020 3115.78 3824.13 67.32 6.00  61.03 2642.62
   11:03:52.673.08-Feb-2020 3115.78 3824.13 67.32 6.00  61.23 2642.62
   11:03:52.873.08-Feb-2020 3115.78 3785.26 67.31 6.00  61.43 2642.62
   11:03:53.074.08-Feb-2020 3115.78 3757.44 67.31 6.00  61.63 2642.62
   11:03:53.274.08-Feb-2020 3115.78 3710.01 67.31 6.00  61.83 2642.62
   11:03:53.474.08-Feb-2020 3115.78 3630.86 67.31 6.00  62.03 2642.62
   11:03:53.674.08-Feb-2020 3115.78 3630.86 67.31 6.00  62.23 2642.62
   11:03:53.874.08-Feb-2020 3115.78 3493.08 67.31 6.00  62.43 2642.62
   11:03:54.074.08-Feb-2020 3115.78 3459.30 67.30 6.00  62.63 2642.62
   11:03:54.274.08-Feb-2020 3115.78 3435.47 67.30 6.00  62.83 2642.62
   11:03:54.474.08-Feb-2020 3115.78 3426.16 67.30 6.00  63.03 2642.62
   11:03:54.674.08-Feb-2020 3115.78 3426.16 67.30 6.00  63.23 2642.62
   11:03:54.874.08-Feb-2020 3115.78 3362.02 67.30 6.00  63.43 2642.62
   11:03:55.075.08-Feb-2020 3115.78 3335.02 67.29 6.00  63.63 2642.62
   11:03:55.275.08-Feb-2020 3115.78 3343.78 67.29 6.00  63.83 2642.62
   11:03:55.475.08-Feb-2020 3115.78 3356.63 67.29 6.00  64.03 2642.62
   11:03:55.675.08-Feb-2020 3115.78 3356.63 67.29 6.00  64.23 2642.62
   11:03:55.875.08-Feb-2020 3115.78 3335.90 67.29 6.00  64.43 2642.62
   11:03:56.075.08-Feb-2020 3115.78 3323.06 67.28 6.00  64.63 2642.62
   11:03:56.275.08-Feb-2020 3115.78 3303.09 67.28 6.00  64.83 2642.62
   11:03:56.475.08-Feb-2020 3115.78 3276.31 67.28 6.00  65.03 2642.62
   11:03:56.675.08-Feb-2020 3115.78 3276.31 67.28 6.00  65.23 2642.62
   11:03:56.876.08-Feb-2020 3115.78 3260.06 67.28 6.00  65.43 2642.62
   11:03:57.076.08-Feb-2020 3115.78 3259.70 67.27 6.00  65.63 2642.62
   11:03:57.276.08-Feb-2020 3115.78 3254.35 67.27 6.00  65.83 2642.62
   11:03:57.476.08-Feb-2020 3115.78 3243.19 67.27 6.00  66.03 2642.62
   11:03:57.676.08-Feb-2020 3115.78 3243.19 67.27 6.00  66.23 2642.62
   11:03:57.876.08-Feb-2020 3115.78 3212.13 67.27 6.00  66.43 2642.62
   11:03:58.076.08-Feb-2020 3115.78 3200.69 67.26 6.00  66.63 2642.62
   11:03:58.276.08-Feb-2020 3115.78 3191.55 67.26 6.00  66.83 2642.62
   11:03:58.476.08-Feb-2020 3115.78 3182.44 67.26 6.00  67.04 2642.62
   11:03:58.676.08-Feb-2020 3115.78 3182.44 67.26 6.00  67.24 2642.62
   11:03:58.877.08-Feb-2020 3115.78 3157.78 67.26 6.00  67.44 2642.62
   11:03:59.077.08-Feb-2020 3115.78 3147.36 67.26 6.00  67.64 2642.62
   11:03:59.277.08-Feb-2020 3115.78 3145.68 67.26 6.00  67.84 2642.62
   11:03:59.477.08-Feb-2020 3115.78 3145.20 67.25 6.00  68.04 2642.62
   11:03:59.677.08-Feb-2020 3115.78 3145.20 67.25 6.00  68.24 2642.62
   11:03:59.877.08-Feb-2020 3115.78 3125.77 67.25 6.00  68.44 2642.62
   11:04:00.077.08-Feb-2020 3115.78 3116.36 67.25 6.00  68.64 2642.62
   11:04:00.277.08-Feb-2020 3115.78 3107.05 67.25 6.00  68.84 2642.62
