~Version Information
 VERS.                  2.0:   CWLS log ASCII Standard -VERSION 2.0
 WRAP.                   NO:   One line per depth step
~Well Information Block
#MNEM.UNIT     VALUE/NAME     DESCRIPTION
#---------     -----------    ---------------------------
 STRT.S             08:19:39 08-Feb-20: START TIME 08:19:39 08-Feb-20
 STOP.S             08:26:25 08-Feb-20: STOP TIME  08:26:25 08-Feb-20
 STEP.S                   0.00: STEP TIME
 NULL.                 -999.25: NULL VALUE
 DFWT.                        :  DIST FWL TEXT
 DFST.                        :  DIST FSL TEXT
 DMF .             Drill Floor:  DRILL MEAS FROM
 STIM.      07.00.00 09-Jan-20:  START TIME
 DATE.      14.04.48 07-Feb-20:  END TIME
 SPUD.               09-Jan-20:  SPUD DATE
 NREF.                    Grid:  NORTH REFERENCE
 HPTY.       Minimum Curvature:  HOLE POS TYPE
 DMOD.             Drill Model:  DRILL MOD DESC
 SVYD.                  Survey:  SURVEY DESC
 ILTD.               Lithology:  INTERP LTH DESC
 FTOP.          Formation Tops:  FORM TOPS DESC
 SON .        AZ-XX-0905059384:  JOB NUMBER
 MDS .        Operator Entered:  MAG DATA SOURCE
 WTYP.                Deviated:  WELL TYPE
 COMP.     BP Exploration (Caspian Sea) Ltd.:  COMPANY
 UWI .                     N/A:  UNIQUE WELL IDENTIFIER
 API .                     N/A:  API NUMBER
 BASE.              Azerbaijan:  LOGGING EQUIPMENT BASE LOCATION
 REGN.                   EESSA:  REGION
 PROV.                    Baku:  PROVINCE
 STAT.                    Baku:  STATE NAME
 CTRY.              Azerbaijan:  COUNTRY NAME
 FLD .                     ACG:  FIELD NAME
 SRVC.     TURAN Drilling & Engineering:  CONTRACTOR
 MWDS.                    Baku:  MWD SHOP
 WELL.                     J22:  WELL NAME
 RIG .             West Chirag:  RIG NAME
 DOE .                     N/A:  DOE NUMBER
 DCON.         Sperry Drilling:  DIRECTNL CONTR
 UNIT.                     N/A:  LOGGING EQUIPMENT ID
 PDAT.          Mean Sea Level:  PERMANENT DATUM
 JOBN.        AZ-XX-0905059384:  JOB TICKET NUMB
 CNTY.                        :  COUNTY
 LOC .                        :  LOCATION
 LMF .             Drill Floor:  LOG MEASURED FROM
 TVDS.m                  43.00:  TVDSS CORRECTN
 LATI.deg                40.13:  LATITUDE
 LONG.deg                51.22:  LONGITUDE
 WHNS.m                  10.28:  WELL HEAD N/S
 WHEW.m                  -6.24:  WELL HEAD E/W
 UTMX.m              519005.06:  UTM X
 UTMY.m             4443793.85:  UTM Y
 DFWL.m                   0.00:  DISTANCE FWL
 DFSL.m                   0.00:  DISTANCE FSL
 SDEP.m                 362.00:  START DEPTH
 TDD .m                 904.00:  TOTAL DEPTH (DRILLER)
 VSDR.deg               148.53:  VERT SEC DIRECT
 GVFD.g                   1.00:  GRAVITY FIELD
 MFLD.nT              50277.00:  MAGNETIC FIELD
 MDIP.deg                59.56:  MAGNETIC DIP
 MDEC.deg                 6.42:  MAGNETIC DECL
 GRDC.deg                 0.15:  GRID CORRECTION
 AZTC.deg                 6.27:  AZM TOTAL CORR
 EPD .m                   0.00:  ELEVATION
 EGL .m                   0.00:  GROUND ELEVATION
 WDMS.m                 169.80:  WD ELEV
 APD .m                  43.00:  DEPTH ABOVE PD
 AGAP.m                  43.00:  AIR GAP
 VSEW.m                  -6.24:  VERT SEC E/W
 VSNS.m                  10.28:  VERT SEC N/S
 DEP .m                   0.00:  DEPTH
 EKB .m                   0.00:  KB ELEVATION
 EDF .m                  43.00:  DF ELEVATION
 TDL .m                1183.00:  TOTAL DEPTH (LOGGER)
 VSC .                       0:  VS TO CLOSURE
 MAGU.                 1850021:  MAGUTM CHECKSUM
~Parameter Information Block
#MNEM.UNIT       Value        Description
#---------     -----------    ---------------------------
 AV  .mps                 4.00:  Ann Velocity 
 AVMX.mps                 4.50:  Max Ann Veloc 
 AZIF.deg               145.38:  Azm, Final 
 BHAT.        Rotary Steerable:  BHA Type 
 BROT.°/30m               3.00:  Build Rotating 
 BS  .in                 12.25:  Bit Size 
 BSZ .in                 12.25:  Bit Size 
 BTPL.psig              650.00:  Bit Press Loss 
 CABU.                      No:  Customer Abuse 
 COMM.                     ä7n:  Run Comments 1 
 TCS .hr                101.62:  Time Ciculation Ended 
 CV  .mps                 5.00:  Crit Velocity 
 CVMX.mps                 5.00:  Max Crit Veloc 
 DD1 .             Aziz Aliyev:  Direct Drillr 1 
 DD2 .      Fakhraddin Guliyev:  Direct Drillr 2 
 DDSV.                 iCruise:  DD Service 
 DEFF.%                  97.00:  % Det Eff 
 DLRX.°/30m               4.16:  Dogleg Rot Max 
 DLSO.°/30m               3.20:  Dogleg Oriented 
 DLSX.°/30m               4.10:  Dogleg Str Max 
 DRET.      23.12.00 07-Feb-20:  Drill End Time 
 DRST.      11.30.00 04-Feb-20:  Drill Start Tim 
 DTIM.hr                 61.06:  Time Drilling 
 EDEP.m                3219.01:  End Depth 
 ENG1.         Almaz Almadatov:  Engineer 1 
 ENG2.         Dair Mahammadov:  Engineer 2 
 ENG3.          Nazrin Asgarli:  Engineer 3 
 ETIM.      02.30.00 11-Feb-20:  End Time 
 FLOI.gpm              1100.00:  Flow In 
 FLON.gpm               900.00:  Flow In Min 
 FLOS.cptm               55.00:  Fluid Loss 
 FLOX.gpm              1150.00:  Flow In Max 
 FTRO.       Formation Presure:  FTWD Run Obj 
 HFLO.                      No:  High Flow 
 HPRE.                      No:  High Pressure 
 HTEM.                      No:  High Temp 
 HYDO.m                   1.80:  Hydro Offset 
 IFIN.deg                75.11:  Inc, Final 
 IMAX.deg                75.11:  Inc Max 
 IMIN.deg                33.55:  Inc Min 
 IMND.m                2186.05:  Inc Min Depth 
 IMXD.m                3205.61:  Inc Max Depth 
 JARR.                      No:  Jarring 
 LETM.      23.12.00 07-Feb-20:  Log End Time 
 LOST.hr                     0:  Lost Rig Time 
 LSTM.      11.30.00 04-Feb-20:  Log Start Time 
 MDCL.ppm             40000.00:  Mud Chlorides 
 MDES.     Inversion Oil/Synthetic:  Mud Desc 
 DFD .sg                  1.49:  Mud Density 
 MDMN.sg                  1.49:  Dens Mud Min 
 MDMX.sg                  1.49:  Dens Mud Max 
 MOIL.                      73:  Run Mud Oil % 
 MOWR.                   73:27:  Run Mud OWR 
 MSND.                     0.1:  Run Mud Sand % 
 MSOL.                    20.1:  Run Mud Solids% 
 DFV .spqt               78.00:  Mud Viscosity 
 MWOD.in                  8.00:  MWD Tool OD 
 MWSI.                      No:  Serv Intrp, MWD 
 OTIM.hr                177.15:  Time Operating 
 PCON.          Wear / Scratch:  Pad Condition 
 PMAX.psia            10493.93:  Press Op, Max 
 PV  .cP                 73.00:  Mud PV 
 RUN .                     700:  Run Number 
 ROPA.m/hr               15.00:  ROP Avg 
 ROPN.m/hr               10.00:  ROP Min 
 ROPX.m/hr               35.00:  ROP Max 
 RPMA.rpm               130.00:  RPM Surface Avg 
 RPMN.rpm                80.00:  RPM Surface Min 
 RPMX.rpm               150.00:  RPM Surface Max 
 RRUN.                    L402:  Rig Run Number 
 RTIM.hr                 80.50:  Time Reaming 
 SAZI.deg               155.55:  Azm, Start 
 SDEP.m                2036.00:  Start Depth 
 SIDD.                      No:  Serv Intrp, DD 
 SINC.deg                35.44:  Inc, Start 
 SPPA.psig             4270.00:  SPP Avg 
 SPPN.psig             2800.00:  SPP Min 
 SPPX.psig             4850.00:  SPP Max 
 STIM.      09.30.00 03-Feb-20:  Start Time 
 SVCS.                 DD, MWD:  Services 
 SVER.                    9.20:  Sperry Version 
 TDAT.m                1183.00:  Tot Depth Attmp 
 TDDF.                      No:  Trip for DD 
 TDLG.m                1183.00:  Tot Depth Loggd 
 TFF .                      No:  Trip for Fail 
 TQAA.f-kp               16.00:  Torque Abs Avg 
 TQAN.f-kp               10.00:  Torque Abs Min 
 TQAX.f-kp               20.00:  Torque Abs Max 
 TRRT.°/30m               1.00:  Turn Rotating 
 MRT .                  EWR-M5:  Maximum Recorded Temperature 
 TTMX.degC               80.39:  Max Tool Temp 
 VS01.               13098498 :  Virtual Str1 SN 
 VS02.                90569596:  Virtual Str2 SN 
 VS03.                90523599:  Virtual Str3 SN 
 VS04.                90573553:  Virtual Str4 SN 
 VS05.                90598598:  Virtual Str5 SN 
 VS06.                90577297:  Virtual Str6 SN 
 WBMN.klb                13.00:  WOB Min 
 WITN.         Alistair Sprott:  Customer Rep 
 WITN.           Rufat Babayev:  Customer Rep 2 
 WOBA.klb                15.00:  WOB Avg 
 WOBX.klb                20.00:  WOB Max 
 YP  .lhf2               39.00:  Yield Point 
~Curve Information Block
#MNEM.UNIT                 API CODE     Curve Description
#---------               -----------    ---------------------------
 TIME.HHMMSS            00 000 000 000:  GT Time & Date
 GTDEPTH.m              00 000 000 000:  GT Depth
 GTPQH.psia             00 000 000 000:  GT HR Quartz Pressure
 GTTQ.degC              00 000 000 000:  GT Quartz Temperature
 GTTN.NONE              00 000 000 000:  GT Test Number
 GTET.sec               00 000 000 000:  GT Elapsed Test Time
 GTTVD.m                00 000 000 000:  GT True Vertical Depth
#Other Information
#
#WARRANTY: Halliburton will use its best efforts to furnish customers with 
#accurate information and interpretations that are part of, and incident to, the services 
#provided.  However, Halliburton cannot and does not warrant the accuracy 
#or correctness of such information and interpretations.  Under no circumstances should any 
#such information or interpretation be relied upon as the sole basis for any drilling, 
#completion, production, or financial decision or any procedure involving any risk to the 
#safety of any drilling venture, drilling rig or its crew or any other third party.  The 
#Customer has full responsibility for all drilling, completion and production operation.  
#Halliburton makes no representations or warranties, either expressed or 
#implied, including, but not limited to, the implied warranties of merchantability or fitness 
#for a particular purpose, with respect to the services rendered.  In no event will 
#Halliburton be liable for failure to obtain any particular results or for 
#any damages, including, but not limited to, indirect, special or consequential damages, 
#resulting from the use of any information or interpretation provided by Halliburton.
#
~A           TIME           GTDEPTH  GTPQH  GTTQ  GTTN  GTET   GTTVD  
# ...
   08:22:20.533.08-Feb-2020 3134.51 4111.10 73.92 1.00 161.01 2647.81
   08:22:20.733.08-Feb-2020 3134.51 4111.10 73.92 1.00 161.21 2647.81
   08:22:20.933.08-Feb-2020 3134.51 3204.45 73.92 1.00 161.41 2647.81
   08:22:21.133.08-Feb-2020 3134.51 3006.77 73.92 1.00 161.61 2647.81
   08:22:21.333.08-Feb-2020 3134.51 2848.03 73.92 1.00 161.81 2647.81
   08:22:21.533.08-Feb-2020 3134.51 2712.33 73.92 1.00 162.01 2647.81
   08:22:21.733.08-Feb-2020 3134.51 2712.33 73.92 1.00 162.21 2647.81
   08:22:21.933.08-Feb-2020 3134.51 2479.99 73.91 1.00 162.41 2647.81
   08:22:22.133.08-Feb-2020 3134.51 2377.85 73.91 1.00 162.61 2647.81
   08:22:22.333.08-Feb-2020 3134.51 2285.17 73.91 1.00 162.81 2647.81
   08:22:22.533.08-Feb-2020 3134.51 2200.23 73.91 1.00 163.01 2647.81
   08:22:22.733.08-Feb-2020 3134.51 2200.23 73.91 1.00 163.21 2647.81
   08:22:22.933.08-Feb-2020 3134.51 2101.01 73.91 1.00 163.41 2647.81
   08:22:23.133.08-Feb-2020 3134.51 2071.03 73.90 1.00 163.61 2647.81
   08:22:23.333.08-Feb-2020 3134.51 2039.08 73.90 1.00 163.81 2647.81
   08:22:23.533.08-Feb-2020 3134.51 2015.95 73.90 1.00 164.01 2647.81
   08:22:23.733.08-Feb-2020 3134.51 2015.95 73.90 1.00 164.21 2647.81
   08:22:23.933.08-Feb-2020 3134.51 1949.93 73.89 1.00 164.41 2647.81
   08:22:24.133.08-Feb-2020 3134.51 1931.98 73.89 1.00 164.61 2647.81
   08:22:24.333.08-Feb-2020 3134.51 1900.78 73.89 1.00 164.81 2647.81
   08:22:24.533.08-Feb-2020 3134.51 1870.94 73.89 1.00 165.01 2647.81
   08:22:24.733.08-Feb-2020 3134.51 1870.94 73.89 1.00 165.21 2647.81
   08:22:24.933.08-Feb-2020 3134.51 1832.06 73.88 1.00 165.41 2647.81
   08:22:25.133.08-Feb-2020 3134.51 1799.06 73.88 1.00 165.61 2647.81
   08:22:25.333.08-Feb-2020 3134.51 1770.27 73.88 1.00 165.81 2647.81
   08:22:25.534.08-Feb-2020 3134.51 1747.71 73.87 1.00 166.01 2647.81
   08:22:25.734.08-Feb-2020 3134.51 1747.71 73.87 1.00 166.21 2647.81
   08:22:25.934.08-Feb-2020 3134.51 1716.57 73.87 1.00 166.41 2647.81
   08:22:26.134.08-Feb-2020 3134.51 1685.48 73.87 1.00 166.61 2647.81
   08:22:26.334.08-Feb-2020 3134.51 1663.27 73.86 1.00 166.81 2647.81
   08:22:26.534.08-Feb-2020 3134.51 1645.64 73.86 1.00 167.01 2647.81
   08:22:26.734.08-Feb-2020 3134.51 1645.64 73.86 1.00 167.21 2647.81
   08:22:26.934.08-Feb-2020 3134.51 1613.78 73.86 1.00 167.41 2647.81
   08:22:27.134.08-Feb-2020 3134.51 1594.50 73.85 1.00 167.61 2647.81
   08:22:27.334.08-Feb-2020 3134.51 1575.76 73.85 1.00 167.81 2647.81
   08:22:27.534.08-Feb-2020 3134.51 1559.77 73.85 1.00 168.01 2647.81
   08:22:27.734.08-Feb-2020 3134.51 1559.77 73.85 1.00 168.21 2647.81
   08:22:27.934.08-Feb-2020 3134.51 1525.60 73.85 1.00 168.41 2647.81
   08:22:28.134.08-Feb-2020 3134.51 1511.53 73.84 1.00 168.61 2647.81
   08:22:28.334.08-Feb-2020 3134.51 1492.56 73.84 1.00 168.81 2647.81
   08:22:28.534.08-Feb-2020 3134.51 1481.32 73.84 1.00 169.01 2647.81
   08:22:28.734.08-Feb-2020 3134.51 1481.32 73.84 1.00 169.21 2647.81
   08:22:28.934.08-Feb-2020 3134.51 1449.93 73.84 1.00 169.41 2647.81
   08:22:29.134.08-Feb-2020 3134.51 1443.89 73.83 1.00 169.61 2647.81
   08:22:29.334.08-Feb-2020 3134.51 1426.87 73.83 1.00 169.81 2647.81
   08:22:29.534.08-Feb-2020 3134.51 1414.16 73.83 1.00 170.01 2647.81
   08:22:29.734.08-Feb-2020 3134.51 1414.16 73.83 1.00 170.21 2647.81
   08:22:29.934.08-Feb-2020 3134.51 1386.10 73.83 1.00 170.41 2647.81
   08:22:30.134.08-Feb-2020 3134.51 1377.96 73.82 1.00 170.61 2647.81
   08:22:30.334.08-Feb-2020 3134.51 1365.31 73.82 1.00 170.81 2647.81
   08:22:30.534.08-Feb-2020 3134.51 1353.18 73.82 1.00 171.01 2647.81
   08:22:30.734.08-Feb-2020 3134.51 1353.18 73.82 1.00 171.21 2647.81
   08:22:30.934.08-Feb-2020 3134.51 1337.04 73.82 1.00 171.41 2647.81
   08:22:31.134.08-Feb-2020 3134.51 1546.58 73.82 1.00 171.61 2647.81
   08:22:31.334.08-Feb-2020 3134.51 1858.38 73.82 1.00 171.81 2647.81
   08:22:31.534.08-Feb-2020 3134.51 2122.83 73.81 1.00 172.01 2647.81
   08:22:31.734.08-Feb-2020 3134.51 2122.83 73.81 1.00 172.21 2647.81
   08:22:31.934.08-Feb-2020 3134.51 2555.69 73.81 1.00 172.41 2647.81
   08:22:32.134.08-Feb-2020 3134.51 2733.86 73.81 1.00 172.61 2647.81
   08:22:32.334.08-Feb-2020 3134.51 2892.24 73.81 1.00 172.81 2647.81
   08:22:32.534.08-Feb-2020 3134.51 3032.52 73.81 1.00 173.01 2647.81
   08:22:32.734.08-Feb-2020 3134.51 3032.52 73.81 1.00 173.21 2647.81
   08:22:32.934.08-Feb-2020 3134.51 3270.28 73.81 1.00 173.41 2647.81
   08:22:33.134.08-Feb-2020 3134.51 3371.51 73.81 1.00 173.61 2647.81
   08:22:33.334.08-Feb-2020 3134.51 3462.31 73.81 1.00 173.81 2647.81
   08:22:33.534.08-Feb-2020 3134.51 3544.82 73.81 1.00 174.01 2647.81
   08:22:33.734.08-Feb-2020 3134.51 3544.82 73.81 1.00 174.21 2647.81
   08:22:33.934.08-Feb-2020 3134.51 3687.37 73.81 1.00 174.41 2647.81
   08:22:34.134.08-Feb-2020 3134.51 3748.62 73.81 1.00 174.61 2647.81
   08:22:34.334.08-Feb-2020 3134.51 3804.67 73.81 1.00 174.81 2647.81
   08:22:34.534.08-Feb-2020 3134.51 3855.76 73.81 1.00 175.01 2647.81
   08:22:34.734.08-Feb-2020 3134.51 3855.76 73.81 1.00 175.21 2647.81
   08:22:34.934.08-Feb-2020 3134.51 3946.30 73.81 1.00 175.41 2647.81
   08:22:35.134.08-Feb-2020 3134.51 3985.92 73.81 1.00 175.61 2647.81
   08:22:35.334.08-Feb-2020 3134.51 4022.40 73.82 1.00 175.81 2647.81
   08:22:35.534.08-Feb-2020 3134.51 4056.25 73.82 1.00 176.01 2647.81
   08:22:35.734.08-Feb-2020 3134.51 4056.25 73.82 1.00 176.21 2647.81
   08:22:35.934.08-Feb-2020 3134.51 4115.90 73.82 1.00 176.41 2647.81
   08:22:36.134.08-Feb-2020 3134.51 4142.63 73.82 1.00 176.61 2647.81
   08:22:36.334.08-Feb-2020 3134.51 4167.07 73.82 1.00 176.81 2647.81
   08:22:36.534.08-Feb-2020 3134.51 4189.54 73.82 1.00 177.01 2647.81
   08:22:36.734.08-Feb-2020 3134.51 4189.54 73.82 1.00 177.21 2647.81
   08:22:36.934.08-Feb-2020 3134.51 4231.16 73.83 1.00 177.41 2647.81
   08:22:37.134.08-Feb-2020 3134.51 4231.16 73.83 1.00 177.61 2647.81
   08:22:37.335.08-Feb-2020 3134.51 4268.45 73.83 1.00 177.81 2647.81
   08:22:37.535.08-Feb-2020 3134.51 4284.54 73.83 1.00 178.01 2647.81
   08:22:37.735.08-Feb-2020 3134.51 4284.54 73.83 1.00 178.21 2647.81
   08:22:37.935.08-Feb-2020 3134.51 4313.92 73.83 1.00 178.41 2647.81
   08:22:38.135.08-Feb-2020 3134.51 4327.39 73.83 1.00 178.61 2647.81
   08:22:38.335.08-Feb-2020 3134.51 4340.22 73.83 1.00 178.81 2647.81
   08:22:38.535.08-Feb-2020 3134.51 4351.76 73.84 1.00 179.01 2647.81
   08:22:38.735.08-Feb-2020 3134.51 4351.76 73.84 1.00 179.22 2647.81
   08:22:38.935.08-Feb-2020 3134.51 4373.89 73.84 1.00 179.42 2647.81
   08:22:39.135.08-Feb-2020 3134.51 4383.74 73.84 1.00 179.62 2647.81
   08:22:39.335.08-Feb-2020 3134.51 4393.39 73.84 1.00 179.82 2647.81
   08:22:39.535.08-Feb-2020 3134.51 4402.91 73.84 1.00 180.02 2647.81
   08:22:39.735.08-Feb-2020 3134.51 4402.91 73.84 1.00 180.22 2647.81
   08:22:39.935.08-Feb-2020 3134.51 4420.08 73.84 1.00 180.42 2647.81
   08:22:40.135.08-Feb-2020 3134.51 4428.01 73.84 1.00 180.62 2647.81
   08:22:40.335.08-Feb-2020 3134.51 4435.69 73.85 1.00 180.82 2647.81
   08:22:40.535.08-Feb-2020 3134.51 4442.68 73.85 1.00 181.02 2647.81
   08:22:40.735.08-Feb-2020 3134.51 4442.68 73.85 1.00 181.22 2647.81
   08:22:40.935.08-Feb-2020 3134.51 4456.21 73.85 1.00 181.42 2647.81
   08:22:41.135.08-Feb-2020 3134.51 4462.85 73.85 1.00 181.62 2647.81
   08:22:41.335.08-Feb-2020 3134.51 4468.70 73.85 1.00 181.82 2647.81
   08:22:41.535.08-Feb-2020 3134.51 4474.29 73.85 1.00 182.02 2647.81
   08:22:41.735.08-Feb-2020 3134.51 4474.29 73.85 1.00 182.22 2647.81
   08:22:41.935.08-Feb-2020 3134.51 4485.54 73.85 1.00 182.42 2647.81
   08:22:42.135.08-Feb-2020 3134.51 4490.68 73.85 1.00 182.62 2647.81
   08:22:42.335.08-Feb-2020 3134.51 4495.84 73.85 1.00 182.82 2647.81
   08:22:42.535.08-Feb-2020 3134.51 4500.35 73.85 1.00 183.02 2647.81
   08:22:42.735.08-Feb-2020 3134.51 4500.35 73.85 1.00 183.22 2647.81
   08:22:42.935.08-Feb-2020 3134.51 4509.15 73.85 1.00 183.42 2647.81
   08:22:43.135.08-Feb-2020 3134.51 4513.32 73.85 1.00 183.62 2647.81
   08:22:43.335.08-Feb-2020 3134.51 4517.63 73.85 1.00 183.82 2647.81
