~Version Information
 VERS.                  2.0:   CWLS log ASCII Standard -VERSION 2.0
 WRAP.                   NO:   One line per depth step
~Well Information Block
#MNEM.UNIT     VALUE/NAME     DESCRIPTION
#---------     -----------    ---------------------------
 STRT.S             11:02:51 08-Feb-20: START TIME 11:02:51 08-Feb-20
 STOP.S             11:09:43 08-Feb-20: STOP TIME  11:09:43 08-Feb-20
 STEP.S                   0.00: STEP TIME
 NULL.                 -999.25: NULL VALUE
 DFWT.                        :  DIST FWL TEXT
 DFST.                        :  DIST FSL TEXT
 DMF .             Drill Floor:  DRILL MEAS FROM
 STIM.      07.00.00 09-Jan-20:  START TIME
 DATE.      14.04.48 07-Feb-20:  END TIME
 SPUD.               09-Jan-20:  SPUD DATE
 NREF.                    Grid:  NORTH REFERENCE
 HPTY.       Minimum Curvature:  HOLE POS TYPE
 DMOD.             Drill Model:  DRILL MOD DESC
 SVYD.                  Survey:  SURVEY DESC
 ILTD.               Lithology:  INTERP LTH DESC
 FTOP.          Formation Tops:  FORM TOPS DESC
 SON .        AZ-XX-0905059384:  JOB NUMBER
 MDS .        Operator Entered:  MAG DATA SOURCE
 WTYP.                Deviated:  WELL TYPE
 COMP.     BP Exploration (Caspian Sea) Ltd.:  COMPANY
 UWI .                     N/A:  UNIQUE WELL IDENTIFIER
 API .                     N/A:  API NUMBER
 BASE.              Azerbaijan:  LOGGING EQUIPMENT BASE LOCATION
 REGN.                   EESSA:  REGION
 PROV.                    Baku:  PROVINCE
 STAT.                    Baku:  STATE NAME
 CTRY.              Azerbaijan:  COUNTRY NAME
 FLD .                     ACG:  FIELD NAME
 SRVC.     TURAN Drilling & Engineering:  CONTRACTOR
 MWDS.                    Baku:  MWD SHOP
 WELL.                     J22:  WELL NAME
 RIG .             West Chirag:  RIG NAME
 DOE .                     N/A:  DOE NUMBER
 DCON.         Sperry Drilling:  DIRECTNL CONTR
 UNIT.                     N/A:  LOGGING EQUIPMENT ID
 PDAT.          Mean Sea Level:  PERMANENT DATUM
 JOBN.        AZ-XX-0905059384:  JOB TICKET NUMB
 CNTY.                        :  COUNTY
 LOC .                        :  LOCATION
 LMF .             Drill Floor:  LOG MEASURED FROM
 TVDS.m                  43.00:  TVDSS CORRECTN
 LATI.deg                40.13:  LATITUDE
 LONG.deg                51.22:  LONGITUDE
 WHNS.m                  10.28:  WELL HEAD N/S
 WHEW.m                  -6.24:  WELL HEAD E/W
 UTMX.m              519005.06:  UTM X
 UTMY.m             4443793.85:  UTM Y
 DFWL.m                   0.00:  DISTANCE FWL
 DFSL.m                   0.00:  DISTANCE FSL
 SDEP.m                 362.00:  START DEPTH
 TDD .m                 904.00:  TOTAL DEPTH (DRILLER)
 VSDR.deg               148.53:  VERT SEC DIRECT
 GVFD.g                   1.00:  GRAVITY FIELD
 MFLD.nT              50277.00:  MAGNETIC FIELD
 MDIP.deg                59.56:  MAGNETIC DIP
 MDEC.deg                 6.42:  MAGNETIC DECL
 GRDC.deg                 0.15:  GRID CORRECTION
 AZTC.deg                 6.27:  AZM TOTAL CORR
 EPD .m                   0.00:  ELEVATION
 EGL .m                   0.00:  GROUND ELEVATION
 WDMS.m                 169.80:  WD ELEV
 APD .m                  43.00:  DEPTH ABOVE PD
 AGAP.m                  43.00:  AIR GAP
 VSEW.m                  -6.24:  VERT SEC E/W
 VSNS.m                  10.28:  VERT SEC N/S
 DEP .m                   0.00:  DEPTH
 EKB .m                   0.00:  KB ELEVATION
 EDF .m                  43.00:  DF ELEVATION
 TDL .m                1183.00:  TOTAL DEPTH (LOGGER)
 VSC .                       0:  VS TO CLOSURE
 MAGU.                 1850021:  MAGUTM CHECKSUM
~Parameter Information Block
#MNEM.UNIT       Value        Description
#---------     -----------    ---------------------------
 AV  .mps                 4.00:  Ann Velocity 
 AVMX.mps                 4.50:  Max Ann Veloc 
 AZIF.deg               145.38:  Azm, Final 
 BHAT.        Rotary Steerable:  BHA Type 
 BROT.°/30m               3.00:  Build Rotating 
 BS  .in                 12.25:  Bit Size 
 BSZ .in                 12.25:  Bit Size 
 BTPL.psig              650.00:  Bit Press Loss 
 CABU.                      No:  Customer Abuse 
 COMM.                     Ä%€:  Run Comments 1 
 TCS .hr                101.62:  Time Ciculation Ended 
 CV  .mps                 5.00:  Crit Velocity 
 CVMX.mps                 5.00:  Max Crit Veloc 
 DD1 .             Aziz Aliyev:  Direct Drillr 1 
 DD2 .      Fakhraddin Guliyev:  Direct Drillr 2 
 DDSV.                 iCruise:  DD Service 
 DEFF.%                  97.00:  % Det Eff 
 DLRX.°/30m               4.16:  Dogleg Rot Max 
 DLSO.°/30m               3.20:  Dogleg Oriented 
 DLSX.°/30m               4.10:  Dogleg Str Max 
 DRET.      23.12.00 07-Feb-20:  Drill End Time 
 DRST.      11.30.00 04-Feb-20:  Drill Start Tim 
 DTIM.hr                 61.06:  Time Drilling 
 EDEP.m                3219.01:  End Depth 
 ENG1.         Almaz Almadatov:  Engineer 1 
 ENG2.         Dair Mahammadov:  Engineer 2 
 ENG3.          Nazrin Asgarli:  Engineer 3 
 ETIM.      02.30.00 11-Feb-20:  End Time 
 FLOI.gpm              1100.00:  Flow In 
 FLON.gpm               900.00:  Flow In Min 
 FLOS.cptm               55.00:  Fluid Loss 
 FLOX.gpm              1150.00:  Flow In Max 
 FTRO.       Formation Presure:  FTWD Run Obj 
 HFLO.                      No:  High Flow 
 HPRE.                      No:  High Pressure 
 HTEM.                      No:  High Temp 
 HYDO.m                   1.80:  Hydro Offset 
 IFIN.deg                75.11:  Inc, Final 
 IMAX.deg                75.11:  Inc Max 
 IMIN.deg                33.55:  Inc Min 
 IMND.m                2186.05:  Inc Min Depth 
 IMXD.m                3205.61:  Inc Max Depth 
 JARR.                      No:  Jarring 
 LETM.      23.12.00 07-Feb-20:  Log End Time 
 LOST.hr                     0:  Lost Rig Time 
 LSTM.      11.30.00 04-Feb-20:  Log Start Time 
 MDCL.ppm             40000.00:  Mud Chlorides 
 MDES.     Inversion Oil/Synthetic:  Mud Desc 
 DFD .sg                  1.49:  Mud Density 
 MDMN.sg                  1.49:  Dens Mud Min 
 MDMX.sg                  1.49:  Dens Mud Max 
 MOIL.                      73:  Run Mud Oil % 
 MOWR.                   73:27:  Run Mud OWR 
 MSND.                     0.1:  Run Mud Sand % 
 MSOL.                    20.1:  Run Mud Solids% 
 DFV .spqt               78.00:  Mud Viscosity 
 MWOD.in                  8.00:  MWD Tool OD 
 MWSI.                      No:  Serv Intrp, MWD 
 OTIM.hr                177.15:  Time Operating 
 PCON.          Wear / Scratch:  Pad Condition 
 PMAX.psia            10493.93:  Press Op, Max 
 PV  .cP                 73.00:  Mud PV 
 RUN .                     700:  Run Number 
 ROPA.m/hr               15.00:  ROP Avg 
 ROPN.m/hr               10.00:  ROP Min 
 ROPX.m/hr               35.00:  ROP Max 
 RPMA.rpm               130.00:  RPM Surface Avg 
 RPMN.rpm                80.00:  RPM Surface Min 
 RPMX.rpm               150.00:  RPM Surface Max 
 RRUN.                    L402:  Rig Run Number 
 RTIM.hr                 80.50:  Time Reaming 
 SAZI.deg               155.55:  Azm, Start 
 SDEP.m                2036.00:  Start Depth 
 SIDD.                      No:  Serv Intrp, DD 
 SINC.deg                35.44:  Inc, Start 
 SPPA.psig             4270.00:  SPP Avg 
 SPPN.psig             2800.00:  SPP Min 
 SPPX.psig             4850.00:  SPP Max 
 STIM.      09.30.00 03-Feb-20:  Start Time 
 SVCS.                 DD, MWD:  Services 
 SVER.                    9.20:  Sperry Version 
 TDAT.m                1183.00:  Tot Depth Attmp 
 TDDF.                      No:  Trip for DD 
 TDLG.m                1183.00:  Tot Depth Loggd 
 TFF .                      No:  Trip for Fail 
 TQAA.f-kp               16.00:  Torque Abs Avg 
 TQAN.f-kp               10.00:  Torque Abs Min 
 TQAX.f-kp               20.00:  Torque Abs Max 
 TRRT.°/30m               1.00:  Turn Rotating 
 MRT .                  EWR-M5:  Maximum Recorded Temperature 
 TTMX.degC               80.39:  Max Tool Temp 
 VS01.               13098498 :  Virtual Str1 SN 
 VS02.                90569596:  Virtual Str2 SN 
 VS03.                90523599:  Virtual Str3 SN 
 VS04.                90573553:  Virtual Str4 SN 
 VS05.                90598598:  Virtual Str5 SN 
 VS06.                90577297:  Virtual Str6 SN 
 WBMN.klb                13.00:  WOB Min 
 WITN.         Alistair Sprott:  Customer Rep 
 WITN.           Rufat Babayev:  Customer Rep 2 
 WOBA.klb                15.00:  WOB Avg 
 WOBX.klb                20.00:  WOB Max 
 YP  .lhf2               39.00:  Yield Point 
~Curve Information Block
#MNEM.UNIT                 API CODE     Curve Description
#---------               -----------    ---------------------------
 TIME.HHMMSS            00 000 000 000:  GT Time & Date
 GTDEPTH.m              00 000 000 000:  GT Depth
 GTPQH.psia             00 000 000 000:  GT HR Quartz Pressure
 GTTQ.degC              00 000 000 000:  GT Quartz Temperature
 GTTN.NONE              00 000 000 000:  GT Test Number
 GTET.sec               00 000 000 000:  GT Elapsed Test Time
 GTTVD.m                00 000 000 000:  GT True Vertical Depth
#Other Information
#
#WARRANTY: Halliburton will use its best efforts to furnish customers with 
#accurate information and interpretations that are part of, and incident to, the services 
#provided.  However, Halliburton cannot and does not warrant the accuracy 
#or correctness of such information and interpretations.  Under no circumstances should any 
#such information or interpretation be relied upon as the sole basis for any drilling, 
#completion, production, or financial decision or any procedure involving any risk to the 
#safety of any drilling venture, drilling rig or its crew or any other third party.  The 
#Customer has full responsibility for all drilling, completion and production operation.  
#Halliburton makes no representations or warranties, either expressed or 
#implied, including, but not limited to, the implied warranties of merchantability or fitness 
#for a particular purpose, with respect to the services rendered.  In no event will 
#Halliburton be liable for failure to obtain any particular results or for 
#any damages, including, but not limited to, indirect, special or consequential damages, 
#resulting from the use of any information or interpretation provided by Halliburton.
#
~A           TIME           GTDEPTH  GTPQH  GTTQ  GTTN  GTET   GTTVD  
# ...
   11:05:09.513.08-Feb-2020 3115.78 4586.74 67.18 6.00 138.07 2642.62
   11:05:09.714.08-Feb-2020 3115.78 4586.74 67.18 6.00 138.27 2642.62
   11:05:09.914.08-Feb-2020 3115.78 4584.85 67.18 6.00 138.47 2642.62
   11:05:10.114.08-Feb-2020 3115.78 4585.86 67.18 6.00 138.67 2642.62
   11:05:10.314.08-Feb-2020 3115.78 4585.12 67.18 6.00 138.87 2642.62
   11:05:10.514.08-Feb-2020 3115.78 4585.28 67.18 6.00 139.07 2642.62
   11:05:10.714.08-Feb-2020 3115.78 4585.28 67.18 6.00 139.27 2642.62
   11:05:10.914.08-Feb-2020 3115.78 4585.46 67.18 6.00 139.47 2642.62
   11:05:11.114.08-Feb-2020 3115.78 4585.51 67.17 6.00 139.67 2642.62
   11:05:11.314.08-Feb-2020 3115.78 4585.70 67.17 6.00 139.87 2642.62
   11:05:11.515.08-Feb-2020 3115.78 4585.49 67.17 6.00 140.07 2642.62
   11:05:11.715.08-Feb-2020 3115.78 4585.49 67.17 6.00 140.27 2642.62
   11:05:11.915.08-Feb-2020 3115.78 4585.18 67.17 6.00 140.47 2642.62
   11:05:12.115.08-Feb-2020 3115.78 4585.21 67.17 6.00 140.67 2642.62
   11:05:12.315.08-Feb-2020 3115.78 4587.00 67.17 6.00 140.87 2642.62
   11:05:12.515.08-Feb-2020 3115.78 4585.64 67.17 6.00 141.07 2642.62
   11:05:12.715.08-Feb-2020 3115.78 4585.64 67.17 6.00 141.27 2642.62
   11:05:12.915.08-Feb-2020 3115.78 4585.46 67.17 6.00 141.47 2642.62
   11:05:13.115.08-Feb-2020 3115.78 4585.22 67.17 6.00 141.67 2642.62
   11:05:13.315.08-Feb-2020 3115.78 4584.25 67.17 6.00 141.87 2642.62
   11:05:13.516.08-Feb-2020 3115.78 4584.06 67.17 6.00 142.07 2642.62
   11:05:13.716.08-Feb-2020 3115.78 4584.06 67.17 6.00 142.27 2642.62
   11:05:13.916.08-Feb-2020 3115.78 4584.03 67.17 6.00 142.47 2642.62
   11:05:14.116.08-Feb-2020 3115.78 4585.10 67.17 6.00 142.67 2642.62
   11:05:14.316.08-Feb-2020 3115.78 4583.08 67.17 6.00 142.87 2642.62
   11:05:14.516.08-Feb-2020 3115.78 4583.53 67.17 6.00 143.07 2642.62
   11:05:14.716.08-Feb-2020 3115.78 4583.53 67.17 6.00 143.27 2642.62
   11:05:14.916.08-Feb-2020 3115.78 4583.89 67.17 6.00 143.47 2642.62
   11:05:15.116.08-Feb-2020 3115.78 4583.82 67.17 6.00 143.68 2642.62
   11:05:15.317.08-Feb-2020 3115.78 4584.98 67.17 6.00 143.88 2642.62
   11:05:15.517.08-Feb-2020 3115.78 4584.85 67.17 6.00 144.08 2642.62
   11:05:15.717.08-Feb-2020 3115.78 4584.85 67.17 6.00 144.28 2642.62
   11:05:15.917.08-Feb-2020 3115.78 4583.94 67.17 6.00 144.48 2642.62
   11:05:16.117.08-Feb-2020 3115.78 4585.89 67.17 6.00 144.68 2642.62
   11:05:16.317.08-Feb-2020 3115.78 4585.65 67.17 6.00 144.88 2642.62
   11:05:16.517.08-Feb-2020 3115.78 4585.63 67.17 6.00 145.08 2642.62
   11:05:16.717.08-Feb-2020 3115.78 4585.63 67.17 6.00 145.28 2642.62
   11:05:16.917.08-Feb-2020 3115.78 4586.53 67.17 6.00 145.48 2642.62
   11:05:17.117.08-Feb-2020 3115.78 4586.57 67.17 6.00 145.68 2642.62
   11:05:17.318.08-Feb-2020 3115.78 4584.80 67.17 6.00 145.88 2642.62
   11:05:17.518.08-Feb-2020 3115.78 4586.27 67.17 6.00 146.08 2642.62
   11:05:17.718.08-Feb-2020 3115.78 4586.27 67.17 6.00 146.28 2642.62
   11:05:17.918.08-Feb-2020 3115.78 4585.25 67.16 6.00 146.48 2642.62
   11:05:18.118.08-Feb-2020 3115.78 4585.36 67.16 6.00 146.68 2642.62
   11:05:18.318.08-Feb-2020 3115.78 4585.61 67.16 6.00 146.88 2642.62
   11:05:18.518.08-Feb-2020 3115.78 4585.67 67.16 6.00 147.08 2642.62
   11:05:18.718.08-Feb-2020 3115.78 4585.67 67.16 6.00 147.28 2642.62
   11:05:18.918.08-Feb-2020 3115.78 4585.18 67.16 6.00 147.48 2642.62
   11:05:19.119.08-Feb-2020 3115.78 4585.25 67.16 6.00 147.68 2642.62
   11:05:19.319.08-Feb-2020 3115.78 4585.31 67.16 6.00 147.88 2642.62
   11:05:19.519.08-Feb-2020 3115.78 4584.71 67.16 6.00 148.08 2642.62
   11:05:19.719.08-Feb-2020 3115.78 4584.71 67.16 6.00 148.28 2642.62
   11:05:19.919.08-Feb-2020 3115.78 4586.81 67.16 6.00 148.48 2642.62
   11:05:20.119.08-Feb-2020 3115.78 4586.15 67.16 6.00 148.68 2642.62
   11:05:20.319.08-Feb-2020 3115.78 4585.99 67.16 6.00 148.88 2642.62
   11:05:20.519.08-Feb-2020 3115.78 4586.17 67.16 6.00 149.08 2642.62
   11:05:20.719.08-Feb-2020 3115.78 4586.17 67.16 6.00 149.28 2642.62
   11:05:20.919.08-Feb-2020 3115.78 4585.74 67.16 6.00 149.48 2642.62
   11:05:21.120.08-Feb-2020 3115.78 4585.64 67.16 6.00 149.68 2642.62
   11:05:21.320.08-Feb-2020 3115.78 4585.51 67.16 6.00 149.88 2642.62
   11:05:21.520.08-Feb-2020 3115.78 4585.59 67.16 6.00 150.08 2642.62
   11:05:21.720.08-Feb-2020 3115.78 4585.59 67.16 6.00 150.28 2642.62
   11:05:21.920.08-Feb-2020 3115.78 4585.87 67.16 6.00 150.48 2642.62
   11:05:22.120.08-Feb-2020 3115.78 4585.89 67.16 6.00 150.68 2642.62
   11:05:22.320.08-Feb-2020 3115.78 4585.43 67.16 6.00 150.88 2642.62
   11:05:22.520.08-Feb-2020 3115.78 4585.42 67.16 6.00 151.08 2642.62
   11:05:22.720.08-Feb-2020 3115.78 4585.42 67.16 6.00 151.28 2642.62
   11:05:22.920.08-Feb-2020 3115.78 4585.52 67.16 6.00 151.48 2642.62
   11:05:23.121.08-Feb-2020 3115.78 4586.75 67.16 6.00 151.68 2642.62
   11:05:23.321.08-Feb-2020 3115.78 4583.81 67.16 6.00 151.88 2642.62
   11:05:23.521.08-Feb-2020 3115.78 4584.66 67.16 6.00 152.08 2642.62
   11:05:23.721.08-Feb-2020 3115.78 4584.66 67.16 6.00 152.28 2642.62
   11:05:23.921.08-Feb-2020 3115.78 4585.75 67.16 6.00 152.48 2642.62
   11:05:24.121.08-Feb-2020 3115.78 4582.00 67.16 6.00 152.68 2642.62
   11:05:24.321.08-Feb-2020 3115.78 4583.78 67.16 6.00 152.88 2642.62
   11:05:24.521.08-Feb-2020 3115.78 4585.22 67.16 6.00 153.08 2642.62
   11:05:24.721.08-Feb-2020 3115.78 4585.22 67.16 6.00 153.28 2642.62
   11:05:24.922.08-Feb-2020 3115.78 4583.55 67.15 6.00 153.48 2642.62
   11:05:25.122.08-Feb-2020 3115.78 4584.92 67.15 6.00 153.68 2642.62
   11:05:25.322.08-Feb-2020 3115.78 4585.28 67.15 6.00 153.88 2642.62
   11:05:25.522.08-Feb-2020 3115.78 4584.79 67.15 6.00 154.08 2642.62
   11:05:25.722.08-Feb-2020 3115.78 4584.79 67.15 6.00 154.28 2642.62
   11:05:25.922.08-Feb-2020 3115.78 4585.24 67.15 6.00 154.48 2642.62
   11:05:26.122.08-Feb-2020 3115.78 4585.10 67.15 6.00 154.68 2642.62
   11:05:26.322.08-Feb-2020 3115.78 4584.90 67.15 6.00 154.88 2642.62
   11:05:26.522.08-Feb-2020 3115.78 4585.00 67.15 6.00 155.08 2642.62
   11:05:26.722.08-Feb-2020 3115.78 4585.00 67.15 6.00 155.28 2642.62
   11:05:26.923.08-Feb-2020 3115.78 4585.30 67.15 6.00 155.48 2642.62
   11:05:27.123.08-Feb-2020 3115.78 4583.87 67.15 6.00 155.68 2642.62
   11:05:27.323.08-Feb-2020 3115.78 4585.37 67.15 6.00 155.88 2642.62
   11:05:27.523.08-Feb-2020 3115.78 4585.75 67.15 6.00 156.08 2642.62
   11:05:27.723.08-Feb-2020 3115.78 4585.23 67.15 6.00 156.28 2642.62
   11:05:27.923.08-Feb-2020 3115.78 4585.15 67.15 6.00 156.48 2642.62
   11:05:28.123.08-Feb-2020 3115.78 4585.40 67.15 6.00 156.68 2642.62
   11:05:28.323.08-Feb-2020 3115.78 4585.37 67.15 6.00 156.88 2642.62
   11:05:28.523.08-Feb-2020 3115.78 4585.02 67.15 6.00 157.08 2642.62
   11:05:28.724.08-Feb-2020 3115.78 4585.02 67.15 6.00 157.28 2642.62
   11:05:28.924.08-Feb-2020 3115.78 4584.82 67.15 6.00 157.48 2642.62
   11:05:29.124.08-Feb-2020 3115.78 4583.25 67.15 6.00 157.68 2642.62
   11:05:29.324.08-Feb-2020 3115.78 4584.01 67.15 6.00 157.88 2642.62
   11:05:29.524.08-Feb-2020 3115.78 4583.36 67.15 6.00 158.08 2642.62
   11:05:29.724.08-Feb-2020 3115.78 4583.36 67.15 6.00 158.28 2642.62
   11:05:29.924.08-Feb-2020 3115.78 4583.21 67.15 6.00 158.48 2642.62
   11:05:30.124.08-Feb-2020 3115.78 4583.35 67.15 6.00 158.68 2642.62
   11:05:30.324.08-Feb-2020 3115.78 4583.71 67.15 6.00 158.88 2642.62
   11:05:30.524.08-Feb-2020 3115.78 4585.06 67.15 6.00 159.08 2642.62
   11:05:30.725.08-Feb-2020 3115.78 4585.06 67.15 6.00 159.28 2642.62
   11:05:30.925.08-Feb-2020 3115.78 4584.58 67.15 6.00 159.48 2642.62
   11:05:31.125.08-Feb-2020 3115.78 4584.26 67.15 6.00 159.68 2642.62
   11:05:31.325.08-Feb-2020 3115.78 4586.31 67.15 6.00 159.88 2642.62
   11:05:31.525.08-Feb-2020 3115.78 4582.90 67.15 6.00 160.08 2642.62
   11:05:31.725.08-Feb-2020 3115.78 4582.90 67.15 6.00 160.28 2642.62
   11:05:31.925.08-Feb-2020 3115.78 4584.48 67.14 6.00 160.48 2642.62
   11:05:32.125.08-Feb-2020 3115.78 4584.99 67.14 6.00 160.68 2642.62
   11:05:32.325.08-Feb-2020 3115.78 4585.85 67.14 6.00 160.88 2642.62
