~Version Information
 VERS.                  2.0:   CWLS log ASCII Standard -VERSION 2.0
 WRAP.                   NO:   One line per depth step
~Well Information Block
#MNEM.UNIT     VALUE/NAME     DESCRIPTION
#---------     -----------    ---------------------------
 STRT.S             09:08:12 08-Feb-20: START TIME 09:08:12 08-Feb-20
 STOP.S             09:14:54 08-Feb-20: STOP TIME  09:14:54 08-Feb-20
 STEP.S                   0.00: STEP TIME
 NULL.                 -999.25: NULL VALUE
 DFWT.                        :  DIST FWL TEXT
 DFST.                        :  DIST FSL TEXT
 DMF .             Drill Floor:  DRILL MEAS FROM
 STIM.      07.00.00 09-Jan-20:  START TIME
 DATE.      14.04.48 07-Feb-20:  END TIME
 SPUD.               09-Jan-20:  SPUD DATE
 NREF.                    Grid:  NORTH REFERENCE
 HPTY.       Minimum Curvature:  HOLE POS TYPE
 DMOD.             Drill Model:  DRILL MOD DESC
 SVYD.                  Survey:  SURVEY DESC
 ILTD.               Lithology:  INTERP LTH DESC
 FTOP.          Formation Tops:  FORM TOPS DESC
 SON .        AZ-XX-0905059384:  JOB NUMBER
 MDS .        Operator Entered:  MAG DATA SOURCE
 WTYP.                Deviated:  WELL TYPE
 COMP.     BP Exploration (Caspian Sea) Ltd.:  COMPANY
 UWI .                     N/A:  UNIQUE WELL IDENTIFIER
 API .                     N/A:  API NUMBER
 BASE.              Azerbaijan:  LOGGING EQUIPMENT BASE LOCATION
 REGN.                   EESSA:  REGION
 PROV.                    Baku:  PROVINCE
 STAT.                    Baku:  STATE NAME
 CTRY.              Azerbaijan:  COUNTRY NAME
 FLD .                     ACG:  FIELD NAME
 SRVC.     TURAN Drilling & Engineering:  CONTRACTOR
 MWDS.                    Baku:  MWD SHOP
 WELL.                     J22:  WELL NAME
 RIG .             West Chirag:  RIG NAME
 DOE .                     N/A:  DOE NUMBER
 DCON.         Sperry Drilling:  DIRECTNL CONTR
 UNIT.                     N/A:  LOGGING EQUIPMENT ID
 PDAT.          Mean Sea Level:  PERMANENT DATUM
 JOBN.        AZ-XX-0905059384:  JOB TICKET NUMB
 CNTY.                        :  COUNTY
 LOC .                        :  LOCATION
 LMF .             Drill Floor:  LOG MEASURED FROM
 TVDS.m                  43.00:  TVDSS CORRECTN
 LATI.deg                40.13:  LATITUDE
 LONG.deg                51.22:  LONGITUDE
 WHNS.m                  10.28:  WELL HEAD N/S
 WHEW.m                  -6.24:  WELL HEAD E/W
 UTMX.m              519005.06:  UTM X
 UTMY.m             4443793.85:  UTM Y
 DFWL.m                   0.00:  DISTANCE FWL
 DFSL.m                   0.00:  DISTANCE FSL
 SDEP.m                 362.00:  START DEPTH
 TDD .m                 904.00:  TOTAL DEPTH (DRILLER)
 VSDR.deg               148.53:  VERT SEC DIRECT
 GVFD.g                   1.00:  GRAVITY FIELD
 MFLD.nT              50277.00:  MAGNETIC FIELD
 MDIP.deg                59.56:  MAGNETIC DIP
 MDEC.deg                 6.42:  MAGNETIC DECL
 GRDC.deg                 0.15:  GRID CORRECTION
 AZTC.deg                 6.27:  AZM TOTAL CORR
 EPD .m                   0.00:  ELEVATION
 EGL .m                   0.00:  GROUND ELEVATION
 WDMS.m                 169.80:  WD ELEV
 APD .m                  43.00:  DEPTH ABOVE PD
 AGAP.m                  43.00:  AIR GAP
 VSEW.m                  -6.24:  VERT SEC E/W
 VSNS.m                  10.28:  VERT SEC N/S
 DEP .m                   0.00:  DEPTH
 EKB .m                   0.00:  KB ELEVATION
 EDF .m                  43.00:  DF ELEVATION
 TDL .m                1183.00:  TOTAL DEPTH (LOGGER)
 VSC .                       0:  VS TO CLOSURE
 MAGU.                 1850021:  MAGUTM CHECKSUM
~Parameter Information Block
#MNEM.UNIT       Value        Description
#---------     -----------    ---------------------------
 AV  .mps                 4.00:  Ann Velocity 
 AVMX.mps                 4.50:  Max Ann Veloc 
 AZIF.deg               145.38:  Azm, Final 
 BHAT.        Rotary Steerable:  BHA Type 
 BROT.°/30m               3.00:  Build Rotating 
 BS  .in                 12.25:  Bit Size 
 BSZ .in                 12.25:  Bit Size 
 BTPL.psig              650.00:  Bit Press Loss 
 CABU.                      No:  Customer Abuse 
 COMM.                     T!k:  Run Comments 1 
 TCS .hr                101.62:  Time Ciculation Ended 
 CV  .mps                 5.00:  Crit Velocity 
 CVMX.mps                 5.00:  Max Crit Veloc 
 DD1 .             Aziz Aliyev:  Direct Drillr 1 
 DD2 .      Fakhraddin Guliyev:  Direct Drillr 2 
 DDSV.                 iCruise:  DD Service 
 DEFF.%                  97.00:  % Det Eff 
 DLRX.°/30m               4.16:  Dogleg Rot Max 
 DLSO.°/30m               3.20:  Dogleg Oriented 
 DLSX.°/30m               4.10:  Dogleg Str Max 
 DRET.      23.12.00 07-Feb-20:  Drill End Time 
 DRST.      11.30.00 04-Feb-20:  Drill Start Tim 
 DTIM.hr                 61.06:  Time Drilling 
 EDEP.m                3219.01:  End Depth 
 ENG1.         Almaz Almadatov:  Engineer 1 
 ENG2.         Dair Mahammadov:  Engineer 2 
 ENG3.          Nazrin Asgarli:  Engineer 3 
 ETIM.      02.30.00 11-Feb-20:  End Time 
 FLOI.gpm              1100.00:  Flow In 
 FLON.gpm               900.00:  Flow In Min 
 FLOS.cptm               55.00:  Fluid Loss 
 FLOX.gpm              1150.00:  Flow In Max 
 FTRO.       Formation Presure:  FTWD Run Obj 
 HFLO.                      No:  High Flow 
 HPRE.                      No:  High Pressure 
 HTEM.                      No:  High Temp 
 HYDO.m                   1.80:  Hydro Offset 
 IFIN.deg                75.11:  Inc, Final 
 IMAX.deg                75.11:  Inc Max 
 IMIN.deg                33.55:  Inc Min 
 IMND.m                2186.05:  Inc Min Depth 
 IMXD.m                3205.61:  Inc Max Depth 
 JARR.                      No:  Jarring 
 LETM.      23.12.00 07-Feb-20:  Log End Time 
 LOST.hr                     0:  Lost Rig Time 
 LSTM.      11.30.00 04-Feb-20:  Log Start Time 
 MDCL.ppm             40000.00:  Mud Chlorides 
 MDES.     Inversion Oil/Synthetic:  Mud Desc 
 DFD .sg                  1.49:  Mud Density 
 MDMN.sg                  1.49:  Dens Mud Min 
 MDMX.sg                  1.49:  Dens Mud Max 
 MOIL.                      73:  Run Mud Oil % 
 MOWR.                   73:27:  Run Mud OWR 
 MSND.                     0.1:  Run Mud Sand % 
 MSOL.                    20.1:  Run Mud Solids% 
 DFV .spqt               78.00:  Mud Viscosity 
 MWOD.in                  8.00:  MWD Tool OD 
 MWSI.                      No:  Serv Intrp, MWD 
 OTIM.hr                177.15:  Time Operating 
 PCON.          Wear / Scratch:  Pad Condition 
 PMAX.psia            10493.93:  Press Op, Max 
 PV  .cP                 73.00:  Mud PV 
 RUN .                     700:  Run Number 
 ROPA.m/hr               15.00:  ROP Avg 
 ROPN.m/hr               10.00:  ROP Min 
 ROPX.m/hr               35.00:  ROP Max 
 RPMA.rpm               130.00:  RPM Surface Avg 
 RPMN.rpm                80.00:  RPM Surface Min 
 RPMX.rpm               150.00:  RPM Surface Max 
 RRUN.                    L402:  Rig Run Number 
 RTIM.hr                 80.50:  Time Reaming 
 SAZI.deg               155.55:  Azm, Start 
 SDEP.m                2036.00:  Start Depth 
 SIDD.                      No:  Serv Intrp, DD 
 SINC.deg                35.44:  Inc, Start 
 SPPA.psig             4270.00:  SPP Avg 
 SPPN.psig             2800.00:  SPP Min 
 SPPX.psig             4850.00:  SPP Max 
 STIM.      09.30.00 03-Feb-20:  Start Time 
 SVCS.                 DD, MWD:  Services 
 SVER.                    9.20:  Sperry Version 
 TDAT.m                1183.00:  Tot Depth Attmp 
 TDDF.                      No:  Trip for DD 
 TDLG.m                1183.00:  Tot Depth Loggd 
 TFF .                      No:  Trip for Fail 
 TQAA.f-kp               16.00:  Torque Abs Avg 
 TQAN.f-kp               10.00:  Torque Abs Min 
 TQAX.f-kp               20.00:  Torque Abs Max 
 TRRT.°/30m               1.00:  Turn Rotating 
 MRT .                  EWR-M5:  Maximum Recorded Temperature 
 TTMX.degC               80.39:  Max Tool Temp 
 VS01.               13098498 :  Virtual Str1 SN 
 VS02.                90569596:  Virtual Str2 SN 
 VS03.                90523599:  Virtual Str3 SN 
 VS04.                90573553:  Virtual Str4 SN 
 VS05.                90598598:  Virtual Str5 SN 
 VS06.                90577297:  Virtual Str6 SN 
 WBMN.klb                13.00:  WOB Min 
 WITN.         Alistair Sprott:  Customer Rep 
 WITN.           Rufat Babayev:  Customer Rep 2 
 WOBA.klb                15.00:  WOB Avg 
 WOBX.klb                20.00:  WOB Max 
 YP  .lhf2               39.00:  Yield Point 
~Curve Information Block
#MNEM.UNIT                 API CODE     Curve Description
#---------               -----------    ---------------------------
 TIME.HHMMSS            00 000 000 000:  GT Time & Date
 GTDEPTH.m              00 000 000 000:  GT Depth
 GTPQH.psia             00 000 000 000:  GT HR Quartz Pressure
 GTTQ.degC              00 000 000 000:  GT Quartz Temperature
 GTTN.NONE              00 000 000 000:  GT Test Number
 GTET.sec               00 000 000 000:  GT Elapsed Test Time
 GTTVD.m                00 000 000 000:  GT True Vertical Depth
#Other Information
#
#WARRANTY: Halliburton will use its best efforts to furnish customers with 
#accurate information and interpretations that are part of, and incident to, the services 
#provided.  However, Halliburton cannot and does not warrant the accuracy 
#or correctness of such information and interpretations.  Under no circumstances should any 
#such information or interpretation be relied upon as the sole basis for any drilling, 
#completion, production, or financial decision or any procedure involving any risk to the 
#safety of any drilling venture, drilling rig or its crew or any other third party.  The 
#Customer has full responsibility for all drilling, completion and production operation.  
#Halliburton makes no representations or warranties, either expressed or 
#implied, including, but not limited to, the implied warranties of merchantability or fitness 
#for a particular purpose, with respect to the services rendered.  In no event will 
#Halliburton be liable for failure to obtain any particular results or for 
#any damages, including, but not limited to, indirect, special or consequential damages, 
#resulting from the use of any information or interpretation provided by Halliburton.
#
~A           TIME           GTDEPTH  GTPQH  GTTQ  GTTN  GTET   GTTVD  
# ...
   09:10:53.777.08-Feb-2020 3153.21 4319.23 69.86 3.00 161.01 2652.75
   09:10:53.977.08-Feb-2020 3153.21 4319.23 69.86 3.00 161.21 2652.75
   09:10:54.177.08-Feb-2020 3153.21 4321.13 69.86 3.00 161.41 2652.75
   09:10:54.377.08-Feb-2020 3153.21 4320.94 69.86 3.00 161.61 2652.75
   09:10:54.577.08-Feb-2020 3153.21 4322.19 69.86 3.00 161.81 2652.75
   09:10:54.777.08-Feb-2020 3153.21 4323.38 69.86 3.00 162.01 2652.75
   09:10:54.977.08-Feb-2020 3153.21 4323.38 69.86 3.00 162.21 2652.75
   09:10:55.177.08-Feb-2020 3153.21 4324.24 69.86 3.00 162.41 2652.75
   09:10:55.377.08-Feb-2020 3153.21 4327.35 69.86 3.00 162.61 2652.75
   09:10:55.577.08-Feb-2020 3153.21 4323.97 69.86 3.00 162.81 2652.75
   09:10:55.777.08-Feb-2020 3153.21 4326.63 69.86 3.00 163.01 2652.75
   09:10:55.977.08-Feb-2020 3153.21 4326.63 69.86 3.00 163.21 2652.75
   09:10:56.177.08-Feb-2020 3153.21 4329.76 69.86 3.00 163.41 2652.75
   09:10:56.377.08-Feb-2020 3153.21 4328.94 69.86 3.00 163.61 2652.75
   09:10:56.577.08-Feb-2020 3153.21 4328.68 69.86 3.00 163.81 2652.75
   09:10:56.777.08-Feb-2020 3153.21 4330.46 69.86 3.00 164.01 2652.75
   09:10:56.977.08-Feb-2020 3153.21 4330.46 69.86 3.00 164.21 2652.75
   09:10:57.177.08-Feb-2020 3153.21 4333.06 69.86 3.00 164.41 2652.75
   09:10:57.377.08-Feb-2020 3153.21 4331.58 69.85 3.00 164.61 2652.75
   09:10:57.577.08-Feb-2020 3153.21 4334.80 69.85 3.00 164.81 2652.75
   09:10:57.777.08-Feb-2020 3153.21 4336.40 69.85 3.00 165.01 2652.75
   09:10:57.977.08-Feb-2020 3153.21 4336.40 69.85 3.00 165.21 2652.75
   09:10:58.178.08-Feb-2020 3153.21 4338.88 69.85 3.00 165.41 2652.75
   09:10:58.378.08-Feb-2020 3153.21 4339.90 69.85 3.00 165.61 2652.75
   09:10:58.578.08-Feb-2020 3153.21 4339.19 69.85 3.00 165.81 2652.75
   09:10:58.778.08-Feb-2020 3153.21 4339.15 69.85 3.00 166.01 2652.75
   09:10:58.978.08-Feb-2020 3153.21 4339.15 69.85 3.00 166.21 2652.75
   09:10:59.178.08-Feb-2020 3153.21 4339.68 69.85 3.00 166.41 2652.75
   09:10:59.378.08-Feb-2020 3153.21 4338.63 69.85 3.00 166.61 2652.75
   09:10:59.578.08-Feb-2020 3153.21 4340.15 69.85 3.00 166.81 2652.75
   09:10:59.778.08-Feb-2020 3153.21 4342.47 69.85 3.00 167.01 2652.75
   09:10:59.978.08-Feb-2020 3153.21 4342.47 69.85 3.00 167.21 2652.75
   09:11:00.178.08-Feb-2020 3153.21 4345.26 69.85 3.00 167.41 2652.75
   09:11:00.378.08-Feb-2020 3153.21 4533.59 69.85 3.00 167.61 2652.75
   09:11:00.578.08-Feb-2020 3153.21 4704.51 69.85 3.00 167.81 2652.75
   09:11:00.778.08-Feb-2020 3153.21 4769.64 69.85 3.00 168.01 2652.75
   09:11:00.978.08-Feb-2020 3153.21 4769.64 69.85 3.00 168.21 2652.75
   09:11:01.178.08-Feb-2020 3153.21 4808.01 69.85 3.00 168.41 2652.75
   09:11:01.378.08-Feb-2020 3153.21 4813.23 69.85 3.00 168.61 2652.75
   09:11:01.578.08-Feb-2020 3153.21 4816.00 69.85 3.00 168.81 2652.75
   09:11:01.778.08-Feb-2020 3153.21 4817.26 69.85 3.00 169.01 2652.75
   09:11:01.978.08-Feb-2020 3153.21 4817.26 69.85 3.00 169.21 2652.75
   09:11:02.178.08-Feb-2020 3153.21 4819.04 69.85 3.00 169.41 2652.75
   09:11:02.378.08-Feb-2020 3153.21 4817.81 69.85 3.00 169.61 2652.75
   09:11:02.578.08-Feb-2020 3153.21 4818.44 69.85 3.00 169.81 2652.75
   09:11:02.778.08-Feb-2020 3153.21 4820.44 69.85 3.00 170.01 2652.75
   09:11:02.978.08-Feb-2020 3153.21 4820.44 69.85 3.00 170.21 2652.75
   09:11:03.178.08-Feb-2020 3153.21 4819.59 69.85 3.00 170.41 2652.75
   09:11:03.378.08-Feb-2020 3153.21 4820.33 69.85 3.00 170.61 2652.75
   09:11:03.578.08-Feb-2020 3153.21 4820.60 69.85 3.00 170.81 2652.75
   09:11:03.778.08-Feb-2020 3153.21 4820.35 69.85 3.00 171.01 2652.75
   09:11:03.978.08-Feb-2020 3153.21 4820.35 69.85 3.00 171.21 2652.75
   09:11:04.178.08-Feb-2020 3153.21 4820.47 69.85 3.00 171.41 2652.75
   09:11:04.378.08-Feb-2020 3153.21 4821.10 69.85 3.00 171.61 2652.75
   09:11:04.578.08-Feb-2020 3153.21 4821.36 69.86 3.00 171.81 2652.75
   09:11:04.778.08-Feb-2020 3153.21 4820.56 69.86 3.00 172.01 2652.75
   09:11:04.978.08-Feb-2020 3153.21 4820.56 69.86 3.00 172.21 2652.75
   09:11:05.178.08-Feb-2020 3153.21 4821.09 69.86 3.00 172.41 2652.75
   09:11:05.378.08-Feb-2020 3153.21 4821.38 69.86 3.00 172.61 2652.75
   09:11:05.578.08-Feb-2020 3153.21 4821.72 69.86 3.00 172.81 2652.75
   09:11:05.778.08-Feb-2020 3153.21 4821.90 69.86 3.00 173.01 2652.75
   09:11:05.978.08-Feb-2020 3153.21 4821.90 69.86 3.00 173.21 2652.75
   09:11:06.178.08-Feb-2020 3153.21 4821.79 69.86 3.00 173.41 2652.75
   09:11:06.378.08-Feb-2020 3153.21 4822.02 69.86 3.00 173.61 2652.75
   09:11:06.578.08-Feb-2020 3153.21 4821.61 69.86 3.00 173.81 2652.75
   09:11:06.778.08-Feb-2020 3153.21 4821.98 69.86 3.00 174.01 2652.75
   09:11:06.978.08-Feb-2020 3153.21 4821.98 69.86 3.00 174.21 2652.75
   09:11:07.178.08-Feb-2020 3153.21 4821.67 69.86 3.00 174.41 2652.75
   09:11:07.378.08-Feb-2020 3153.21 4821.99 69.86 3.00 174.61 2652.75
   09:11:07.578.08-Feb-2020 3153.21 4821.97 69.86 3.00 174.81 2652.75
   09:11:07.778.08-Feb-2020 3153.21 4822.50 69.86 3.00 175.01 2652.75
   09:11:07.978.08-Feb-2020 3153.21 4822.50 69.86 3.00 175.21 2652.75
   09:11:08.178.08-Feb-2020 3153.21 4822.01 69.86 3.00 175.41 2652.75
   09:11:08.378.08-Feb-2020 3153.21 4822.01 69.86 3.00 175.61 2652.75
   09:11:08.578.08-Feb-2020 3153.21 4822.34 69.86 3.00 175.81 2652.75
   09:11:08.778.08-Feb-2020 3153.21 4822.14 69.86 3.00 176.01 2652.75
   09:11:08.978.08-Feb-2020 3153.21 4822.14 69.86 3.00 176.21 2652.75
   09:11:09.178.08-Feb-2020 3153.21 4822.24 69.86 3.00 176.41 2652.75
   09:11:09.378.08-Feb-2020 3153.21 4822.06 69.86 3.00 176.61 2652.75
   09:11:09.578.08-Feb-2020 3153.21 4822.02 69.86 3.00 176.81 2652.75
   09:11:09.778.08-Feb-2020 3153.21 4822.35 69.86 3.00 177.01 2652.75
   09:11:09.979.08-Feb-2020 3153.21 4822.35 69.86 3.00 177.21 2652.75
   09:11:10.179.08-Feb-2020 3153.21 4821.75 69.86 3.00 177.41 2652.75
   09:11:10.379.08-Feb-2020 3153.21 4822.91 69.86 3.00 177.61 2652.75
   09:11:10.579.08-Feb-2020 3153.21 4821.70 69.86 3.00 177.81 2652.75
   09:11:10.779.08-Feb-2020 3153.21 4821.57 69.86 3.00 178.01 2652.75
   09:11:10.979.08-Feb-2020 3153.21 4821.57 69.86 3.00 178.21 2652.75
   09:11:11.179.08-Feb-2020 3153.21 4822.18 69.86 3.00 178.41 2652.75
   09:11:11.379.08-Feb-2020 3153.21 4822.37 69.86 3.00 178.61 2652.75
   09:11:11.579.08-Feb-2020 3153.21 4822.61 69.86 3.00 178.81 2652.75
   09:11:11.779.08-Feb-2020 3153.21 4821.79 69.86 3.00 179.01 2652.75
   09:11:11.979.08-Feb-2020 3153.21 4821.79 69.86 3.00 179.22 2652.75
   09:11:12.179.08-Feb-2020 3153.21 4822.50 69.86 3.00 179.42 2652.75
   09:11:12.379.08-Feb-2020 3153.21 4821.36 69.86 3.00 179.62 2652.75
   09:11:12.579.08-Feb-2020 3153.21 4822.54 69.86 3.00 179.82 2652.75
   09:11:12.779.08-Feb-2020 3153.21 4823.34 69.86 3.00 180.02 2652.75
   09:11:12.979.08-Feb-2020 3153.21 4823.34 69.86 3.00 180.22 2652.75
   09:11:13.179.08-Feb-2020 3153.21 4822.32 69.86 3.00 180.42 2652.75
   09:11:13.379.08-Feb-2020 3153.21 4822.67 69.86 3.00 180.62 2652.75
   09:11:13.579.08-Feb-2020 3153.21 4822.26 69.86 3.00 180.82 2652.75
   09:11:13.779.08-Feb-2020 3153.21 4822.48 69.86 3.00 181.02 2652.75
   09:11:13.979.08-Feb-2020 3153.21 4822.48 69.86 3.00 181.22 2652.75
   09:11:14.179.08-Feb-2020 3153.21 4822.42 69.86 3.00 181.42 2652.75
   09:11:14.379.08-Feb-2020 3153.21 4822.46 69.86 3.00 181.62 2652.75
   09:11:14.579.08-Feb-2020 3153.21 4822.54 69.86 3.00 181.82 2652.75
   09:11:14.779.08-Feb-2020 3153.21 4822.47 69.86 3.00 182.02 2652.75
   09:11:14.979.08-Feb-2020 3153.21 4822.47 69.86 3.00 182.22 2652.75
   09:11:15.179.08-Feb-2020 3153.21 4822.75 69.86 3.00 182.42 2652.75
   09:11:15.379.08-Feb-2020 3153.21 4822.32 69.86 3.00 182.62 2652.75
   09:11:15.579.08-Feb-2020 3153.21 4821.94 69.86 3.00 182.82 2652.75
   09:11:15.779.08-Feb-2020 3153.21 4822.87 69.86 3.00 183.02 2652.75
   09:11:15.979.08-Feb-2020 3153.21 4822.87 69.86 3.00 183.22 2652.75
   09:11:16.179.08-Feb-2020 3153.21 4822.63 69.86 3.00 183.42 2652.75
   09:11:16.379.08-Feb-2020 3153.21 4822.71 69.86 3.00 183.62 2652.75
   09:11:16.579.08-Feb-2020 3153.21 4822.45 69.86 3.00 183.82 2652.75
