~Version Information
 VERS.                  2.0:   CWLS log ASCII Standard -VERSION 2.0
 WRAP.                   NO:   One line per depth step
~Well Information Block
#MNEM.UNIT     VALUE/NAME     DESCRIPTION
#---------     -----------    ---------------------------
 STRT.S             09:27:25 08-Feb-20: START TIME 09:27:25 08-Feb-20
 STOP.S             09:34:14 08-Feb-20: STOP TIME  09:34:14 08-Feb-20
 STEP.S                   0.00: STEP TIME
 NULL.                 -999.25: NULL VALUE
 DFWT.                        :  DIST FWL TEXT
 DFST.                        :  DIST FSL TEXT
 DMF .             Drill Floor:  DRILL MEAS FROM
 STIM.      07.00.00 09-Jan-20:  START TIME
 DATE.      14.04.48 07-Feb-20:  END TIME
 SPUD.               09-Jan-20:  SPUD DATE
 NREF.                    Grid:  NORTH REFERENCE
 HPTY.       Minimum Curvature:  HOLE POS TYPE
 DMOD.             Drill Model:  DRILL MOD DESC
 SVYD.                  Survey:  SURVEY DESC
 ILTD.               Lithology:  INTERP LTH DESC
 FTOP.          Formation Tops:  FORM TOPS DESC
 SON .        AZ-XX-0905059384:  JOB NUMBER
 MDS .        Operator Entered:  MAG DATA SOURCE
 WTYP.                Deviated:  WELL TYPE
 COMP.     BP Exploration (Caspian Sea) Ltd.:  COMPANY
 UWI .                     N/A:  UNIQUE WELL IDENTIFIER
 API .                     N/A:  API NUMBER
 BASE.              Azerbaijan:  LOGGING EQUIPMENT BASE LOCATION
 REGN.                   EESSA:  REGION
 PROV.                    Baku:  PROVINCE
 STAT.                    Baku:  STATE NAME
 CTRY.              Azerbaijan:  COUNTRY NAME
 FLD .                     ACG:  FIELD NAME
 SRVC.     TURAN Drilling & Engineering:  CONTRACTOR
 MWDS.                    Baku:  MWD SHOP
 WELL.                     J22:  WELL NAME
 RIG .             West Chirag:  RIG NAME
 DOE .                     N/A:  DOE NUMBER
 DCON.         Sperry Drilling:  DIRECTNL CONTR
 UNIT.                     N/A:  LOGGING EQUIPMENT ID
 PDAT.          Mean Sea Level:  PERMANENT DATUM
 JOBN.        AZ-XX-0905059384:  JOB TICKET NUMB
 CNTY.                        :  COUNTY
 LOC .                        :  LOCATION
 LMF .             Drill Floor:  LOG MEASURED FROM
 TVDS.m                  43.00:  TVDSS CORRECTN
 LATI.deg                40.13:  LATITUDE
 LONG.deg                51.22:  LONGITUDE
 WHNS.m                  10.28:  WELL HEAD N/S
 WHEW.m                  -6.24:  WELL HEAD E/W
 UTMX.m              519005.06:  UTM X
 UTMY.m             4443793.85:  UTM Y
 DFWL.m                   0.00:  DISTANCE FWL
 DFSL.m                   0.00:  DISTANCE FSL
 SDEP.m                 362.00:  START DEPTH
 TDD .m                 904.00:  TOTAL DEPTH (DRILLER)
 VSDR.deg               148.53:  VERT SEC DIRECT
 GVFD.g                   1.00:  GRAVITY FIELD
 MFLD.nT              50277.00:  MAGNETIC FIELD
 MDIP.deg                59.56:  MAGNETIC DIP
 MDEC.deg                 6.42:  MAGNETIC DECL
 GRDC.deg                 0.15:  GRID CORRECTION
 AZTC.deg                 6.27:  AZM TOTAL CORR
 EPD .m                   0.00:  ELEVATION
 EGL .m                   0.00:  GROUND ELEVATION
 WDMS.m                 169.80:  WD ELEV
 APD .m                  43.00:  DEPTH ABOVE PD
 AGAP.m                  43.00:  AIR GAP
 VSEW.m                  -6.24:  VERT SEC E/W
 VSNS.m                  10.28:  VERT SEC N/S
 DEP .m                   0.00:  DEPTH
 EKB .m                   0.00:  KB ELEVATION
 EDF .m                  43.00:  DF ELEVATION
 TDL .m                1183.00:  TOTAL DEPTH (LOGGER)
 VSC .                       0:  VS TO CLOSURE
 MAGU.                 1850021:  MAGUTM CHECKSUM
~Parameter Information Block
#MNEM.UNIT       Value        Description
#---------     -----------    ---------------------------
 AV  .mps                 4.00:  Ann Velocity 
 AVMX.mps                 4.50:  Max Ann Veloc 
 AZIF.deg               145.38:  Azm, Final 
 BHAT.        Rotary Steerable:  BHA Type 
 BROT.∞/30m               3.00:  Build Rotating 
 BS  .in                 12.25:  Bit Size 
 BSZ .in                 12.25:  Bit Size 
 BTPL.psig              650.00:  Bit Press Loss 
 CABU.                      No:  Customer Abuse 
 COMM.                     $ÊW:  Run Comments 1 
 TCS .hr                101.62:  Time Ciculation Ended 
 CV  .mps                 5.00:  Crit Velocity 
 CVMX.mps                 5.00:  Max Crit Veloc 
 DD1 .             Aziz Aliyev:  Direct Drillr 1 
 DD2 .      Fakhraddin Guliyev:  Direct Drillr 2 
 DDSV.                 iCruise:  DD Service 
 DEFF.%                  97.00:  % Det Eff 
 DLRX.∞/30m               4.16:  Dogleg Rot Max 
 DLSO.∞/30m               3.20:  Dogleg Oriented 
 DLSX.∞/30m               4.10:  Dogleg Str Max 
 DRET.      23.12.00 07-Feb-20:  Drill End Time 
 DRST.      11.30.00 04-Feb-20:  Drill Start Tim 
 DTIM.hr                 61.06:  Time Drilling 
 EDEP.m                3219.01:  End Depth 
 ENG1.         Almaz Almadatov:  Engineer 1 
 ENG2.         Dair Mahammadov:  Engineer 2 
 ENG3.          Nazrin Asgarli:  Engineer 3 
 ETIM.      02.30.00 11-Feb-20:  End Time 
 FLOI.gpm              1100.00:  Flow In 
 FLON.gpm               900.00:  Flow In Min 
 FLOS.cptm               55.00:  Fluid Loss 
 FLOX.gpm              1150.00:  Flow In Max 
 FTRO.       Formation Presure:  FTWD Run Obj 
 HFLO.                      No:  High Flow 
 HPRE.                      No:  High Pressure 
 HTEM.                      No:  High Temp 
 HYDO.m                   1.80:  Hydro Offset 
 IFIN.deg                75.11:  Inc, Final 
 IMAX.deg                75.11:  Inc Max 
 IMIN.deg                33.55:  Inc Min 
 IMND.m                2186.05:  Inc Min Depth 
 IMXD.m                3205.61:  Inc Max Depth 
 JARR.                      No:  Jarring 
 LETM.      23.12.00 07-Feb-20:  Log End Time 
 LOST.hr                     0:  Lost Rig Time 
 LSTM.      11.30.00 04-Feb-20:  Log Start Time 
 MDCL.ppm             40000.00:  Mud Chlorides 
 MDES.     Inversion Oil/Synthetic:  Mud Desc 
 DFD .sg                  1.49:  Mud Density 
 MDMN.sg                  1.49:  Dens Mud Min 
 MDMX.sg                  1.49:  Dens Mud Max 
 MOIL.                      73:  Run Mud Oil % 
 MOWR.                   73:27:  Run Mud OWR 
 MSND.                     0.1:  Run Mud Sand % 
 MSOL.                    20.1:  Run Mud Solids% 
 DFV .spqt               78.00:  Mud Viscosity 
 MWOD.in                  8.00:  MWD Tool OD 
 MWSI.                      No:  Serv Intrp, MWD 
 OTIM.hr                177.15:  Time Operating 
 PCON.          Wear / Scratch:  Pad Condition 
 PMAX.psia            10493.93:  Press Op, Max 
 PV  .cP                 73.00:  Mud PV 
 RUN .                     700:  Run Number 
 ROPA.m/hr               15.00:  ROP Avg 
 ROPN.m/hr               10.00:  ROP Min 
 ROPX.m/hr               35.00:  ROP Max 
 RPMA.rpm               130.00:  RPM Surface Avg 
 RPMN.rpm                80.00:  RPM Surface Min 
 RPMX.rpm               150.00:  RPM Surface Max 
 RRUN.                    L402:  Rig Run Number 
 RTIM.hr                 80.50:  Time Reaming 
 SAZI.deg               155.55:  Azm, Start 
 SDEP.m                2036.00:  Start Depth 
 SIDD.                      No:  Serv Intrp, DD 
 SINC.deg                35.44:  Inc, Start 
 SPPA.psig             4270.00:  SPP Avg 
 SPPN.psig             2800.00:  SPP Min 
 SPPX.psig             4850.00:  SPP Max 
 STIM.      09.30.00 03-Feb-20:  Start Time 
 SVCS.                 DD, MWD:  Services 
 SVER.                    9.20:  Sperry Version 
 TDAT.m                1183.00:  Tot Depth Attmp 
 TDDF.                      No:  Trip for DD 
 TDLG.m                1183.00:  Tot Depth Loggd 
 TFF .                      No:  Trip for Fail 
 TQAA.f-kp               16.00:  Torque Abs Avg 
 TQAN.f-kp               10.00:  Torque Abs Min 
 TQAX.f-kp               20.00:  Torque Abs Max 
 TRRT.∞/30m               1.00:  Turn Rotating 
 MRT .                  EWR-M5:  Maximum Recorded Temperature 
 TTMX.degC               80.39:  Max Tool Temp 
 VS01.               13098498 :  Virtual Str1 SN 
 VS02.                90569596:  Virtual Str2 SN 
 VS03.                90523599:  Virtual Str3 SN 
 VS04.                90573553:  Virtual Str4 SN 
 VS05.                90598598:  Virtual Str5 SN 
 VS06.                90577297:  Virtual Str6 SN 
 WBMN.klb                13.00:  WOB Min 
 WITN.         Alistair Sprott:  Customer Rep 
 WITN.           Rufat Babayev:  Customer Rep 2 
 WOBA.klb                15.00:  WOB Avg 
 WOBX.klb                20.00:  WOB Max 
 YP  .lhf2               39.00:  Yield Point 
~Curve Information Block
#MNEM.UNIT                 API CODE     Curve Description
#---------               -----------    ---------------------------
 TIME.HHMMSS            00 000 000 000:  GT Time & Date
 GTDEPTH.m              00 000 000 000:  GT Depth
 GTPQH.psia             00 000 000 000:  GT HR Quartz Pressure
 GTTQ.degC              00 000 000 000:  GT Quartz Temperature
 GTTN.NONE              00 000 000 000:  GT Test Number
 GTET.sec               00 000 000 000:  GT Elapsed Test Time
 GTTVD.m                00 000 000 000:  GT True Vertical Depth
#Other Information
#
#WARRANTY: Halliburton will use its best efforts to furnish customers with 
#accurate information and interpretations that are part of, and incident to, the services 
#provided.  However, Halliburton cannot and does not warrant the accuracy 
#or correctness of such information and interpretations.  Under no circumstances should any 
#such information or interpretation be relied upon as the sole basis for any drilling, 
#completion, production, or financial decision or any procedure involving any risk to the 
#safety of any drilling venture, drilling rig or its crew or any other third party.  The 
#Customer has full responsibility for all drilling, completion and production operation.  
#Halliburton makes no representations or warranties, either expressed or 
#implied, including, but not limited to, the implied warranties of merchantability or fitness 
#for a particular purpose, with respect to the services rendered.  In no event will 
#Halliburton be liable for failure to obtain any particular results or for 
#any damages, including, but not limited to, indirect, special or consequential damages, 
#resulting from the use of any information or interpretation provided by Halliburton.
#
~A           TIME           GTDEPTH  GTPQH  GTTQ  GTTN  GTET   GTTVD  
# ...
   09:33:10.889.08-Feb-2020 3135.01 4727.65 69.10 4.00 345.03 2647.94
   09:33:11.089.08-Feb-2020 3135.01 4727.65 69.10 4.00 345.23 2647.94
   09:33:11.289.08-Feb-2020 3135.01 4727.15 69.10 4.00 345.43 2647.94
   09:33:11.489.08-Feb-2020 3135.01 4728.23 69.10 4.00 345.63 2647.94
   09:33:11.689.08-Feb-2020 3135.01 4728.80 69.10 4.00 345.83 2647.94
   09:33:11.889.08-Feb-2020 3135.01 4728.34 69.10 4.00 346.03 2647.94
   09:33:12.089.08-Feb-2020 3135.01 4728.34 69.10 4.00 346.23 2647.94
   09:33:12.289.08-Feb-2020 3135.01 4727.81 69.10 4.00 346.43 2647.94
   09:33:12.489.08-Feb-2020 3135.01 4728.37 69.10 4.00 346.63 2647.94
   09:33:12.689.08-Feb-2020 3135.01 4728.63 69.10 4.00 346.83 2647.94
   09:33:12.889.08-Feb-2020 3135.01 4727.78 69.10 4.00 347.03 2647.94
   09:33:13.089.08-Feb-2020 3135.01 4727.78 69.10 4.00 347.23 2647.94
   09:33:13.289.08-Feb-2020 3135.01 4727.74 69.10 4.00 347.43 2647.94
   09:33:13.489.08-Feb-2020 3135.01 4728.68 69.10 4.00 347.63 2647.94
   09:33:13.689.08-Feb-2020 3135.01 4727.68 69.10 4.00 347.83 2647.94
   09:33:13.889.08-Feb-2020 3135.01 4728.47 69.10 4.00 348.03 2647.94
   09:33:14.089.08-Feb-2020 3135.01 4728.47 69.10 4.00 348.23 2647.94
   09:33:14.289.08-Feb-2020 3135.01 4727.86 69.10 4.00 348.43 2647.94
   09:33:14.489.08-Feb-2020 3135.01 4728.27 69.10 4.00 348.63 2647.94
   09:33:14.689.08-Feb-2020 3135.01 4728.28 69.10 4.00 348.83 2647.94
   09:33:14.889.08-Feb-2020 3135.01 4727.95 69.10 4.00 349.03 2647.94
   09:33:15.090.08-Feb-2020 3135.01 4727.95 69.10 4.00 349.23 2647.94
   09:33:15.290.08-Feb-2020 3135.01 4728.03 69.10 4.00 349.43 2647.94
   09:33:15.490.08-Feb-2020 3135.01 4727.94 69.10 4.00 349.63 2647.94
   09:33:15.690.08-Feb-2020 3135.01 4729.31 69.10 4.00 349.83 2647.94
   09:33:15.890.08-Feb-2020 3135.01 4727.53 69.10 4.00 350.03 2647.94
   09:33:16.090.08-Feb-2020 3135.01 4727.53 69.10 4.00 350.23 2647.94
   09:33:16.290.08-Feb-2020 3135.01 4728.24 69.10 4.00 350.43 2647.94
   09:33:16.490.08-Feb-2020 3135.01 4728.10 69.10 4.00 350.63 2647.94
   09:33:16.690.08-Feb-2020 3135.01 4727.89 69.10 4.00 350.83 2647.94
   09:33:16.890.08-Feb-2020 3135.01 4728.27 69.10 4.00 351.03 2647.94
   09:33:17.090.08-Feb-2020 3135.01 4728.27 69.10 4.00 351.23 2647.94
   09:33:17.290.08-Feb-2020 3135.01 4727.92 69.10 4.00 351.43 2647.94
   09:33:17.490.08-Feb-2020 3135.01 4728.13 69.10 4.00 351.63 2647.94
   09:33:17.690.08-Feb-2020 3135.01 4727.96 69.10 4.00 351.83 2647.94
   09:33:17.890.08-Feb-2020 3135.01 4727.55 69.10 4.00 352.03 2647.94
   09:33:18.090.08-Feb-2020 3135.01 4727.55 69.10 4.00 352.23 2647.94
   09:33:18.290.08-Feb-2020 3135.01 4727.91 69.10 4.00 352.43 2647.94
   09:33:18.490.08-Feb-2020 3135.01 4727.99 69.10 4.00 352.63 2647.94
   09:33:18.690.08-Feb-2020 3135.01 4728.96 69.10 4.00 352.83 2647.94
   09:33:18.890.08-Feb-2020 3135.01 4727.96 69.10 4.00 353.03 2647.94
   09:33:19.090.08-Feb-2020 3135.01 4727.96 69.10 4.00 353.23 2647.94
   09:33:19.290.08-Feb-2020 3135.01 4728.04 69.10 4.00 353.43 2647.94
   09:33:19.490.08-Feb-2020 3135.01 4728.27 69.09 4.00 353.63 2647.94
   09:33:19.690.08-Feb-2020 3135.01 4728.09 69.10 4.00 353.83 2647.94
   09:33:19.890.08-Feb-2020 3135.01 4727.86 69.09 4.00 354.03 2647.94
   09:33:20.090.08-Feb-2020 3135.01 4727.86 69.09 4.00 354.23 2647.94
   09:33:20.290.08-Feb-2020 3135.01 4727.86 69.09 4.00 354.43 2647.94
   09:33:20.490.08-Feb-2020 3135.01 4728.37 69.09 4.00 354.63 2647.94
   09:33:20.690.08-Feb-2020 3135.01 4728.11 69.09 4.00 354.83 2647.94
   09:33:20.890.08-Feb-2020 3135.01 4727.93 69.09 4.00 355.03 2647.94
   09:33:21.090.08-Feb-2020 3135.01 4727.93 69.09 4.00 355.23 2647.94
   09:33:21.290.08-Feb-2020 3135.01 4727.71 69.09 4.00 355.43 2647.94
   09:33:21.490.08-Feb-2020 3135.01 4728.03 69.09 4.00 355.63 2647.94
   09:33:21.690.08-Feb-2020 3135.01 4728.40 69.09 4.00 355.83 2647.94
   09:33:21.890.08-Feb-2020 3135.01 4728.06 69.09 4.00 356.03 2647.94
   09:33:22.090.08-Feb-2020 3135.01 4728.06 69.09 4.00 356.23 2647.94
   09:33:22.290.08-Feb-2020 3135.01 4728.13 69.09 4.00 356.43 2647.94
   09:33:22.490.08-Feb-2020 3135.01 4727.94 69.09 4.00 356.63 2647.94
   09:33:22.690.08-Feb-2020 3135.01 4727.96 69.09 4.00 356.83 2647.94
   09:33:22.890.08-Feb-2020 3135.01 4728.09 69.09 4.00 357.03 2647.94
   09:33:23.090.08-Feb-2020 3135.01 4728.09 69.09 4.00 357.23 2647.94
   09:33:23.290.08-Feb-2020 3135.01 4728.88 69.09 4.00 357.43 2647.94
   09:33:23.490.08-Feb-2020 3135.01 4728.47 69.09 4.00 357.63 2647.94
   09:33:23.690.08-Feb-2020 3135.01 4727.91 69.09 4.00 357.83 2647.94
   09:33:23.890.08-Feb-2020 3135.01 4728.29 69.09 4.00 358.03 2647.94
   09:33:24.090.08-Feb-2020 3135.01 4728.29 69.09 4.00 358.23 2647.94
   09:33:24.290.08-Feb-2020 3135.01 4727.90 69.09 4.00 358.43 2647.94
   09:33:24.490.08-Feb-2020 3135.01 4728.02 69.09 4.00 358.63 2647.94
   09:33:24.690.08-Feb-2020 3135.01 4728.12 69.09 4.00 358.83 2647.94
   09:33:24.890.08-Feb-2020 3135.01 4727.95 69.09 4.00 359.03 2647.94
   09:33:25.090.08-Feb-2020 3135.01 4727.95 69.09 4.00 359.23 2647.94
   09:33:25.290.08-Feb-2020 3135.01 4727.96 69.09 4.00 359.43 2647.94
   09:33:25.490.08-Feb-2020 3135.01 4727.50 69.09 4.00 359.63 2647.94
   09:33:25.690.08-Feb-2020 3135.01 4729.18 69.09 4.00 359.83 2647.94
   09:33:25.890.08-Feb-2020 3135.01 4727.46 69.09 4.00 360.03 2647.94
   09:33:26.090.08-Feb-2020 3135.01 4727.46 69.09 4.00 360.23 2647.94
   09:33:26.290.08-Feb-2020 3135.01 4728.28 69.09 4.00 360.43 2647.94
   09:33:26.490.08-Feb-2020 3135.01 4728.50 69.09 4.00 360.63 2647.94
   09:33:26.690.08-Feb-2020 3135.01 4728.65 69.09 4.00 360.83 2647.94
   09:33:26.891.08-Feb-2020 3135.01 4727.69 69.09 4.00 361.03 2647.94
   09:33:27.091.08-Feb-2020 3135.01 4727.69 69.09 4.00 361.23 2647.94
   09:33:27.291.08-Feb-2020 3135.01 4728.21 69.09 4.00 361.43 2647.94
   09:33:27.491.08-Feb-2020 3135.01 4727.65 69.09 4.00 361.63 2647.94
   09:33:27.691.08-Feb-2020 3135.01 4728.31 69.09 4.00 361.83 2647.94
   09:33:27.891.08-Feb-2020 3135.01 4727.60 69.09 4.00 362.03 2647.94
   09:33:28.091.08-Feb-2020 3135.01 4727.60 69.09 4.00 362.23 2647.94
   09:33:28.291.08-Feb-2020 3135.01 4727.41 69.09 4.00 362.43 2647.94
   09:33:28.491.08-Feb-2020 3135.01 4727.69 69.09 4.00 362.63 2647.94
   09:33:28.691.08-Feb-2020 3135.01 4728.46 69.09 4.00 362.83 2647.94
   09:33:28.891.08-Feb-2020 3135.01 4728.19 69.09 4.00 363.03 2647.94
   09:33:29.091.08-Feb-2020 3135.01 4728.19 69.09 4.00 363.23 2647.94
   09:33:29.291.08-Feb-2020 3135.01 4728.29 69.09 4.00 363.43 2647.94
   09:33:29.491.08-Feb-2020 3135.01 4728.15 69.09 4.00 363.63 2647.94
   09:33:29.691.08-Feb-2020 3135.01 4727.95 69.09 4.00 363.83 2647.94
   09:33:29.891.08-Feb-2020 3135.01 4728.08 69.09 4.00 364.03 2647.94
   09:33:30.091.08-Feb-2020 3135.01 4728.08 69.09 4.00 364.23 2647.94
   09:33:30.291.08-Feb-2020 3135.01 4728.54 69.09 4.00 364.43 2647.94
   09:33:30.491.08-Feb-2020 3135.01 4728.43 69.09 4.00 364.63 2647.94
   09:33:30.691.08-Feb-2020 3135.01 4727.99 69.09 4.00 364.83 2647.94
   09:33:30.891.08-Feb-2020 3135.01 4727.98 69.09 4.00 365.03 2647.94
   09:33:31.091.08-Feb-2020 3135.01 4727.98 69.09 4.00 365.23 2647.94
   09:33:31.291.08-Feb-2020 3135.01 4728.19 69.09 4.00 365.43 2647.94
   09:33:31.491.08-Feb-2020 3135.01 4728.07 69.09 4.00 365.63 2647.94
   09:33:31.691.08-Feb-2020 3135.01 4728.26 69.09 4.00 365.83 2647.94
   09:33:31.891.08-Feb-2020 3135.01 4728.12 69.09 4.00 366.03 2647.94
   09:33:32.091.08-Feb-2020 3135.01 4728.12 69.09 4.00 366.23 2647.94
   09:33:32.291.08-Feb-2020 3135.01 4727.85 69.09 4.00 366.43 2647.94
   09:33:32.491.08-Feb-2020 3135.01 4727.88 69.09 4.00 366.63 2647.94
   09:33:32.691.08-Feb-2020 3135.01 4728.05 69.09 4.00 366.83 2647.94
   09:33:32.891.08-Feb-2020 3135.01 4728.49 69.09 4.00 367.03 2647.94
   09:33:33.091.08-Feb-2020 3135.01 4728.49 69.09 4.00 367.23 2647.94
   09:33:33.291.08-Feb-2020 3135.01 4728.62 69.09 4.00 367.43 2647.94
   09:33:33.491.08-Feb-2020 3135.01 4728.28 69.09 4.00 367.63 2647.94
   09:33:33.691.08-Feb-2020 3135.01 4728.71 69.09 4.00 367.83 2647.94
