~Version Information
 VERS.                  2.0:   CWLS log ASCII Standard -VERSION 2.0
 WRAP.                   NO:   One line per depth step
~Well Information Block
#MNEM.UNIT     VALUE/NAME     DESCRIPTION
#---------     -----------    ---------------------------
 STRT.S             11:02:51 08-Feb-20: START TIME 11:02:51 08-Feb-20
 STOP.S             11:09:43 08-Feb-20: STOP TIME  11:09:43 08-Feb-20
 STEP.S                   0.00: STEP TIME
 NULL.                 -999.25: NULL VALUE
 DFWT.                        :  DIST FWL TEXT
 DFST.                        :  DIST FSL TEXT
 DMF .             Drill Floor:  DRILL MEAS FROM
 STIM.      07.00.00 09-Jan-20:  START TIME
 DATE.      14.04.48 07-Feb-20:  END TIME
 SPUD.               09-Jan-20:  SPUD DATE
 NREF.                    Grid:  NORTH REFERENCE
 HPTY.       Minimum Curvature:  HOLE POS TYPE
 DMOD.             Drill Model:  DRILL MOD DESC
 SVYD.                  Survey:  SURVEY DESC
 ILTD.               Lithology:  INTERP LTH DESC
 FTOP.          Formation Tops:  FORM TOPS DESC
 SON .        AZ-XX-0905059384:  JOB NUMBER
 MDS .        Operator Entered:  MAG DATA SOURCE
 WTYP.                Deviated:  WELL TYPE
 COMP.     BP Exploration (Caspian Sea) Ltd.:  COMPANY
 UWI .                     N/A:  UNIQUE WELL IDENTIFIER
 API .                     N/A:  API NUMBER
 BASE.              Azerbaijan:  LOGGING EQUIPMENT BASE LOCATION
 REGN.                   EESSA:  REGION
 PROV.                    Baku:  PROVINCE
 STAT.                    Baku:  STATE NAME
 CTRY.              Azerbaijan:  COUNTRY NAME
 FLD .                     ACG:  FIELD NAME
 SRVC.     TURAN Drilling & Engineering:  CONTRACTOR
 MWDS.                    Baku:  MWD SHOP
 WELL.                     J22:  WELL NAME
 RIG .             West Chirag:  RIG NAME
 DOE .                     N/A:  DOE NUMBER
 DCON.         Sperry Drilling:  DIRECTNL CONTR
 UNIT.                     N/A:  LOGGING EQUIPMENT ID
 PDAT.          Mean Sea Level:  PERMANENT DATUM
 JOBN.        AZ-XX-0905059384:  JOB TICKET NUMB
 CNTY.                        :  COUNTY
 LOC .                        :  LOCATION
 LMF .             Drill Floor:  LOG MEASURED FROM
 TVDS.m                  43.00:  TVDSS CORRECTN
 LATI.deg                40.13:  LATITUDE
 LONG.deg                51.22:  LONGITUDE
 WHNS.m                  10.28:  WELL HEAD N/S
 WHEW.m                  -6.24:  WELL HEAD E/W
 UTMX.m              519005.06:  UTM X
 UTMY.m             4443793.85:  UTM Y
 DFWL.m                   0.00:  DISTANCE FWL
 DFSL.m                   0.00:  DISTANCE FSL
 SDEP.m                 362.00:  START DEPTH
 TDD .m                 904.00:  TOTAL DEPTH (DRILLER)
 VSDR.deg               148.53:  VERT SEC DIRECT
 GVFD.g                   1.00:  GRAVITY FIELD
 MFLD.nT              50277.00:  MAGNETIC FIELD
 MDIP.deg                59.56:  MAGNETIC DIP
 MDEC.deg                 6.42:  MAGNETIC DECL
 GRDC.deg                 0.15:  GRID CORRECTION
 AZTC.deg                 6.27:  AZM TOTAL CORR
 EPD .m                   0.00:  ELEVATION
 EGL .m                   0.00:  GROUND ELEVATION
 WDMS.m                 169.80:  WD ELEV
 APD .m                  43.00:  DEPTH ABOVE PD
 AGAP.m                  43.00:  AIR GAP
 VSEW.m                  -6.24:  VERT SEC E/W
 VSNS.m                  10.28:  VERT SEC N/S
 DEP .m                   0.00:  DEPTH
 EKB .m                   0.00:  KB ELEVATION
 EDF .m                  43.00:  DF ELEVATION
 TDL .m                1183.00:  TOTAL DEPTH (LOGGER)
 VSC .                       0:  VS TO CLOSURE
 MAGU.                 1850021:  MAGUTM CHECKSUM
~Parameter Information Block
#MNEM.UNIT       Value        Description
#---------     -----------    ---------------------------
 AV  .mps                 4.00:  Ann Velocity 
 AVMX.mps                 4.50:  Max Ann Veloc 
 AZIF.deg               145.38:  Azm, Final 
 BHAT.        Rotary Steerable:  BHA Type 
 BROT.°/30m               3.00:  Build Rotating 
 BS  .in                 12.25:  Bit Size 
 BSZ .in                 12.25:  Bit Size 
 BTPL.psig              650.00:  Bit Press Loss 
 CABU.                      No:  Customer Abuse 
 COMM.                     Ä%€:  Run Comments 1 
 TCS .hr                101.62:  Time Ciculation Ended 
 CV  .mps                 5.00:  Crit Velocity 
 CVMX.mps                 5.00:  Max Crit Veloc 
 DD1 .             Aziz Aliyev:  Direct Drillr 1 
 DD2 .      Fakhraddin Guliyev:  Direct Drillr 2 
 DDSV.                 iCruise:  DD Service 
 DEFF.%                  97.00:  % Det Eff 
 DLRX.°/30m               4.16:  Dogleg Rot Max 
 DLSO.°/30m               3.20:  Dogleg Oriented 
 DLSX.°/30m               4.10:  Dogleg Str Max 
 DRET.      23.12.00 07-Feb-20:  Drill End Time 
 DRST.      11.30.00 04-Feb-20:  Drill Start Tim 
 DTIM.hr                 61.06:  Time Drilling 
 EDEP.m                3219.01:  End Depth 
 ENG1.         Almaz Almadatov:  Engineer 1 
 ENG2.         Dair Mahammadov:  Engineer 2 
 ENG3.          Nazrin Asgarli:  Engineer 3 
 ETIM.      02.30.00 11-Feb-20:  End Time 
 FLOI.gpm              1100.00:  Flow In 
 FLON.gpm               900.00:  Flow In Min 
 FLOS.cptm               55.00:  Fluid Loss 
 FLOX.gpm              1150.00:  Flow In Max 
 FTRO.       Formation Presure:  FTWD Run Obj 
 HFLO.                      No:  High Flow 
 HPRE.                      No:  High Pressure 
 HTEM.                      No:  High Temp 
 HYDO.m                   1.80:  Hydro Offset 
 IFIN.deg                75.11:  Inc, Final 
 IMAX.deg                75.11:  Inc Max 
 IMIN.deg                33.55:  Inc Min 
 IMND.m                2186.05:  Inc Min Depth 
 IMXD.m                3205.61:  Inc Max Depth 
 JARR.                      No:  Jarring 
 LETM.      23.12.00 07-Feb-20:  Log End Time 
 LOST.hr                     0:  Lost Rig Time 
 LSTM.      11.30.00 04-Feb-20:  Log Start Time 
 MDCL.ppm             40000.00:  Mud Chlorides 
 MDES.     Inversion Oil/Synthetic:  Mud Desc 
 DFD .sg                  1.49:  Mud Density 
 MDMN.sg                  1.49:  Dens Mud Min 
 MDMX.sg                  1.49:  Dens Mud Max 
 MOIL.                      73:  Run Mud Oil % 
 MOWR.                   73:27:  Run Mud OWR 
 MSND.                     0.1:  Run Mud Sand % 
 MSOL.                    20.1:  Run Mud Solids% 
 DFV .spqt               78.00:  Mud Viscosity 
 MWOD.in                  8.00:  MWD Tool OD 
 MWSI.                      No:  Serv Intrp, MWD 
 OTIM.hr                177.15:  Time Operating 
 PCON.          Wear / Scratch:  Pad Condition 
 PMAX.psia            10493.93:  Press Op, Max 
 PV  .cP                 73.00:  Mud PV 
 RUN .                     700:  Run Number 
 ROPA.m/hr               15.00:  ROP Avg 
 ROPN.m/hr               10.00:  ROP Min 
 ROPX.m/hr               35.00:  ROP Max 
 RPMA.rpm               130.00:  RPM Surface Avg 
 RPMN.rpm                80.00:  RPM Surface Min 
 RPMX.rpm               150.00:  RPM Surface Max 
 RRUN.                    L402:  Rig Run Number 
 RTIM.hr                 80.50:  Time Reaming 
 SAZI.deg               155.55:  Azm, Start 
 SDEP.m                2036.00:  Start Depth 
 SIDD.                      No:  Serv Intrp, DD 
 SINC.deg                35.44:  Inc, Start 
 SPPA.psig             4270.00:  SPP Avg 
 SPPN.psig             2800.00:  SPP Min 
 SPPX.psig             4850.00:  SPP Max 
 STIM.      09.30.00 03-Feb-20:  Start Time 
 SVCS.                 DD, MWD:  Services 
 SVER.                    9.20:  Sperry Version 
 TDAT.m                1183.00:  Tot Depth Attmp 
 TDDF.                      No:  Trip for DD 
 TDLG.m                1183.00:  Tot Depth Loggd 
 TFF .                      No:  Trip for Fail 
 TQAA.f-kp               16.00:  Torque Abs Avg 
 TQAN.f-kp               10.00:  Torque Abs Min 
 TQAX.f-kp               20.00:  Torque Abs Max 
 TRRT.°/30m               1.00:  Turn Rotating 
 MRT .                  EWR-M5:  Maximum Recorded Temperature 
 TTMX.degC               80.39:  Max Tool Temp 
 VS01.               13098498 :  Virtual Str1 SN 
 VS02.                90569596:  Virtual Str2 SN 
 VS03.                90523599:  Virtual Str3 SN 
 VS04.                90573553:  Virtual Str4 SN 
 VS05.                90598598:  Virtual Str5 SN 
 VS06.                90577297:  Virtual Str6 SN 
 WBMN.klb                13.00:  WOB Min 
 WITN.         Alistair Sprott:  Customer Rep 
 WITN.           Rufat Babayev:  Customer Rep 2 
 WOBA.klb                15.00:  WOB Avg 
 WOBX.klb                20.00:  WOB Max 
 YP  .lhf2               39.00:  Yield Point 
~Curve Information Block
#MNEM.UNIT                 API CODE     Curve Description
#---------               -----------    ---------------------------
 TIME.HHMMSS            00 000 000 000:  GT Time & Date
 GTDEPTH.m              00 000 000 000:  GT Depth
 GTPQH.psia             00 000 000 000:  GT HR Quartz Pressure
 GTTQ.degC              00 000 000 000:  GT Quartz Temperature
 GTTN.NONE              00 000 000 000:  GT Test Number
 GTET.sec               00 000 000 000:  GT Elapsed Test Time
 GTTVD.m                00 000 000 000:  GT True Vertical Depth
#Other Information
#
#WARRANTY: Halliburton will use its best efforts to furnish customers with 
#accurate information and interpretations that are part of, and incident to, the services 
#provided.  However, Halliburton cannot and does not warrant the accuracy 
#or correctness of such information and interpretations.  Under no circumstances should any 
#such information or interpretation be relied upon as the sole basis for any drilling, 
#completion, production, or financial decision or any procedure involving any risk to the 
#safety of any drilling venture, drilling rig or its crew or any other third party.  The 
#Customer has full responsibility for all drilling, completion and production operation.  
#Halliburton makes no representations or warranties, either expressed or 
#implied, including, but not limited to, the implied warranties of merchantability or fitness 
#for a particular purpose, with respect to the services rendered.  In no event will 
#Halliburton be liable for failure to obtain any particular results or for 
#any damages, including, but not limited to, indirect, special or consequential damages, 
#resulting from the use of any information or interpretation provided by Halliburton.
#
~A           TIME           GTDEPTH  GTPQH  GTTQ  GTTN  GTET   GTTVD  
# ...
   11:03:14.453.08-Feb-2020 3115.78 5777.06 67.39 6.00  23.01 2642.62
   11:03:14.653.08-Feb-2020 3115.78 5777.06 67.39 6.00  23.21 2642.62
   11:03:14.854.08-Feb-2020 3115.78 5778.61 67.39 6.00  23.41 2642.62
   11:03:15.054.08-Feb-2020 3115.78 5776.23 67.39 6.00  23.61 2642.62
   11:03:15.254.08-Feb-2020 3115.78 5775.77 67.39 6.00  23.81 2642.62
   11:03:15.454.08-Feb-2020 3115.78 5776.51 67.39 6.00  24.01 2642.62
   11:03:15.654.08-Feb-2020 3115.78 5776.51 67.39 6.00  24.21 2642.62
   11:03:15.854.08-Feb-2020 3115.78 5775.83 67.39 6.00  24.41 2642.62
   11:03:16.054.08-Feb-2020 3115.78 5776.21 67.39 6.00  24.61 2642.62
   11:03:16.254.08-Feb-2020 3115.78 5775.73 67.39 6.00  24.81 2642.62
   11:03:16.454.08-Feb-2020 3115.78 5775.27 67.39 6.00  25.01 2642.62
   11:03:16.655.08-Feb-2020 3115.78 5775.27 67.39 6.00  25.21 2642.62
   11:03:16.855.08-Feb-2020 3115.78 5776.54 67.38 6.00  25.41 2642.62
   11:03:17.055.08-Feb-2020 3115.78 5776.72 67.38 6.00  25.61 2642.62
   11:03:17.255.08-Feb-2020 3115.78 5778.97 67.38 6.00  25.81 2642.62
   11:03:17.455.08-Feb-2020 3115.78 5775.03 67.38 6.00  26.01 2642.62
   11:03:17.655.08-Feb-2020 3115.78 5775.03 67.38 6.00  26.21 2642.62
   11:03:17.855.08-Feb-2020 3115.78 5773.60 67.38 6.00  26.41 2642.62
   11:03:18.055.08-Feb-2020 3115.78 5780.88 67.38 6.00  26.61 2642.62
   11:03:18.255.08-Feb-2020 3115.78 5772.59 67.38 6.00  26.81 2642.62
   11:03:18.455.08-Feb-2020 3115.78 5775.45 67.38 6.00  27.01 2642.62
   11:03:18.656.08-Feb-2020 3115.78 5775.45 67.38 6.00  27.21 2642.62
   11:03:18.856.08-Feb-2020 3115.78 5776.49 67.38 6.00  27.41 2642.62
   11:03:19.056.08-Feb-2020 3115.78 5775.91 67.38 6.00  27.61 2642.62
   11:03:19.256.08-Feb-2020 3115.78 5773.05 67.38 6.00  27.81 2642.62
   11:03:19.456.08-Feb-2020 3115.78 5778.82 67.38 6.00  28.01 2642.62
   11:03:19.656.08-Feb-2020 3115.78 5778.82 67.38 6.00  28.21 2642.62
   11:03:19.856.08-Feb-2020 3115.78 5776.66 67.38 6.00  28.41 2642.62
   11:03:20.056.08-Feb-2020 3115.78 5774.71 67.38 6.00  28.61 2642.62
   11:03:20.256.08-Feb-2020 3115.78 5775.40 67.38 6.00  28.82 2642.62
   11:03:20.456.08-Feb-2020 3115.78 5774.90 67.38 6.00  29.02 2642.62
   11:03:20.657.08-Feb-2020 3115.78 5774.90 67.38 6.00  29.22 2642.62
   11:03:20.857.08-Feb-2020 3115.78 5775.55 67.38 6.00  29.42 2642.62
   11:03:21.057.08-Feb-2020 3115.78 5774.47 67.38 6.00  29.62 2642.62
   11:03:21.257.08-Feb-2020 3115.78 5774.19 67.38 6.00  29.82 2642.62
   11:03:21.457.08-Feb-2020 3115.78 5774.16 67.38 6.00  30.02 2642.62
   11:03:21.657.08-Feb-2020 3115.78 5774.16 67.38 6.00  30.22 2642.62
   11:03:21.857.08-Feb-2020 3115.78 5776.93 67.37 6.00  30.42 2642.62
   11:03:22.057.08-Feb-2020 3115.78 5776.37 67.37 6.00  30.62 2642.62
   11:03:22.257.08-Feb-2020 3115.78 5775.56 67.37 6.00  30.82 2642.62
   11:03:22.458.08-Feb-2020 3115.78 5776.03 67.37 6.00  31.02 2642.62
   11:03:22.658.08-Feb-2020 3115.78 5776.03 67.37 6.00  31.22 2642.62
   11:03:22.858.08-Feb-2020 3115.78 5775.70 67.37 6.00  31.42 2642.62
   11:03:23.058.08-Feb-2020 3115.78 5776.20 67.37 6.00  31.62 2642.62
   11:03:23.258.08-Feb-2020 3115.78 5775.48 67.37 6.00  31.82 2642.62
   11:03:23.458.08-Feb-2020 3115.78 5775.44 67.37 6.00  32.02 2642.62
   11:03:23.658.08-Feb-2020 3115.78 5775.44 67.37 6.00  32.22 2642.62
   11:03:23.858.08-Feb-2020 3115.78 5779.13 67.37 6.00  32.42 2642.62
   11:03:24.058.08-Feb-2020 3115.78 5773.89 67.37 6.00  32.62 2642.62
   11:03:24.258.08-Feb-2020 3115.78 5776.92 67.37 6.00  32.82 2642.62
   11:03:24.459.08-Feb-2020 3115.78 5781.79 67.37 6.00  33.02 2642.62
   11:03:24.659.08-Feb-2020 3115.78 5781.79 67.37 6.00  33.22 2642.62
   11:03:24.859.08-Feb-2020 3115.78 5777.13 67.37 6.00  33.42 2642.62
   11:03:25.059.08-Feb-2020 3115.78 5774.64 67.37 6.00  33.62 2642.62
   11:03:25.259.08-Feb-2020 3115.78 5781.52 67.37 6.00  33.82 2642.62
   11:03:25.459.08-Feb-2020 3115.78 5774.01 67.37 6.00  34.02 2642.62
   11:03:25.659.08-Feb-2020 3115.78 5774.01 67.37 6.00  34.22 2642.62
   11:03:25.859.08-Feb-2020 3115.78 5774.91 67.37 6.00  34.42 2642.62
   11:03:26.059.08-Feb-2020 3115.78 5777.21 67.37 6.00  34.62 2642.62
   11:03:26.260.08-Feb-2020 3115.78 5777.39 67.37 6.00  34.82 2642.62
   11:03:26.460.08-Feb-2020 3115.78 5775.62 67.37 6.00  35.02 2642.62
   11:03:26.660.08-Feb-2020 3115.78 5775.62 67.37 6.00  35.22 2642.62
   11:03:26.860.08-Feb-2020 3115.78 5774.82 67.37 6.00  35.42 2642.62
   11:03:27.060.08-Feb-2020 3115.78 5777.85 67.36 6.00  35.62 2642.62
   11:03:27.260.08-Feb-2020 3115.78 5776.64 67.36 6.00  35.82 2642.62
   11:03:27.460.08-Feb-2020 3115.78 5776.84 67.36 6.00  36.02 2642.62
   11:03:27.660.08-Feb-2020 3115.78 5777.44 67.36 6.00  36.22 2642.62
   11:03:27.860.08-Feb-2020 3115.78 5776.91 67.36 6.00  36.42 2642.62
   11:03:28.060.08-Feb-2020 3115.78 5777.54 67.36 6.00  36.62 2642.62
   11:03:28.261.08-Feb-2020 3115.78 5776.64 67.36 6.00  36.82 2642.62
   11:03:28.461.08-Feb-2020 3115.78 5776.38 67.36 6.00  37.02 2642.62
   11:03:28.661.08-Feb-2020 3115.78 5776.38 67.36 6.00  37.22 2642.62
   11:03:28.861.08-Feb-2020 3115.78 5782.42 67.36 6.00  37.42 2642.62
   11:03:29.061.08-Feb-2020 3115.78 5774.47 67.36 6.00  37.62 2642.62
   11:03:29.261.08-Feb-2020 3115.78 5778.66 67.36 6.00  37.82 2642.62
   11:03:29.461.08-Feb-2020 3115.78 5777.27 67.36 6.00  38.02 2642.62
   11:03:29.661.08-Feb-2020 3115.78 5777.27 67.36 6.00  38.22 2642.62
   11:03:29.861.08-Feb-2020 3115.78 5786.41 67.36 6.00  38.42 2642.62
   11:03:30.062.08-Feb-2020 3115.78 5767.90 67.36 6.00  38.62 2642.62
   11:03:30.262.08-Feb-2020 3115.78 5736.22 67.36 6.00  38.82 2642.62
   11:03:30.462.08-Feb-2020 3115.78 5727.94 67.36 6.00  39.02 2642.62
   11:03:30.662.08-Feb-2020 3115.78 5727.94 67.36 6.00  39.22 2642.62
   11:03:30.862.08-Feb-2020 3115.78 5700.17 67.36 6.00  39.42 2642.62
   11:03:31.062.08-Feb-2020 3115.78 5672.63 67.36 6.00  39.62 2642.62
   11:03:31.262.08-Feb-2020 3115.78 5616.88 67.36 6.00  39.82 2642.62
   11:03:31.462.08-Feb-2020 3115.78 5614.13 67.36 6.00  40.02 2642.62
   11:03:31.662.08-Feb-2020 3115.78 5614.13 67.36 6.00  40.22 2642.62
   11:03:31.862.08-Feb-2020 3115.78 5638.12 67.36 6.00  40.42 2642.62
   11:03:32.063.08-Feb-2020 3115.78 5576.69 67.35 6.00  40.62 2642.62
   11:03:32.263.08-Feb-2020 3115.78 5474.05 67.35 6.00  40.82 2642.62
   11:03:32.463.08-Feb-2020 3115.78 5324.07 67.35 6.00  41.02 2642.62
   11:03:32.663.08-Feb-2020 3115.78 5324.07 67.35 6.00  41.22 2642.62
   11:03:32.863.08-Feb-2020 3115.78 5361.72 67.35 6.00  41.42 2642.62
   11:03:33.063.08-Feb-2020 3115.78 5352.12 67.35 6.00  41.62 2642.62
   11:03:33.263.08-Feb-2020 3115.78 5351.91 67.35 6.00  41.82 2642.62
   11:03:33.463.08-Feb-2020 3115.78 5408.60 67.35 6.00  42.02 2642.62
   11:03:33.663.08-Feb-2020 3115.78 5408.60 67.35 6.00  42.22 2642.62
   11:03:33.864.08-Feb-2020 3115.78 5799.75 67.35 6.00  42.42 2642.62
   11:03:34.064.08-Feb-2020 3115.78 5700.54 67.35 6.00  42.62 2642.62
   11:03:34.264.08-Feb-2020 3115.78 5717.10 67.35 6.00  42.82 2642.62
   11:03:34.464.08-Feb-2020 3115.78 5613.78 67.35 6.00  43.02 2642.62
   11:03:34.664.08-Feb-2020 3115.78 5613.78 67.35 6.00  43.22 2642.62
   11:03:34.864.08-Feb-2020 3115.78 5491.10 67.35 6.00  43.42 2642.62
   11:03:35.064.08-Feb-2020 3115.78 5468.81 67.35 6.00  43.62 2642.62
   11:03:35.264.08-Feb-2020 3115.78 5434.29 67.35 6.00  43.82 2642.62
   11:03:35.464.08-Feb-2020 3115.78 5419.66 67.35 6.00  44.02 2642.62
   11:03:35.664.08-Feb-2020 3115.78 5419.66 67.35 6.00  44.22 2642.62
   11:03:35.865.08-Feb-2020 3115.78 5399.82 67.34 6.00  44.42 2642.62
   11:03:36.065.08-Feb-2020 3115.78 5394.10 67.34 6.00  44.62 2642.62
   11:03:36.265.08-Feb-2020 3115.78 5405.61 67.34 6.00  44.82 2642.62
   11:03:36.465.08-Feb-2020 3115.78 5408.82 67.34 6.00  45.02 2642.62
   11:03:36.665.08-Feb-2020 3115.78 5408.82 67.34 6.00  45.22 2642.62
   11:03:36.865.08-Feb-2020 3115.78 5430.03 67.34 6.00  45.42 2642.62
   11:03:37.065.08-Feb-2020 3115.78 5429.80 67.34 6.00  45.62 2642.62
   11:03:37.265.08-Feb-2020 3115.78 5414.55 67.34 6.00  45.82 2642.62
