~Version Information
 VERS.                  2.0:   CWLS log ASCII Standard -VERSION 2.0
 WRAP.                   NO:   One line per depth step
~Well Information Block
#MNEM.UNIT     VALUE/NAME     DESCRIPTION
#---------     -----------    ---------------------------
 STRT.S             10:04:49 08-Feb-20: START TIME 10:04:49 08-Feb-20
 STOP.S             10:11:45 08-Feb-20: STOP TIME  10:11:45 08-Feb-20
 STEP.S                   0.00: STEP TIME
 NULL.                 -999.25: NULL VALUE
 DFWT.                        :  DIST FWL TEXT
 DFST.                        :  DIST FSL TEXT
 DMF .             Drill Floor:  DRILL MEAS FROM
 STIM.      07.00.00 09-Jan-20:  START TIME
 DATE.      14.04.48 07-Feb-20:  END TIME
 SPUD.               09-Jan-20:  SPUD DATE
 NREF.                    Grid:  NORTH REFERENCE
 HPTY.       Minimum Curvature:  HOLE POS TYPE
 DMOD.             Drill Model:  DRILL MOD DESC
 SVYD.                  Survey:  SURVEY DESC
 ILTD.               Lithology:  INTERP LTH DESC
 FTOP.          Formation Tops:  FORM TOPS DESC
 SON .        AZ-XX-0905059384:  JOB NUMBER
 MDS .        Operator Entered:  MAG DATA SOURCE
 WTYP.                Deviated:  WELL TYPE
 COMP.     BP Exploration (Caspian Sea) Ltd.:  COMPANY
 UWI .                     N/A:  UNIQUE WELL IDENTIFIER
 API .                     N/A:  API NUMBER
 BASE.              Azerbaijan:  LOGGING EQUIPMENT BASE LOCATION
 REGN.                   EESSA:  REGION
 PROV.                    Baku:  PROVINCE
 STAT.                    Baku:  STATE NAME
 CTRY.              Azerbaijan:  COUNTRY NAME
 FLD .                     ACG:  FIELD NAME
 SRVC.     TURAN Drilling & Engineering:  CONTRACTOR
 MWDS.                    Baku:  MWD SHOP
 WELL.                     J22:  WELL NAME
 RIG .             West Chirag:  RIG NAME
 DOE .                     N/A:  DOE NUMBER
 DCON.         Sperry Drilling:  DIRECTNL CONTR
 UNIT.                     N/A:  LOGGING EQUIPMENT ID
 PDAT.          Mean Sea Level:  PERMANENT DATUM
 JOBN.        AZ-XX-0905059384:  JOB TICKET NUMB
 CNTY.                        :  COUNTY
 LOC .                        :  LOCATION
 LMF .             Drill Floor:  LOG MEASURED FROM
 TVDS.m                  43.00:  TVDSS CORRECTN
 LATI.deg                40.13:  LATITUDE
 LONG.deg                51.22:  LONGITUDE
 WHNS.m                  10.28:  WELL HEAD N/S
 WHEW.m                  -6.24:  WELL HEAD E/W
 UTMX.m              519005.06:  UTM X
 UTMY.m             4443793.85:  UTM Y
 DFWL.m                   0.00:  DISTANCE FWL
 DFSL.m                   0.00:  DISTANCE FSL
 SDEP.m                 362.00:  START DEPTH
 TDD .m                 904.00:  TOTAL DEPTH (DRILLER)
 VSDR.deg               148.53:  VERT SEC DIRECT
 GVFD.g                   1.00:  GRAVITY FIELD
 MFLD.nT              50277.00:  MAGNETIC FIELD
 MDIP.deg                59.56:  MAGNETIC DIP
 MDEC.deg                 6.42:  MAGNETIC DECL
 GRDC.deg                 0.15:  GRID CORRECTION
 AZTC.deg                 6.27:  AZM TOTAL CORR
 EPD .m                   0.00:  ELEVATION
 EGL .m                   0.00:  GROUND ELEVATION
 WDMS.m                 169.80:  WD ELEV
 APD .m                  43.00:  DEPTH ABOVE PD
 AGAP.m                  43.00:  AIR GAP
 VSEW.m                  -6.24:  VERT SEC E/W
 VSNS.m                  10.28:  VERT SEC N/S
 DEP .m                   0.00:  DEPTH
 EKB .m                   0.00:  KB ELEVATION
 EDF .m                  43.00:  DF ELEVATION
 TDL .m                1183.00:  TOTAL DEPTH (LOGGER)
 VSC .                       0:  VS TO CLOSURE
 MAGU.                 1850021:  MAGUTM CHECKSUM
~Parameter Information Block
#MNEM.UNIT       Value        Description
#---------     -----------    ---------------------------
 AV  .mps                 4.00:  Ann Velocity 
 AVMX.mps                 4.50:  Max Ann Veloc 
 AZIF.deg               145.38:  Azm, Final 
 BHAT.        Rotary Steerable:  BHA Type 
 BROT.°/30m               3.00:  Build Rotating 
 BS  .in                 12.25:  Bit Size 
 BSZ .in                 12.25:  Bit Size 
 BTPL.psig              650.00:  Bit Press Loss 
 CABU.                      No:  Customer Abuse 
 COMM.                     |¶Q:  Run Comments 1 
 TCS .hr                101.62:  Time Ciculation Ended 
 CV  .mps                 5.00:  Crit Velocity 
 CVMX.mps                 5.00:  Max Crit Veloc 
 DD1 .             Aziz Aliyev:  Direct Drillr 1 
 DD2 .      Fakhraddin Guliyev:  Direct Drillr 2 
 DDSV.                 iCruise:  DD Service 
 DEFF.%                  97.00:  % Det Eff 
 DLRX.°/30m               4.16:  Dogleg Rot Max 
 DLSO.°/30m               3.20:  Dogleg Oriented 
 DLSX.°/30m               4.10:  Dogleg Str Max 
 DRET.      23.12.00 07-Feb-20:  Drill End Time 
 DRST.      11.30.00 04-Feb-20:  Drill Start Tim 
 DTIM.hr                 61.06:  Time Drilling 
 EDEP.m                3219.01:  End Depth 
 ENG1.         Almaz Almadatov:  Engineer 1 
 ENG2.         Dair Mahammadov:  Engineer 2 
 ENG3.          Nazrin Asgarli:  Engineer 3 
 ETIM.      02.30.00 11-Feb-20:  End Time 
 FLOI.gpm              1100.00:  Flow In 
 FLON.gpm               900.00:  Flow In Min 
 FLOS.cptm               55.00:  Fluid Loss 
 FLOX.gpm              1150.00:  Flow In Max 
 FTRO.       Formation Presure:  FTWD Run Obj 
 HFLO.                      No:  High Flow 
 HPRE.                      No:  High Pressure 
 HTEM.                      No:  High Temp 
 HYDO.m                   1.80:  Hydro Offset 
 IFIN.deg                75.11:  Inc, Final 
 IMAX.deg                75.11:  Inc Max 
 IMIN.deg                33.55:  Inc Min 
 IMND.m                2186.05:  Inc Min Depth 
 IMXD.m                3205.61:  Inc Max Depth 
 JARR.                      No:  Jarring 
 LETM.      23.12.00 07-Feb-20:  Log End Time 
 LOST.hr                     0:  Lost Rig Time 
 LSTM.      11.30.00 04-Feb-20:  Log Start Time 
 MDCL.ppm             40000.00:  Mud Chlorides 
 MDES.     Inversion Oil/Synthetic:  Mud Desc 
 DFD .sg                  1.49:  Mud Density 
 MDMN.sg                  1.49:  Dens Mud Min 
 MDMX.sg                  1.49:  Dens Mud Max 
 MOIL.                      73:  Run Mud Oil % 
 MOWR.                   73:27:  Run Mud OWR 
 MSND.                     0.1:  Run Mud Sand % 
 MSOL.                    20.1:  Run Mud Solids% 
 DFV .spqt               78.00:  Mud Viscosity 
 MWOD.in                  8.00:  MWD Tool OD 
 MWSI.                      No:  Serv Intrp, MWD 
 OTIM.hr                177.15:  Time Operating 
 PCON.          Wear / Scratch:  Pad Condition 
 PMAX.psia            10493.93:  Press Op, Max 
 PV  .cP                 73.00:  Mud PV 
 RUN .                     700:  Run Number 
 ROPA.m/hr               15.00:  ROP Avg 
 ROPN.m/hr               10.00:  ROP Min 
 ROPX.m/hr               35.00:  ROP Max 
 RPMA.rpm               130.00:  RPM Surface Avg 
 RPMN.rpm                80.00:  RPM Surface Min 
 RPMX.rpm               150.00:  RPM Surface Max 
 RRUN.                    L402:  Rig Run Number 
 RTIM.hr                 80.50:  Time Reaming 
 SAZI.deg               155.55:  Azm, Start 
 SDEP.m                2036.00:  Start Depth 
 SIDD.                      No:  Serv Intrp, DD 
 SINC.deg                35.44:  Inc, Start 
 SPPA.psig             4270.00:  SPP Avg 
 SPPN.psig             2800.00:  SPP Min 
 SPPX.psig             4850.00:  SPP Max 
 STIM.      09.30.00 03-Feb-20:  Start Time 
 SVCS.                 DD, MWD:  Services 
 SVER.                    9.20:  Sperry Version 
 TDAT.m                1183.00:  Tot Depth Attmp 
 TDDF.                      No:  Trip for DD 
 TDLG.m                1183.00:  Tot Depth Loggd 
 TFF .                      No:  Trip for Fail 
 TQAA.f-kp               16.00:  Torque Abs Avg 
 TQAN.f-kp               10.00:  Torque Abs Min 
 TQAX.f-kp               20.00:  Torque Abs Max 
 TRRT.°/30m               1.00:  Turn Rotating 
 MRT .                  EWR-M5:  Maximum Recorded Temperature 
 TTMX.degC               80.39:  Max Tool Temp 
 VS01.               13098498 :  Virtual Str1 SN 
 VS02.                90569596:  Virtual Str2 SN 
 VS03.                90523599:  Virtual Str3 SN 
 VS04.                90573553:  Virtual Str4 SN 
 VS05.                90598598:  Virtual Str5 SN 
 VS06.                90577297:  Virtual Str6 SN 
 WBMN.klb                13.00:  WOB Min 
 WITN.         Alistair Sprott:  Customer Rep 
 WITN.           Rufat Babayev:  Customer Rep 2 
 WOBA.klb                15.00:  WOB Avg 
 WOBX.klb                20.00:  WOB Max 
 YP  .lhf2               39.00:  Yield Point 
~Curve Information Block
#MNEM.UNIT                 API CODE     Curve Description
#---------               -----------    ---------------------------
 TIME.HHMMSS            00 000 000 000:  GT Time & Date
 GTDEPTH.m              00 000 000 000:  GT Depth
 GTPQH.psia             00 000 000 000:  GT HR Quartz Pressure
 GTTQ.degC              00 000 000 000:  GT Quartz Temperature
 GTTN.NONE              00 000 000 000:  GT Test Number
 GTET.sec               00 000 000 000:  GT Elapsed Test Time
 GTTVD.m                00 000 000 000:  GT True Vertical Depth
#Other Information
#
#WARRANTY: Halliburton will use its best efforts to furnish customers with 
#accurate information and interpretations that are part of, and incident to, the services 
#provided.  However, Halliburton cannot and does not warrant the accuracy 
#or correctness of such information and interpretations.  Under no circumstances should any 
#such information or interpretation be relied upon as the sole basis for any drilling, 
#completion, production, or financial decision or any procedure involving any risk to the 
#safety of any drilling venture, drilling rig or its crew or any other third party.  The 
#Customer has full responsibility for all drilling, completion and production operation.  
#Halliburton makes no representations or warranties, either expressed or 
#implied, including, but not limited to, the implied warranties of merchantability or fitness 
#for a particular purpose, with respect to the services rendered.  In no event will 
#Halliburton be liable for failure to obtain any particular results or for 
#any damages, including, but not limited to, indirect, special or consequential damages, 
#resulting from the use of any information or interpretation provided by Halliburton.
#
~A           TIME           GTDEPTH  GTPQH  GTTQ  GTTN  GTET   GTTVD  
# ...
   10:05:58.202.08-Feb-2020 3159.51 4782.09 68.51 5.00  69.02 2654.38
   10:05:58.402.08-Feb-2020 3159.51 4782.09 68.51 5.00  69.22 2654.38
   10:05:58.602.08-Feb-2020 3159.51 4784.07 68.51 5.00  69.42 2654.38
   10:05:58.802.08-Feb-2020 3159.51 4783.65 68.51 5.00  69.62 2654.38
   10:05:59.002.08-Feb-2020 3159.51 4782.69 68.51 5.00  69.82 2654.38
   10:05:59.202.08-Feb-2020 3159.51 4785.07 68.51 5.00  70.02 2654.38
   10:05:59.402.08-Feb-2020 3159.51 4785.07 68.51 5.00  70.22 2654.38
   10:05:59.602.08-Feb-2020 3159.51 4785.48 68.50 5.00  70.42 2654.38
   10:05:59.802.08-Feb-2020 3159.51 4784.69 68.50 5.00  70.62 2654.38
   10:06:00.002.08-Feb-2020 3159.51 4786.01 68.50 5.00  70.82 2654.38
   10:06:00.202.08-Feb-2020 3159.51 4788.54 68.50 5.00  71.02 2654.38
   10:06:00.402.08-Feb-2020 3159.51 4788.54 68.50 5.00  71.22 2654.38
   10:06:00.602.08-Feb-2020 3159.51 4786.91 68.50 5.00  71.42 2654.38
   10:06:00.802.08-Feb-2020 3159.51 4787.96 68.50 5.00  71.62 2654.38
   10:06:01.002.08-Feb-2020 3159.51 4787.21 68.50 5.00  71.82 2654.38
   10:06:01.202.08-Feb-2020 3159.51 4806.47 68.50 5.00  72.02 2654.38
   10:06:01.403.08-Feb-2020 3159.51 4806.47 68.50 5.00  72.22 2654.38
   10:06:01.603.08-Feb-2020 3159.51 4879.25 68.50 5.00  72.42 2654.38
   10:06:01.803.08-Feb-2020 3159.51 4879.73 68.50 5.00  72.62 2654.38
   10:06:02.003.08-Feb-2020 3159.51 4879.90 68.50 5.00  72.82 2654.38
   10:06:02.203.08-Feb-2020 3159.51 4880.03 68.50 5.00  73.02 2654.38
   10:06:02.403.08-Feb-2020 3159.51 4880.03 68.50 5.00  73.22 2654.38
   10:06:02.603.08-Feb-2020 3159.51 4880.40 68.50 5.00  73.42 2654.38
   10:06:02.803.08-Feb-2020 3159.51 4880.07 68.50 5.00  73.62 2654.38
   10:06:03.003.08-Feb-2020 3159.51 4880.33 68.50 5.00  73.82 2654.38
   10:06:03.203.08-Feb-2020 3159.51 4880.83 68.50 5.00  74.02 2654.38
   10:06:03.403.08-Feb-2020 3159.51 4880.83 68.50 5.00  74.22 2654.38
   10:06:03.603.08-Feb-2020 3159.51 4880.70 68.50 5.00  74.42 2654.38
   10:06:03.803.08-Feb-2020 3159.51 4880.94 68.50 5.00  74.62 2654.38
   10:06:04.003.08-Feb-2020 3159.51 4880.92 68.50 5.00  74.82 2654.38
   10:06:04.203.08-Feb-2020 3159.51 4880.90 68.50 5.00  75.02 2654.38
   10:06:04.403.08-Feb-2020 3159.51 4880.90 68.50 5.00  75.22 2654.38
   10:06:04.604.08-Feb-2020 3159.51 4880.86 68.50 5.00  75.42 2654.38
   10:06:04.804.08-Feb-2020 3159.51 4880.81 68.50 5.00  75.62 2654.38
   10:06:05.004.08-Feb-2020 3159.51 4880.95 68.50 5.00  75.82 2654.38
   10:06:05.204.08-Feb-2020 3159.51 4880.63 68.50 5.00  76.02 2654.38
   10:06:05.404.08-Feb-2020 3159.51 4880.63 68.50 5.00  76.22 2654.38
   10:06:05.604.08-Feb-2020 3159.51 4880.97 68.50 5.00  76.42 2654.38
   10:06:05.804.08-Feb-2020 3159.51 4880.95 68.50 5.00  76.62 2654.38
   10:06:06.004.08-Feb-2020 3159.51 4881.37 68.50 5.00  76.82 2654.38
   10:06:06.204.08-Feb-2020 3159.51 4880.45 68.50 5.00  77.02 2654.38
   10:06:06.404.08-Feb-2020 3159.51 4880.45 68.50 5.00  77.22 2654.38
   10:06:06.604.08-Feb-2020 3159.51 4880.78 68.50 5.00  77.42 2654.38
   10:06:06.804.08-Feb-2020 3159.51 4880.89 68.50 5.00  77.62 2654.38
   10:06:07.004.08-Feb-2020 3159.51 4880.87 68.50 5.00  77.82 2654.38
   10:06:07.204.08-Feb-2020 3159.51 4880.82 68.50 5.00  78.02 2654.38
   10:06:07.404.08-Feb-2020 3159.51 4880.82 68.50 5.00  78.22 2654.38
   10:06:07.604.08-Feb-2020 3159.51 4881.99 68.50 5.00  78.42 2654.38
   10:06:07.805.08-Feb-2020 3159.51 4880.09 68.50 5.00  78.62 2654.38
   10:06:08.005.08-Feb-2020 3159.51 4880.77 68.50 5.00  78.82 2654.38
   10:06:08.205.08-Feb-2020 3159.51 4881.21 68.50 5.00  79.02 2654.38
   10:06:08.405.08-Feb-2020 3159.51 4881.21 68.50 5.00  79.22 2654.38
   10:06:08.605.08-Feb-2020 3159.51 4881.06 68.50 5.00  79.42 2654.38
   10:06:08.805.08-Feb-2020 3159.51 4881.20 68.50 5.00  79.62 2654.38
   10:06:09.005.08-Feb-2020 3159.51 4881.15 68.50 5.00  79.82 2654.38
   10:06:09.205.08-Feb-2020 3159.51 4881.13 68.50 5.00  80.02 2654.38
   10:06:09.405.08-Feb-2020 3159.51 4881.13 68.50 5.00  80.22 2654.38
   10:06:09.605.08-Feb-2020 3159.51 4881.19 68.50 5.00  80.42 2654.38
   10:06:09.805.08-Feb-2020 3159.51 4881.38 68.50 5.00  80.63 2654.38
   10:06:10.005.08-Feb-2020 3159.51 4880.51 68.50 5.00  80.83 2654.38
   10:06:10.205.08-Feb-2020 3159.51 4880.91 68.50 5.00  81.03 2654.38
   10:06:10.405.08-Feb-2020 3159.51 4880.91 68.50 5.00  81.23 2654.38
   10:06:10.605.08-Feb-2020 3159.51 4881.27 68.50 5.00  81.43 2654.38
   10:06:10.805.08-Feb-2020 3159.51 4881.24 68.50 5.00  81.63 2654.38
   10:06:11.006.08-Feb-2020 3159.51 4881.12 68.50 5.00  81.83 2654.38
   10:06:11.206.08-Feb-2020 3159.51 4881.18 68.50 5.00  82.03 2654.38
   10:06:11.406.08-Feb-2020 3159.51 4881.18 68.50 5.00  82.23 2654.38
   10:06:11.606.08-Feb-2020 3159.51 4881.10 68.50 5.00  82.43 2654.38
   10:06:11.806.08-Feb-2020 3159.51 4881.22 68.50 5.00  82.63 2654.38
   10:06:12.006.08-Feb-2020 3159.51 4881.77 68.50 5.00  82.83 2654.38
   10:06:12.206.08-Feb-2020 3159.51 4879.89 68.50 5.00  83.03 2654.38
   10:06:12.406.08-Feb-2020 3159.51 4879.89 68.50 5.00  83.23 2654.38
   10:06:12.606.08-Feb-2020 3159.51 4881.10 68.50 5.00  83.43 2654.38
   10:06:12.806.08-Feb-2020 3159.51 4880.94 68.50 5.00  83.63 2654.38
   10:06:13.006.08-Feb-2020 3159.51 4881.02 68.50 5.00  83.83 2654.38
   10:06:13.206.08-Feb-2020 3159.51 4880.54 68.50 5.00  84.03 2654.38
   10:06:13.406.08-Feb-2020 3159.51 4880.54 68.50 5.00  84.23 2654.38
   10:06:13.606.08-Feb-2020 3159.51 4881.05 68.50 5.00  84.43 2654.38
   10:06:13.806.08-Feb-2020 3159.51 4881.05 68.50 5.00  84.63 2654.38
   10:06:14.006.08-Feb-2020 3159.51 4880.87 68.50 5.00  84.83 2654.38
   10:06:14.207.08-Feb-2020 3159.51 4881.14 68.50 5.00  85.03 2654.38
   10:06:14.407.08-Feb-2020 3159.51 4881.14 68.50 5.00  85.23 2654.38
   10:06:14.607.08-Feb-2020 3159.51 4880.69 68.50 5.00  85.43 2654.38
   10:06:14.807.08-Feb-2020 3159.51 4880.93 68.50 5.00  85.63 2654.38
   10:06:15.007.08-Feb-2020 3159.51 4881.06 68.50 5.00  85.83 2654.38
   10:06:15.207.08-Feb-2020 3159.51 4881.41 68.50 5.00  86.03 2654.38
   10:06:15.407.08-Feb-2020 3159.51 4881.41 68.50 5.00  86.23 2654.38
   10:06:15.607.08-Feb-2020 3159.51 4881.30 68.50 5.00  86.43 2654.38
   10:06:15.807.08-Feb-2020 3159.51 4881.37 68.50 5.00  86.63 2654.38
   10:06:16.007.08-Feb-2020 3159.51 4881.32 68.50 5.00  86.83 2654.38
   10:06:16.207.08-Feb-2020 3159.51 4881.27 68.50 5.00  87.03 2654.38
   10:06:16.407.08-Feb-2020 3159.51 4881.27 68.50 5.00  87.23 2654.38
   10:06:16.607.08-Feb-2020 3159.51 4881.24 68.50 5.00  87.43 2654.38
   10:06:16.807.08-Feb-2020 3159.51 4880.63 68.50 5.00  87.63 2654.38
   10:06:17.007.08-Feb-2020 3159.51 4881.39 68.50 5.00  87.83 2654.38
   10:06:17.207.08-Feb-2020 3159.51 4881.24 68.50 5.00  88.03 2654.38
   10:06:17.408.08-Feb-2020 3159.51 4881.24 68.50 5.00  88.23 2654.38
   10:06:17.608.08-Feb-2020 3159.51 4881.35 68.50 5.00  88.43 2654.38
   10:06:17.808.08-Feb-2020 3159.51 4881.27 68.50 5.00  88.63 2654.38
   10:06:18.008.08-Feb-2020 3159.51 4881.30 68.50 5.00  88.83 2654.38
   10:06:18.208.08-Feb-2020 3159.51 4881.41 68.50 5.00  89.03 2654.38
   10:06:18.408.08-Feb-2020 3159.51 4881.41 68.50 5.00  89.23 2654.38
   10:06:18.608.08-Feb-2020 3159.51 4881.34 68.50 5.00  89.43 2654.38
   10:06:18.808.08-Feb-2020 3159.51 4882.04 68.50 5.00  89.63 2654.38
   10:06:19.008.08-Feb-2020 3159.51 4880.52 68.50 5.00  89.83 2654.38
   10:06:19.208.08-Feb-2020 3159.51 4880.81 68.50 5.00  90.03 2654.38
   10:06:19.408.08-Feb-2020 3159.51 4880.81 68.50 5.00  90.23 2654.38
   10:06:19.608.08-Feb-2020 3159.51 4880.56 68.50 5.00  90.43 2654.38
   10:06:19.808.08-Feb-2020 3159.51 4880.85 68.50 5.00  90.63 2654.38
   10:06:20.008.08-Feb-2020 3159.51 4880.88 68.50 5.00  90.83 2654.38
   10:06:20.208.08-Feb-2020 3159.51 4881.40 68.50 5.00  91.03 2654.38
   10:06:20.408.08-Feb-2020 3159.51 4881.40 68.50 5.00  91.23 2654.38
   10:06:20.609.08-Feb-2020 3159.51 4882.00 68.50 5.00  91.43 2654.38
   10:06:20.809.08-Feb-2020 3159.51 4880.68 68.50 5.00  91.63 2654.38
   10:06:21.009.08-Feb-2020 3159.51 4880.83 68.50 5.00  91.83 2654.38
