~Version Information
 VERS.                  2.0:   CWLS log ASCII Standard -VERSION 2.0
 WRAP.                   NO:   One line per depth step
~Well Information Block
#MNEM.UNIT     VALUE/NAME     DESCRIPTION
#---------     -----------    ---------------------------
 STRT.S             12:03:05 08-Feb-20: START TIME 12:03:05 08-Feb-20
 STOP.S             12:09:57 08-Feb-20: STOP TIME  12:09:57 08-Feb-20
 STEP.S                   0.00: STEP TIME
 NULL.                 -999.25: NULL VALUE
 DFWT.                        :  DIST FWL TEXT
 DFST.                        :  DIST FSL TEXT
 DMF .             Drill Floor:  DRILL MEAS FROM
 STIM.      07.00.00 09-Jan-20:  START TIME
 DATE.      14.04.48 07-Feb-20:  END TIME
 SPUD.               09-Jan-20:  SPUD DATE
 NREF.                    Grid:  NORTH REFERENCE
 HPTY.       Minimum Curvature:  HOLE POS TYPE
 DMOD.             Drill Model:  DRILL MOD DESC
 SVYD.                  Survey:  SURVEY DESC
 ILTD.               Lithology:  INTERP LTH DESC
 FTOP.          Formation Tops:  FORM TOPS DESC
 SON .        AZ-XX-0905059384:  JOB NUMBER
 MDS .        Operator Entered:  MAG DATA SOURCE
 WTYP.                Deviated:  WELL TYPE
 COMP.     BP Exploration (Caspian Sea) Ltd.:  COMPANY
 UWI .                     N/A:  UNIQUE WELL IDENTIFIER
 API .                     N/A:  API NUMBER
 BASE.              Azerbaijan:  LOGGING EQUIPMENT BASE LOCATION
 REGN.                   EESSA:  REGION
 PROV.                    Baku:  PROVINCE
 STAT.                    Baku:  STATE NAME
 CTRY.              Azerbaijan:  COUNTRY NAME
 FLD .                     ACG:  FIELD NAME
 SRVC.     TURAN Drilling & Engineering:  CONTRACTOR
 MWDS.                    Baku:  MWD SHOP
 WELL.                     J22:  WELL NAME
 RIG .             West Chirag:  RIG NAME
 DOE .                     N/A:  DOE NUMBER
 DCON.         Sperry Drilling:  DIRECTNL CONTR
 UNIT.                     N/A:  LOGGING EQUIPMENT ID
 PDAT.          Mean Sea Level:  PERMANENT DATUM
 JOBN.        AZ-XX-0905059384:  JOB TICKET NUMB
 CNTY.                        :  COUNTY
 LOC .                        :  LOCATION
 LMF .             Drill Floor:  LOG MEASURED FROM
 TVDS.m                  43.00:  TVDSS CORRECTN
 LATI.deg                40.13:  LATITUDE
 LONG.deg                51.22:  LONGITUDE
 WHNS.m                  10.28:  WELL HEAD N/S
 WHEW.m                  -6.24:  WELL HEAD E/W
 UTMX.m              519005.06:  UTM X
 UTMY.m             4443793.85:  UTM Y
 DFWL.m                   0.00:  DISTANCE FWL
 DFSL.m                   0.00:  DISTANCE FSL
 SDEP.m                 362.00:  START DEPTH
 TDD .m                 904.00:  TOTAL DEPTH (DRILLER)
 VSDR.deg               148.53:  VERT SEC DIRECT
 GVFD.g                   1.00:  GRAVITY FIELD
 MFLD.nT              50277.00:  MAGNETIC FIELD
 MDIP.deg                59.56:  MAGNETIC DIP
 MDEC.deg                 6.42:  MAGNETIC DECL
 GRDC.deg                 0.15:  GRID CORRECTION
 AZTC.deg                 6.27:  AZM TOTAL CORR
 EPD .m                   0.00:  ELEVATION
 EGL .m                   0.00:  GROUND ELEVATION
 WDMS.m                 169.80:  WD ELEV
 APD .m                  43.00:  DEPTH ABOVE PD
 AGAP.m                  43.00:  AIR GAP
 VSEW.m                  -6.24:  VERT SEC E/W
 VSNS.m                  10.28:  VERT SEC N/S
 DEP .m                   0.00:  DEPTH
 EKB .m                   0.00:  KB ELEVATION
 EDF .m                  43.00:  DF ELEVATION
 TDL .m                1183.00:  TOTAL DEPTH (LOGGER)
 VSC .                       0:  VS TO CLOSURE
 MAGU.                 1850021:  MAGUTM CHECKSUM
~Parameter Information Block
#MNEM.UNIT       Value        Description
#---------     -----------    ---------------------------
 AV  .mps                 4.00:  Ann Velocity 
 AVMX.mps                 4.50:  Max Ann Veloc 
 AZIF.deg               145.38:  Azm, Final 
 BHAT.        Rotary Steerable:  BHA Type 
 BROT.°/30m               3.00:  Build Rotating 
 BS  .in                 12.25:  Bit Size 
 BSZ .in                 12.25:  Bit Size 
 BTPL.psig              650.00:  Bit Press Loss 
 CABU.                      No:  Customer Abuse 
 COMM.                     ÌSf:  Run Comments 1 
 TCS .hr                101.62:  Time Ciculation Ended 
 CV  .mps                 5.00:  Crit Velocity 
 CVMX.mps                 5.00:  Max Crit Veloc 
 DD1 .             Aziz Aliyev:  Direct Drillr 1 
 DD2 .      Fakhraddin Guliyev:  Direct Drillr 2 
 DDSV.                 iCruise:  DD Service 
 DEFF.%                  97.00:  % Det Eff 
 DLRX.°/30m               4.16:  Dogleg Rot Max 
 DLSO.°/30m               3.20:  Dogleg Oriented 
 DLSX.°/30m               4.10:  Dogleg Str Max 
 DRET.      23.12.00 07-Feb-20:  Drill End Time 
 DRST.      11.30.00 04-Feb-20:  Drill Start Tim 
 DTIM.hr                 61.06:  Time Drilling 
 EDEP.m                3219.01:  End Depth 
 ENG1.         Almaz Almadatov:  Engineer 1 
 ENG2.         Dair Mahammadov:  Engineer 2 
 ENG3.          Nazrin Asgarli:  Engineer 3 
 ETIM.      02.30.00 11-Feb-20:  End Time 
 FLOI.gpm              1100.00:  Flow In 
 FLON.gpm               900.00:  Flow In Min 
 FLOS.cptm               55.00:  Fluid Loss 
 FLOX.gpm              1150.00:  Flow In Max 
 FTRO.       Formation Presure:  FTWD Run Obj 
 HFLO.                      No:  High Flow 
 HPRE.                      No:  High Pressure 
 HTEM.                      No:  High Temp 
 HYDO.m                   1.80:  Hydro Offset 
 IFIN.deg                75.11:  Inc, Final 
 IMAX.deg                75.11:  Inc Max 
 IMIN.deg                33.55:  Inc Min 
 IMND.m                2186.05:  Inc Min Depth 
 IMXD.m                3205.61:  Inc Max Depth 
 JARR.                      No:  Jarring 
 LETM.      23.12.00 07-Feb-20:  Log End Time 
 LOST.hr                     0:  Lost Rig Time 
 LSTM.      11.30.00 04-Feb-20:  Log Start Time 
 MDCL.ppm             40000.00:  Mud Chlorides 
 MDES.     Inversion Oil/Synthetic:  Mud Desc 
 DFD .sg                  1.49:  Mud Density 
 MDMN.sg                  1.49:  Dens Mud Min 
 MDMX.sg                  1.49:  Dens Mud Max 
 MOIL.                      73:  Run Mud Oil % 
 MOWR.                   73:27:  Run Mud OWR 
 MSND.                     0.1:  Run Mud Sand % 
 MSOL.                    20.1:  Run Mud Solids% 
 DFV .spqt               78.00:  Mud Viscosity 
 MWOD.in                  8.00:  MWD Tool OD 
 MWSI.                      No:  Serv Intrp, MWD 
 OTIM.hr                177.15:  Time Operating 
 PCON.          Wear / Scratch:  Pad Condition 
 PMAX.psia            10493.93:  Press Op, Max 
 PV  .cP                 73.00:  Mud PV 
 RUN .                     700:  Run Number 
 ROPA.m/hr               15.00:  ROP Avg 
 ROPN.m/hr               10.00:  ROP Min 
 ROPX.m/hr               35.00:  ROP Max 
 RPMA.rpm               130.00:  RPM Surface Avg 
 RPMN.rpm                80.00:  RPM Surface Min 
 RPMX.rpm               150.00:  RPM Surface Max 
 RRUN.                    L402:  Rig Run Number 
 RTIM.hr                 80.50:  Time Reaming 
 SAZI.deg               155.55:  Azm, Start 
 SDEP.m                2036.00:  Start Depth 
 SIDD.                      No:  Serv Intrp, DD 
 SINC.deg                35.44:  Inc, Start 
 SPPA.psig             4270.00:  SPP Avg 
 SPPN.psig             2800.00:  SPP Min 
 SPPX.psig             4850.00:  SPP Max 
 STIM.      09.30.00 03-Feb-20:  Start Time 
 SVCS.                 DD, MWD:  Services 
 SVER.                    9.20:  Sperry Version 
 TDAT.m                1183.00:  Tot Depth Attmp 
 TDDF.                      No:  Trip for DD 
 TDLG.m                1183.00:  Tot Depth Loggd 
 TFF .                      No:  Trip for Fail 
 TQAA.f-kp               16.00:  Torque Abs Avg 
 TQAN.f-kp               10.00:  Torque Abs Min 
 TQAX.f-kp               20.00:  Torque Abs Max 
 TRRT.°/30m               1.00:  Turn Rotating 
 MRT .                  EWR-M5:  Maximum Recorded Temperature 
 TTMX.degC               80.39:  Max Tool Temp 
 VS01.               13098498 :  Virtual Str1 SN 
 VS02.                90569596:  Virtual Str2 SN 
 VS03.                90523599:  Virtual Str3 SN 
 VS04.                90573553:  Virtual Str4 SN 
 VS05.                90598598:  Virtual Str5 SN 
 VS06.                90577297:  Virtual Str6 SN 
 WBMN.klb                13.00:  WOB Min 
 WITN.         Alistair Sprott:  Customer Rep 
 WITN.           Rufat Babayev:  Customer Rep 2 
 WOBA.klb                15.00:  WOB Avg 
 WOBX.klb                20.00:  WOB Max 
 YP  .lhf2               39.00:  Yield Point 
~Curve Information Block
#MNEM.UNIT                 API CODE     Curve Description
#---------               -----------    ---------------------------
 TIME.HHMMSS            00 000 000 000:  GT Time & Date
 GTDEPTH.m              00 000 000 000:  GT Depth
 GTPQH.psia             00 000 000 000:  GT HR Quartz Pressure
 GTTQ.degC              00 000 000 000:  GT Quartz Temperature
 GTTN.NONE              00 000 000 000:  GT Test Number
 GTET.sec               00 000 000 000:  GT Elapsed Test Time
 GTTVD.m                00 000 000 000:  GT True Vertical Depth
#Other Information
#
#WARRANTY: Halliburton will use its best efforts to furnish customers with 
#accurate information and interpretations that are part of, and incident to, the services 
#provided.  However, Halliburton cannot and does not warrant the accuracy 
#or correctness of such information and interpretations.  Under no circumstances should any 
#such information or interpretation be relied upon as the sole basis for any drilling, 
#completion, production, or financial decision or any procedure involving any risk to the 
#safety of any drilling venture, drilling rig or its crew or any other third party.  The 
#Customer has full responsibility for all drilling, completion and production operation.  
#Halliburton makes no representations or warranties, either expressed or 
#implied, including, but not limited to, the implied warranties of merchantability or fitness 
#for a particular purpose, with respect to the services rendered.  In no event will 
#Halliburton be liable for failure to obtain any particular results or for 
#any damages, including, but not limited to, indirect, special or consequential damages, 
#resulting from the use of any information or interpretation provided by Halliburton.
#
~A           TIME           GTDEPTH  GTPQH  GTTQ  GTTN  GTET   GTTVD  
# ...
   12:06:55.000.08-Feb-2020 3069.01 4231.35 66.06 7.00 230.00 2627.56
   12:06:55.200.08-Feb-2020 3069.01 4231.35 66.06 7.00 230.20 2627.56
   12:06:55.400.08-Feb-2020 3069.01 4239.21 66.06 7.00 230.40 2627.56
   12:06:55.600.08-Feb-2020 3069.01 4243.51 66.06 7.00 230.60 2627.56
   12:06:55.800.08-Feb-2020 3069.01 4247.35 66.06 7.00 230.80 2627.56
   12:06:56.000.08-Feb-2020 3069.01 4251.49 66.06 7.00 231.00 2627.56
   12:06:56.200.08-Feb-2020 3069.01 4251.49 66.06 7.00 231.20 2627.56
   12:06:56.400.08-Feb-2020 3069.01 4259.33 66.06 7.00 231.40 2627.56
   12:06:56.600.08-Feb-2020 3069.01 4263.60 66.06 7.00 231.60 2627.56
   12:06:56.800.08-Feb-2020 3069.01 4267.29 66.06 7.00 231.80 2627.56
   12:06:57.000.08-Feb-2020 3069.01 4271.05 66.06 7.00 232.00 2627.56
   12:06:57.200.08-Feb-2020 3069.01 4271.05 66.06 7.00 232.20 2627.56
   12:06:57.400.08-Feb-2020 3069.01 4278.74 66.06 7.00 232.40 2627.56
   12:06:57.600.08-Feb-2020 3069.01 4281.93 66.06 7.00 232.60 2627.56
   12:06:57.800.08-Feb-2020 3069.01 4286.24 66.06 7.00 232.80 2627.56
   12:06:58.000.08-Feb-2020 3069.01 4289.72 66.06 7.00 233.00 2627.56
   12:06:58.200.08-Feb-2020 3069.01 4289.72 66.06 7.00 233.20 2627.56
   12:06:58.400.08-Feb-2020 3069.01 4297.16 66.06 7.00 233.40 2627.56
   12:06:58.600.08-Feb-2020 3069.01 4300.74 66.06 7.00 233.60 2627.56
   12:06:58.800.08-Feb-2020 3069.01 4304.29 66.06 7.00 233.80 2627.56
   12:06:59.000.08-Feb-2020 3069.01 4308.10 66.05 7.00 234.00 2627.56
   12:06:59.200.08-Feb-2020 3069.01 4308.10 66.05 7.00 234.20 2627.56
   12:06:59.400.08-Feb-2020 3069.01 4315.02 66.05 7.00 234.40 2627.56
   12:06:59.600.08-Feb-2020 3069.01 4318.85 66.05 7.00 234.60 2627.56
   12:06:59.800.08-Feb-2020 3069.01 4321.55 66.05 7.00 234.80 2627.56
   12:07:00.000.08-Feb-2020 3069.01 4325.43 66.05 7.00 235.00 2627.56
   12:07:00.200.08-Feb-2020 3069.01 4325.43 66.05 7.00 235.20 2627.56
   12:07:00.400.08-Feb-2020 3069.01 4332.01 66.05 7.00 235.40 2627.56
   12:07:00.600.08-Feb-2020 3069.01 4335.42 66.05 7.00 235.60 2627.56
   12:07:00.800.08-Feb-2020 3069.01 4338.73 66.05 7.00 235.80 2627.56
   12:07:01.000.08-Feb-2020 3069.01 4342.00 66.05 7.00 236.00 2627.56
   12:07:01.200.08-Feb-2020 3069.01 4342.00 66.05 7.00 236.20 2627.56
   12:07:01.400.08-Feb-2020 3069.01 4348.27 66.05 7.00 236.40 2627.56
   12:07:01.600.08-Feb-2020 3069.01 4351.46 66.05 7.00 236.60 2627.56
   12:07:01.800.08-Feb-2020 3069.01 4354.74 66.05 7.00 236.80 2627.56
   12:07:02.000.08-Feb-2020 3069.01 4357.81 66.05 7.00 237.00 2627.56
   12:07:02.200.08-Feb-2020 3069.01 4357.81 66.05 7.00 237.20 2627.56
   12:07:02.400.08-Feb-2020 3069.01 4363.80 66.05 7.00 237.40 2627.56
   12:07:02.600.08-Feb-2020 3069.01 4366.92 66.05 7.00 237.60 2627.56
   12:07:02.800.08-Feb-2020 3069.01 4369.98 66.05 7.00 237.80 2627.56
   12:07:03.000.08-Feb-2020 3069.01 4372.29 66.05 7.00 238.00 2627.56
   12:07:03.200.08-Feb-2020 3069.01 4372.29 66.05 7.00 238.20 2627.56
   12:07:03.400.08-Feb-2020 3069.01 4378.67 66.05 7.00 238.40 2627.56
   12:07:03.600.08-Feb-2020 3069.01 4381.67 66.05 7.00 238.60 2627.56
   12:07:03.800.08-Feb-2020 3069.01 4383.47 66.05 7.00 238.80 2627.56
   12:07:04.000.08-Feb-2020 3069.01 4386.39 66.05 7.00 239.00 2627.56
   12:07:04.200.08-Feb-2020 3069.01 4386.39 66.05 7.00 239.20 2627.56
   12:07:04.400.08-Feb-2020 3069.01 4392.27 66.05 7.00 239.40 2627.56
   12:07:04.600.08-Feb-2020 3069.01 4395.01 66.05 7.00 239.60 2627.56
   12:07:04.800.08-Feb-2020 3069.01 4398.22 66.05 7.00 239.80 2627.56
   12:07:05.000.08-Feb-2020 3069.01 4400.75 66.05 7.00 240.00 2627.56
   12:07:05.200.08-Feb-2020 3069.01 4400.75 66.05 7.00 240.20 2627.56
   12:07:05.400.08-Feb-2020 3069.01 4406.27 66.05 7.00 240.40 2627.56
   12:07:05.600.08-Feb-2020 3069.01 4409.25 66.05 7.00 240.60 2627.56
   12:07:05.800.08-Feb-2020 3069.01 4412.01 66.05 7.00 240.80 2627.56
   12:07:06.000.08-Feb-2020 3069.01 4414.84 66.05 7.00 241.00 2627.56
   12:07:06.200.08-Feb-2020 3069.01 4414.84 66.05 7.00 241.20 2627.56
   12:07:06.400.08-Feb-2020 3069.01 4420.23 66.05 7.00 241.40 2627.56
   12:07:06.600.08-Feb-2020 3069.01 4422.82 66.05 7.00 241.60 2627.56
   12:07:06.800.08-Feb-2020 3069.01 4425.26 66.04 7.00 241.80 2627.56
   12:07:07.000.08-Feb-2020 3069.01 4428.09 66.04 7.00 242.00 2627.56
   12:07:07.200.08-Feb-2020 3069.01 4428.09 66.04 7.00 242.20 2627.56
   12:07:07.400.08-Feb-2020 3069.01 4433.03 66.04 7.00 242.40 2627.56
   12:07:07.600.08-Feb-2020 3069.01 4435.71 66.04 7.00 242.60 2627.56
   12:07:07.800.08-Feb-2020 3069.01 4438.26 66.04 7.00 242.80 2627.56
   12:07:08.000.08-Feb-2020 3069.01 4440.61 66.04 7.00 243.00 2627.56
   12:07:08.200.08-Feb-2020 3069.01 4440.61 66.04 7.00 243.20 2627.56
   12:07:08.400.08-Feb-2020 3069.01 4445.67 66.04 7.00 243.40 2627.56
   12:07:08.600.08-Feb-2020 3069.01 4448.02 66.04 7.00 243.60 2627.56
   12:07:08.800.08-Feb-2020 3069.01 4451.14 66.04 7.00 243.80 2627.56
   12:07:09.000.08-Feb-2020 3069.01 4451.89 66.04 7.00 244.00 2627.56
   12:07:09.200.08-Feb-2020 3069.01 4451.89 66.04 7.00 244.20 2627.56
   12:07:09.400.08-Feb-2020 3069.01 4457.24 66.04 7.00 244.40 2627.56
   12:07:09.600.08-Feb-2020 3069.01 4458.79 66.04 7.00 244.60 2627.56
   12:07:09.800.08-Feb-2020 3069.01 4461.54 66.04 7.00 244.80 2627.56
   12:07:10.000.08-Feb-2020 3069.01 4464.08 66.04 7.00 245.00 2627.56
   12:07:10.200.08-Feb-2020 3069.01 4464.08 66.04 7.00 245.20 2627.56
   12:07:10.400.08-Feb-2020 3069.01 4467.95 66.04 7.00 245.40 2627.56
   12:07:10.600.08-Feb-2020 3069.01 4470.71 66.04 7.00 245.60 2627.56
   12:07:10.800.08-Feb-2020 3069.01 4473.11 66.04 7.00 245.80 2627.56
   12:07:11.000.08-Feb-2020 3069.01 4475.17 66.04 7.00 246.00 2627.56
   12:07:11.200.08-Feb-2020 3069.01 4475.17 66.04 7.00 246.20 2627.56
   12:07:11.400.08-Feb-2020 3069.01 4479.78 66.04 7.00 246.40 2627.56
   12:07:11.600.08-Feb-2020 3069.01 4481.92 66.04 7.00 246.60 2627.56
   12:07:11.800.08-Feb-2020 3069.01 4484.11 66.04 7.00 246.80 2627.56
   12:07:12.000.08-Feb-2020 3069.01 4486.35 66.04 7.00 247.00 2627.56
   12:07:12.200.08-Feb-2020 3069.01 4486.35 66.04 7.00 247.20 2627.56
   12:07:12.400.08-Feb-2020 3069.01 4490.42 66.04 7.00 247.40 2627.56
   12:07:12.600.08-Feb-2020 3069.01 4492.63 66.04 7.00 247.60 2627.56
   12:07:12.800.08-Feb-2020 3069.01 4494.69 66.04 7.00 247.80 2627.56
   12:07:13.000.08-Feb-2020 3069.01 4496.90 66.04 7.00 248.00 2627.56
   12:07:13.200.08-Feb-2020 3069.01 4496.90 66.04 7.00 248.20 2627.56
   12:07:13.400.08-Feb-2020 3069.01 4501.09 66.04 7.00 248.40 2627.56
   12:07:13.600.08-Feb-2020 3069.01 4503.16 66.03 7.00 248.60 2627.56
   12:07:13.800.08-Feb-2020 3069.01 4505.19 66.03 7.00 248.80 2627.56
   12:07:14.000.08-Feb-2020 3069.01 4507.15 66.03 7.00 249.00 2627.56
   12:07:14.200.08-Feb-2020 3069.01 4507.15 66.03 7.00 249.20 2627.56
   12:07:14.400.08-Feb-2020 3069.01 4511.36 66.03 7.00 249.40 2627.56
   12:07:14.600.08-Feb-2020 3069.01 4513.07 66.03 7.00 249.60 2627.56
   12:07:14.800.08-Feb-2020 3069.01 4515.09 66.03 7.00 249.80 2627.56
   12:07:15.000.08-Feb-2020 3069.01 4517.03 66.03 7.00 250.00 2627.56
   12:07:15.200.08-Feb-2020 3069.01 4517.03 66.03 7.00 250.20 2627.56
   12:07:15.400.08-Feb-2020 3069.01 4520.92 66.03 7.00 250.40 2627.56
   12:07:15.600.08-Feb-2020 3069.01 4522.80 66.03 7.00 250.60 2627.56
   12:07:15.800.08-Feb-2020 3069.01 4524.70 66.03 7.00 250.80 2627.56
   12:07:16.000.08-Feb-2020 3069.01 4526.66 66.03 7.00 251.00 2627.56
   12:07:16.200.08-Feb-2020 3069.01 4526.66 66.03 7.00 251.20 2627.56
   12:07:16.400.08-Feb-2020 3069.01 4529.90 66.03 7.00 251.40 2627.56
   12:07:16.600.08-Feb-2020 3069.01 4531.92 66.03 7.00 251.60 2627.56
   12:07:16.800.08-Feb-2020 3069.01 4533.11 66.03 7.00 251.80 2627.56
   12:07:17.000.08-Feb-2020 3069.01 4535.11 66.03 7.00 252.00 2627.56
   12:07:17.200.08-Feb-2020 3069.01 4535.11 66.03 7.00 252.20 2627.56
   12:07:17.400.08-Feb-2020 3069.01 4538.43 66.03 7.00 252.40 2627.56
   12:07:17.600.08-Feb-2020 3069.01 4540.38 66.03 7.00 252.60 2627.56
   12:07:17.800.08-Feb-2020 3069.01 4542.24 66.03 7.00 252.80 2627.56
