~Version Information
 VERS.                  2.0:   CWLS log ASCII Standard -VERSION 2.0
 WRAP.                   NO:   One line per depth step
~Well Information Block
#MNEM.UNIT     VALUE/NAME     DESCRIPTION
#---------     -----------    ---------------------------
 STRT.S             09:08:12 08-Feb-20: START TIME 09:08:12 08-Feb-20
 STOP.S             09:14:54 08-Feb-20: STOP TIME  09:14:54 08-Feb-20
 STEP.S                   0.00: STEP TIME
 NULL.                 -999.25: NULL VALUE
 DFWT.                        :  DIST FWL TEXT
 DFST.                        :  DIST FSL TEXT
 DMF .             Drill Floor:  DRILL MEAS FROM
 STIM.      07.00.00 09-Jan-20:  START TIME
 DATE.      14.04.48 07-Feb-20:  END TIME
 SPUD.               09-Jan-20:  SPUD DATE
 NREF.                    Grid:  NORTH REFERENCE
 HPTY.       Minimum Curvature:  HOLE POS TYPE
 DMOD.             Drill Model:  DRILL MOD DESC
 SVYD.                  Survey:  SURVEY DESC
 ILTD.               Lithology:  INTERP LTH DESC
 FTOP.          Formation Tops:  FORM TOPS DESC
 SON .        AZ-XX-0905059384:  JOB NUMBER
 MDS .        Operator Entered:  MAG DATA SOURCE
 WTYP.                Deviated:  WELL TYPE
 COMP.     BP Exploration (Caspian Sea) Ltd.:  COMPANY
 UWI .                     N/A:  UNIQUE WELL IDENTIFIER
 API .                     N/A:  API NUMBER
 BASE.              Azerbaijan:  LOGGING EQUIPMENT BASE LOCATION
 REGN.                   EESSA:  REGION
 PROV.                    Baku:  PROVINCE
 STAT.                    Baku:  STATE NAME
 CTRY.              Azerbaijan:  COUNTRY NAME
 FLD .                     ACG:  FIELD NAME
 SRVC.     TURAN Drilling & Engineering:  CONTRACTOR
 MWDS.                    Baku:  MWD SHOP
 WELL.                     J22:  WELL NAME
 RIG .             West Chirag:  RIG NAME
 DOE .                     N/A:  DOE NUMBER
 DCON.         Sperry Drilling:  DIRECTNL CONTR
 UNIT.                     N/A:  LOGGING EQUIPMENT ID
 PDAT.          Mean Sea Level:  PERMANENT DATUM
 JOBN.        AZ-XX-0905059384:  JOB TICKET NUMB
 CNTY.                        :  COUNTY
 LOC .                        :  LOCATION
 LMF .             Drill Floor:  LOG MEASURED FROM
 TVDS.m                  43.00:  TVDSS CORRECTN
 LATI.deg                40.13:  LATITUDE
 LONG.deg                51.22:  LONGITUDE
 WHNS.m                  10.28:  WELL HEAD N/S
 WHEW.m                  -6.24:  WELL HEAD E/W
 UTMX.m              519005.06:  UTM X
 UTMY.m             4443793.85:  UTM Y
 DFWL.m                   0.00:  DISTANCE FWL
 DFSL.m                   0.00:  DISTANCE FSL
 SDEP.m                 362.00:  START DEPTH
 TDD .m                 904.00:  TOTAL DEPTH (DRILLER)
 VSDR.deg               148.53:  VERT SEC DIRECT
 GVFD.g                   1.00:  GRAVITY FIELD
 MFLD.nT              50277.00:  MAGNETIC FIELD
 MDIP.deg                59.56:  MAGNETIC DIP
 MDEC.deg                 6.42:  MAGNETIC DECL
 GRDC.deg                 0.15:  GRID CORRECTION
 AZTC.deg                 6.27:  AZM TOTAL CORR
 EPD .m                   0.00:  ELEVATION
 EGL .m                   0.00:  GROUND ELEVATION
 WDMS.m                 169.80:  WD ELEV
 APD .m                  43.00:  DEPTH ABOVE PD
 AGAP.m                  43.00:  AIR GAP
 VSEW.m                  -6.24:  VERT SEC E/W
 VSNS.m                  10.28:  VERT SEC N/S
 DEP .m                   0.00:  DEPTH
 EKB .m                   0.00:  KB ELEVATION
 EDF .m                  43.00:  DF ELEVATION
 TDL .m                1183.00:  TOTAL DEPTH (LOGGER)
 VSC .                       0:  VS TO CLOSURE
 MAGU.                 1850021:  MAGUTM CHECKSUM
~Parameter Information Block
#MNEM.UNIT       Value        Description
#---------     -----------    ---------------------------
 AV  .mps                 4.00:  Ann Velocity 
 AVMX.mps                 4.50:  Max Ann Veloc 
 AZIF.deg               145.38:  Azm, Final 
 BHAT.        Rotary Steerable:  BHA Type 
 BROT.°/30m               3.00:  Build Rotating 
 BS  .in                 12.25:  Bit Size 
 BSZ .in                 12.25:  Bit Size 
 BTPL.psig              650.00:  Bit Press Loss 
 CABU.                      No:  Customer Abuse 
 COMM.                     T!k:  Run Comments 1 
 TCS .hr                101.62:  Time Ciculation Ended 
 CV  .mps                 5.00:  Crit Velocity 
 CVMX.mps                 5.00:  Max Crit Veloc 
 DD1 .             Aziz Aliyev:  Direct Drillr 1 
 DD2 .      Fakhraddin Guliyev:  Direct Drillr 2 
 DDSV.                 iCruise:  DD Service 
 DEFF.%                  97.00:  % Det Eff 
 DLRX.°/30m               4.16:  Dogleg Rot Max 
 DLSO.°/30m               3.20:  Dogleg Oriented 
 DLSX.°/30m               4.10:  Dogleg Str Max 
 DRET.      23.12.00 07-Feb-20:  Drill End Time 
 DRST.      11.30.00 04-Feb-20:  Drill Start Tim 
 DTIM.hr                 61.06:  Time Drilling 
 EDEP.m                3219.01:  End Depth 
 ENG1.         Almaz Almadatov:  Engineer 1 
 ENG2.         Dair Mahammadov:  Engineer 2 
 ENG3.          Nazrin Asgarli:  Engineer 3 
 ETIM.      02.30.00 11-Feb-20:  End Time 
 FLOI.gpm              1100.00:  Flow In 
 FLON.gpm               900.00:  Flow In Min 
 FLOS.cptm               55.00:  Fluid Loss 
 FLOX.gpm              1150.00:  Flow In Max 
 FTRO.       Formation Presure:  FTWD Run Obj 
 HFLO.                      No:  High Flow 
 HPRE.                      No:  High Pressure 
 HTEM.                      No:  High Temp 
 HYDO.m                   1.80:  Hydro Offset 
 IFIN.deg                75.11:  Inc, Final 
 IMAX.deg                75.11:  Inc Max 
 IMIN.deg                33.55:  Inc Min 
 IMND.m                2186.05:  Inc Min Depth 
 IMXD.m                3205.61:  Inc Max Depth 
 JARR.                      No:  Jarring 
 LETM.      23.12.00 07-Feb-20:  Log End Time 
 LOST.hr                     0:  Lost Rig Time 
 LSTM.      11.30.00 04-Feb-20:  Log Start Time 
 MDCL.ppm             40000.00:  Mud Chlorides 
 MDES.     Inversion Oil/Synthetic:  Mud Desc 
 DFD .sg                  1.49:  Mud Density 
 MDMN.sg                  1.49:  Dens Mud Min 
 MDMX.sg                  1.49:  Dens Mud Max 
 MOIL.                      73:  Run Mud Oil % 
 MOWR.                   73:27:  Run Mud OWR 
 MSND.                     0.1:  Run Mud Sand % 
 MSOL.                    20.1:  Run Mud Solids% 
 DFV .spqt               78.00:  Mud Viscosity 
 MWOD.in                  8.00:  MWD Tool OD 
 MWSI.                      No:  Serv Intrp, MWD 
 OTIM.hr                177.15:  Time Operating 
 PCON.          Wear / Scratch:  Pad Condition 
 PMAX.psia            10493.93:  Press Op, Max 
 PV  .cP                 73.00:  Mud PV 
 RUN .                     700:  Run Number 
 ROPA.m/hr               15.00:  ROP Avg 
 ROPN.m/hr               10.00:  ROP Min 
 ROPX.m/hr               35.00:  ROP Max 
 RPMA.rpm               130.00:  RPM Surface Avg 
 RPMN.rpm                80.00:  RPM Surface Min 
 RPMX.rpm               150.00:  RPM Surface Max 
 RRUN.                    L402:  Rig Run Number 
 RTIM.hr                 80.50:  Time Reaming 
 SAZI.deg               155.55:  Azm, Start 
 SDEP.m                2036.00:  Start Depth 
 SIDD.                      No:  Serv Intrp, DD 
 SINC.deg                35.44:  Inc, Start 
 SPPA.psig             4270.00:  SPP Avg 
 SPPN.psig             2800.00:  SPP Min 
 SPPX.psig             4850.00:  SPP Max 
 STIM.      09.30.00 03-Feb-20:  Start Time 
 SVCS.                 DD, MWD:  Services 
 SVER.                    9.20:  Sperry Version 
 TDAT.m                1183.00:  Tot Depth Attmp 
 TDDF.                      No:  Trip for DD 
 TDLG.m                1183.00:  Tot Depth Loggd 
 TFF .                      No:  Trip for Fail 
 TQAA.f-kp               16.00:  Torque Abs Avg 
 TQAN.f-kp               10.00:  Torque Abs Min 
 TQAX.f-kp               20.00:  Torque Abs Max 
 TRRT.°/30m               1.00:  Turn Rotating 
 MRT .                  EWR-M5:  Maximum Recorded Temperature 
 TTMX.degC               80.39:  Max Tool Temp 
 VS01.               13098498 :  Virtual Str1 SN 
 VS02.                90569596:  Virtual Str2 SN 
 VS03.                90523599:  Virtual Str3 SN 
 VS04.                90573553:  Virtual Str4 SN 
 VS05.                90598598:  Virtual Str5 SN 
 VS06.                90577297:  Virtual Str6 SN 
 WBMN.klb                13.00:  WOB Min 
 WITN.         Alistair Sprott:  Customer Rep 
 WITN.           Rufat Babayev:  Customer Rep 2 
 WOBA.klb                15.00:  WOB Avg 
 WOBX.klb                20.00:  WOB Max 
 YP  .lhf2               39.00:  Yield Point 
~Curve Information Block
#MNEM.UNIT                 API CODE     Curve Description
#---------               -----------    ---------------------------
 TIME.HHMMSS            00 000 000 000:  GT Time & Date
 GTDEPTH.m              00 000 000 000:  GT Depth
 GTPQH.psia             00 000 000 000:  GT HR Quartz Pressure
 GTTQ.degC              00 000 000 000:  GT Quartz Temperature
 GTTN.NONE              00 000 000 000:  GT Test Number
 GTET.sec               00 000 000 000:  GT Elapsed Test Time
 GTTVD.m                00 000 000 000:  GT True Vertical Depth
#Other Information
#
#WARRANTY: Halliburton will use its best efforts to furnish customers with 
#accurate information and interpretations that are part of, and incident to, the services 
#provided.  However, Halliburton cannot and does not warrant the accuracy 
#or correctness of such information and interpretations.  Under no circumstances should any 
#such information or interpretation be relied upon as the sole basis for any drilling, 
#completion, production, or financial decision or any procedure involving any risk to the 
#safety of any drilling venture, drilling rig or its crew or any other third party.  The 
#Customer has full responsibility for all drilling, completion and production operation.  
#Halliburton makes no representations or warranties, either expressed or 
#implied, including, but not limited to, the implied warranties of merchantability or fitness 
#for a particular purpose, with respect to the services rendered.  In no event will 
#Halliburton be liable for failure to obtain any particular results or for 
#any damages, including, but not limited to, indirect, special or consequential damages, 
#resulting from the use of any information or interpretation provided by Halliburton.
#
~A           TIME           GTDEPTH  GTPQH  GTTQ  GTTN  GTET   GTTVD  
# ...
   09:08:35.766.08-Feb-2020 3153.21 5789.84 69.98 3.00  23.00 2652.75
   09:08:35.966.08-Feb-2020 3153.21 5789.84 69.98 3.00  23.20 2652.75
   09:08:36.166.08-Feb-2020 3153.21 5784.64 69.98 3.00  23.40 2652.75
   09:08:36.366.08-Feb-2020 3153.21 5790.97 69.98 3.00  23.60 2652.75
   09:08:36.566.08-Feb-2020 3153.21 5785.00 69.98 3.00  23.80 2652.75
   09:08:36.766.08-Feb-2020 3153.21 5782.39 69.98 3.00  24.00 2652.75
   09:08:36.966.08-Feb-2020 3153.21 5782.39 69.98 3.00  24.20 2652.75
   09:08:37.166.08-Feb-2020 3153.21 5785.60 69.98 3.00  24.40 2652.75
   09:08:37.366.08-Feb-2020 3153.21 5782.66 69.98 3.00  24.60 2652.75
   09:08:37.566.08-Feb-2020 3153.21 5783.62 69.98 3.00  24.80 2652.75
   09:08:37.766.08-Feb-2020 3153.21 5785.40 69.98 3.00  25.00 2652.75
   09:08:37.966.08-Feb-2020 3153.21 5785.40 69.98 3.00  25.20 2652.75
   09:08:38.166.08-Feb-2020 3153.21 5783.82 69.98 3.00  25.40 2652.75
   09:08:38.366.08-Feb-2020 3153.21 5784.19 69.97 3.00  25.60 2652.75
   09:08:38.566.08-Feb-2020 3153.21 5784.17 69.97 3.00  25.80 2652.75
   09:08:38.766.08-Feb-2020 3153.21 5782.91 69.97 3.00  26.00 2652.75
   09:08:38.966.08-Feb-2020 3153.21 5782.91 69.97 3.00  26.20 2652.75
   09:08:39.166.08-Feb-2020 3153.21 5790.11 69.97 3.00  26.40 2652.75
   09:08:39.366.08-Feb-2020 3153.21 5782.73 69.97 3.00  26.60 2652.75
   09:08:39.566.08-Feb-2020 3153.21 5781.81 69.97 3.00  26.80 2652.75
   09:08:39.766.08-Feb-2020 3153.21 5782.90 69.97 3.00  27.00 2652.75
   09:08:39.966.08-Feb-2020 3153.21 5782.90 69.97 3.00  27.20 2652.75
   09:08:40.166.08-Feb-2020 3153.21 5783.16 69.97 3.00  27.40 2652.75
   09:08:40.366.08-Feb-2020 3153.21 5782.89 69.97 3.00  27.60 2652.75
   09:08:40.566.08-Feb-2020 3153.21 5784.01 69.97 3.00  27.80 2652.75
   09:08:40.766.08-Feb-2020 3153.21 5783.33 69.97 3.00  28.00 2652.75
   09:08:40.966.08-Feb-2020 3153.21 5783.33 69.97 3.00  28.20 2652.75
   09:08:41.166.08-Feb-2020 3153.21 5783.04 69.97 3.00  28.40 2652.75
   09:08:41.366.08-Feb-2020 3153.21 5788.37 69.97 3.00  28.60 2652.75
   09:08:41.566.08-Feb-2020 3153.21 5781.92 69.97 3.00  28.80 2652.75
   09:08:41.766.08-Feb-2020 3153.21 5780.50 69.97 3.00  29.00 2652.75
   09:08:41.966.08-Feb-2020 3153.21 5780.50 69.97 3.00  29.20 2652.75
   09:08:42.166.08-Feb-2020 3153.21 5785.12 69.97 3.00  29.40 2652.75
   09:08:42.366.08-Feb-2020 3153.21 5780.59 69.97 3.00  29.60 2652.75
   09:08:42.566.08-Feb-2020 3153.21 5781.49 69.97 3.00  29.80 2652.75
   09:08:42.766.08-Feb-2020 3153.21 5789.83 69.97 3.00  30.00 2652.75
   09:08:42.966.08-Feb-2020 3153.21 5789.83 69.97 3.00  30.20 2652.75
   09:08:43.166.08-Feb-2020 3153.21 5781.68 69.97 3.00  30.40 2652.75
   09:08:43.366.08-Feb-2020 3153.21 5783.26 69.97 3.00  30.60 2652.75
   09:08:43.566.08-Feb-2020 3153.21 5784.10 69.97 3.00  30.80 2652.75
   09:08:43.766.08-Feb-2020 3153.21 5781.52 69.97 3.00  31.00 2652.75
   09:08:43.966.08-Feb-2020 3153.21 5781.52 69.97 3.00  31.20 2652.75
   09:08:44.166.08-Feb-2020 3153.21 5785.51 69.97 3.00  31.40 2652.75
   09:08:44.366.08-Feb-2020 3153.21 5785.10 69.97 3.00  31.60 2652.75
   09:08:44.566.08-Feb-2020 3153.21 5782.60 69.97 3.00  31.80 2652.75
   09:08:44.766.08-Feb-2020 3153.21 5783.29 69.97 3.00  32.00 2652.75
   09:08:44.966.08-Feb-2020 3153.21 5783.29 69.97 3.00  32.20 2652.75
   09:08:45.166.08-Feb-2020 3153.21 5783.06 69.97 3.00  32.40 2652.75
   09:08:45.366.08-Feb-2020 3153.21 5783.59 69.97 3.00  32.60 2652.75
   09:08:45.566.08-Feb-2020 3153.21 5784.67 69.97 3.00  32.80 2652.75
   09:08:45.766.08-Feb-2020 3153.21 5783.77 69.97 3.00  33.00 2652.75
   09:08:45.966.08-Feb-2020 3153.21 5783.77 69.97 3.00  33.20 2652.75
   09:08:46.166.08-Feb-2020 3153.21 5783.34 69.97 3.00  33.40 2652.75
   09:08:46.366.08-Feb-2020 3153.21 5785.48 69.97 3.00  33.60 2652.75
   09:08:46.566.08-Feb-2020 3153.21 5784.78 69.97 3.00  33.80 2652.75
   09:08:46.767.08-Feb-2020 3153.21 5810.44 69.97 3.00  34.00 2652.75
   09:08:46.967.08-Feb-2020 3153.21 5810.44 69.97 3.00  34.20 2652.75
   09:08:47.167.08-Feb-2020 3153.21 5762.21 69.96 3.00  34.40 2652.75
   09:08:47.367.08-Feb-2020 3153.21 5709.97 69.96 3.00  34.60 2652.75
   09:08:47.567.08-Feb-2020 3153.21 5677.80 69.96 3.00  34.80 2652.75
   09:08:47.767.08-Feb-2020 3153.21 5635.18 69.96 3.00  35.00 2652.75
   09:08:47.967.08-Feb-2020 3153.21 5635.18 69.96 3.00  35.20 2652.75
   09:08:48.167.08-Feb-2020 3153.21 5582.99 69.96 3.00  35.40 2652.75
   09:08:48.367.08-Feb-2020 3153.21 5557.71 69.96 3.00  35.60 2652.75
   09:08:48.567.08-Feb-2020 3153.21 5524.94 69.96 3.00  35.80 2652.75
   09:08:48.767.08-Feb-2020 3153.21 5497.96 69.96 3.00  36.00 2652.75
   09:08:48.967.08-Feb-2020 3153.21 5497.96 69.96 3.00  36.20 2652.75
   09:08:49.167.08-Feb-2020 3153.21 5610.55 69.96 3.00  36.40 2652.75
   09:08:49.367.08-Feb-2020 3153.21 5515.97 69.96 3.00  36.60 2652.75
   09:08:49.567.08-Feb-2020 3153.21 5520.11 69.96 3.00  36.80 2652.75
   09:08:49.767.08-Feb-2020 3153.21 5468.58 69.96 3.00  37.00 2652.75
   09:08:49.967.08-Feb-2020 3153.21 5468.58 69.96 3.00  37.20 2652.75
   09:08:50.167.08-Feb-2020 3153.21 5367.88 69.96 3.00  37.40 2652.75
   09:08:50.367.08-Feb-2020 3153.21 5343.70 69.96 3.00  37.60 2652.75
   09:08:50.567.08-Feb-2020 3153.21 5349.35 69.96 3.00  37.80 2652.75
   09:08:50.767.08-Feb-2020 3153.21 5359.37 69.96 3.00  38.00 2652.75
   09:08:50.967.08-Feb-2020 3153.21 5359.37 69.96 3.00  38.20 2652.75
   09:08:51.167.08-Feb-2020 3153.21 5368.98 69.96 3.00  38.40 2652.75
   09:08:51.367.08-Feb-2020 3153.21 5379.19 69.96 3.00  38.60 2652.75
   09:08:51.567.08-Feb-2020 3153.21 5365.17 69.96 3.00  38.80 2652.75
   09:08:51.767.08-Feb-2020 3153.21 5413.73 69.96 3.00  39.00 2652.75
   09:08:51.967.08-Feb-2020 3153.21 5413.73 69.96 3.00  39.20 2652.75
   09:08:52.167.08-Feb-2020 3153.21 5641.20 69.96 3.00  39.40 2652.75
   09:08:52.367.08-Feb-2020 3153.21 5717.72 69.96 3.00  39.60 2652.75
   09:08:52.567.08-Feb-2020 3153.21 5716.39 69.95 3.00  39.80 2652.75
   09:08:52.767.08-Feb-2020 3153.21 5704.50 69.95 3.00  40.00 2652.75
   09:08:52.967.08-Feb-2020 3153.21 5704.50 69.95 3.00  40.20 2652.75
   09:08:53.167.08-Feb-2020 3153.21 5752.09 69.95 3.00  40.40 2652.75
   09:08:53.367.08-Feb-2020 3153.21 5747.52 69.95 3.00  40.60 2652.75
   09:08:53.567.08-Feb-2020 3153.21 5754.35 69.95 3.00  40.80 2652.75
   09:08:53.767.08-Feb-2020 3153.21 5780.78 69.95 3.00  41.00 2652.75
   09:08:53.967.08-Feb-2020 3153.21 5780.78 69.95 3.00  41.20 2652.75
   09:08:54.167.08-Feb-2020 3153.21 5785.70 69.95 3.00  41.40 2652.75
   09:08:54.367.08-Feb-2020 3153.21 5798.83 69.95 3.00  41.60 2652.75
   09:08:54.567.08-Feb-2020 3153.21 5820.29 69.95 3.00  41.80 2652.75
   09:08:54.767.08-Feb-2020 3153.21 5858.11 69.95 3.00  42.00 2652.75
   09:08:54.967.08-Feb-2020 3153.21 5858.11 69.95 3.00  42.20 2652.75
   09:08:55.167.08-Feb-2020 3153.21 5879.11 69.95 3.00  42.40 2652.75
   09:08:55.367.08-Feb-2020 3153.21 5877.27 69.95 3.00  42.60 2652.75
   09:08:55.567.08-Feb-2020 3153.21 5889.44 69.95 3.00  42.80 2652.75
   09:08:55.767.08-Feb-2020 3153.21 5908.42 69.95 3.00  43.00 2652.75
   09:08:55.967.08-Feb-2020 3153.21 5908.42 69.95 3.00  43.20 2652.75
   09:08:56.167.08-Feb-2020 3153.21 5950.31 69.95 3.00  43.40 2652.75
   09:08:56.367.08-Feb-2020 3153.21 5950.83 69.95 3.00  43.60 2652.75
   09:08:56.567.08-Feb-2020 3153.21 5971.78 69.95 3.00  43.80 2652.75
   09:08:56.767.08-Feb-2020 3153.21 6000.25 69.95 3.00  44.00 2652.75
   09:08:56.967.08-Feb-2020 3153.21 6000.25 69.95 3.00  44.20 2652.75
   09:08:57.167.08-Feb-2020 3153.21 6047.38 69.95 3.00  44.40 2652.75
   09:08:57.367.08-Feb-2020 3153.21 6070.31 69.95 3.00  44.60 2652.75
   09:08:57.567.08-Feb-2020 3153.21 6104.12 69.95 3.00  44.80 2652.75
   09:08:57.767.08-Feb-2020 3153.21 6102.40 69.95 3.00  45.00 2652.75
   09:08:57.967.08-Feb-2020 3153.21 6102.40 69.95 3.00  45.20 2652.75
   09:08:58.167.08-Feb-2020 3153.21 6153.69 69.95 3.00  45.40 2652.75
   09:08:58.367.08-Feb-2020 3153.21 6178.42 69.95 3.00  45.60 2652.75
   09:08:58.567.08-Feb-2020 3153.21 6199.38 69.95 3.00  45.80 2652.75
