~Version Information
 VERS.                  2.0:   CWLS log ASCII Standard -VERSION 2.0
 WRAP.                   NO:   One line per depth step
~Well Information Block
#MNEM.UNIT     VALUE/NAME     DESCRIPTION
#---------     -----------    ---------------------------
 STRT.S             11:02:51 08-Feb-20: START TIME 11:02:51 08-Feb-20
 STOP.S             11:09:43 08-Feb-20: STOP TIME  11:09:43 08-Feb-20
 STEP.S                   0.00: STEP TIME
 NULL.                 -999.25: NULL VALUE
 DFWT.                        :  DIST FWL TEXT
 DFST.                        :  DIST FSL TEXT
 DMF .             Drill Floor:  DRILL MEAS FROM
 STIM.      07.00.00 09-Jan-20:  START TIME
 DATE.      14.04.48 07-Feb-20:  END TIME
 SPUD.               09-Jan-20:  SPUD DATE
 NREF.                    Grid:  NORTH REFERENCE
 HPTY.       Minimum Curvature:  HOLE POS TYPE
 DMOD.             Drill Model:  DRILL MOD DESC
 SVYD.                  Survey:  SURVEY DESC
 ILTD.               Lithology:  INTERP LTH DESC
 FTOP.          Formation Tops:  FORM TOPS DESC
 SON .        AZ-XX-0905059384:  JOB NUMBER
 MDS .        Operator Entered:  MAG DATA SOURCE
 WTYP.                Deviated:  WELL TYPE
 COMP.     BP Exploration (Caspian Sea) Ltd.:  COMPANY
 UWI .                     N/A:  UNIQUE WELL IDENTIFIER
 API .                     N/A:  API NUMBER
 BASE.              Azerbaijan:  LOGGING EQUIPMENT BASE LOCATION
 REGN.                   EESSA:  REGION
 PROV.                    Baku:  PROVINCE
 STAT.                    Baku:  STATE NAME
 CTRY.              Azerbaijan:  COUNTRY NAME
 FLD .                     ACG:  FIELD NAME
 SRVC.     TURAN Drilling & Engineering:  CONTRACTOR
 MWDS.                    Baku:  MWD SHOP
 WELL.                     J22:  WELL NAME
 RIG .             West Chirag:  RIG NAME
 DOE .                     N/A:  DOE NUMBER
 DCON.         Sperry Drilling:  DIRECTNL CONTR
 UNIT.                     N/A:  LOGGING EQUIPMENT ID
 PDAT.          Mean Sea Level:  PERMANENT DATUM
 JOBN.        AZ-XX-0905059384:  JOB TICKET NUMB
 CNTY.                        :  COUNTY
 LOC .                        :  LOCATION
 LMF .             Drill Floor:  LOG MEASURED FROM
 TVDS.m                  43.00:  TVDSS CORRECTN
 LATI.deg                40.13:  LATITUDE
 LONG.deg                51.22:  LONGITUDE
 WHNS.m                  10.28:  WELL HEAD N/S
 WHEW.m                  -6.24:  WELL HEAD E/W
 UTMX.m              519005.06:  UTM X
 UTMY.m             4443793.85:  UTM Y
 DFWL.m                   0.00:  DISTANCE FWL
 DFSL.m                   0.00:  DISTANCE FSL
 SDEP.m                 362.00:  START DEPTH
 TDD .m                 904.00:  TOTAL DEPTH (DRILLER)
 VSDR.deg               148.53:  VERT SEC DIRECT
 GVFD.g                   1.00:  GRAVITY FIELD
 MFLD.nT              50277.00:  MAGNETIC FIELD
 MDIP.deg                59.56:  MAGNETIC DIP
 MDEC.deg                 6.42:  MAGNETIC DECL
 GRDC.deg                 0.15:  GRID CORRECTION
 AZTC.deg                 6.27:  AZM TOTAL CORR
 EPD .m                   0.00:  ELEVATION
 EGL .m                   0.00:  GROUND ELEVATION
 WDMS.m                 169.80:  WD ELEV
 APD .m                  43.00:  DEPTH ABOVE PD
 AGAP.m                  43.00:  AIR GAP
 VSEW.m                  -6.24:  VERT SEC E/W
 VSNS.m                  10.28:  VERT SEC N/S
 DEP .m                   0.00:  DEPTH
 EKB .m                   0.00:  KB ELEVATION
 EDF .m                  43.00:  DF ELEVATION
 TDL .m                1183.00:  TOTAL DEPTH (LOGGER)
 VSC .                       0:  VS TO CLOSURE
 MAGU.                 1850021:  MAGUTM CHECKSUM
~Parameter Information Block
#MNEM.UNIT       Value        Description
#---------     -----------    ---------------------------
 AV  .mps                 4.00:  Ann Velocity 
 AVMX.mps                 4.50:  Max Ann Veloc 
 AZIF.deg               145.38:  Azm, Final 
 BHAT.        Rotary Steerable:  BHA Type 
 BROT.°/30m               3.00:  Build Rotating 
 BS  .in                 12.25:  Bit Size 
 BSZ .in                 12.25:  Bit Size 
 BTPL.psig              650.00:  Bit Press Loss 
 CABU.                      No:  Customer Abuse 
 COMM.                     Ä%€:  Run Comments 1 
 TCS .hr                101.62:  Time Ciculation Ended 
 CV  .mps                 5.00:  Crit Velocity 
 CVMX.mps                 5.00:  Max Crit Veloc 
 DD1 .             Aziz Aliyev:  Direct Drillr 1 
 DD2 .      Fakhraddin Guliyev:  Direct Drillr 2 
 DDSV.                 iCruise:  DD Service 
 DEFF.%                  97.00:  % Det Eff 
 DLRX.°/30m               4.16:  Dogleg Rot Max 
 DLSO.°/30m               3.20:  Dogleg Oriented 
 DLSX.°/30m               4.10:  Dogleg Str Max 
 DRET.      23.12.00 07-Feb-20:  Drill End Time 
 DRST.      11.30.00 04-Feb-20:  Drill Start Tim 
 DTIM.hr                 61.06:  Time Drilling 
 EDEP.m                3219.01:  End Depth 
 ENG1.         Almaz Almadatov:  Engineer 1 
 ENG2.         Dair Mahammadov:  Engineer 2 
 ENG3.          Nazrin Asgarli:  Engineer 3 
 ETIM.      02.30.00 11-Feb-20:  End Time 
 FLOI.gpm              1100.00:  Flow In 
 FLON.gpm               900.00:  Flow In Min 
 FLOS.cptm               55.00:  Fluid Loss 
 FLOX.gpm              1150.00:  Flow In Max 
 FTRO.       Formation Presure:  FTWD Run Obj 
 HFLO.                      No:  High Flow 
 HPRE.                      No:  High Pressure 
 HTEM.                      No:  High Temp 
 HYDO.m                   1.80:  Hydro Offset 
 IFIN.deg                75.11:  Inc, Final 
 IMAX.deg                75.11:  Inc Max 
 IMIN.deg                33.55:  Inc Min 
 IMND.m                2186.05:  Inc Min Depth 
 IMXD.m                3205.61:  Inc Max Depth 
 JARR.                      No:  Jarring 
 LETM.      23.12.00 07-Feb-20:  Log End Time 
 LOST.hr                     0:  Lost Rig Time 
 LSTM.      11.30.00 04-Feb-20:  Log Start Time 
 MDCL.ppm             40000.00:  Mud Chlorides 
 MDES.     Inversion Oil/Synthetic:  Mud Desc 
 DFD .sg                  1.49:  Mud Density 
 MDMN.sg                  1.49:  Dens Mud Min 
 MDMX.sg                  1.49:  Dens Mud Max 
 MOIL.                      73:  Run Mud Oil % 
 MOWR.                   73:27:  Run Mud OWR 
 MSND.                     0.1:  Run Mud Sand % 
 MSOL.                    20.1:  Run Mud Solids% 
 DFV .spqt               78.00:  Mud Viscosity 
 MWOD.in                  8.00:  MWD Tool OD 
 MWSI.                      No:  Serv Intrp, MWD 
 OTIM.hr                177.15:  Time Operating 
 PCON.          Wear / Scratch:  Pad Condition 
 PMAX.psia            10493.93:  Press Op, Max 
 PV  .cP                 73.00:  Mud PV 
 RUN .                     700:  Run Number 
 ROPA.m/hr               15.00:  ROP Avg 
 ROPN.m/hr               10.00:  ROP Min 
 ROPX.m/hr               35.00:  ROP Max 
 RPMA.rpm               130.00:  RPM Surface Avg 
 RPMN.rpm                80.00:  RPM Surface Min 
 RPMX.rpm               150.00:  RPM Surface Max 
 RRUN.                    L402:  Rig Run Number 
 RTIM.hr                 80.50:  Time Reaming 
 SAZI.deg               155.55:  Azm, Start 
 SDEP.m                2036.00:  Start Depth 
 SIDD.                      No:  Serv Intrp, DD 
 SINC.deg                35.44:  Inc, Start 
 SPPA.psig             4270.00:  SPP Avg 
 SPPN.psig             2800.00:  SPP Min 
 SPPX.psig             4850.00:  SPP Max 
 STIM.      09.30.00 03-Feb-20:  Start Time 
 SVCS.                 DD, MWD:  Services 
 SVER.                    9.20:  Sperry Version 
 TDAT.m                1183.00:  Tot Depth Attmp 
 TDDF.                      No:  Trip for DD 
 TDLG.m                1183.00:  Tot Depth Loggd 
 TFF .                      No:  Trip for Fail 
 TQAA.f-kp               16.00:  Torque Abs Avg 
 TQAN.f-kp               10.00:  Torque Abs Min 
 TQAX.f-kp               20.00:  Torque Abs Max 
 TRRT.°/30m               1.00:  Turn Rotating 
 MRT .                  EWR-M5:  Maximum Recorded Temperature 
 TTMX.degC               80.39:  Max Tool Temp 
 VS01.               13098498 :  Virtual Str1 SN 
 VS02.                90569596:  Virtual Str2 SN 
 VS03.                90523599:  Virtual Str3 SN 
 VS04.                90573553:  Virtual Str4 SN 
 VS05.                90598598:  Virtual Str5 SN 
 VS06.                90577297:  Virtual Str6 SN 
 WBMN.klb                13.00:  WOB Min 
 WITN.         Alistair Sprott:  Customer Rep 
 WITN.           Rufat Babayev:  Customer Rep 2 
 WOBA.klb                15.00:  WOB Avg 
 WOBX.klb                20.00:  WOB Max 
 YP  .lhf2               39.00:  Yield Point 
~Curve Information Block
#MNEM.UNIT                 API CODE     Curve Description
#---------               -----------    ---------------------------
 TIME.HHMMSS            00 000 000 000:  GT Time & Date
 GTDEPTH.m              00 000 000 000:  GT Depth
 GTPQH.psia             00 000 000 000:  GT HR Quartz Pressure
 GTTQ.degC              00 000 000 000:  GT Quartz Temperature
 GTTN.NONE              00 000 000 000:  GT Test Number
 GTET.sec               00 000 000 000:  GT Elapsed Test Time
 GTTVD.m                00 000 000 000:  GT True Vertical Depth
#Other Information
#
#WARRANTY: Halliburton will use its best efforts to furnish customers with 
#accurate information and interpretations that are part of, and incident to, the services 
#provided.  However, Halliburton cannot and does not warrant the accuracy 
#or correctness of such information and interpretations.  Under no circumstances should any 
#such information or interpretation be relied upon as the sole basis for any drilling, 
#completion, production, or financial decision or any procedure involving any risk to the 
#safety of any drilling venture, drilling rig or its crew or any other third party.  The 
#Customer has full responsibility for all drilling, completion and production operation.  
#Halliburton makes no representations or warranties, either expressed or 
#implied, including, but not limited to, the implied warranties of merchantability or fitness 
#for a particular purpose, with respect to the services rendered.  In no event will 
#Halliburton be liable for failure to obtain any particular results or for 
#any damages, including, but not limited to, indirect, special or consequential damages, 
#resulting from the use of any information or interpretation provided by Halliburton.
#
~A           TIME           GTDEPTH  GTPQH  GTTQ  GTTN  GTET   GTTVD  
# ...
   11:07:27.586.08-Feb-2020 3115.78 3071.02 66.97 6.00 276.14 2642.62
   11:07:27.786.08-Feb-2020 3115.78 3071.02 66.97 6.00 276.34 2642.62
   11:07:27.986.08-Feb-2020 3115.78 3039.93 66.97 6.00 276.54 2642.62
   11:07:28.186.08-Feb-2020 3115.78 3028.03 66.97 6.00 276.74 2642.62
   11:07:28.386.08-Feb-2020 3115.78 3018.17 66.97 6.00 276.94 2642.62
   11:07:28.586.08-Feb-2020 3115.78 3012.92 66.97 6.00 277.14 2642.62
   11:07:28.786.08-Feb-2020 3115.78 3012.92 66.97 6.00 277.34 2642.62
   11:07:28.986.08-Feb-2020 3115.78 3007.53 66.96 6.00 277.55 2642.62
   11:07:29.186.08-Feb-2020 3115.78 2990.96 66.96 6.00 277.75 2642.62
   11:07:29.387.08-Feb-2020 3115.78 2986.70 66.96 6.00 277.95 2642.62
   11:07:29.587.08-Feb-2020 3115.78 2980.35 66.96 6.00 278.15 2642.62
   11:07:29.787.08-Feb-2020 3115.78 2980.35 66.96 6.00 278.35 2642.62
   11:07:29.987.08-Feb-2020 3115.78 2968.53 66.96 6.00 278.55 2642.62
   11:07:30.187.08-Feb-2020 3115.78 2968.90 66.95 6.00 278.75 2642.62
   11:07:30.387.08-Feb-2020 3115.78 2964.31 66.95 6.00 278.95 2642.62
   11:07:30.587.08-Feb-2020 3115.78 2960.36 66.95 6.00 279.15 2642.62
   11:07:30.787.08-Feb-2020 3115.78 2960.36 66.95 6.00 279.35 2642.62
   11:07:30.987.08-Feb-2020 3115.78 2958.29 66.95 6.00 279.55 2642.62
   11:07:31.188.08-Feb-2020 3115.78 2952.67 66.95 6.00 279.75 2642.62
   11:07:31.388.08-Feb-2020 3115.78 2949.02 66.95 6.00 279.95 2642.62
   11:07:31.588.08-Feb-2020 3115.78 2945.14 66.95 6.00 280.15 2642.62
   11:07:31.788.08-Feb-2020 3115.78 2945.14 66.95 6.00 280.35 2642.62
   11:07:31.988.08-Feb-2020 3115.78 2942.01 66.94 6.00 280.55 2642.62
   11:07:32.188.08-Feb-2020 3115.78 2937.36 66.94 6.00 280.75 2642.62
   11:07:32.388.08-Feb-2020 3115.78 2934.82 66.94 6.00 280.95 2642.62
   11:07:32.588.08-Feb-2020 3115.78 2933.13 66.94 6.00 281.15 2642.62
   11:07:32.788.08-Feb-2020 3115.78 2933.13 66.94 6.00 281.35 2642.62
   11:07:32.988.08-Feb-2020 3115.78 3023.30 66.94 6.00 281.55 2642.62
   11:07:33.189.08-Feb-2020 3115.78 3304.84 66.94 6.00 281.75 2642.62
   11:07:33.389.08-Feb-2020 3115.78 3528.31 66.94 6.00 281.95 2642.62
   11:07:33.589.08-Feb-2020 3115.78 3705.24 66.94 6.00 282.15 2642.62
   11:07:33.789.08-Feb-2020 3115.78 3705.24 66.94 6.00 282.35 2642.62
   11:07:33.989.08-Feb-2020 3115.78 3960.09 66.93 6.00 282.55 2642.62
   11:07:34.189.08-Feb-2020 3115.78 4054.38 66.93 6.00 282.75 2642.62
   11:07:34.389.08-Feb-2020 3115.78 4132.93 66.93 6.00 282.95 2642.62
   11:07:34.589.08-Feb-2020 3115.78 4197.04 66.93 6.00 283.15 2642.62
   11:07:34.789.08-Feb-2020 3115.78 4197.04 66.93 6.00 283.35 2642.62
   11:07:34.990.08-Feb-2020 3115.78 4296.24 66.93 6.00 283.55 2642.62
   11:07:35.190.08-Feb-2020 3115.78 4334.51 66.93 6.00 283.75 2642.62
   11:07:35.390.08-Feb-2020 3115.78 4366.56 66.93 6.00 283.95 2642.62
   11:07:35.590.08-Feb-2020 3115.78 4393.74 66.93 6.00 284.15 2642.62
   11:07:35.790.08-Feb-2020 3115.78 4393.74 66.93 6.00 284.35 2642.62
   11:07:35.990.08-Feb-2020 3115.78 4436.40 66.93 6.00 284.55 2642.62
   11:07:36.190.08-Feb-2020 3115.78 4453.43 66.93 6.00 284.75 2642.62
   11:07:36.390.08-Feb-2020 3115.78 4469.24 66.94 6.00 284.95 2642.62
   11:07:36.590.08-Feb-2020 3115.78 4482.43 66.94 6.00 285.15 2642.62
   11:07:36.790.08-Feb-2020 3115.78 4482.43 66.94 6.00 285.35 2642.62
   11:07:36.991.08-Feb-2020 3115.78 4504.40 66.94 6.00 285.55 2642.62
   11:07:37.191.08-Feb-2020 3115.78 4509.71 66.94 6.00 285.75 2642.62
   11:07:37.391.08-Feb-2020 3115.78 4517.34 66.94 6.00 285.95 2642.62
   11:07:37.591.08-Feb-2020 3115.78 4524.68 66.94 6.00 286.15 2642.62
   11:07:37.791.08-Feb-2020 3115.78 4524.68 66.94 6.00 286.35 2642.62
   11:07:37.991.08-Feb-2020 3115.78 4535.98 66.94 6.00 286.55 2642.62
   11:07:38.191.08-Feb-2020 3115.78 4537.89 66.94 6.00 286.75 2642.62
   11:07:38.391.08-Feb-2020 3115.78 4543.05 66.94 6.00 286.95 2642.62
   11:07:38.591.08-Feb-2020 3115.78 4546.86 66.94 6.00 287.15 2642.62
   11:07:38.792.08-Feb-2020 3115.78 4546.86 66.94 6.00 287.35 2642.62
   11:07:38.992.08-Feb-2020 3115.78 4551.89 66.94 6.00 287.55 2642.62
   11:07:39.192.08-Feb-2020 3115.78 4554.59 66.95 6.00 287.75 2642.62
   11:07:39.392.08-Feb-2020 3115.78 4557.67 66.95 6.00 287.95 2642.62
   11:07:39.592.08-Feb-2020 3115.78 4558.90 66.95 6.00 288.15 2642.62
   11:07:39.792.08-Feb-2020 3115.78 4558.90 66.95 6.00 288.35 2642.62
   11:07:39.992.08-Feb-2020 3115.78 4561.99 66.95 6.00 288.55 2642.62
   11:07:40.192.08-Feb-2020 3115.78 4563.19 66.95 6.00 288.75 2642.62
   11:07:40.392.08-Feb-2020 3115.78 4564.33 66.95 6.00 288.95 2642.62
   11:07:40.592.08-Feb-2020 3115.78 4565.59 66.95 6.00 289.15 2642.62
   11:07:40.793.08-Feb-2020 3115.78 4565.59 66.95 6.00 289.35 2642.62
   11:07:40.993.08-Feb-2020 3115.78 4568.04 66.95 6.00 289.55 2642.62
   11:07:41.193.08-Feb-2020 3115.78 4569.41 66.95 6.00 289.75 2642.62
   11:07:41.393.08-Feb-2020 3115.78 4570.00 66.95 6.00 289.95 2642.62
   11:07:41.593.08-Feb-2020 3115.78 4570.53 66.95 6.00 290.15 2642.62
   11:07:41.793.08-Feb-2020 3115.78 4570.53 66.95 6.00 290.35 2642.62
   11:07:41.993.08-Feb-2020 3115.78 4572.31 66.95 6.00 290.55 2642.62
   11:07:42.193.08-Feb-2020 3115.78 4573.04 66.95 6.00 290.75 2642.62
   11:07:42.393.08-Feb-2020 3115.78 4572.95 66.95 6.00 290.95 2642.62
   11:07:42.593.08-Feb-2020 3115.78 4573.64 66.95 6.00 291.15 2642.62
   11:07:42.794.08-Feb-2020 3115.78 4573.64 66.95 6.00 291.35 2642.62
   11:07:42.994.08-Feb-2020 3115.78 4574.64 66.95 6.00 291.55 2642.62
   11:07:43.194.08-Feb-2020 3115.78 4574.75 66.95 6.00 291.75 2642.62
   11:07:43.394.08-Feb-2020 3115.78 4575.02 66.95 6.00 291.95 2642.62
   11:07:43.594.08-Feb-2020 3115.78 4576.70 66.95 6.00 292.15 2642.62
   11:07:43.794.08-Feb-2020 3115.78 4576.70 66.95 6.00 292.35 2642.62
   11:07:43.994.08-Feb-2020 3115.78 4576.24 66.95 6.00 292.55 2642.62
   11:07:44.194.08-Feb-2020 3115.78 4577.34 66.95 6.00 292.75 2642.62
   11:07:44.394.08-Feb-2020 3115.78 4576.78 66.95 6.00 292.95 2642.62
   11:07:44.595.08-Feb-2020 3115.78 4578.66 66.95 6.00 293.15 2642.62
   11:07:44.795.08-Feb-2020 3115.78 4578.66 66.95 6.00 293.35 2642.62
   11:07:44.995.08-Feb-2020 3115.78 4577.84 66.96 6.00 293.55 2642.62
   11:07:45.195.08-Feb-2020 3115.78 4578.28 66.96 6.00 293.75 2642.62
   11:07:45.395.08-Feb-2020 3115.78 4578.04 66.96 6.00 293.95 2642.62
   11:07:45.595.08-Feb-2020 3115.78 4576.54 66.96 6.00 294.15 2642.62
   11:07:45.795.08-Feb-2020 3115.78 4576.54 66.96 6.00 294.35 2642.62
   11:07:45.995.08-Feb-2020 3115.78 4578.19 66.96 6.00 294.55 2642.62
   11:07:46.195.08-Feb-2020 3115.78 4577.59 66.96 6.00 294.75 2642.62
   11:07:46.395.08-Feb-2020 3115.78 4579.38 66.96 6.00 294.95 2642.62
   11:07:46.596.08-Feb-2020 3115.78 4578.23 66.96 6.00 295.15 2642.62
   11:07:46.796.08-Feb-2020 3115.78 4578.23 66.96 6.00 295.35 2642.62
   11:07:46.996.08-Feb-2020 3115.78 4579.25 66.96 6.00 295.55 2642.62
   11:07:47.196.08-Feb-2020 3115.78 4580.17 66.95 6.00 295.75 2642.62
   11:07:47.396.08-Feb-2020 3115.78 4579.23 66.95 6.00 295.95 2642.62
   11:07:47.596.08-Feb-2020 3115.78 4579.61 66.95 6.00 296.15 2642.62
   11:07:47.796.08-Feb-2020 3115.78 4579.89 66.95 6.00 296.35 2642.62
   11:07:47.996.08-Feb-2020 3115.78 4579.97 66.95 6.00 296.55 2642.62
   11:07:48.196.08-Feb-2020 3115.78 4580.11 66.95 6.00 296.76 2642.62
   11:07:48.397.08-Feb-2020 3115.78 4580.23 66.95 6.00 296.96 2642.62
   11:07:48.597.08-Feb-2020 3115.78 4581.00 66.95 6.00 297.16 2642.62
   11:07:48.797.08-Feb-2020 3115.78 4581.00 66.95 6.00 297.36 2642.62
   11:07:48.997.08-Feb-2020 3115.78 4580.13 66.95 6.00 297.56 2642.62
   11:07:49.197.08-Feb-2020 3115.78 4580.42 66.95 6.00 297.76 2642.62
   11:07:49.397.08-Feb-2020 3115.78 4581.60 66.95 6.00 297.96 2642.62
   11:07:49.597.08-Feb-2020 3115.78 4581.18 66.95 6.00 298.16 2642.62
   11:07:49.797.08-Feb-2020 3115.78 4581.18 66.95 6.00 298.36 2642.62
   11:07:49.997.08-Feb-2020 3115.78 4581.29 66.95 6.00 298.56 2642.62
   11:07:50.197.08-Feb-2020 3115.78 4581.51 66.95 6.00 298.76 2642.62
   11:07:50.398.08-Feb-2020 3115.78 4581.42 66.95 6.00 298.96 2642.62
