~Version Information
 VERS.                  2.0:   CWLS log ASCII Standard -VERSION 2.0
 WRAP.                   NO:   One line per depth step
~Well Information Block
#MNEM.UNIT     VALUE/NAME     DESCRIPTION
#---------     -----------    ---------------------------
 STRT.S             09:08:12 08-Feb-20: START TIME 09:08:12 08-Feb-20
 STOP.S             09:14:54 08-Feb-20: STOP TIME  09:14:54 08-Feb-20
 STEP.S                   0.00: STEP TIME
 NULL.                 -999.25: NULL VALUE
 DFWT.                        :  DIST FWL TEXT
 DFST.                        :  DIST FSL TEXT
 DMF .             Drill Floor:  DRILL MEAS FROM
 STIM.      07.00.00 09-Jan-20:  START TIME
 DATE.      14.04.48 07-Feb-20:  END TIME
 SPUD.               09-Jan-20:  SPUD DATE
 NREF.                    Grid:  NORTH REFERENCE
 HPTY.       Minimum Curvature:  HOLE POS TYPE
 DMOD.             Drill Model:  DRILL MOD DESC
 SVYD.                  Survey:  SURVEY DESC
 ILTD.               Lithology:  INTERP LTH DESC
 FTOP.          Formation Tops:  FORM TOPS DESC
 SON .        AZ-XX-0905059384:  JOB NUMBER
 MDS .        Operator Entered:  MAG DATA SOURCE
 WTYP.                Deviated:  WELL TYPE
 COMP.     BP Exploration (Caspian Sea) Ltd.:  COMPANY
 UWI .                     N/A:  UNIQUE WELL IDENTIFIER
 API .                     N/A:  API NUMBER
 BASE.              Azerbaijan:  LOGGING EQUIPMENT BASE LOCATION
 REGN.                   EESSA:  REGION
 PROV.                    Baku:  PROVINCE
 STAT.                    Baku:  STATE NAME
 CTRY.              Azerbaijan:  COUNTRY NAME
 FLD .                     ACG:  FIELD NAME
 SRVC.     TURAN Drilling & Engineering:  CONTRACTOR
 MWDS.                    Baku:  MWD SHOP
 WELL.                     J22:  WELL NAME
 RIG .             West Chirag:  RIG NAME
 DOE .                     N/A:  DOE NUMBER
 DCON.         Sperry Drilling:  DIRECTNL CONTR
 UNIT.                     N/A:  LOGGING EQUIPMENT ID
 PDAT.          Mean Sea Level:  PERMANENT DATUM
 JOBN.        AZ-XX-0905059384:  JOB TICKET NUMB
 CNTY.                        :  COUNTY
 LOC .                        :  LOCATION
 LMF .             Drill Floor:  LOG MEASURED FROM
 TVDS.m                  43.00:  TVDSS CORRECTN
 LATI.deg                40.13:  LATITUDE
 LONG.deg                51.22:  LONGITUDE
 WHNS.m                  10.28:  WELL HEAD N/S
 WHEW.m                  -6.24:  WELL HEAD E/W
 UTMX.m              519005.06:  UTM X
 UTMY.m             4443793.85:  UTM Y
 DFWL.m                   0.00:  DISTANCE FWL
 DFSL.m                   0.00:  DISTANCE FSL
 SDEP.m                 362.00:  START DEPTH
 TDD .m                 904.00:  TOTAL DEPTH (DRILLER)
 VSDR.deg               148.53:  VERT SEC DIRECT
 GVFD.g                   1.00:  GRAVITY FIELD
 MFLD.nT              50277.00:  MAGNETIC FIELD
 MDIP.deg                59.56:  MAGNETIC DIP
 MDEC.deg                 6.42:  MAGNETIC DECL
 GRDC.deg                 0.15:  GRID CORRECTION
 AZTC.deg                 6.27:  AZM TOTAL CORR
 EPD .m                   0.00:  ELEVATION
 EGL .m                   0.00:  GROUND ELEVATION
 WDMS.m                 169.80:  WD ELEV
 APD .m                  43.00:  DEPTH ABOVE PD
 AGAP.m                  43.00:  AIR GAP
 VSEW.m                  -6.24:  VERT SEC E/W
 VSNS.m                  10.28:  VERT SEC N/S
 DEP .m                   0.00:  DEPTH
 EKB .m                   0.00:  KB ELEVATION
 EDF .m                  43.00:  DF ELEVATION
 TDL .m                1183.00:  TOTAL DEPTH (LOGGER)
 VSC .                       0:  VS TO CLOSURE
 MAGU.                 1850021:  MAGUTM CHECKSUM
~Parameter Information Block
#MNEM.UNIT       Value        Description
#---------     -----------    ---------------------------
 AV  .mps                 4.00:  Ann Velocity 
 AVMX.mps                 4.50:  Max Ann Veloc 
 AZIF.deg               145.38:  Azm, Final 
 BHAT.        Rotary Steerable:  BHA Type 
 BROT.°/30m               3.00:  Build Rotating 
 BS  .in                 12.25:  Bit Size 
 BSZ .in                 12.25:  Bit Size 
 BTPL.psig              650.00:  Bit Press Loss 
 CABU.                      No:  Customer Abuse 
 COMM.                     T!k:  Run Comments 1 
 TCS .hr                101.62:  Time Ciculation Ended 
 CV  .mps                 5.00:  Crit Velocity 
 CVMX.mps                 5.00:  Max Crit Veloc 
 DD1 .             Aziz Aliyev:  Direct Drillr 1 
 DD2 .      Fakhraddin Guliyev:  Direct Drillr 2 
 DDSV.                 iCruise:  DD Service 
 DEFF.%                  97.00:  % Det Eff 
 DLRX.°/30m               4.16:  Dogleg Rot Max 
 DLSO.°/30m               3.20:  Dogleg Oriented 
 DLSX.°/30m               4.10:  Dogleg Str Max 
 DRET.      23.12.00 07-Feb-20:  Drill End Time 
 DRST.      11.30.00 04-Feb-20:  Drill Start Tim 
 DTIM.hr                 61.06:  Time Drilling 
 EDEP.m                3219.01:  End Depth 
 ENG1.         Almaz Almadatov:  Engineer 1 
 ENG2.         Dair Mahammadov:  Engineer 2 
 ENG3.          Nazrin Asgarli:  Engineer 3 
 ETIM.      02.30.00 11-Feb-20:  End Time 
 FLOI.gpm              1100.00:  Flow In 
 FLON.gpm               900.00:  Flow In Min 
 FLOS.cptm               55.00:  Fluid Loss 
 FLOX.gpm              1150.00:  Flow In Max 
 FTRO.       Formation Presure:  FTWD Run Obj 
 HFLO.                      No:  High Flow 
 HPRE.                      No:  High Pressure 
 HTEM.                      No:  High Temp 
 HYDO.m                   1.80:  Hydro Offset 
 IFIN.deg                75.11:  Inc, Final 
 IMAX.deg                75.11:  Inc Max 
 IMIN.deg                33.55:  Inc Min 
 IMND.m                2186.05:  Inc Min Depth 
 IMXD.m                3205.61:  Inc Max Depth 
 JARR.                      No:  Jarring 
 LETM.      23.12.00 07-Feb-20:  Log End Time 
 LOST.hr                     0:  Lost Rig Time 
 LSTM.      11.30.00 04-Feb-20:  Log Start Time 
 MDCL.ppm             40000.00:  Mud Chlorides 
 MDES.     Inversion Oil/Synthetic:  Mud Desc 
 DFD .sg                  1.49:  Mud Density 
 MDMN.sg                  1.49:  Dens Mud Min 
 MDMX.sg                  1.49:  Dens Mud Max 
 MOIL.                      73:  Run Mud Oil % 
 MOWR.                   73:27:  Run Mud OWR 
 MSND.                     0.1:  Run Mud Sand % 
 MSOL.                    20.1:  Run Mud Solids% 
 DFV .spqt               78.00:  Mud Viscosity 
 MWOD.in                  8.00:  MWD Tool OD 
 MWSI.                      No:  Serv Intrp, MWD 
 OTIM.hr                177.15:  Time Operating 
 PCON.          Wear / Scratch:  Pad Condition 
 PMAX.psia            10493.93:  Press Op, Max 
 PV  .cP                 73.00:  Mud PV 
 RUN .                     700:  Run Number 
 ROPA.m/hr               15.00:  ROP Avg 
 ROPN.m/hr               10.00:  ROP Min 
 ROPX.m/hr               35.00:  ROP Max 
 RPMA.rpm               130.00:  RPM Surface Avg 
 RPMN.rpm                80.00:  RPM Surface Min 
 RPMX.rpm               150.00:  RPM Surface Max 
 RRUN.                    L402:  Rig Run Number 
 RTIM.hr                 80.50:  Time Reaming 
 SAZI.deg               155.55:  Azm, Start 
 SDEP.m                2036.00:  Start Depth 
 SIDD.                      No:  Serv Intrp, DD 
 SINC.deg                35.44:  Inc, Start 
 SPPA.psig             4270.00:  SPP Avg 
 SPPN.psig             2800.00:  SPP Min 
 SPPX.psig             4850.00:  SPP Max 
 STIM.      09.30.00 03-Feb-20:  Start Time 
 SVCS.                 DD, MWD:  Services 
 SVER.                    9.20:  Sperry Version 
 TDAT.m                1183.00:  Tot Depth Attmp 
 TDDF.                      No:  Trip for DD 
 TDLG.m                1183.00:  Tot Depth Loggd 
 TFF .                      No:  Trip for Fail 
 TQAA.f-kp               16.00:  Torque Abs Avg 
 TQAN.f-kp               10.00:  Torque Abs Min 
 TQAX.f-kp               20.00:  Torque Abs Max 
 TRRT.°/30m               1.00:  Turn Rotating 
 MRT .                  EWR-M5:  Maximum Recorded Temperature 
 TTMX.degC               80.39:  Max Tool Temp 
 VS01.               13098498 :  Virtual Str1 SN 
 VS02.                90569596:  Virtual Str2 SN 
 VS03.                90523599:  Virtual Str3 SN 
 VS04.                90573553:  Virtual Str4 SN 
 VS05.                90598598:  Virtual Str5 SN 
 VS06.                90577297:  Virtual Str6 SN 
 WBMN.klb                13.00:  WOB Min 
 WITN.         Alistair Sprott:  Customer Rep 
 WITN.           Rufat Babayev:  Customer Rep 2 
 WOBA.klb                15.00:  WOB Avg 
 WOBX.klb                20.00:  WOB Max 
 YP  .lhf2               39.00:  Yield Point 
~Curve Information Block
#MNEM.UNIT                 API CODE     Curve Description
#---------               -----------    ---------------------------
 TIME.HHMMSS            00 000 000 000:  GT Time & Date
 GTDEPTH.m              00 000 000 000:  GT Depth
 GTPQH.psia             00 000 000 000:  GT HR Quartz Pressure
 GTTQ.degC              00 000 000 000:  GT Quartz Temperature
 GTTN.NONE              00 000 000 000:  GT Test Number
 GTET.sec               00 000 000 000:  GT Elapsed Test Time
 GTTVD.m                00 000 000 000:  GT True Vertical Depth
#Other Information
#
#WARRANTY: Halliburton will use its best efforts to furnish customers with 
#accurate information and interpretations that are part of, and incident to, the services 
#provided.  However, Halliburton cannot and does not warrant the accuracy 
#or correctness of such information and interpretations.  Under no circumstances should any 
#such information or interpretation be relied upon as the sole basis for any drilling, 
#completion, production, or financial decision or any procedure involving any risk to the 
#safety of any drilling venture, drilling rig or its crew or any other third party.  The 
#Customer has full responsibility for all drilling, completion and production operation.  
#Halliburton makes no representations or warranties, either expressed or 
#implied, including, but not limited to, the implied warranties of merchantability or fitness 
#for a particular purpose, with respect to the services rendered.  In no event will 
#Halliburton be liable for failure to obtain any particular results or for 
#any damages, including, but not limited to, indirect, special or consequential damages, 
#resulting from the use of any information or interpretation provided by Halliburton.
#
~A           TIME           GTDEPTH  GTPQH  GTTQ  GTTN  GTET   GTTVD  
# ...
   09:08:58.768.08-Feb-2020 3153.21 6232.24 69.95 3.00  46.00 2652.75
   09:08:58.968.08-Feb-2020 3153.21 6232.24 69.95 3.00  46.20 2652.75
   09:08:59.168.08-Feb-2020 3153.21 6254.78 69.95 3.00  46.40 2652.75
   09:08:59.368.08-Feb-2020 3153.21 6279.94 69.95 3.00  46.60 2652.75
   09:08:59.568.08-Feb-2020 3153.21 6310.13 69.95 3.00  46.80 2652.75
   09:08:59.768.08-Feb-2020 3153.21 6328.73 69.95 3.00  47.00 2652.75
   09:08:59.968.08-Feb-2020 3153.21 6328.73 69.95 3.00  47.20 2652.75
   09:09:00.168.08-Feb-2020 3153.21 6364.31 69.95 3.00  47.40 2652.75
   09:09:00.368.08-Feb-2020 3153.21 6463.39 69.95 3.00  47.60 2652.75
   09:09:00.568.08-Feb-2020 3153.21 6466.65 69.96 3.00  47.80 2652.75
   09:09:00.768.08-Feb-2020 3153.21 6458.80 69.96 3.00  48.00 2652.75
   09:09:00.968.08-Feb-2020 3153.21 6458.80 69.96 3.00  48.20 2652.75
   09:09:01.168.08-Feb-2020 3153.21 6485.98 69.96 3.00  48.40 2652.75
   09:09:01.368.08-Feb-2020 3153.21 6498.44 69.96 3.00  48.60 2652.75
   09:09:01.568.08-Feb-2020 3153.21 6535.13 69.96 3.00  48.80 2652.75
   09:09:01.768.08-Feb-2020 3153.21 6543.20 69.96 3.00  49.00 2652.75
   09:09:01.968.08-Feb-2020 3153.21 6543.20 69.96 3.00  49.20 2652.75
   09:09:02.168.08-Feb-2020 3153.21 6551.86 69.96 3.00  49.40 2652.75
   09:09:02.368.08-Feb-2020 3153.21 6561.45 69.96 3.00  49.60 2652.75
   09:09:02.568.08-Feb-2020 3153.21 6592.93 69.96 3.00  49.80 2652.75
   09:09:02.768.08-Feb-2020 3153.21 6610.53 69.96 3.00  50.00 2652.75
   09:09:02.968.08-Feb-2020 3153.21 6610.53 69.96 3.00  50.20 2652.75
   09:09:03.168.08-Feb-2020 3153.21 5964.71 69.96 3.00  50.40 2652.75
   09:09:03.368.08-Feb-2020 3153.21 5933.07 69.96 3.00  50.60 2652.75
   09:09:03.568.08-Feb-2020 3153.21 5897.54 69.96 3.00  50.80 2652.75
   09:09:03.768.08-Feb-2020 3153.21 5853.47 69.96 3.00  51.00 2652.75
   09:09:03.968.08-Feb-2020 3153.21 5853.47 69.96 3.00  51.20 2652.75
   09:09:04.168.08-Feb-2020 3153.21 5721.76 69.96 3.00  51.40 2652.75
   09:09:04.368.08-Feb-2020 3153.21 5653.07 69.96 3.00  51.60 2652.75
   09:09:04.568.08-Feb-2020 3153.21 5541.54 69.96 3.00  51.80 2652.75
   09:09:04.768.08-Feb-2020 3153.21 5359.14 69.96 3.00  52.00 2652.75
   09:09:04.968.08-Feb-2020 3153.21 5359.14 69.96 3.00  52.20 2652.75
   09:09:05.168.08-Feb-2020 3153.21 4857.95 69.96 3.00  52.40 2652.75
   09:09:05.368.08-Feb-2020 3153.21 4575.76 69.96 3.00  52.60 2652.75
   09:09:05.568.08-Feb-2020 3153.21 4397.54 69.96 3.00  52.80 2652.75
   09:09:05.768.08-Feb-2020 3153.21 4339.43 69.96 3.00  53.00 2652.75
   09:09:05.968.08-Feb-2020 3153.21 4339.43 69.96 3.00  53.20 2652.75
   09:09:06.168.08-Feb-2020 3153.21 4306.75 69.95 3.00  53.40 2652.75
   09:09:06.368.08-Feb-2020 3153.21 4296.76 69.95 3.00  53.60 2652.75
   09:09:06.568.08-Feb-2020 3153.21 4303.76 69.95 3.00  53.80 2652.75
   09:09:06.768.08-Feb-2020 3153.21 4309.04 69.95 3.00  54.00 2652.75
   09:09:06.968.08-Feb-2020 3153.21 4309.04 69.95 3.00  54.20 2652.75
   09:09:07.168.08-Feb-2020 3153.21 4311.74 69.95 3.00  54.40 2652.75
   09:09:07.368.08-Feb-2020 3153.21 4318.50 69.95 3.00  54.60 2652.75
   09:09:07.568.08-Feb-2020 3153.21 4319.71 69.94 3.00  54.80 2652.75
   09:09:07.768.08-Feb-2020 3153.21 4317.10 69.94 3.00  55.00 2652.75
   09:09:07.968.08-Feb-2020 3153.21 4317.10 69.94 3.00  55.20 2652.75
   09:09:08.168.08-Feb-2020 3153.21 4317.86 69.94 3.00  55.40 2652.75
   09:09:08.368.08-Feb-2020 3153.21 4316.86 69.94 3.00  55.60 2652.75
   09:09:08.568.08-Feb-2020 3153.21 4316.72 69.94 3.00  55.80 2652.75
   09:09:08.768.08-Feb-2020 3153.21 4315.55 69.93 3.00  56.00 2652.75
   09:09:08.968.08-Feb-2020 3153.21 4315.55 69.93 3.00  56.20 2652.75
   09:09:09.168.08-Feb-2020 3153.21 4315.30 69.93 3.00  56.40 2652.75
   09:09:09.368.08-Feb-2020 3153.21 4316.78 69.93 3.00  56.60 2652.75
   09:09:09.568.08-Feb-2020 3153.21 4314.25 69.93 3.00  56.80 2652.75
   09:09:09.768.08-Feb-2020 3153.21 4316.15 69.93 3.00  57.00 2652.75
   09:09:09.968.08-Feb-2020 3153.21 4316.15 69.93 3.00  57.20 2652.75
   09:09:10.168.08-Feb-2020 3153.21 4319.50 69.92 3.00  57.40 2652.75
   09:09:10.368.08-Feb-2020 3153.21 4316.89 69.92 3.00  57.60 2652.75
   09:09:10.569.08-Feb-2020 3153.21 4317.36 69.92 3.00  57.80 2652.75
   09:09:10.769.08-Feb-2020 3153.21 4312.62 69.92 3.00  58.00 2652.75
   09:09:10.969.08-Feb-2020 3153.21 4312.62 69.92 3.00  58.20 2652.75
   09:09:11.169.08-Feb-2020 3153.21 4309.38 69.92 3.00  58.40 2652.75
   09:09:11.369.08-Feb-2020 3153.21 4298.09 69.92 3.00  58.60 2652.75
   09:09:11.569.08-Feb-2020 3153.21 4282.45 69.92 3.00  58.80 2652.75
   09:09:11.769.08-Feb-2020 3153.21 4284.57 69.91 3.00  59.00 2652.75
   09:09:11.969.08-Feb-2020 3153.21 4284.57 69.91 3.00  59.20 2652.75
   09:09:12.169.08-Feb-2020 3153.21 4282.46 69.91 3.00  59.40 2652.75
   09:09:12.369.08-Feb-2020 3153.21 4285.34 69.91 3.00  59.60 2652.75
   09:09:12.569.08-Feb-2020 3153.21 4285.64 69.91 3.00  59.81 2652.75
   09:09:12.769.08-Feb-2020 3153.21 4287.26 69.91 3.00  60.01 2652.75
   09:09:12.969.08-Feb-2020 3153.21 4287.26 69.91 3.00  60.21 2652.75
   09:09:13.169.08-Feb-2020 3153.21 4290.45 69.91 3.00  60.41 2652.75
   09:09:13.369.08-Feb-2020 3153.21 4383.98 69.91 3.00  60.61 2652.75
   09:09:13.569.08-Feb-2020 3153.21 4643.33 69.91 3.00  60.81 2652.75
   09:09:13.769.08-Feb-2020 3153.21 4746.35 69.91 3.00  61.01 2652.75
   09:09:13.969.08-Feb-2020 3153.21 4746.35 69.91 3.00  61.21 2652.75
   09:09:14.169.08-Feb-2020 3153.21 4803.42 69.91 3.00  61.41 2652.75
   09:09:14.369.08-Feb-2020 3153.21 4810.23 69.91 3.00  61.61 2652.75
   09:09:14.569.08-Feb-2020 3153.21 4814.04 69.90 3.00  61.81 2652.75
   09:09:14.769.08-Feb-2020 3153.21 4817.55 69.90 3.00  62.01 2652.75
   09:09:14.969.08-Feb-2020 3153.21 4817.55 69.90 3.00  62.21 2652.75
   09:09:15.169.08-Feb-2020 3153.21 4818.65 69.90 3.00  62.41 2652.75
   09:09:15.369.08-Feb-2020 3153.21 4819.83 69.90 3.00  62.61 2652.75
   09:09:15.569.08-Feb-2020 3153.21 4819.88 69.90 3.00  62.81 2652.75
   09:09:15.769.08-Feb-2020 3153.21 4820.12 69.90 3.00  63.01 2652.75
   09:09:15.969.08-Feb-2020 3153.21 4820.12 69.90 3.00  63.21 2652.75
   09:09:16.169.08-Feb-2020 3153.21 4820.68 69.90 3.00  63.41 2652.75
   09:09:16.369.08-Feb-2020 3153.21 4819.58 69.90 3.00  63.61 2652.75
   09:09:16.569.08-Feb-2020 3153.21 4819.68 69.90 3.00  63.81 2652.75
   09:09:16.769.08-Feb-2020 3153.21 4819.76 69.90 3.00  64.01 2652.75
   09:09:16.969.08-Feb-2020 3153.21 4819.76 69.90 3.00  64.21 2652.75
   09:09:17.169.08-Feb-2020 3153.21 4821.57 69.90 3.00  64.41 2652.75
   09:09:17.369.08-Feb-2020 3153.21 4821.14 69.90 3.00  64.61 2652.75
   09:09:17.569.08-Feb-2020 3153.21 4821.89 69.90 3.00  64.81 2652.75
   09:09:17.769.08-Feb-2020 3153.21 4821.94 69.90 3.00  65.01 2652.75
   09:09:17.969.08-Feb-2020 3153.21 4821.94 69.90 3.00  65.21 2652.75
   09:09:18.169.08-Feb-2020 3153.21 4822.03 69.90 3.00  65.41 2652.75
   09:09:18.369.08-Feb-2020 3153.21 4822.91 69.90 3.00  65.61 2652.75
   09:09:18.569.08-Feb-2020 3153.21 4819.14 69.90 3.00  65.81 2652.75
   09:09:18.769.08-Feb-2020 3153.21 4820.88 69.90 3.00  66.01 2652.75
   09:09:18.969.08-Feb-2020 3153.21 4820.88 69.90 3.00  66.21 2652.75
   09:09:19.169.08-Feb-2020 3153.21 4819.35 69.90 3.00  66.41 2652.75
   09:09:19.369.08-Feb-2020 3153.21 4821.38 69.90 3.00  66.61 2652.75
   09:09:19.569.08-Feb-2020 3153.21 4821.66 69.90 3.00  66.81 2652.75
   09:09:19.769.08-Feb-2020 3153.21 4821.92 69.90 3.00  67.01 2652.75
   09:09:19.969.08-Feb-2020 3153.21 4821.92 69.90 3.00  67.21 2652.75
   09:09:20.169.08-Feb-2020 3153.21 4820.77 69.90 3.00  67.41 2652.75
   09:09:20.369.08-Feb-2020 3153.21 4821.52 69.90 3.00  67.61 2652.75
   09:09:20.569.08-Feb-2020 3153.21 4822.27 69.90 3.00  67.81 2652.75
   09:09:20.769.08-Feb-2020 3153.21 4821.67 69.90 3.00  68.01 2652.75
   09:09:20.969.08-Feb-2020 3153.21 4821.67 69.90 3.00  68.21 2652.75
   09:09:21.169.08-Feb-2020 3153.21 4821.86 69.91 3.00  68.41 2652.75
   09:09:21.369.08-Feb-2020 3153.21 4821.86 69.91 3.00  68.61 2652.75
   09:09:21.569.08-Feb-2020 3153.21 4823.11 69.91 3.00  68.81 2652.75
