~Version Information
 VERS.                  2.0:   CWLS log ASCII Standard -VERSION 2.0
 WRAP.                   NO:   One line per depth step
~Well Information Block
#MNEM.UNIT     VALUE/NAME     DESCRIPTION
#---------     -----------    ---------------------------
 STRT.S             09:27:25 08-Feb-20: START TIME 09:27:25 08-Feb-20
 STOP.S             09:34:14 08-Feb-20: STOP TIME  09:34:14 08-Feb-20
 STEP.S                   0.00: STEP TIME
 NULL.                 -999.25: NULL VALUE
 DFWT.                        :  DIST FWL TEXT
 DFST.                        :  DIST FSL TEXT
 DMF .             Drill Floor:  DRILL MEAS FROM
 STIM.      07.00.00 09-Jan-20:  START TIME
 DATE.      14.04.48 07-Feb-20:  END TIME
 SPUD.               09-Jan-20:  SPUD DATE
 NREF.                    Grid:  NORTH REFERENCE
 HPTY.       Minimum Curvature:  HOLE POS TYPE
 DMOD.             Drill Model:  DRILL MOD DESC
 SVYD.                  Survey:  SURVEY DESC
 ILTD.               Lithology:  INTERP LTH DESC
 FTOP.          Formation Tops:  FORM TOPS DESC
 SON .        AZ-XX-0905059384:  JOB NUMBER
 MDS .        Operator Entered:  MAG DATA SOURCE
 WTYP.                Deviated:  WELL TYPE
 COMP.     BP Exploration (Caspian Sea) Ltd.:  COMPANY
 UWI .                     N/A:  UNIQUE WELL IDENTIFIER
 API .                     N/A:  API NUMBER
 BASE.              Azerbaijan:  LOGGING EQUIPMENT BASE LOCATION
 REGN.                   EESSA:  REGION
 PROV.                    Baku:  PROVINCE
 STAT.                    Baku:  STATE NAME
 CTRY.              Azerbaijan:  COUNTRY NAME
 FLD .                     ACG:  FIELD NAME
 SRVC.     TURAN Drilling & Engineering:  CONTRACTOR
 MWDS.                    Baku:  MWD SHOP
 WELL.                     J22:  WELL NAME
 RIG .             West Chirag:  RIG NAME
 DOE .                     N/A:  DOE NUMBER
 DCON.         Sperry Drilling:  DIRECTNL CONTR
 UNIT.                     N/A:  LOGGING EQUIPMENT ID
 PDAT.          Mean Sea Level:  PERMANENT DATUM
 JOBN.        AZ-XX-0905059384:  JOB TICKET NUMB
 CNTY.                        :  COUNTY
 LOC .                        :  LOCATION
 LMF .             Drill Floor:  LOG MEASURED FROM
 TVDS.m                  43.00:  TVDSS CORRECTN
 LATI.deg                40.13:  LATITUDE
 LONG.deg                51.22:  LONGITUDE
 WHNS.m                  10.28:  WELL HEAD N/S
 WHEW.m                  -6.24:  WELL HEAD E/W
 UTMX.m              519005.06:  UTM X
 UTMY.m             4443793.85:  UTM Y
 DFWL.m                   0.00:  DISTANCE FWL
 DFSL.m                   0.00:  DISTANCE FSL
 SDEP.m                 362.00:  START DEPTH
 TDD .m                 904.00:  TOTAL DEPTH (DRILLER)
 VSDR.deg               148.53:  VERT SEC DIRECT
 GVFD.g                   1.00:  GRAVITY FIELD
 MFLD.nT              50277.00:  MAGNETIC FIELD
 MDIP.deg                59.56:  MAGNETIC DIP
 MDEC.deg                 6.42:  MAGNETIC DECL
 GRDC.deg                 0.15:  GRID CORRECTION
 AZTC.deg                 6.27:  AZM TOTAL CORR
 EPD .m                   0.00:  ELEVATION
 EGL .m                   0.00:  GROUND ELEVATION
 WDMS.m                 169.80:  WD ELEV
 APD .m                  43.00:  DEPTH ABOVE PD
 AGAP.m                  43.00:  AIR GAP
 VSEW.m                  -6.24:  VERT SEC E/W
 VSNS.m                  10.28:  VERT SEC N/S
 DEP .m                   0.00:  DEPTH
 EKB .m                   0.00:  KB ELEVATION
 EDF .m                  43.00:  DF ELEVATION
 TDL .m                1183.00:  TOTAL DEPTH (LOGGER)
 VSC .                       0:  VS TO CLOSURE
 MAGU.                 1850021:  MAGUTM CHECKSUM
~Parameter Information Block
#MNEM.UNIT       Value        Description
#---------     -----------    ---------------------------
 AV  .mps                 4.00:  Ann Velocity 
 AVMX.mps                 4.50:  Max Ann Veloc 
 AZIF.deg               145.38:  Azm, Final 
 BHAT.        Rotary Steerable:  BHA Type 
 BROT.∞/30m               3.00:  Build Rotating 
 BS  .in                 12.25:  Bit Size 
 BSZ .in                 12.25:  Bit Size 
 BTPL.psig              650.00:  Bit Press Loss 
 CABU.                      No:  Customer Abuse 
 COMM.                     $ÊW:  Run Comments 1 
 TCS .hr                101.62:  Time Ciculation Ended 
 CV  .mps                 5.00:  Crit Velocity 
 CVMX.mps                 5.00:  Max Crit Veloc 
 DD1 .             Aziz Aliyev:  Direct Drillr 1 
 DD2 .      Fakhraddin Guliyev:  Direct Drillr 2 
 DDSV.                 iCruise:  DD Service 
 DEFF.%                  97.00:  % Det Eff 
 DLRX.∞/30m               4.16:  Dogleg Rot Max 
 DLSO.∞/30m               3.20:  Dogleg Oriented 
 DLSX.∞/30m               4.10:  Dogleg Str Max 
 DRET.      23.12.00 07-Feb-20:  Drill End Time 
 DRST.      11.30.00 04-Feb-20:  Drill Start Tim 
 DTIM.hr                 61.06:  Time Drilling 
 EDEP.m                3219.01:  End Depth 
 ENG1.         Almaz Almadatov:  Engineer 1 
 ENG2.         Dair Mahammadov:  Engineer 2 
 ENG3.          Nazrin Asgarli:  Engineer 3 
 ETIM.      02.30.00 11-Feb-20:  End Time 
 FLOI.gpm              1100.00:  Flow In 
 FLON.gpm               900.00:  Flow In Min 
 FLOS.cptm               55.00:  Fluid Loss 
 FLOX.gpm              1150.00:  Flow In Max 
 FTRO.       Formation Presure:  FTWD Run Obj 
 HFLO.                      No:  High Flow 
 HPRE.                      No:  High Pressure 
 HTEM.                      No:  High Temp 
 HYDO.m                   1.80:  Hydro Offset 
 IFIN.deg                75.11:  Inc, Final 
 IMAX.deg                75.11:  Inc Max 
 IMIN.deg                33.55:  Inc Min 
 IMND.m                2186.05:  Inc Min Depth 
 IMXD.m                3205.61:  Inc Max Depth 
 JARR.                      No:  Jarring 
 LETM.      23.12.00 07-Feb-20:  Log End Time 
 LOST.hr                     0:  Lost Rig Time 
 LSTM.      11.30.00 04-Feb-20:  Log Start Time 
 MDCL.ppm             40000.00:  Mud Chlorides 
 MDES.     Inversion Oil/Synthetic:  Mud Desc 
 DFD .sg                  1.49:  Mud Density 
 MDMN.sg                  1.49:  Dens Mud Min 
 MDMX.sg                  1.49:  Dens Mud Max 
 MOIL.                      73:  Run Mud Oil % 
 MOWR.                   73:27:  Run Mud OWR 
 MSND.                     0.1:  Run Mud Sand % 
 MSOL.                    20.1:  Run Mud Solids% 
 DFV .spqt               78.00:  Mud Viscosity 
 MWOD.in                  8.00:  MWD Tool OD 
 MWSI.                      No:  Serv Intrp, MWD 
 OTIM.hr                177.15:  Time Operating 
 PCON.          Wear / Scratch:  Pad Condition 
 PMAX.psia            10493.93:  Press Op, Max 
 PV  .cP                 73.00:  Mud PV 
 RUN .                     700:  Run Number 
 ROPA.m/hr               15.00:  ROP Avg 
 ROPN.m/hr               10.00:  ROP Min 
 ROPX.m/hr               35.00:  ROP Max 
 RPMA.rpm               130.00:  RPM Surface Avg 
 RPMN.rpm                80.00:  RPM Surface Min 
 RPMX.rpm               150.00:  RPM Surface Max 
 RRUN.                    L402:  Rig Run Number 
 RTIM.hr                 80.50:  Time Reaming 
 SAZI.deg               155.55:  Azm, Start 
 SDEP.m                2036.00:  Start Depth 
 SIDD.                      No:  Serv Intrp, DD 
 SINC.deg                35.44:  Inc, Start 
 SPPA.psig             4270.00:  SPP Avg 
 SPPN.psig             2800.00:  SPP Min 
 SPPX.psig             4850.00:  SPP Max 
 STIM.      09.30.00 03-Feb-20:  Start Time 
 SVCS.                 DD, MWD:  Services 
 SVER.                    9.20:  Sperry Version 
 TDAT.m                1183.00:  Tot Depth Attmp 
 TDDF.                      No:  Trip for DD 
 TDLG.m                1183.00:  Tot Depth Loggd 
 TFF .                      No:  Trip for Fail 
 TQAA.f-kp               16.00:  Torque Abs Avg 
 TQAN.f-kp               10.00:  Torque Abs Min 
 TQAX.f-kp               20.00:  Torque Abs Max 
 TRRT.∞/30m               1.00:  Turn Rotating 
 MRT .                  EWR-M5:  Maximum Recorded Temperature 
 TTMX.degC               80.39:  Max Tool Temp 
 VS01.               13098498 :  Virtual Str1 SN 
 VS02.                90569596:  Virtual Str2 SN 
 VS03.                90523599:  Virtual Str3 SN 
 VS04.                90573553:  Virtual Str4 SN 
 VS05.                90598598:  Virtual Str5 SN 
 VS06.                90577297:  Virtual Str6 SN 
 WBMN.klb                13.00:  WOB Min 
 WITN.         Alistair Sprott:  Customer Rep 
 WITN.           Rufat Babayev:  Customer Rep 2 
 WOBA.klb                15.00:  WOB Avg 
 WOBX.klb                20.00:  WOB Max 
 YP  .lhf2               39.00:  Yield Point 
~Curve Information Block
#MNEM.UNIT                 API CODE     Curve Description
#---------               -----------    ---------------------------
 TIME.HHMMSS            00 000 000 000:  GT Time & Date
 GTDEPTH.m              00 000 000 000:  GT Depth
 GTPQH.psia             00 000 000 000:  GT HR Quartz Pressure
 GTTQ.degC              00 000 000 000:  GT Quartz Temperature
 GTTN.NONE              00 000 000 000:  GT Test Number
 GTET.sec               00 000 000 000:  GT Elapsed Test Time
 GTTVD.m                00 000 000 000:  GT True Vertical Depth
#Other Information
#
#WARRANTY: Halliburton will use its best efforts to furnish customers with 
#accurate information and interpretations that are part of, and incident to, the services 
#provided.  However, Halliburton cannot and does not warrant the accuracy 
#or correctness of such information and interpretations.  Under no circumstances should any 
#such information or interpretation be relied upon as the sole basis for any drilling, 
#completion, production, or financial decision or any procedure involving any risk to the 
#safety of any drilling venture, drilling rig or its crew or any other third party.  The 
#Customer has full responsibility for all drilling, completion and production operation.  
#Halliburton makes no representations or warranties, either expressed or 
#implied, including, but not limited to, the implied warranties of merchantability or fitness 
#for a particular purpose, with respect to the services rendered.  In no event will 
#Halliburton be liable for failure to obtain any particular results or for 
#any damages, including, but not limited to, indirect, special or consequential damages, 
#resulting from the use of any information or interpretation provided by Halliburton.
#
~A           TIME           GTDEPTH  GTPQH  GTTQ  GTTN  GTET   GTTVD  
# ...
   09:32:01.883.08-Feb-2020 3135.01 4331.78 69.12 4.00 276.02 2647.94
   09:32:02.083.08-Feb-2020 3135.01 4331.78 69.12 4.00 276.22 2647.94
   09:32:02.283.08-Feb-2020 3135.01 4331.08 69.12 4.00 276.42 2647.94
   09:32:02.483.08-Feb-2020 3135.01 4334.07 69.12 4.00 276.62 2647.94
   09:32:02.683.08-Feb-2020 3135.01 4335.78 69.12 4.00 276.82 2647.94
   09:32:02.883.08-Feb-2020 3135.01 4335.18 69.12 4.00 277.02 2647.94
   09:32:03.083.08-Feb-2020 3135.01 4335.18 69.12 4.00 277.22 2647.94
   09:32:03.283.08-Feb-2020 3135.01 4333.41 69.12 4.00 277.42 2647.94
   09:32:03.484.08-Feb-2020 3135.01 4332.28 69.12 4.00 277.62 2647.94
   09:32:03.684.08-Feb-2020 3135.01 4332.44 69.12 4.00 277.82 2647.94
   09:32:03.884.08-Feb-2020 3135.01 4331.25 69.12 4.00 278.02 2647.94
   09:32:04.084.08-Feb-2020 3135.01 4331.25 69.12 4.00 278.22 2647.94
   09:32:04.284.08-Feb-2020 3135.01 4444.20 69.12 4.00 278.42 2647.94
   09:32:04.484.08-Feb-2020 3135.01 4610.69 69.12 4.00 278.62 2647.94
   09:32:04.684.08-Feb-2020 3135.01 4672.93 69.12 4.00 278.82 2647.94
   09:32:04.884.08-Feb-2020 3135.01 4699.04 69.12 4.00 279.02 2647.94
   09:32:05.084.08-Feb-2020 3135.01 4699.04 69.12 4.00 279.22 2647.94
   09:32:05.284.08-Feb-2020 3135.01 4714.21 69.12 4.00 279.42 2647.94
   09:32:05.484.08-Feb-2020 3135.01 4717.40 69.12 4.00 279.62 2647.94
   09:32:05.684.08-Feb-2020 3135.01 4718.39 69.12 4.00 279.82 2647.94
   09:32:05.884.08-Feb-2020 3135.01 4720.51 69.12 4.00 280.02 2647.94
   09:32:06.084.08-Feb-2020 3135.01 4720.51 69.12 4.00 280.22 2647.94
   09:32:06.284.08-Feb-2020 3135.01 4721.50 69.12 4.00 280.42 2647.94
   09:32:06.484.08-Feb-2020 3135.01 4723.60 69.12 4.00 280.62 2647.94
   09:32:06.684.08-Feb-2020 3135.01 4720.83 69.12 4.00 280.82 2647.94
   09:32:06.884.08-Feb-2020 3135.01 4722.42 69.12 4.00 281.02 2647.94
   09:32:07.084.08-Feb-2020 3135.01 4722.42 69.12 4.00 281.22 2647.94
   09:32:07.284.08-Feb-2020 3135.01 4723.52 69.12 4.00 281.42 2647.94
   09:32:07.484.08-Feb-2020 3135.01 4723.04 69.12 4.00 281.62 2647.94
   09:32:07.684.08-Feb-2020 3135.01 4724.75 69.12 4.00 281.82 2647.94
   09:32:07.884.08-Feb-2020 3135.01 4724.11 69.12 4.00 282.02 2647.94
   09:32:08.084.08-Feb-2020 3135.01 4724.11 69.12 4.00 282.22 2647.94
   09:32:08.284.08-Feb-2020 3135.01 4725.11 69.12 4.00 282.42 2647.94
   09:32:08.484.08-Feb-2020 3135.01 4725.00 69.12 4.00 282.62 2647.94
   09:32:08.684.08-Feb-2020 3135.01 4724.93 69.12 4.00 282.82 2647.94
   09:32:08.884.08-Feb-2020 3135.01 4725.10 69.12 4.00 283.02 2647.94
   09:32:09.084.08-Feb-2020 3135.01 4725.10 69.12 4.00 283.22 2647.94
   09:32:09.284.08-Feb-2020 3135.01 4725.23 69.12 4.00 283.42 2647.94
   09:32:09.484.08-Feb-2020 3135.01 4725.42 69.12 4.00 283.62 2647.94
   09:32:09.684.08-Feb-2020 3135.01 4724.61 69.12 4.00 283.82 2647.94
   09:32:09.884.08-Feb-2020 3135.01 4726.07 69.12 4.00 284.02 2647.94
   09:32:10.084.08-Feb-2020 3135.01 4726.07 69.12 4.00 284.22 2647.94
   09:32:10.284.08-Feb-2020 3135.01 4725.54 69.12 4.00 284.42 2647.94
   09:32:10.484.08-Feb-2020 3135.01 4726.16 69.12 4.00 284.62 2647.94
   09:32:10.684.08-Feb-2020 3135.01 4726.08 69.12 4.00 284.82 2647.94
   09:32:10.884.08-Feb-2020 3135.01 4725.64 69.12 4.00 285.02 2647.94
   09:32:11.084.08-Feb-2020 3135.01 4725.64 69.12 4.00 285.22 2647.94
   09:32:11.284.08-Feb-2020 3135.01 4726.01 69.12 4.00 285.42 2647.94
   09:32:11.484.08-Feb-2020 3135.01 4725.96 69.12 4.00 285.62 2647.94
   09:32:11.684.08-Feb-2020 3135.01 4727.11 69.12 4.00 285.82 2647.94
   09:32:11.884.08-Feb-2020 3135.01 4724.73 69.12 4.00 286.02 2647.94
   09:32:12.084.08-Feb-2020 3135.01 4724.73 69.12 4.00 286.22 2647.94
   09:32:12.284.08-Feb-2020 3135.01 4727.09 69.12 4.00 286.42 2647.94
   09:32:12.484.08-Feb-2020 3135.01 4724.90 69.12 4.00 286.62 2647.94
   09:32:12.684.08-Feb-2020 3135.01 4725.88 69.12 4.00 286.82 2647.94
   09:32:12.884.08-Feb-2020 3135.01 4726.61 69.12 4.00 287.02 2647.94
   09:32:13.084.08-Feb-2020 3135.01 4726.61 69.12 4.00 287.22 2647.94
   09:32:13.284.08-Feb-2020 3135.01 4726.38 69.12 4.00 287.42 2647.94
   09:32:13.484.08-Feb-2020 3135.01 4725.64 69.12 4.00 287.62 2647.94
   09:32:13.684.08-Feb-2020 3135.01 4726.68 69.12 4.00 287.82 2647.94
   09:32:13.884.08-Feb-2020 3135.01 4726.71 69.12 4.00 288.02 2647.94
   09:32:14.084.08-Feb-2020 3135.01 4726.71 69.12 4.00 288.22 2647.94
   09:32:14.284.08-Feb-2020 3135.01 4726.52 69.12 4.00 288.42 2647.94
   09:32:14.484.08-Feb-2020 3135.01 4726.51 69.12 4.00 288.62 2647.94
   09:32:14.684.08-Feb-2020 3135.01 4726.33 69.12 4.00 288.82 2647.94
   09:32:14.884.08-Feb-2020 3135.01 4727.59 69.12 4.00 289.02 2647.94
   09:32:15.084.08-Feb-2020 3135.01 4727.59 69.12 4.00 289.22 2647.94
   09:32:15.285.08-Feb-2020 3135.01 4726.97 69.12 4.00 289.42 2647.94
   09:32:15.485.08-Feb-2020 3135.01 4727.04 69.12 4.00 289.62 2647.94
   09:32:15.685.08-Feb-2020 3135.01 4726.64 69.12 4.00 289.82 2647.94
   09:32:15.885.08-Feb-2020 3135.01 4727.02 69.12 4.00 290.02 2647.94
   09:32:16.085.08-Feb-2020 3135.01 4727.02 69.12 4.00 290.22 2647.94
   09:32:16.285.08-Feb-2020 3135.01 4726.70 69.12 4.00 290.42 2647.94
   09:32:16.485.08-Feb-2020 3135.01 4726.79 69.12 4.00 290.62 2647.94
   09:32:16.685.08-Feb-2020 3135.01 4726.81 69.12 4.00 290.82 2647.94
   09:32:16.885.08-Feb-2020 3135.01 4726.96 69.12 4.00 291.02 2647.94
   09:32:17.085.08-Feb-2020 3135.01 4726.96 69.12 4.00 291.22 2647.94
   09:32:17.285.08-Feb-2020 3135.01 4726.25 69.12 4.00 291.42 2647.94
   09:32:17.485.08-Feb-2020 3135.01 4726.63 69.12 4.00 291.62 2647.94
   09:32:17.685.08-Feb-2020 3135.01 4727.42 69.12 4.00 291.82 2647.94
   09:32:17.885.08-Feb-2020 3135.01 4727.47 69.12 4.00 292.02 2647.94
   09:32:18.085.08-Feb-2020 3135.01 4727.47 69.12 4.00 292.22 2647.94
   09:32:18.285.08-Feb-2020 3135.01 4727.23 69.12 4.00 292.42 2647.94
   09:32:18.485.08-Feb-2020 3135.01 4727.31 69.12 4.00 292.62 2647.94
   09:32:18.685.08-Feb-2020 3135.01 4727.28 69.12 4.00 292.82 2647.94
   09:32:18.885.08-Feb-2020 3135.01 4727.55 69.12 4.00 293.02 2647.94
   09:32:19.085.08-Feb-2020 3135.01 4727.55 69.12 4.00 293.22 2647.94
   09:32:19.285.08-Feb-2020 3135.01 4726.72 69.12 4.00 293.42 2647.94
   09:32:19.485.08-Feb-2020 3135.01 4728.06 69.12 4.00 293.62 2647.94
   09:32:19.685.08-Feb-2020 3135.01 4727.28 69.12 4.00 293.82 2647.94
   09:32:19.885.08-Feb-2020 3135.01 4726.83 69.12 4.00 294.02 2647.94
   09:32:20.085.08-Feb-2020 3135.01 4726.83 69.12 4.00 294.22 2647.94
   09:32:20.285.08-Feb-2020 3135.01 4726.93 69.12 4.00 294.42 2647.94
   09:32:20.485.08-Feb-2020 3135.01 4727.59 69.12 4.00 294.62 2647.94
   09:32:20.685.08-Feb-2020 3135.01 4727.96 69.12 4.00 294.82 2647.94
   09:32:20.885.08-Feb-2020 3135.01 4727.83 69.12 4.00 295.02 2647.94
   09:32:21.085.08-Feb-2020 3135.01 4727.83 69.12 4.00 295.22 2647.94
   09:32:21.285.08-Feb-2020 3135.01 4727.12 69.12 4.00 295.42 2647.94
   09:32:21.485.08-Feb-2020 3135.01 4726.89 69.12 4.00 295.62 2647.94
   09:32:21.685.08-Feb-2020 3135.01 4728.02 69.12 4.00 295.82 2647.94
   09:32:21.885.08-Feb-2020 3135.01 4727.59 69.12 4.00 296.02 2647.94
   09:32:22.085.08-Feb-2020 3135.01 4727.59 69.12 4.00 296.22 2647.94
   09:32:22.285.08-Feb-2020 3135.01 4727.29 69.12 4.00 296.42 2647.94
   09:32:22.485.08-Feb-2020 3135.01 4727.16 69.12 4.00 296.62 2647.94
   09:32:22.685.08-Feb-2020 3135.01 4727.71 69.12 4.00 296.82 2647.94
   09:32:22.885.08-Feb-2020 3135.01 4727.50 69.12 4.00 297.02 2647.94
   09:32:23.085.08-Feb-2020 3135.01 4727.50 69.12 4.00 297.22 2647.94
   09:32:23.285.08-Feb-2020 3135.01 4727.63 69.12 4.00 297.42 2647.94
   09:32:23.485.08-Feb-2020 3135.01 4727.52 69.12 4.00 297.62 2647.94
   09:32:23.685.08-Feb-2020 3135.01 4727.31 69.12 4.00 297.82 2647.94
   09:32:23.885.08-Feb-2020 3135.01 4727.37 69.12 4.00 298.02 2647.94
   09:32:24.085.08-Feb-2020 3135.01 4727.37 69.12 4.00 298.22 2647.94
   09:32:24.285.08-Feb-2020 3135.01 4727.42 69.12 4.00 298.43 2647.94
   09:32:24.485.08-Feb-2020 3135.01 4728.30 69.12 4.00 298.63 2647.94
   09:32:24.685.08-Feb-2020 3135.01 4727.27 69.12 4.00 298.83 2647.94
