~Version Information
 VERS.                  2.0:   CWLS log ASCII Standard -VERSION 2.0
 WRAP.                   NO:   One line per depth step
~Well Information Block
#MNEM.UNIT     VALUE/NAME     DESCRIPTION
#---------     -----------    ---------------------------
 STRT.S             09:08:12 08-Feb-20: START TIME 09:08:12 08-Feb-20
 STOP.S             09:14:54 08-Feb-20: STOP TIME  09:14:54 08-Feb-20
 STEP.S                   0.00: STEP TIME
 NULL.                 -999.25: NULL VALUE
 DFWT.                        :  DIST FWL TEXT
 DFST.                        :  DIST FSL TEXT
 DMF .             Drill Floor:  DRILL MEAS FROM
 STIM.      07.00.00 09-Jan-20:  START TIME
 DATE.      14.04.48 07-Feb-20:  END TIME
 SPUD.               09-Jan-20:  SPUD DATE
 NREF.                    Grid:  NORTH REFERENCE
 HPTY.       Minimum Curvature:  HOLE POS TYPE
 DMOD.             Drill Model:  DRILL MOD DESC
 SVYD.                  Survey:  SURVEY DESC
 ILTD.               Lithology:  INTERP LTH DESC
 FTOP.          Formation Tops:  FORM TOPS DESC
 SON .        AZ-XX-0905059384:  JOB NUMBER
 MDS .        Operator Entered:  MAG DATA SOURCE
 WTYP.                Deviated:  WELL TYPE
 COMP.     BP Exploration (Caspian Sea) Ltd.:  COMPANY
 UWI .                     N/A:  UNIQUE WELL IDENTIFIER
 API .                     N/A:  API NUMBER
 BASE.              Azerbaijan:  LOGGING EQUIPMENT BASE LOCATION
 REGN.                   EESSA:  REGION
 PROV.                    Baku:  PROVINCE
 STAT.                    Baku:  STATE NAME
 CTRY.              Azerbaijan:  COUNTRY NAME
 FLD .                     ACG:  FIELD NAME
 SRVC.     TURAN Drilling & Engineering:  CONTRACTOR
 MWDS.                    Baku:  MWD SHOP
 WELL.                     J22:  WELL NAME
 RIG .             West Chirag:  RIG NAME
 DOE .                     N/A:  DOE NUMBER
 DCON.         Sperry Drilling:  DIRECTNL CONTR
 UNIT.                     N/A:  LOGGING EQUIPMENT ID
 PDAT.          Mean Sea Level:  PERMANENT DATUM
 JOBN.        AZ-XX-0905059384:  JOB TICKET NUMB
 CNTY.                        :  COUNTY
 LOC .                        :  LOCATION
 LMF .             Drill Floor:  LOG MEASURED FROM
 TVDS.m                  43.00:  TVDSS CORRECTN
 LATI.deg                40.13:  LATITUDE
 LONG.deg                51.22:  LONGITUDE
 WHNS.m                  10.28:  WELL HEAD N/S
 WHEW.m                  -6.24:  WELL HEAD E/W
 UTMX.m              519005.06:  UTM X
 UTMY.m             4443793.85:  UTM Y
 DFWL.m                   0.00:  DISTANCE FWL
 DFSL.m                   0.00:  DISTANCE FSL
 SDEP.m                 362.00:  START DEPTH
 TDD .m                 904.00:  TOTAL DEPTH (DRILLER)
 VSDR.deg               148.53:  VERT SEC DIRECT
 GVFD.g                   1.00:  GRAVITY FIELD
 MFLD.nT              50277.00:  MAGNETIC FIELD
 MDIP.deg                59.56:  MAGNETIC DIP
 MDEC.deg                 6.42:  MAGNETIC DECL
 GRDC.deg                 0.15:  GRID CORRECTION
 AZTC.deg                 6.27:  AZM TOTAL CORR
 EPD .m                   0.00:  ELEVATION
 EGL .m                   0.00:  GROUND ELEVATION
 WDMS.m                 169.80:  WD ELEV
 APD .m                  43.00:  DEPTH ABOVE PD
 AGAP.m                  43.00:  AIR GAP
 VSEW.m                  -6.24:  VERT SEC E/W
 VSNS.m                  10.28:  VERT SEC N/S
 DEP .m                   0.00:  DEPTH
 EKB .m                   0.00:  KB ELEVATION
 EDF .m                  43.00:  DF ELEVATION
 TDL .m                1183.00:  TOTAL DEPTH (LOGGER)
 VSC .                       0:  VS TO CLOSURE
 MAGU.                 1850021:  MAGUTM CHECKSUM
~Parameter Information Block
#MNEM.UNIT       Value        Description
#---------     -----------    ---------------------------
 AV  .mps                 4.00:  Ann Velocity 
 AVMX.mps                 4.50:  Max Ann Veloc 
 AZIF.deg               145.38:  Azm, Final 
 BHAT.        Rotary Steerable:  BHA Type 
 BROT.°/30m               3.00:  Build Rotating 
 BS  .in                 12.25:  Bit Size 
 BSZ .in                 12.25:  Bit Size 
 BTPL.psig              650.00:  Bit Press Loss 
 CABU.                      No:  Customer Abuse 
 COMM.                     T!k:  Run Comments 1 
 TCS .hr                101.62:  Time Ciculation Ended 
 CV  .mps                 5.00:  Crit Velocity 
 CVMX.mps                 5.00:  Max Crit Veloc 
 DD1 .             Aziz Aliyev:  Direct Drillr 1 
 DD2 .      Fakhraddin Guliyev:  Direct Drillr 2 
 DDSV.                 iCruise:  DD Service 
 DEFF.%                  97.00:  % Det Eff 
 DLRX.°/30m               4.16:  Dogleg Rot Max 
 DLSO.°/30m               3.20:  Dogleg Oriented 
 DLSX.°/30m               4.10:  Dogleg Str Max 
 DRET.      23.12.00 07-Feb-20:  Drill End Time 
 DRST.      11.30.00 04-Feb-20:  Drill Start Tim 
 DTIM.hr                 61.06:  Time Drilling 
 EDEP.m                3219.01:  End Depth 
 ENG1.         Almaz Almadatov:  Engineer 1 
 ENG2.         Dair Mahammadov:  Engineer 2 
 ENG3.          Nazrin Asgarli:  Engineer 3 
 ETIM.      02.30.00 11-Feb-20:  End Time 
 FLOI.gpm              1100.00:  Flow In 
 FLON.gpm               900.00:  Flow In Min 
 FLOS.cptm               55.00:  Fluid Loss 
 FLOX.gpm              1150.00:  Flow In Max 
 FTRO.       Formation Presure:  FTWD Run Obj 
 HFLO.                      No:  High Flow 
 HPRE.                      No:  High Pressure 
 HTEM.                      No:  High Temp 
 HYDO.m                   1.80:  Hydro Offset 
 IFIN.deg                75.11:  Inc, Final 
 IMAX.deg                75.11:  Inc Max 
 IMIN.deg                33.55:  Inc Min 
 IMND.m                2186.05:  Inc Min Depth 
 IMXD.m                3205.61:  Inc Max Depth 
 JARR.                      No:  Jarring 
 LETM.      23.12.00 07-Feb-20:  Log End Time 
 LOST.hr                     0:  Lost Rig Time 
 LSTM.      11.30.00 04-Feb-20:  Log Start Time 
 MDCL.ppm             40000.00:  Mud Chlorides 
 MDES.     Inversion Oil/Synthetic:  Mud Desc 
 DFD .sg                  1.49:  Mud Density 
 MDMN.sg                  1.49:  Dens Mud Min 
 MDMX.sg                  1.49:  Dens Mud Max 
 MOIL.                      73:  Run Mud Oil % 
 MOWR.                   73:27:  Run Mud OWR 
 MSND.                     0.1:  Run Mud Sand % 
 MSOL.                    20.1:  Run Mud Solids% 
 DFV .spqt               78.00:  Mud Viscosity 
 MWOD.in                  8.00:  MWD Tool OD 
 MWSI.                      No:  Serv Intrp, MWD 
 OTIM.hr                177.15:  Time Operating 
 PCON.          Wear / Scratch:  Pad Condition 
 PMAX.psia            10493.93:  Press Op, Max 
 PV  .cP                 73.00:  Mud PV 
 RUN .                     700:  Run Number 
 ROPA.m/hr               15.00:  ROP Avg 
 ROPN.m/hr               10.00:  ROP Min 
 ROPX.m/hr               35.00:  ROP Max 
 RPMA.rpm               130.00:  RPM Surface Avg 
 RPMN.rpm                80.00:  RPM Surface Min 
 RPMX.rpm               150.00:  RPM Surface Max 
 RRUN.                    L402:  Rig Run Number 
 RTIM.hr                 80.50:  Time Reaming 
 SAZI.deg               155.55:  Azm, Start 
 SDEP.m                2036.00:  Start Depth 
 SIDD.                      No:  Serv Intrp, DD 
 SINC.deg                35.44:  Inc, Start 
 SPPA.psig             4270.00:  SPP Avg 
 SPPN.psig             2800.00:  SPP Min 
 SPPX.psig             4850.00:  SPP Max 
 STIM.      09.30.00 03-Feb-20:  Start Time 
 SVCS.                 DD, MWD:  Services 
 SVER.                    9.20:  Sperry Version 
 TDAT.m                1183.00:  Tot Depth Attmp 
 TDDF.                      No:  Trip for DD 
 TDLG.m                1183.00:  Tot Depth Loggd 
 TFF .                      No:  Trip for Fail 
 TQAA.f-kp               16.00:  Torque Abs Avg 
 TQAN.f-kp               10.00:  Torque Abs Min 
 TQAX.f-kp               20.00:  Torque Abs Max 
 TRRT.°/30m               1.00:  Turn Rotating 
 MRT .                  EWR-M5:  Maximum Recorded Temperature 
 TTMX.degC               80.39:  Max Tool Temp 
 VS01.               13098498 :  Virtual Str1 SN 
 VS02.                90569596:  Virtual Str2 SN 
 VS03.                90523599:  Virtual Str3 SN 
 VS04.                90573553:  Virtual Str4 SN 
 VS05.                90598598:  Virtual Str5 SN 
 VS06.                90577297:  Virtual Str6 SN 
 WBMN.klb                13.00:  WOB Min 
 WITN.         Alistair Sprott:  Customer Rep 
 WITN.           Rufat Babayev:  Customer Rep 2 
 WOBA.klb                15.00:  WOB Avg 
 WOBX.klb                20.00:  WOB Max 
 YP  .lhf2               39.00:  Yield Point 
~Curve Information Block
#MNEM.UNIT                 API CODE     Curve Description
#---------               -----------    ---------------------------
 TIME.HHMMSS            00 000 000 000:  GT Time & Date
 GTDEPTH.m              00 000 000 000:  GT Depth
 GTPQH.psia             00 000 000 000:  GT HR Quartz Pressure
 GTTQ.degC              00 000 000 000:  GT Quartz Temperature
 GTTN.NONE              00 000 000 000:  GT Test Number
 GTET.sec               00 000 000 000:  GT Elapsed Test Time
 GTTVD.m                00 000 000 000:  GT True Vertical Depth
#Other Information
#
#WARRANTY: Halliburton will use its best efforts to furnish customers with 
#accurate information and interpretations that are part of, and incident to, the services 
#provided.  However, Halliburton cannot and does not warrant the accuracy 
#or correctness of such information and interpretations.  Under no circumstances should any 
#such information or interpretation be relied upon as the sole basis for any drilling, 
#completion, production, or financial decision or any procedure involving any risk to the 
#safety of any drilling venture, drilling rig or its crew or any other third party.  The 
#Customer has full responsibility for all drilling, completion and production operation.  
#Halliburton makes no representations or warranties, either expressed or 
#implied, including, but not limited to, the implied warranties of merchantability or fitness 
#for a particular purpose, with respect to the services rendered.  In no event will 
#Halliburton be liable for failure to obtain any particular results or for 
#any damages, including, but not limited to, indirect, special or consequential damages, 
#resulting from the use of any information or interpretation provided by Halliburton.
#
~A           TIME           GTDEPTH  GTPQH  GTTQ  GTTN  GTET   GTTVD  
# ...
   09:09:21.769.08-Feb-2020 3153.21 4822.06 69.91 3.00  69.01 2652.75
   09:09:21.969.08-Feb-2020 3153.21 4822.06 69.91 3.00  69.21 2652.75
   09:09:22.169.08-Feb-2020 3153.21 4822.29 69.91 3.00  69.41 2652.75
   09:09:22.369.08-Feb-2020 3153.21 4822.57 69.91 3.00  69.61 2652.75
   09:09:22.570.08-Feb-2020 3153.21 4822.68 69.91 3.00  69.81 2652.75
   09:09:22.770.08-Feb-2020 3153.21 4822.60 69.91 3.00  70.01 2652.75
   09:09:22.970.08-Feb-2020 3153.21 4822.60 69.91 3.00  70.21 2652.75
   09:09:23.170.08-Feb-2020 3153.21 4822.43 69.91 3.00  70.41 2652.75
   09:09:23.370.08-Feb-2020 3153.21 4822.50 69.91 3.00  70.61 2652.75
   09:09:23.570.08-Feb-2020 3153.21 4822.78 69.91 3.00  70.81 2652.75
   09:09:23.770.08-Feb-2020 3153.21 4823.64 69.91 3.00  71.01 2652.75
   09:09:23.970.08-Feb-2020 3153.21 4823.64 69.91 3.00  71.21 2652.75
   09:09:24.170.08-Feb-2020 3153.21 4822.15 69.91 3.00  71.41 2652.75
   09:09:24.370.08-Feb-2020 3153.21 4822.55 69.91 3.00  71.61 2652.75
   09:09:24.570.08-Feb-2020 3153.21 4822.59 69.91 3.00  71.81 2652.75
   09:09:24.770.08-Feb-2020 3153.21 4822.89 69.91 3.00  72.01 2652.75
   09:09:24.970.08-Feb-2020 3153.21 4822.89 69.91 3.00  72.21 2652.75
   09:09:25.170.08-Feb-2020 3153.21 4822.73 69.91 3.00  72.41 2652.75
   09:09:25.370.08-Feb-2020 3153.21 4822.82 69.91 3.00  72.61 2652.75
   09:09:25.570.08-Feb-2020 3153.21 4822.66 69.91 3.00  72.81 2652.75
   09:09:25.770.08-Feb-2020 3153.21 4822.56 69.91 3.00  73.01 2652.75
   09:09:25.970.08-Feb-2020 3153.21 4822.56 69.91 3.00  73.21 2652.75
   09:09:26.170.08-Feb-2020 3153.21 4822.45 69.91 3.00  73.41 2652.75
   09:09:26.370.08-Feb-2020 3153.21 4821.82 69.91 3.00  73.61 2652.75
   09:09:26.570.08-Feb-2020 3153.21 4823.08 69.91 3.00  73.81 2652.75
   09:09:26.770.08-Feb-2020 3153.21 4822.25 69.91 3.00  74.01 2652.75
   09:09:26.970.08-Feb-2020 3153.21 4822.25 69.91 3.00  74.21 2652.75
   09:09:27.170.08-Feb-2020 3153.21 4822.92 69.91 3.00  74.41 2652.75
   09:09:27.370.08-Feb-2020 3153.21 4823.37 69.91 3.00  74.61 2652.75
   09:09:27.570.08-Feb-2020 3153.21 4822.30 69.91 3.00  74.81 2652.75
   09:09:27.770.08-Feb-2020 3153.21 4822.26 69.91 3.00  75.01 2652.75
   09:09:27.970.08-Feb-2020 3153.21 4822.26 69.91 3.00  75.21 2652.75
   09:09:28.170.08-Feb-2020 3153.21 4823.58 69.91 3.00  75.41 2652.75
   09:09:28.370.08-Feb-2020 3153.21 4821.49 69.90 3.00  75.61 2652.75
   09:09:28.570.08-Feb-2020 3153.21 4822.46 69.90 3.00  75.81 2652.75
   09:09:28.770.08-Feb-2020 3153.21 4823.71 69.90 3.00  76.01 2652.75
   09:09:28.970.08-Feb-2020 3153.21 4823.71 69.90 3.00  76.21 2652.75
   09:09:29.170.08-Feb-2020 3153.21 4822.66 69.90 3.00  76.41 2652.75
   09:09:29.370.08-Feb-2020 3153.21 4822.89 69.90 3.00  76.61 2652.75
   09:09:29.570.08-Feb-2020 3153.21 4822.39 69.90 3.00  76.81 2652.75
   09:09:29.770.08-Feb-2020 3153.21 4822.97 69.90 3.00  77.01 2652.75
   09:09:29.970.08-Feb-2020 3153.21 4822.97 69.90 3.00  77.21 2652.75
   09:09:30.170.08-Feb-2020 3153.21 4822.67 69.90 3.00  77.41 2652.75
   09:09:30.370.08-Feb-2020 3153.21 4822.98 69.90 3.00  77.61 2652.75
   09:09:30.570.08-Feb-2020 3153.21 4822.60 69.90 3.00  77.81 2652.75
   09:09:30.770.08-Feb-2020 3153.21 4822.78 69.90 3.00  78.01 2652.75
   09:09:30.970.08-Feb-2020 3153.21 4822.78 69.90 3.00  78.21 2652.75
   09:09:31.170.08-Feb-2020 3153.21 4822.04 69.90 3.00  78.41 2652.75
   09:09:31.370.08-Feb-2020 3153.21 4822.12 69.90 3.00  78.61 2652.75
   09:09:31.570.08-Feb-2020 3153.21 4822.75 69.90 3.00  78.81 2652.75
   09:09:31.770.08-Feb-2020 3153.21 4822.88 69.90 3.00  79.01 2652.75
   09:09:31.970.08-Feb-2020 3153.21 4822.88 69.90 3.00  79.21 2652.75
   09:09:32.170.08-Feb-2020 3153.21 4823.26 69.90 3.00  79.41 2652.75
   09:09:32.370.08-Feb-2020 3153.21 4822.87 69.90 3.00  79.61 2652.75
   09:09:32.570.08-Feb-2020 3153.21 4822.94 69.90 3.00  79.81 2652.75
   09:09:32.770.08-Feb-2020 3153.21 4823.07 69.90 3.00  80.01 2652.75
   09:09:32.970.08-Feb-2020 3153.21 4823.07 69.90 3.00  80.21 2652.75
   09:09:33.170.08-Feb-2020 3153.21 4822.62 69.90 3.00  80.41 2652.75
   09:09:33.370.08-Feb-2020 3153.21 4822.37 69.90 3.00  80.61 2652.75
   09:09:33.570.08-Feb-2020 3153.21 4822.24 69.90 3.00  80.81 2652.75
   09:09:33.770.08-Feb-2020 3153.21 4822.63 69.90 3.00  81.01 2652.75
   09:09:33.970.08-Feb-2020 3153.21 4822.63 69.90 3.00  81.21 2652.75
   09:09:34.170.08-Feb-2020 3153.21 4821.72 69.90 3.00  81.41 2652.75
   09:09:34.370.08-Feb-2020 3153.21 4822.84 69.90 3.00  81.61 2652.75
   09:09:34.571.08-Feb-2020 3153.21 4823.40 69.90 3.00  81.81 2652.75
   09:09:34.771.08-Feb-2020 3153.21 4822.81 69.90 3.00  82.01 2652.75
   09:09:34.971.08-Feb-2020 3153.21 4822.81 69.90 3.00  82.21 2652.75
   09:09:35.171.08-Feb-2020 3153.21 4823.04 69.90 3.00  82.41 2652.75
   09:09:35.371.08-Feb-2020 3153.21 4822.74 69.90 3.00  82.61 2652.75
   09:09:35.571.08-Feb-2020 3153.21 4822.42 69.90 3.00  82.81 2652.75
   09:09:35.771.08-Feb-2020 3153.21 4822.88 69.90 3.00  83.01 2652.75
   09:09:35.971.08-Feb-2020 3153.21 4822.88 69.90 3.00  83.21 2652.75
   09:09:36.171.08-Feb-2020 3153.21 4823.98 69.90 3.00  83.41 2652.75
   09:09:36.371.08-Feb-2020 3153.21 4821.78 69.90 3.00  83.61 2652.75
   09:09:36.571.08-Feb-2020 3153.21 4822.62 69.90 3.00  83.81 2652.75
   09:09:36.771.08-Feb-2020 3153.21 4823.05 69.90 3.00  84.01 2652.75
   09:09:36.971.08-Feb-2020 3153.21 4823.05 69.90 3.00  84.21 2652.75
   09:09:37.171.08-Feb-2020 3153.21 4822.86 69.90 3.00  84.41 2652.75
   09:09:37.371.08-Feb-2020 3153.21 4823.11 69.90 3.00  84.61 2652.75
   09:09:37.571.08-Feb-2020 3153.21 4822.96 69.90 3.00  84.81 2652.75
   09:09:37.771.08-Feb-2020 3153.21 4822.94 69.90 3.00  85.01 2652.75
   09:09:37.971.08-Feb-2020 3153.21 4822.94 69.90 3.00  85.21 2652.75
   09:09:38.171.08-Feb-2020 3153.21 4822.94 69.90 3.00  85.41 2652.75
   09:09:38.371.08-Feb-2020 3153.21 4823.32 69.90 3.00  85.61 2652.75
   09:09:38.571.08-Feb-2020 3153.21 4822.84 69.90 3.00  85.81 2652.75
   09:09:38.771.08-Feb-2020 3153.21 4822.56 69.90 3.00  86.01 2652.75
   09:09:38.971.08-Feb-2020 3153.21 4822.56 69.90 3.00  86.21 2652.75
   09:09:39.171.08-Feb-2020 3153.21 4823.26 69.90 3.00  86.41 2652.75
   09:09:39.371.08-Feb-2020 3153.21 4822.97 69.90 3.00  86.61 2652.75
   09:09:39.571.08-Feb-2020 3153.21 4823.10 69.90 3.00  86.81 2652.75
   09:09:39.771.08-Feb-2020 3153.21 4823.00 69.90 3.00  87.01 2652.75
   09:09:39.971.08-Feb-2020 3153.21 4823.00 69.90 3.00  87.21 2652.75
   09:09:40.171.08-Feb-2020 3153.21 4822.97 69.90 3.00  87.41 2652.75
   09:09:40.371.08-Feb-2020 3153.21 4822.87 69.90 3.00  87.61 2652.75
   09:09:40.571.08-Feb-2020 3153.21 4823.06 69.90 3.00  87.81 2652.75
   09:09:40.771.08-Feb-2020 3153.21 4822.62 69.90 3.00  88.01 2652.75
   09:09:40.971.08-Feb-2020 3153.21 4822.62 69.90 3.00  88.21 2652.75
   09:09:41.171.08-Feb-2020 3153.21 4822.63 69.90 3.00  88.41 2652.75
   09:09:41.371.08-Feb-2020 3153.21 4823.08 69.90 3.00  88.61 2652.75
   09:09:41.571.08-Feb-2020 3153.21 4822.13 69.90 3.00  88.81 2652.75
   09:09:41.771.08-Feb-2020 3153.21 4822.78 69.90 3.00  89.01 2652.75
   09:09:41.971.08-Feb-2020 3153.21 4822.78 69.90 3.00  89.21 2652.75
   09:09:42.171.08-Feb-2020 3153.21 4823.16 69.90 3.00  89.41 2652.75
   09:09:42.371.08-Feb-2020 3153.21 4822.74 69.90 3.00  89.61 2652.75
   09:09:42.571.08-Feb-2020 3153.21 4823.20 69.90 3.00  89.81 2652.75
   09:09:42.771.08-Feb-2020 3153.21 4822.84 69.90 3.00  90.01 2652.75
   09:09:42.971.08-Feb-2020 3153.21 4822.84 69.90 3.00  90.21 2652.75
   09:09:43.171.08-Feb-2020 3153.21 4822.91 69.90 3.00  90.41 2652.75
   09:09:43.371.08-Feb-2020 3153.21 4822.25 69.90 3.00  90.61 2652.75
   09:09:43.571.08-Feb-2020 3153.21 4823.58 69.90 3.00  90.81 2652.75
   09:09:43.771.08-Feb-2020 3153.21 4822.98 69.90 3.00  91.01 2652.75
   09:09:43.971.08-Feb-2020 3153.21 4822.98 69.90 3.00  91.21 2652.75
   09:09:44.171.08-Feb-2020 3153.21 4823.03 69.90 3.00  91.41 2652.75
   09:09:44.371.08-Feb-2020 3153.21 4822.94 69.90 3.00  91.61 2652.75
   09:09:44.571.08-Feb-2020 3153.21 4822.88 69.90 3.00  91.81 2652.75
