~Version Information
 VERS.                  2.0:   CWLS log ASCII Standard -VERSION 2.0
 WRAP.                   NO:   One line per depth step
~Well Information Block
#MNEM.UNIT     VALUE/NAME     DESCRIPTION
#---------     -----------    ---------------------------
 STRT.S             10:04:49 08-Feb-20: START TIME 10:04:49 08-Feb-20
 STOP.S             10:11:45 08-Feb-20: STOP TIME  10:11:45 08-Feb-20
 STEP.S                   0.00: STEP TIME
 NULL.                 -999.25: NULL VALUE
 DFWT.                        :  DIST FWL TEXT
 DFST.                        :  DIST FSL TEXT
 DMF .             Drill Floor:  DRILL MEAS FROM
 STIM.      07.00.00 09-Jan-20:  START TIME
 DATE.      14.04.48 07-Feb-20:  END TIME
 SPUD.               09-Jan-20:  SPUD DATE
 NREF.                    Grid:  NORTH REFERENCE
 HPTY.       Minimum Curvature:  HOLE POS TYPE
 DMOD.             Drill Model:  DRILL MOD DESC
 SVYD.                  Survey:  SURVEY DESC
 ILTD.               Lithology:  INTERP LTH DESC
 FTOP.          Formation Tops:  FORM TOPS DESC
 SON .        AZ-XX-0905059384:  JOB NUMBER
 MDS .        Operator Entered:  MAG DATA SOURCE
 WTYP.                Deviated:  WELL TYPE
 COMP.     BP Exploration (Caspian Sea) Ltd.:  COMPANY
 UWI .                     N/A:  UNIQUE WELL IDENTIFIER
 API .                     N/A:  API NUMBER
 BASE.              Azerbaijan:  LOGGING EQUIPMENT BASE LOCATION
 REGN.                   EESSA:  REGION
 PROV.                    Baku:  PROVINCE
 STAT.                    Baku:  STATE NAME
 CTRY.              Azerbaijan:  COUNTRY NAME
 FLD .                     ACG:  FIELD NAME
 SRVC.     TURAN Drilling & Engineering:  CONTRACTOR
 MWDS.                    Baku:  MWD SHOP
 WELL.                     J22:  WELL NAME
 RIG .             West Chirag:  RIG NAME
 DOE .                     N/A:  DOE NUMBER
 DCON.         Sperry Drilling:  DIRECTNL CONTR
 UNIT.                     N/A:  LOGGING EQUIPMENT ID
 PDAT.          Mean Sea Level:  PERMANENT DATUM
 JOBN.        AZ-XX-0905059384:  JOB TICKET NUMB
 CNTY.                        :  COUNTY
 LOC .                        :  LOCATION
 LMF .             Drill Floor:  LOG MEASURED FROM
 TVDS.m                  43.00:  TVDSS CORRECTN
 LATI.deg                40.13:  LATITUDE
 LONG.deg                51.22:  LONGITUDE
 WHNS.m                  10.28:  WELL HEAD N/S
 WHEW.m                  -6.24:  WELL HEAD E/W
 UTMX.m              519005.06:  UTM X
 UTMY.m             4443793.85:  UTM Y
 DFWL.m                   0.00:  DISTANCE FWL
 DFSL.m                   0.00:  DISTANCE FSL
 SDEP.m                 362.00:  START DEPTH
 TDD .m                 904.00:  TOTAL DEPTH (DRILLER)
 VSDR.deg               148.53:  VERT SEC DIRECT
 GVFD.g                   1.00:  GRAVITY FIELD
 MFLD.nT              50277.00:  MAGNETIC FIELD
 MDIP.deg                59.56:  MAGNETIC DIP
 MDEC.deg                 6.42:  MAGNETIC DECL
 GRDC.deg                 0.15:  GRID CORRECTION
 AZTC.deg                 6.27:  AZM TOTAL CORR
 EPD .m                   0.00:  ELEVATION
 EGL .m                   0.00:  GROUND ELEVATION
 WDMS.m                 169.80:  WD ELEV
 APD .m                  43.00:  DEPTH ABOVE PD
 AGAP.m                  43.00:  AIR GAP
 VSEW.m                  -6.24:  VERT SEC E/W
 VSNS.m                  10.28:  VERT SEC N/S
 DEP .m                   0.00:  DEPTH
 EKB .m                   0.00:  KB ELEVATION
 EDF .m                  43.00:  DF ELEVATION
 TDL .m                1183.00:  TOTAL DEPTH (LOGGER)
 VSC .                       0:  VS TO CLOSURE
 MAGU.                 1850021:  MAGUTM CHECKSUM
~Parameter Information Block
#MNEM.UNIT       Value        Description
#---------     -----------    ---------------------------
 AV  .mps                 4.00:  Ann Velocity 
 AVMX.mps                 4.50:  Max Ann Veloc 
 AZIF.deg               145.38:  Azm, Final 
 BHAT.        Rotary Steerable:  BHA Type 
 BROT.°/30m               3.00:  Build Rotating 
 BS  .in                 12.25:  Bit Size 
 BSZ .in                 12.25:  Bit Size 
 BTPL.psig              650.00:  Bit Press Loss 
 CABU.                      No:  Customer Abuse 
 COMM.                     |¶Q:  Run Comments 1 
 TCS .hr                101.62:  Time Ciculation Ended 
 CV  .mps                 5.00:  Crit Velocity 
 CVMX.mps                 5.00:  Max Crit Veloc 
 DD1 .             Aziz Aliyev:  Direct Drillr 1 
 DD2 .      Fakhraddin Guliyev:  Direct Drillr 2 
 DDSV.                 iCruise:  DD Service 
 DEFF.%                  97.00:  % Det Eff 
 DLRX.°/30m               4.16:  Dogleg Rot Max 
 DLSO.°/30m               3.20:  Dogleg Oriented 
 DLSX.°/30m               4.10:  Dogleg Str Max 
 DRET.      23.12.00 07-Feb-20:  Drill End Time 
 DRST.      11.30.00 04-Feb-20:  Drill Start Tim 
 DTIM.hr                 61.06:  Time Drilling 
 EDEP.m                3219.01:  End Depth 
 ENG1.         Almaz Almadatov:  Engineer 1 
 ENG2.         Dair Mahammadov:  Engineer 2 
 ENG3.          Nazrin Asgarli:  Engineer 3 
 ETIM.      02.30.00 11-Feb-20:  End Time 
 FLOI.gpm              1100.00:  Flow In 
 FLON.gpm               900.00:  Flow In Min 
 FLOS.cptm               55.00:  Fluid Loss 
 FLOX.gpm              1150.00:  Flow In Max 
 FTRO.       Formation Presure:  FTWD Run Obj 
 HFLO.                      No:  High Flow 
 HPRE.                      No:  High Pressure 
 HTEM.                      No:  High Temp 
 HYDO.m                   1.80:  Hydro Offset 
 IFIN.deg                75.11:  Inc, Final 
 IMAX.deg                75.11:  Inc Max 
 IMIN.deg                33.55:  Inc Min 
 IMND.m                2186.05:  Inc Min Depth 
 IMXD.m                3205.61:  Inc Max Depth 
 JARR.                      No:  Jarring 
 LETM.      23.12.00 07-Feb-20:  Log End Time 
 LOST.hr                     0:  Lost Rig Time 
 LSTM.      11.30.00 04-Feb-20:  Log Start Time 
 MDCL.ppm             40000.00:  Mud Chlorides 
 MDES.     Inversion Oil/Synthetic:  Mud Desc 
 DFD .sg                  1.49:  Mud Density 
 MDMN.sg                  1.49:  Dens Mud Min 
 MDMX.sg                  1.49:  Dens Mud Max 
 MOIL.                      73:  Run Mud Oil % 
 MOWR.                   73:27:  Run Mud OWR 
 MSND.                     0.1:  Run Mud Sand % 
 MSOL.                    20.1:  Run Mud Solids% 
 DFV .spqt               78.00:  Mud Viscosity 
 MWOD.in                  8.00:  MWD Tool OD 
 MWSI.                      No:  Serv Intrp, MWD 
 OTIM.hr                177.15:  Time Operating 
 PCON.          Wear / Scratch:  Pad Condition 
 PMAX.psia            10493.93:  Press Op, Max 
 PV  .cP                 73.00:  Mud PV 
 RUN .                     700:  Run Number 
 ROPA.m/hr               15.00:  ROP Avg 
 ROPN.m/hr               10.00:  ROP Min 
 ROPX.m/hr               35.00:  ROP Max 
 RPMA.rpm               130.00:  RPM Surface Avg 
 RPMN.rpm                80.00:  RPM Surface Min 
 RPMX.rpm               150.00:  RPM Surface Max 
 RRUN.                    L402:  Rig Run Number 
 RTIM.hr                 80.50:  Time Reaming 
 SAZI.deg               155.55:  Azm, Start 
 SDEP.m                2036.00:  Start Depth 
 SIDD.                      No:  Serv Intrp, DD 
 SINC.deg                35.44:  Inc, Start 
 SPPA.psig             4270.00:  SPP Avg 
 SPPN.psig             2800.00:  SPP Min 
 SPPX.psig             4850.00:  SPP Max 
 STIM.      09.30.00 03-Feb-20:  Start Time 
 SVCS.                 DD, MWD:  Services 
 SVER.                    9.20:  Sperry Version 
 TDAT.m                1183.00:  Tot Depth Attmp 
 TDDF.                      No:  Trip for DD 
 TDLG.m                1183.00:  Tot Depth Loggd 
 TFF .                      No:  Trip for Fail 
 TQAA.f-kp               16.00:  Torque Abs Avg 
 TQAN.f-kp               10.00:  Torque Abs Min 
 TQAX.f-kp               20.00:  Torque Abs Max 
 TRRT.°/30m               1.00:  Turn Rotating 
 MRT .                  EWR-M5:  Maximum Recorded Temperature 
 TTMX.degC               80.39:  Max Tool Temp 
 VS01.               13098498 :  Virtual Str1 SN 
 VS02.                90569596:  Virtual Str2 SN 
 VS03.                90523599:  Virtual Str3 SN 
 VS04.                90573553:  Virtual Str4 SN 
 VS05.                90598598:  Virtual Str5 SN 
 VS06.                90577297:  Virtual Str6 SN 
 WBMN.klb                13.00:  WOB Min 
 WITN.         Alistair Sprott:  Customer Rep 
 WITN.           Rufat Babayev:  Customer Rep 2 
 WOBA.klb                15.00:  WOB Avg 
 WOBX.klb                20.00:  WOB Max 
 YP  .lhf2               39.00:  Yield Point 
~Curve Information Block
#MNEM.UNIT                 API CODE     Curve Description
#---------               -----------    ---------------------------
 TIME.HHMMSS            00 000 000 000:  GT Time & Date
 GTDEPTH.m              00 000 000 000:  GT Depth
 GTPQH.psia             00 000 000 000:  GT HR Quartz Pressure
 GTTQ.degC              00 000 000 000:  GT Quartz Temperature
 GTTN.NONE              00 000 000 000:  GT Test Number
 GTET.sec               00 000 000 000:  GT Elapsed Test Time
 GTTVD.m                00 000 000 000:  GT True Vertical Depth
#Other Information
#
#WARRANTY: Halliburton will use its best efforts to furnish customers with 
#accurate information and interpretations that are part of, and incident to, the services 
#provided.  However, Halliburton cannot and does not warrant the accuracy 
#or correctness of such information and interpretations.  Under no circumstances should any 
#such information or interpretation be relied upon as the sole basis for any drilling, 
#completion, production, or financial decision or any procedure involving any risk to the 
#safety of any drilling venture, drilling rig or its crew or any other third party.  The 
#Customer has full responsibility for all drilling, completion and production operation.  
#Halliburton makes no representations or warranties, either expressed or 
#implied, including, but not limited to, the implied warranties of merchantability or fitness 
#for a particular purpose, with respect to the services rendered.  In no event will 
#Halliburton be liable for failure to obtain any particular results or for 
#any damages, including, but not limited to, indirect, special or consequential damages, 
#resulting from the use of any information or interpretation provided by Halliburton.
#
~A           TIME           GTDEPTH  GTPQH  GTTQ  GTTN  GTET   GTTVD  
# ...
   10:11:20.302.08-Feb-2020 3159.51 5783.91 68.38 5.00 391.12 2654.38
   10:11:20.502.08-Feb-2020 3159.51 5783.91 68.38 5.00 391.32 2654.38
   10:11:20.702.08-Feb-2020 3159.51 5779.25 68.38 5.00 391.52 2654.38
   10:11:20.902.08-Feb-2020 3159.51 5780.82 68.38 5.00 391.72 2654.38
   10:11:21.102.08-Feb-2020 3159.51 5781.14 68.38 5.00 391.92 2654.38
   10:11:21.302.08-Feb-2020 3159.51 5780.69 68.38 5.00 392.12 2654.38
   10:11:21.502.08-Feb-2020 3159.51 5780.69 68.38 5.00 392.32 2654.38
   10:11:21.702.08-Feb-2020 3159.51 5781.29 68.38 5.00 392.52 2654.38
   10:11:21.902.08-Feb-2020 3159.51 5780.23 68.38 5.00 392.72 2654.38
   10:11:22.102.08-Feb-2020 3159.51 5780.21 68.38 5.00 392.92 2654.38
   10:11:22.302.08-Feb-2020 3159.51 5780.52 68.38 5.00 393.12 2654.38
   10:11:22.502.08-Feb-2020 3159.51 5780.52 68.38 5.00 393.32 2654.38
   10:11:22.702.08-Feb-2020 3159.51 5781.13 68.38 5.00 393.52 2654.38
   10:11:22.902.08-Feb-2020 3159.51 5778.75 68.38 5.00 393.72 2654.38
   10:11:23.103.08-Feb-2020 3159.51 5779.94 68.38 5.00 393.92 2654.38
   10:11:23.303.08-Feb-2020 3159.51 5781.09 68.38 5.00 394.12 2654.38
   10:11:23.503.08-Feb-2020 3159.51 5781.09 68.38 5.00 394.32 2654.38
   10:11:23.703.08-Feb-2020 3159.51 5780.16 68.38 5.00 394.52 2654.38
   10:11:23.903.08-Feb-2020 3159.51 5781.35 68.38 5.00 394.72 2654.38
   10:11:24.103.08-Feb-2020 3159.51 5780.27 68.38 5.00 394.92 2654.38
   10:11:24.303.08-Feb-2020 3159.51 5779.83 68.38 5.00 395.12 2654.38
   10:11:24.503.08-Feb-2020 3159.51 5779.83 68.38 5.00 395.32 2654.38
   10:11:24.703.08-Feb-2020 3159.51 5783.37 68.38 5.00 395.52 2654.38
   10:11:24.903.08-Feb-2020 3159.51 5780.35 68.38 5.00 395.72 2654.38
   10:11:25.103.08-Feb-2020 3159.51 5782.52 68.38 5.00 395.92 2654.38
   10:11:25.303.08-Feb-2020 3159.51 5783.09 68.38 5.00 396.12 2654.38
   10:11:25.503.08-Feb-2020 3159.51 5783.09 68.38 5.00 396.32 2654.38
   10:11:25.703.08-Feb-2020 3159.51 5778.16 68.38 5.00 396.52 2654.38
   10:11:25.903.08-Feb-2020 3159.51 5784.34 68.38 5.00 396.72 2654.38
   10:11:26.103.08-Feb-2020 3159.51 5781.19 68.38 5.00 396.92 2654.38
   10:11:26.304.08-Feb-2020 3159.51 5777.74 68.38 5.00 397.12 2654.38
   10:11:26.504.08-Feb-2020 3159.51 5777.74 68.38 5.00 397.32 2654.38
   10:11:26.704.08-Feb-2020 3159.51 5784.56 68.38 5.00 397.52 2654.38
   10:11:26.904.08-Feb-2020 3159.51 5779.91 68.38 5.00 397.72 2654.38
   10:11:27.104.08-Feb-2020 3159.51 5777.66 68.38 5.00 397.92 2654.38
   10:11:27.304.08-Feb-2020 3159.51 5783.67 68.38 5.00 398.12 2654.38
   10:11:27.504.08-Feb-2020 3159.51 5783.67 68.38 5.00 398.32 2654.38
   10:11:27.704.08-Feb-2020 3159.51 5778.24 68.38 5.00 398.52 2654.38
   10:11:27.904.08-Feb-2020 3159.51 5780.55 68.38 5.00 398.72 2654.38
   10:11:28.104.08-Feb-2020 3159.51 5781.79 68.38 5.00 398.92 2654.38
   10:11:28.304.08-Feb-2020 3159.51 5779.64 68.38 5.00 399.12 2654.38
   10:11:28.504.08-Feb-2020 3159.51 5779.64 68.38 5.00 399.32 2654.38
   10:11:28.704.08-Feb-2020 3159.51 5781.59 68.38 5.00 399.52 2654.38
   10:11:28.904.08-Feb-2020 3159.51 5780.28 68.38 5.00 399.72 2654.38
   10:11:29.104.08-Feb-2020 3159.51 5779.77 68.38 5.00 399.92 2654.38
   10:11:29.304.08-Feb-2020 3159.51 5780.11 68.38 5.00 400.12 2654.38
   10:11:29.505.08-Feb-2020 3159.51 5780.11 68.38 5.00 400.32 2654.38
   10:11:29.705.08-Feb-2020 3159.51 5781.28 68.38 5.00 400.52 2654.38
   10:11:29.905.08-Feb-2020 3159.51 5779.33 68.38 5.00 400.72 2654.38
   10:11:30.105.08-Feb-2020 3159.51 5780.41 68.38 5.00 400.92 2654.38
   10:11:30.305.08-Feb-2020 3159.51 5781.64 68.38 5.00 401.12 2654.38
   10:11:30.505.08-Feb-2020 3159.51 5781.64 68.38 5.00 401.32 2654.38
   10:11:30.705.08-Feb-2020 3159.51 5780.46 68.38 5.00 401.52 2654.38
   10:11:30.905.08-Feb-2020 3159.51 5781.33 68.38 5.00 401.72 2654.38
   10:11:31.105.08-Feb-2020 3159.51 5780.39 68.38 5.00 401.92 2654.38
   10:11:31.305.08-Feb-2020 3159.51 5780.10 68.38 5.00 402.12 2654.38
   10:11:31.505.08-Feb-2020 3159.51 5780.10 68.38 5.00 402.33 2654.38
   10:11:31.705.08-Feb-2020 3159.51 5783.16 68.38 5.00 402.53 2654.38
   10:11:31.905.08-Feb-2020 3159.51 5781.14 68.38 5.00 402.73 2654.38
   10:11:32.105.08-Feb-2020 3159.51 5779.75 68.38 5.00 402.93 2654.38
   10:11:32.305.08-Feb-2020 3159.51 5784.00 68.38 5.00 403.13 2654.38
   10:11:32.505.08-Feb-2020 3159.51 5784.00 68.38 5.00 403.33 2654.38
   10:11:32.705.08-Feb-2020 3159.51 5778.84 68.38 5.00 403.53 2654.38
   10:11:32.906.08-Feb-2020 3159.51 5780.52 68.38 5.00 403.73 2654.38
   10:11:33.106.08-Feb-2020 3159.51 5784.10 68.38 5.00 403.93 2654.38
   10:11:33.306.08-Feb-2020 3159.51 5780.44 68.38 5.00 404.13 2654.38
   10:11:33.506.08-Feb-2020 3159.51 5780.44 68.38 5.00 404.33 2654.38
   10:11:33.706.08-Feb-2020 3159.51 5783.99 68.38 5.00 404.53 2654.38
   10:11:33.906.08-Feb-2020 3159.51 5781.11 68.37 5.00 404.73 2654.38
   10:11:34.106.08-Feb-2020 3159.51 5777.19 68.37 5.00 404.93 2654.38
   10:11:34.306.08-Feb-2020 3159.51 5778.41 68.37 5.00 405.13 2654.38
   10:11:34.506.08-Feb-2020 3159.51 5778.41 68.37 5.00 405.33 2654.38
   10:11:34.706.08-Feb-2020 3159.51 5781.24 68.37 5.00 405.53 2654.38
   10:11:34.906.08-Feb-2020 3159.51 5779.71 68.37 5.00 405.73 2654.38
   10:11:35.106.08-Feb-2020 3159.51 5781.58 68.37 5.00 405.93 2654.38
   10:11:35.306.08-Feb-2020 3159.51 5781.47 68.37 5.00 406.13 2654.38
   10:11:35.506.08-Feb-2020 3159.51 5781.47 68.37 5.00 406.33 2654.38
   10:11:35.706.08-Feb-2020 3159.51 5781.92 68.37 5.00 406.53 2654.38
   10:11:35.906.08-Feb-2020 3159.51 5781.61 68.37 5.00 406.73 2654.38
   10:11:36.107.08-Feb-2020 3159.51 5780.22 68.37 5.00 406.93 2654.38
   10:11:36.307.08-Feb-2020 3159.51 5779.69 68.37 5.00 407.13 2654.38
   10:11:36.507.08-Feb-2020 3159.51 5779.69 68.37 5.00 407.33 2654.38
   10:11:36.707.08-Feb-2020 3159.51 5787.08 68.37 5.00 407.53 2654.38
   10:11:36.907.08-Feb-2020 3159.51 5779.08 68.37 5.00 407.73 2654.38
   10:11:37.107.08-Feb-2020 3159.51 5779.00 68.37 5.00 407.93 2654.38
   10:11:37.307.08-Feb-2020 3159.51 5780.97 68.37 5.00 408.13 2654.38
   10:11:37.507.08-Feb-2020 3159.51 5780.97 68.37 5.00 408.33 2654.38
   10:11:37.707.08-Feb-2020 3159.51 5779.84 68.37 5.00 408.53 2654.38
   10:11:37.907.08-Feb-2020 3159.51 5781.21 68.37 5.00 408.73 2654.38
   10:11:38.107.08-Feb-2020 3159.51 5780.21 68.37 5.00 408.93 2654.38
   10:11:38.307.08-Feb-2020 3159.51 5779.65 68.37 5.00 409.13 2654.38
   10:11:38.507.08-Feb-2020 3159.51 5779.65 68.37 5.00 409.33 2654.38
   10:11:38.707.08-Feb-2020 3159.51 5779.11 68.37 5.00 409.53 2654.38
   10:11:38.907.08-Feb-2020 3159.51 5784.59 68.37 5.00 409.73 2654.38
   10:11:39.107.08-Feb-2020 3159.51 5778.77 68.37 5.00 409.93 2654.38
   10:11:39.308.08-Feb-2020 3159.51 5778.29 68.37 5.00 410.13 2654.38
   10:11:39.508.08-Feb-2020 3159.51 5778.29 68.37 5.00 410.33 2654.38
   10:11:39.708.08-Feb-2020 3159.51 5782.85 68.37 5.00 410.53 2654.38
   10:11:39.908.08-Feb-2020 3159.51 5778.61 68.37 5.00 410.73 2654.38
   10:11:40.108.08-Feb-2020 3159.51 5779.65 68.37 5.00 410.93 2654.38
   10:11:40.308.08-Feb-2020 3159.51 5783.29 68.37 5.00 411.13 2654.38
   10:11:40.508.08-Feb-2020 3159.51 5783.29 68.37 5.00 411.33 2654.38
   10:11:40.708.08-Feb-2020 3159.51 5778.82 68.37 5.00 411.53 2654.38
   10:11:40.908.08-Feb-2020 3159.51 5781.14 68.37 5.00 411.73 2654.38
   10:11:41.108.08-Feb-2020 3159.51 5783.05 68.37 5.00 411.93 2654.38
   10:11:41.308.08-Feb-2020 3159.51 5778.75 68.37 5.00 412.13 2654.38
   10:11:41.508.08-Feb-2020 3159.51 5778.75 68.37 5.00 412.33 2654.38
   10:11:41.708.08-Feb-2020 3159.51 5783.95 68.37 5.00 412.53 2654.38
   10:11:41.908.08-Feb-2020 3159.51 5779.94 68.37 5.00 412.73 2654.38
   10:11:42.108.08-Feb-2020 3159.51 5779.23 68.37 5.00 412.93 2654.38
   10:11:42.308.08-Feb-2020 3159.51 5781.53 68.37 5.00 413.13 2654.38
   10:11:42.509.08-Feb-2020 3159.51 5781.53 68.37 5.00 413.33 2654.38
   10:11:42.709.08-Feb-2020 3159.51 5779.55 68.37 5.00 413.53 2654.38
   10:11:42.909.08-Feb-2020 3159.51 5780.71 68.37 5.00 413.73 2654.38
   10:11:43.109.08-Feb-2020 3159.51 5781.39 68.37 5.00 413.93 2654.38
