~Version Information
 VERS.                  2.0:   CWLS log ASCII Standard -VERSION 2.0
 WRAP.                   NO:   One line per depth step
~Well Information Block
#MNEM.UNIT     VALUE/NAME     DESCRIPTION
#---------     -----------    ---------------------------
 STRT.S             11:02:51 08-Feb-20: START TIME 11:02:51 08-Feb-20
 STOP.S             11:09:43 08-Feb-20: STOP TIME  11:09:43 08-Feb-20
 STEP.S                   0.00: STEP TIME
 NULL.                 -999.25: NULL VALUE
 DFWT.                        :  DIST FWL TEXT
 DFST.                        :  DIST FSL TEXT
 DMF .             Drill Floor:  DRILL MEAS FROM
 STIM.      07.00.00 09-Jan-20:  START TIME
 DATE.      14.04.48 07-Feb-20:  END TIME
 SPUD.               09-Jan-20:  SPUD DATE
 NREF.                    Grid:  NORTH REFERENCE
 HPTY.       Minimum Curvature:  HOLE POS TYPE
 DMOD.             Drill Model:  DRILL MOD DESC
 SVYD.                  Survey:  SURVEY DESC
 ILTD.               Lithology:  INTERP LTH DESC
 FTOP.          Formation Tops:  FORM TOPS DESC
 SON .        AZ-XX-0905059384:  JOB NUMBER
 MDS .        Operator Entered:  MAG DATA SOURCE
 WTYP.                Deviated:  WELL TYPE
 COMP.     BP Exploration (Caspian Sea) Ltd.:  COMPANY
 UWI .                     N/A:  UNIQUE WELL IDENTIFIER
 API .                     N/A:  API NUMBER
 BASE.              Azerbaijan:  LOGGING EQUIPMENT BASE LOCATION
 REGN.                   EESSA:  REGION
 PROV.                    Baku:  PROVINCE
 STAT.                    Baku:  STATE NAME
 CTRY.              Azerbaijan:  COUNTRY NAME
 FLD .                     ACG:  FIELD NAME
 SRVC.     TURAN Drilling & Engineering:  CONTRACTOR
 MWDS.                    Baku:  MWD SHOP
 WELL.                     J22:  WELL NAME
 RIG .             West Chirag:  RIG NAME
 DOE .                     N/A:  DOE NUMBER
 DCON.         Sperry Drilling:  DIRECTNL CONTR
 UNIT.                     N/A:  LOGGING EQUIPMENT ID
 PDAT.          Mean Sea Level:  PERMANENT DATUM
 JOBN.        AZ-XX-0905059384:  JOB TICKET NUMB
 CNTY.                        :  COUNTY
 LOC .                        :  LOCATION
 LMF .             Drill Floor:  LOG MEASURED FROM
 TVDS.m                  43.00:  TVDSS CORRECTN
 LATI.deg                40.13:  LATITUDE
 LONG.deg                51.22:  LONGITUDE
 WHNS.m                  10.28:  WELL HEAD N/S
 WHEW.m                  -6.24:  WELL HEAD E/W
 UTMX.m              519005.06:  UTM X
 UTMY.m             4443793.85:  UTM Y
 DFWL.m                   0.00:  DISTANCE FWL
 DFSL.m                   0.00:  DISTANCE FSL
 SDEP.m                 362.00:  START DEPTH
 TDD .m                 904.00:  TOTAL DEPTH (DRILLER)
 VSDR.deg               148.53:  VERT SEC DIRECT
 GVFD.g                   1.00:  GRAVITY FIELD
 MFLD.nT              50277.00:  MAGNETIC FIELD
 MDIP.deg                59.56:  MAGNETIC DIP
 MDEC.deg                 6.42:  MAGNETIC DECL
 GRDC.deg                 0.15:  GRID CORRECTION
 AZTC.deg                 6.27:  AZM TOTAL CORR
 EPD .m                   0.00:  ELEVATION
 EGL .m                   0.00:  GROUND ELEVATION
 WDMS.m                 169.80:  WD ELEV
 APD .m                  43.00:  DEPTH ABOVE PD
 AGAP.m                  43.00:  AIR GAP
 VSEW.m                  -6.24:  VERT SEC E/W
 VSNS.m                  10.28:  VERT SEC N/S
 DEP .m                   0.00:  DEPTH
 EKB .m                   0.00:  KB ELEVATION
 EDF .m                  43.00:  DF ELEVATION
 TDL .m                1183.00:  TOTAL DEPTH (LOGGER)
 VSC .                       0:  VS TO CLOSURE
 MAGU.                 1850021:  MAGUTM CHECKSUM
~Parameter Information Block
#MNEM.UNIT       Value        Description
#---------     -----------    ---------------------------
 AV  .mps                 4.00:  Ann Velocity 
 AVMX.mps                 4.50:  Max Ann Veloc 
 AZIF.deg               145.38:  Azm, Final 
 BHAT.        Rotary Steerable:  BHA Type 
 BROT.°/30m               3.00:  Build Rotating 
 BS  .in                 12.25:  Bit Size 
 BSZ .in                 12.25:  Bit Size 
 BTPL.psig              650.00:  Bit Press Loss 
 CABU.                      No:  Customer Abuse 
 COMM.                     Ä%€:  Run Comments 1 
 TCS .hr                101.62:  Time Ciculation Ended 
 CV  .mps                 5.00:  Crit Velocity 
 CVMX.mps                 5.00:  Max Crit Veloc 
 DD1 .             Aziz Aliyev:  Direct Drillr 1 
 DD2 .      Fakhraddin Guliyev:  Direct Drillr 2 
 DDSV.                 iCruise:  DD Service 
 DEFF.%                  97.00:  % Det Eff 
 DLRX.°/30m               4.16:  Dogleg Rot Max 
 DLSO.°/30m               3.20:  Dogleg Oriented 
 DLSX.°/30m               4.10:  Dogleg Str Max 
 DRET.      23.12.00 07-Feb-20:  Drill End Time 
 DRST.      11.30.00 04-Feb-20:  Drill Start Tim 
 DTIM.hr                 61.06:  Time Drilling 
 EDEP.m                3219.01:  End Depth 
 ENG1.         Almaz Almadatov:  Engineer 1 
 ENG2.         Dair Mahammadov:  Engineer 2 
 ENG3.          Nazrin Asgarli:  Engineer 3 
 ETIM.      02.30.00 11-Feb-20:  End Time 
 FLOI.gpm              1100.00:  Flow In 
 FLON.gpm               900.00:  Flow In Min 
 FLOS.cptm               55.00:  Fluid Loss 
 FLOX.gpm              1150.00:  Flow In Max 
 FTRO.       Formation Presure:  FTWD Run Obj 
 HFLO.                      No:  High Flow 
 HPRE.                      No:  High Pressure 
 HTEM.                      No:  High Temp 
 HYDO.m                   1.80:  Hydro Offset 
 IFIN.deg                75.11:  Inc, Final 
 IMAX.deg                75.11:  Inc Max 
 IMIN.deg                33.55:  Inc Min 
 IMND.m                2186.05:  Inc Min Depth 
 IMXD.m                3205.61:  Inc Max Depth 
 JARR.                      No:  Jarring 
 LETM.      23.12.00 07-Feb-20:  Log End Time 
 LOST.hr                     0:  Lost Rig Time 
 LSTM.      11.30.00 04-Feb-20:  Log Start Time 
 MDCL.ppm             40000.00:  Mud Chlorides 
 MDES.     Inversion Oil/Synthetic:  Mud Desc 
 DFD .sg                  1.49:  Mud Density 
 MDMN.sg                  1.49:  Dens Mud Min 
 MDMX.sg                  1.49:  Dens Mud Max 
 MOIL.                      73:  Run Mud Oil % 
 MOWR.                   73:27:  Run Mud OWR 
 MSND.                     0.1:  Run Mud Sand % 
 MSOL.                    20.1:  Run Mud Solids% 
 DFV .spqt               78.00:  Mud Viscosity 
 MWOD.in                  8.00:  MWD Tool OD 
 MWSI.                      No:  Serv Intrp, MWD 
 OTIM.hr                177.15:  Time Operating 
 PCON.          Wear / Scratch:  Pad Condition 
 PMAX.psia            10493.93:  Press Op, Max 
 PV  .cP                 73.00:  Mud PV 
 RUN .                     700:  Run Number 
 ROPA.m/hr               15.00:  ROP Avg 
 ROPN.m/hr               10.00:  ROP Min 
 ROPX.m/hr               35.00:  ROP Max 
 RPMA.rpm               130.00:  RPM Surface Avg 
 RPMN.rpm                80.00:  RPM Surface Min 
 RPMX.rpm               150.00:  RPM Surface Max 
 RRUN.                    L402:  Rig Run Number 
 RTIM.hr                 80.50:  Time Reaming 
 SAZI.deg               155.55:  Azm, Start 
 SDEP.m                2036.00:  Start Depth 
 SIDD.                      No:  Serv Intrp, DD 
 SINC.deg                35.44:  Inc, Start 
 SPPA.psig             4270.00:  SPP Avg 
 SPPN.psig             2800.00:  SPP Min 
 SPPX.psig             4850.00:  SPP Max 
 STIM.      09.30.00 03-Feb-20:  Start Time 
 SVCS.                 DD, MWD:  Services 
 SVER.                    9.20:  Sperry Version 
 TDAT.m                1183.00:  Tot Depth Attmp 
 TDDF.                      No:  Trip for DD 
 TDLG.m                1183.00:  Tot Depth Loggd 
 TFF .                      No:  Trip for Fail 
 TQAA.f-kp               16.00:  Torque Abs Avg 
 TQAN.f-kp               10.00:  Torque Abs Min 
 TQAX.f-kp               20.00:  Torque Abs Max 
 TRRT.°/30m               1.00:  Turn Rotating 
 MRT .                  EWR-M5:  Maximum Recorded Temperature 
 TTMX.degC               80.39:  Max Tool Temp 
 VS01.               13098498 :  Virtual Str1 SN 
 VS02.                90569596:  Virtual Str2 SN 
 VS03.                90523599:  Virtual Str3 SN 
 VS04.                90573553:  Virtual Str4 SN 
 VS05.                90598598:  Virtual Str5 SN 
 VS06.                90577297:  Virtual Str6 SN 
 WBMN.klb                13.00:  WOB Min 
 WITN.         Alistair Sprott:  Customer Rep 
 WITN.           Rufat Babayev:  Customer Rep 2 
 WOBA.klb                15.00:  WOB Avg 
 WOBX.klb                20.00:  WOB Max 
 YP  .lhf2               39.00:  Yield Point 
~Curve Information Block
#MNEM.UNIT                 API CODE     Curve Description
#---------               -----------    ---------------------------
 TIME.HHMMSS            00 000 000 000:  GT Time & Date
 GTDEPTH.m              00 000 000 000:  GT Depth
 GTPQH.psia             00 000 000 000:  GT HR Quartz Pressure
 GTTQ.degC              00 000 000 000:  GT Quartz Temperature
 GTTN.NONE              00 000 000 000:  GT Test Number
 GTET.sec               00 000 000 000:  GT Elapsed Test Time
 GTTVD.m                00 000 000 000:  GT True Vertical Depth
#Other Information
#
#WARRANTY: Halliburton will use its best efforts to furnish customers with 
#accurate information and interpretations that are part of, and incident to, the services 
#provided.  However, Halliburton cannot and does not warrant the accuracy 
#or correctness of such information and interpretations.  Under no circumstances should any 
#such information or interpretation be relied upon as the sole basis for any drilling, 
#completion, production, or financial decision or any procedure involving any risk to the 
#safety of any drilling venture, drilling rig or its crew or any other third party.  The 
#Customer has full responsibility for all drilling, completion and production operation.  
#Halliburton makes no representations or warranties, either expressed or 
#implied, including, but not limited to, the implied warranties of merchantability or fitness 
#for a particular purpose, with respect to the services rendered.  In no event will 
#Halliburton be liable for failure to obtain any particular results or for 
#any damages, including, but not limited to, indirect, special or consequential damages, 
#resulting from the use of any information or interpretation provided by Halliburton.
#
~A           TIME           GTDEPTH  GTPQH  GTTQ  GTTN  GTET   GTTVD  
# ...
   11:06:18.550.08-Feb-2020 3115.78 4583.40 67.08 6.00 207.11 2642.62
   11:06:18.750.08-Feb-2020 3115.78 4583.40 67.08 6.00 207.31 2642.62
   11:06:18.950.08-Feb-2020 3115.78 4582.79 67.08 6.00 207.51 2642.62
   11:06:19.150.08-Feb-2020 3115.78 4582.99 67.08 6.00 207.71 2642.62
   11:06:19.350.08-Feb-2020 3115.78 4583.94 67.08 6.00 207.91 2642.62
   11:06:19.550.08-Feb-2020 3115.78 4584.68 67.08 6.00 208.11 2642.62
   11:06:19.750.08-Feb-2020 3115.78 4584.68 67.08 6.00 208.31 2642.62
   11:06:19.950.08-Feb-2020 3115.78 4583.63 67.08 6.00 208.51 2642.62
   11:06:20.150.08-Feb-2020 3115.78 4584.56 67.08 6.00 208.71 2642.62
   11:06:20.351.08-Feb-2020 3115.78 4584.82 67.08 6.00 208.91 2642.62
   11:06:20.551.08-Feb-2020 3115.78 4584.53 67.08 6.00 209.11 2642.62
   11:06:20.751.08-Feb-2020 3115.78 4584.53 67.08 6.00 209.31 2642.62
   11:06:20.951.08-Feb-2020 3115.78 4583.96 67.08 6.00 209.51 2642.62
   11:06:21.151.08-Feb-2020 3115.78 4583.90 67.08 6.00 209.71 2642.62
   11:06:21.351.08-Feb-2020 3115.78 4584.61 67.08 6.00 209.91 2642.62
   11:06:21.551.08-Feb-2020 3115.78 4583.21 67.08 6.00 210.11 2642.62
   11:06:21.751.08-Feb-2020 3115.78 4583.21 67.08 6.00 210.31 2642.62
   11:06:21.951.08-Feb-2020 3115.78 4584.49 67.08 6.00 210.51 2642.62
   11:06:22.151.08-Feb-2020 3115.78 4583.84 67.08 6.00 210.71 2642.62
   11:06:22.352.08-Feb-2020 3115.78 4584.41 67.08 6.00 210.91 2642.62
   11:06:22.552.08-Feb-2020 3115.78 4584.25 67.08 6.00 211.11 2642.62
   11:06:22.752.08-Feb-2020 3115.78 4584.25 67.08 6.00 211.31 2642.62
   11:06:22.952.08-Feb-2020 3115.78 4583.21 67.07 6.00 211.51 2642.62
   11:06:23.152.08-Feb-2020 3115.78 4584.51 67.07 6.00 211.71 2642.62
   11:06:23.352.08-Feb-2020 3115.78 4583.99 67.07 6.00 211.91 2642.62
   11:06:23.552.08-Feb-2020 3115.78 4584.94 67.07 6.00 212.11 2642.62
   11:06:23.752.08-Feb-2020 3115.78 4584.94 67.07 6.00 212.31 2642.62
   11:06:23.952.08-Feb-2020 3115.78 4582.89 67.07 6.00 212.51 2642.62
   11:06:24.152.08-Feb-2020 3115.78 4583.21 67.07 6.00 212.71 2642.62
   11:06:24.353.08-Feb-2020 3115.78 4582.81 67.07 6.00 212.91 2642.62
   11:06:24.553.08-Feb-2020 3115.78 4584.21 67.07 6.00 213.11 2642.62
   11:06:24.753.08-Feb-2020 3115.78 4584.21 67.07 6.00 213.31 2642.62
   11:06:24.953.08-Feb-2020 3115.78 4583.35 67.07 6.00 213.51 2642.62
   11:06:25.153.08-Feb-2020 3115.78 4584.18 67.07 6.00 213.71 2642.62
   11:06:25.353.08-Feb-2020 3115.78 4584.32 67.07 6.00 213.91 2642.62
   11:06:25.553.08-Feb-2020 3115.78 4583.81 67.07 6.00 214.11 2642.62
   11:06:25.753.08-Feb-2020 3115.78 4583.81 67.07 6.00 214.31 2642.62
   11:06:25.953.08-Feb-2020 3115.78 4583.85 67.07 6.00 214.51 2642.62
   11:06:26.154.08-Feb-2020 3115.78 4584.01 67.07 6.00 214.71 2642.62
   11:06:26.354.08-Feb-2020 3115.78 4583.92 67.07 6.00 214.91 2642.62
   11:06:26.554.08-Feb-2020 3115.78 4583.25 67.07 6.00 215.11 2642.62
   11:06:26.754.08-Feb-2020 3115.78 4583.25 67.07 6.00 215.31 2642.62
   11:06:26.954.08-Feb-2020 3115.78 4584.73 67.07 6.00 215.51 2642.62
   11:06:27.154.08-Feb-2020 3115.78 4583.70 67.07 6.00 215.71 2642.62
   11:06:27.354.08-Feb-2020 3115.78 4583.77 67.07 6.00 215.91 2642.62
   11:06:27.554.08-Feb-2020 3115.78 4584.52 67.07 6.00 216.11 2642.62
   11:06:27.754.08-Feb-2020 3115.78 4584.24 67.07 6.00 216.31 2642.62
   11:06:27.954.08-Feb-2020 3115.78 4583.84 67.07 6.00 216.51 2642.62
   11:06:28.155.08-Feb-2020 3115.78 4584.00 67.07 6.00 216.71 2642.62
   11:06:28.355.08-Feb-2020 3115.78 4584.19 67.07 6.00 216.91 2642.62
   11:06:28.555.08-Feb-2020 3115.78 4584.34 67.07 6.00 217.11 2642.62
   11:06:28.755.08-Feb-2020 3115.78 4584.34 67.07 6.00 217.31 2642.62
   11:06:28.955.08-Feb-2020 3115.78 4583.93 67.07 6.00 217.51 2642.62
   11:06:29.155.08-Feb-2020 3115.78 4583.92 67.07 6.00 217.71 2642.62
   11:06:29.355.08-Feb-2020 3115.78 4583.03 67.07 6.00 217.91 2642.62
   11:06:29.555.08-Feb-2020 3115.78 4582.59 67.06 6.00 218.11 2642.62
   11:06:29.755.08-Feb-2020 3115.78 4582.59 67.06 6.00 218.31 2642.62
   11:06:29.956.08-Feb-2020 3115.78 4583.53 67.06 6.00 218.51 2642.62
   11:06:30.156.08-Feb-2020 3115.78 4584.36 67.06 6.00 218.71 2642.62
   11:06:30.356.08-Feb-2020 3115.78 4581.54 67.06 6.00 218.91 2642.62
   11:06:30.556.08-Feb-2020 3115.78 4583.27 67.06 6.00 219.11 2642.62
   11:06:30.756.08-Feb-2020 3115.78 4583.27 67.06 6.00 219.31 2642.62
   11:06:30.956.08-Feb-2020 3115.78 4583.95 67.06 6.00 219.51 2642.62
   11:06:31.156.08-Feb-2020 3115.78 4581.96 67.06 6.00 219.71 2642.62
   11:06:31.356.08-Feb-2020 3115.78 4583.64 67.06 6.00 219.91 2642.62
   11:06:31.556.08-Feb-2020 3115.78 4584.13 67.06 6.00 220.12 2642.62
   11:06:31.756.08-Feb-2020 3115.78 4584.13 67.06 6.00 220.32 2642.62
   11:06:31.957.08-Feb-2020 3115.78 4583.05 67.06 6.00 220.52 2642.62
   11:06:32.157.08-Feb-2020 3115.78 4582.89 67.06 6.00 220.72 2642.62
   11:06:32.357.08-Feb-2020 3115.78 4584.04 67.06 6.00 220.92 2642.62
   11:06:32.557.08-Feb-2020 3115.78 4584.14 67.06 6.00 221.12 2642.62
   11:06:32.757.08-Feb-2020 3115.78 4584.14 67.06 6.00 221.32 2642.62
   11:06:32.957.08-Feb-2020 3115.78 4584.19 67.06 6.00 221.52 2642.62
   11:06:33.157.08-Feb-2020 3115.78 4584.41 67.06 6.00 221.72 2642.62
   11:06:33.357.08-Feb-2020 3115.78 4584.13 67.06 6.00 221.92 2642.62
   11:06:33.557.08-Feb-2020 3115.78 4583.92 67.06 6.00 222.12 2642.62
   11:06:33.758.08-Feb-2020 3115.78 4583.92 67.06 6.00 222.32 2642.62
   11:06:33.958.08-Feb-2020 3115.78 4584.41 67.06 6.00 222.52 2642.62
   11:06:34.158.08-Feb-2020 3115.78 4584.91 67.06 6.00 222.72 2642.62
   11:06:34.358.08-Feb-2020 3115.78 4583.68 67.06 6.00 222.92 2642.62
   11:06:34.558.08-Feb-2020 3115.78 4584.09 67.06 6.00 223.12 2642.62
   11:06:34.758.08-Feb-2020 3115.78 4584.09 67.06 6.00 223.32 2642.62
   11:06:34.958.08-Feb-2020 3115.78 4584.54 67.06 6.00 223.52 2642.62
   11:06:35.158.08-Feb-2020 3115.78 4584.24 67.06 6.00 223.72 2642.62
   11:06:35.358.08-Feb-2020 3115.78 4584.44 67.06 6.00 223.92 2642.62
   11:06:35.558.08-Feb-2020 3115.78 4584.51 67.06 6.00 224.12 2642.62
   11:06:35.759.08-Feb-2020 3115.78 4584.51 67.06 6.00 224.32 2642.62
   11:06:35.959.08-Feb-2020 3115.78 4585.59 67.05 6.00 224.52 2642.62
   11:06:36.159.08-Feb-2020 3115.78 4583.58 67.05 6.00 224.72 2642.62
   11:06:36.359.08-Feb-2020 3115.78 4584.85 67.05 6.00 224.92 2642.62
   11:06:36.559.08-Feb-2020 3115.78 4586.14 67.05 6.00 225.12 2642.62
   11:06:36.759.08-Feb-2020 3115.78 4586.14 67.05 6.00 225.32 2642.62
   11:06:36.959.08-Feb-2020 3115.78 4584.45 67.05 6.00 225.52 2642.62
   11:06:37.159.08-Feb-2020 3115.78 4584.96 67.05 6.00 225.72 2642.62
   11:06:37.359.08-Feb-2020 3115.78 4584.30 67.05 6.00 225.92 2642.62
   11:06:37.560.08-Feb-2020 3115.78 4583.59 67.05 6.00 226.12 2642.62
   11:06:37.760.08-Feb-2020 3115.78 4583.59 67.05 6.00 226.32 2642.62
   11:06:37.960.08-Feb-2020 3115.78 4584.44 67.05 6.00 226.52 2642.62
   11:06:38.160.08-Feb-2020 3115.78 4583.66 67.05 6.00 226.72 2642.62
   11:06:38.360.08-Feb-2020 3115.78 4585.57 67.05 6.00 226.92 2642.62
   11:06:38.560.08-Feb-2020 3115.78 4583.81 67.05 6.00 227.12 2642.62
   11:06:38.760.08-Feb-2020 3115.78 4583.81 67.05 6.00 227.32 2642.62
   11:06:38.960.08-Feb-2020 3115.78 4584.81 67.05 6.00 227.52 2642.62
   11:06:39.160.08-Feb-2020 3115.78 4584.17 67.05 6.00 227.72 2642.62
   11:06:39.360.08-Feb-2020 3115.78 4585.12 67.05 6.00 227.92 2642.62
   11:06:39.561.08-Feb-2020 3115.78 4584.52 67.05 6.00 228.12 2642.62
   11:06:39.761.08-Feb-2020 3115.78 4584.52 67.05 6.00 228.32 2642.62
   11:06:39.961.08-Feb-2020 3115.78 4584.23 67.05 6.00 228.52 2642.62
   11:06:40.161.08-Feb-2020 3115.78 4583.40 67.05 6.00 228.72 2642.62
   11:06:40.361.08-Feb-2020 3115.78 4583.95 67.05 6.00 228.92 2642.62
   11:06:40.561.08-Feb-2020 3115.78 4584.23 67.05 6.00 229.12 2642.62
   11:06:40.761.08-Feb-2020 3115.78 4584.23 67.05 6.00 229.32 2642.62
   11:06:40.961.08-Feb-2020 3115.78 4584.16 67.05 6.00 229.52 2642.62
   11:06:41.161.08-Feb-2020 3115.78 4584.29 67.05 6.00 229.72 2642.62
   11:06:41.361.08-Feb-2020 3115.78 4584.42 67.05 6.00 229.92 2642.62
