~Version Information
 VERS.                  2.0:   CWLS log ASCII Standard -VERSION 2.0
 WRAP.                   NO:   One line per depth step
~Well Information Block
#MNEM.UNIT     VALUE/NAME     DESCRIPTION
#---------     -----------    ---------------------------
 STRT.S             12:03:05 08-Feb-20: START TIME 12:03:05 08-Feb-20
 STOP.S             12:09:57 08-Feb-20: STOP TIME  12:09:57 08-Feb-20
 STEP.S                   0.00: STEP TIME
 NULL.                 -999.25: NULL VALUE
 DFWT.                        :  DIST FWL TEXT
 DFST.                        :  DIST FSL TEXT
 DMF .             Drill Floor:  DRILL MEAS FROM
 STIM.      07.00.00 09-Jan-20:  START TIME
 DATE.      14.04.48 07-Feb-20:  END TIME
 SPUD.               09-Jan-20:  SPUD DATE
 NREF.                    Grid:  NORTH REFERENCE
 HPTY.       Minimum Curvature:  HOLE POS TYPE
 DMOD.             Drill Model:  DRILL MOD DESC
 SVYD.                  Survey:  SURVEY DESC
 ILTD.               Lithology:  INTERP LTH DESC
 FTOP.          Formation Tops:  FORM TOPS DESC
 SON .        AZ-XX-0905059384:  JOB NUMBER
 MDS .        Operator Entered:  MAG DATA SOURCE
 WTYP.                Deviated:  WELL TYPE
 COMP.     BP Exploration (Caspian Sea) Ltd.:  COMPANY
 UWI .                     N/A:  UNIQUE WELL IDENTIFIER
 API .                     N/A:  API NUMBER
 BASE.              Azerbaijan:  LOGGING EQUIPMENT BASE LOCATION
 REGN.                   EESSA:  REGION
 PROV.                    Baku:  PROVINCE
 STAT.                    Baku:  STATE NAME
 CTRY.              Azerbaijan:  COUNTRY NAME
 FLD .                     ACG:  FIELD NAME
 SRVC.     TURAN Drilling & Engineering:  CONTRACTOR
 MWDS.                    Baku:  MWD SHOP
 WELL.                     J22:  WELL NAME
 RIG .             West Chirag:  RIG NAME
 DOE .                     N/A:  DOE NUMBER
 DCON.         Sperry Drilling:  DIRECTNL CONTR
 UNIT.                     N/A:  LOGGING EQUIPMENT ID
 PDAT.          Mean Sea Level:  PERMANENT DATUM
 JOBN.        AZ-XX-0905059384:  JOB TICKET NUMB
 CNTY.                        :  COUNTY
 LOC .                        :  LOCATION
 LMF .             Drill Floor:  LOG MEASURED FROM
 TVDS.m                  43.00:  TVDSS CORRECTN
 LATI.deg                40.13:  LATITUDE
 LONG.deg                51.22:  LONGITUDE
 WHNS.m                  10.28:  WELL HEAD N/S
 WHEW.m                  -6.24:  WELL HEAD E/W
 UTMX.m              519005.06:  UTM X
 UTMY.m             4443793.85:  UTM Y
 DFWL.m                   0.00:  DISTANCE FWL
 DFSL.m                   0.00:  DISTANCE FSL
 SDEP.m                 362.00:  START DEPTH
 TDD .m                 904.00:  TOTAL DEPTH (DRILLER)
 VSDR.deg               148.53:  VERT SEC DIRECT
 GVFD.g                   1.00:  GRAVITY FIELD
 MFLD.nT              50277.00:  MAGNETIC FIELD
 MDIP.deg                59.56:  MAGNETIC DIP
 MDEC.deg                 6.42:  MAGNETIC DECL
 GRDC.deg                 0.15:  GRID CORRECTION
 AZTC.deg                 6.27:  AZM TOTAL CORR
 EPD .m                   0.00:  ELEVATION
 EGL .m                   0.00:  GROUND ELEVATION
 WDMS.m                 169.80:  WD ELEV
 APD .m                  43.00:  DEPTH ABOVE PD
 AGAP.m                  43.00:  AIR GAP
 VSEW.m                  -6.24:  VERT SEC E/W
 VSNS.m                  10.28:  VERT SEC N/S
 DEP .m                   0.00:  DEPTH
 EKB .m                   0.00:  KB ELEVATION
 EDF .m                  43.00:  DF ELEVATION
 TDL .m                1183.00:  TOTAL DEPTH (LOGGER)
 VSC .                       0:  VS TO CLOSURE
 MAGU.                 1850021:  MAGUTM CHECKSUM
~Parameter Information Block
#MNEM.UNIT       Value        Description
#---------     -----------    ---------------------------
 AV  .mps                 4.00:  Ann Velocity 
 AVMX.mps                 4.50:  Max Ann Veloc 
 AZIF.deg               145.38:  Azm, Final 
 BHAT.        Rotary Steerable:  BHA Type 
 BROT.°/30m               3.00:  Build Rotating 
 BS  .in                 12.25:  Bit Size 
 BSZ .in                 12.25:  Bit Size 
 BTPL.psig              650.00:  Bit Press Loss 
 CABU.                      No:  Customer Abuse 
 COMM.                     ÌSf:  Run Comments 1 
 TCS .hr                101.62:  Time Ciculation Ended 
 CV  .mps                 5.00:  Crit Velocity 
 CVMX.mps                 5.00:  Max Crit Veloc 
 DD1 .             Aziz Aliyev:  Direct Drillr 1 
 DD2 .      Fakhraddin Guliyev:  Direct Drillr 2 
 DDSV.                 iCruise:  DD Service 
 DEFF.%                  97.00:  % Det Eff 
 DLRX.°/30m               4.16:  Dogleg Rot Max 
 DLSO.°/30m               3.20:  Dogleg Oriented 
 DLSX.°/30m               4.10:  Dogleg Str Max 
 DRET.      23.12.00 07-Feb-20:  Drill End Time 
 DRST.      11.30.00 04-Feb-20:  Drill Start Tim 
 DTIM.hr                 61.06:  Time Drilling 
 EDEP.m                3219.01:  End Depth 
 ENG1.         Almaz Almadatov:  Engineer 1 
 ENG2.         Dair Mahammadov:  Engineer 2 
 ENG3.          Nazrin Asgarli:  Engineer 3 
 ETIM.      02.30.00 11-Feb-20:  End Time 
 FLOI.gpm              1100.00:  Flow In 
 FLON.gpm               900.00:  Flow In Min 
 FLOS.cptm               55.00:  Fluid Loss 
 FLOX.gpm              1150.00:  Flow In Max 
 FTRO.       Formation Presure:  FTWD Run Obj 
 HFLO.                      No:  High Flow 
 HPRE.                      No:  High Pressure 
 HTEM.                      No:  High Temp 
 HYDO.m                   1.80:  Hydro Offset 
 IFIN.deg                75.11:  Inc, Final 
 IMAX.deg                75.11:  Inc Max 
 IMIN.deg                33.55:  Inc Min 
 IMND.m                2186.05:  Inc Min Depth 
 IMXD.m                3205.61:  Inc Max Depth 
 JARR.                      No:  Jarring 
 LETM.      23.12.00 07-Feb-20:  Log End Time 
 LOST.hr                     0:  Lost Rig Time 
 LSTM.      11.30.00 04-Feb-20:  Log Start Time 
 MDCL.ppm             40000.00:  Mud Chlorides 
 MDES.     Inversion Oil/Synthetic:  Mud Desc 
 DFD .sg                  1.49:  Mud Density 
 MDMN.sg                  1.49:  Dens Mud Min 
 MDMX.sg                  1.49:  Dens Mud Max 
 MOIL.                      73:  Run Mud Oil % 
 MOWR.                   73:27:  Run Mud OWR 
 MSND.                     0.1:  Run Mud Sand % 
 MSOL.                    20.1:  Run Mud Solids% 
 DFV .spqt               78.00:  Mud Viscosity 
 MWOD.in                  8.00:  MWD Tool OD 
 MWSI.                      No:  Serv Intrp, MWD 
 OTIM.hr                177.15:  Time Operating 
 PCON.          Wear / Scratch:  Pad Condition 
 PMAX.psia            10493.93:  Press Op, Max 
 PV  .cP                 73.00:  Mud PV 
 RUN .                     700:  Run Number 
 ROPA.m/hr               15.00:  ROP Avg 
 ROPN.m/hr               10.00:  ROP Min 
 ROPX.m/hr               35.00:  ROP Max 
 RPMA.rpm               130.00:  RPM Surface Avg 
 RPMN.rpm                80.00:  RPM Surface Min 
 RPMX.rpm               150.00:  RPM Surface Max 
 RRUN.                    L402:  Rig Run Number 
 RTIM.hr                 80.50:  Time Reaming 
 SAZI.deg               155.55:  Azm, Start 
 SDEP.m                2036.00:  Start Depth 
 SIDD.                      No:  Serv Intrp, DD 
 SINC.deg                35.44:  Inc, Start 
 SPPA.psig             4270.00:  SPP Avg 
 SPPN.psig             2800.00:  SPP Min 
 SPPX.psig             4850.00:  SPP Max 
 STIM.      09.30.00 03-Feb-20:  Start Time 
 SVCS.                 DD, MWD:  Services 
 SVER.                    9.20:  Sperry Version 
 TDAT.m                1183.00:  Tot Depth Attmp 
 TDDF.                      No:  Trip for DD 
 TDLG.m                1183.00:  Tot Depth Loggd 
 TFF .                      No:  Trip for Fail 
 TQAA.f-kp               16.00:  Torque Abs Avg 
 TQAN.f-kp               10.00:  Torque Abs Min 
 TQAX.f-kp               20.00:  Torque Abs Max 
 TRRT.°/30m               1.00:  Turn Rotating 
 MRT .                  EWR-M5:  Maximum Recorded Temperature 
 TTMX.degC               80.39:  Max Tool Temp 
 VS01.               13098498 :  Virtual Str1 SN 
 VS02.                90569596:  Virtual Str2 SN 
 VS03.                90523599:  Virtual Str3 SN 
 VS04.                90573553:  Virtual Str4 SN 
 VS05.                90598598:  Virtual Str5 SN 
 VS06.                90577297:  Virtual Str6 SN 
 WBMN.klb                13.00:  WOB Min 
 WITN.         Alistair Sprott:  Customer Rep 
 WITN.           Rufat Babayev:  Customer Rep 2 
 WOBA.klb                15.00:  WOB Avg 
 WOBX.klb                20.00:  WOB Max 
 YP  .lhf2               39.00:  Yield Point 
~Curve Information Block
#MNEM.UNIT                 API CODE     Curve Description
#---------               -----------    ---------------------------
 TIME.HHMMSS            00 000 000 000:  GT Time & Date
 GTDEPTH.m              00 000 000 000:  GT Depth
 GTPQH.psia             00 000 000 000:  GT HR Quartz Pressure
 GTTQ.degC              00 000 000 000:  GT Quartz Temperature
 GTTN.NONE              00 000 000 000:  GT Test Number
 GTET.sec               00 000 000 000:  GT Elapsed Test Time
 GTTVD.m                00 000 000 000:  GT True Vertical Depth
#Other Information
#
#WARRANTY: Halliburton will use its best efforts to furnish customers with 
#accurate information and interpretations that are part of, and incident to, the services 
#provided.  However, Halliburton cannot and does not warrant the accuracy 
#or correctness of such information and interpretations.  Under no circumstances should any 
#such information or interpretation be relied upon as the sole basis for any drilling, 
#completion, production, or financial decision or any procedure involving any risk to the 
#safety of any drilling venture, drilling rig or its crew or any other third party.  The 
#Customer has full responsibility for all drilling, completion and production operation.  
#Halliburton makes no representations or warranties, either expressed or 
#implied, including, but not limited to, the implied warranties of merchantability or fitness 
#for a particular purpose, with respect to the services rendered.  In no event will 
#Halliburton be liable for failure to obtain any particular results or for 
#any damages, including, but not limited to, indirect, special or consequential damages, 
#resulting from the use of any information or interpretation provided by Halliburton.
#
~A           TIME           GTDEPTH  GTPQH  GTTQ  GTTN  GTET   GTTVD  
# ...
   12:09:13.000.08-Feb-2020 3069.01 4631.92 65.85 7.00 368.00 2627.56
   12:09:13.200.08-Feb-2020 3069.01 4631.92 65.85 7.00 368.20 2627.56
   12:09:13.400.08-Feb-2020 3069.01 4634.05 65.85 7.00 368.40 2627.56
   12:09:13.600.08-Feb-2020 3069.01 4635.29 65.85 7.00 368.60 2627.56
   12:09:13.800.08-Feb-2020 3069.01 4636.36 65.85 7.00 368.80 2627.56
   12:09:14.000.08-Feb-2020 3069.01 4637.40 65.85 7.00 369.00 2627.56
   12:09:14.200.08-Feb-2020 3069.01 4637.40 65.85 7.00 369.20 2627.56
   12:09:14.400.08-Feb-2020 3069.01 4639.69 65.85 7.00 369.40 2627.56
   12:09:14.600.08-Feb-2020 3069.01 4640.74 65.85 7.00 369.60 2627.56
   12:09:14.800.08-Feb-2020 3069.01 4641.76 65.85 7.00 369.80 2627.56
   12:09:15.000.08-Feb-2020 3069.01 4642.83 65.85 7.00 370.00 2627.56
   12:09:15.200.08-Feb-2020 3069.01 4642.83 65.85 7.00 370.20 2627.56
   12:09:15.400.08-Feb-2020 3069.01 4644.85 65.85 7.00 370.40 2627.56
   12:09:15.600.08-Feb-2020 3069.01 4646.02 65.85 7.00 370.60 2627.56
   12:09:15.800.08-Feb-2020 3069.01 4646.99 65.85 7.00 370.80 2627.56
   12:09:16.000.08-Feb-2020 3069.01 4647.92 65.85 7.00 371.00 2627.56
   12:09:16.200.08-Feb-2020 3069.01 4647.92 65.85 7.00 371.20 2627.56
   12:09:16.400.08-Feb-2020 3069.01 4649.98 65.85 7.00 371.40 2627.56
   12:09:16.600.08-Feb-2020 3069.01 4650.92 65.85 7.00 371.60 2627.56
   12:09:16.800.08-Feb-2020 3069.01 4651.87 65.85 7.00 371.80 2627.56
   12:09:17.000.08-Feb-2020 3069.01 4652.96 65.85 7.00 372.00 2627.56
   12:09:17.200.08-Feb-2020 3069.01 4652.96 65.85 7.00 372.20 2627.56
   12:09:17.400.08-Feb-2020 3069.01 4655.08 65.85 7.00 372.40 2627.56
   12:09:17.600.08-Feb-2020 3069.01 4655.41 65.85 7.00 372.60 2627.56
   12:09:17.800.08-Feb-2020 3069.01 4656.99 65.84 7.00 372.80 2627.56
   12:09:18.000.08-Feb-2020 3069.01 4657.75 65.84 7.00 373.00 2627.56
   12:09:18.200.08-Feb-2020 3069.01 4657.75 65.84 7.00 373.20 2627.56
   12:09:18.400.08-Feb-2020 3069.01 4659.95 65.84 7.00 373.40 2627.56
   12:09:18.600.08-Feb-2020 3069.01 4660.61 65.84 7.00 373.60 2627.56
   12:09:18.800.08-Feb-2020 3069.01 4661.28 65.84 7.00 373.80 2627.56
   12:09:19.000.08-Feb-2020 3069.01 4662.58 65.84 7.00 374.00 2627.56
   12:09:19.200.08-Feb-2020 3069.01 4662.58 65.84 7.00 374.20 2627.56
   12:09:19.400.08-Feb-2020 3069.01 4664.22 65.84 7.00 374.40 2627.56
   12:09:19.600.08-Feb-2020 3069.01 4665.22 65.84 7.00 374.60 2627.56
   12:09:19.800.08-Feb-2020 3069.01 4666.48 65.84 7.00 374.80 2627.56
   12:09:20.000.08-Feb-2020 3069.01 4666.90 65.84 7.00 375.00 2627.56
   12:09:20.200.08-Feb-2020 3069.01 4666.90 65.84 7.00 375.20 2627.56
   12:09:20.400.08-Feb-2020 3069.01 4669.35 65.84 7.00 375.40 2627.56
   12:09:20.600.08-Feb-2020 3069.01 4669.99 65.84 7.00 375.60 2627.56
   12:09:20.800.08-Feb-2020 3069.01 4671.30 65.84 7.00 375.80 2627.56
   12:09:21.000.08-Feb-2020 3069.01 4671.67 65.84 7.00 376.00 2627.56
   12:09:21.200.08-Feb-2020 3069.01 4671.67 65.84 7.00 376.20 2627.56
   12:09:21.400.08-Feb-2020 3069.01 4673.69 65.84 7.00 376.40 2627.56
   12:09:21.600.08-Feb-2020 3069.01 4674.61 65.84 7.00 376.60 2627.56
   12:09:21.800.08-Feb-2020 3069.01 4675.51 65.84 7.00 376.80 2627.56
   12:09:22.000.08-Feb-2020 3069.01 4676.22 65.84 7.00 377.00 2627.56
   12:09:22.200.08-Feb-2020 3069.01 4676.22 65.84 7.00 377.20 2627.56
   12:09:22.400.08-Feb-2020 3069.01 4677.90 65.84 7.00 377.40 2627.56
   12:09:22.600.08-Feb-2020 3069.01 4678.67 65.84 7.00 377.60 2627.56
   12:09:22.800.08-Feb-2020 3069.01 4679.48 65.84 7.00 377.80 2627.56
   12:09:23.000.08-Feb-2020 3069.01 4680.49 65.84 7.00 378.00 2627.56
   12:09:23.200.08-Feb-2020 3069.01 4680.49 65.84 7.00 378.20 2627.56
   12:09:23.400.08-Feb-2020 3069.01 3040.05 65.84 7.00 378.40 2627.56
   12:09:23.600.08-Feb-2020 3069.01 3162.97 65.83 7.00 378.60 2627.56
   12:09:23.800.08-Feb-2020 3069.01 3130.16 65.83 7.00 378.80 2627.56
   12:09:24.000.08-Feb-2020 3069.01 4790.02 65.83 7.00 379.00 2627.56
   12:09:24.200.08-Feb-2020 3069.01 4790.02 65.83 7.00 379.20 2627.56
   12:09:24.400.08-Feb-2020 3069.01 5729.52 65.83 7.00 379.40 2627.56
   12:09:24.600.08-Feb-2020 3069.01 5729.22 65.83 7.00 379.60 2627.56
   12:09:24.800.08-Feb-2020 3069.01 5728.92 65.83 7.00 379.80 2627.56
   12:09:25.000.08-Feb-2020 3069.01 5729.28 65.83 7.00 380.00 2627.56
   12:09:25.200.08-Feb-2020 3069.01 5729.28 65.83 7.00 380.20 2627.56
   12:09:25.400.08-Feb-2020 3069.01 5726.06 65.83 7.00 380.40 2627.56
   12:09:25.600.08-Feb-2020 3069.01 5730.05 65.83 7.00 380.60 2627.56
   12:09:25.800.08-Feb-2020 3069.01 5735.86 65.83 7.00 380.80 2627.56
   12:09:26.000.08-Feb-2020 3069.01 5733.90 65.83 7.00 381.00 2627.56
   12:09:26.200.08-Feb-2020 3069.01 5733.90 65.83 7.00 381.20 2627.56
   12:09:26.400.08-Feb-2020 3069.01 5742.13 65.83 7.00 381.40 2627.56
   12:09:26.600.08-Feb-2020 3069.01 5728.31 65.83 7.00 381.60 2627.56
   12:09:26.800.08-Feb-2020 3069.01 5735.69 65.83 7.00 381.80 2627.56
   12:09:27.000.08-Feb-2020 3069.01 5739.95 65.83 7.00 382.00 2627.56
   12:09:27.200.08-Feb-2020 3069.01 5739.95 65.83 7.00 382.20 2627.56
   12:09:27.400.08-Feb-2020 3069.01 5736.43 65.83 7.00 382.40 2627.56
   12:09:27.600.08-Feb-2020 3069.01 5733.17 65.83 7.00 382.60 2627.56
   12:09:27.800.08-Feb-2020 3069.01 5732.32 65.83 7.00 382.80 2627.56
   12:09:28.000.08-Feb-2020 3069.01 5740.63 65.84 7.00 383.00 2627.56
   12:09:28.200.08-Feb-2020 3069.01 5740.63 65.84 7.00 383.20 2627.56
   12:09:28.400.08-Feb-2020 3069.01 5737.11 65.84 7.00 383.40 2627.56
   12:09:28.600.08-Feb-2020 3069.01 5734.70 65.84 7.00 383.60 2627.56
   12:09:28.800.08-Feb-2020 3069.01 5734.28 65.84 7.00 383.80 2627.56
   12:09:29.000.08-Feb-2020 3069.01 5736.06 65.84 7.00 384.00 2627.56
   12:09:29.200.08-Feb-2020 3069.01 5736.06 65.84 7.00 384.20 2627.56
   12:09:29.400.08-Feb-2020 3069.01 5735.40 65.84 7.00 384.40 2627.56
   12:09:29.600.08-Feb-2020 3069.01 5735.39 65.84 7.00 384.60 2627.56
   12:09:29.800.08-Feb-2020 3069.01 5735.35 65.84 7.00 384.80 2627.56
   12:09:30.000.08-Feb-2020 3069.01 5734.55 65.84 7.00 385.00 2627.56
   12:09:30.200.08-Feb-2020 3069.01 5734.55 65.84 7.00 385.20 2627.56
   12:09:30.400.08-Feb-2020 3069.01 5738.31 65.84 7.00 385.40 2627.56
   12:09:30.600.08-Feb-2020 3069.01 5735.04 65.84 7.00 385.60 2627.56
   12:09:30.800.08-Feb-2020 3069.01 5736.63 65.84 7.00 385.80 2627.56
   12:09:31.000.08-Feb-2020 3069.01 5736.07 65.84 7.00 386.00 2627.56
   12:09:31.200.08-Feb-2020 3069.01 5736.07 65.84 7.00 386.20 2627.56
   12:09:31.400.08-Feb-2020 3069.01 5735.63 65.84 7.00 386.40 2627.56
   12:09:31.600.08-Feb-2020 3069.01 5735.58 65.84 7.00 386.60 2627.56
   12:09:31.800.08-Feb-2020 3069.01 5734.93 65.84 7.00 386.80 2627.56
   12:09:32.000.08-Feb-2020 3069.01 5734.57 65.84 7.00 387.00 2627.56
   12:09:32.200.08-Feb-2020 3069.01 5734.57 65.84 7.00 387.20 2627.56
   12:09:32.400.08-Feb-2020 3069.01 5738.26 65.84 7.00 387.40 2627.56
   12:09:32.600.08-Feb-2020 3069.01 5733.19 65.84 7.00 387.60 2627.56
   12:09:32.800.08-Feb-2020 3069.01 5735.17 65.84 7.00 387.80 2627.56
   12:09:33.000.08-Feb-2020 3069.01 5737.55 65.84 7.00 388.00 2627.56
   12:09:33.200.08-Feb-2020 3069.01 5737.55 65.84 7.00 388.20 2627.56
   12:09:33.400.08-Feb-2020 3069.01 5733.99 65.84 7.00 388.40 2627.56
   12:09:33.600.08-Feb-2020 3069.01 5733.49 65.84 7.00 388.60 2627.56
   12:09:33.800.08-Feb-2020 3069.01 5740.29 65.84 7.00 388.80 2627.56
   12:09:34.000.08-Feb-2020 3069.01 5728.95 65.84 7.00 389.00 2627.56
   12:09:34.200.08-Feb-2020 3069.01 5728.95 65.84 7.00 389.20 2627.56
   12:09:34.400.08-Feb-2020 3069.01 5733.81 65.84 7.00 389.40 2627.56
   12:09:34.600.08-Feb-2020 3069.01 5740.15 65.84 7.00 389.60 2627.56
   12:09:34.800.08-Feb-2020 3069.01 5730.32 65.84 7.00 389.80 2627.56
   12:09:35.000.08-Feb-2020 3069.01 5735.42 65.84 7.00 390.00 2627.56
   12:09:35.200.08-Feb-2020 3069.01 5735.42 65.84 7.00 390.20 2627.56
   12:09:35.400.08-Feb-2020 3069.01 5733.83 65.84 7.00 390.40 2627.56
   12:09:35.600.08-Feb-2020 3069.01 5741.92 65.84 7.00 390.60 2627.56
   12:09:35.800.08-Feb-2020 3069.01 5731.77 65.84 7.00 390.80 2627.56
