~Version Information
 VERS.                  2.0:   CWLS log ASCII Standard -VERSION 2.0
 WRAP.                   NO:   One line per depth step
~Well Information Block
#MNEM.UNIT     VALUE/NAME     DESCRIPTION
#---------     -----------    ---------------------------
 STRT.S             11:02:51 08-Feb-20: START TIME 11:02:51 08-Feb-20
 STOP.S             11:09:43 08-Feb-20: STOP TIME  11:09:43 08-Feb-20
 STEP.S                   0.00: STEP TIME
 NULL.                 -999.25: NULL VALUE
 DFWT.                        :  DIST FWL TEXT
 DFST.                        :  DIST FSL TEXT
 DMF .             Drill Floor:  DRILL MEAS FROM
 STIM.      07.00.00 09-Jan-20:  START TIME
 DATE.      14.04.48 07-Feb-20:  END TIME
 SPUD.               09-Jan-20:  SPUD DATE
 NREF.                    Grid:  NORTH REFERENCE
 HPTY.       Minimum Curvature:  HOLE POS TYPE
 DMOD.             Drill Model:  DRILL MOD DESC
 SVYD.                  Survey:  SURVEY DESC
 ILTD.               Lithology:  INTERP LTH DESC
 FTOP.          Formation Tops:  FORM TOPS DESC
 SON .        AZ-XX-0905059384:  JOB NUMBER
 MDS .        Operator Entered:  MAG DATA SOURCE
 WTYP.                Deviated:  WELL TYPE
 COMP.     BP Exploration (Caspian Sea) Ltd.:  COMPANY
 UWI .                     N/A:  UNIQUE WELL IDENTIFIER
 API .                     N/A:  API NUMBER
 BASE.              Azerbaijan:  LOGGING EQUIPMENT BASE LOCATION
 REGN.                   EESSA:  REGION
 PROV.                    Baku:  PROVINCE
 STAT.                    Baku:  STATE NAME
 CTRY.              Azerbaijan:  COUNTRY NAME
 FLD .                     ACG:  FIELD NAME
 SRVC.     TURAN Drilling & Engineering:  CONTRACTOR
 MWDS.                    Baku:  MWD SHOP
 WELL.                     J22:  WELL NAME
 RIG .             West Chirag:  RIG NAME
 DOE .                     N/A:  DOE NUMBER
 DCON.         Sperry Drilling:  DIRECTNL CONTR
 UNIT.                     N/A:  LOGGING EQUIPMENT ID
 PDAT.          Mean Sea Level:  PERMANENT DATUM
 JOBN.        AZ-XX-0905059384:  JOB TICKET NUMB
 CNTY.                        :  COUNTY
 LOC .                        :  LOCATION
 LMF .             Drill Floor:  LOG MEASURED FROM
 TVDS.m                  43.00:  TVDSS CORRECTN
 LATI.deg                40.13:  LATITUDE
 LONG.deg                51.22:  LONGITUDE
 WHNS.m                  10.28:  WELL HEAD N/S
 WHEW.m                  -6.24:  WELL HEAD E/W
 UTMX.m              519005.06:  UTM X
 UTMY.m             4443793.85:  UTM Y
 DFWL.m                   0.00:  DISTANCE FWL
 DFSL.m                   0.00:  DISTANCE FSL
 SDEP.m                 362.00:  START DEPTH
 TDD .m                 904.00:  TOTAL DEPTH (DRILLER)
 VSDR.deg               148.53:  VERT SEC DIRECT
 GVFD.g                   1.00:  GRAVITY FIELD
 MFLD.nT              50277.00:  MAGNETIC FIELD
 MDIP.deg                59.56:  MAGNETIC DIP
 MDEC.deg                 6.42:  MAGNETIC DECL
 GRDC.deg                 0.15:  GRID CORRECTION
 AZTC.deg                 6.27:  AZM TOTAL CORR
 EPD .m                   0.00:  ELEVATION
 EGL .m                   0.00:  GROUND ELEVATION
 WDMS.m                 169.80:  WD ELEV
 APD .m                  43.00:  DEPTH ABOVE PD
 AGAP.m                  43.00:  AIR GAP
 VSEW.m                  -6.24:  VERT SEC E/W
 VSNS.m                  10.28:  VERT SEC N/S
 DEP .m                   0.00:  DEPTH
 EKB .m                   0.00:  KB ELEVATION
 EDF .m                  43.00:  DF ELEVATION
 TDL .m                1183.00:  TOTAL DEPTH (LOGGER)
 VSC .                       0:  VS TO CLOSURE
 MAGU.                 1850021:  MAGUTM CHECKSUM
~Parameter Information Block
#MNEM.UNIT       Value        Description
#---------     -----------    ---------------------------
 AV  .mps                 4.00:  Ann Velocity 
 AVMX.mps                 4.50:  Max Ann Veloc 
 AZIF.deg               145.38:  Azm, Final 
 BHAT.        Rotary Steerable:  BHA Type 
 BROT.°/30m               3.00:  Build Rotating 
 BS  .in                 12.25:  Bit Size 
 BSZ .in                 12.25:  Bit Size 
 BTPL.psig              650.00:  Bit Press Loss 
 CABU.                      No:  Customer Abuse 
 COMM.                     Ä%€:  Run Comments 1 
 TCS .hr                101.62:  Time Ciculation Ended 
 CV  .mps                 5.00:  Crit Velocity 
 CVMX.mps                 5.00:  Max Crit Veloc 
 DD1 .             Aziz Aliyev:  Direct Drillr 1 
 DD2 .      Fakhraddin Guliyev:  Direct Drillr 2 
 DDSV.                 iCruise:  DD Service 
 DEFF.%                  97.00:  % Det Eff 
 DLRX.°/30m               4.16:  Dogleg Rot Max 
 DLSO.°/30m               3.20:  Dogleg Oriented 
 DLSX.°/30m               4.10:  Dogleg Str Max 
 DRET.      23.12.00 07-Feb-20:  Drill End Time 
 DRST.      11.30.00 04-Feb-20:  Drill Start Tim 
 DTIM.hr                 61.06:  Time Drilling 
 EDEP.m                3219.01:  End Depth 
 ENG1.         Almaz Almadatov:  Engineer 1 
 ENG2.         Dair Mahammadov:  Engineer 2 
 ENG3.          Nazrin Asgarli:  Engineer 3 
 ETIM.      02.30.00 11-Feb-20:  End Time 
 FLOI.gpm              1100.00:  Flow In 
 FLON.gpm               900.00:  Flow In Min 
 FLOS.cptm               55.00:  Fluid Loss 
 FLOX.gpm              1150.00:  Flow In Max 
 FTRO.       Formation Presure:  FTWD Run Obj 
 HFLO.                      No:  High Flow 
 HPRE.                      No:  High Pressure 
 HTEM.                      No:  High Temp 
 HYDO.m                   1.80:  Hydro Offset 
 IFIN.deg                75.11:  Inc, Final 
 IMAX.deg                75.11:  Inc Max 
 IMIN.deg                33.55:  Inc Min 
 IMND.m                2186.05:  Inc Min Depth 
 IMXD.m                3205.61:  Inc Max Depth 
 JARR.                      No:  Jarring 
 LETM.      23.12.00 07-Feb-20:  Log End Time 
 LOST.hr                     0:  Lost Rig Time 
 LSTM.      11.30.00 04-Feb-20:  Log Start Time 
 MDCL.ppm             40000.00:  Mud Chlorides 
 MDES.     Inversion Oil/Synthetic:  Mud Desc 
 DFD .sg                  1.49:  Mud Density 
 MDMN.sg                  1.49:  Dens Mud Min 
 MDMX.sg                  1.49:  Dens Mud Max 
 MOIL.                      73:  Run Mud Oil % 
 MOWR.                   73:27:  Run Mud OWR 
 MSND.                     0.1:  Run Mud Sand % 
 MSOL.                    20.1:  Run Mud Solids% 
 DFV .spqt               78.00:  Mud Viscosity 
 MWOD.in                  8.00:  MWD Tool OD 
 MWSI.                      No:  Serv Intrp, MWD 
 OTIM.hr                177.15:  Time Operating 
 PCON.          Wear / Scratch:  Pad Condition 
 PMAX.psia            10493.93:  Press Op, Max 
 PV  .cP                 73.00:  Mud PV 
 RUN .                     700:  Run Number 
 ROPA.m/hr               15.00:  ROP Avg 
 ROPN.m/hr               10.00:  ROP Min 
 ROPX.m/hr               35.00:  ROP Max 
 RPMA.rpm               130.00:  RPM Surface Avg 
 RPMN.rpm                80.00:  RPM Surface Min 
 RPMX.rpm               150.00:  RPM Surface Max 
 RRUN.                    L402:  Rig Run Number 
 RTIM.hr                 80.50:  Time Reaming 
 SAZI.deg               155.55:  Azm, Start 
 SDEP.m                2036.00:  Start Depth 
 SIDD.                      No:  Serv Intrp, DD 
 SINC.deg                35.44:  Inc, Start 
 SPPA.psig             4270.00:  SPP Avg 
 SPPN.psig             2800.00:  SPP Min 
 SPPX.psig             4850.00:  SPP Max 
 STIM.      09.30.00 03-Feb-20:  Start Time 
 SVCS.                 DD, MWD:  Services 
 SVER.                    9.20:  Sperry Version 
 TDAT.m                1183.00:  Tot Depth Attmp 
 TDDF.                      No:  Trip for DD 
 TDLG.m                1183.00:  Tot Depth Loggd 
 TFF .                      No:  Trip for Fail 
 TQAA.f-kp               16.00:  Torque Abs Avg 
 TQAN.f-kp               10.00:  Torque Abs Min 
 TQAX.f-kp               20.00:  Torque Abs Max 
 TRRT.°/30m               1.00:  Turn Rotating 
 MRT .                  EWR-M5:  Maximum Recorded Temperature 
 TTMX.degC               80.39:  Max Tool Temp 
 VS01.               13098498 :  Virtual Str1 SN 
 VS02.                90569596:  Virtual Str2 SN 
 VS03.                90523599:  Virtual Str3 SN 
 VS04.                90573553:  Virtual Str4 SN 
 VS05.                90598598:  Virtual Str5 SN 
 VS06.                90577297:  Virtual Str6 SN 
 WBMN.klb                13.00:  WOB Min 
 WITN.         Alistair Sprott:  Customer Rep 
 WITN.           Rufat Babayev:  Customer Rep 2 
 WOBA.klb                15.00:  WOB Avg 
 WOBX.klb                20.00:  WOB Max 
 YP  .lhf2               39.00:  Yield Point 
~Curve Information Block
#MNEM.UNIT                 API CODE     Curve Description
#---------               -----------    ---------------------------
 TIME.HHMMSS            00 000 000 000:  GT Time & Date
 GTDEPTH.m              00 000 000 000:  GT Depth
 GTPQH.psia             00 000 000 000:  GT HR Quartz Pressure
 GTTQ.degC              00 000 000 000:  GT Quartz Temperature
 GTTN.NONE              00 000 000 000:  GT Test Number
 GTET.sec               00 000 000 000:  GT Elapsed Test Time
 GTTVD.m                00 000 000 000:  GT True Vertical Depth
#Other Information
#
#WARRANTY: Halliburton will use its best efforts to furnish customers with 
#accurate information and interpretations that are part of, and incident to, the services 
#provided.  However, Halliburton cannot and does not warrant the accuracy 
#or correctness of such information and interpretations.  Under no circumstances should any 
#such information or interpretation be relied upon as the sole basis for any drilling, 
#completion, production, or financial decision or any procedure involving any risk to the 
#safety of any drilling venture, drilling rig or its crew or any other third party.  The 
#Customer has full responsibility for all drilling, completion and production operation.  
#Halliburton makes no representations or warranties, either expressed or 
#implied, including, but not limited to, the implied warranties of merchantability or fitness 
#for a particular purpose, with respect to the services rendered.  In no event will 
#Halliburton be liable for failure to obtain any particular results or for 
#any damages, including, but not limited to, indirect, special or consequential damages, 
#resulting from the use of any information or interpretation provided by Halliburton.
#
~A           TIME           GTDEPTH  GTPQH  GTTQ  GTTN  GTET   GTTVD  
# ...
   11:05:32.526.08-Feb-2020 3115.78 4585.00 67.14 6.00 161.08 2642.62
   11:05:32.726.08-Feb-2020 3115.78 4585.00 67.14 6.00 161.28 2642.62
   11:05:32.926.08-Feb-2020 3115.78 4585.36 67.14 6.00 161.48 2642.62
   11:05:33.126.08-Feb-2020 3115.78 4585.34 67.14 6.00 161.68 2642.62
   11:05:33.326.08-Feb-2020 3115.78 4585.21 67.14 6.00 161.88 2642.62
   11:05:33.526.08-Feb-2020 3115.78 4585.06 67.14 6.00 162.08 2642.62
   11:05:33.726.08-Feb-2020 3115.78 4585.06 67.14 6.00 162.28 2642.62
   11:05:33.926.08-Feb-2020 3115.78 4585.08 67.14 6.00 162.48 2642.62
   11:05:34.126.08-Feb-2020 3115.78 4584.98 67.14 6.00 162.69 2642.62
   11:05:34.326.08-Feb-2020 3115.78 4584.47 67.14 6.00 162.89 2642.62
   11:05:34.527.08-Feb-2020 3115.78 4586.22 67.14 6.00 163.09 2642.62
   11:05:34.727.08-Feb-2020 3115.78 4586.22 67.14 6.00 163.29 2642.62
   11:05:34.927.08-Feb-2020 3115.78 4584.94 67.14 6.00 163.49 2642.62
   11:05:35.127.08-Feb-2020 3115.78 4585.20 67.14 6.00 163.69 2642.62
   11:05:35.327.08-Feb-2020 3115.78 4585.75 67.14 6.00 163.89 2642.62
   11:05:35.527.08-Feb-2020 3115.78 4585.38 67.14 6.00 164.09 2642.62
   11:05:35.727.08-Feb-2020 3115.78 4585.38 67.14 6.00 164.29 2642.62
   11:05:35.927.08-Feb-2020 3115.78 4585.33 67.14 6.00 164.49 2642.62
   11:05:36.127.08-Feb-2020 3115.78 4585.78 67.14 6.00 164.69 2642.62
   11:05:36.328.08-Feb-2020 3115.78 4586.44 67.14 6.00 164.89 2642.62
   11:05:36.528.08-Feb-2020 3115.78 4585.41 67.14 6.00 165.09 2642.62
   11:05:36.728.08-Feb-2020 3115.78 4585.41 67.14 6.00 165.29 2642.62
   11:05:36.928.08-Feb-2020 3115.78 4585.92 67.14 6.00 165.49 2642.62
   11:05:37.128.08-Feb-2020 3115.78 4584.88 67.14 6.00 165.69 2642.62
   11:05:37.328.08-Feb-2020 3115.78 4584.85 67.14 6.00 165.89 2642.62
   11:05:37.528.08-Feb-2020 3115.78 4501.57 67.14 6.00 166.09 2642.62
   11:05:37.728.08-Feb-2020 3115.78 4501.57 67.14 6.00 166.29 2642.62
   11:05:37.928.08-Feb-2020 3115.78 3896.85 67.14 6.00 166.49 2642.62
   11:05:38.128.08-Feb-2020 3115.78 3731.23 67.14 6.00 166.69 2642.62
   11:05:38.329.08-Feb-2020 3115.78 3612.35 67.13 6.00 166.89 2642.62
   11:05:38.529.08-Feb-2020 3115.78 3518.85 67.13 6.00 167.09 2642.62
   11:05:38.729.08-Feb-2020 3115.78 3518.85 67.13 6.00 167.29 2642.62
   11:05:38.929.08-Feb-2020 3115.78 3390.19 67.13 6.00 167.49 2642.62
   11:05:39.129.08-Feb-2020 3115.78 3348.32 67.13 6.00 167.69 2642.62
   11:05:39.329.08-Feb-2020 3115.78 3310.15 67.13 6.00 167.89 2642.62
   11:05:39.529.08-Feb-2020 3115.78 3275.23 67.13 6.00 168.09 2642.62
   11:05:39.729.08-Feb-2020 3115.78 3275.23 67.13 6.00 168.29 2642.62
   11:05:39.929.08-Feb-2020 3115.78 3230.34 67.13 6.00 168.49 2642.62
   11:05:40.129.08-Feb-2020 3115.78 3208.17 67.13 6.00 168.69 2642.62
   11:05:40.330.08-Feb-2020 3115.78 3187.17 67.13 6.00 168.89 2642.62
   11:05:40.530.08-Feb-2020 3115.78 3168.54 67.12 6.00 169.09 2642.62
   11:05:40.730.08-Feb-2020 3115.78 3168.54 67.12 6.00 169.29 2642.62
   11:05:40.930.08-Feb-2020 3115.78 3142.50 67.12 6.00 169.49 2642.62
   11:05:41.130.08-Feb-2020 3115.78 3136.38 67.12 6.00 169.69 2642.62
   11:05:41.330.08-Feb-2020 3115.78 3131.79 67.12 6.00 169.89 2642.62
   11:05:41.530.08-Feb-2020 3115.78 3128.72 67.12 6.00 170.09 2642.62
   11:05:41.730.08-Feb-2020 3115.78 3128.72 67.12 6.00 170.29 2642.62
   11:05:41.930.08-Feb-2020 3115.78 3126.12 67.12 6.00 170.49 2642.62
   11:05:42.131.08-Feb-2020 3115.78 3120.66 67.11 6.00 170.69 2642.62
   11:05:42.331.08-Feb-2020 3115.78 3109.22 67.11 6.00 170.89 2642.62
   11:05:42.531.08-Feb-2020 3115.78 3095.84 67.11 6.00 171.09 2642.62
   11:05:42.731.08-Feb-2020 3115.78 3095.84 67.11 6.00 171.29 2642.62
   11:05:42.931.08-Feb-2020 3115.78 3076.21 67.11 6.00 171.49 2642.62
   11:05:43.131.08-Feb-2020 3115.78 3067.11 67.11 6.00 171.69 2642.62
   11:05:43.331.08-Feb-2020 3115.78 3057.46 67.11 6.00 171.89 2642.62
   11:05:43.531.08-Feb-2020 3115.78 3048.44 67.10 6.00 172.09 2642.62
   11:05:43.731.08-Feb-2020 3115.78 3048.44 67.10 6.00 172.29 2642.62
   11:05:43.931.08-Feb-2020 3115.78 3032.43 67.10 6.00 172.49 2642.62
   11:05:44.132.08-Feb-2020 3115.78 3032.38 67.10 6.00 172.69 2642.62
   11:05:44.332.08-Feb-2020 3115.78 3026.94 67.10 6.00 172.89 2642.62
   11:05:44.532.08-Feb-2020 3115.78 3021.64 67.10 6.00 173.09 2642.62
   11:05:44.732.08-Feb-2020 3115.78 3021.64 67.10 6.00 173.29 2642.62
   11:05:44.932.08-Feb-2020 3115.78 3010.60 67.10 6.00 173.49 2642.62
   11:05:45.132.08-Feb-2020 3115.78 3005.37 67.10 6.00 173.69 2642.62
   11:05:45.332.08-Feb-2020 3115.78 3002.34 67.09 6.00 173.89 2642.62
   11:05:45.532.08-Feb-2020 3115.78 2999.22 67.09 6.00 174.09 2642.62
   11:05:45.732.08-Feb-2020 3115.78 2999.22 67.09 6.00 174.29 2642.62
   11:05:45.933.08-Feb-2020 3115.78 2999.90 67.09 6.00 174.49 2642.62
   11:05:46.133.08-Feb-2020 3115.78 3001.04 67.09 6.00 174.69 2642.62
   11:05:46.333.08-Feb-2020 3115.78 2999.17 67.09 6.00 174.89 2642.62
   11:05:46.533.08-Feb-2020 3115.78 3001.83 67.09 6.00 175.09 2642.62
   11:05:46.733.08-Feb-2020 3115.78 3001.83 67.09 6.00 175.29 2642.62
   11:05:46.933.08-Feb-2020 3115.78 2997.07 67.09 6.00 175.49 2642.62
   11:05:47.133.08-Feb-2020 3115.78 2994.04 67.09 6.00 175.69 2642.62
   11:05:47.333.08-Feb-2020 3115.78 2987.96 67.09 6.00 175.89 2642.62
   11:05:47.533.08-Feb-2020 3115.78 2981.99 67.08 6.00 176.09 2642.62
   11:05:47.733.08-Feb-2020 3115.78 2981.99 67.08 6.00 176.29 2642.62
   11:05:47.934.08-Feb-2020 3115.78 2973.67 67.08 6.00 176.49 2642.62
   11:05:48.134.08-Feb-2020 3115.78 3074.63 67.08 6.00 176.69 2642.62
   11:05:48.334.08-Feb-2020 3115.78 3372.89 67.08 6.00 176.89 2642.62
   11:05:48.534.08-Feb-2020 3115.78 3602.93 67.08 6.00 177.09 2642.62
   11:05:48.734.08-Feb-2020 3115.78 3602.93 67.08 6.00 177.29 2642.62
   11:05:48.934.08-Feb-2020 3115.78 3919.05 67.08 6.00 177.49 2642.62
   11:05:49.134.08-Feb-2020 3115.78 4030.65 67.08 6.00 177.69 2642.62
   11:05:49.334.08-Feb-2020 3115.78 4116.46 67.08 6.00 177.89 2642.62
   11:05:49.534.08-Feb-2020 3115.78 4190.38 67.08 6.00 178.09 2642.62
   11:05:49.735.08-Feb-2020 3115.78 4190.38 67.08 6.00 178.29 2642.62
   11:05:49.935.08-Feb-2020 3115.78 4298.69 67.08 6.00 178.49 2642.62
   11:05:50.135.08-Feb-2020 3115.78 4339.41 67.08 6.00 178.69 2642.62
   11:05:50.335.08-Feb-2020 3115.78 4373.72 67.08 6.00 178.89 2642.62
   11:05:50.535.08-Feb-2020 3115.78 4401.85 67.08 6.00 179.09 2642.62
   11:05:50.735.08-Feb-2020 3115.78 4401.85 67.08 6.00 179.29 2642.62
   11:05:50.935.08-Feb-2020 3115.78 4445.32 67.08 6.00 179.49 2642.62
   11:05:51.135.08-Feb-2020 3115.78 4463.63 67.08 6.00 179.69 2642.62
   11:05:51.335.08-Feb-2020 3115.78 4474.82 67.08 6.00 179.89 2642.62
   11:05:51.535.08-Feb-2020 3115.78 4487.04 67.08 6.00 180.09 2642.62
   11:05:51.736.08-Feb-2020 3115.78 4487.04 67.08 6.00 180.29 2642.62
   11:05:51.936.08-Feb-2020 3115.78 4507.34 67.08 6.00 180.49 2642.62
   11:05:52.136.08-Feb-2020 3115.78 4515.88 67.09 6.00 180.69 2642.62
   11:05:52.336.08-Feb-2020 3115.78 4523.80 67.09 6.00 180.89 2642.62
   11:05:52.536.08-Feb-2020 3115.78 4529.16 67.09 6.00 181.09 2642.62
   11:05:52.736.08-Feb-2020 3115.78 4529.16 67.09 6.00 181.29 2642.62
   11:05:52.936.08-Feb-2020 3115.78 4538.51 67.09 6.00 181.49 2642.62
   11:05:53.136.08-Feb-2020 3115.78 4542.39 67.09 6.00 181.69 2642.62
   11:05:53.336.08-Feb-2020 3115.78 4543.98 67.09 6.00 181.90 2642.62
   11:05:53.536.08-Feb-2020 3115.78 4548.71 67.09 6.00 182.10 2642.62
   11:05:53.737.08-Feb-2020 3115.78 4548.71 67.09 6.00 182.30 2642.62
   11:05:53.937.08-Feb-2020 3115.78 4553.27 67.09 6.00 182.50 2642.62
   11:05:54.137.08-Feb-2020 3115.78 4555.36 67.09 6.00 182.70 2642.62
   11:05:54.337.08-Feb-2020 3115.78 4559.03 67.09 6.00 182.90 2642.62
   11:05:54.537.08-Feb-2020 3115.78 4559.87 67.09 6.00 183.10 2642.62
   11:05:54.737.08-Feb-2020 3115.78 4559.87 67.09 6.00 183.30 2642.62
   11:05:54.937.08-Feb-2020 3115.78 4563.57 67.10 6.00 183.50 2642.62
   11:05:55.137.08-Feb-2020 3115.78 4565.15 67.10 6.00 183.70 2642.62
   11:05:55.337.08-Feb-2020 3115.78 4566.25 67.10 6.00 183.90 2642.62
