~Version Information
 VERS.                  2.0:   CWLS log ASCII Standard -VERSION 2.0
 WRAP.                   NO:   One line per depth step
~Well Information Block
#MNEM.UNIT     VALUE/NAME     DESCRIPTION
#---------     -----------    ---------------------------
 STRT.S             10:04:49 08-Feb-20: START TIME 10:04:49 08-Feb-20
 STOP.S             10:11:45 08-Feb-20: STOP TIME  10:11:45 08-Feb-20
 STEP.S                   0.00: STEP TIME
 NULL.                 -999.25: NULL VALUE
 DFWT.                        :  DIST FWL TEXT
 DFST.                        :  DIST FSL TEXT
 DMF .             Drill Floor:  DRILL MEAS FROM
 STIM.      07.00.00 09-Jan-20:  START TIME
 DATE.      14.04.48 07-Feb-20:  END TIME
 SPUD.               09-Jan-20:  SPUD DATE
 NREF.                    Grid:  NORTH REFERENCE
 HPTY.       Minimum Curvature:  HOLE POS TYPE
 DMOD.             Drill Model:  DRILL MOD DESC
 SVYD.                  Survey:  SURVEY DESC
 ILTD.               Lithology:  INTERP LTH DESC
 FTOP.          Formation Tops:  FORM TOPS DESC
 SON .        AZ-XX-0905059384:  JOB NUMBER
 MDS .        Operator Entered:  MAG DATA SOURCE
 WTYP.                Deviated:  WELL TYPE
 COMP.     BP Exploration (Caspian Sea) Ltd.:  COMPANY
 UWI .                     N/A:  UNIQUE WELL IDENTIFIER
 API .                     N/A:  API NUMBER
 BASE.              Azerbaijan:  LOGGING EQUIPMENT BASE LOCATION
 REGN.                   EESSA:  REGION
 PROV.                    Baku:  PROVINCE
 STAT.                    Baku:  STATE NAME
 CTRY.              Azerbaijan:  COUNTRY NAME
 FLD .                     ACG:  FIELD NAME
 SRVC.     TURAN Drilling & Engineering:  CONTRACTOR
 MWDS.                    Baku:  MWD SHOP
 WELL.                     J22:  WELL NAME
 RIG .             West Chirag:  RIG NAME
 DOE .                     N/A:  DOE NUMBER
 DCON.         Sperry Drilling:  DIRECTNL CONTR
 UNIT.                     N/A:  LOGGING EQUIPMENT ID
 PDAT.          Mean Sea Level:  PERMANENT DATUM
 JOBN.        AZ-XX-0905059384:  JOB TICKET NUMB
 CNTY.                        :  COUNTY
 LOC .                        :  LOCATION
 LMF .             Drill Floor:  LOG MEASURED FROM
 TVDS.m                  43.00:  TVDSS CORRECTN
 LATI.deg                40.13:  LATITUDE
 LONG.deg                51.22:  LONGITUDE
 WHNS.m                  10.28:  WELL HEAD N/S
 WHEW.m                  -6.24:  WELL HEAD E/W
 UTMX.m              519005.06:  UTM X
 UTMY.m             4443793.85:  UTM Y
 DFWL.m                   0.00:  DISTANCE FWL
 DFSL.m                   0.00:  DISTANCE FSL
 SDEP.m                 362.00:  START DEPTH
 TDD .m                 904.00:  TOTAL DEPTH (DRILLER)
 VSDR.deg               148.53:  VERT SEC DIRECT
 GVFD.g                   1.00:  GRAVITY FIELD
 MFLD.nT              50277.00:  MAGNETIC FIELD
 MDIP.deg                59.56:  MAGNETIC DIP
 MDEC.deg                 6.42:  MAGNETIC DECL
 GRDC.deg                 0.15:  GRID CORRECTION
 AZTC.deg                 6.27:  AZM TOTAL CORR
 EPD .m                   0.00:  ELEVATION
 EGL .m                   0.00:  GROUND ELEVATION
 WDMS.m                 169.80:  WD ELEV
 APD .m                  43.00:  DEPTH ABOVE PD
 AGAP.m                  43.00:  AIR GAP
 VSEW.m                  -6.24:  VERT SEC E/W
 VSNS.m                  10.28:  VERT SEC N/S
 DEP .m                   0.00:  DEPTH
 EKB .m                   0.00:  KB ELEVATION
 EDF .m                  43.00:  DF ELEVATION
 TDL .m                1183.00:  TOTAL DEPTH (LOGGER)
 VSC .                       0:  VS TO CLOSURE
 MAGU.                 1850021:  MAGUTM CHECKSUM
~Parameter Information Block
#MNEM.UNIT       Value        Description
#---------     -----------    ---------------------------
 AV  .mps                 4.00:  Ann Velocity 
 AVMX.mps                 4.50:  Max Ann Veloc 
 AZIF.deg               145.38:  Azm, Final 
 BHAT.        Rotary Steerable:  BHA Type 
 BROT.°/30m               3.00:  Build Rotating 
 BS  .in                 12.25:  Bit Size 
 BSZ .in                 12.25:  Bit Size 
 BTPL.psig              650.00:  Bit Press Loss 
 CABU.                      No:  Customer Abuse 
 COMM.                     |¶Q:  Run Comments 1 
 TCS .hr                101.62:  Time Ciculation Ended 
 CV  .mps                 5.00:  Crit Velocity 
 CVMX.mps                 5.00:  Max Crit Veloc 
 DD1 .             Aziz Aliyev:  Direct Drillr 1 
 DD2 .      Fakhraddin Guliyev:  Direct Drillr 2 
 DDSV.                 iCruise:  DD Service 
 DEFF.%                  97.00:  % Det Eff 
 DLRX.°/30m               4.16:  Dogleg Rot Max 
 DLSO.°/30m               3.20:  Dogleg Oriented 
 DLSX.°/30m               4.10:  Dogleg Str Max 
 DRET.      23.12.00 07-Feb-20:  Drill End Time 
 DRST.      11.30.00 04-Feb-20:  Drill Start Tim 
 DTIM.hr                 61.06:  Time Drilling 
 EDEP.m                3219.01:  End Depth 
 ENG1.         Almaz Almadatov:  Engineer 1 
 ENG2.         Dair Mahammadov:  Engineer 2 
 ENG3.          Nazrin Asgarli:  Engineer 3 
 ETIM.      02.30.00 11-Feb-20:  End Time 
 FLOI.gpm              1100.00:  Flow In 
 FLON.gpm               900.00:  Flow In Min 
 FLOS.cptm               55.00:  Fluid Loss 
 FLOX.gpm              1150.00:  Flow In Max 
 FTRO.       Formation Presure:  FTWD Run Obj 
 HFLO.                      No:  High Flow 
 HPRE.                      No:  High Pressure 
 HTEM.                      No:  High Temp 
 HYDO.m                   1.80:  Hydro Offset 
 IFIN.deg                75.11:  Inc, Final 
 IMAX.deg                75.11:  Inc Max 
 IMIN.deg                33.55:  Inc Min 
 IMND.m                2186.05:  Inc Min Depth 
 IMXD.m                3205.61:  Inc Max Depth 
 JARR.                      No:  Jarring 
 LETM.      23.12.00 07-Feb-20:  Log End Time 
 LOST.hr                     0:  Lost Rig Time 
 LSTM.      11.30.00 04-Feb-20:  Log Start Time 
 MDCL.ppm             40000.00:  Mud Chlorides 
 MDES.     Inversion Oil/Synthetic:  Mud Desc 
 DFD .sg                  1.49:  Mud Density 
 MDMN.sg                  1.49:  Dens Mud Min 
 MDMX.sg                  1.49:  Dens Mud Max 
 MOIL.                      73:  Run Mud Oil % 
 MOWR.                   73:27:  Run Mud OWR 
 MSND.                     0.1:  Run Mud Sand % 
 MSOL.                    20.1:  Run Mud Solids% 
 DFV .spqt               78.00:  Mud Viscosity 
 MWOD.in                  8.00:  MWD Tool OD 
 MWSI.                      No:  Serv Intrp, MWD 
 OTIM.hr                177.15:  Time Operating 
 PCON.          Wear / Scratch:  Pad Condition 
 PMAX.psia            10493.93:  Press Op, Max 
 PV  .cP                 73.00:  Mud PV 
 RUN .                     700:  Run Number 
 ROPA.m/hr               15.00:  ROP Avg 
 ROPN.m/hr               10.00:  ROP Min 
 ROPX.m/hr               35.00:  ROP Max 
 RPMA.rpm               130.00:  RPM Surface Avg 
 RPMN.rpm                80.00:  RPM Surface Min 
 RPMX.rpm               150.00:  RPM Surface Max 
 RRUN.                    L402:  Rig Run Number 
 RTIM.hr                 80.50:  Time Reaming 
 SAZI.deg               155.55:  Azm, Start 
 SDEP.m                2036.00:  Start Depth 
 SIDD.                      No:  Serv Intrp, DD 
 SINC.deg                35.44:  Inc, Start 
 SPPA.psig             4270.00:  SPP Avg 
 SPPN.psig             2800.00:  SPP Min 
 SPPX.psig             4850.00:  SPP Max 
 STIM.      09.30.00 03-Feb-20:  Start Time 
 SVCS.                 DD, MWD:  Services 
 SVER.                    9.20:  Sperry Version 
 TDAT.m                1183.00:  Tot Depth Attmp 
 TDDF.                      No:  Trip for DD 
 TDLG.m                1183.00:  Tot Depth Loggd 
 TFF .                      No:  Trip for Fail 
 TQAA.f-kp               16.00:  Torque Abs Avg 
 TQAN.f-kp               10.00:  Torque Abs Min 
 TQAX.f-kp               20.00:  Torque Abs Max 
 TRRT.°/30m               1.00:  Turn Rotating 
 MRT .                  EWR-M5:  Maximum Recorded Temperature 
 TTMX.degC               80.39:  Max Tool Temp 
 VS01.               13098498 :  Virtual Str1 SN 
 VS02.                90569596:  Virtual Str2 SN 
 VS03.                90523599:  Virtual Str3 SN 
 VS04.                90573553:  Virtual Str4 SN 
 VS05.                90598598:  Virtual Str5 SN 
 VS06.                90577297:  Virtual Str6 SN 
 WBMN.klb                13.00:  WOB Min 
 WITN.         Alistair Sprott:  Customer Rep 
 WITN.           Rufat Babayev:  Customer Rep 2 
 WOBA.klb                15.00:  WOB Avg 
 WOBX.klb                20.00:  WOB Max 
 YP  .lhf2               39.00:  Yield Point 
~Curve Information Block
#MNEM.UNIT                 API CODE     Curve Description
#---------               -----------    ---------------------------
 TIME.HHMMSS            00 000 000 000:  GT Time & Date
 GTDEPTH.m              00 000 000 000:  GT Depth
 GTPQH.psia             00 000 000 000:  GT HR Quartz Pressure
 GTTQ.degC              00 000 000 000:  GT Quartz Temperature
 GTTN.NONE              00 000 000 000:  GT Test Number
 GTET.sec               00 000 000 000:  GT Elapsed Test Time
 GTTVD.m                00 000 000 000:  GT True Vertical Depth
#Other Information
#
#WARRANTY: Halliburton will use its best efforts to furnish customers with 
#accurate information and interpretations that are part of, and incident to, the services 
#provided.  However, Halliburton cannot and does not warrant the accuracy 
#or correctness of such information and interpretations.  Under no circumstances should any 
#such information or interpretation be relied upon as the sole basis for any drilling, 
#completion, production, or financial decision or any procedure involving any risk to the 
#safety of any drilling venture, drilling rig or its crew or any other third party.  The 
#Customer has full responsibility for all drilling, completion and production operation.  
#Halliburton makes no representations or warranties, either expressed or 
#implied, including, but not limited to, the implied warranties of merchantability or fitness 
#for a particular purpose, with respect to the services rendered.  In no event will 
#Halliburton be liable for failure to obtain any particular results or for 
#any damages, including, but not limited to, indirect, special or consequential damages, 
#resulting from the use of any information or interpretation provided by Halliburton.
#
~A           TIME           GTDEPTH  GTPQH  GTTQ  GTTN  GTET   GTTVD  
# ...
   10:09:25.266.08-Feb-2020 3159.51 4796.74 68.44 5.00 276.09 2654.38
   10:09:25.466.08-Feb-2020 3159.51 4796.74 68.44 5.00 276.29 2654.38
   10:09:25.666.08-Feb-2020 3159.51 4796.74 68.44 5.00 276.49 2654.38
   10:09:25.866.08-Feb-2020 3159.51 4796.98 68.44 5.00 276.69 2654.38
   10:09:26.066.08-Feb-2020 3159.51 4796.63 68.44 5.00 276.89 2654.38
   10:09:26.266.08-Feb-2020 3159.51 4796.72 68.44 5.00 277.09 2654.38
   10:09:26.466.08-Feb-2020 3159.51 4796.72 68.44 5.00 277.29 2654.38
   10:09:26.666.08-Feb-2020 3159.51 4796.14 68.44 5.00 277.49 2654.38
   10:09:26.866.08-Feb-2020 3159.51 4796.16 68.44 5.00 277.69 2654.38
   10:09:27.066.08-Feb-2020 3159.51 4796.31 68.44 5.00 277.89 2654.38
   10:09:27.267.08-Feb-2020 3159.51 4794.97 68.44 5.00 278.09 2654.38
   10:09:27.467.08-Feb-2020 3159.51 4794.97 68.44 5.00 278.29 2654.38
   10:09:27.667.08-Feb-2020 3159.51 4798.24 68.44 5.00 278.49 2654.38
   10:09:27.867.08-Feb-2020 3159.51 4795.04 68.44 5.00 278.69 2654.38
   10:09:28.067.08-Feb-2020 3159.51 4796.78 68.44 5.00 278.89 2654.38
   10:09:28.267.08-Feb-2020 3159.51 4796.19 68.44 5.00 279.09 2654.38
   10:09:28.467.08-Feb-2020 3159.51 4796.19 68.44 5.00 279.29 2654.38
   10:09:28.667.08-Feb-2020 3159.51 4797.22 68.44 5.00 279.49 2654.38
   10:09:28.867.08-Feb-2020 3159.51 4796.70 68.44 5.00 279.69 2654.38
   10:09:29.067.08-Feb-2020 3159.51 4797.77 68.44 5.00 279.89 2654.38
   10:09:29.267.08-Feb-2020 3159.51 4796.28 68.44 5.00 280.09 2654.38
   10:09:29.467.08-Feb-2020 3159.51 4796.28 68.44 5.00 280.29 2654.38
   10:09:29.667.08-Feb-2020 3159.51 4796.80 68.44 5.00 280.49 2654.38
   10:09:29.867.08-Feb-2020 3159.51 4797.37 68.44 5.00 280.69 2654.38
   10:09:30.067.08-Feb-2020 3159.51 4797.23 68.44 5.00 280.89 2654.38
   10:09:30.267.08-Feb-2020 3159.51 4797.75 68.44 5.00 281.09 2654.38
   10:09:30.468.08-Feb-2020 3159.51 4797.75 68.44 5.00 281.29 2654.38
   10:09:30.668.08-Feb-2020 3159.51 4796.94 68.43 5.00 281.49 2654.38
   10:09:30.868.08-Feb-2020 3159.51 4797.20 68.43 5.00 281.69 2654.38
   10:09:31.068.08-Feb-2020 3159.51 4797.19 68.43 5.00 281.89 2654.38
   10:09:31.268.08-Feb-2020 3159.51 4796.75 68.43 5.00 282.09 2654.38
   10:09:31.468.08-Feb-2020 3159.51 4796.75 68.43 5.00 282.29 2654.38
   10:09:31.668.08-Feb-2020 3159.51 4797.86 68.43 5.00 282.49 2654.38
   10:09:31.868.08-Feb-2020 3159.51 4797.94 68.43 5.00 282.69 2654.38
   10:09:32.068.08-Feb-2020 3159.51 4797.68 68.43 5.00 282.89 2654.38
   10:09:32.268.08-Feb-2020 3159.51 4797.70 68.43 5.00 283.09 2654.38
   10:09:32.468.08-Feb-2020 3159.51 4797.70 68.43 5.00 283.29 2654.38
   10:09:32.668.08-Feb-2020 3159.51 4797.48 68.43 5.00 283.49 2654.38
   10:09:32.868.08-Feb-2020 3159.51 4797.66 68.43 5.00 283.69 2654.38
   10:09:33.068.08-Feb-2020 3159.51 4844.89 68.43 5.00 283.89 2654.38
   10:09:33.268.08-Feb-2020 3159.51 4878.03 68.43 5.00 284.09 2654.38
   10:09:33.468.08-Feb-2020 3159.51 4878.03 68.43 5.00 284.29 2654.38
   10:09:33.669.08-Feb-2020 3159.51 4879.71 68.43 5.00 284.49 2654.38
   10:09:33.869.08-Feb-2020 3159.51 4879.69 68.43 5.00 284.69 2654.38
   10:09:34.069.08-Feb-2020 3159.51 4880.79 68.43 5.00 284.89 2654.38
   10:09:34.269.08-Feb-2020 3159.51 4880.11 68.43 5.00 285.09 2654.38
   10:09:34.469.08-Feb-2020 3159.51 4880.11 68.43 5.00 285.29 2654.38
   10:09:34.669.08-Feb-2020 3159.51 4880.51 68.43 5.00 285.49 2654.38
   10:09:34.869.08-Feb-2020 3159.51 4880.67 68.43 5.00 285.69 2654.38
   10:09:35.069.08-Feb-2020 3159.51 4880.39 68.43 5.00 285.89 2654.38
   10:09:35.269.08-Feb-2020 3159.51 4881.46 68.43 5.00 286.09 2654.38
   10:09:35.469.08-Feb-2020 3159.51 4881.46 68.43 5.00 286.29 2654.38
   10:09:35.669.08-Feb-2020 3159.51 4880.35 68.43 5.00 286.49 2654.38
   10:09:35.869.08-Feb-2020 3159.51 4880.77 68.43 5.00 286.69 2654.38
   10:09:36.069.08-Feb-2020 3159.51 4881.33 68.43 5.00 286.89 2654.38
   10:09:36.269.08-Feb-2020 3159.51 4880.72 68.43 5.00 287.09 2654.38
   10:09:36.469.08-Feb-2020 3159.51 4880.72 68.43 5.00 287.29 2654.38
   10:09:36.669.08-Feb-2020 3159.51 4880.96 68.43 5.00 287.49 2654.38
   10:09:36.870.08-Feb-2020 3159.51 4880.96 68.43 5.00 287.69 2654.38
   10:09:37.070.08-Feb-2020 3159.51 4880.93 68.43 5.00 287.89 2654.38
   10:09:37.270.08-Feb-2020 3159.51 4881.02 68.43 5.00 288.09 2654.38
   10:09:37.470.08-Feb-2020 3159.51 4881.02 68.43 5.00 288.29 2654.38
   10:09:37.670.08-Feb-2020 3159.51 4880.97 68.43 5.00 288.49 2654.38
   10:09:37.870.08-Feb-2020 3159.51 4880.95 68.43 5.00 288.69 2654.38
   10:09:38.070.08-Feb-2020 3159.51 4881.02 68.43 5.00 288.89 2654.38
   10:09:38.270.08-Feb-2020 3159.51 4881.71 68.43 5.00 289.09 2654.38
   10:09:38.470.08-Feb-2020 3159.51 4881.71 68.43 5.00 289.29 2654.38
   10:09:38.670.08-Feb-2020 3159.51 4880.69 68.43 5.00 289.49 2654.38
   10:09:38.870.08-Feb-2020 3159.51 4881.12 68.43 5.00 289.69 2654.38
   10:09:39.070.08-Feb-2020 3159.51 4881.21 68.43 5.00 289.89 2654.38
   10:09:39.270.08-Feb-2020 3159.51 4881.03 68.43 5.00 290.09 2654.38
   10:09:39.470.08-Feb-2020 3159.51 4881.03 68.43 5.00 290.29 2654.38
   10:09:39.670.08-Feb-2020 3159.51 4881.19 68.43 5.00 290.49 2654.38
   10:09:39.870.08-Feb-2020 3159.51 4881.13 68.43 5.00 290.69 2654.38
   10:09:40.070.08-Feb-2020 3159.51 4881.09 68.43 5.00 290.89 2654.38
   10:09:40.271.08-Feb-2020 3159.51 4881.19 68.43 5.00 291.09 2654.38
   10:09:40.471.08-Feb-2020 3159.51 4881.19 68.43 5.00 291.29 2654.38
   10:09:40.671.08-Feb-2020 3159.51 4881.14 68.43 5.00 291.49 2654.38
   10:09:40.871.08-Feb-2020 3159.51 4881.12 68.43 5.00 291.69 2654.38
   10:09:41.071.08-Feb-2020 3159.51 4881.05 68.43 5.00 291.89 2654.38
   10:09:41.271.08-Feb-2020 3159.51 4881.17 68.43 5.00 292.09 2654.38
   10:09:41.471.08-Feb-2020 3159.51 4881.17 68.43 5.00 292.29 2654.38
   10:09:41.671.08-Feb-2020 3159.51 4881.16 68.43 5.00 292.49 2654.38
   10:09:41.871.08-Feb-2020 3159.51 4881.62 68.43 5.00 292.69 2654.38
   10:09:42.071.08-Feb-2020 3159.51 4880.71 68.43 5.00 292.89 2654.38
   10:09:42.271.08-Feb-2020 3159.51 4881.09 68.43 5.00 293.09 2654.38
   10:09:42.471.08-Feb-2020 3159.51 4881.09 68.43 5.00 293.29 2654.38
   10:09:42.671.08-Feb-2020 3159.51 4881.46 68.43 5.00 293.49 2654.38
   10:09:42.871.08-Feb-2020 3159.51 4881.04 68.43 5.00 293.69 2654.38
   10:09:43.071.08-Feb-2020 3159.51 4881.08 68.43 5.00 293.89 2654.38
   10:09:43.271.08-Feb-2020 3159.51 4881.25 68.43 5.00 294.09 2654.38
   10:09:43.472.08-Feb-2020 3159.51 4881.25 68.43 5.00 294.29 2654.38
   10:09:43.672.08-Feb-2020 3159.51 4880.88 68.43 5.00 294.49 2654.38
   10:09:43.872.08-Feb-2020 3159.51 4881.12 68.43 5.00 294.69 2654.38
   10:09:44.072.08-Feb-2020 3159.51 4881.27 68.43 5.00 294.89 2654.38
   10:09:44.272.08-Feb-2020 3159.51 4881.30 68.43 5.00 295.09 2654.38
   10:09:44.472.08-Feb-2020 3159.51 4881.30 68.43 5.00 295.29 2654.38
   10:09:44.672.08-Feb-2020 3159.51 4881.30 68.43 5.00 295.49 2654.38
   10:09:44.872.08-Feb-2020 3159.51 4881.26 68.43 5.00 295.69 2654.38
   10:09:45.072.08-Feb-2020 3159.51 4881.22 68.43 5.00 295.89 2654.38
   10:09:45.272.08-Feb-2020 3159.51 4881.22 68.43 5.00 296.09 2654.38
   10:09:45.472.08-Feb-2020 3159.51 4881.22 68.43 5.00 296.29 2654.38
   10:09:45.672.08-Feb-2020 3159.51 4881.30 68.43 5.00 296.49 2654.38
   10:09:45.872.08-Feb-2020 3159.51 4881.32 68.43 5.00 296.69 2654.38
   10:09:46.072.08-Feb-2020 3159.51 4881.38 68.43 5.00 296.89 2654.38
   10:09:46.272.08-Feb-2020 3159.51 4881.31 68.43 5.00 297.09 2654.38
   10:09:46.472.08-Feb-2020 3159.51 4881.31 68.43 5.00 297.29 2654.38
   10:09:46.673.08-Feb-2020 3159.51 4881.38 68.43 5.00 297.49 2654.38
   10:09:46.873.08-Feb-2020 3159.51 4881.26 68.43 5.00 297.69 2654.38
   10:09:47.073.08-Feb-2020 3159.51 4881.29 68.43 5.00 297.89 2654.38
   10:09:47.273.08-Feb-2020 3159.51 4881.28 68.43 5.00 298.09 2654.38
   10:09:47.473.08-Feb-2020 3159.51 4881.28 68.43 5.00 298.29 2654.38
   10:09:47.673.08-Feb-2020 3159.51 4881.29 68.43 5.00 298.49 2654.38
   10:09:47.873.08-Feb-2020 3159.51 4882.01 68.43 5.00 298.69 2654.38
   10:09:48.073.08-Feb-2020 3159.51 4880.75 68.43 5.00 298.89 2654.38
