~Version Information
 VERS.                  2.0:   CWLS log ASCII Standard -VERSION 2.0
 WRAP.                   NO:   One line per depth step
~Well Information Block
#MNEM.UNIT     VALUE/NAME     DESCRIPTION
#---------     -----------    ---------------------------
 STRT.S             09:27:25 08-Feb-20: START TIME 09:27:25 08-Feb-20
 STOP.S             09:34:14 08-Feb-20: STOP TIME  09:34:14 08-Feb-20
 STEP.S                   0.00: STEP TIME
 NULL.                 -999.25: NULL VALUE
 DFWT.                        :  DIST FWL TEXT
 DFST.                        :  DIST FSL TEXT
 DMF .             Drill Floor:  DRILL MEAS FROM
 STIM.      07.00.00 09-Jan-20:  START TIME
 DATE.      14.04.48 07-Feb-20:  END TIME
 SPUD.               09-Jan-20:  SPUD DATE
 NREF.                    Grid:  NORTH REFERENCE
 HPTY.       Minimum Curvature:  HOLE POS TYPE
 DMOD.             Drill Model:  DRILL MOD DESC
 SVYD.                  Survey:  SURVEY DESC
 ILTD.               Lithology:  INTERP LTH DESC
 FTOP.          Formation Tops:  FORM TOPS DESC
 SON .        AZ-XX-0905059384:  JOB NUMBER
 MDS .        Operator Entered:  MAG DATA SOURCE
 WTYP.                Deviated:  WELL TYPE
 COMP.     BP Exploration (Caspian Sea) Ltd.:  COMPANY
 UWI .                     N/A:  UNIQUE WELL IDENTIFIER
 API .                     N/A:  API NUMBER
 BASE.              Azerbaijan:  LOGGING EQUIPMENT BASE LOCATION
 REGN.                   EESSA:  REGION
 PROV.                    Baku:  PROVINCE
 STAT.                    Baku:  STATE NAME
 CTRY.              Azerbaijan:  COUNTRY NAME
 FLD .                     ACG:  FIELD NAME
 SRVC.     TURAN Drilling & Engineering:  CONTRACTOR
 MWDS.                    Baku:  MWD SHOP
 WELL.                     J22:  WELL NAME
 RIG .             West Chirag:  RIG NAME
 DOE .                     N/A:  DOE NUMBER
 DCON.         Sperry Drilling:  DIRECTNL CONTR
 UNIT.                     N/A:  LOGGING EQUIPMENT ID
 PDAT.          Mean Sea Level:  PERMANENT DATUM
 JOBN.        AZ-XX-0905059384:  JOB TICKET NUMB
 CNTY.                        :  COUNTY
 LOC .                        :  LOCATION
 LMF .             Drill Floor:  LOG MEASURED FROM
 TVDS.m                  43.00:  TVDSS CORRECTN
 LATI.deg                40.13:  LATITUDE
 LONG.deg                51.22:  LONGITUDE
 WHNS.m                  10.28:  WELL HEAD N/S
 WHEW.m                  -6.24:  WELL HEAD E/W
 UTMX.m              519005.06:  UTM X
 UTMY.m             4443793.85:  UTM Y
 DFWL.m                   0.00:  DISTANCE FWL
 DFSL.m                   0.00:  DISTANCE FSL
 SDEP.m                 362.00:  START DEPTH
 TDD .m                 904.00:  TOTAL DEPTH (DRILLER)
 VSDR.deg               148.53:  VERT SEC DIRECT
 GVFD.g                   1.00:  GRAVITY FIELD
 MFLD.nT              50277.00:  MAGNETIC FIELD
 MDIP.deg                59.56:  MAGNETIC DIP
 MDEC.deg                 6.42:  MAGNETIC DECL
 GRDC.deg                 0.15:  GRID CORRECTION
 AZTC.deg                 6.27:  AZM TOTAL CORR
 EPD .m                   0.00:  ELEVATION
 EGL .m                   0.00:  GROUND ELEVATION
 WDMS.m                 169.80:  WD ELEV
 APD .m                  43.00:  DEPTH ABOVE PD
 AGAP.m                  43.00:  AIR GAP
 VSEW.m                  -6.24:  VERT SEC E/W
 VSNS.m                  10.28:  VERT SEC N/S
 DEP .m                   0.00:  DEPTH
 EKB .m                   0.00:  KB ELEVATION
 EDF .m                  43.00:  DF ELEVATION
 TDL .m                1183.00:  TOTAL DEPTH (LOGGER)
 VSC .                       0:  VS TO CLOSURE
 MAGU.                 1850021:  MAGUTM CHECKSUM
~Parameter Information Block
#MNEM.UNIT       Value        Description
#---------     -----------    ---------------------------
 AV  .mps                 4.00:  Ann Velocity 
 AVMX.mps                 4.50:  Max Ann Veloc 
 AZIF.deg               145.38:  Azm, Final 
 BHAT.        Rotary Steerable:  BHA Type 
 BROT.∞/30m               3.00:  Build Rotating 
 BS  .in                 12.25:  Bit Size 
 BSZ .in                 12.25:  Bit Size 
 BTPL.psig              650.00:  Bit Press Loss 
 CABU.                      No:  Customer Abuse 
 COMM.                     $ÊW:  Run Comments 1 
 TCS .hr                101.62:  Time Ciculation Ended 
 CV  .mps                 5.00:  Crit Velocity 
 CVMX.mps                 5.00:  Max Crit Veloc 
 DD1 .             Aziz Aliyev:  Direct Drillr 1 
 DD2 .      Fakhraddin Guliyev:  Direct Drillr 2 
 DDSV.                 iCruise:  DD Service 
 DEFF.%                  97.00:  % Det Eff 
 DLRX.∞/30m               4.16:  Dogleg Rot Max 
 DLSO.∞/30m               3.20:  Dogleg Oriented 
 DLSX.∞/30m               4.10:  Dogleg Str Max 
 DRET.      23.12.00 07-Feb-20:  Drill End Time 
 DRST.      11.30.00 04-Feb-20:  Drill Start Tim 
 DTIM.hr                 61.06:  Time Drilling 
 EDEP.m                3219.01:  End Depth 
 ENG1.         Almaz Almadatov:  Engineer 1 
 ENG2.         Dair Mahammadov:  Engineer 2 
 ENG3.          Nazrin Asgarli:  Engineer 3 
 ETIM.      02.30.00 11-Feb-20:  End Time 
 FLOI.gpm              1100.00:  Flow In 
 FLON.gpm               900.00:  Flow In Min 
 FLOS.cptm               55.00:  Fluid Loss 
 FLOX.gpm              1150.00:  Flow In Max 
 FTRO.       Formation Presure:  FTWD Run Obj 
 HFLO.                      No:  High Flow 
 HPRE.                      No:  High Pressure 
 HTEM.                      No:  High Temp 
 HYDO.m                   1.80:  Hydro Offset 
 IFIN.deg                75.11:  Inc, Final 
 IMAX.deg                75.11:  Inc Max 
 IMIN.deg                33.55:  Inc Min 
 IMND.m                2186.05:  Inc Min Depth 
 IMXD.m                3205.61:  Inc Max Depth 
 JARR.                      No:  Jarring 
 LETM.      23.12.00 07-Feb-20:  Log End Time 
 LOST.hr                     0:  Lost Rig Time 
 LSTM.      11.30.00 04-Feb-20:  Log Start Time 
 MDCL.ppm             40000.00:  Mud Chlorides 
 MDES.     Inversion Oil/Synthetic:  Mud Desc 
 DFD .sg                  1.49:  Mud Density 
 MDMN.sg                  1.49:  Dens Mud Min 
 MDMX.sg                  1.49:  Dens Mud Max 
 MOIL.                      73:  Run Mud Oil % 
 MOWR.                   73:27:  Run Mud OWR 
 MSND.                     0.1:  Run Mud Sand % 
 MSOL.                    20.1:  Run Mud Solids% 
 DFV .spqt               78.00:  Mud Viscosity 
 MWOD.in                  8.00:  MWD Tool OD 
 MWSI.                      No:  Serv Intrp, MWD 
 OTIM.hr                177.15:  Time Operating 
 PCON.          Wear / Scratch:  Pad Condition 
 PMAX.psia            10493.93:  Press Op, Max 
 PV  .cP                 73.00:  Mud PV 
 RUN .                     700:  Run Number 
 ROPA.m/hr               15.00:  ROP Avg 
 ROPN.m/hr               10.00:  ROP Min 
 ROPX.m/hr               35.00:  ROP Max 
 RPMA.rpm               130.00:  RPM Surface Avg 
 RPMN.rpm                80.00:  RPM Surface Min 
 RPMX.rpm               150.00:  RPM Surface Max 
 RRUN.                    L402:  Rig Run Number 
 RTIM.hr                 80.50:  Time Reaming 
 SAZI.deg               155.55:  Azm, Start 
 SDEP.m                2036.00:  Start Depth 
 SIDD.                      No:  Serv Intrp, DD 
 SINC.deg                35.44:  Inc, Start 
 SPPA.psig             4270.00:  SPP Avg 
 SPPN.psig             2800.00:  SPP Min 
 SPPX.psig             4850.00:  SPP Max 
 STIM.      09.30.00 03-Feb-20:  Start Time 
 SVCS.                 DD, MWD:  Services 
 SVER.                    9.20:  Sperry Version 
 TDAT.m                1183.00:  Tot Depth Attmp 
 TDDF.                      No:  Trip for DD 
 TDLG.m                1183.00:  Tot Depth Loggd 
 TFF .                      No:  Trip for Fail 
 TQAA.f-kp               16.00:  Torque Abs Avg 
 TQAN.f-kp               10.00:  Torque Abs Min 
 TQAX.f-kp               20.00:  Torque Abs Max 
 TRRT.∞/30m               1.00:  Turn Rotating 
 MRT .                  EWR-M5:  Maximum Recorded Temperature 
 TTMX.degC               80.39:  Max Tool Temp 
 VS01.               13098498 :  Virtual Str1 SN 
 VS02.                90569596:  Virtual Str2 SN 
 VS03.                90523599:  Virtual Str3 SN 
 VS04.                90573553:  Virtual Str4 SN 
 VS05.                90598598:  Virtual Str5 SN 
 VS06.                90577297:  Virtual Str6 SN 
 WBMN.klb                13.00:  WOB Min 
 WITN.         Alistair Sprott:  Customer Rep 
 WITN.           Rufat Babayev:  Customer Rep 2 
 WOBA.klb                15.00:  WOB Avg 
 WOBX.klb                20.00:  WOB Max 
 YP  .lhf2               39.00:  Yield Point 
~Curve Information Block
#MNEM.UNIT                 API CODE     Curve Description
#---------               -----------    ---------------------------
 TIME.HHMMSS            00 000 000 000:  GT Time & Date
 GTDEPTH.m              00 000 000 000:  GT Depth
 GTPQH.psia             00 000 000 000:  GT HR Quartz Pressure
 GTTQ.degC              00 000 000 000:  GT Quartz Temperature
 GTTN.NONE              00 000 000 000:  GT Test Number
 GTET.sec               00 000 000 000:  GT Elapsed Test Time
 GTTVD.m                00 000 000 000:  GT True Vertical Depth
#Other Information
#
#WARRANTY: Halliburton will use its best efforts to furnish customers with 
#accurate information and interpretations that are part of, and incident to, the services 
#provided.  However, Halliburton cannot and does not warrant the accuracy 
#or correctness of such information and interpretations.  Under no circumstances should any 
#such information or interpretation be relied upon as the sole basis for any drilling, 
#completion, production, or financial decision or any procedure involving any risk to the 
#safety of any drilling venture, drilling rig or its crew or any other third party.  The 
#Customer has full responsibility for all drilling, completion and production operation.  
#Halliburton makes no representations or warranties, either expressed or 
#implied, including, but not limited to, the implied warranties of merchantability or fitness 
#for a particular purpose, with respect to the services rendered.  In no event will 
#Halliburton be liable for failure to obtain any particular results or for 
#any damages, including, but not limited to, indirect, special or consequential damages, 
#resulting from the use of any information or interpretation provided by Halliburton.
#
~A           TIME           GTDEPTH  GTPQH  GTTQ  GTTN  GTET   GTTVD  
# ...
   09:28:34.866.08-Feb-2020 3135.01 4723.17 69.20 4.00  69.01 2647.94
   09:28:35.066.08-Feb-2020 3135.01 4723.17 69.20 4.00  69.21 2647.94
   09:28:35.266.08-Feb-2020 3135.01 4724.82 69.20 4.00  69.41 2647.94
   09:28:35.466.08-Feb-2020 3135.01 4724.65 69.20 4.00  69.61 2647.94
   09:28:35.666.08-Feb-2020 3135.01 4724.74 69.20 4.00  69.81 2647.94
   09:28:35.866.08-Feb-2020 3135.01 4725.00 69.20 4.00  70.01 2647.94
   09:28:36.066.08-Feb-2020 3135.01 4725.00 69.20 4.00  70.21 2647.94
   09:28:36.266.08-Feb-2020 3135.01 4725.23 69.20 4.00  70.41 2647.94
   09:28:36.466.08-Feb-2020 3135.01 4725.39 69.20 4.00  70.61 2647.94
   09:28:36.666.08-Feb-2020 3135.01 4724.65 69.20 4.00  70.81 2647.94
   09:28:36.866.08-Feb-2020 3135.01 4727.23 69.20 4.00  71.01 2647.94
   09:28:37.066.08-Feb-2020 3135.01 4727.23 69.20 4.00  71.21 2647.94
   09:28:37.266.08-Feb-2020 3135.01 4725.73 69.20 4.00  71.41 2647.94
   09:28:37.466.08-Feb-2020 3135.01 4727.57 69.20 4.00  71.61 2647.94
   09:28:37.666.08-Feb-2020 3135.01 4726.29 69.20 4.00  71.81 2647.94
   09:28:37.866.08-Feb-2020 3135.01 4726.26 69.20 4.00  72.01 2647.94
   09:28:38.066.08-Feb-2020 3135.01 4726.26 69.20 4.00  72.21 2647.94
   09:28:38.266.08-Feb-2020 3135.01 4726.91 69.20 4.00  72.41 2647.94
   09:28:38.466.08-Feb-2020 3135.01 4728.18 69.20 4.00  72.61 2647.94
   09:28:38.666.08-Feb-2020 3135.01 4726.53 69.20 4.00  72.81 2647.94
   09:28:38.866.08-Feb-2020 3135.01 4728.24 69.20 4.00  73.01 2647.94
   09:28:39.066.08-Feb-2020 3135.01 4728.24 69.20 4.00  73.21 2647.94
   09:28:39.266.08-Feb-2020 3135.01 4726.72 69.20 4.00  73.41 2647.94
   09:28:39.466.08-Feb-2020 3135.01 4726.94 69.20 4.00  73.61 2647.94
   09:28:39.666.08-Feb-2020 3135.01 4727.54 69.20 4.00  73.81 2647.94
   09:28:39.866.08-Feb-2020 3135.01 4729.20 69.20 4.00  74.01 2647.94
   09:28:40.066.08-Feb-2020 3135.01 4729.20 69.20 4.00  74.21 2647.94
   09:28:40.266.08-Feb-2020 3135.01 4727.09 69.20 4.00  74.41 2647.94
   09:28:40.467.08-Feb-2020 3135.01 4727.50 69.20 4.00  74.61 2647.94
   09:28:40.667.08-Feb-2020 3135.01 4727.83 69.20 4.00  74.81 2647.94
   09:28:40.867.08-Feb-2020 3135.01 4727.36 69.20 4.00  75.01 2647.94
   09:28:41.067.08-Feb-2020 3135.01 4727.36 69.20 4.00  75.21 2647.94
   09:28:41.267.08-Feb-2020 3135.01 4727.31 69.20 4.00  75.41 2647.94
   09:28:41.467.08-Feb-2020 3135.01 4727.21 69.20 4.00  75.61 2647.94
   09:28:41.667.08-Feb-2020 3135.01 4727.20 69.20 4.00  75.81 2647.94
   09:28:41.867.08-Feb-2020 3135.01 4727.35 69.20 4.00  76.01 2647.94
   09:28:42.067.08-Feb-2020 3135.01 4727.35 69.20 4.00  76.21 2647.94
   09:28:42.267.08-Feb-2020 3135.01 4727.83 69.20 4.00  76.41 2647.94
   09:28:42.467.08-Feb-2020 3135.01 4728.69 69.20 4.00  76.61 2647.94
   09:28:42.667.08-Feb-2020 3135.01 4727.31 69.20 4.00  76.81 2647.94
   09:28:42.867.08-Feb-2020 3135.01 4727.58 69.20 4.00  77.01 2647.94
   09:28:43.067.08-Feb-2020 3135.01 4727.58 69.20 4.00  77.21 2647.94
   09:28:43.267.08-Feb-2020 3135.01 4727.37 69.20 4.00  77.41 2647.94
   09:28:43.467.08-Feb-2020 3135.01 4727.51 69.20 4.00  77.61 2647.94
   09:28:43.667.08-Feb-2020 3135.01 4727.62 69.20 4.00  77.81 2647.94
   09:28:43.867.08-Feb-2020 3135.01 4727.61 69.20 4.00  78.01 2647.94
   09:28:44.067.08-Feb-2020 3135.01 4727.61 69.20 4.00  78.21 2647.94
   09:28:44.267.08-Feb-2020 3135.01 4728.18 69.20 4.00  78.41 2647.94
   09:28:44.467.08-Feb-2020 3135.01 4727.31 69.20 4.00  78.61 2647.94
   09:28:44.667.08-Feb-2020 3135.01 4728.37 69.20 4.00  78.81 2647.94
   09:28:44.867.08-Feb-2020 3135.01 4727.62 69.20 4.00  79.01 2647.94
   09:28:45.067.08-Feb-2020 3135.01 4727.62 69.20 4.00  79.21 2647.94
   09:28:45.267.08-Feb-2020 3135.01 4728.61 69.20 4.00  79.41 2647.94
   09:28:45.467.08-Feb-2020 3135.01 4729.56 69.20 4.00  79.61 2647.94
   09:28:45.667.08-Feb-2020 3135.01 4728.00 69.20 4.00  79.81 2647.94
   09:28:45.867.08-Feb-2020 3135.01 4727.79 69.20 4.00  80.01 2647.94
   09:28:46.067.08-Feb-2020 3135.01 4727.79 69.20 4.00  80.21 2647.94
   09:28:46.267.08-Feb-2020 3135.01 4728.42 69.20 4.00  80.41 2647.94
   09:28:46.467.08-Feb-2020 3135.01 4728.43 69.20 4.00  80.61 2647.94
   09:28:46.667.08-Feb-2020 3135.01 4728.11 69.20 4.00  80.81 2647.94
   09:28:46.867.08-Feb-2020 3135.01 4729.09 69.20 4.00  81.01 2647.94
   09:28:47.067.08-Feb-2020 3135.01 4729.09 69.20 4.00  81.21 2647.94
   09:28:47.267.08-Feb-2020 3135.01 4728.18 69.20 4.00  81.41 2647.94
   09:28:47.467.08-Feb-2020 3135.01 4729.07 69.20 4.00  81.61 2647.94
   09:28:47.667.08-Feb-2020 3135.01 4728.65 69.20 4.00  81.81 2647.94
   09:28:47.867.08-Feb-2020 3135.01 4727.92 69.20 4.00  82.01 2647.94
   09:28:48.067.08-Feb-2020 3135.01 4727.92 69.20 4.00  82.21 2647.94
   09:28:48.267.08-Feb-2020 3135.01 4727.94 69.20 4.00  82.41 2647.94
   09:28:48.467.08-Feb-2020 3135.01 4727.86 69.20 4.00  82.61 2647.94
   09:28:48.667.08-Feb-2020 3135.01 4727.82 69.20 4.00  82.81 2647.94
   09:28:48.867.08-Feb-2020 3135.01 4727.86 69.20 4.00  83.01 2647.94
   09:28:49.067.08-Feb-2020 3135.01 4727.86 69.20 4.00  83.21 2647.94
   09:28:49.267.08-Feb-2020 3135.01 4729.57 69.20 4.00  83.41 2647.94
   09:28:49.467.08-Feb-2020 3135.01 4727.47 69.20 4.00  83.61 2647.94
   09:28:49.667.08-Feb-2020 3135.01 4727.92 69.20 4.00  83.81 2647.94
   09:28:49.867.08-Feb-2020 3135.01 4728.68 69.20 4.00  84.01 2647.94
   09:28:50.067.08-Feb-2020 3135.01 4728.68 69.20 4.00  84.21 2647.94
   09:28:50.267.08-Feb-2020 3135.01 4727.99 69.20 4.00  84.41 2647.94
   09:28:50.467.08-Feb-2020 3135.01 4728.52 69.20 4.00  84.61 2647.94
   09:28:50.667.08-Feb-2020 3135.01 4728.69 69.20 4.00  84.81 2647.94
   09:28:50.867.08-Feb-2020 3135.01 4728.12 69.20 4.00  85.01 2647.94
   09:28:51.067.08-Feb-2020 3135.01 4728.12 69.20 4.00  85.21 2647.94
   09:28:51.267.08-Feb-2020 3135.01 4728.06 69.20 4.00  85.41 2647.94
   09:28:51.467.08-Feb-2020 3135.01 4727.36 69.20 4.00  85.61 2647.94
   09:28:51.667.08-Feb-2020 3135.01 4729.33 69.20 4.00  85.81 2647.94
   09:28:51.867.08-Feb-2020 3135.01 4728.40 69.20 4.00  86.01 2647.94
   09:28:52.067.08-Feb-2020 3135.01 4728.40 69.20 4.00  86.21 2647.94
   09:28:52.267.08-Feb-2020 3135.01 4729.26 69.20 4.00  86.41 2647.94
   09:28:52.468.08-Feb-2020 3135.01 4727.78 69.20 4.00  86.61 2647.94
   09:28:52.668.08-Feb-2020 3135.01 4729.13 69.20 4.00  86.81 2647.94
   09:28:52.868.08-Feb-2020 3135.01 4728.43 69.20 4.00  87.01 2647.94
   09:28:53.068.08-Feb-2020 3135.01 4728.43 69.20 4.00  87.21 2647.94
   09:28:53.268.08-Feb-2020 3135.01 4728.57 69.20 4.00  87.41 2647.94
   09:28:53.468.08-Feb-2020 3135.01 4727.91 69.20 4.00  87.61 2647.94
   09:28:53.668.08-Feb-2020 3135.01 4728.57 69.20 4.00  87.81 2647.94
   09:28:53.868.08-Feb-2020 3135.01 4728.30 69.20 4.00  88.01 2647.94
   09:28:54.068.08-Feb-2020 3135.01 4728.30 69.20 4.00  88.21 2647.94
   09:28:54.268.08-Feb-2020 3135.01 4728.58 69.20 4.00  88.41 2647.94
   09:28:54.468.08-Feb-2020 3135.01 4728.20 69.20 4.00  88.61 2647.94
   09:28:54.668.08-Feb-2020 3135.01 4729.47 69.20 4.00  88.81 2647.94
   09:28:54.868.08-Feb-2020 3135.01 4728.13 69.20 4.00  89.01 2647.94
   09:28:55.068.08-Feb-2020 3135.01 4728.13 69.20 4.00  89.21 2647.94
   09:28:55.268.08-Feb-2020 3135.01 4728.58 69.20 4.00  89.41 2647.94
   09:28:55.468.08-Feb-2020 3135.01 4728.23 69.20 4.00  89.61 2647.94
   09:28:55.668.08-Feb-2020 3135.01 4728.13 69.20 4.00  89.81 2647.94
   09:28:55.868.08-Feb-2020 3135.01 4728.12 69.20 4.00  90.01 2647.94
   09:28:56.068.08-Feb-2020 3135.01 4728.12 69.20 4.00  90.21 2647.94
   09:28:56.268.08-Feb-2020 3135.01 4728.00 69.20 4.00  90.41 2647.94
   09:28:56.468.08-Feb-2020 3135.01 4728.11 69.20 4.00  90.61 2647.94
   09:28:56.668.08-Feb-2020 3135.01 4727.72 69.20 4.00  90.81 2647.94
   09:28:56.868.08-Feb-2020 3135.01 4729.50 69.20 4.00  91.01 2647.94
   09:28:57.068.08-Feb-2020 3135.01 4729.50 69.20 4.00  91.21 2647.94
   09:28:57.268.08-Feb-2020 3135.01 4728.15 69.20 4.00  91.41 2647.94
   09:28:57.468.08-Feb-2020 3135.01 4728.42 69.20 4.00  91.61 2647.94
   09:28:57.668.08-Feb-2020 3135.01 4728.59 69.20 4.00  91.81 2647.94
