~Version Information
 VERS.                  2.0:   CWLS log ASCII Standard -VERSION 2.0
 WRAP.                   NO:   One line per depth step
~Well Information Block
#MNEM.UNIT     VALUE/NAME     DESCRIPTION
#---------     -----------    ---------------------------
 STRT.S             09:27:25 08-Feb-20: START TIME 09:27:25 08-Feb-20
 STOP.S             09:34:14 08-Feb-20: STOP TIME  09:34:14 08-Feb-20
 STEP.S                   0.00: STEP TIME
 NULL.                 -999.25: NULL VALUE
 DFWT.                        :  DIST FWL TEXT
 DFST.                        :  DIST FSL TEXT
 DMF .             Drill Floor:  DRILL MEAS FROM
 STIM.      07.00.00 09-Jan-20:  START TIME
 DATE.      14.04.48 07-Feb-20:  END TIME
 SPUD.               09-Jan-20:  SPUD DATE
 NREF.                    Grid:  NORTH REFERENCE
 HPTY.       Minimum Curvature:  HOLE POS TYPE
 DMOD.             Drill Model:  DRILL MOD DESC
 SVYD.                  Survey:  SURVEY DESC
 ILTD.               Lithology:  INTERP LTH DESC
 FTOP.          Formation Tops:  FORM TOPS DESC
 SON .        AZ-XX-0905059384:  JOB NUMBER
 MDS .        Operator Entered:  MAG DATA SOURCE
 WTYP.                Deviated:  WELL TYPE
 COMP.     BP Exploration (Caspian Sea) Ltd.:  COMPANY
 UWI .                     N/A:  UNIQUE WELL IDENTIFIER
 API .                     N/A:  API NUMBER
 BASE.              Azerbaijan:  LOGGING EQUIPMENT BASE LOCATION
 REGN.                   EESSA:  REGION
 PROV.                    Baku:  PROVINCE
 STAT.                    Baku:  STATE NAME
 CTRY.              Azerbaijan:  COUNTRY NAME
 FLD .                     ACG:  FIELD NAME
 SRVC.     TURAN Drilling & Engineering:  CONTRACTOR
 MWDS.                    Baku:  MWD SHOP
 WELL.                     J22:  WELL NAME
 RIG .             West Chirag:  RIG NAME
 DOE .                     N/A:  DOE NUMBER
 DCON.         Sperry Drilling:  DIRECTNL CONTR
 UNIT.                     N/A:  LOGGING EQUIPMENT ID
 PDAT.          Mean Sea Level:  PERMANENT DATUM
 JOBN.        AZ-XX-0905059384:  JOB TICKET NUMB
 CNTY.                        :  COUNTY
 LOC .                        :  LOCATION
 LMF .             Drill Floor:  LOG MEASURED FROM
 TVDS.m                  43.00:  TVDSS CORRECTN
 LATI.deg                40.13:  LATITUDE
 LONG.deg                51.22:  LONGITUDE
 WHNS.m                  10.28:  WELL HEAD N/S
 WHEW.m                  -6.24:  WELL HEAD E/W
 UTMX.m              519005.06:  UTM X
 UTMY.m             4443793.85:  UTM Y
 DFWL.m                   0.00:  DISTANCE FWL
 DFSL.m                   0.00:  DISTANCE FSL
 SDEP.m                 362.00:  START DEPTH
 TDD .m                 904.00:  TOTAL DEPTH (DRILLER)
 VSDR.deg               148.53:  VERT SEC DIRECT
 GVFD.g                   1.00:  GRAVITY FIELD
 MFLD.nT              50277.00:  MAGNETIC FIELD
 MDIP.deg                59.56:  MAGNETIC DIP
 MDEC.deg                 6.42:  MAGNETIC DECL
 GRDC.deg                 0.15:  GRID CORRECTION
 AZTC.deg                 6.27:  AZM TOTAL CORR
 EPD .m                   0.00:  ELEVATION
 EGL .m                   0.00:  GROUND ELEVATION
 WDMS.m                 169.80:  WD ELEV
 APD .m                  43.00:  DEPTH ABOVE PD
 AGAP.m                  43.00:  AIR GAP
 VSEW.m                  -6.24:  VERT SEC E/W
 VSNS.m                  10.28:  VERT SEC N/S
 DEP .m                   0.00:  DEPTH
 EKB .m                   0.00:  KB ELEVATION
 EDF .m                  43.00:  DF ELEVATION
 TDL .m                1183.00:  TOTAL DEPTH (LOGGER)
 VSC .                       0:  VS TO CLOSURE
 MAGU.                 1850021:  MAGUTM CHECKSUM
~Parameter Information Block
#MNEM.UNIT       Value        Description
#---------     -----------    ---------------------------
 AV  .mps                 4.00:  Ann Velocity 
 AVMX.mps                 4.50:  Max Ann Veloc 
 AZIF.deg               145.38:  Azm, Final 
 BHAT.        Rotary Steerable:  BHA Type 
 BROT.∞/30m               3.00:  Build Rotating 
 BS  .in                 12.25:  Bit Size 
 BSZ .in                 12.25:  Bit Size 
 BTPL.psig              650.00:  Bit Press Loss 
 CABU.                      No:  Customer Abuse 
 COMM.                     $ÊW:  Run Comments 1 
 TCS .hr                101.62:  Time Ciculation Ended 
 CV  .mps                 5.00:  Crit Velocity 
 CVMX.mps                 5.00:  Max Crit Veloc 
 DD1 .             Aziz Aliyev:  Direct Drillr 1 
 DD2 .      Fakhraddin Guliyev:  Direct Drillr 2 
 DDSV.                 iCruise:  DD Service 
 DEFF.%                  97.00:  % Det Eff 
 DLRX.∞/30m               4.16:  Dogleg Rot Max 
 DLSO.∞/30m               3.20:  Dogleg Oriented 
 DLSX.∞/30m               4.10:  Dogleg Str Max 
 DRET.      23.12.00 07-Feb-20:  Drill End Time 
 DRST.      11.30.00 04-Feb-20:  Drill Start Tim 
 DTIM.hr                 61.06:  Time Drilling 
 EDEP.m                3219.01:  End Depth 
 ENG1.         Almaz Almadatov:  Engineer 1 
 ENG2.         Dair Mahammadov:  Engineer 2 
 ENG3.          Nazrin Asgarli:  Engineer 3 
 ETIM.      02.30.00 11-Feb-20:  End Time 
 FLOI.gpm              1100.00:  Flow In 
 FLON.gpm               900.00:  Flow In Min 
 FLOS.cptm               55.00:  Fluid Loss 
 FLOX.gpm              1150.00:  Flow In Max 
 FTRO.       Formation Presure:  FTWD Run Obj 
 HFLO.                      No:  High Flow 
 HPRE.                      No:  High Pressure 
 HTEM.                      No:  High Temp 
 HYDO.m                   1.80:  Hydro Offset 
 IFIN.deg                75.11:  Inc, Final 
 IMAX.deg                75.11:  Inc Max 
 IMIN.deg                33.55:  Inc Min 
 IMND.m                2186.05:  Inc Min Depth 
 IMXD.m                3205.61:  Inc Max Depth 
 JARR.                      No:  Jarring 
 LETM.      23.12.00 07-Feb-20:  Log End Time 
 LOST.hr                     0:  Lost Rig Time 
 LSTM.      11.30.00 04-Feb-20:  Log Start Time 
 MDCL.ppm             40000.00:  Mud Chlorides 
 MDES.     Inversion Oil/Synthetic:  Mud Desc 
 DFD .sg                  1.49:  Mud Density 
 MDMN.sg                  1.49:  Dens Mud Min 
 MDMX.sg                  1.49:  Dens Mud Max 
 MOIL.                      73:  Run Mud Oil % 
 MOWR.                   73:27:  Run Mud OWR 
 MSND.                     0.1:  Run Mud Sand % 
 MSOL.                    20.1:  Run Mud Solids% 
 DFV .spqt               78.00:  Mud Viscosity 
 MWOD.in                  8.00:  MWD Tool OD 
 MWSI.                      No:  Serv Intrp, MWD 
 OTIM.hr                177.15:  Time Operating 
 PCON.          Wear / Scratch:  Pad Condition 
 PMAX.psia            10493.93:  Press Op, Max 
 PV  .cP                 73.00:  Mud PV 
 RUN .                     700:  Run Number 
 ROPA.m/hr               15.00:  ROP Avg 
 ROPN.m/hr               10.00:  ROP Min 
 ROPX.m/hr               35.00:  ROP Max 
 RPMA.rpm               130.00:  RPM Surface Avg 
 RPMN.rpm                80.00:  RPM Surface Min 
 RPMX.rpm               150.00:  RPM Surface Max 
 RRUN.                    L402:  Rig Run Number 
 RTIM.hr                 80.50:  Time Reaming 
 SAZI.deg               155.55:  Azm, Start 
 SDEP.m                2036.00:  Start Depth 
 SIDD.                      No:  Serv Intrp, DD 
 SINC.deg                35.44:  Inc, Start 
 SPPA.psig             4270.00:  SPP Avg 
 SPPN.psig             2800.00:  SPP Min 
 SPPX.psig             4850.00:  SPP Max 
 STIM.      09.30.00 03-Feb-20:  Start Time 
 SVCS.                 DD, MWD:  Services 
 SVER.                    9.20:  Sperry Version 
 TDAT.m                1183.00:  Tot Depth Attmp 
 TDDF.                      No:  Trip for DD 
 TDLG.m                1183.00:  Tot Depth Loggd 
 TFF .                      No:  Trip for Fail 
 TQAA.f-kp               16.00:  Torque Abs Avg 
 TQAN.f-kp               10.00:  Torque Abs Min 
 TQAX.f-kp               20.00:  Torque Abs Max 
 TRRT.∞/30m               1.00:  Turn Rotating 
 MRT .                  EWR-M5:  Maximum Recorded Temperature 
 TTMX.degC               80.39:  Max Tool Temp 
 VS01.               13098498 :  Virtual Str1 SN 
 VS02.                90569596:  Virtual Str2 SN 
 VS03.                90523599:  Virtual Str3 SN 
 VS04.                90573553:  Virtual Str4 SN 
 VS05.                90598598:  Virtual Str5 SN 
 VS06.                90577297:  Virtual Str6 SN 
 WBMN.klb                13.00:  WOB Min 
 WITN.         Alistair Sprott:  Customer Rep 
 WITN.           Rufat Babayev:  Customer Rep 2 
 WOBA.klb                15.00:  WOB Avg 
 WOBX.klb                20.00:  WOB Max 
 YP  .lhf2               39.00:  Yield Point 
~Curve Information Block
#MNEM.UNIT                 API CODE     Curve Description
#---------               -----------    ---------------------------
 TIME.HHMMSS            00 000 000 000:  GT Time & Date
 GTDEPTH.m              00 000 000 000:  GT Depth
 GTPQH.psia             00 000 000 000:  GT HR Quartz Pressure
 GTTQ.degC              00 000 000 000:  GT Quartz Temperature
 GTTN.NONE              00 000 000 000:  GT Test Number
 GTET.sec               00 000 000 000:  GT Elapsed Test Time
 GTTVD.m                00 000 000 000:  GT True Vertical Depth
#Other Information
#
#WARRANTY: Halliburton will use its best efforts to furnish customers with 
#accurate information and interpretations that are part of, and incident to, the services 
#provided.  However, Halliburton cannot and does not warrant the accuracy 
#or correctness of such information and interpretations.  Under no circumstances should any 
#such information or interpretation be relied upon as the sole basis for any drilling, 
#completion, production, or financial decision or any procedure involving any risk to the 
#safety of any drilling venture, drilling rig or its crew or any other third party.  The 
#Customer has full responsibility for all drilling, completion and production operation.  
#Halliburton makes no representations or warranties, either expressed or 
#implied, including, but not limited to, the implied warranties of merchantability or fitness 
#for a particular purpose, with respect to the services rendered.  In no event will 
#Halliburton be liable for failure to obtain any particular results or for 
#any damages, including, but not limited to, indirect, special or consequential damages, 
#resulting from the use of any information or interpretation provided by Halliburton.
#
~A           TIME           GTDEPTH  GTPQH  GTTQ  GTTN  GTET   GTTVD  
# ...
   09:28:11.864.08-Feb-2020 3135.01 5500.86 69.25 4.00  46.00 2647.94
   09:28:12.064.08-Feb-2020 3135.01 5500.86 69.25 4.00  46.20 2647.94
   09:28:12.264.08-Feb-2020 3135.01 5401.03 69.25 4.00  46.40 2647.94
   09:28:12.464.08-Feb-2020 3135.01 5378.52 69.25 4.00  46.60 2647.94
   09:28:12.664.08-Feb-2020 3135.01 5391.31 69.25 4.00  46.80 2647.94
   09:28:12.864.08-Feb-2020 3135.01 5435.41 69.25 4.00  47.00 2647.94
   09:28:13.064.08-Feb-2020 3135.01 5435.41 69.25 4.00  47.20 2647.94
   09:28:13.264.08-Feb-2020 3135.01 5424.24 69.25 4.00  47.40 2647.94
   09:28:13.464.08-Feb-2020 3135.01 5475.82 69.25 4.00  47.60 2647.94
   09:28:13.664.08-Feb-2020 3135.01 5494.17 69.25 4.00  47.80 2647.94
   09:28:13.864.08-Feb-2020 3135.01 5504.06 69.25 4.00  48.00 2647.94
   09:28:14.064.08-Feb-2020 3135.01 5504.06 69.25 4.00  48.20 2647.94
   09:28:14.264.08-Feb-2020 3135.01 5550.95 69.25 4.00  48.40 2647.94
   09:28:14.464.08-Feb-2020 3135.01 5586.70 69.25 4.00  48.60 2647.94
   09:28:14.664.08-Feb-2020 3135.01 5645.23 69.25 4.00  48.80 2647.94
   09:28:14.864.08-Feb-2020 3135.01 5673.16 69.24 4.00  49.00 2647.94
   09:28:15.064.08-Feb-2020 3135.01 5673.16 69.24 4.00  49.20 2647.94
   09:28:15.264.08-Feb-2020 3135.01 5704.99 69.24 4.00  49.40 2647.94
   09:28:15.464.08-Feb-2020 3135.01 5703.70 69.24 4.00  49.60 2647.94
   09:28:15.664.08-Feb-2020 3135.01 5757.58 69.24 4.00  49.80 2647.94
   09:28:15.864.08-Feb-2020 3135.01 5746.23 69.24 4.00  50.00 2647.94
   09:28:16.064.08-Feb-2020 3135.01 5746.23 69.24 4.00  50.20 2647.94
   09:28:16.264.08-Feb-2020 3135.01 5776.84 69.24 4.00  50.40 2647.94
   09:28:16.464.08-Feb-2020 3135.01 5849.92 69.24 4.00  50.60 2647.94
   09:28:16.665.08-Feb-2020 3135.01 5839.30 69.24 4.00  50.80 2647.94
   09:28:16.865.08-Feb-2020 3135.01 5831.51 69.24 4.00  51.00 2647.94
   09:28:17.065.08-Feb-2020 3135.01 5831.51 69.24 4.00  51.20 2647.94
   09:28:17.265.08-Feb-2020 3135.01 5836.70 69.24 4.00  51.40 2647.94
   09:28:17.465.08-Feb-2020 3135.01 5856.18 69.24 4.00  51.60 2647.94
   09:28:17.665.08-Feb-2020 3135.01 5840.34 69.24 4.00  51.80 2647.94
   09:28:17.865.08-Feb-2020 3135.01 5855.41 69.24 4.00  52.00 2647.94
   09:28:18.065.08-Feb-2020 3135.01 5855.41 69.24 4.00  52.20 2647.94
   09:28:18.265.08-Feb-2020 3135.01 5897.85 69.24 4.00  52.40 2647.94
   09:28:18.465.08-Feb-2020 3135.01 5923.06 69.24 4.00  52.60 2647.94
   09:28:18.665.08-Feb-2020 3135.01 5931.40 69.24 4.00  52.80 2647.94
   09:28:18.865.08-Feb-2020 3135.01 5943.85 69.24 4.00  53.00 2647.94
   09:28:19.065.08-Feb-2020 3135.01 5943.85 69.24 4.00  53.20 2647.94
   09:28:19.265.08-Feb-2020 3135.01 5959.39 69.24 4.00  53.40 2647.94
   09:28:19.465.08-Feb-2020 3135.01 5977.56 69.24 4.00  53.60 2647.94
   09:28:19.665.08-Feb-2020 3135.01 5998.96 69.24 4.00  53.80 2647.94
   09:28:19.865.08-Feb-2020 3135.01 6002.34 69.24 4.00  54.00 2647.94
   09:28:20.065.08-Feb-2020 3135.01 6002.34 69.24 4.00  54.20 2647.94
   09:28:20.265.08-Feb-2020 3135.01 6016.84 69.25 4.00  54.40 2647.94
   09:28:20.465.08-Feb-2020 3135.01 6027.25 69.25 4.00  54.60 2647.94
   09:28:20.665.08-Feb-2020 3135.01 6030.88 69.25 4.00  54.80 2647.94
   09:28:20.865.08-Feb-2020 3135.01 6035.27 69.25 4.00  55.00 2647.94
   09:28:21.065.08-Feb-2020 3135.01 6035.27 69.25 4.00  55.20 2647.94
   09:28:21.265.08-Feb-2020 3135.01 6041.24 69.25 4.00  55.40 2647.94
   09:28:21.465.08-Feb-2020 3135.01 6051.08 69.25 4.00  55.60 2647.94
   09:28:21.665.08-Feb-2020 3135.01 6047.84 69.25 4.00  55.80 2647.94
   09:28:21.865.08-Feb-2020 3135.01 6048.09 69.25 4.00  56.00 2647.94
   09:28:22.065.08-Feb-2020 3135.01 6048.09 69.25 4.00  56.20 2647.94
   09:28:22.265.08-Feb-2020 3135.01 5104.83 69.25 4.00  56.40 2647.94
   09:28:22.465.08-Feb-2020 3135.01 4967.40 69.25 4.00  56.60 2647.94
   09:28:22.665.08-Feb-2020 3135.01 4778.93 69.25 4.00  56.80 2647.94
   09:28:22.865.08-Feb-2020 3135.01 4589.71 69.25 4.00  57.00 2647.94
   09:28:23.065.08-Feb-2020 3135.01 4589.71 69.25 4.00  57.20 2647.94
   09:28:23.265.08-Feb-2020 3135.01 4369.92 69.25 4.00  57.40 2647.94
   09:28:23.465.08-Feb-2020 3135.01 4327.29 69.24 4.00  57.60 2647.94
   09:28:23.665.08-Feb-2020 3135.01 4259.78 69.24 4.00  57.80 2647.94
   09:28:23.865.08-Feb-2020 3135.01 4198.24 69.24 4.00  58.00 2647.94
   09:28:24.065.08-Feb-2020 3135.01 4198.24 69.24 4.00  58.20 2647.94
   09:28:24.265.08-Feb-2020 3135.01 4174.06 69.24 4.00  58.40 2647.94
   09:28:24.465.08-Feb-2020 3135.01 4222.19 69.24 4.00  58.60 2647.94
   09:28:24.665.08-Feb-2020 3135.01 4243.90 69.24 4.00  58.80 2647.94
   09:28:24.865.08-Feb-2020 3135.01 4259.09 69.24 4.00  59.00 2647.94
   09:28:25.065.08-Feb-2020 3135.01 4259.09 69.24 4.00  59.20 2647.94
   09:28:25.265.08-Feb-2020 3135.01 4331.29 69.24 4.00  59.40 2647.94
   09:28:25.465.08-Feb-2020 3135.01 4331.61 69.23 4.00  59.60 2647.94
   09:28:25.665.08-Feb-2020 3135.01 4305.29 69.23 4.00  59.81 2647.94
   09:28:25.865.08-Feb-2020 3135.01 4279.80 69.23 4.00  60.01 2647.94
   09:28:26.065.08-Feb-2020 3135.01 4279.80 69.23 4.00  60.21 2647.94
   09:28:26.265.08-Feb-2020 3135.01 4272.50 69.23 4.00  60.41 2647.94
   09:28:26.465.08-Feb-2020 3135.01 4278.83 69.23 4.00  60.61 2647.94
   09:28:26.665.08-Feb-2020 3135.01 4280.39 69.23 4.00  60.81 2647.94
   09:28:26.865.08-Feb-2020 3135.01 4280.90 69.22 4.00  61.01 2647.94
   09:28:27.065.08-Feb-2020 3135.01 4280.90 69.22 4.00  61.21 2647.94
   09:28:27.265.08-Feb-2020 3135.01 4289.21 69.22 4.00  61.41 2647.94
   09:28:27.465.08-Feb-2020 3135.01 4289.19 69.22 4.00  61.61 2647.94
   09:28:27.665.08-Feb-2020 3135.01 4287.70 69.22 4.00  61.81 2647.94
   09:28:27.865.08-Feb-2020 3135.01 4287.96 69.22 4.00  62.01 2647.94
   09:28:28.065.08-Feb-2020 3135.01 4287.96 69.22 4.00  62.21 2647.94
   09:28:28.265.08-Feb-2020 3135.01 4313.74 69.22 4.00  62.41 2647.94
   09:28:28.466.08-Feb-2020 3135.01 4315.02 69.22 4.00  62.61 2647.94
   09:28:28.666.08-Feb-2020 3135.01 4313.44 69.21 4.00  62.81 2647.94
   09:28:28.866.08-Feb-2020 3135.01 4312.50 69.21 4.00  63.01 2647.94
   09:28:29.066.08-Feb-2020 3135.01 4312.50 69.21 4.00  63.21 2647.94
   09:28:29.266.08-Feb-2020 3135.01 4314.24 69.21 4.00  63.41 2647.94
   09:28:29.466.08-Feb-2020 3135.01 4315.77 69.21 4.00  63.61 2647.94
   09:28:29.666.08-Feb-2020 3135.01 4313.28 69.21 4.00  63.81 2647.94
   09:28:29.866.08-Feb-2020 3135.01 4311.94 69.21 4.00  64.01 2647.94
   09:28:30.066.08-Feb-2020 3135.01 4311.94 69.21 4.00  64.21 2647.94
   09:28:30.266.08-Feb-2020 3135.01 4312.40 69.21 4.00  64.41 2647.94
   09:28:30.466.08-Feb-2020 3135.01 4312.64 69.21 4.00  64.61 2647.94
   09:28:30.666.08-Feb-2020 3135.01 4310.53 69.21 4.00  64.81 2647.94
   09:28:30.866.08-Feb-2020 3135.01 4309.76 69.21 4.00  65.01 2647.94
   09:28:31.066.08-Feb-2020 3135.01 4309.76 69.21 4.00  65.21 2647.94
   09:28:31.266.08-Feb-2020 3135.01 4307.73 69.20 4.00  65.41 2647.94
   09:28:31.466.08-Feb-2020 3135.01 4306.95 69.20 4.00  65.61 2647.94
   09:28:31.666.08-Feb-2020 3135.01 4310.27 69.20 4.00  65.81 2647.94
   09:28:31.866.08-Feb-2020 3135.01 4312.67 69.20 4.00  66.01 2647.94
   09:28:32.066.08-Feb-2020 3135.01 4312.67 69.20 4.00  66.21 2647.94
   09:28:32.266.08-Feb-2020 3135.01 4317.65 69.20 4.00  66.41 2647.94
   09:28:32.466.08-Feb-2020 3135.01 4353.03 69.20 4.00  66.61 2647.94
   09:28:32.666.08-Feb-2020 3135.01 4574.40 69.20 4.00  66.81 2647.94
   09:28:32.866.08-Feb-2020 3135.01 4666.24 69.20 4.00  67.01 2647.94
   09:28:33.066.08-Feb-2020 3135.01 4666.24 69.20 4.00  67.21 2647.94
   09:28:33.266.08-Feb-2020 3135.01 4709.49 69.20 4.00  67.41 2647.94
   09:28:33.466.08-Feb-2020 3135.01 4714.96 69.20 4.00  67.61 2647.94
   09:28:33.666.08-Feb-2020 3135.01 4717.66 69.20 4.00  67.81 2647.94
   09:28:33.866.08-Feb-2020 3135.01 4719.34 69.20 4.00  68.01 2647.94
   09:28:34.066.08-Feb-2020 3135.01 4719.34 69.20 4.00  68.21 2647.94
   09:28:34.266.08-Feb-2020 3135.01 4721.56 69.20 4.00  68.41 2647.94
   09:28:34.466.08-Feb-2020 3135.01 4724.23 69.20 4.00  68.61 2647.94
   09:28:34.666.08-Feb-2020 3135.01 4722.04 69.20 4.00  68.81 2647.94
