~Version Information
 VERS.                  2.0:   CWLS log ASCII Standard -VERSION 2.0
 WRAP.                   NO:   One line per depth step
~Well Information Block
#MNEM.UNIT     VALUE/NAME     DESCRIPTION
#---------     -----------    ---------------------------
 STRT.S             08:41:50 08-Feb-20: START TIME 08:41:50 08-Feb-20
 STOP.S             08:48:48 08-Feb-20: STOP TIME  08:48:48 08-Feb-20
 STEP.S                   0.00: STEP TIME
 NULL.                 -999.25: NULL VALUE
 DFWT.                        :  DIST FWL TEXT
 DFST.                        :  DIST FSL TEXT
 DMF .             Drill Floor:  DRILL MEAS FROM
 STIM.      07.00.00 09-Jan-20:  START TIME
 DATE.      14.04.48 07-Feb-20:  END TIME
 SPUD.               09-Jan-20:  SPUD DATE
 NREF.                    Grid:  NORTH REFERENCE
 HPTY.       Minimum Curvature:  HOLE POS TYPE
 DMOD.             Drill Model:  DRILL MOD DESC
 SVYD.                  Survey:  SURVEY DESC
 ILTD.               Lithology:  INTERP LTH DESC
 FTOP.          Formation Tops:  FORM TOPS DESC
 SON .        AZ-XX-0905059384:  JOB NUMBER
 MDS .        Operator Entered:  MAG DATA SOURCE
 WTYP.                Deviated:  WELL TYPE
 COMP.     BP Exploration (Caspian Sea) Ltd.:  COMPANY
 UWI .                     N/A:  UNIQUE WELL IDENTIFIER
 API .                     N/A:  API NUMBER
 BASE.              Azerbaijan:  LOGGING EQUIPMENT BASE LOCATION
 REGN.                   EESSA:  REGION
 PROV.                    Baku:  PROVINCE
 STAT.                    Baku:  STATE NAME
 CTRY.              Azerbaijan:  COUNTRY NAME
 FLD .                     ACG:  FIELD NAME
 SRVC.     TURAN Drilling & Engineering:  CONTRACTOR
 MWDS.                    Baku:  MWD SHOP
 WELL.                     J22:  WELL NAME
 RIG .             West Chirag:  RIG NAME
 DOE .                     N/A:  DOE NUMBER
 DCON.         Sperry Drilling:  DIRECTNL CONTR
 UNIT.                     N/A:  LOGGING EQUIPMENT ID
 PDAT.          Mean Sea Level:  PERMANENT DATUM
 JOBN.        AZ-XX-0905059384:  JOB TICKET NUMB
 CNTY.                        :  COUNTY
 LOC .                        :  LOCATION
 LMF .             Drill Floor:  LOG MEASURED FROM
 TVDS.m                  43.00:  TVDSS CORRECTN
 LATI.deg                40.13:  LATITUDE
 LONG.deg                51.22:  LONGITUDE
 WHNS.m                  10.28:  WELL HEAD N/S
 WHEW.m                  -6.24:  WELL HEAD E/W
 UTMX.m              519005.06:  UTM X
 UTMY.m             4443793.85:  UTM Y
 DFWL.m                   0.00:  DISTANCE FWL
 DFSL.m                   0.00:  DISTANCE FSL
 SDEP.m                 362.00:  START DEPTH
 TDD .m                 904.00:  TOTAL DEPTH (DRILLER)
 VSDR.deg               148.53:  VERT SEC DIRECT
 GVFD.g                   1.00:  GRAVITY FIELD
 MFLD.nT              50277.00:  MAGNETIC FIELD
 MDIP.deg                59.56:  MAGNETIC DIP
 MDEC.deg                 6.42:  MAGNETIC DECL
 GRDC.deg                 0.15:  GRID CORRECTION
 AZTC.deg                 6.27:  AZM TOTAL CORR
 EPD .m                   0.00:  ELEVATION
 EGL .m                   0.00:  GROUND ELEVATION
 WDMS.m                 169.80:  WD ELEV
 APD .m                  43.00:  DEPTH ABOVE PD
 AGAP.m                  43.00:  AIR GAP
 VSEW.m                  -6.24:  VERT SEC E/W
 VSNS.m                  10.28:  VERT SEC N/S
 DEP .m                   0.00:  DEPTH
 EKB .m                   0.00:  KB ELEVATION
 EDF .m                  43.00:  DF ELEVATION
 TDL .m                1183.00:  TOTAL DEPTH (LOGGER)
 VSC .                       0:  VS TO CLOSURE
 MAGU.                 1850021:  MAGUTM CHECKSUM
~Parameter Information Block
#MNEM.UNIT       Value        Description
#---------     -----------    ---------------------------
 AV  .mps                 4.00:  Ann Velocity 
 AVMX.mps                 4.50:  Max Ann Veloc 
 AZIF.deg               145.38:  Azm, Final 
 BHAT.        Rotary Steerable:  BHA Type 
 BROT.°/30m               3.00:  Build Rotating 
 BS  .in                 12.25:  Bit Size 
 BSZ .in                 12.25:  Bit Size 
 BTPL.psig              650.00:  Bit Press Loss 
 CABU.                      No:  Customer Abuse 
 COMM.                     [:  Run Comments 1 
 TCS .hr                101.62:  Time Ciculation Ended 
 CV  .mps                 5.00:  Crit Velocity 
 CVMX.mps                 5.00:  Max Crit Veloc 
 DD1 .             Aziz Aliyev:  Direct Drillr 1 
 DD2 .      Fakhraddin Guliyev:  Direct Drillr 2 
 DDSV.                 iCruise:  DD Service 
 DEFF.%                  97.00:  % Det Eff 
 DLRX.°/30m               4.16:  Dogleg Rot Max 
 DLSO.°/30m               3.20:  Dogleg Oriented 
 DLSX.°/30m               4.10:  Dogleg Str Max 
 DRET.      23.12.00 07-Feb-20:  Drill End Time 
 DRST.      11.30.00 04-Feb-20:  Drill Start Tim 
 DTIM.hr                 61.06:  Time Drilling 
 EDEP.m                3219.01:  End Depth 
 ENG1.         Almaz Almadatov:  Engineer 1 
 ENG2.         Dair Mahammadov:  Engineer 2 
 ENG3.          Nazrin Asgarli:  Engineer 3 
 ETIM.      02.30.00 11-Feb-20:  End Time 
 FLOI.gpm              1100.00:  Flow In 
 FLON.gpm               900.00:  Flow In Min 
 FLOS.cptm               55.00:  Fluid Loss 
 FLOX.gpm              1150.00:  Flow In Max 
 FTRO.       Formation Presure:  FTWD Run Obj 
 HFLO.                      No:  High Flow 
 HPRE.                      No:  High Pressure 
 HTEM.                      No:  High Temp 
 HYDO.m                   1.80:  Hydro Offset 
 IFIN.deg                75.11:  Inc, Final 
 IMAX.deg                75.11:  Inc Max 
 IMIN.deg                33.55:  Inc Min 
 IMND.m                2186.05:  Inc Min Depth 
 IMXD.m                3205.61:  Inc Max Depth 
 JARR.                      No:  Jarring 
 LETM.      23.12.00 07-Feb-20:  Log End Time 
 LOST.hr                     0:  Lost Rig Time 
 LSTM.      11.30.00 04-Feb-20:  Log Start Time 
 MDCL.ppm             40000.00:  Mud Chlorides 
 MDES.     Inversion Oil/Synthetic:  Mud Desc 
 DFD .sg                  1.49:  Mud Density 
 MDMN.sg                  1.49:  Dens Mud Min 
 MDMX.sg                  1.49:  Dens Mud Max 
 MOIL.                      73:  Run Mud Oil % 
 MOWR.                   73:27:  Run Mud OWR 
 MSND.                     0.1:  Run Mud Sand % 
 MSOL.                    20.1:  Run Mud Solids% 
 DFV .spqt               78.00:  Mud Viscosity 
 MWOD.in                  8.00:  MWD Tool OD 
 MWSI.                      No:  Serv Intrp, MWD 
 OTIM.hr                177.15:  Time Operating 
 PCON.          Wear / Scratch:  Pad Condition 
 PMAX.psia            10493.93:  Press Op, Max 
 PV  .cP                 73.00:  Mud PV 
 RUN .                     700:  Run Number 
 ROPA.m/hr               15.00:  ROP Avg 
 ROPN.m/hr               10.00:  ROP Min 
 ROPX.m/hr               35.00:  ROP Max 
 RPMA.rpm               130.00:  RPM Surface Avg 
 RPMN.rpm                80.00:  RPM Surface Min 
 RPMX.rpm               150.00:  RPM Surface Max 
 RRUN.                    L402:  Rig Run Number 
 RTIM.hr                 80.50:  Time Reaming 
 SAZI.deg               155.55:  Azm, Start 
 SDEP.m                2036.00:  Start Depth 
 SIDD.                      No:  Serv Intrp, DD 
 SINC.deg                35.44:  Inc, Start 
 SPPA.psig             4270.00:  SPP Avg 
 SPPN.psig             2800.00:  SPP Min 
 SPPX.psig             4850.00:  SPP Max 
 STIM.      09.30.00 03-Feb-20:  Start Time 
 SVCS.                 DD, MWD:  Services 
 SVER.                    9.20:  Sperry Version 
 TDAT.m                1183.00:  Tot Depth Attmp 
 TDDF.                      No:  Trip for DD 
 TDLG.m                1183.00:  Tot Depth Loggd 
 TFF .                      No:  Trip for Fail 
 TQAA.f-kp               16.00:  Torque Abs Avg 
 TQAN.f-kp               10.00:  Torque Abs Min 
 TQAX.f-kp               20.00:  Torque Abs Max 
 TRRT.°/30m               1.00:  Turn Rotating 
 MRT .                  EWR-M5:  Maximum Recorded Temperature 
 TTMX.degC               80.39:  Max Tool Temp 
 VS01.               13098498 :  Virtual Str1 SN 
 VS02.                90569596:  Virtual Str2 SN 
 VS03.                90523599:  Virtual Str3 SN 
 VS04.                90573553:  Virtual Str4 SN 
 VS05.                90598598:  Virtual Str5 SN 
 VS06.                90577297:  Virtual Str6 SN 
 WBMN.klb                13.00:  WOB Min 
 WITN.         Alistair Sprott:  Customer Rep 
 WITN.           Rufat Babayev:  Customer Rep 2 
 WOBA.klb                15.00:  WOB Avg 
 WOBX.klb                20.00:  WOB Max 
 YP  .lhf2               39.00:  Yield Point 
~Curve Information Block
#MNEM.UNIT                 API CODE     Curve Description
#---------               -----------    ---------------------------
 TIME.HHMMSS            00 000 000 000:  GT Time & Date
 GTDEPTH.m              00 000 000 000:  GT Depth
 GTPQH.psia             00 000 000 000:  GT HR Quartz Pressure
 GTTQ.degC              00 000 000 000:  GT Quartz Temperature
 GTTN.NONE              00 000 000 000:  GT Test Number
 GTET.sec               00 000 000 000:  GT Elapsed Test Time
 GTTVD.m                00 000 000 000:  GT True Vertical Depth
#Other Information
#
#WARRANTY: Halliburton will use its best efforts to furnish customers with 
#accurate information and interpretations that are part of, and incident to, the services 
#provided.  However, Halliburton cannot and does not warrant the accuracy 
#or correctness of such information and interpretations.  Under no circumstances should any 
#such information or interpretation be relied upon as the sole basis for any drilling, 
#completion, production, or financial decision or any procedure involving any risk to the 
#safety of any drilling venture, drilling rig or its crew or any other third party.  The 
#Customer has full responsibility for all drilling, completion and production operation.  
#Halliburton makes no representations or warranties, either expressed or 
#implied, including, but not limited to, the implied warranties of merchantability or fitness 
#for a particular purpose, with respect to the services rendered.  In no event will 
#Halliburton be liable for failure to obtain any particular results or for 
#any damages, including, but not limited to, indirect, special or consequential damages, 
#resulting from the use of any information or interpretation provided by Halliburton.
#
~A           TIME           GTDEPTH  GTPQH  GTTQ  GTTN  GTET   GTTVD  
# ...
   08:42:36.635.08-Feb-2020 3153.01 5767.15 71.31 2.00  46.00 2652.69
   08:42:36.835.08-Feb-2020 3153.01 5767.15 71.31 2.00  46.20 2652.69
   08:42:37.035.08-Feb-2020 3153.01 5762.98 71.31 2.00  46.40 2652.69
   08:42:37.235.08-Feb-2020 3153.01 5764.43 71.31 2.00  46.60 2652.69
   08:42:37.435.08-Feb-2020 3153.01 5769.25 71.31 2.00  46.80 2652.69
   08:42:37.635.08-Feb-2020 3153.01 5765.28 71.31 2.00  47.00 2652.69
   08:42:37.835.08-Feb-2020 3153.01 5765.28 71.31 2.00  47.20 2652.69
   08:42:38.035.08-Feb-2020 3153.01 5765.65 71.31 2.00  47.40 2652.69
   08:42:38.235.08-Feb-2020 3153.01 5765.88 71.31 2.00  47.60 2652.69
   08:42:38.435.08-Feb-2020 3153.01 5765.33 71.31 2.00  47.80 2652.69
   08:42:38.635.08-Feb-2020 3153.01 5767.07 71.31 2.00  48.00 2652.69
   08:42:38.835.08-Feb-2020 3153.01 5767.07 71.31 2.00  48.20 2652.69
   08:42:39.035.08-Feb-2020 3153.01 5765.92 71.30 2.00  48.40 2652.69
   08:42:39.235.08-Feb-2020 3153.01 5765.83 71.30 2.00  48.60 2652.69
   08:42:39.435.08-Feb-2020 3153.01 5765.46 71.30 2.00  48.80 2652.69
   08:42:39.635.08-Feb-2020 3153.01 5772.01 71.30 2.00  49.00 2652.69
   08:42:39.835.08-Feb-2020 3153.01 5772.01 71.30 2.00  49.20 2652.69
   08:42:40.035.08-Feb-2020 3153.01 5763.55 71.30 2.00  49.40 2652.69
   08:42:40.235.08-Feb-2020 3153.01 5765.30 71.30 2.00  49.60 2652.69
   08:42:40.435.08-Feb-2020 3153.01 5766.26 71.30 2.00  49.80 2652.69
   08:42:40.635.08-Feb-2020 3153.01 5765.01 71.30 2.00  50.00 2652.69
   08:42:40.835.08-Feb-2020 3153.01 5765.01 71.30 2.00  50.20 2652.69
   08:42:41.035.08-Feb-2020 3153.01 5766.21 71.30 2.00  50.40 2652.69
   08:42:41.235.08-Feb-2020 3153.01 5765.43 71.30 2.00  50.60 2652.69
   08:42:41.435.08-Feb-2020 3153.01 5765.79 71.30 2.00  50.80 2652.69
   08:42:41.635.08-Feb-2020 3153.01 5765.34 71.30 2.00  51.00 2652.69
   08:42:41.835.08-Feb-2020 3153.01 5765.34 71.30 2.00  51.20 2652.69
   08:42:42.035.08-Feb-2020 3153.01 5764.74 71.30 2.00  51.40 2652.69
   08:42:42.235.08-Feb-2020 3153.01 5764.67 71.30 2.00  51.60 2652.69
   08:42:42.435.08-Feb-2020 3153.01 5768.94 71.30 2.00  51.80 2652.69
   08:42:42.635.08-Feb-2020 3153.01 5768.54 71.30 2.00  52.00 2652.69
   08:42:42.835.08-Feb-2020 3153.01 5768.54 71.30 2.00  52.20 2652.69
   08:42:43.036.08-Feb-2020 3153.01 5765.02 71.30 2.00  52.40 2652.69
   08:42:43.236.08-Feb-2020 3153.01 5772.08 71.30 2.00  52.60 2652.69
   08:42:43.436.08-Feb-2020 3153.01 5764.82 71.30 2.00  52.80 2652.69
   08:42:43.636.08-Feb-2020 3153.01 5764.23 71.30 2.00  53.00 2652.69
   08:42:43.836.08-Feb-2020 3153.01 5764.23 71.30 2.00  53.20 2652.69
   08:42:44.036.08-Feb-2020 3153.01 5766.95 71.30 2.00  53.40 2652.69
   08:42:44.236.08-Feb-2020 3153.01 5763.89 71.30 2.00  53.60 2652.69
   08:42:44.436.08-Feb-2020 3153.01 5766.78 71.30 2.00  53.80 2652.69
   08:42:44.636.08-Feb-2020 3153.01 5769.22 71.30 2.00  54.00 2652.69
   08:42:44.836.08-Feb-2020 3153.01 5769.22 71.30 2.00  54.20 2652.69
   08:42:45.036.08-Feb-2020 3153.01 5762.27 71.29 2.00  54.40 2652.69
   08:42:45.236.08-Feb-2020 3153.01 5759.21 71.29 2.00  54.60 2652.69
   08:42:45.436.08-Feb-2020 3153.01 5747.83 71.29 2.00  54.80 2652.69
   08:42:45.636.08-Feb-2020 3153.01 5712.70 71.29 2.00  55.00 2652.69
   08:42:45.836.08-Feb-2020 3153.01 5712.70 71.29 2.00  55.20 2652.69
   08:42:46.036.08-Feb-2020 3153.01 5657.34 71.29 2.00  55.40 2652.69
   08:42:46.236.08-Feb-2020 3153.01 5739.58 71.29 2.00  55.60 2652.69
   08:42:46.436.08-Feb-2020 3153.01 5757.19 71.29 2.00  55.80 2652.69
   08:42:46.636.08-Feb-2020 3153.01 5742.34 71.29 2.00  56.00 2652.69
   08:42:46.836.08-Feb-2020 3153.01 5742.34 71.29 2.00  56.20 2652.69
   08:42:47.036.08-Feb-2020 3153.01 5692.80 71.29 2.00  56.40 2652.69
   08:42:47.236.08-Feb-2020 3153.01 5698.81 71.29 2.00  56.60 2652.69
   08:42:47.436.08-Feb-2020 3153.01 5698.93 71.29 2.00  56.80 2652.69
   08:42:47.636.08-Feb-2020 3153.01 5702.82 71.29 2.00  57.00 2652.69
   08:42:47.836.08-Feb-2020 3153.01 5702.82 71.29 2.00  57.20 2652.69
   08:42:48.036.08-Feb-2020 3153.01 5727.97 71.29 2.00  57.40 2652.69
   08:42:48.236.08-Feb-2020 3153.01 5738.08 71.29 2.00  57.60 2652.69
   08:42:48.436.08-Feb-2020 3153.01 5748.08 71.29 2.00  57.80 2652.69
   08:42:48.636.08-Feb-2020 3153.01 5757.60 71.29 2.00  58.00 2652.69
   08:42:48.836.08-Feb-2020 3153.01 5757.60 71.29 2.00  58.20 2652.69
   08:42:49.036.08-Feb-2020 3153.01 5768.12 71.29 2.00  58.40 2652.69
   08:42:49.236.08-Feb-2020 3153.01 5766.32 71.29 2.00  58.60 2652.69
   08:42:49.436.08-Feb-2020 3153.01 5769.11 71.29 2.00  58.80 2652.69
   08:42:49.636.08-Feb-2020 3153.01 5768.92 71.29 2.00  59.00 2652.69
   08:42:49.836.08-Feb-2020 3153.01 5768.92 71.29 2.00  59.20 2652.69
   08:42:50.036.08-Feb-2020 3153.01 5765.38 71.29 2.00  59.40 2652.69
   08:42:50.236.08-Feb-2020 3153.01 5769.73 71.29 2.00  59.60 2652.69
   08:42:50.436.08-Feb-2020 3153.01 5768.45 71.29 2.00  59.81 2652.69
   08:42:50.636.08-Feb-2020 3153.01 5764.88 71.29 2.00  60.01 2652.69
   08:42:50.836.08-Feb-2020 3153.01 5764.88 71.29 2.00  60.21 2652.69
   08:42:51.036.08-Feb-2020 3153.01 5766.10 71.28 2.00  60.41 2652.69
   08:42:51.236.08-Feb-2020 3153.01 5763.40 71.28 2.00  60.61 2652.69
   08:42:51.436.08-Feb-2020 3153.01 5763.45 71.28 2.00  60.81 2652.69
   08:42:51.636.08-Feb-2020 3153.01 5767.91 71.28 2.00  61.01 2652.69
   08:42:51.836.08-Feb-2020 3153.01 5767.91 71.28 2.00  61.21 2652.69
   08:42:52.036.08-Feb-2020 3153.01 5765.99 71.28 2.00  61.41 2652.69
   08:42:52.236.08-Feb-2020 3153.01 5765.50 71.28 2.00  61.61 2652.69
   08:42:52.436.08-Feb-2020 3153.01 5766.94 71.28 2.00  61.81 2652.69
   08:42:52.636.08-Feb-2020 3153.01 5748.58 71.28 2.00  62.01 2652.69
   08:42:52.836.08-Feb-2020 3153.01 5748.58 71.28 2.00  62.21 2652.69
   08:42:53.036.08-Feb-2020 3153.01 5747.16 71.28 2.00  62.41 2652.69
   08:42:53.236.08-Feb-2020 3153.01 5713.06 71.28 2.00  62.61 2652.69
   08:42:53.436.08-Feb-2020 3153.01 5706.65 71.28 2.00  62.81 2652.69
   08:42:53.636.08-Feb-2020 3153.01 5707.56 71.28 2.00  63.01 2652.69
   08:42:53.836.08-Feb-2020 3153.01 5707.56 71.28 2.00  63.21 2652.69
   08:42:54.036.08-Feb-2020 3153.01 5682.54 71.28 2.00  63.41 2652.69
   08:42:54.236.08-Feb-2020 3153.01 5677.38 71.28 2.00  63.61 2652.69
   08:42:54.436.08-Feb-2020 3153.01 5704.08 71.28 2.00  63.81 2652.69
   08:42:54.636.08-Feb-2020 3153.01 5749.11 71.28 2.00  64.01 2652.69
   08:42:54.836.08-Feb-2020 3153.01 5749.11 71.28 2.00  64.21 2652.69
   08:42:55.037.08-Feb-2020 3153.01 5755.69 71.28 2.00  64.41 2652.69
   08:42:55.237.08-Feb-2020 3153.01 5763.05 71.28 2.00  64.61 2652.69
   08:42:55.437.08-Feb-2020 3153.01 5763.94 71.28 2.00  64.81 2652.69
   08:42:55.637.08-Feb-2020 3153.01 5763.76 71.28 2.00  65.01 2652.69
   08:42:55.837.08-Feb-2020 3153.01 5763.76 71.28 2.00  65.21 2652.69
   08:42:56.037.08-Feb-2020 3153.01 5765.07 71.28 2.00  65.41 2652.69
   08:42:56.237.08-Feb-2020 3153.01 5766.28 71.28 2.00  65.61 2652.69
   08:42:56.437.08-Feb-2020 3153.01 5763.93 71.28 2.00  65.81 2652.69
   08:42:56.637.08-Feb-2020 3153.01 5767.23 71.28 2.00  66.01 2652.69
   08:42:56.837.08-Feb-2020 3153.01 5767.23 71.28 2.00  66.21 2652.69
   08:42:57.037.08-Feb-2020 3153.01 5763.75 71.28 2.00  66.41 2652.69
   08:42:57.237.08-Feb-2020 3153.01 5762.90 71.28 2.00  66.61 2652.69
   08:42:57.437.08-Feb-2020 3153.01 5770.03 71.28 2.00  66.81 2652.69
   08:42:57.637.08-Feb-2020 3153.01 5764.27 71.27 2.00  67.01 2652.69
   08:42:57.837.08-Feb-2020 3153.01 5764.27 71.27 2.00  67.21 2652.69
   08:42:58.037.08-Feb-2020 3153.01 5763.24 71.27 2.00  67.41 2652.69
   08:42:58.237.08-Feb-2020 3153.01 5763.68 71.27 2.00  67.61 2652.69
   08:42:58.437.08-Feb-2020 3153.01 5768.04 71.27 2.00  67.81 2652.69
   08:42:58.637.08-Feb-2020 3153.01 5764.83 71.27 2.00  68.01 2652.69
   08:42:58.837.08-Feb-2020 3153.01 5764.83 71.27 2.00  68.21 2652.69
   08:42:59.037.08-Feb-2020 3153.01 5763.60 71.27 2.00  68.41 2652.69
   08:42:59.237.08-Feb-2020 3153.01 5768.51 71.27 2.00  68.61 2652.69
   08:42:59.437.08-Feb-2020 3153.01 5767.28 71.27 2.00  68.81 2652.69
