~Version Information
 VERS.                  2.0:   CWLS log ASCII Standard -VERSION 2.0
 WRAP.                   NO:   One line per depth step
~Well Information Block
#MNEM.UNIT     VALUE/NAME     DESCRIPTION
#---------     -----------    ---------------------------
 STRT.S             10:04:49 08-Feb-20: START TIME 10:04:49 08-Feb-20
 STOP.S             10:11:45 08-Feb-20: STOP TIME  10:11:45 08-Feb-20
 STEP.S                   0.00: STEP TIME
 NULL.                 -999.25: NULL VALUE
 DFWT.                        :  DIST FWL TEXT
 DFST.                        :  DIST FSL TEXT
 DMF .             Drill Floor:  DRILL MEAS FROM
 STIM.      07.00.00 09-Jan-20:  START TIME
 DATE.      14.04.48 07-Feb-20:  END TIME
 SPUD.               09-Jan-20:  SPUD DATE
 NREF.                    Grid:  NORTH REFERENCE
 HPTY.       Minimum Curvature:  HOLE POS TYPE
 DMOD.             Drill Model:  DRILL MOD DESC
 SVYD.                  Survey:  SURVEY DESC
 ILTD.               Lithology:  INTERP LTH DESC
 FTOP.          Formation Tops:  FORM TOPS DESC
 SON .        AZ-XX-0905059384:  JOB NUMBER
 MDS .        Operator Entered:  MAG DATA SOURCE
 WTYP.                Deviated:  WELL TYPE
 COMP.     BP Exploration (Caspian Sea) Ltd.:  COMPANY
 UWI .                     N/A:  UNIQUE WELL IDENTIFIER
 API .                     N/A:  API NUMBER
 BASE.              Azerbaijan:  LOGGING EQUIPMENT BASE LOCATION
 REGN.                   EESSA:  REGION
 PROV.                    Baku:  PROVINCE
 STAT.                    Baku:  STATE NAME
 CTRY.              Azerbaijan:  COUNTRY NAME
 FLD .                     ACG:  FIELD NAME
 SRVC.     TURAN Drilling & Engineering:  CONTRACTOR
 MWDS.                    Baku:  MWD SHOP
 WELL.                     J22:  WELL NAME
 RIG .             West Chirag:  RIG NAME
 DOE .                     N/A:  DOE NUMBER
 DCON.         Sperry Drilling:  DIRECTNL CONTR
 UNIT.                     N/A:  LOGGING EQUIPMENT ID
 PDAT.          Mean Sea Level:  PERMANENT DATUM
 JOBN.        AZ-XX-0905059384:  JOB TICKET NUMB
 CNTY.                        :  COUNTY
 LOC .                        :  LOCATION
 LMF .             Drill Floor:  LOG MEASURED FROM
 TVDS.m                  43.00:  TVDSS CORRECTN
 LATI.deg                40.13:  LATITUDE
 LONG.deg                51.22:  LONGITUDE
 WHNS.m                  10.28:  WELL HEAD N/S
 WHEW.m                  -6.24:  WELL HEAD E/W
 UTMX.m              519005.06:  UTM X
 UTMY.m             4443793.85:  UTM Y
 DFWL.m                   0.00:  DISTANCE FWL
 DFSL.m                   0.00:  DISTANCE FSL
 SDEP.m                 362.00:  START DEPTH
 TDD .m                 904.00:  TOTAL DEPTH (DRILLER)
 VSDR.deg               148.53:  VERT SEC DIRECT
 GVFD.g                   1.00:  GRAVITY FIELD
 MFLD.nT              50277.00:  MAGNETIC FIELD
 MDIP.deg                59.56:  MAGNETIC DIP
 MDEC.deg                 6.42:  MAGNETIC DECL
 GRDC.deg                 0.15:  GRID CORRECTION
 AZTC.deg                 6.27:  AZM TOTAL CORR
 EPD .m                   0.00:  ELEVATION
 EGL .m                   0.00:  GROUND ELEVATION
 WDMS.m                 169.80:  WD ELEV
 APD .m                  43.00:  DEPTH ABOVE PD
 AGAP.m                  43.00:  AIR GAP
 VSEW.m                  -6.24:  VERT SEC E/W
 VSNS.m                  10.28:  VERT SEC N/S
 DEP .m                   0.00:  DEPTH
 EKB .m                   0.00:  KB ELEVATION
 EDF .m                  43.00:  DF ELEVATION
 TDL .m                1183.00:  TOTAL DEPTH (LOGGER)
 VSC .                       0:  VS TO CLOSURE
 MAGU.                 1850021:  MAGUTM CHECKSUM
~Parameter Information Block
#MNEM.UNIT       Value        Description
#---------     -----------    ---------------------------
 AV  .mps                 4.00:  Ann Velocity 
 AVMX.mps                 4.50:  Max Ann Veloc 
 AZIF.deg               145.38:  Azm, Final 
 BHAT.        Rotary Steerable:  BHA Type 
 BROT.°/30m               3.00:  Build Rotating 
 BS  .in                 12.25:  Bit Size 
 BSZ .in                 12.25:  Bit Size 
 BTPL.psig              650.00:  Bit Press Loss 
 CABU.                      No:  Customer Abuse 
 COMM.                     |¶Q:  Run Comments 1 
 TCS .hr                101.62:  Time Ciculation Ended 
 CV  .mps                 5.00:  Crit Velocity 
 CVMX.mps                 5.00:  Max Crit Veloc 
 DD1 .             Aziz Aliyev:  Direct Drillr 1 
 DD2 .      Fakhraddin Guliyev:  Direct Drillr 2 
 DDSV.                 iCruise:  DD Service 
 DEFF.%                  97.00:  % Det Eff 
 DLRX.°/30m               4.16:  Dogleg Rot Max 
 DLSO.°/30m               3.20:  Dogleg Oriented 
 DLSX.°/30m               4.10:  Dogleg Str Max 
 DRET.      23.12.00 07-Feb-20:  Drill End Time 
 DRST.      11.30.00 04-Feb-20:  Drill Start Tim 
 DTIM.hr                 61.06:  Time Drilling 
 EDEP.m                3219.01:  End Depth 
 ENG1.         Almaz Almadatov:  Engineer 1 
 ENG2.         Dair Mahammadov:  Engineer 2 
 ENG3.          Nazrin Asgarli:  Engineer 3 
 ETIM.      02.30.00 11-Feb-20:  End Time 
 FLOI.gpm              1100.00:  Flow In 
 FLON.gpm               900.00:  Flow In Min 
 FLOS.cptm               55.00:  Fluid Loss 
 FLOX.gpm              1150.00:  Flow In Max 
 FTRO.       Formation Presure:  FTWD Run Obj 
 HFLO.                      No:  High Flow 
 HPRE.                      No:  High Pressure 
 HTEM.                      No:  High Temp 
 HYDO.m                   1.80:  Hydro Offset 
 IFIN.deg                75.11:  Inc, Final 
 IMAX.deg                75.11:  Inc Max 
 IMIN.deg                33.55:  Inc Min 
 IMND.m                2186.05:  Inc Min Depth 
 IMXD.m                3205.61:  Inc Max Depth 
 JARR.                      No:  Jarring 
 LETM.      23.12.00 07-Feb-20:  Log End Time 
 LOST.hr                     0:  Lost Rig Time 
 LSTM.      11.30.00 04-Feb-20:  Log Start Time 
 MDCL.ppm             40000.00:  Mud Chlorides 
 MDES.     Inversion Oil/Synthetic:  Mud Desc 
 DFD .sg                  1.49:  Mud Density 
 MDMN.sg                  1.49:  Dens Mud Min 
 MDMX.sg                  1.49:  Dens Mud Max 
 MOIL.                      73:  Run Mud Oil % 
 MOWR.                   73:27:  Run Mud OWR 
 MSND.                     0.1:  Run Mud Sand % 
 MSOL.                    20.1:  Run Mud Solids% 
 DFV .spqt               78.00:  Mud Viscosity 
 MWOD.in                  8.00:  MWD Tool OD 
 MWSI.                      No:  Serv Intrp, MWD 
 OTIM.hr                177.15:  Time Operating 
 PCON.          Wear / Scratch:  Pad Condition 
 PMAX.psia            10493.93:  Press Op, Max 
 PV  .cP                 73.00:  Mud PV 
 RUN .                     700:  Run Number 
 ROPA.m/hr               15.00:  ROP Avg 
 ROPN.m/hr               10.00:  ROP Min 
 ROPX.m/hr               35.00:  ROP Max 
 RPMA.rpm               130.00:  RPM Surface Avg 
 RPMN.rpm                80.00:  RPM Surface Min 
 RPMX.rpm               150.00:  RPM Surface Max 
 RRUN.                    L402:  Rig Run Number 
 RTIM.hr                 80.50:  Time Reaming 
 SAZI.deg               155.55:  Azm, Start 
 SDEP.m                2036.00:  Start Depth 
 SIDD.                      No:  Serv Intrp, DD 
 SINC.deg                35.44:  Inc, Start 
 SPPA.psig             4270.00:  SPP Avg 
 SPPN.psig             2800.00:  SPP Min 
 SPPX.psig             4850.00:  SPP Max 
 STIM.      09.30.00 03-Feb-20:  Start Time 
 SVCS.                 DD, MWD:  Services 
 SVER.                    9.20:  Sperry Version 
 TDAT.m                1183.00:  Tot Depth Attmp 
 TDDF.                      No:  Trip for DD 
 TDLG.m                1183.00:  Tot Depth Loggd 
 TFF .                      No:  Trip for Fail 
 TQAA.f-kp               16.00:  Torque Abs Avg 
 TQAN.f-kp               10.00:  Torque Abs Min 
 TQAX.f-kp               20.00:  Torque Abs Max 
 TRRT.°/30m               1.00:  Turn Rotating 
 MRT .                  EWR-M5:  Maximum Recorded Temperature 
 TTMX.degC               80.39:  Max Tool Temp 
 VS01.               13098498 :  Virtual Str1 SN 
 VS02.                90569596:  Virtual Str2 SN 
 VS03.                90523599:  Virtual Str3 SN 
 VS04.                90573553:  Virtual Str4 SN 
 VS05.                90598598:  Virtual Str5 SN 
 VS06.                90577297:  Virtual Str6 SN 
 WBMN.klb                13.00:  WOB Min 
 WITN.         Alistair Sprott:  Customer Rep 
 WITN.           Rufat Babayev:  Customer Rep 2 
 WOBA.klb                15.00:  WOB Avg 
 WOBX.klb                20.00:  WOB Max 
 YP  .lhf2               39.00:  Yield Point 
~Curve Information Block
#MNEM.UNIT                 API CODE     Curve Description
#---------               -----------    ---------------------------
 TIME.HHMMSS            00 000 000 000:  GT Time & Date
 GTDEPTH.m              00 000 000 000:  GT Depth
 GTPQH.psia             00 000 000 000:  GT HR Quartz Pressure
 GTTQ.degC              00 000 000 000:  GT Quartz Temperature
 GTTN.NONE              00 000 000 000:  GT Test Number
 GTET.sec               00 000 000 000:  GT Elapsed Test Time
 GTTVD.m                00 000 000 000:  GT True Vertical Depth
#Other Information
#
#WARRANTY: Halliburton will use its best efforts to furnish customers with 
#accurate information and interpretations that are part of, and incident to, the services 
#provided.  However, Halliburton cannot and does not warrant the accuracy 
#or correctness of such information and interpretations.  Under no circumstances should any 
#such information or interpretation be relied upon as the sole basis for any drilling, 
#completion, production, or financial decision or any procedure involving any risk to the 
#safety of any drilling venture, drilling rig or its crew or any other third party.  The 
#Customer has full responsibility for all drilling, completion and production operation.  
#Halliburton makes no representations or warranties, either expressed or 
#implied, including, but not limited to, the implied warranties of merchantability or fitness 
#for a particular purpose, with respect to the services rendered.  In no event will 
#Halliburton be liable for failure to obtain any particular results or for 
#any damages, including, but not limited to, indirect, special or consequential damages, 
#resulting from the use of any information or interpretation provided by Halliburton.
#
~A           TIME           GTDEPTH  GTPQH  GTTQ  GTTN  GTET   GTTVD  
# ...
   10:07:07.223.08-Feb-2020 3159.51 4881.60 68.49 5.00 138.04 2654.38
   10:07:07.423.08-Feb-2020 3159.51 4881.60 68.49 5.00 138.24 2654.38
   10:07:07.623.08-Feb-2020 3159.51 4881.55 68.49 5.00 138.44 2654.38
   10:07:07.823.08-Feb-2020 3159.51 4881.50 68.49 5.00 138.64 2654.38
   10:07:08.023.08-Feb-2020 3159.51 4881.47 68.49 5.00 138.84 2654.38
   10:07:08.223.08-Feb-2020 3159.51 4881.62 68.49 5.00 139.04 2654.38
   10:07:08.423.08-Feb-2020 3159.51 4881.62 68.49 5.00 139.24 2654.38
   10:07:08.623.08-Feb-2020 3159.51 4881.15 68.49 5.00 139.44 2654.38
   10:07:08.823.08-Feb-2020 3159.51 4881.37 68.49 5.00 139.64 2654.38
   10:07:09.024.08-Feb-2020 3159.51 4881.39 68.49 5.00 139.84 2654.38
   10:07:09.224.08-Feb-2020 3159.51 4881.44 68.49 5.00 140.04 2654.38
   10:07:09.424.08-Feb-2020 3159.51 4881.44 68.49 5.00 140.24 2654.38
   10:07:09.624.08-Feb-2020 3159.51 4881.38 68.49 5.00 140.44 2654.38
   10:07:09.824.08-Feb-2020 3159.51 4881.53 68.49 5.00 140.64 2654.38
   10:07:10.024.08-Feb-2020 3159.51 4881.53 68.49 5.00 140.84 2654.38
   10:07:10.224.08-Feb-2020 3159.51 4881.60 68.49 5.00 141.04 2654.38
   10:07:10.424.08-Feb-2020 3159.51 4881.60 68.49 5.00 141.24 2654.38
   10:07:10.624.08-Feb-2020 3159.51 4881.63 68.49 5.00 141.44 2654.38
   10:07:10.824.08-Feb-2020 3159.51 4881.59 68.49 5.00 141.64 2654.38
   10:07:11.024.08-Feb-2020 3159.51 4881.56 68.49 5.00 141.84 2654.38
   10:07:11.224.08-Feb-2020 3159.51 4881.58 68.49 5.00 142.04 2654.38
   10:07:11.424.08-Feb-2020 3159.51 4881.58 68.49 5.00 142.24 2654.38
   10:07:11.624.08-Feb-2020 3159.51 4881.49 68.49 5.00 142.44 2654.38
   10:07:11.824.08-Feb-2020 3159.51 4881.55 68.49 5.00 142.64 2654.38
   10:07:12.024.08-Feb-2020 3159.51 4881.56 68.49 5.00 142.84 2654.38
   10:07:12.225.08-Feb-2020 3159.51 4881.41 68.49 5.00 143.04 2654.38
   10:07:12.425.08-Feb-2020 3159.51 4881.41 68.49 5.00 143.24 2654.38
   10:07:12.625.08-Feb-2020 3159.51 4881.48 68.49 5.00 143.44 2654.38
   10:07:12.825.08-Feb-2020 3159.51 4881.60 68.49 5.00 143.64 2654.38
   10:07:13.025.08-Feb-2020 3159.51 4881.55 68.49 5.00 143.84 2654.38
   10:07:13.225.08-Feb-2020 3159.51 4881.50 68.49 5.00 144.04 2654.38
   10:07:13.425.08-Feb-2020 3159.51 4881.50 68.49 5.00 144.24 2654.38
   10:07:13.625.08-Feb-2020 3159.51 4881.61 68.49 5.00 144.44 2654.38
   10:07:13.825.08-Feb-2020 3159.51 4881.50 68.49 5.00 144.64 2654.38
   10:07:14.025.08-Feb-2020 3159.51 4881.52 68.49 5.00 144.85 2654.38
   10:07:14.225.08-Feb-2020 3159.51 4881.74 68.49 5.00 145.05 2654.38
   10:07:14.425.08-Feb-2020 3159.51 4881.74 68.49 5.00 145.25 2654.38
   10:07:14.625.08-Feb-2020 3159.51 4881.42 68.49 5.00 145.45 2654.38
   10:07:14.825.08-Feb-2020 3159.51 4882.11 68.49 5.00 145.65 2654.38
   10:07:15.025.08-Feb-2020 3159.51 4881.23 68.49 5.00 145.85 2654.38
   10:07:15.225.08-Feb-2020 3159.51 4881.35 68.49 5.00 146.05 2654.38
   10:07:15.426.08-Feb-2020 3159.51 4881.35 68.49 5.00 146.25 2654.38
   10:07:15.626.08-Feb-2020 3159.51 4881.10 68.49 5.00 146.45 2654.38
   10:07:15.826.08-Feb-2020 3159.51 4881.16 68.49 5.00 146.65 2654.38
   10:07:16.026.08-Feb-2020 3159.51 4881.58 68.49 5.00 146.85 2654.38
   10:07:16.226.08-Feb-2020 3159.51 4881.63 68.49 5.00 147.05 2654.38
   10:07:16.426.08-Feb-2020 3159.51 4881.63 68.49 5.00 147.25 2654.38
   10:07:16.626.08-Feb-2020 3159.51 4882.05 68.49 5.00 147.45 2654.38
   10:07:16.826.08-Feb-2020 3159.51 4881.23 68.49 5.00 147.65 2654.38
   10:07:17.026.08-Feb-2020 3159.51 4881.40 68.49 5.00 147.85 2654.38
   10:07:17.226.08-Feb-2020 3159.51 4881.44 68.49 5.00 148.05 2654.38
   10:07:17.426.08-Feb-2020 3159.51 4881.44 68.49 5.00 148.25 2654.38
   10:07:17.626.08-Feb-2020 3159.51 4881.55 68.49 5.00 148.45 2654.38
   10:07:17.826.08-Feb-2020 3159.51 4881.58 68.49 5.00 148.65 2654.38
   10:07:18.026.08-Feb-2020 3159.51 4881.60 68.49 5.00 148.85 2654.38
   10:07:18.226.08-Feb-2020 3159.51 4881.58 68.49 5.00 149.05 2654.38
   10:07:18.426.08-Feb-2020 3159.51 4881.58 68.49 5.00 149.25 2654.38
   10:07:18.627.08-Feb-2020 3159.51 4881.53 68.49 5.00 149.45 2654.38
   10:07:18.827.08-Feb-2020 3159.51 4881.55 68.49 5.00 149.65 2654.38
   10:07:19.027.08-Feb-2020 3159.51 4881.53 68.49 5.00 149.85 2654.38
   10:07:19.227.08-Feb-2020 3159.51 4881.59 68.49 5.00 150.05 2654.38
   10:07:19.427.08-Feb-2020 3159.51 4881.59 68.49 5.00 150.25 2654.38
   10:07:19.627.08-Feb-2020 3159.51 4881.58 68.49 5.00 150.45 2654.38
   10:07:19.827.08-Feb-2020 3159.51 4881.58 68.49 5.00 150.65 2654.38
   10:07:20.027.08-Feb-2020 3159.51 4881.53 68.49 5.00 150.85 2654.38
   10:07:20.227.08-Feb-2020 3159.51 4881.56 68.49 5.00 151.05 2654.38
   10:07:20.427.08-Feb-2020 3159.51 4881.56 68.49 5.00 151.25 2654.38
   10:07:20.627.08-Feb-2020 3159.51 4881.56 68.49 5.00 151.45 2654.38
   10:07:20.827.08-Feb-2020 3159.51 4881.53 68.49 5.00 151.65 2654.38
   10:07:21.027.08-Feb-2020 3159.51 4882.36 68.49 5.00 151.85 2654.38
   10:07:21.227.08-Feb-2020 3159.51 4881.10 68.49 5.00 152.05 2654.38
   10:07:21.427.08-Feb-2020 3159.51 4881.10 68.49 5.00 152.25 2654.38
   10:07:21.627.08-Feb-2020 3159.51 4882.16 68.49 5.00 152.45 2654.38
   10:07:21.828.08-Feb-2020 3159.51 4881.22 68.49 5.00 152.65 2654.38
   10:07:22.028.08-Feb-2020 3159.51 4881.09 68.49 5.00 152.85 2654.38
   10:07:22.228.08-Feb-2020 3159.51 4881.43 68.49 5.00 153.05 2654.38
   10:07:22.428.08-Feb-2020 3159.51 4881.43 68.49 5.00 153.25 2654.38
   10:07:22.628.08-Feb-2020 3159.51 4881.32 68.49 5.00 153.45 2654.38
   10:07:22.828.08-Feb-2020 3159.51 4882.35 68.49 5.00 153.65 2654.38
   10:07:23.028.08-Feb-2020 3159.51 4881.10 68.49 5.00 153.85 2654.38
   10:07:23.228.08-Feb-2020 3159.51 4881.13 68.49 5.00 154.05 2654.38
   10:07:23.428.08-Feb-2020 3159.51 4881.13 68.49 5.00 154.25 2654.38
   10:07:23.628.08-Feb-2020 3159.51 4882.07 68.49 5.00 154.45 2654.38
   10:07:23.828.08-Feb-2020 3159.51 4881.30 68.49 5.00 154.65 2654.38
   10:07:24.028.08-Feb-2020 3159.51 4881.40 68.49 5.00 154.85 2654.38
   10:07:24.228.08-Feb-2020 3159.51 4881.65 68.49 5.00 155.05 2654.38
   10:07:24.428.08-Feb-2020 3159.51 4881.65 68.49 5.00 155.25 2654.38
   10:07:24.628.08-Feb-2020 3159.51 4881.53 68.49 5.00 155.45 2654.38
   10:07:24.828.08-Feb-2020 3159.51 4881.61 68.49 5.00 155.65 2654.38
   10:07:25.029.08-Feb-2020 3159.51 4881.55 68.49 5.00 155.85 2654.38
   10:07:25.229.08-Feb-2020 3159.51 4881.54 68.49 5.00 156.05 2654.38
   10:07:25.429.08-Feb-2020 3159.51 4881.54 68.49 5.00 156.25 2654.38
   10:07:25.629.08-Feb-2020 3159.51 4881.59 68.49 5.00 156.45 2654.38
   10:07:25.829.08-Feb-2020 3159.51 4882.22 68.49 5.00 156.65 2654.38
   10:07:26.029.08-Feb-2020 3159.51 4880.96 68.49 5.00 156.85 2654.38
   10:07:26.229.08-Feb-2020 3159.51 4881.23 68.49 5.00 157.05 2654.38
   10:07:26.429.08-Feb-2020 3159.51 4881.23 68.49 5.00 157.25 2654.38
   10:07:26.629.08-Feb-2020 3159.51 4881.64 68.49 5.00 157.45 2654.38
   10:07:26.829.08-Feb-2020 3159.51 4881.45 68.49 5.00 157.65 2654.38
   10:07:27.029.08-Feb-2020 3159.51 4881.56 68.49 5.00 157.85 2654.38
   10:07:27.229.08-Feb-2020 3159.51 4881.56 68.49 5.00 158.05 2654.38
   10:07:27.429.08-Feb-2020 3159.51 4881.56 68.49 5.00 158.25 2654.38
   10:07:27.629.08-Feb-2020 3159.51 4881.53 68.49 5.00 158.45 2654.38
   10:07:27.829.08-Feb-2020 3159.51 4881.60 68.49 5.00 158.65 2654.38
   10:07:28.029.08-Feb-2020 3159.51 4881.60 68.49 5.00 158.85 2654.38
   10:07:28.230.08-Feb-2020 3159.51 4881.42 68.49 5.00 159.05 2654.38
   10:07:28.430.08-Feb-2020 3159.51 4881.42 68.49 5.00 159.25 2654.38
   10:07:28.630.08-Feb-2020 3159.51 4881.47 68.49 5.00 159.45 2654.38
   10:07:28.830.08-Feb-2020 3159.51 4881.69 68.49 5.00 159.65 2654.38
   10:07:29.030.08-Feb-2020 3159.51 4881.70 68.49 5.00 159.85 2654.38
   10:07:29.230.08-Feb-2020 3159.51 4881.25 68.49 5.00 160.05 2654.38
   10:07:29.430.08-Feb-2020 3159.51 4881.25 68.49 5.00 160.25 2654.38
   10:07:29.630.08-Feb-2020 3159.51 4881.45 68.49 5.00 160.45 2654.38
   10:07:29.830.08-Feb-2020 3159.51 4881.73 68.49 5.00 160.65 2654.38
   10:07:30.030.08-Feb-2020 3159.51 4881.57 68.49 5.00 160.85 2654.38
