~Version Information
 VERS.                  2.0:   CWLS log ASCII Standard -VERSION 2.0
 WRAP.                   NO:   One line per depth step
~Well Information Block
#MNEM.UNIT     VALUE/NAME     DESCRIPTION
#---------     -----------    ---------------------------
 STRT.S             09:08:12 08-Feb-20: START TIME 09:08:12 08-Feb-20
 STOP.S             09:14:54 08-Feb-20: STOP TIME  09:14:54 08-Feb-20
 STEP.S                   0.00: STEP TIME
 NULL.                 -999.25: NULL VALUE
 DFWT.                        :  DIST FWL TEXT
 DFST.                        :  DIST FSL TEXT
 DMF .             Drill Floor:  DRILL MEAS FROM
 STIM.      07.00.00 09-Jan-20:  START TIME
 DATE.      14.04.48 07-Feb-20:  END TIME
 SPUD.               09-Jan-20:  SPUD DATE
 NREF.                    Grid:  NORTH REFERENCE
 HPTY.       Minimum Curvature:  HOLE POS TYPE
 DMOD.             Drill Model:  DRILL MOD DESC
 SVYD.                  Survey:  SURVEY DESC
 ILTD.               Lithology:  INTERP LTH DESC
 FTOP.          Formation Tops:  FORM TOPS DESC
 SON .        AZ-XX-0905059384:  JOB NUMBER
 MDS .        Operator Entered:  MAG DATA SOURCE
 WTYP.                Deviated:  WELL TYPE
 COMP.     BP Exploration (Caspian Sea) Ltd.:  COMPANY
 UWI .                     N/A:  UNIQUE WELL IDENTIFIER
 API .                     N/A:  API NUMBER
 BASE.              Azerbaijan:  LOGGING EQUIPMENT BASE LOCATION
 REGN.                   EESSA:  REGION
 PROV.                    Baku:  PROVINCE
 STAT.                    Baku:  STATE NAME
 CTRY.              Azerbaijan:  COUNTRY NAME
 FLD .                     ACG:  FIELD NAME
 SRVC.     TURAN Drilling & Engineering:  CONTRACTOR
 MWDS.                    Baku:  MWD SHOP
 WELL.                     J22:  WELL NAME
 RIG .             West Chirag:  RIG NAME
 DOE .                     N/A:  DOE NUMBER
 DCON.         Sperry Drilling:  DIRECTNL CONTR
 UNIT.                     N/A:  LOGGING EQUIPMENT ID
 PDAT.          Mean Sea Level:  PERMANENT DATUM
 JOBN.        AZ-XX-0905059384:  JOB TICKET NUMB
 CNTY.                        :  COUNTY
 LOC .                        :  LOCATION
 LMF .             Drill Floor:  LOG MEASURED FROM
 TVDS.m                  43.00:  TVDSS CORRECTN
 LATI.deg                40.13:  LATITUDE
 LONG.deg                51.22:  LONGITUDE
 WHNS.m                  10.28:  WELL HEAD N/S
 WHEW.m                  -6.24:  WELL HEAD E/W
 UTMX.m              519005.06:  UTM X
 UTMY.m             4443793.85:  UTM Y
 DFWL.m                   0.00:  DISTANCE FWL
 DFSL.m                   0.00:  DISTANCE FSL
 SDEP.m                 362.00:  START DEPTH
 TDD .m                 904.00:  TOTAL DEPTH (DRILLER)
 VSDR.deg               148.53:  VERT SEC DIRECT
 GVFD.g                   1.00:  GRAVITY FIELD
 MFLD.nT              50277.00:  MAGNETIC FIELD
 MDIP.deg                59.56:  MAGNETIC DIP
 MDEC.deg                 6.42:  MAGNETIC DECL
 GRDC.deg                 0.15:  GRID CORRECTION
 AZTC.deg                 6.27:  AZM TOTAL CORR
 EPD .m                   0.00:  ELEVATION
 EGL .m                   0.00:  GROUND ELEVATION
 WDMS.m                 169.80:  WD ELEV
 APD .m                  43.00:  DEPTH ABOVE PD
 AGAP.m                  43.00:  AIR GAP
 VSEW.m                  -6.24:  VERT SEC E/W
 VSNS.m                  10.28:  VERT SEC N/S
 DEP .m                   0.00:  DEPTH
 EKB .m                   0.00:  KB ELEVATION
 EDF .m                  43.00:  DF ELEVATION
 TDL .m                1183.00:  TOTAL DEPTH (LOGGER)
 VSC .                       0:  VS TO CLOSURE
 MAGU.                 1850021:  MAGUTM CHECKSUM
~Parameter Information Block
#MNEM.UNIT       Value        Description
#---------     -----------    ---------------------------
 AV  .mps                 4.00:  Ann Velocity 
 AVMX.mps                 4.50:  Max Ann Veloc 
 AZIF.deg               145.38:  Azm, Final 
 BHAT.        Rotary Steerable:  BHA Type 
 BROT.°/30m               3.00:  Build Rotating 
 BS  .in                 12.25:  Bit Size 
 BSZ .in                 12.25:  Bit Size 
 BTPL.psig              650.00:  Bit Press Loss 
 CABU.                      No:  Customer Abuse 
 COMM.                     T!k:  Run Comments 1 
 TCS .hr                101.62:  Time Ciculation Ended 
 CV  .mps                 5.00:  Crit Velocity 
 CVMX.mps                 5.00:  Max Crit Veloc 
 DD1 .             Aziz Aliyev:  Direct Drillr 1 
 DD2 .      Fakhraddin Guliyev:  Direct Drillr 2 
 DDSV.                 iCruise:  DD Service 
 DEFF.%                  97.00:  % Det Eff 
 DLRX.°/30m               4.16:  Dogleg Rot Max 
 DLSO.°/30m               3.20:  Dogleg Oriented 
 DLSX.°/30m               4.10:  Dogleg Str Max 
 DRET.      23.12.00 07-Feb-20:  Drill End Time 
 DRST.      11.30.00 04-Feb-20:  Drill Start Tim 
 DTIM.hr                 61.06:  Time Drilling 
 EDEP.m                3219.01:  End Depth 
 ENG1.         Almaz Almadatov:  Engineer 1 
 ENG2.         Dair Mahammadov:  Engineer 2 
 ENG3.          Nazrin Asgarli:  Engineer 3 
 ETIM.      02.30.00 11-Feb-20:  End Time 
 FLOI.gpm              1100.00:  Flow In 
 FLON.gpm               900.00:  Flow In Min 
 FLOS.cptm               55.00:  Fluid Loss 
 FLOX.gpm              1150.00:  Flow In Max 
 FTRO.       Formation Presure:  FTWD Run Obj 
 HFLO.                      No:  High Flow 
 HPRE.                      No:  High Pressure 
 HTEM.                      No:  High Temp 
 HYDO.m                   1.80:  Hydro Offset 
 IFIN.deg                75.11:  Inc, Final 
 IMAX.deg                75.11:  Inc Max 
 IMIN.deg                33.55:  Inc Min 
 IMND.m                2186.05:  Inc Min Depth 
 IMXD.m                3205.61:  Inc Max Depth 
 JARR.                      No:  Jarring 
 LETM.      23.12.00 07-Feb-20:  Log End Time 
 LOST.hr                     0:  Lost Rig Time 
 LSTM.      11.30.00 04-Feb-20:  Log Start Time 
 MDCL.ppm             40000.00:  Mud Chlorides 
 MDES.     Inversion Oil/Synthetic:  Mud Desc 
 DFD .sg                  1.49:  Mud Density 
 MDMN.sg                  1.49:  Dens Mud Min 
 MDMX.sg                  1.49:  Dens Mud Max 
 MOIL.                      73:  Run Mud Oil % 
 MOWR.                   73:27:  Run Mud OWR 
 MSND.                     0.1:  Run Mud Sand % 
 MSOL.                    20.1:  Run Mud Solids% 
 DFV .spqt               78.00:  Mud Viscosity 
 MWOD.in                  8.00:  MWD Tool OD 
 MWSI.                      No:  Serv Intrp, MWD 
 OTIM.hr                177.15:  Time Operating 
 PCON.          Wear / Scratch:  Pad Condition 
 PMAX.psia            10493.93:  Press Op, Max 
 PV  .cP                 73.00:  Mud PV 
 RUN .                     700:  Run Number 
 ROPA.m/hr               15.00:  ROP Avg 
 ROPN.m/hr               10.00:  ROP Min 
 ROPX.m/hr               35.00:  ROP Max 
 RPMA.rpm               130.00:  RPM Surface Avg 
 RPMN.rpm                80.00:  RPM Surface Min 
 RPMX.rpm               150.00:  RPM Surface Max 
 RRUN.                    L402:  Rig Run Number 
 RTIM.hr                 80.50:  Time Reaming 
 SAZI.deg               155.55:  Azm, Start 
 SDEP.m                2036.00:  Start Depth 
 SIDD.                      No:  Serv Intrp, DD 
 SINC.deg                35.44:  Inc, Start 
 SPPA.psig             4270.00:  SPP Avg 
 SPPN.psig             2800.00:  SPP Min 
 SPPX.psig             4850.00:  SPP Max 
 STIM.      09.30.00 03-Feb-20:  Start Time 
 SVCS.                 DD, MWD:  Services 
 SVER.                    9.20:  Sperry Version 
 TDAT.m                1183.00:  Tot Depth Attmp 
 TDDF.                      No:  Trip for DD 
 TDLG.m                1183.00:  Tot Depth Loggd 
 TFF .                      No:  Trip for Fail 
 TQAA.f-kp               16.00:  Torque Abs Avg 
 TQAN.f-kp               10.00:  Torque Abs Min 
 TQAX.f-kp               20.00:  Torque Abs Max 
 TRRT.°/30m               1.00:  Turn Rotating 
 MRT .                  EWR-M5:  Maximum Recorded Temperature 
 TTMX.degC               80.39:  Max Tool Temp 
 VS01.               13098498 :  Virtual Str1 SN 
 VS02.                90569596:  Virtual Str2 SN 
 VS03.                90523599:  Virtual Str3 SN 
 VS04.                90573553:  Virtual Str4 SN 
 VS05.                90598598:  Virtual Str5 SN 
 VS06.                90577297:  Virtual Str6 SN 
 WBMN.klb                13.00:  WOB Min 
 WITN.         Alistair Sprott:  Customer Rep 
 WITN.           Rufat Babayev:  Customer Rep 2 
 WOBA.klb                15.00:  WOB Avg 
 WOBX.klb                20.00:  WOB Max 
 YP  .lhf2               39.00:  Yield Point 
~Curve Information Block
#MNEM.UNIT                 API CODE     Curve Description
#---------               -----------    ---------------------------
 TIME.HHMMSS            00 000 000 000:  GT Time & Date
 GTDEPTH.m              00 000 000 000:  GT Depth
 GTPQH.psia             00 000 000 000:  GT HR Quartz Pressure
 GTTQ.degC              00 000 000 000:  GT Quartz Temperature
 GTTN.NONE              00 000 000 000:  GT Test Number
 GTET.sec               00 000 000 000:  GT Elapsed Test Time
 GTTVD.m                00 000 000 000:  GT True Vertical Depth
#Other Information
#
#WARRANTY: Halliburton will use its best efforts to furnish customers with 
#accurate information and interpretations that are part of, and incident to, the services 
#provided.  However, Halliburton cannot and does not warrant the accuracy 
#or correctness of such information and interpretations.  Under no circumstances should any 
#such information or interpretation be relied upon as the sole basis for any drilling, 
#completion, production, or financial decision or any procedure involving any risk to the 
#safety of any drilling venture, drilling rig or its crew or any other third party.  The 
#Customer has full responsibility for all drilling, completion and production operation.  
#Halliburton makes no representations or warranties, either expressed or 
#implied, including, but not limited to, the implied warranties of merchantability or fitness 
#for a particular purpose, with respect to the services rendered.  In no event will 
#Halliburton be liable for failure to obtain any particular results or for 
#any damages, including, but not limited to, indirect, special or consequential damages, 
#resulting from the use of any information or interpretation provided by Halliburton.
#
~A           TIME           GTDEPTH  GTPQH  GTTQ  GTTN  GTET   GTTVD  
# ...
   09:12:02.783.08-Feb-2020 3153.21 4822.97 69.84 3.00 230.02 2652.75
   09:12:02.983.08-Feb-2020 3153.21 4822.97 69.84 3.00 230.22 2652.75
   09:12:03.183.08-Feb-2020 3153.21 4823.55 69.84 3.00 230.42 2652.75
   09:12:03.383.08-Feb-2020 3153.21 4822.70 69.84 3.00 230.62 2652.75
   09:12:03.583.08-Feb-2020 3153.21 4822.83 69.84 3.00 230.82 2652.75
   09:12:03.783.08-Feb-2020 3153.21 4822.67 69.84 3.00 231.02 2652.75
   09:12:03.983.08-Feb-2020 3153.21 4822.67 69.84 3.00 231.22 2652.75
   09:12:04.183.08-Feb-2020 3153.21 4823.75 69.84 3.00 231.42 2652.75
   09:12:04.383.08-Feb-2020 3153.21 4821.75 69.84 3.00 231.62 2652.75
   09:12:04.583.08-Feb-2020 3153.21 4822.91 69.84 3.00 231.82 2652.75
   09:12:04.783.08-Feb-2020 3153.21 4822.66 69.84 3.00 232.02 2652.75
   09:12:04.983.08-Feb-2020 3153.21 4822.66 69.84 3.00 232.22 2652.75
   09:12:05.183.08-Feb-2020 3153.21 4823.07 69.84 3.00 232.42 2652.75
   09:12:05.383.08-Feb-2020 3153.21 4822.28 69.84 3.00 232.62 2652.75
   09:12:05.583.08-Feb-2020 3153.21 4823.09 69.84 3.00 232.82 2652.75
   09:12:05.783.08-Feb-2020 3153.21 4822.99 69.84 3.00 233.02 2652.75
   09:12:05.983.08-Feb-2020 3153.21 4822.99 69.84 3.00 233.22 2652.75
   09:12:06.183.08-Feb-2020 3153.21 4823.13 69.84 3.00 233.42 2652.75
   09:12:06.383.08-Feb-2020 3153.21 4822.82 69.84 3.00 233.62 2652.75
   09:12:06.583.08-Feb-2020 3153.21 4822.68 69.84 3.00 233.82 2652.75
   09:12:06.783.08-Feb-2020 3153.21 4822.90 69.84 3.00 234.02 2652.75
   09:12:06.983.08-Feb-2020 3153.21 4822.90 69.84 3.00 234.22 2652.75
   09:12:07.183.08-Feb-2020 3153.21 4823.08 69.84 3.00 234.42 2652.75
   09:12:07.383.08-Feb-2020 3153.21 4823.41 69.84 3.00 234.62 2652.75
   09:12:07.583.08-Feb-2020 3153.21 4822.68 69.84 3.00 234.82 2652.75
   09:12:07.783.08-Feb-2020 3153.21 4822.91 69.84 3.00 235.02 2652.75
   09:12:07.983.08-Feb-2020 3153.21 4822.91 69.84 3.00 235.22 2652.75
   09:12:08.183.08-Feb-2020 3153.21 4822.69 69.84 3.00 235.42 2652.75
   09:12:08.383.08-Feb-2020 3153.21 4822.90 69.84 3.00 235.62 2652.75
   09:12:08.583.08-Feb-2020 3153.21 4823.10 69.84 3.00 235.82 2652.75
   09:12:08.783.08-Feb-2020 3153.21 4822.82 69.84 3.00 236.02 2652.75
   09:12:08.983.08-Feb-2020 3153.21 4822.82 69.84 3.00 236.22 2652.75
   09:12:09.183.08-Feb-2020 3153.21 4823.43 69.84 3.00 236.42 2652.75
   09:12:09.383.08-Feb-2020 3153.21 4822.77 69.84 3.00 236.62 2652.75
   09:12:09.583.08-Feb-2020 3153.21 4822.58 69.84 3.00 236.82 2652.75
   09:12:09.784.08-Feb-2020 3153.21 4823.85 69.84 3.00 237.02 2652.75
   09:12:09.984.08-Feb-2020 3153.21 4823.85 69.84 3.00 237.22 2652.75
   09:12:10.184.08-Feb-2020 3153.21 4822.91 69.84 3.00 237.42 2652.75
   09:12:10.384.08-Feb-2020 3153.21 4823.17 69.84 3.00 237.62 2652.75
   09:12:10.584.08-Feb-2020 3153.21 4823.74 69.84 3.00 237.82 2652.75
   09:12:10.784.08-Feb-2020 3153.21 4822.69 69.84 3.00 238.02 2652.75
   09:12:10.984.08-Feb-2020 3153.21 4822.69 69.84 3.00 238.22 2652.75
   09:12:11.184.08-Feb-2020 3153.21 4822.75 69.84 3.00 238.42 2652.75
   09:12:11.384.08-Feb-2020 3153.21 4822.68 69.84 3.00 238.62 2652.75
   09:12:11.584.08-Feb-2020 3153.21 4823.77 69.84 3.00 238.82 2652.75
   09:12:11.784.08-Feb-2020 3153.21 4822.02 69.84 3.00 239.02 2652.75
   09:12:11.984.08-Feb-2020 3153.21 4822.02 69.84 3.00 239.22 2652.75
   09:12:12.184.08-Feb-2020 3153.21 4822.78 69.84 3.00 239.42 2652.75
   09:12:12.384.08-Feb-2020 3153.21 4823.22 69.84 3.00 239.62 2652.75
   09:12:12.584.08-Feb-2020 3153.21 4823.27 69.84 3.00 239.82 2652.75
   09:12:12.784.08-Feb-2020 3153.21 4822.37 69.84 3.00 240.02 2652.75
   09:12:12.984.08-Feb-2020 3153.21 4822.37 69.84 3.00 240.22 2652.75
   09:12:13.184.08-Feb-2020 3153.21 4823.02 69.84 3.00 240.42 2652.75
   09:12:13.384.08-Feb-2020 3153.21 4822.76 69.84 3.00 240.62 2652.75
   09:12:13.584.08-Feb-2020 3153.21 4823.10 69.83 3.00 240.82 2652.75
   09:12:13.784.08-Feb-2020 3153.21 4822.91 69.83 3.00 241.02 2652.75
   09:12:13.984.08-Feb-2020 3153.21 4822.91 69.83 3.00 241.22 2652.75
   09:12:14.184.08-Feb-2020 3153.21 4822.73 69.83 3.00 241.42 2652.75
   09:12:14.384.08-Feb-2020 3153.21 4822.66 69.83 3.00 241.62 2652.75
   09:12:14.584.08-Feb-2020 3153.21 4823.12 69.83 3.00 241.82 2652.75
   09:12:14.784.08-Feb-2020 3153.21 4823.01 69.83 3.00 242.02 2652.75
   09:12:14.984.08-Feb-2020 3153.21 4823.01 69.83 3.00 242.22 2652.75
   09:12:15.184.08-Feb-2020 3153.21 4822.93 69.83 3.00 242.42 2652.75
   09:12:15.384.08-Feb-2020 3153.21 4822.99 69.83 3.00 242.62 2652.75
   09:12:15.584.08-Feb-2020 3153.21 4822.81 69.83 3.00 242.82 2652.75
   09:12:15.784.08-Feb-2020 3153.21 4822.76 69.83 3.00 243.02 2652.75
   09:12:15.984.08-Feb-2020 3153.21 4822.76 69.83 3.00 243.22 2652.75
   09:12:16.184.08-Feb-2020 3153.21 4822.93 69.83 3.00 243.42 2652.75
   09:12:16.384.08-Feb-2020 3153.21 4822.86 69.83 3.00 243.62 2652.75
   09:12:16.584.08-Feb-2020 3153.21 4823.25 69.83 3.00 243.82 2652.75
   09:12:16.784.08-Feb-2020 3153.21 4822.92 69.83 3.00 244.02 2652.75
   09:12:16.984.08-Feb-2020 3153.21 4822.92 69.83 3.00 244.22 2652.75
   09:12:17.184.08-Feb-2020 3153.21 4823.75 69.83 3.00 244.42 2652.75
   09:12:17.384.08-Feb-2020 3153.21 4822.10 69.83 3.00 244.62 2652.75
   09:12:17.584.08-Feb-2020 3153.21 4822.61 69.83 3.00 244.82 2652.75
   09:12:17.784.08-Feb-2020 3153.21 4822.88 69.83 3.00 245.02 2652.75
   09:12:17.984.08-Feb-2020 3153.21 4822.88 69.83 3.00 245.22 2652.75
   09:12:18.184.08-Feb-2020 3153.21 4822.94 69.83 3.00 245.42 2652.75
   09:12:18.384.08-Feb-2020 3153.21 4822.85 69.83 3.00 245.62 2652.75
   09:12:18.584.08-Feb-2020 3153.21 4822.84 69.83 3.00 245.82 2652.75
   09:12:18.784.08-Feb-2020 3153.21 4822.73 69.83 3.00 246.02 2652.75
   09:12:18.984.08-Feb-2020 3153.21 4822.73 69.83 3.00 246.22 2652.75
   09:12:19.184.08-Feb-2020 3153.21 4822.22 69.83 3.00 246.42 2652.75
   09:12:19.384.08-Feb-2020 3153.21 4823.01 69.83 3.00 246.62 2652.75
   09:12:19.584.08-Feb-2020 3153.21 4822.70 69.83 3.00 246.82 2652.75
   09:12:19.784.08-Feb-2020 3153.21 4822.95 69.83 3.00 247.02 2652.75
   09:12:19.984.08-Feb-2020 3153.21 4822.95 69.83 3.00 247.22 2652.75
   09:12:20.184.08-Feb-2020 3153.21 4822.58 69.83 3.00 247.42 2652.75
   09:12:20.384.08-Feb-2020 3153.21 4822.77 69.83 3.00 247.62 2652.75
   09:12:20.584.08-Feb-2020 3153.21 4823.11 69.83 3.00 247.82 2652.75
   09:12:20.784.08-Feb-2020 3153.21 4822.70 69.83 3.00 248.02 2652.75
   09:12:20.984.08-Feb-2020 3153.21 4822.70 69.83 3.00 248.22 2652.75
   09:12:21.184.08-Feb-2020 3153.21 4822.96 69.83 3.00 248.42 2652.75
   09:12:21.384.08-Feb-2020 3153.21 4822.54 69.83 3.00 248.62 2652.75
   09:12:21.585.08-Feb-2020 3153.21 4822.83 69.83 3.00 248.82 2652.75
   09:12:21.785.08-Feb-2020 3153.21 4822.87 69.83 3.00 249.02 2652.75
   09:12:21.985.08-Feb-2020 3153.21 4822.87 69.83 3.00 249.22 2652.75
   09:12:22.185.08-Feb-2020 3153.21 4822.16 69.83 3.00 249.42 2652.75
   09:12:22.385.08-Feb-2020 3153.21 4823.13 69.83 3.00 249.62 2652.75
   09:12:22.585.08-Feb-2020 3153.21 4822.81 69.83 3.00 249.82 2652.75
   09:12:22.785.08-Feb-2020 3153.21 4822.85 69.83 3.00 250.02 2652.75
   09:12:22.985.08-Feb-2020 3153.21 4822.85 69.83 3.00 250.22 2652.75
   09:12:23.185.08-Feb-2020 3153.21 4822.75 69.83 3.00 250.42 2652.75
   09:12:23.385.08-Feb-2020 3153.21 4822.75 69.83 3.00 250.62 2652.75
   09:12:23.585.08-Feb-2020 3153.21 4822.94 69.83 3.00 250.82 2652.75
   09:12:23.785.08-Feb-2020 3153.21 4822.73 69.83 3.00 251.02 2652.75
   09:12:23.985.08-Feb-2020 3153.21 4822.73 69.83 3.00 251.22 2652.75
   09:12:24.185.08-Feb-2020 3153.21 4823.41 69.83 3.00 251.42 2652.75
   09:12:24.385.08-Feb-2020 3153.21 4822.75 69.83 3.00 251.62 2652.75
   09:12:24.585.08-Feb-2020 3153.21 4822.57 69.83 3.00 251.82 2652.75
   09:12:24.785.08-Feb-2020 3153.21 4823.45 69.83 3.00 252.02 2652.75
   09:12:24.985.08-Feb-2020 3153.21 4823.45 69.83 3.00 252.22 2652.75
   09:12:25.185.08-Feb-2020 3153.21 4822.44 69.83 3.00 252.42 2652.75
   09:12:25.385.08-Feb-2020 3153.21 4823.54 69.83 3.00 252.62 2652.75
   09:12:25.585.08-Feb-2020 3153.21 4823.93 69.83 3.00 252.82 2652.75
