~Version Information
 VERS.                  2.0:   CWLS log ASCII Standard -VERSION 2.0
 WRAP.                   NO:   One line per depth step
~Well Information Block
#MNEM.UNIT     VALUE/NAME     DESCRIPTION
#---------     -----------    ---------------------------
 STRT.S             08:41:50 08-Feb-20: START TIME 08:41:50 08-Feb-20
 STOP.S             08:48:48 08-Feb-20: STOP TIME  08:48:48 08-Feb-20
 STEP.S                   0.00: STEP TIME
 NULL.                 -999.25: NULL VALUE
 DFWT.                        :  DIST FWL TEXT
 DFST.                        :  DIST FSL TEXT
 DMF .             Drill Floor:  DRILL MEAS FROM
 STIM.      07.00.00 09-Jan-20:  START TIME
 DATE.      14.04.48 07-Feb-20:  END TIME
 SPUD.               09-Jan-20:  SPUD DATE
 NREF.                    Grid:  NORTH REFERENCE
 HPTY.       Minimum Curvature:  HOLE POS TYPE
 DMOD.             Drill Model:  DRILL MOD DESC
 SVYD.                  Survey:  SURVEY DESC
 ILTD.               Lithology:  INTERP LTH DESC
 FTOP.          Formation Tops:  FORM TOPS DESC
 SON .        AZ-XX-0905059384:  JOB NUMBER
 MDS .        Operator Entered:  MAG DATA SOURCE
 WTYP.                Deviated:  WELL TYPE
 COMP.     BP Exploration (Caspian Sea) Ltd.:  COMPANY
 UWI .                     N/A:  UNIQUE WELL IDENTIFIER
 API .                     N/A:  API NUMBER
 BASE.              Azerbaijan:  LOGGING EQUIPMENT BASE LOCATION
 REGN.                   EESSA:  REGION
 PROV.                    Baku:  PROVINCE
 STAT.                    Baku:  STATE NAME
 CTRY.              Azerbaijan:  COUNTRY NAME
 FLD .                     ACG:  FIELD NAME
 SRVC.     TURAN Drilling & Engineering:  CONTRACTOR
 MWDS.                    Baku:  MWD SHOP
 WELL.                     J22:  WELL NAME
 RIG .             West Chirag:  RIG NAME
 DOE .                     N/A:  DOE NUMBER
 DCON.         Sperry Drilling:  DIRECTNL CONTR
 UNIT.                     N/A:  LOGGING EQUIPMENT ID
 PDAT.          Mean Sea Level:  PERMANENT DATUM
 JOBN.        AZ-XX-0905059384:  JOB TICKET NUMB
 CNTY.                        :  COUNTY
 LOC .                        :  LOCATION
 LMF .             Drill Floor:  LOG MEASURED FROM
 TVDS.m                  43.00:  TVDSS CORRECTN
 LATI.deg                40.13:  LATITUDE
 LONG.deg                51.22:  LONGITUDE
 WHNS.m                  10.28:  WELL HEAD N/S
 WHEW.m                  -6.24:  WELL HEAD E/W
 UTMX.m              519005.06:  UTM X
 UTMY.m             4443793.85:  UTM Y
 DFWL.m                   0.00:  DISTANCE FWL
 DFSL.m                   0.00:  DISTANCE FSL
 SDEP.m                 362.00:  START DEPTH
 TDD .m                 904.00:  TOTAL DEPTH (DRILLER)
 VSDR.deg               148.53:  VERT SEC DIRECT
 GVFD.g                   1.00:  GRAVITY FIELD
 MFLD.nT              50277.00:  MAGNETIC FIELD
 MDIP.deg                59.56:  MAGNETIC DIP
 MDEC.deg                 6.42:  MAGNETIC DECL
 GRDC.deg                 0.15:  GRID CORRECTION
 AZTC.deg                 6.27:  AZM TOTAL CORR
 EPD .m                   0.00:  ELEVATION
 EGL .m                   0.00:  GROUND ELEVATION
 WDMS.m                 169.80:  WD ELEV
 APD .m                  43.00:  DEPTH ABOVE PD
 AGAP.m                  43.00:  AIR GAP
 VSEW.m                  -6.24:  VERT SEC E/W
 VSNS.m                  10.28:  VERT SEC N/S
 DEP .m                   0.00:  DEPTH
 EKB .m                   0.00:  KB ELEVATION
 EDF .m                  43.00:  DF ELEVATION
 TDL .m                1183.00:  TOTAL DEPTH (LOGGER)
 VSC .                       0:  VS TO CLOSURE
 MAGU.                 1850021:  MAGUTM CHECKSUM
~Parameter Information Block
#MNEM.UNIT       Value        Description
#---------     -----------    ---------------------------
 AV  .mps                 4.00:  Ann Velocity 
 AVMX.mps                 4.50:  Max Ann Veloc 
 AZIF.deg               145.38:  Azm, Final 
 BHAT.        Rotary Steerable:  BHA Type 
 BROT.°/30m               3.00:  Build Rotating 
 BS  .in                 12.25:  Bit Size 
 BSZ .in                 12.25:  Bit Size 
 BTPL.psig              650.00:  Bit Press Loss 
 CABU.                      No:  Customer Abuse 
 COMM.                     [:  Run Comments 1 
 TCS .hr                101.62:  Time Ciculation Ended 
 CV  .mps                 5.00:  Crit Velocity 
 CVMX.mps                 5.00:  Max Crit Veloc 
 DD1 .             Aziz Aliyev:  Direct Drillr 1 
 DD2 .      Fakhraddin Guliyev:  Direct Drillr 2 
 DDSV.                 iCruise:  DD Service 
 DEFF.%                  97.00:  % Det Eff 
 DLRX.°/30m               4.16:  Dogleg Rot Max 
 DLSO.°/30m               3.20:  Dogleg Oriented 
 DLSX.°/30m               4.10:  Dogleg Str Max 
 DRET.      23.12.00 07-Feb-20:  Drill End Time 
 DRST.      11.30.00 04-Feb-20:  Drill Start Tim 
 DTIM.hr                 61.06:  Time Drilling 
 EDEP.m                3219.01:  End Depth 
 ENG1.         Almaz Almadatov:  Engineer 1 
 ENG2.         Dair Mahammadov:  Engineer 2 
 ENG3.          Nazrin Asgarli:  Engineer 3 
 ETIM.      02.30.00 11-Feb-20:  End Time 
 FLOI.gpm              1100.00:  Flow In 
 FLON.gpm               900.00:  Flow In Min 
 FLOS.cptm               55.00:  Fluid Loss 
 FLOX.gpm              1150.00:  Flow In Max 
 FTRO.       Formation Presure:  FTWD Run Obj 
 HFLO.                      No:  High Flow 
 HPRE.                      No:  High Pressure 
 HTEM.                      No:  High Temp 
 HYDO.m                   1.80:  Hydro Offset 
 IFIN.deg                75.11:  Inc, Final 
 IMAX.deg                75.11:  Inc Max 
 IMIN.deg                33.55:  Inc Min 
 IMND.m                2186.05:  Inc Min Depth 
 IMXD.m                3205.61:  Inc Max Depth 
 JARR.                      No:  Jarring 
 LETM.      23.12.00 07-Feb-20:  Log End Time 
 LOST.hr                     0:  Lost Rig Time 
 LSTM.      11.30.00 04-Feb-20:  Log Start Time 
 MDCL.ppm             40000.00:  Mud Chlorides 
 MDES.     Inversion Oil/Synthetic:  Mud Desc 
 DFD .sg                  1.49:  Mud Density 
 MDMN.sg                  1.49:  Dens Mud Min 
 MDMX.sg                  1.49:  Dens Mud Max 
 MOIL.                      73:  Run Mud Oil % 
 MOWR.                   73:27:  Run Mud OWR 
 MSND.                     0.1:  Run Mud Sand % 
 MSOL.                    20.1:  Run Mud Solids% 
 DFV .spqt               78.00:  Mud Viscosity 
 MWOD.in                  8.00:  MWD Tool OD 
 MWSI.                      No:  Serv Intrp, MWD 
 OTIM.hr                177.15:  Time Operating 
 PCON.          Wear / Scratch:  Pad Condition 
 PMAX.psia            10493.93:  Press Op, Max 
 PV  .cP                 73.00:  Mud PV 
 RUN .                     700:  Run Number 
 ROPA.m/hr               15.00:  ROP Avg 
 ROPN.m/hr               10.00:  ROP Min 
 ROPX.m/hr               35.00:  ROP Max 
 RPMA.rpm               130.00:  RPM Surface Avg 
 RPMN.rpm                80.00:  RPM Surface Min 
 RPMX.rpm               150.00:  RPM Surface Max 
 RRUN.                    L402:  Rig Run Number 
 RTIM.hr                 80.50:  Time Reaming 
 SAZI.deg               155.55:  Azm, Start 
 SDEP.m                2036.00:  Start Depth 
 SIDD.                      No:  Serv Intrp, DD 
 SINC.deg                35.44:  Inc, Start 
 SPPA.psig             4270.00:  SPP Avg 
 SPPN.psig             2800.00:  SPP Min 
 SPPX.psig             4850.00:  SPP Max 
 STIM.      09.30.00 03-Feb-20:  Start Time 
 SVCS.                 DD, MWD:  Services 
 SVER.                    9.20:  Sperry Version 
 TDAT.m                1183.00:  Tot Depth Attmp 
 TDDF.                      No:  Trip for DD 
 TDLG.m                1183.00:  Tot Depth Loggd 
 TFF .                      No:  Trip for Fail 
 TQAA.f-kp               16.00:  Torque Abs Avg 
 TQAN.f-kp               10.00:  Torque Abs Min 
 TQAX.f-kp               20.00:  Torque Abs Max 
 TRRT.°/30m               1.00:  Turn Rotating 
 MRT .                  EWR-M5:  Maximum Recorded Temperature 
 TTMX.degC               80.39:  Max Tool Temp 
 VS01.               13098498 :  Virtual Str1 SN 
 VS02.                90569596:  Virtual Str2 SN 
 VS03.                90523599:  Virtual Str3 SN 
 VS04.                90573553:  Virtual Str4 SN 
 VS05.                90598598:  Virtual Str5 SN 
 VS06.                90577297:  Virtual Str6 SN 
 WBMN.klb                13.00:  WOB Min 
 WITN.         Alistair Sprott:  Customer Rep 
 WITN.           Rufat Babayev:  Customer Rep 2 
 WOBA.klb                15.00:  WOB Avg 
 WOBX.klb                20.00:  WOB Max 
 YP  .lhf2               39.00:  Yield Point 
~Curve Information Block
#MNEM.UNIT                 API CODE     Curve Description
#---------               -----------    ---------------------------
 TIME.HHMMSS            00 000 000 000:  GT Time & Date
 GTDEPTH.m              00 000 000 000:  GT Depth
 GTPQH.psia             00 000 000 000:  GT HR Quartz Pressure
 GTTQ.degC              00 000 000 000:  GT Quartz Temperature
 GTTN.NONE              00 000 000 000:  GT Test Number
 GTET.sec               00 000 000 000:  GT Elapsed Test Time
 GTTVD.m                00 000 000 000:  GT True Vertical Depth
#Other Information
#
#WARRANTY: Halliburton will use its best efforts to furnish customers with 
#accurate information and interpretations that are part of, and incident to, the services 
#provided.  However, Halliburton cannot and does not warrant the accuracy 
#or correctness of such information and interpretations.  Under no circumstances should any 
#such information or interpretation be relied upon as the sole basis for any drilling, 
#completion, production, or financial decision or any procedure involving any risk to the 
#safety of any drilling venture, drilling rig or its crew or any other third party.  The 
#Customer has full responsibility for all drilling, completion and production operation.  
#Halliburton makes no representations or warranties, either expressed or 
#implied, including, but not limited to, the implied warranties of merchantability or fitness 
#for a particular purpose, with respect to the services rendered.  In no event will 
#Halliburton be liable for failure to obtain any particular results or for 
#any damages, including, but not limited to, indirect, special or consequential damages, 
#resulting from the use of any information or interpretation provided by Halliburton.
#
~A           TIME           GTDEPTH  GTPQH  GTTQ  GTTN  GTET   GTTVD  
# ...
   08:44:31.645.08-Feb-2020 3153.01 5766.80 71.16 2.00 161.01 2652.69
   08:44:31.845.08-Feb-2020 3153.01 5766.80 71.16 2.00 161.21 2652.69
   08:44:32.045.08-Feb-2020 3153.01 5770.12 71.16 2.00 161.41 2652.69
   08:44:32.245.08-Feb-2020 3153.01 5765.91 71.16 2.00 161.61 2652.69
   08:44:32.445.08-Feb-2020 3153.01 5763.42 71.16 2.00 161.81 2652.69
   08:44:32.645.08-Feb-2020 3153.01 5764.88 71.16 2.00 162.01 2652.69
   08:44:32.845.08-Feb-2020 3153.01 5764.88 71.16 2.00 162.21 2652.69
   08:44:33.045.08-Feb-2020 3153.01 5768.34 71.15 2.00 162.41 2652.69
   08:44:33.245.08-Feb-2020 3153.01 5769.14 71.15 2.00 162.61 2652.69
   08:44:33.445.08-Feb-2020 3153.01 5767.00 71.15 2.00 162.81 2652.69
   08:44:33.645.08-Feb-2020 3153.01 5766.70 71.15 2.00 163.01 2652.69
   08:44:33.845.08-Feb-2020 3153.01 5766.70 71.15 2.00 163.21 2652.69
   08:44:34.045.08-Feb-2020 3153.01 5767.03 71.15 2.00 163.41 2652.69
   08:44:34.245.08-Feb-2020 3153.01 5767.58 71.15 2.00 163.61 2652.69
   08:44:34.445.08-Feb-2020 3153.01 5766.50 71.15 2.00 163.81 2652.69
   08:44:34.645.08-Feb-2020 3153.01 5766.27 71.15 2.00 164.01 2652.69
   08:44:34.845.08-Feb-2020 3153.01 5766.27 71.15 2.00 164.21 2652.69
   08:44:35.045.08-Feb-2020 3153.01 5765.75 71.15 2.00 164.41 2652.69
   08:44:35.245.08-Feb-2020 3153.01 5770.86 71.15 2.00 164.61 2652.69
   08:44:35.445.08-Feb-2020 3153.01 5765.35 71.15 2.00 164.81 2652.69
   08:44:35.645.08-Feb-2020 3153.01 5765.32 71.15 2.00 165.01 2652.69
   08:44:35.845.08-Feb-2020 3153.01 5765.32 71.15 2.00 165.21 2652.69
   08:44:36.045.08-Feb-2020 3153.01 5766.87 71.15 2.00 165.41 2652.69
   08:44:36.245.08-Feb-2020 3153.01 5766.40 71.15 2.00 165.61 2652.69
   08:44:36.445.08-Feb-2020 3153.01 5766.55 71.15 2.00 165.81 2652.69
   08:44:36.645.08-Feb-2020 3153.01 5765.87 71.15 2.00 166.01 2652.69
   08:44:36.845.08-Feb-2020 3153.01 5765.87 71.15 2.00 166.21 2652.69
   08:44:37.045.08-Feb-2020 3153.01 5765.74 71.15 2.00 166.41 2652.69
   08:44:37.245.08-Feb-2020 3153.01 5765.21 71.15 2.00 166.61 2652.69
   08:44:37.445.08-Feb-2020 3153.01 5768.14 71.15 2.00 166.81 2652.69
   08:44:37.645.08-Feb-2020 3153.01 5767.59 71.15 2.00 167.01 2652.69
   08:44:37.845.08-Feb-2020 3153.01 5767.59 71.15 2.00 167.21 2652.69
   08:44:38.045.08-Feb-2020 3153.01 5769.32 71.15 2.00 167.41 2652.69
   08:44:38.245.08-Feb-2020 3153.01 5769.02 71.15 2.00 167.61 2652.69
   08:44:38.445.08-Feb-2020 3153.01 5765.15 71.15 2.00 167.81 2652.69
   08:44:38.645.08-Feb-2020 3153.01 5765.35 71.15 2.00 168.01 2652.69
   08:44:38.845.08-Feb-2020 3153.01 5765.35 71.15 2.00 168.21 2652.69
   08:44:39.045.08-Feb-2020 3153.01 5767.02 71.15 2.00 168.41 2652.69
   08:44:39.245.08-Feb-2020 3153.01 5764.99 71.15 2.00 168.61 2652.69
   08:44:39.445.08-Feb-2020 3153.01 5767.24 71.15 2.00 168.81 2652.69
   08:44:39.645.08-Feb-2020 3153.01 5766.31 71.15 2.00 169.01 2652.69
   08:44:39.845.08-Feb-2020 3153.01 5766.31 71.15 2.00 169.21 2652.69
   08:44:40.045.08-Feb-2020 3153.01 5763.97 71.15 2.00 169.41 2652.69
   08:44:40.245.08-Feb-2020 3153.01 5771.69 71.15 2.00 169.61 2652.69
   08:44:40.445.08-Feb-2020 3153.01 5763.12 71.15 2.00 169.81 2652.69
   08:44:40.645.08-Feb-2020 3153.01 5763.27 71.15 2.00 170.01 2652.69
   08:44:40.845.08-Feb-2020 3153.01 5763.27 71.15 2.00 170.21 2652.69
   08:44:41.045.08-Feb-2020 3153.01 5765.08 71.15 2.00 170.41 2652.69
   08:44:41.245.08-Feb-2020 3153.01 5763.84 71.15 2.00 170.61 2652.69
   08:44:41.445.08-Feb-2020 3153.01 5764.97 71.15 2.00 170.81 2652.69
   08:44:41.645.08-Feb-2020 3153.01 5765.15 71.15 2.00 171.01 2652.69
   08:44:41.845.08-Feb-2020 3153.01 5765.15 71.15 2.00 171.21 2652.69
   08:44:42.045.08-Feb-2020 3153.01 5764.37 71.14 2.00 171.41 2652.69
   08:44:42.245.08-Feb-2020 3153.01 5764.44 71.14 2.00 171.61 2652.69
   08:44:42.446.08-Feb-2020 3153.01 5767.11 71.14 2.00 171.81 2652.69
   08:44:42.646.08-Feb-2020 3153.01 5766.45 71.14 2.00 172.01 2652.69
   08:44:42.846.08-Feb-2020 3153.01 5766.45 71.14 2.00 172.21 2652.69
   08:44:43.046.08-Feb-2020 3153.01 5764.61 71.14 2.00 172.41 2652.69
   08:44:43.246.08-Feb-2020 3153.01 5765.56 71.14 2.00 172.61 2652.69
   08:44:43.446.08-Feb-2020 3153.01 5764.96 71.14 2.00 172.81 2652.69
   08:44:43.646.08-Feb-2020 3153.01 5765.50 71.14 2.00 173.01 2652.69
   08:44:43.846.08-Feb-2020 3153.01 5765.50 71.14 2.00 173.21 2652.69
   08:44:44.046.08-Feb-2020 3153.01 5764.66 71.14 2.00 173.41 2652.69
   08:44:44.246.08-Feb-2020 3153.01 5764.91 71.14 2.00 173.61 2652.69
   08:44:44.446.08-Feb-2020 3153.01 5764.59 71.14 2.00 173.81 2652.69
   08:44:44.646.08-Feb-2020 3153.01 5770.61 71.14 2.00 174.01 2652.69
   08:44:44.846.08-Feb-2020 3153.01 5770.61 71.14 2.00 174.21 2652.69
   08:44:45.046.08-Feb-2020 3153.01 5762.83 71.14 2.00 174.41 2652.69
   08:44:45.246.08-Feb-2020 3153.01 5770.30 71.14 2.00 174.61 2652.69
   08:44:45.446.08-Feb-2020 3153.01 5764.64 71.14 2.00 174.81 2652.69
   08:44:45.646.08-Feb-2020 3153.01 5763.27 71.14 2.00 175.01 2652.69
   08:44:45.846.08-Feb-2020 3153.01 5763.27 71.14 2.00 175.21 2652.69
   08:44:46.046.08-Feb-2020 3153.01 5770.17 71.14 2.00 175.41 2652.69
   08:44:46.246.08-Feb-2020 3153.01 5763.37 71.14 2.00 175.61 2652.69
   08:44:46.446.08-Feb-2020 3153.01 5762.01 71.14 2.00 175.81 2652.69
   08:44:46.646.08-Feb-2020 3153.01 5770.46 71.14 2.00 176.01 2652.69
   08:44:46.846.08-Feb-2020 3153.01 5770.46 71.14 2.00 176.21 2652.69
   08:44:47.046.08-Feb-2020 3153.01 5761.28 71.14 2.00 176.41 2652.69
   08:44:47.246.08-Feb-2020 3153.01 5762.62 71.14 2.00 176.61 2652.69
   08:44:47.446.08-Feb-2020 3153.01 5768.73 71.14 2.00 176.81 2652.69
   08:44:47.646.08-Feb-2020 3153.01 5764.77 71.14 2.00 177.01 2652.69
   08:44:47.846.08-Feb-2020 3153.01 5764.77 71.14 2.00 177.21 2652.69
   08:44:48.046.08-Feb-2020 3153.01 5763.15 71.14 2.00 177.41 2652.69
   08:44:48.246.08-Feb-2020 3153.01 5763.63 71.14 2.00 177.61 2652.69
   08:44:48.446.08-Feb-2020 3153.01 5760.65 71.14 2.00 177.81 2652.69
   08:44:48.646.08-Feb-2020 3153.01 5759.48 71.14 2.00 178.01 2652.69
   08:44:48.846.08-Feb-2020 3153.01 5759.48 71.14 2.00 178.21 2652.69
   08:44:49.046.08-Feb-2020 3153.01 5759.47 71.14 2.00 178.41 2652.69
   08:44:49.246.08-Feb-2020 3153.01 5755.82 71.14 2.00 178.61 2652.69
   08:44:49.446.08-Feb-2020 3153.01 5752.93 71.14 2.00 178.81 2652.69
   08:44:49.646.08-Feb-2020 3153.01 5752.15 71.14 2.00 179.01 2652.69
   08:44:49.846.08-Feb-2020 3153.01 5752.15 71.14 2.00 179.22 2652.69
   08:44:50.046.08-Feb-2020 3153.01 5767.26 71.14 2.00 179.42 2652.69
   08:44:50.246.08-Feb-2020 3153.01 5766.01 71.14 2.00 179.62 2652.69
   08:44:50.446.08-Feb-2020 3153.01 5766.95 71.14 2.00 179.82 2652.69
   08:44:50.646.08-Feb-2020 3153.01 5766.76 71.14 2.00 180.02 2652.69
   08:44:50.846.08-Feb-2020 3153.01 5766.76 71.14 2.00 180.22 2652.69
   08:44:51.046.08-Feb-2020 3153.01 5766.84 71.14 2.00 180.42 2652.69
   08:44:51.246.08-Feb-2020 3153.01 5765.94 71.13 2.00 180.62 2652.69
   08:44:51.446.08-Feb-2020 3153.01 5765.83 71.13 2.00 180.82 2652.69
   08:44:51.646.08-Feb-2020 3153.01 5766.04 71.13 2.00 181.02 2652.69
   08:44:51.846.08-Feb-2020 3153.01 5766.04 71.13 2.00 181.22 2652.69
   08:44:52.046.08-Feb-2020 3153.01 5767.08 71.13 2.00 181.42 2652.69
   08:44:52.246.08-Feb-2020 3153.01 5764.28 71.13 2.00 181.62 2652.69
   08:44:52.446.08-Feb-2020 3153.01 5771.44 71.13 2.00 181.82 2652.69
   08:44:52.646.08-Feb-2020 3153.01 5766.32 71.13 2.00 182.02 2652.69
   08:44:52.846.08-Feb-2020 3153.01 5766.32 71.13 2.00 182.22 2652.69
   08:44:53.046.08-Feb-2020 3153.01 5764.89 71.13 2.00 182.42 2652.69
   08:44:53.246.08-Feb-2020 3153.01 5771.53 71.13 2.00 182.62 2652.69
   08:44:53.446.08-Feb-2020 3153.01 5766.29 71.13 2.00 182.82 2652.69
   08:44:53.646.08-Feb-2020 3153.01 5763.76 71.13 2.00 183.02 2652.69
   08:44:53.846.08-Feb-2020 3153.01 5763.76 71.13 2.00 183.22 2652.69
   08:44:54.046.08-Feb-2020 3153.01 5766.47 71.13 2.00 183.42 2652.69
   08:44:54.247.08-Feb-2020 3153.01 5763.93 71.13 2.00 183.62 2652.69
   08:44:54.447.08-Feb-2020 3153.01 5764.51 71.13 2.00 183.82 2652.69
