~Version Information
 VERS.                  2.0:   CWLS log ASCII Standard -VERSION 2.0
 WRAP.                   NO:   One line per depth step
~Well Information Block
#MNEM.UNIT     VALUE/NAME     DESCRIPTION
#---------     -----------    ---------------------------
 STRT.S             10:04:49 08-Feb-20: START TIME 10:04:49 08-Feb-20
 STOP.S             10:11:45 08-Feb-20: STOP TIME  10:11:45 08-Feb-20
 STEP.S                   0.00: STEP TIME
 NULL.                 -999.25: NULL VALUE
 DFWT.                        :  DIST FWL TEXT
 DFST.                        :  DIST FSL TEXT
 DMF .             Drill Floor:  DRILL MEAS FROM
 STIM.      07.00.00 09-Jan-20:  START TIME
 DATE.      14.04.48 07-Feb-20:  END TIME
 SPUD.               09-Jan-20:  SPUD DATE
 NREF.                    Grid:  NORTH REFERENCE
 HPTY.       Minimum Curvature:  HOLE POS TYPE
 DMOD.             Drill Model:  DRILL MOD DESC
 SVYD.                  Survey:  SURVEY DESC
 ILTD.               Lithology:  INTERP LTH DESC
 FTOP.          Formation Tops:  FORM TOPS DESC
 SON .        AZ-XX-0905059384:  JOB NUMBER
 MDS .        Operator Entered:  MAG DATA SOURCE
 WTYP.                Deviated:  WELL TYPE
 COMP.     BP Exploration (Caspian Sea) Ltd.:  COMPANY
 UWI .                     N/A:  UNIQUE WELL IDENTIFIER
 API .                     N/A:  API NUMBER
 BASE.              Azerbaijan:  LOGGING EQUIPMENT BASE LOCATION
 REGN.                   EESSA:  REGION
 PROV.                    Baku:  PROVINCE
 STAT.                    Baku:  STATE NAME
 CTRY.              Azerbaijan:  COUNTRY NAME
 FLD .                     ACG:  FIELD NAME
 SRVC.     TURAN Drilling & Engineering:  CONTRACTOR
 MWDS.                    Baku:  MWD SHOP
 WELL.                     J22:  WELL NAME
 RIG .             West Chirag:  RIG NAME
 DOE .                     N/A:  DOE NUMBER
 DCON.         Sperry Drilling:  DIRECTNL CONTR
 UNIT.                     N/A:  LOGGING EQUIPMENT ID
 PDAT.          Mean Sea Level:  PERMANENT DATUM
 JOBN.        AZ-XX-0905059384:  JOB TICKET NUMB
 CNTY.                        :  COUNTY
 LOC .                        :  LOCATION
 LMF .             Drill Floor:  LOG MEASURED FROM
 TVDS.m                  43.00:  TVDSS CORRECTN
 LATI.deg                40.13:  LATITUDE
 LONG.deg                51.22:  LONGITUDE
 WHNS.m                  10.28:  WELL HEAD N/S
 WHEW.m                  -6.24:  WELL HEAD E/W
 UTMX.m              519005.06:  UTM X
 UTMY.m             4443793.85:  UTM Y
 DFWL.m                   0.00:  DISTANCE FWL
 DFSL.m                   0.00:  DISTANCE FSL
 SDEP.m                 362.00:  START DEPTH
 TDD .m                 904.00:  TOTAL DEPTH (DRILLER)
 VSDR.deg               148.53:  VERT SEC DIRECT
 GVFD.g                   1.00:  GRAVITY FIELD
 MFLD.nT              50277.00:  MAGNETIC FIELD
 MDIP.deg                59.56:  MAGNETIC DIP
 MDEC.deg                 6.42:  MAGNETIC DECL
 GRDC.deg                 0.15:  GRID CORRECTION
 AZTC.deg                 6.27:  AZM TOTAL CORR
 EPD .m                   0.00:  ELEVATION
 EGL .m                   0.00:  GROUND ELEVATION
 WDMS.m                 169.80:  WD ELEV
 APD .m                  43.00:  DEPTH ABOVE PD
 AGAP.m                  43.00:  AIR GAP
 VSEW.m                  -6.24:  VERT SEC E/W
 VSNS.m                  10.28:  VERT SEC N/S
 DEP .m                   0.00:  DEPTH
 EKB .m                   0.00:  KB ELEVATION
 EDF .m                  43.00:  DF ELEVATION
 TDL .m                1183.00:  TOTAL DEPTH (LOGGER)
 VSC .                       0:  VS TO CLOSURE
 MAGU.                 1850021:  MAGUTM CHECKSUM
~Parameter Information Block
#MNEM.UNIT       Value        Description
#---------     -----------    ---------------------------
 AV  .mps                 4.00:  Ann Velocity 
 AVMX.mps                 4.50:  Max Ann Veloc 
 AZIF.deg               145.38:  Azm, Final 
 BHAT.        Rotary Steerable:  BHA Type 
 BROT.°/30m               3.00:  Build Rotating 
 BS  .in                 12.25:  Bit Size 
 BSZ .in                 12.25:  Bit Size 
 BTPL.psig              650.00:  Bit Press Loss 
 CABU.                      No:  Customer Abuse 
 COMM.                     |¶Q:  Run Comments 1 
 TCS .hr                101.62:  Time Ciculation Ended 
 CV  .mps                 5.00:  Crit Velocity 
 CVMX.mps                 5.00:  Max Crit Veloc 
 DD1 .             Aziz Aliyev:  Direct Drillr 1 
 DD2 .      Fakhraddin Guliyev:  Direct Drillr 2 
 DDSV.                 iCruise:  DD Service 
 DEFF.%                  97.00:  % Det Eff 
 DLRX.°/30m               4.16:  Dogleg Rot Max 
 DLSO.°/30m               3.20:  Dogleg Oriented 
 DLSX.°/30m               4.10:  Dogleg Str Max 
 DRET.      23.12.00 07-Feb-20:  Drill End Time 
 DRST.      11.30.00 04-Feb-20:  Drill Start Tim 
 DTIM.hr                 61.06:  Time Drilling 
 EDEP.m                3219.01:  End Depth 
 ENG1.         Almaz Almadatov:  Engineer 1 
 ENG2.         Dair Mahammadov:  Engineer 2 
 ENG3.          Nazrin Asgarli:  Engineer 3 
 ETIM.      02.30.00 11-Feb-20:  End Time 
 FLOI.gpm              1100.00:  Flow In 
 FLON.gpm               900.00:  Flow In Min 
 FLOS.cptm               55.00:  Fluid Loss 
 FLOX.gpm              1150.00:  Flow In Max 
 FTRO.       Formation Presure:  FTWD Run Obj 
 HFLO.                      No:  High Flow 
 HPRE.                      No:  High Pressure 
 HTEM.                      No:  High Temp 
 HYDO.m                   1.80:  Hydro Offset 
 IFIN.deg                75.11:  Inc, Final 
 IMAX.deg                75.11:  Inc Max 
 IMIN.deg                33.55:  Inc Min 
 IMND.m                2186.05:  Inc Min Depth 
 IMXD.m                3205.61:  Inc Max Depth 
 JARR.                      No:  Jarring 
 LETM.      23.12.00 07-Feb-20:  Log End Time 
 LOST.hr                     0:  Lost Rig Time 
 LSTM.      11.30.00 04-Feb-20:  Log Start Time 
 MDCL.ppm             40000.00:  Mud Chlorides 
 MDES.     Inversion Oil/Synthetic:  Mud Desc 
 DFD .sg                  1.49:  Mud Density 
 MDMN.sg                  1.49:  Dens Mud Min 
 MDMX.sg                  1.49:  Dens Mud Max 
 MOIL.                      73:  Run Mud Oil % 
 MOWR.                   73:27:  Run Mud OWR 
 MSND.                     0.1:  Run Mud Sand % 
 MSOL.                    20.1:  Run Mud Solids% 
 DFV .spqt               78.00:  Mud Viscosity 
 MWOD.in                  8.00:  MWD Tool OD 
 MWSI.                      No:  Serv Intrp, MWD 
 OTIM.hr                177.15:  Time Operating 
 PCON.          Wear / Scratch:  Pad Condition 
 PMAX.psia            10493.93:  Press Op, Max 
 PV  .cP                 73.00:  Mud PV 
 RUN .                     700:  Run Number 
 ROPA.m/hr               15.00:  ROP Avg 
 ROPN.m/hr               10.00:  ROP Min 
 ROPX.m/hr               35.00:  ROP Max 
 RPMA.rpm               130.00:  RPM Surface Avg 
 RPMN.rpm                80.00:  RPM Surface Min 
 RPMX.rpm               150.00:  RPM Surface Max 
 RRUN.                    L402:  Rig Run Number 
 RTIM.hr                 80.50:  Time Reaming 
 SAZI.deg               155.55:  Azm, Start 
 SDEP.m                2036.00:  Start Depth 
 SIDD.                      No:  Serv Intrp, DD 
 SINC.deg                35.44:  Inc, Start 
 SPPA.psig             4270.00:  SPP Avg 
 SPPN.psig             2800.00:  SPP Min 
 SPPX.psig             4850.00:  SPP Max 
 STIM.      09.30.00 03-Feb-20:  Start Time 
 SVCS.                 DD, MWD:  Services 
 SVER.                    9.20:  Sperry Version 
 TDAT.m                1183.00:  Tot Depth Attmp 
 TDDF.                      No:  Trip for DD 
 TDLG.m                1183.00:  Tot Depth Loggd 
 TFF .                      No:  Trip for Fail 
 TQAA.f-kp               16.00:  Torque Abs Avg 
 TQAN.f-kp               10.00:  Torque Abs Min 
 TQAX.f-kp               20.00:  Torque Abs Max 
 TRRT.°/30m               1.00:  Turn Rotating 
 MRT .                  EWR-M5:  Maximum Recorded Temperature 
 TTMX.degC               80.39:  Max Tool Temp 
 VS01.               13098498 :  Virtual Str1 SN 
 VS02.                90569596:  Virtual Str2 SN 
 VS03.                90523599:  Virtual Str3 SN 
 VS04.                90573553:  Virtual Str4 SN 
 VS05.                90598598:  Virtual Str5 SN 
 VS06.                90577297:  Virtual Str6 SN 
 WBMN.klb                13.00:  WOB Min 
 WITN.         Alistair Sprott:  Customer Rep 
 WITN.           Rufat Babayev:  Customer Rep 2 
 WOBA.klb                15.00:  WOB Avg 
 WOBX.klb                20.00:  WOB Max 
 YP  .lhf2               39.00:  Yield Point 
~Curve Information Block
#MNEM.UNIT                 API CODE     Curve Description
#---------               -----------    ---------------------------
 TIME.HHMMSS            00 000 000 000:  GT Time & Date
 GTDEPTH.m              00 000 000 000:  GT Depth
 GTPQH.psia             00 000 000 000:  GT HR Quartz Pressure
 GTTQ.degC              00 000 000 000:  GT Quartz Temperature
 GTTN.NONE              00 000 000 000:  GT Test Number
 GTET.sec               00 000 000 000:  GT Elapsed Test Time
 GTTVD.m                00 000 000 000:  GT True Vertical Depth
#Other Information
#
#WARRANTY: Halliburton will use its best efforts to furnish customers with 
#accurate information and interpretations that are part of, and incident to, the services 
#provided.  However, Halliburton cannot and does not warrant the accuracy 
#or correctness of such information and interpretations.  Under no circumstances should any 
#such information or interpretation be relied upon as the sole basis for any drilling, 
#completion, production, or financial decision or any procedure involving any risk to the 
#safety of any drilling venture, drilling rig or its crew or any other third party.  The 
#Customer has full responsibility for all drilling, completion and production operation.  
#Halliburton makes no representations or warranties, either expressed or 
#implied, including, but not limited to, the implied warranties of merchantability or fitness 
#for a particular purpose, with respect to the services rendered.  In no event will 
#Halliburton be liable for failure to obtain any particular results or for 
#any damages, including, but not limited to, indirect, special or consequential damages, 
#resulting from the use of any information or interpretation provided by Halliburton.
#
~A           TIME           GTDEPTH  GTPQH  GTTQ  GTTN  GTET   GTTVD  
# ...
   10:08:39.252.08-Feb-2020 3159.51 4881.42 68.46 5.00 230.07 2654.38
   10:08:39.452.08-Feb-2020 3159.51 4881.42 68.46 5.00 230.27 2654.38
   10:08:39.652.08-Feb-2020 3159.51 4881.26 68.46 5.00 230.47 2654.38
   10:08:39.852.08-Feb-2020 3159.51 4881.91 68.46 5.00 230.67 2654.38
   10:08:40.052.08-Feb-2020 3159.51 4881.26 68.46 5.00 230.87 2654.38
   10:08:40.252.08-Feb-2020 3159.51 4881.16 68.46 5.00 231.07 2654.38
   10:08:40.452.08-Feb-2020 3159.51 4881.16 68.46 5.00 231.27 2654.38
   10:08:40.652.08-Feb-2020 3159.51 4881.54 68.46 5.00 231.47 2654.38
   10:08:40.852.08-Feb-2020 3159.51 4881.61 68.46 5.00 231.67 2654.38
   10:08:41.052.08-Feb-2020 3159.51 4881.36 68.46 5.00 231.87 2654.38
   10:08:41.252.08-Feb-2020 3159.51 4881.50 68.46 5.00 232.07 2654.38
   10:08:41.452.08-Feb-2020 3159.51 4881.50 68.46 5.00 232.27 2654.38
   10:08:41.652.08-Feb-2020 3159.51 4881.44 68.46 5.00 232.47 2654.38
   10:08:41.852.08-Feb-2020 3159.51 4881.50 68.46 5.00 232.67 2654.38
   10:08:42.052.08-Feb-2020 3159.51 4881.47 68.46 5.00 232.87 2654.38
   10:08:42.253.08-Feb-2020 3159.51 4881.40 68.46 5.00 233.07 2654.38
   10:08:42.453.08-Feb-2020 3159.51 4881.40 68.46 5.00 233.27 2654.38
   10:08:42.653.08-Feb-2020 3159.51 4881.50 68.46 5.00 233.47 2654.38
   10:08:42.853.08-Feb-2020 3159.51 4881.71 68.46 5.00 233.67 2654.38
   10:08:43.053.08-Feb-2020 3159.51 4881.13 68.46 5.00 233.87 2654.38
   10:08:43.253.08-Feb-2020 3159.51 4881.27 68.46 5.00 234.07 2654.38
   10:08:43.453.08-Feb-2020 3159.51 4881.27 68.46 5.00 234.27 2654.38
   10:08:43.653.08-Feb-2020 3159.51 4881.48 68.46 5.00 234.47 2654.38
   10:08:43.853.08-Feb-2020 3159.51 4881.40 68.46 5.00 234.67 2654.38
   10:08:44.053.08-Feb-2020 3159.51 4881.44 68.46 5.00 234.87 2654.38
   10:08:44.253.08-Feb-2020 3159.51 4881.53 68.46 5.00 235.07 2654.38
   10:08:44.453.08-Feb-2020 3159.51 4881.53 68.46 5.00 235.27 2654.38
   10:08:44.653.08-Feb-2020 3159.51 4881.44 68.46 5.00 235.47 2654.38
   10:08:44.853.08-Feb-2020 3159.51 4881.42 68.46 5.00 235.67 2654.38
   10:08:45.053.08-Feb-2020 3159.51 4881.48 68.46 5.00 235.87 2654.38
   10:08:45.253.08-Feb-2020 3159.51 4881.50 68.46 5.00 236.07 2654.38
   10:08:45.454.08-Feb-2020 3159.51 4881.50 68.46 5.00 236.27 2654.38
   10:08:45.654.08-Feb-2020 3159.51 4881.31 68.46 5.00 236.47 2654.38
   10:08:45.854.08-Feb-2020 3159.51 4881.42 68.46 5.00 236.67 2654.38
   10:08:46.054.08-Feb-2020 3159.51 4882.18 68.46 5.00 236.87 2654.38
   10:08:46.254.08-Feb-2020 3159.51 4880.87 68.46 5.00 237.07 2654.38
   10:08:46.454.08-Feb-2020 3159.51 4880.87 68.46 5.00 237.27 2654.38
   10:08:46.654.08-Feb-2020 3159.51 4881.32 68.46 5.00 237.47 2654.38
   10:08:46.854.08-Feb-2020 3159.51 4881.68 68.46 5.00 237.67 2654.38
   10:08:47.054.08-Feb-2020 3159.51 4881.47 68.46 5.00 237.87 2654.38
   10:08:47.254.08-Feb-2020 3159.51 4881.33 68.46 5.00 238.07 2654.38
   10:08:47.454.08-Feb-2020 3159.51 4881.33 68.46 5.00 238.27 2654.38
   10:08:47.654.08-Feb-2020 3159.51 4881.21 68.46 5.00 238.47 2654.38
   10:08:47.854.08-Feb-2020 3159.51 4881.34 68.46 5.00 238.67 2654.38
   10:08:48.054.08-Feb-2020 3159.51 4881.45 68.46 5.00 238.87 2654.38
   10:08:48.254.08-Feb-2020 3159.51 4881.61 68.46 5.00 239.07 2654.38
   10:08:48.454.08-Feb-2020 3159.51 4881.61 68.46 5.00 239.27 2654.38
   10:08:48.655.08-Feb-2020 3159.51 4881.50 68.46 5.00 239.47 2654.38
   10:08:48.855.08-Feb-2020 3159.51 4881.50 68.46 5.00 239.67 2654.38
   10:08:49.055.08-Feb-2020 3159.51 4881.49 68.46 5.00 239.87 2654.38
   10:08:49.255.08-Feb-2020 3159.51 4881.42 68.46 5.00 240.07 2654.38
   10:08:49.455.08-Feb-2020 3159.51 4881.42 68.46 5.00 240.27 2654.38
   10:08:49.655.08-Feb-2020 3159.51 4881.38 68.46 5.00 240.47 2654.38
   10:08:49.855.08-Feb-2020 3159.51 4881.47 68.46 5.00 240.67 2654.38
   10:08:50.055.08-Feb-2020 3159.51 4881.52 68.46 5.00 240.87 2654.38
   10:08:50.255.08-Feb-2020 3159.51 4881.38 68.46 5.00 241.07 2654.38
   10:08:50.455.08-Feb-2020 3159.51 4881.38 68.46 5.00 241.27 2654.38
   10:08:50.655.08-Feb-2020 3159.51 4881.53 68.46 5.00 241.48 2654.38
   10:08:50.855.08-Feb-2020 3159.51 4881.44 68.46 5.00 241.68 2654.38
   10:08:51.055.08-Feb-2020 3159.51 4881.48 68.46 5.00 241.88 2654.38
   10:08:51.255.08-Feb-2020 3159.51 4881.54 68.46 5.00 242.08 2654.38
   10:08:51.455.08-Feb-2020 3159.51 4881.54 68.46 5.00 242.28 2654.38
   10:08:51.655.08-Feb-2020 3159.51 4881.48 68.46 5.00 242.48 2654.38
   10:08:51.856.08-Feb-2020 3159.51 4882.08 68.46 5.00 242.68 2654.38
   10:08:52.056.08-Feb-2020 3159.51 4880.94 68.46 5.00 242.88 2654.38
   10:08:52.256.08-Feb-2020 3159.51 4881.18 68.46 5.00 243.08 2654.38
   10:08:52.456.08-Feb-2020 3159.51 4881.18 68.46 5.00 243.28 2654.38
   10:08:52.656.08-Feb-2020 3159.51 4881.17 68.46 5.00 243.48 2654.38
   10:08:52.856.08-Feb-2020 3159.51 4881.01 68.46 5.00 243.68 2654.38
   10:08:53.056.08-Feb-2020 3159.51 4881.54 68.46 5.00 243.88 2654.38
   10:08:53.256.08-Feb-2020 3159.51 4881.50 68.46 5.00 244.08 2654.38
   10:08:53.456.08-Feb-2020 3159.51 4881.50 68.46 5.00 244.28 2654.38
   10:08:53.656.08-Feb-2020 3159.51 4882.07 68.46 5.00 244.48 2654.38
   10:08:53.856.08-Feb-2020 3159.51 4880.98 68.46 5.00 244.68 2654.38
   10:08:54.056.08-Feb-2020 3159.51 4881.11 68.46 5.00 244.88 2654.38
   10:08:54.256.08-Feb-2020 3159.51 4881.42 68.46 5.00 245.08 2654.38
   10:08:54.456.08-Feb-2020 3159.51 4881.42 68.46 5.00 245.28 2654.38
   10:08:54.656.08-Feb-2020 3159.51 4881.14 68.46 5.00 245.48 2654.38
   10:08:54.856.08-Feb-2020 3159.51 4881.23 68.46 5.00 245.68 2654.38
   10:08:55.057.08-Feb-2020 3159.51 4881.53 68.46 5.00 245.88 2654.38
   10:08:55.257.08-Feb-2020 3159.51 4881.54 68.46 5.00 246.08 2654.38
   10:08:55.457.08-Feb-2020 3159.51 4881.54 68.46 5.00 246.28 2654.38
   10:08:55.657.08-Feb-2020 3159.51 4881.54 68.46 5.00 246.48 2654.38
   10:08:55.857.08-Feb-2020 3159.51 4881.52 68.46 5.00 246.68 2654.38
   10:08:56.057.08-Feb-2020 3159.51 4881.46 68.46 5.00 246.88 2654.38
   10:08:56.257.08-Feb-2020 3159.51 4881.44 68.46 5.00 247.08 2654.38
   10:08:56.457.08-Feb-2020 3159.51 4881.44 68.46 5.00 247.28 2654.38
   10:08:56.657.08-Feb-2020 3159.51 4882.05 68.46 5.00 247.48 2654.38
   10:08:56.857.08-Feb-2020 3159.51 4880.92 68.46 5.00 247.68 2654.38
   10:08:57.057.08-Feb-2020 3159.51 4881.20 68.46 5.00 247.88 2654.38
   10:08:57.257.08-Feb-2020 3159.51 4881.50 68.45 5.00 248.08 2654.38
   10:08:57.457.08-Feb-2020 3159.51 4881.50 68.45 5.00 248.28 2654.38
   10:08:57.657.08-Feb-2020 3159.51 4881.42 68.45 5.00 248.48 2654.38
   10:08:57.857.08-Feb-2020 3159.51 4881.45 68.45 5.00 248.68 2654.38
   10:08:58.057.08-Feb-2020 3159.51 4881.51 68.45 5.00 248.88 2654.38
   10:08:58.258.08-Feb-2020 3159.51 4881.46 68.45 5.00 249.08 2654.38
   10:08:58.458.08-Feb-2020 3159.51 4881.46 68.45 5.00 249.28 2654.38
   10:08:58.658.08-Feb-2020 3159.51 4881.53 68.45 5.00 249.48 2654.38
   10:08:58.858.08-Feb-2020 3159.51 4881.59 68.45 5.00 249.68 2654.38
   10:08:59.058.08-Feb-2020 3159.51 4881.25 68.45 5.00 249.88 2654.38
   10:08:59.258.08-Feb-2020 3159.51 4881.33 68.45 5.00 250.08 2654.38
   10:08:59.458.08-Feb-2020 3159.51 4881.33 68.45 5.00 250.28 2654.38
   10:08:59.658.08-Feb-2020 3159.51 4881.56 68.45 5.00 250.48 2654.38
   10:08:59.858.08-Feb-2020 3159.51 4881.40 68.45 5.00 250.68 2654.38
   10:09:00.058.08-Feb-2020 3159.51 4881.38 68.45 5.00 250.88 2654.38
   10:09:00.258.08-Feb-2020 3159.51 4881.36 68.45 5.00 251.08 2654.38
   10:09:00.458.08-Feb-2020 3159.51 4881.36 68.45 5.00 251.28 2654.38
   10:09:00.658.08-Feb-2020 3159.51 4881.79 68.45 5.00 251.48 2654.38
   10:09:00.858.08-Feb-2020 3159.51 4881.34 68.45 5.00 251.68 2654.38
   10:09:01.058.08-Feb-2020 3159.51 4881.23 68.45 5.00 251.88 2654.38
   10:09:01.258.08-Feb-2020 3159.51 4881.43 68.45 5.00 252.08 2654.38
   10:09:01.458.08-Feb-2020 3159.51 4881.43 68.45 5.00 252.28 2654.38
   10:09:01.659.08-Feb-2020 3159.51 4881.56 68.45 5.00 252.48 2654.38
   10:09:01.859.08-Feb-2020 3159.51 4881.42 68.45 5.00 252.68 2654.38
   10:09:02.059.08-Feb-2020 3159.51 4881.49 68.45 5.00 252.88 2654.38
