~Version Information
 VERS.                  2.0:   CWLS log ASCII Standard -VERSION 2.0
 WRAP.                   NO:   One line per depth step
~Well Information Block
#MNEM.UNIT     VALUE/NAME     DESCRIPTION
#---------     -----------    ---------------------------
 STRT.S             09:08:12 08-Feb-20: START TIME 09:08:12 08-Feb-20
 STOP.S             09:14:54 08-Feb-20: STOP TIME  09:14:54 08-Feb-20
 STEP.S                   0.00: STEP TIME
 NULL.                 -999.25: NULL VALUE
 DFWT.                        :  DIST FWL TEXT
 DFST.                        :  DIST FSL TEXT
 DMF .             Drill Floor:  DRILL MEAS FROM
 STIM.      07.00.00 09-Jan-20:  START TIME
 DATE.      14.04.48 07-Feb-20:  END TIME
 SPUD.               09-Jan-20:  SPUD DATE
 NREF.                    Grid:  NORTH REFERENCE
 HPTY.       Minimum Curvature:  HOLE POS TYPE
 DMOD.             Drill Model:  DRILL MOD DESC
 SVYD.                  Survey:  SURVEY DESC
 ILTD.               Lithology:  INTERP LTH DESC
 FTOP.          Formation Tops:  FORM TOPS DESC
 SON .        AZ-XX-0905059384:  JOB NUMBER
 MDS .        Operator Entered:  MAG DATA SOURCE
 WTYP.                Deviated:  WELL TYPE
 COMP.     BP Exploration (Caspian Sea) Ltd.:  COMPANY
 UWI .                     N/A:  UNIQUE WELL IDENTIFIER
 API .                     N/A:  API NUMBER
 BASE.              Azerbaijan:  LOGGING EQUIPMENT BASE LOCATION
 REGN.                   EESSA:  REGION
 PROV.                    Baku:  PROVINCE
 STAT.                    Baku:  STATE NAME
 CTRY.              Azerbaijan:  COUNTRY NAME
 FLD .                     ACG:  FIELD NAME
 SRVC.     TURAN Drilling & Engineering:  CONTRACTOR
 MWDS.                    Baku:  MWD SHOP
 WELL.                     J22:  WELL NAME
 RIG .             West Chirag:  RIG NAME
 DOE .                     N/A:  DOE NUMBER
 DCON.         Sperry Drilling:  DIRECTNL CONTR
 UNIT.                     N/A:  LOGGING EQUIPMENT ID
 PDAT.          Mean Sea Level:  PERMANENT DATUM
 JOBN.        AZ-XX-0905059384:  JOB TICKET NUMB
 CNTY.                        :  COUNTY
 LOC .                        :  LOCATION
 LMF .             Drill Floor:  LOG MEASURED FROM
 TVDS.m                  43.00:  TVDSS CORRECTN
 LATI.deg                40.13:  LATITUDE
 LONG.deg                51.22:  LONGITUDE
 WHNS.m                  10.28:  WELL HEAD N/S
 WHEW.m                  -6.24:  WELL HEAD E/W
 UTMX.m              519005.06:  UTM X
 UTMY.m             4443793.85:  UTM Y
 DFWL.m                   0.00:  DISTANCE FWL
 DFSL.m                   0.00:  DISTANCE FSL
 SDEP.m                 362.00:  START DEPTH
 TDD .m                 904.00:  TOTAL DEPTH (DRILLER)
 VSDR.deg               148.53:  VERT SEC DIRECT
 GVFD.g                   1.00:  GRAVITY FIELD
 MFLD.nT              50277.00:  MAGNETIC FIELD
 MDIP.deg                59.56:  MAGNETIC DIP
 MDEC.deg                 6.42:  MAGNETIC DECL
 GRDC.deg                 0.15:  GRID CORRECTION
 AZTC.deg                 6.27:  AZM TOTAL CORR
 EPD .m                   0.00:  ELEVATION
 EGL .m                   0.00:  GROUND ELEVATION
 WDMS.m                 169.80:  WD ELEV
 APD .m                  43.00:  DEPTH ABOVE PD
 AGAP.m                  43.00:  AIR GAP
 VSEW.m                  -6.24:  VERT SEC E/W
 VSNS.m                  10.28:  VERT SEC N/S
 DEP .m                   0.00:  DEPTH
 EKB .m                   0.00:  KB ELEVATION
 EDF .m                  43.00:  DF ELEVATION
 TDL .m                1183.00:  TOTAL DEPTH (LOGGER)
 VSC .                       0:  VS TO CLOSURE
 MAGU.                 1850021:  MAGUTM CHECKSUM
~Parameter Information Block
#MNEM.UNIT       Value        Description
#---------     -----------    ---------------------------
 AV  .mps                 4.00:  Ann Velocity 
 AVMX.mps                 4.50:  Max Ann Veloc 
 AZIF.deg               145.38:  Azm, Final 
 BHAT.        Rotary Steerable:  BHA Type 
 BROT.°/30m               3.00:  Build Rotating 
 BS  .in                 12.25:  Bit Size 
 BSZ .in                 12.25:  Bit Size 
 BTPL.psig              650.00:  Bit Press Loss 
 CABU.                      No:  Customer Abuse 
 COMM.                     T!k:  Run Comments 1 
 TCS .hr                101.62:  Time Ciculation Ended 
 CV  .mps                 5.00:  Crit Velocity 
 CVMX.mps                 5.00:  Max Crit Veloc 
 DD1 .             Aziz Aliyev:  Direct Drillr 1 
 DD2 .      Fakhraddin Guliyev:  Direct Drillr 2 
 DDSV.                 iCruise:  DD Service 
 DEFF.%                  97.00:  % Det Eff 
 DLRX.°/30m               4.16:  Dogleg Rot Max 
 DLSO.°/30m               3.20:  Dogleg Oriented 
 DLSX.°/30m               4.10:  Dogleg Str Max 
 DRET.      23.12.00 07-Feb-20:  Drill End Time 
 DRST.      11.30.00 04-Feb-20:  Drill Start Tim 
 DTIM.hr                 61.06:  Time Drilling 
 EDEP.m                3219.01:  End Depth 
 ENG1.         Almaz Almadatov:  Engineer 1 
 ENG2.         Dair Mahammadov:  Engineer 2 
 ENG3.          Nazrin Asgarli:  Engineer 3 
 ETIM.      02.30.00 11-Feb-20:  End Time 
 FLOI.gpm              1100.00:  Flow In 
 FLON.gpm               900.00:  Flow In Min 
 FLOS.cptm               55.00:  Fluid Loss 
 FLOX.gpm              1150.00:  Flow In Max 
 FTRO.       Formation Presure:  FTWD Run Obj 
 HFLO.                      No:  High Flow 
 HPRE.                      No:  High Pressure 
 HTEM.                      No:  High Temp 
 HYDO.m                   1.80:  Hydro Offset 
 IFIN.deg                75.11:  Inc, Final 
 IMAX.deg                75.11:  Inc Max 
 IMIN.deg                33.55:  Inc Min 
 IMND.m                2186.05:  Inc Min Depth 
 IMXD.m                3205.61:  Inc Max Depth 
 JARR.                      No:  Jarring 
 LETM.      23.12.00 07-Feb-20:  Log End Time 
 LOST.hr                     0:  Lost Rig Time 
 LSTM.      11.30.00 04-Feb-20:  Log Start Time 
 MDCL.ppm             40000.00:  Mud Chlorides 
 MDES.     Inversion Oil/Synthetic:  Mud Desc 
 DFD .sg                  1.49:  Mud Density 
 MDMN.sg                  1.49:  Dens Mud Min 
 MDMX.sg                  1.49:  Dens Mud Max 
 MOIL.                      73:  Run Mud Oil % 
 MOWR.                   73:27:  Run Mud OWR 
 MSND.                     0.1:  Run Mud Sand % 
 MSOL.                    20.1:  Run Mud Solids% 
 DFV .spqt               78.00:  Mud Viscosity 
 MWOD.in                  8.00:  MWD Tool OD 
 MWSI.                      No:  Serv Intrp, MWD 
 OTIM.hr                177.15:  Time Operating 
 PCON.          Wear / Scratch:  Pad Condition 
 PMAX.psia            10493.93:  Press Op, Max 
 PV  .cP                 73.00:  Mud PV 
 RUN .                     700:  Run Number 
 ROPA.m/hr               15.00:  ROP Avg 
 ROPN.m/hr               10.00:  ROP Min 
 ROPX.m/hr               35.00:  ROP Max 
 RPMA.rpm               130.00:  RPM Surface Avg 
 RPMN.rpm                80.00:  RPM Surface Min 
 RPMX.rpm               150.00:  RPM Surface Max 
 RRUN.                    L402:  Rig Run Number 
 RTIM.hr                 80.50:  Time Reaming 
 SAZI.deg               155.55:  Azm, Start 
 SDEP.m                2036.00:  Start Depth 
 SIDD.                      No:  Serv Intrp, DD 
 SINC.deg                35.44:  Inc, Start 
 SPPA.psig             4270.00:  SPP Avg 
 SPPN.psig             2800.00:  SPP Min 
 SPPX.psig             4850.00:  SPP Max 
 STIM.      09.30.00 03-Feb-20:  Start Time 
 SVCS.                 DD, MWD:  Services 
 SVER.                    9.20:  Sperry Version 
 TDAT.m                1183.00:  Tot Depth Attmp 
 TDDF.                      No:  Trip for DD 
 TDLG.m                1183.00:  Tot Depth Loggd 
 TFF .                      No:  Trip for Fail 
 TQAA.f-kp               16.00:  Torque Abs Avg 
 TQAN.f-kp               10.00:  Torque Abs Min 
 TQAX.f-kp               20.00:  Torque Abs Max 
 TRRT.°/30m               1.00:  Turn Rotating 
 MRT .                  EWR-M5:  Maximum Recorded Temperature 
 TTMX.degC               80.39:  Max Tool Temp 
 VS01.               13098498 :  Virtual Str1 SN 
 VS02.                90569596:  Virtual Str2 SN 
 VS03.                90523599:  Virtual Str3 SN 
 VS04.                90573553:  Virtual Str4 SN 
 VS05.                90598598:  Virtual Str5 SN 
 VS06.                90577297:  Virtual Str6 SN 
 WBMN.klb                13.00:  WOB Min 
 WITN.         Alistair Sprott:  Customer Rep 
 WITN.           Rufat Babayev:  Customer Rep 2 
 WOBA.klb                15.00:  WOB Avg 
 WOBX.klb                20.00:  WOB Max 
 YP  .lhf2               39.00:  Yield Point 
~Curve Information Block
#MNEM.UNIT                 API CODE     Curve Description
#---------               -----------    ---------------------------
 TIME.HHMMSS            00 000 000 000:  GT Time & Date
 GTDEPTH.m              00 000 000 000:  GT Depth
 GTPQH.psia             00 000 000 000:  GT HR Quartz Pressure
 GTTQ.degC              00 000 000 000:  GT Quartz Temperature
 GTTN.NONE              00 000 000 000:  GT Test Number
 GTET.sec               00 000 000 000:  GT Elapsed Test Time
 GTTVD.m                00 000 000 000:  GT True Vertical Depth
#Other Information
#
#WARRANTY: Halliburton will use its best efforts to furnish customers with 
#accurate information and interpretations that are part of, and incident to, the services 
#provided.  However, Halliburton cannot and does not warrant the accuracy 
#or correctness of such information and interpretations.  Under no circumstances should any 
#such information or interpretation be relied upon as the sole basis for any drilling, 
#completion, production, or financial decision or any procedure involving any risk to the 
#safety of any drilling venture, drilling rig or its crew or any other third party.  The 
#Customer has full responsibility for all drilling, completion and production operation.  
#Halliburton makes no representations or warranties, either expressed or 
#implied, including, but not limited to, the implied warranties of merchantability or fitness 
#for a particular purpose, with respect to the services rendered.  In no event will 
#Halliburton be liable for failure to obtain any particular results or for 
#any damages, including, but not limited to, indirect, special or consequential damages, 
#resulting from the use of any information or interpretation provided by Halliburton.
#
~A           TIME           GTDEPTH  GTPQH  GTTQ  GTTN  GTET   GTTVD  
# ...
   09:14:20.794.08-Feb-2020 3153.21 4822.78 69.78 3.00 368.03 2652.75
   09:14:20.995.08-Feb-2020 3153.21 4822.78 69.78 3.00 368.23 2652.75
   09:14:21.195.08-Feb-2020 3153.21 4822.76 69.78 3.00 368.43 2652.75
   09:14:21.395.08-Feb-2020 3153.21 4826.35 69.78 3.00 368.63 2652.75
   09:14:21.595.08-Feb-2020 3153.21 4917.33 69.78 3.00 368.83 2652.75
   09:14:21.795.08-Feb-2020 3153.21 5068.04 69.78 3.00 369.03 2652.75
   09:14:21.995.08-Feb-2020 3153.21 5068.04 69.78 3.00 369.23 2652.75
   09:14:22.195.08-Feb-2020 3153.21 4408.87 69.78 3.00 369.43 2652.75
   09:14:22.395.08-Feb-2020 3153.21 4515.82 69.78 3.00 369.63 2652.75
   09:14:22.595.08-Feb-2020 3153.21 4555.35 69.78 3.00 369.83 2652.75
   09:14:22.795.08-Feb-2020 3153.21 4628.57 69.78 3.00 370.03 2652.75
   09:14:22.995.08-Feb-2020 3153.21 4628.57 69.78 3.00 370.23 2652.75
   09:14:23.195.08-Feb-2020 3153.21 4651.85 69.78 3.00 370.43 2652.75
   09:14:23.395.08-Feb-2020 3153.21 4669.63 69.78 3.00 370.63 2652.75
   09:14:23.595.08-Feb-2020 3153.21 4674.47 69.78 3.00 370.83 2652.75
   09:14:23.795.08-Feb-2020 3153.21 4867.08 69.78 3.00 371.03 2652.75
   09:14:23.995.08-Feb-2020 3153.21 4867.08 69.78 3.00 371.23 2652.75
   09:14:24.195.08-Feb-2020 3153.21 5779.79 69.78 3.00 371.43 2652.75
   09:14:24.395.08-Feb-2020 3153.21 5782.62 69.78 3.00 371.63 2652.75
   09:14:24.595.08-Feb-2020 3153.21 5781.76 69.78 3.00 371.83 2652.75
   09:14:24.795.08-Feb-2020 3153.21 5779.71 69.78 3.00 372.03 2652.75
   09:14:24.995.08-Feb-2020 3153.21 5779.71 69.78 3.00 372.23 2652.75
   09:14:25.195.08-Feb-2020 3153.21 5784.83 69.78 3.00 372.43 2652.75
   09:14:25.395.08-Feb-2020 3153.21 5783.88 69.78 3.00 372.63 2652.75
   09:14:25.595.08-Feb-2020 3153.21 5781.86 69.78 3.00 372.83 2652.75
   09:14:25.795.08-Feb-2020 3153.21 5781.81 69.78 3.00 373.03 2652.75
   09:14:25.995.08-Feb-2020 3153.21 5781.81 69.78 3.00 373.23 2652.75
   09:14:26.195.08-Feb-2020 3153.21 5781.96 69.78 3.00 373.43 2652.75
   09:14:26.395.08-Feb-2020 3153.21 5782.72 69.78 3.00 373.63 2652.75
   09:14:26.595.08-Feb-2020 3153.21 5781.98 69.79 3.00 373.83 2652.75
   09:14:26.795.08-Feb-2020 3153.21 5780.94 69.79 3.00 374.03 2652.75
   09:14:26.995.08-Feb-2020 3153.21 5780.94 69.79 3.00 374.23 2652.75
   09:14:27.195.08-Feb-2020 3153.21 5780.98 69.79 3.00 374.43 2652.75
   09:14:27.395.08-Feb-2020 3153.21 5788.05 69.79 3.00 374.63 2652.75
   09:14:27.595.08-Feb-2020 3153.21 5781.10 69.79 3.00 374.83 2652.75
   09:14:27.795.08-Feb-2020 3153.21 5781.03 69.79 3.00 375.03 2652.75
   09:14:27.995.08-Feb-2020 3153.21 5781.03 69.79 3.00 375.23 2652.75
   09:14:28.195.08-Feb-2020 3153.21 5783.27 69.79 3.00 375.43 2652.75
   09:14:28.395.08-Feb-2020 3153.21 5783.01 69.79 3.00 375.63 2652.75
   09:14:28.595.08-Feb-2020 3153.21 5782.30 69.79 3.00 375.83 2652.75
   09:14:28.795.08-Feb-2020 3153.21 5782.39 69.79 3.00 376.03 2652.75
   09:14:28.995.08-Feb-2020 3153.21 5782.39 69.79 3.00 376.23 2652.75
   09:14:29.195.08-Feb-2020 3153.21 5781.45 69.79 3.00 376.43 2652.75
   09:14:29.395.08-Feb-2020 3153.21 5781.49 69.79 3.00 376.63 2652.75
   09:14:29.595.08-Feb-2020 3153.21 5784.91 69.79 3.00 376.83 2652.75
   09:14:29.795.08-Feb-2020 3153.21 5783.27 69.80 3.00 377.03 2652.75
   09:14:29.995.08-Feb-2020 3153.21 5783.27 69.80 3.00 377.23 2652.75
   09:14:30.195.08-Feb-2020 3153.21 5785.29 69.80 3.00 377.43 2652.75
   09:14:30.395.08-Feb-2020 3153.21 5783.53 69.80 3.00 377.63 2652.75
   09:14:30.595.08-Feb-2020 3153.21 5780.55 69.80 3.00 377.83 2652.75
   09:14:30.795.08-Feb-2020 3153.21 5784.25 69.80 3.00 378.03 2652.75
   09:14:30.995.08-Feb-2020 3153.21 5784.25 69.80 3.00 378.23 2652.75
   09:14:31.195.08-Feb-2020 3153.21 5783.12 69.80 3.00 378.43 2652.75
   09:14:31.395.08-Feb-2020 3153.21 5781.53 69.80 3.00 378.63 2652.75
   09:14:31.595.08-Feb-2020 3153.21 5781.78 69.80 3.00 378.83 2652.75
   09:14:31.795.08-Feb-2020 3153.21 5786.46 69.80 3.00 379.03 2652.75
   09:14:31.995.08-Feb-2020 3153.21 5786.46 69.80 3.00 379.23 2652.75
   09:14:32.195.08-Feb-2020 3153.21 5780.65 69.80 3.00 379.43 2652.75
   09:14:32.395.08-Feb-2020 3153.21 5780.34 69.80 3.00 379.63 2652.75
   09:14:32.595.08-Feb-2020 3153.21 5788.25 69.80 3.00 379.83 2652.75
   09:14:32.795.08-Feb-2020 3153.21 5782.22 69.80 3.00 380.03 2652.75
   09:14:32.996.08-Feb-2020 3153.21 5782.22 69.80 3.00 380.23 2652.75
   09:14:33.196.08-Feb-2020 3153.21 5782.07 69.80 3.00 380.43 2652.75
   09:14:33.396.08-Feb-2020 3153.21 5782.78 69.80 3.00 380.63 2652.75
   09:14:33.596.08-Feb-2020 3153.21 5782.66 69.80 3.00 380.83 2652.75
   09:14:33.796.08-Feb-2020 3153.21 5783.46 69.80 3.00 381.03 2652.75
   09:14:33.996.08-Feb-2020 3153.21 5783.46 69.80 3.00 381.23 2652.75
   09:14:34.196.08-Feb-2020 3153.21 5782.20 69.80 3.00 381.43 2652.75
   09:14:34.396.08-Feb-2020 3153.21 5781.82 69.80 3.00 381.63 2652.75
   09:14:34.596.08-Feb-2020 3153.21 5782.06 69.80 3.00 381.83 2652.75
   09:14:34.796.08-Feb-2020 3153.21 5787.33 69.80 3.00 382.03 2652.75
   09:14:34.996.08-Feb-2020 3153.21 5787.33 69.80 3.00 382.23 2652.75
   09:14:35.196.08-Feb-2020 3153.21 5782.22 69.80 3.00 382.43 2652.75
   09:14:35.396.08-Feb-2020 3153.21 5782.59 69.80 3.00 382.63 2652.75
   09:14:35.596.08-Feb-2020 3153.21 5783.93 69.80 3.00 382.83 2652.75
   09:14:35.796.08-Feb-2020 3153.21 5783.66 69.80 3.00 383.03 2652.75
   09:14:35.996.08-Feb-2020 3153.21 5783.66 69.80 3.00 383.23 2652.75
   09:14:36.196.08-Feb-2020 3153.21 5782.56 69.80 3.00 383.43 2652.75
   09:14:36.396.08-Feb-2020 3153.21 5782.57 69.80 3.00 383.63 2652.75
   09:14:36.596.08-Feb-2020 3153.21 5781.39 69.80 3.00 383.83 2652.75
   09:14:36.796.08-Feb-2020 3153.21 5781.35 69.80 3.00 384.03 2652.75
   09:14:36.996.08-Feb-2020 3153.21 5781.35 69.80 3.00 384.23 2652.75
   09:14:37.196.08-Feb-2020 3153.21 5780.85 69.80 3.00 384.43 2652.75
   09:14:37.396.08-Feb-2020 3153.21 5779.47 69.80 3.00 384.63 2652.75
   09:14:37.596.08-Feb-2020 3153.21 5787.25 69.80 3.00 384.83 2652.75
   09:14:37.796.08-Feb-2020 3153.21 5783.42 69.80 3.00 385.03 2652.75
   09:14:37.996.08-Feb-2020 3153.21 5783.42 69.80 3.00 385.23 2652.75
   09:14:38.196.08-Feb-2020 3153.21 5781.41 69.80 3.00 385.43 2652.75
   09:14:38.396.08-Feb-2020 3153.21 5786.18 69.80 3.00 385.63 2652.75
   09:14:38.596.08-Feb-2020 3153.21 5783.37 69.80 3.00 385.83 2652.75
   09:14:38.796.08-Feb-2020 3153.21 5781.05 69.80 3.00 386.03 2652.75
   09:14:38.996.08-Feb-2020 3153.21 5781.05 69.80 3.00 386.23 2652.75
   09:14:39.196.08-Feb-2020 3153.21 5785.33 69.80 3.00 386.43 2652.75
   09:14:39.396.08-Feb-2020 3153.21 5782.49 69.80 3.00 386.63 2652.75
   09:14:39.596.08-Feb-2020 3153.21 5781.24 69.80 3.00 386.83 2652.75
   09:14:39.796.08-Feb-2020 3153.21 5785.55 69.80 3.00 387.03 2652.75
   09:14:39.996.08-Feb-2020 3153.21 5785.55 69.80 3.00 387.23 2652.75
   09:14:40.196.08-Feb-2020 3153.21 5781.36 69.80 3.00 387.43 2652.75
   09:14:40.396.08-Feb-2020 3153.21 5783.40 69.80 3.00 387.63 2652.75
   09:14:40.596.08-Feb-2020 3153.21 5783.40 69.80 3.00 387.83 2652.75
   09:14:40.796.08-Feb-2020 3153.21 5781.97 69.80 3.00 388.03 2652.75
   09:14:40.996.08-Feb-2020 3153.21 5781.97 69.80 3.00 388.23 2652.75
   09:14:41.196.08-Feb-2020 3153.21 5783.69 69.80 3.00 388.43 2652.75
   09:14:41.396.08-Feb-2020 3153.21 5782.54 69.80 3.00 388.63 2652.75
   09:14:41.596.08-Feb-2020 3153.21 5783.99 69.80 3.00 388.83 2652.75
   09:14:41.796.08-Feb-2020 3153.21 5783.78 69.80 3.00 389.03 2652.75
   09:14:41.996.08-Feb-2020 3153.21 5783.78 69.80 3.00 389.23 2652.75
   09:14:42.196.08-Feb-2020 3153.21 5784.92 69.80 3.00 389.43 2652.75
   09:14:42.396.08-Feb-2020 3153.21 5782.73 69.80 3.00 389.63 2652.75
   09:14:42.596.08-Feb-2020 3153.21 5783.19 69.80 3.00 389.83 2652.75
   09:14:42.796.08-Feb-2020 3153.21 5783.59 69.80 3.00 390.03 2652.75
   09:14:42.996.08-Feb-2020 3153.21 5783.59 69.80 3.00 390.23 2652.75
   09:14:43.196.08-Feb-2020 3153.21 5783.02 69.80 3.00 390.43 2652.75
   09:14:43.396.08-Feb-2020 3153.21 5783.02 69.80 3.00 390.63 2652.75
   09:14:43.596.08-Feb-2020 3153.21 5782.09 69.80 3.00 390.83 2652.75
