~Version Information
 VERS.                  2.0:   CWLS log ASCII Standard -VERSION 2.0
 WRAP.                   NO:   One line per depth step
~Well Information Block
#MNEM.UNIT     VALUE/NAME     DESCRIPTION
#---------     -----------    ---------------------------
 STRT.S             08:41:50 08-Feb-20: START TIME 08:41:50 08-Feb-20
 STOP.S             08:48:48 08-Feb-20: STOP TIME  08:48:48 08-Feb-20
 STEP.S                   0.00: STEP TIME
 NULL.                 -999.25: NULL VALUE
 DFWT.                        :  DIST FWL TEXT
 DFST.                        :  DIST FSL TEXT
 DMF .             Drill Floor:  DRILL MEAS FROM
 STIM.      07.00.00 09-Jan-20:  START TIME
 DATE.      14.04.48 07-Feb-20:  END TIME
 SPUD.               09-Jan-20:  SPUD DATE
 NREF.                    Grid:  NORTH REFERENCE
 HPTY.       Minimum Curvature:  HOLE POS TYPE
 DMOD.             Drill Model:  DRILL MOD DESC
 SVYD.                  Survey:  SURVEY DESC
 ILTD.               Lithology:  INTERP LTH DESC
 FTOP.          Formation Tops:  FORM TOPS DESC
 SON .        AZ-XX-0905059384:  JOB NUMBER
 MDS .        Operator Entered:  MAG DATA SOURCE
 WTYP.                Deviated:  WELL TYPE
 COMP.     BP Exploration (Caspian Sea) Ltd.:  COMPANY
 UWI .                     N/A:  UNIQUE WELL IDENTIFIER
 API .                     N/A:  API NUMBER
 BASE.              Azerbaijan:  LOGGING EQUIPMENT BASE LOCATION
 REGN.                   EESSA:  REGION
 PROV.                    Baku:  PROVINCE
 STAT.                    Baku:  STATE NAME
 CTRY.              Azerbaijan:  COUNTRY NAME
 FLD .                     ACG:  FIELD NAME
 SRVC.     TURAN Drilling & Engineering:  CONTRACTOR
 MWDS.                    Baku:  MWD SHOP
 WELL.                     J22:  WELL NAME
 RIG .             West Chirag:  RIG NAME
 DOE .                     N/A:  DOE NUMBER
 DCON.         Sperry Drilling:  DIRECTNL CONTR
 UNIT.                     N/A:  LOGGING EQUIPMENT ID
 PDAT.          Mean Sea Level:  PERMANENT DATUM
 JOBN.        AZ-XX-0905059384:  JOB TICKET NUMB
 CNTY.                        :  COUNTY
 LOC .                        :  LOCATION
 LMF .             Drill Floor:  LOG MEASURED FROM
 TVDS.m                  43.00:  TVDSS CORRECTN
 LATI.deg                40.13:  LATITUDE
 LONG.deg                51.22:  LONGITUDE
 WHNS.m                  10.28:  WELL HEAD N/S
 WHEW.m                  -6.24:  WELL HEAD E/W
 UTMX.m              519005.06:  UTM X
 UTMY.m             4443793.85:  UTM Y
 DFWL.m                   0.00:  DISTANCE FWL
 DFSL.m                   0.00:  DISTANCE FSL
 SDEP.m                 362.00:  START DEPTH
 TDD .m                 904.00:  TOTAL DEPTH (DRILLER)
 VSDR.deg               148.53:  VERT SEC DIRECT
 GVFD.g                   1.00:  GRAVITY FIELD
 MFLD.nT              50277.00:  MAGNETIC FIELD
 MDIP.deg                59.56:  MAGNETIC DIP
 MDEC.deg                 6.42:  MAGNETIC DECL
 GRDC.deg                 0.15:  GRID CORRECTION
 AZTC.deg                 6.27:  AZM TOTAL CORR
 EPD .m                   0.00:  ELEVATION
 EGL .m                   0.00:  GROUND ELEVATION
 WDMS.m                 169.80:  WD ELEV
 APD .m                  43.00:  DEPTH ABOVE PD
 AGAP.m                  43.00:  AIR GAP
 VSEW.m                  -6.24:  VERT SEC E/W
 VSNS.m                  10.28:  VERT SEC N/S
 DEP .m                   0.00:  DEPTH
 EKB .m                   0.00:  KB ELEVATION
 EDF .m                  43.00:  DF ELEVATION
 TDL .m                1183.00:  TOTAL DEPTH (LOGGER)
 VSC .                       0:  VS TO CLOSURE
 MAGU.                 1850021:  MAGUTM CHECKSUM
~Parameter Information Block
#MNEM.UNIT       Value        Description
#---------     -----------    ---------------------------
 AV  .mps                 4.00:  Ann Velocity 
 AVMX.mps                 4.50:  Max Ann Veloc 
 AZIF.deg               145.38:  Azm, Final 
 BHAT.        Rotary Steerable:  BHA Type 
 BROT.°/30m               3.00:  Build Rotating 
 BS  .in                 12.25:  Bit Size 
 BSZ .in                 12.25:  Bit Size 
 BTPL.psig              650.00:  Bit Press Loss 
 CABU.                      No:  Customer Abuse 
 COMM.                     [:  Run Comments 1 
 TCS .hr                101.62:  Time Ciculation Ended 
 CV  .mps                 5.00:  Crit Velocity 
 CVMX.mps                 5.00:  Max Crit Veloc 
 DD1 .             Aziz Aliyev:  Direct Drillr 1 
 DD2 .      Fakhraddin Guliyev:  Direct Drillr 2 
 DDSV.                 iCruise:  DD Service 
 DEFF.%                  97.00:  % Det Eff 
 DLRX.°/30m               4.16:  Dogleg Rot Max 
 DLSO.°/30m               3.20:  Dogleg Oriented 
 DLSX.°/30m               4.10:  Dogleg Str Max 
 DRET.      23.12.00 07-Feb-20:  Drill End Time 
 DRST.      11.30.00 04-Feb-20:  Drill Start Tim 
 DTIM.hr                 61.06:  Time Drilling 
 EDEP.m                3219.01:  End Depth 
 ENG1.         Almaz Almadatov:  Engineer 1 
 ENG2.         Dair Mahammadov:  Engineer 2 
 ENG3.          Nazrin Asgarli:  Engineer 3 
 ETIM.      02.30.00 11-Feb-20:  End Time 
 FLOI.gpm              1100.00:  Flow In 
 FLON.gpm               900.00:  Flow In Min 
 FLOS.cptm               55.00:  Fluid Loss 
 FLOX.gpm              1150.00:  Flow In Max 
 FTRO.       Formation Presure:  FTWD Run Obj 
 HFLO.                      No:  High Flow 
 HPRE.                      No:  High Pressure 
 HTEM.                      No:  High Temp 
 HYDO.m                   1.80:  Hydro Offset 
 IFIN.deg                75.11:  Inc, Final 
 IMAX.deg                75.11:  Inc Max 
 IMIN.deg                33.55:  Inc Min 
 IMND.m                2186.05:  Inc Min Depth 
 IMXD.m                3205.61:  Inc Max Depth 
 JARR.                      No:  Jarring 
 LETM.      23.12.00 07-Feb-20:  Log End Time 
 LOST.hr                     0:  Lost Rig Time 
 LSTM.      11.30.00 04-Feb-20:  Log Start Time 
 MDCL.ppm             40000.00:  Mud Chlorides 
 MDES.     Inversion Oil/Synthetic:  Mud Desc 
 DFD .sg                  1.49:  Mud Density 
 MDMN.sg                  1.49:  Dens Mud Min 
 MDMX.sg                  1.49:  Dens Mud Max 
 MOIL.                      73:  Run Mud Oil % 
 MOWR.                   73:27:  Run Mud OWR 
 MSND.                     0.1:  Run Mud Sand % 
 MSOL.                    20.1:  Run Mud Solids% 
 DFV .spqt               78.00:  Mud Viscosity 
 MWOD.in                  8.00:  MWD Tool OD 
 MWSI.                      No:  Serv Intrp, MWD 
 OTIM.hr                177.15:  Time Operating 
 PCON.          Wear / Scratch:  Pad Condition 
 PMAX.psia            10493.93:  Press Op, Max 
 PV  .cP                 73.00:  Mud PV 
 RUN .                     700:  Run Number 
 ROPA.m/hr               15.00:  ROP Avg 
 ROPN.m/hr               10.00:  ROP Min 
 ROPX.m/hr               35.00:  ROP Max 
 RPMA.rpm               130.00:  RPM Surface Avg 
 RPMN.rpm                80.00:  RPM Surface Min 
 RPMX.rpm               150.00:  RPM Surface Max 
 RRUN.                    L402:  Rig Run Number 
 RTIM.hr                 80.50:  Time Reaming 
 SAZI.deg               155.55:  Azm, Start 
 SDEP.m                2036.00:  Start Depth 
 SIDD.                      No:  Serv Intrp, DD 
 SINC.deg                35.44:  Inc, Start 
 SPPA.psig             4270.00:  SPP Avg 
 SPPN.psig             2800.00:  SPP Min 
 SPPX.psig             4850.00:  SPP Max 
 STIM.      09.30.00 03-Feb-20:  Start Time 
 SVCS.                 DD, MWD:  Services 
 SVER.                    9.20:  Sperry Version 
 TDAT.m                1183.00:  Tot Depth Attmp 
 TDDF.                      No:  Trip for DD 
 TDLG.m                1183.00:  Tot Depth Loggd 
 TFF .                      No:  Trip for Fail 
 TQAA.f-kp               16.00:  Torque Abs Avg 
 TQAN.f-kp               10.00:  Torque Abs Min 
 TQAX.f-kp               20.00:  Torque Abs Max 
 TRRT.°/30m               1.00:  Turn Rotating 
 MRT .                  EWR-M5:  Maximum Recorded Temperature 
 TTMX.degC               80.39:  Max Tool Temp 
 VS01.               13098498 :  Virtual Str1 SN 
 VS02.                90569596:  Virtual Str2 SN 
 VS03.                90523599:  Virtual Str3 SN 
 VS04.                90573553:  Virtual Str4 SN 
 VS05.                90598598:  Virtual Str5 SN 
 VS06.                90577297:  Virtual Str6 SN 
 WBMN.klb                13.00:  WOB Min 
 WITN.         Alistair Sprott:  Customer Rep 
 WITN.           Rufat Babayev:  Customer Rep 2 
 WOBA.klb                15.00:  WOB Avg 
 WOBX.klb                20.00:  WOB Max 
 YP  .lhf2               39.00:  Yield Point 
~Curve Information Block
#MNEM.UNIT                 API CODE     Curve Description
#---------               -----------    ---------------------------
 TIME.HHMMSS            00 000 000 000:  GT Time & Date
 GTDEPTH.m              00 000 000 000:  GT Depth
 GTPQH.psia             00 000 000 000:  GT HR Quartz Pressure
 GTTQ.degC              00 000 000 000:  GT Quartz Temperature
 GTTN.NONE              00 000 000 000:  GT Test Number
 GTET.sec               00 000 000 000:  GT Elapsed Test Time
 GTTVD.m                00 000 000 000:  GT True Vertical Depth
#Other Information
#
#WARRANTY: Halliburton will use its best efforts to furnish customers with 
#accurate information and interpretations that are part of, and incident to, the services 
#provided.  However, Halliburton cannot and does not warrant the accuracy 
#or correctness of such information and interpretations.  Under no circumstances should any 
#such information or interpretation be relied upon as the sole basis for any drilling, 
#completion, production, or financial decision or any procedure involving any risk to the 
#safety of any drilling venture, drilling rig or its crew or any other third party.  The 
#Customer has full responsibility for all drilling, completion and production operation.  
#Halliburton makes no representations or warranties, either expressed or 
#implied, including, but not limited to, the implied warranties of merchantability or fitness 
#for a particular purpose, with respect to the services rendered.  In no event will 
#Halliburton be liable for failure to obtain any particular results or for 
#any damages, including, but not limited to, indirect, special or consequential damages, 
#resulting from the use of any information or interpretation provided by Halliburton.
#
~A           TIME           GTDEPTH  GTPQH  GTTQ  GTTN  GTET   GTTVD  
# ...
   08:44:54.647.08-Feb-2020 3153.01 5766.16 71.13 2.00 184.02 2652.69
   08:44:54.847.08-Feb-2020 3153.01 5766.16 71.13 2.00 184.22 2652.69
   08:44:55.047.08-Feb-2020 3153.01 5768.53 71.13 2.00 184.42 2652.69
   08:44:55.247.08-Feb-2020 3153.01 5766.43 71.13 2.00 184.62 2652.69
   08:44:55.447.08-Feb-2020 3153.01 5766.99 71.13 2.00 184.82 2652.69
   08:44:55.647.08-Feb-2020 3153.01 5766.90 71.13 2.00 185.02 2652.69
   08:44:55.847.08-Feb-2020 3153.01 5766.90 71.13 2.00 185.22 2652.69
   08:44:56.047.08-Feb-2020 3153.01 5767.44 71.13 2.00 185.42 2652.69
   08:44:56.247.08-Feb-2020 3153.01 5766.48 71.13 2.00 185.62 2652.69
   08:44:56.447.08-Feb-2020 3153.01 5766.12 71.13 2.00 185.82 2652.69
   08:44:56.647.08-Feb-2020 3153.01 5765.89 71.13 2.00 186.02 2652.69
   08:44:56.847.08-Feb-2020 3153.01 5765.89 71.13 2.00 186.22 2652.69
   08:44:57.047.08-Feb-2020 3153.01 5771.37 71.13 2.00 186.42 2652.69
   08:44:57.247.08-Feb-2020 3153.01 5765.17 71.13 2.00 186.62 2652.69
   08:44:57.447.08-Feb-2020 3153.01 5764.67 71.13 2.00 186.82 2652.69
   08:44:57.647.08-Feb-2020 3153.01 5766.50 71.13 2.00 187.02 2652.69
   08:44:57.847.08-Feb-2020 3153.01 5766.50 71.13 2.00 187.22 2652.69
   08:44:58.047.08-Feb-2020 3153.01 5765.78 71.13 2.00 187.42 2652.69
   08:44:58.247.08-Feb-2020 3153.01 5766.95 71.13 2.00 187.62 2652.69
   08:44:58.447.08-Feb-2020 3153.01 5766.32 71.13 2.00 187.82 2652.69
   08:44:58.647.08-Feb-2020 3153.01 5766.12 71.13 2.00 188.02 2652.69
   08:44:58.847.08-Feb-2020 3153.01 5766.12 71.13 2.00 188.22 2652.69
   08:44:59.047.08-Feb-2020 3153.01 5765.91 71.13 2.00 188.42 2652.69
   08:44:59.247.08-Feb-2020 3153.01 5768.93 71.13 2.00 188.62 2652.69
   08:44:59.447.08-Feb-2020 3153.01 5766.94 71.13 2.00 188.82 2652.69
   08:44:59.647.08-Feb-2020 3153.01 5765.23 71.13 2.00 189.02 2652.69
   08:44:59.847.08-Feb-2020 3153.01 5765.23 71.13 2.00 189.22 2652.69
   08:45:00.047.08-Feb-2020 3153.01 5768.82 71.13 2.00 189.42 2652.69
   08:45:00.247.08-Feb-2020 3153.01 5765.22 71.13 2.00 189.62 2652.69
   08:45:00.447.08-Feb-2020 3153.01 5771.27 71.13 2.00 189.82 2652.69
   08:45:00.647.08-Feb-2020 3153.01 5766.59 71.12 2.00 190.02 2652.69
   08:45:00.847.08-Feb-2020 3153.01 5766.59 71.12 2.00 190.22 2652.69
   08:45:01.047.08-Feb-2020 3153.01 5764.37 71.12 2.00 190.42 2652.69
   08:45:01.247.08-Feb-2020 3153.01 5765.52 71.12 2.00 190.62 2652.69
   08:45:01.447.08-Feb-2020 3153.01 5768.33 71.12 2.00 190.82 2652.69
   08:45:01.647.08-Feb-2020 3153.01 5767.52 71.12 2.00 191.02 2652.69
   08:45:01.847.08-Feb-2020 3153.01 5767.52 71.12 2.00 191.22 2652.69
   08:45:02.047.08-Feb-2020 3153.01 5765.19 71.12 2.00 191.42 2652.69
   08:45:02.247.08-Feb-2020 3153.01 5766.28 71.12 2.00 191.62 2652.69
   08:45:02.447.08-Feb-2020 3153.01 5769.68 71.12 2.00 191.82 2652.69
   08:45:02.647.08-Feb-2020 3153.01 5768.78 71.12 2.00 192.02 2652.69
   08:45:02.847.08-Feb-2020 3153.01 5768.78 71.12 2.00 192.22 2652.69
   08:45:03.047.08-Feb-2020 3153.01 5766.14 71.12 2.00 192.42 2652.69
   08:45:03.247.08-Feb-2020 3153.01 5767.37 71.12 2.00 192.62 2652.69
   08:45:03.447.08-Feb-2020 3153.01 5767.01 71.12 2.00 192.82 2652.69
   08:45:03.647.08-Feb-2020 3153.01 5766.28 71.12 2.00 193.02 2652.69
   08:45:03.847.08-Feb-2020 3153.01 5766.28 71.12 2.00 193.22 2652.69
   08:45:04.047.08-Feb-2020 3153.01 5765.59 71.12 2.00 193.42 2652.69
   08:45:04.247.08-Feb-2020 3153.01 5765.82 71.12 2.00 193.62 2652.69
   08:45:04.447.08-Feb-2020 3153.01 5765.75 71.12 2.00 193.82 2652.69
   08:45:04.647.08-Feb-2020 3153.01 5769.38 71.12 2.00 194.02 2652.69
   08:45:04.847.08-Feb-2020 3153.01 5769.38 71.12 2.00 194.22 2652.69
   08:45:05.047.08-Feb-2020 3153.01 5766.31 71.12 2.00 194.42 2652.69
   08:45:05.247.08-Feb-2020 3153.01 5766.55 71.12 2.00 194.62 2652.69
   08:45:05.447.08-Feb-2020 3153.01 5768.19 71.12 2.00 194.82 2652.69
   08:45:05.647.08-Feb-2020 3153.01 5766.61 71.12 2.00 195.02 2652.69
   08:45:05.847.08-Feb-2020 3153.01 5766.61 71.12 2.00 195.22 2652.69
   08:45:06.047.08-Feb-2020 3153.01 5766.54 71.12 2.00 195.42 2652.69
   08:45:06.248.08-Feb-2020 3153.01 5765.73 71.12 2.00 195.62 2652.69
   08:45:06.448.08-Feb-2020 3153.01 5765.06 71.12 2.00 195.82 2652.69
   08:45:06.648.08-Feb-2020 3153.01 5764.83 71.12 2.00 196.02 2652.69
   08:45:06.848.08-Feb-2020 3153.01 5764.83 71.12 2.00 196.22 2652.69
   08:45:07.048.08-Feb-2020 3153.01 5766.80 71.12 2.00 196.42 2652.69
   08:45:07.248.08-Feb-2020 3153.01 5767.02 71.12 2.00 196.62 2652.69
   08:45:07.448.08-Feb-2020 3153.01 5768.41 71.12 2.00 196.82 2652.69
   08:45:07.648.08-Feb-2020 3153.01 5767.61 71.12 2.00 197.02 2652.69
   08:45:07.848.08-Feb-2020 3153.01 5767.61 71.12 2.00 197.22 2652.69
   08:45:08.048.08-Feb-2020 3153.01 5767.40 71.12 2.00 197.42 2652.69
   08:45:08.248.08-Feb-2020 3153.01 5769.67 71.12 2.00 197.62 2652.69
   08:45:08.448.08-Feb-2020 3153.01 5766.66 71.12 2.00 197.82 2652.69
   08:45:08.648.08-Feb-2020 3153.01 5766.38 71.12 2.00 198.02 2652.69
   08:45:08.848.08-Feb-2020 3153.01 5766.38 71.12 2.00 198.22 2652.69
   08:45:09.048.08-Feb-2020 3153.01 5767.14 71.12 2.00 198.42 2652.69
   08:45:09.248.08-Feb-2020 3153.01 5764.12 71.12 2.00 198.62 2652.69
   08:45:09.448.08-Feb-2020 3153.01 5765.40 71.12 2.00 198.82 2652.69
   08:45:09.648.08-Feb-2020 3153.01 5772.02 71.12 2.00 199.02 2652.69
   08:45:09.848.08-Feb-2020 3153.01 5772.02 71.12 2.00 199.22 2652.69
   08:45:10.048.08-Feb-2020 3153.01 5765.04 71.12 2.00 199.42 2652.69
   08:45:10.248.08-Feb-2020 3153.01 5766.67 71.12 2.00 199.62 2652.69
   08:45:10.448.08-Feb-2020 3153.01 5766.66 71.11 2.00 199.82 2652.69
   08:45:10.648.08-Feb-2020 3153.01 5765.44 71.11 2.00 200.02 2652.69
   08:45:10.848.08-Feb-2020 3153.01 5765.44 71.11 2.00 200.22 2652.69
   08:45:11.048.08-Feb-2020 3153.01 5767.08 71.11 2.00 200.42 2652.69
   08:45:11.248.08-Feb-2020 3153.01 5766.31 71.11 2.00 200.62 2652.69
   08:45:11.448.08-Feb-2020 3153.01 5766.53 71.11 2.00 200.82 2652.69
   08:45:11.648.08-Feb-2020 3153.01 5766.46 71.11 2.00 201.02 2652.69
   08:45:11.848.08-Feb-2020 3153.01 5766.46 71.11 2.00 201.22 2652.69
   08:45:12.048.08-Feb-2020 3153.01 5766.28 71.11 2.00 201.42 2652.69
   08:45:12.248.08-Feb-2020 3153.01 5764.93 71.11 2.00 201.62 2652.69
   08:45:12.448.08-Feb-2020 3153.01 5766.28 71.11 2.00 201.82 2652.69
   08:45:12.648.08-Feb-2020 3153.01 5767.35 71.11 2.00 202.02 2652.69
   08:45:12.848.08-Feb-2020 3153.01 5767.35 71.11 2.00 202.22 2652.69
   08:45:13.048.08-Feb-2020 3153.01 5767.16 71.11 2.00 202.42 2652.69
   08:45:13.248.08-Feb-2020 3153.01 5766.65 71.11 2.00 202.62 2652.69
   08:45:13.448.08-Feb-2020 3153.01 5766.17 71.11 2.00 202.82 2652.69
   08:45:13.648.08-Feb-2020 3153.01 5766.55 71.11 2.00 203.02 2652.69
   08:45:13.848.08-Feb-2020 3153.01 5766.55 71.11 2.00 203.22 2652.69
   08:45:14.048.08-Feb-2020 3153.01 5772.35 71.11 2.00 203.42 2652.69
   08:45:14.248.08-Feb-2020 3153.01 5764.52 71.11 2.00 203.62 2652.69
   08:45:14.448.08-Feb-2020 3153.01 5764.53 71.11 2.00 203.82 2652.69
   08:45:14.648.08-Feb-2020 3153.01 5770.45 71.11 2.00 204.02 2652.69
   08:45:14.848.08-Feb-2020 3153.01 5770.45 71.11 2.00 204.22 2652.69
   08:45:15.048.08-Feb-2020 3153.01 5765.03 71.11 2.00 204.42 2652.69
   08:45:15.248.08-Feb-2020 3153.01 5764.87 71.11 2.00 204.62 2652.69
   08:45:15.448.08-Feb-2020 3153.01 5772.74 71.11 2.00 204.82 2652.69
   08:45:15.648.08-Feb-2020 3153.01 5764.01 71.11 2.00 205.02 2652.69
   08:45:15.848.08-Feb-2020 3153.01 5764.01 71.11 2.00 205.22 2652.69
   08:45:16.048.08-Feb-2020 3153.01 5770.35 71.11 2.00 205.42 2652.69
   08:45:16.248.08-Feb-2020 3153.01 5766.00 71.11 2.00 205.62 2652.69
   08:45:16.448.08-Feb-2020 3153.01 5763.72 71.11 2.00 205.82 2652.69
   08:45:16.648.08-Feb-2020 3153.01 5765.49 71.11 2.00 206.02 2652.69
   08:45:16.848.08-Feb-2020 3153.01 5765.49 71.11 2.00 206.22 2652.69
   08:45:17.048.08-Feb-2020 3153.01 5766.92 71.11 2.00 206.42 2652.69
   08:45:17.248.08-Feb-2020 3153.01 5765.43 71.11 2.00 206.62 2652.69
   08:45:17.448.08-Feb-2020 3153.01 5766.87 71.11 2.00 206.82 2652.69
