~Version Information
 VERS.                  2.0:   CWLS log ASCII Standard -VERSION 2.0
 WRAP.                   NO:   One line per depth step
~Well Information Block
#MNEM.UNIT     VALUE/NAME     DESCRIPTION
#---------     -----------    ---------------------------
 STRT.S             09:27:25 08-Feb-20: START TIME 09:27:25 08-Feb-20
 STOP.S             09:34:14 08-Feb-20: STOP TIME  09:34:14 08-Feb-20
 STEP.S                   0.00: STEP TIME
 NULL.                 -999.25: NULL VALUE
 DFWT.                        :  DIST FWL TEXT
 DFST.                        :  DIST FSL TEXT
 DMF .             Drill Floor:  DRILL MEAS FROM
 STIM.      07.00.00 09-Jan-20:  START TIME
 DATE.      14.04.48 07-Feb-20:  END TIME
 SPUD.               09-Jan-20:  SPUD DATE
 NREF.                    Grid:  NORTH REFERENCE
 HPTY.       Minimum Curvature:  HOLE POS TYPE
 DMOD.             Drill Model:  DRILL MOD DESC
 SVYD.                  Survey:  SURVEY DESC
 ILTD.               Lithology:  INTERP LTH DESC
 FTOP.          Formation Tops:  FORM TOPS DESC
 SON .        AZ-XX-0905059384:  JOB NUMBER
 MDS .        Operator Entered:  MAG DATA SOURCE
 WTYP.                Deviated:  WELL TYPE
 COMP.     BP Exploration (Caspian Sea) Ltd.:  COMPANY
 UWI .                     N/A:  UNIQUE WELL IDENTIFIER
 API .                     N/A:  API NUMBER
 BASE.              Azerbaijan:  LOGGING EQUIPMENT BASE LOCATION
 REGN.                   EESSA:  REGION
 PROV.                    Baku:  PROVINCE
 STAT.                    Baku:  STATE NAME
 CTRY.              Azerbaijan:  COUNTRY NAME
 FLD .                     ACG:  FIELD NAME
 SRVC.     TURAN Drilling & Engineering:  CONTRACTOR
 MWDS.                    Baku:  MWD SHOP
 WELL.                     J22:  WELL NAME
 RIG .             West Chirag:  RIG NAME
 DOE .                     N/A:  DOE NUMBER
 DCON.         Sperry Drilling:  DIRECTNL CONTR
 UNIT.                     N/A:  LOGGING EQUIPMENT ID
 PDAT.          Mean Sea Level:  PERMANENT DATUM
 JOBN.        AZ-XX-0905059384:  JOB TICKET NUMB
 CNTY.                        :  COUNTY
 LOC .                        :  LOCATION
 LMF .             Drill Floor:  LOG MEASURED FROM
 TVDS.m                  43.00:  TVDSS CORRECTN
 LATI.deg                40.13:  LATITUDE
 LONG.deg                51.22:  LONGITUDE
 WHNS.m                  10.28:  WELL HEAD N/S
 WHEW.m                  -6.24:  WELL HEAD E/W
 UTMX.m              519005.06:  UTM X
 UTMY.m             4443793.85:  UTM Y
 DFWL.m                   0.00:  DISTANCE FWL
 DFSL.m                   0.00:  DISTANCE FSL
 SDEP.m                 362.00:  START DEPTH
 TDD .m                 904.00:  TOTAL DEPTH (DRILLER)
 VSDR.deg               148.53:  VERT SEC DIRECT
 GVFD.g                   1.00:  GRAVITY FIELD
 MFLD.nT              50277.00:  MAGNETIC FIELD
 MDIP.deg                59.56:  MAGNETIC DIP
 MDEC.deg                 6.42:  MAGNETIC DECL
 GRDC.deg                 0.15:  GRID CORRECTION
 AZTC.deg                 6.27:  AZM TOTAL CORR
 EPD .m                   0.00:  ELEVATION
 EGL .m                   0.00:  GROUND ELEVATION
 WDMS.m                 169.80:  WD ELEV
 APD .m                  43.00:  DEPTH ABOVE PD
 AGAP.m                  43.00:  AIR GAP
 VSEW.m                  -6.24:  VERT SEC E/W
 VSNS.m                  10.28:  VERT SEC N/S
 DEP .m                   0.00:  DEPTH
 EKB .m                   0.00:  KB ELEVATION
 EDF .m                  43.00:  DF ELEVATION
 TDL .m                1183.00:  TOTAL DEPTH (LOGGER)
 VSC .                       0:  VS TO CLOSURE
 MAGU.                 1850021:  MAGUTM CHECKSUM
~Parameter Information Block
#MNEM.UNIT       Value        Description
#---------     -----------    ---------------------------
 AV  .mps                 4.00:  Ann Velocity 
 AVMX.mps                 4.50:  Max Ann Veloc 
 AZIF.deg               145.38:  Azm, Final 
 BHAT.        Rotary Steerable:  BHA Type 
 BROT.∞/30m               3.00:  Build Rotating 
 BS  .in                 12.25:  Bit Size 
 BSZ .in                 12.25:  Bit Size 
 BTPL.psig              650.00:  Bit Press Loss 
 CABU.                      No:  Customer Abuse 
 COMM.                     $ÊW:  Run Comments 1 
 TCS .hr                101.62:  Time Ciculation Ended 
 CV  .mps                 5.00:  Crit Velocity 
 CVMX.mps                 5.00:  Max Crit Veloc 
 DD1 .             Aziz Aliyev:  Direct Drillr 1 
 DD2 .      Fakhraddin Guliyev:  Direct Drillr 2 
 DDSV.                 iCruise:  DD Service 
 DEFF.%                  97.00:  % Det Eff 
 DLRX.∞/30m               4.16:  Dogleg Rot Max 
 DLSO.∞/30m               3.20:  Dogleg Oriented 
 DLSX.∞/30m               4.10:  Dogleg Str Max 
 DRET.      23.12.00 07-Feb-20:  Drill End Time 
 DRST.      11.30.00 04-Feb-20:  Drill Start Tim 
 DTIM.hr                 61.06:  Time Drilling 
 EDEP.m                3219.01:  End Depth 
 ENG1.         Almaz Almadatov:  Engineer 1 
 ENG2.         Dair Mahammadov:  Engineer 2 
 ENG3.          Nazrin Asgarli:  Engineer 3 
 ETIM.      02.30.00 11-Feb-20:  End Time 
 FLOI.gpm              1100.00:  Flow In 
 FLON.gpm               900.00:  Flow In Min 
 FLOS.cptm               55.00:  Fluid Loss 
 FLOX.gpm              1150.00:  Flow In Max 
 FTRO.       Formation Presure:  FTWD Run Obj 
 HFLO.                      No:  High Flow 
 HPRE.                      No:  High Pressure 
 HTEM.                      No:  High Temp 
 HYDO.m                   1.80:  Hydro Offset 
 IFIN.deg                75.11:  Inc, Final 
 IMAX.deg                75.11:  Inc Max 
 IMIN.deg                33.55:  Inc Min 
 IMND.m                2186.05:  Inc Min Depth 
 IMXD.m                3205.61:  Inc Max Depth 
 JARR.                      No:  Jarring 
 LETM.      23.12.00 07-Feb-20:  Log End Time 
 LOST.hr                     0:  Lost Rig Time 
 LSTM.      11.30.00 04-Feb-20:  Log Start Time 
 MDCL.ppm             40000.00:  Mud Chlorides 
 MDES.     Inversion Oil/Synthetic:  Mud Desc 
 DFD .sg                  1.49:  Mud Density 
 MDMN.sg                  1.49:  Dens Mud Min 
 MDMX.sg                  1.49:  Dens Mud Max 
 MOIL.                      73:  Run Mud Oil % 
 MOWR.                   73:27:  Run Mud OWR 
 MSND.                     0.1:  Run Mud Sand % 
 MSOL.                    20.1:  Run Mud Solids% 
 DFV .spqt               78.00:  Mud Viscosity 
 MWOD.in                  8.00:  MWD Tool OD 
 MWSI.                      No:  Serv Intrp, MWD 
 OTIM.hr                177.15:  Time Operating 
 PCON.          Wear / Scratch:  Pad Condition 
 PMAX.psia            10493.93:  Press Op, Max 
 PV  .cP                 73.00:  Mud PV 
 RUN .                     700:  Run Number 
 ROPA.m/hr               15.00:  ROP Avg 
 ROPN.m/hr               10.00:  ROP Min 
 ROPX.m/hr               35.00:  ROP Max 
 RPMA.rpm               130.00:  RPM Surface Avg 
 RPMN.rpm                80.00:  RPM Surface Min 
 RPMX.rpm               150.00:  RPM Surface Max 
 RRUN.                    L402:  Rig Run Number 
 RTIM.hr                 80.50:  Time Reaming 
 SAZI.deg               155.55:  Azm, Start 
 SDEP.m                2036.00:  Start Depth 
 SIDD.                      No:  Serv Intrp, DD 
 SINC.deg                35.44:  Inc, Start 
 SPPA.psig             4270.00:  SPP Avg 
 SPPN.psig             2800.00:  SPP Min 
 SPPX.psig             4850.00:  SPP Max 
 STIM.      09.30.00 03-Feb-20:  Start Time 
 SVCS.                 DD, MWD:  Services 
 SVER.                    9.20:  Sperry Version 
 TDAT.m                1183.00:  Tot Depth Attmp 
 TDDF.                      No:  Trip for DD 
 TDLG.m                1183.00:  Tot Depth Loggd 
 TFF .                      No:  Trip for Fail 
 TQAA.f-kp               16.00:  Torque Abs Avg 
 TQAN.f-kp               10.00:  Torque Abs Min 
 TQAX.f-kp               20.00:  Torque Abs Max 
 TRRT.∞/30m               1.00:  Turn Rotating 
 MRT .                  EWR-M5:  Maximum Recorded Temperature 
 TTMX.degC               80.39:  Max Tool Temp 
 VS01.               13098498 :  Virtual Str1 SN 
 VS02.                90569596:  Virtual Str2 SN 
 VS03.                90523599:  Virtual Str3 SN 
 VS04.                90573553:  Virtual Str4 SN 
 VS05.                90598598:  Virtual Str5 SN 
 VS06.                90577297:  Virtual Str6 SN 
 WBMN.klb                13.00:  WOB Min 
 WITN.         Alistair Sprott:  Customer Rep 
 WITN.           Rufat Babayev:  Customer Rep 2 
 WOBA.klb                15.00:  WOB Avg 
 WOBX.klb                20.00:  WOB Max 
 YP  .lhf2               39.00:  Yield Point 
~Curve Information Block
#MNEM.UNIT                 API CODE     Curve Description
#---------               -----------    ---------------------------
 TIME.HHMMSS            00 000 000 000:  GT Time & Date
 GTDEPTH.m              00 000 000 000:  GT Depth
 GTPQH.psia             00 000 000 000:  GT HR Quartz Pressure
 GTTQ.degC              00 000 000 000:  GT Quartz Temperature
 GTTN.NONE              00 000 000 000:  GT Test Number
 GTET.sec               00 000 000 000:  GT Elapsed Test Time
 GTTVD.m                00 000 000 000:  GT True Vertical Depth
#Other Information
#
#WARRANTY: Halliburton will use its best efforts to furnish customers with 
#accurate information and interpretations that are part of, and incident to, the services 
#provided.  However, Halliburton cannot and does not warrant the accuracy 
#or correctness of such information and interpretations.  Under no circumstances should any 
#such information or interpretation be relied upon as the sole basis for any drilling, 
#completion, production, or financial decision or any procedure involving any risk to the 
#safety of any drilling venture, drilling rig or its crew or any other third party.  The 
#Customer has full responsibility for all drilling, completion and production operation.  
#Halliburton makes no representations or warranties, either expressed or 
#implied, including, but not limited to, the implied warranties of merchantability or fitness 
#for a particular purpose, with respect to the services rendered.  In no event will 
#Halliburton be liable for failure to obtain any particular results or for 
#any damages, including, but not limited to, indirect, special or consequential damages, 
#resulting from the use of any information or interpretation provided by Halliburton.
#
~A           TIME           GTDEPTH  GTPQH  GTTQ  GTTN  GTET   GTTVD  
# ...
   09:29:43.872.08-Feb-2020 3135.01 4728.80 69.18 4.00 138.01 2647.94
   09:29:44.072.08-Feb-2020 3135.01 4728.80 69.18 4.00 138.21 2647.94
   09:29:44.272.08-Feb-2020 3135.01 4729.46 69.18 4.00 138.41 2647.94
   09:29:44.472.08-Feb-2020 3135.01 4728.37 69.18 4.00 138.61 2647.94
   09:29:44.672.08-Feb-2020 3135.01 4729.70 69.18 4.00 138.81 2647.94
   09:29:44.872.08-Feb-2020 3135.01 4728.07 69.18 4.00 139.01 2647.94
   09:29:45.072.08-Feb-2020 3135.01 4728.07 69.18 4.00 139.21 2647.94
   09:29:45.272.08-Feb-2020 3135.01 4728.77 69.18 4.00 139.41 2647.94
   09:29:45.472.08-Feb-2020 3135.01 4728.32 69.18 4.00 139.61 2647.94
   09:29:45.672.08-Feb-2020 3135.01 4729.33 69.18 4.00 139.81 2647.94
   09:29:45.872.08-Feb-2020 3135.01 4728.04 69.18 4.00 140.01 2647.94
   09:29:46.072.08-Feb-2020 3135.01 4728.04 69.18 4.00 140.21 2647.94
   09:29:46.272.08-Feb-2020 3135.01 4728.54 69.18 4.00 140.41 2647.94
   09:29:46.472.08-Feb-2020 3135.01 4728.00 69.18 4.00 140.61 2647.94
   09:29:46.672.08-Feb-2020 3135.01 4729.57 69.18 4.00 140.81 2647.94
   09:29:46.872.08-Feb-2020 3135.01 4728.48 69.18 4.00 141.01 2647.94
   09:29:47.072.08-Feb-2020 3135.01 4728.48 69.18 4.00 141.21 2647.94
   09:29:47.272.08-Feb-2020 3135.01 4728.73 69.18 4.00 141.41 2647.94
   09:29:47.472.08-Feb-2020 3135.01 4728.59 69.18 4.00 141.61 2647.94
   09:29:47.672.08-Feb-2020 3135.01 4728.43 69.18 4.00 141.81 2647.94
   09:29:47.872.08-Feb-2020 3135.01 4728.39 69.18 4.00 142.01 2647.94
   09:29:48.072.08-Feb-2020 3135.01 4728.39 69.18 4.00 142.21 2647.94
   09:29:48.272.08-Feb-2020 3135.01 4728.03 69.18 4.00 142.41 2647.94
   09:29:48.472.08-Feb-2020 3135.01 4728.20 69.18 4.00 142.61 2647.94
   09:29:48.672.08-Feb-2020 3135.01 4728.26 69.18 4.00 142.81 2647.94
   09:29:48.872.08-Feb-2020 3135.01 4728.70 69.18 4.00 143.01 2647.94
   09:29:49.072.08-Feb-2020 3135.01 4728.70 69.18 4.00 143.21 2647.94
   09:29:49.272.08-Feb-2020 3135.01 4728.60 69.18 4.00 143.41 2647.94
   09:29:49.472.08-Feb-2020 3135.01 4728.42 69.18 4.00 143.61 2647.94
   09:29:49.672.08-Feb-2020 3135.01 4728.69 69.18 4.00 143.81 2647.94
   09:29:49.872.08-Feb-2020 3135.01 4728.49 69.18 4.00 144.01 2647.94
   09:29:50.072.08-Feb-2020 3135.01 4728.49 69.18 4.00 144.21 2647.94
   09:29:50.272.08-Feb-2020 3135.01 4728.55 69.18 4.00 144.41 2647.94
   09:29:50.472.08-Feb-2020 3135.01 4728.68 69.18 4.00 144.61 2647.94
   09:29:50.672.08-Feb-2020 3135.01 4729.33 69.18 4.00 144.81 2647.94
   09:29:50.872.08-Feb-2020 3135.01 4728.83 69.18 4.00 145.01 2647.94
   09:29:51.072.08-Feb-2020 3135.01 4728.83 69.18 4.00 145.21 2647.94
   09:29:51.272.08-Feb-2020 3135.01 4729.41 69.18 4.00 145.41 2647.94
   09:29:51.472.08-Feb-2020 3135.01 4727.99 69.18 4.00 145.61 2647.94
   09:29:51.672.08-Feb-2020 3135.01 4727.79 69.18 4.00 145.81 2647.94
   09:29:51.872.08-Feb-2020 3135.01 4728.49 69.18 4.00 146.01 2647.94
   09:29:52.073.08-Feb-2020 3135.01 4728.49 69.18 4.00 146.21 2647.94
   09:29:52.273.08-Feb-2020 3135.01 4728.91 69.18 4.00 146.41 2647.94
   09:29:52.473.08-Feb-2020 3135.01 4729.04 69.18 4.00 146.61 2647.94
   09:29:52.673.08-Feb-2020 3135.01 4728.28 69.18 4.00 146.81 2647.94
   09:29:52.873.08-Feb-2020 3135.01 4729.16 69.18 4.00 147.01 2647.94
   09:29:53.073.08-Feb-2020 3135.01 4729.16 69.18 4.00 147.21 2647.94
   09:29:53.273.08-Feb-2020 3135.01 4728.04 69.18 4.00 147.41 2647.94
   09:29:53.473.08-Feb-2020 3135.01 4728.21 69.18 4.00 147.61 2647.94
   09:29:53.673.08-Feb-2020 3135.01 4728.93 69.18 4.00 147.81 2647.94
   09:29:53.873.08-Feb-2020 3135.01 4728.18 69.18 4.00 148.01 2647.94
   09:29:54.073.08-Feb-2020 3135.01 4728.18 69.18 4.00 148.21 2647.94
   09:29:54.273.08-Feb-2020 3135.01 4729.31 69.18 4.00 148.41 2647.94
   09:29:54.473.08-Feb-2020 3135.01 4728.36 69.18 4.00 148.61 2647.94
   09:29:54.673.08-Feb-2020 3135.01 4728.40 69.18 4.00 148.81 2647.94
   09:29:54.873.08-Feb-2020 3135.01 4728.76 69.18 4.00 149.01 2647.94
   09:29:55.073.08-Feb-2020 3135.01 4728.76 69.18 4.00 149.21 2647.94
   09:29:55.273.08-Feb-2020 3135.01 4728.18 69.18 4.00 149.41 2647.94
   09:29:55.473.08-Feb-2020 3135.01 4728.31 69.18 4.00 149.61 2647.94
   09:29:55.673.08-Feb-2020 3135.01 4728.35 69.18 4.00 149.81 2647.94
   09:29:55.873.08-Feb-2020 3135.01 4728.27 69.18 4.00 150.01 2647.94
   09:29:56.073.08-Feb-2020 3135.01 4728.27 69.18 4.00 150.21 2647.94
   09:29:56.273.08-Feb-2020 3135.01 4727.71 69.18 4.00 150.41 2647.94
   09:29:56.473.08-Feb-2020 3135.01 4728.50 69.18 4.00 150.61 2647.94
   09:29:56.673.08-Feb-2020 3135.01 4728.93 69.18 4.00 150.81 2647.94
   09:29:56.873.08-Feb-2020 3135.01 4728.48 69.18 4.00 151.01 2647.94
   09:29:57.073.08-Feb-2020 3135.01 4728.48 69.18 4.00 151.21 2647.94
   09:29:57.273.08-Feb-2020 3135.01 4728.54 69.18 4.00 151.41 2647.94
   09:29:57.473.08-Feb-2020 3135.01 4728.41 69.18 4.00 151.61 2647.94
   09:29:57.673.08-Feb-2020 3135.01 4728.29 69.18 4.00 151.81 2647.94
   09:29:57.873.08-Feb-2020 3135.01 4728.36 69.18 4.00 152.01 2647.94
   09:29:58.073.08-Feb-2020 3135.01 4728.36 69.18 4.00 152.21 2647.94
   09:29:58.273.08-Feb-2020 3135.01 4728.41 69.18 4.00 152.41 2647.94
   09:29:58.473.08-Feb-2020 3135.01 4729.24 69.17 4.00 152.61 2647.94
   09:29:58.673.08-Feb-2020 3135.01 4728.35 69.17 4.00 152.81 2647.94
   09:29:58.873.08-Feb-2020 3135.01 4727.84 69.17 4.00 153.01 2647.94
   09:29:59.073.08-Feb-2020 3135.01 4727.84 69.17 4.00 153.21 2647.94
   09:29:59.273.08-Feb-2020 3135.01 4727.87 69.17 4.00 153.41 2647.94
   09:29:59.473.08-Feb-2020 3135.01 4729.69 69.17 4.00 153.61 2647.94
   09:29:59.673.08-Feb-2020 3135.01 4727.90 69.17 4.00 153.81 2647.94
   09:29:59.873.08-Feb-2020 3135.01 4728.48 69.17 4.00 154.01 2647.94
   09:30:00.073.08-Feb-2020 3135.01 4728.48 69.17 4.00 154.21 2647.94
   09:30:00.273.08-Feb-2020 3135.01 4728.29 69.17 4.00 154.41 2647.94
   09:30:00.473.08-Feb-2020 3135.01 4728.78 69.17 4.00 154.61 2647.94
   09:30:00.673.08-Feb-2020 3135.01 4729.33 69.17 4.00 154.81 2647.94
   09:30:00.873.08-Feb-2020 3135.01 4727.72 69.17 4.00 155.01 2647.94
   09:30:01.073.08-Feb-2020 3135.01 4727.72 69.17 4.00 155.21 2647.94
   09:30:01.273.08-Feb-2020 3135.01 4729.61 69.17 4.00 155.41 2647.94
   09:30:01.473.08-Feb-2020 3135.01 4728.25 69.17 4.00 155.61 2647.94
   09:30:01.673.08-Feb-2020 3135.01 4728.81 69.17 4.00 155.81 2647.94
   09:30:01.873.08-Feb-2020 3135.01 4728.64 69.17 4.00 156.01 2647.94
   09:30:02.073.08-Feb-2020 3135.01 4728.64 69.17 4.00 156.21 2647.94
   09:30:02.273.08-Feb-2020 3135.01 4728.73 69.17 4.00 156.41 2647.94
   09:30:02.473.08-Feb-2020 3135.01 4728.97 69.17 4.00 156.61 2647.94
   09:30:02.673.08-Feb-2020 3135.01 4728.85 69.17 4.00 156.81 2647.94
   09:30:02.873.08-Feb-2020 3135.01 4728.55 69.17 4.00 157.01 2647.94
   09:30:03.073.08-Feb-2020 3135.01 4728.55 69.17 4.00 157.21 2647.94
   09:30:03.273.08-Feb-2020 3135.01 4728.46 69.17 4.00 157.41 2647.94
   09:30:03.473.08-Feb-2020 3135.01 4729.49 69.17 4.00 157.61 2647.94
   09:30:03.673.08-Feb-2020 3135.01 4728.10 69.17 4.00 157.81 2647.94
   09:30:03.873.08-Feb-2020 3135.01 4727.96 69.17 4.00 158.01 2647.94
   09:30:04.074.08-Feb-2020 3135.01 4727.96 69.17 4.00 158.21 2647.94
   09:30:04.274.08-Feb-2020 3135.01 4729.01 69.17 4.00 158.41 2647.94
   09:30:04.474.08-Feb-2020 3135.01 4728.42 69.17 4.00 158.61 2647.94
   09:30:04.674.08-Feb-2020 3135.01 4728.32 69.17 4.00 158.81 2647.94
   09:30:04.874.08-Feb-2020 3135.01 4728.54 69.17 4.00 159.01 2647.94
   09:30:05.074.08-Feb-2020 3135.01 4728.54 69.17 4.00 159.21 2647.94
   09:30:05.274.08-Feb-2020 3135.01 4728.29 69.17 4.00 159.41 2647.94
   09:30:05.474.08-Feb-2020 3135.01 4728.39 69.17 4.00 159.61 2647.94
   09:30:05.674.08-Feb-2020 3135.01 4727.74 69.17 4.00 159.81 2647.94
   09:30:05.874.08-Feb-2020 3135.01 4729.20 69.17 4.00 160.01 2647.94
   09:30:06.074.08-Feb-2020 3135.01 4729.20 69.17 4.00 160.21 2647.94
   09:30:06.274.08-Feb-2020 3135.01 4727.82 69.17 4.00 160.41 2647.94
   09:30:06.474.08-Feb-2020 3135.01 4729.26 69.17 4.00 160.61 2647.94
   09:30:06.674.08-Feb-2020 3135.01 4728.32 69.17 4.00 160.81 2647.94
