~Version Information
 VERS.                  2.0:   CWLS log ASCII Standard -VERSION 2.0
 WRAP.                   NO:   One line per depth step
~Well Information Block
#MNEM.UNIT     VALUE/NAME     DESCRIPTION
#---------     -----------    ---------------------------
 STRT.S             08:41:50 08-Feb-20: START TIME 08:41:50 08-Feb-20
 STOP.S             08:48:48 08-Feb-20: STOP TIME  08:48:48 08-Feb-20
 STEP.S                   0.00: STEP TIME
 NULL.                 -999.25: NULL VALUE
 DFWT.                        :  DIST FWL TEXT
 DFST.                        :  DIST FSL TEXT
 DMF .             Drill Floor:  DRILL MEAS FROM
 STIM.      07.00.00 09-Jan-20:  START TIME
 DATE.      14.04.48 07-Feb-20:  END TIME
 SPUD.               09-Jan-20:  SPUD DATE
 NREF.                    Grid:  NORTH REFERENCE
 HPTY.       Minimum Curvature:  HOLE POS TYPE
 DMOD.             Drill Model:  DRILL MOD DESC
 SVYD.                  Survey:  SURVEY DESC
 ILTD.               Lithology:  INTERP LTH DESC
 FTOP.          Formation Tops:  FORM TOPS DESC
 SON .        AZ-XX-0905059384:  JOB NUMBER
 MDS .        Operator Entered:  MAG DATA SOURCE
 WTYP.                Deviated:  WELL TYPE
 COMP.     BP Exploration (Caspian Sea) Ltd.:  COMPANY
 UWI .                     N/A:  UNIQUE WELL IDENTIFIER
 API .                     N/A:  API NUMBER
 BASE.              Azerbaijan:  LOGGING EQUIPMENT BASE LOCATION
 REGN.                   EESSA:  REGION
 PROV.                    Baku:  PROVINCE
 STAT.                    Baku:  STATE NAME
 CTRY.              Azerbaijan:  COUNTRY NAME
 FLD .                     ACG:  FIELD NAME
 SRVC.     TURAN Drilling & Engineering:  CONTRACTOR
 MWDS.                    Baku:  MWD SHOP
 WELL.                     J22:  WELL NAME
 RIG .             West Chirag:  RIG NAME
 DOE .                     N/A:  DOE NUMBER
 DCON.         Sperry Drilling:  DIRECTNL CONTR
 UNIT.                     N/A:  LOGGING EQUIPMENT ID
 PDAT.          Mean Sea Level:  PERMANENT DATUM
 JOBN.        AZ-XX-0905059384:  JOB TICKET NUMB
 CNTY.                        :  COUNTY
 LOC .                        :  LOCATION
 LMF .             Drill Floor:  LOG MEASURED FROM
 TVDS.m                  43.00:  TVDSS CORRECTN
 LATI.deg                40.13:  LATITUDE
 LONG.deg                51.22:  LONGITUDE
 WHNS.m                  10.28:  WELL HEAD N/S
 WHEW.m                  -6.24:  WELL HEAD E/W
 UTMX.m              519005.06:  UTM X
 UTMY.m             4443793.85:  UTM Y
 DFWL.m                   0.00:  DISTANCE FWL
 DFSL.m                   0.00:  DISTANCE FSL
 SDEP.m                 362.00:  START DEPTH
 TDD .m                 904.00:  TOTAL DEPTH (DRILLER)
 VSDR.deg               148.53:  VERT SEC DIRECT
 GVFD.g                   1.00:  GRAVITY FIELD
 MFLD.nT              50277.00:  MAGNETIC FIELD
 MDIP.deg                59.56:  MAGNETIC DIP
 MDEC.deg                 6.42:  MAGNETIC DECL
 GRDC.deg                 0.15:  GRID CORRECTION
 AZTC.deg                 6.27:  AZM TOTAL CORR
 EPD .m                   0.00:  ELEVATION
 EGL .m                   0.00:  GROUND ELEVATION
 WDMS.m                 169.80:  WD ELEV
 APD .m                  43.00:  DEPTH ABOVE PD
 AGAP.m                  43.00:  AIR GAP
 VSEW.m                  -6.24:  VERT SEC E/W
 VSNS.m                  10.28:  VERT SEC N/S
 DEP .m                   0.00:  DEPTH
 EKB .m                   0.00:  KB ELEVATION
 EDF .m                  43.00:  DF ELEVATION
 TDL .m                1183.00:  TOTAL DEPTH (LOGGER)
 VSC .                       0:  VS TO CLOSURE
 MAGU.                 1850021:  MAGUTM CHECKSUM
~Parameter Information Block
#MNEM.UNIT       Value        Description
#---------     -----------    ---------------------------
 AV  .mps                 4.00:  Ann Velocity 
 AVMX.mps                 4.50:  Max Ann Veloc 
 AZIF.deg               145.38:  Azm, Final 
 BHAT.        Rotary Steerable:  BHA Type 
 BROT.°/30m               3.00:  Build Rotating 
 BS  .in                 12.25:  Bit Size 
 BSZ .in                 12.25:  Bit Size 
 BTPL.psig              650.00:  Bit Press Loss 
 CABU.                      No:  Customer Abuse 
 COMM.                     [:  Run Comments 1 
 TCS .hr                101.62:  Time Ciculation Ended 
 CV  .mps                 5.00:  Crit Velocity 
 CVMX.mps                 5.00:  Max Crit Veloc 
 DD1 .             Aziz Aliyev:  Direct Drillr 1 
 DD2 .      Fakhraddin Guliyev:  Direct Drillr 2 
 DDSV.                 iCruise:  DD Service 
 DEFF.%                  97.00:  % Det Eff 
 DLRX.°/30m               4.16:  Dogleg Rot Max 
 DLSO.°/30m               3.20:  Dogleg Oriented 
 DLSX.°/30m               4.10:  Dogleg Str Max 
 DRET.      23.12.00 07-Feb-20:  Drill End Time 
 DRST.      11.30.00 04-Feb-20:  Drill Start Tim 
 DTIM.hr                 61.06:  Time Drilling 
 EDEP.m                3219.01:  End Depth 
 ENG1.         Almaz Almadatov:  Engineer 1 
 ENG2.         Dair Mahammadov:  Engineer 2 
 ENG3.          Nazrin Asgarli:  Engineer 3 
 ETIM.      02.30.00 11-Feb-20:  End Time 
 FLOI.gpm              1100.00:  Flow In 
 FLON.gpm               900.00:  Flow In Min 
 FLOS.cptm               55.00:  Fluid Loss 
 FLOX.gpm              1150.00:  Flow In Max 
 FTRO.       Formation Presure:  FTWD Run Obj 
 HFLO.                      No:  High Flow 
 HPRE.                      No:  High Pressure 
 HTEM.                      No:  High Temp 
 HYDO.m                   1.80:  Hydro Offset 
 IFIN.deg                75.11:  Inc, Final 
 IMAX.deg                75.11:  Inc Max 
 IMIN.deg                33.55:  Inc Min 
 IMND.m                2186.05:  Inc Min Depth 
 IMXD.m                3205.61:  Inc Max Depth 
 JARR.                      No:  Jarring 
 LETM.      23.12.00 07-Feb-20:  Log End Time 
 LOST.hr                     0:  Lost Rig Time 
 LSTM.      11.30.00 04-Feb-20:  Log Start Time 
 MDCL.ppm             40000.00:  Mud Chlorides 
 MDES.     Inversion Oil/Synthetic:  Mud Desc 
 DFD .sg                  1.49:  Mud Density 
 MDMN.sg                  1.49:  Dens Mud Min 
 MDMX.sg                  1.49:  Dens Mud Max 
 MOIL.                      73:  Run Mud Oil % 
 MOWR.                   73:27:  Run Mud OWR 
 MSND.                     0.1:  Run Mud Sand % 
 MSOL.                    20.1:  Run Mud Solids% 
 DFV .spqt               78.00:  Mud Viscosity 
 MWOD.in                  8.00:  MWD Tool OD 
 MWSI.                      No:  Serv Intrp, MWD 
 OTIM.hr                177.15:  Time Operating 
 PCON.          Wear / Scratch:  Pad Condition 
 PMAX.psia            10493.93:  Press Op, Max 
 PV  .cP                 73.00:  Mud PV 
 RUN .                     700:  Run Number 
 ROPA.m/hr               15.00:  ROP Avg 
 ROPN.m/hr               10.00:  ROP Min 
 ROPX.m/hr               35.00:  ROP Max 
 RPMA.rpm               130.00:  RPM Surface Avg 
 RPMN.rpm                80.00:  RPM Surface Min 
 RPMX.rpm               150.00:  RPM Surface Max 
 RRUN.                    L402:  Rig Run Number 
 RTIM.hr                 80.50:  Time Reaming 
 SAZI.deg               155.55:  Azm, Start 
 SDEP.m                2036.00:  Start Depth 
 SIDD.                      No:  Serv Intrp, DD 
 SINC.deg                35.44:  Inc, Start 
 SPPA.psig             4270.00:  SPP Avg 
 SPPN.psig             2800.00:  SPP Min 
 SPPX.psig             4850.00:  SPP Max 
 STIM.      09.30.00 03-Feb-20:  Start Time 
 SVCS.                 DD, MWD:  Services 
 SVER.                    9.20:  Sperry Version 
 TDAT.m                1183.00:  Tot Depth Attmp 
 TDDF.                      No:  Trip for DD 
 TDLG.m                1183.00:  Tot Depth Loggd 
 TFF .                      No:  Trip for Fail 
 TQAA.f-kp               16.00:  Torque Abs Avg 
 TQAN.f-kp               10.00:  Torque Abs Min 
 TQAX.f-kp               20.00:  Torque Abs Max 
 TRRT.°/30m               1.00:  Turn Rotating 
 MRT .                  EWR-M5:  Maximum Recorded Temperature 
 TTMX.degC               80.39:  Max Tool Temp 
 VS01.               13098498 :  Virtual Str1 SN 
 VS02.                90569596:  Virtual Str2 SN 
 VS03.                90523599:  Virtual Str3 SN 
 VS04.                90573553:  Virtual Str4 SN 
 VS05.                90598598:  Virtual Str5 SN 
 VS06.                90577297:  Virtual Str6 SN 
 WBMN.klb                13.00:  WOB Min 
 WITN.         Alistair Sprott:  Customer Rep 
 WITN.           Rufat Babayev:  Customer Rep 2 
 WOBA.klb                15.00:  WOB Avg 
 WOBX.klb                20.00:  WOB Max 
 YP  .lhf2               39.00:  Yield Point 
~Curve Information Block
#MNEM.UNIT                 API CODE     Curve Description
#---------               -----------    ---------------------------
 TIME.HHMMSS            00 000 000 000:  GT Time & Date
 GTDEPTH.m              00 000 000 000:  GT Depth
 GTPQH.psia             00 000 000 000:  GT HR Quartz Pressure
 GTTQ.degC              00 000 000 000:  GT Quartz Temperature
 GTTN.NONE              00 000 000 000:  GT Test Number
 GTET.sec               00 000 000 000:  GT Elapsed Test Time
 GTTVD.m                00 000 000 000:  GT True Vertical Depth
#Other Information
#
#WARRANTY: Halliburton will use its best efforts to furnish customers with 
#accurate information and interpretations that are part of, and incident to, the services 
#provided.  However, Halliburton cannot and does not warrant the accuracy 
#or correctness of such information and interpretations.  Under no circumstances should any 
#such information or interpretation be relied upon as the sole basis for any drilling, 
#completion, production, or financial decision or any procedure involving any risk to the 
#safety of any drilling venture, drilling rig or its crew or any other third party.  The 
#Customer has full responsibility for all drilling, completion and production operation.  
#Halliburton makes no representations or warranties, either expressed or 
#implied, including, but not limited to, the implied warranties of merchantability or fitness 
#for a particular purpose, with respect to the services rendered.  In no event will 
#Halliburton be liable for failure to obtain any particular results or for 
#any damages, including, but not limited to, indirect, special or consequential damages, 
#resulting from the use of any information or interpretation provided by Halliburton.
#
~A           TIME           GTDEPTH  GTPQH  GTTQ  GTTN  GTET   GTTVD  
# ...
   08:48:21.664.08-Feb-2020 3153.01 5765.76 70.93 2.00 391.03 2652.69
   08:48:21.864.08-Feb-2020 3153.01 5765.76 70.93 2.00 391.23 2652.69
   08:48:22.064.08-Feb-2020 3153.01 5767.07 70.93 2.00 391.43 2652.69
   08:48:22.264.08-Feb-2020 3153.01 5767.54 70.93 2.00 391.63 2652.69
   08:48:22.464.08-Feb-2020 3153.01 5768.52 70.93 2.00 391.83 2652.69
   08:48:22.664.08-Feb-2020 3153.01 5767.91 70.93 2.00 392.03 2652.69
   08:48:22.864.08-Feb-2020 3153.01 5767.91 70.93 2.00 392.23 2652.69
   08:48:23.064.08-Feb-2020 3153.01 5765.91 70.93 2.00 392.43 2652.69
   08:48:23.264.08-Feb-2020 3153.01 5769.39 70.93 2.00 392.63 2652.69
   08:48:23.464.08-Feb-2020 3153.01 5767.10 70.93 2.00 392.83 2652.69
   08:48:23.664.08-Feb-2020 3153.01 5766.42 70.93 2.00 393.03 2652.69
   08:48:23.864.08-Feb-2020 3153.01 5766.42 70.93 2.00 393.23 2652.69
   08:48:24.064.08-Feb-2020 3153.01 5767.21 70.93 2.00 393.43 2652.69
   08:48:24.264.08-Feb-2020 3153.01 5764.46 70.93 2.00 393.63 2652.69
   08:48:24.464.08-Feb-2020 3153.01 5773.13 70.93 2.00 393.83 2652.69
   08:48:24.664.08-Feb-2020 3153.01 5765.59 70.93 2.00 394.03 2652.69
   08:48:24.864.08-Feb-2020 3153.01 5765.59 70.93 2.00 394.23 2652.69
   08:48:25.064.08-Feb-2020 3153.01 5765.60 70.93 2.00 394.43 2652.69
   08:48:25.264.08-Feb-2020 3153.01 5767.71 70.93 2.00 394.63 2652.69
   08:48:25.464.08-Feb-2020 3153.01 5766.03 70.93 2.00 394.83 2652.69
   08:48:25.664.08-Feb-2020 3153.01 5766.00 70.93 2.00 395.03 2652.69
   08:48:25.864.08-Feb-2020 3153.01 5766.00 70.93 2.00 395.23 2652.69
   08:48:26.064.08-Feb-2020 3153.01 5766.90 70.93 2.00 395.43 2652.69
   08:48:26.264.08-Feb-2020 3153.01 5766.27 70.93 2.00 395.63 2652.69
   08:48:26.464.08-Feb-2020 3153.01 5766.73 70.93 2.00 395.83 2652.69
   08:48:26.664.08-Feb-2020 3153.01 5770.12 70.93 2.00 396.03 2652.69
   08:48:26.864.08-Feb-2020 3153.01 5770.12 70.93 2.00 396.23 2652.69
   08:48:27.064.08-Feb-2020 3153.01 5765.38 70.93 2.00 396.43 2652.69
   08:48:27.264.08-Feb-2020 3153.01 5765.79 70.93 2.00 396.63 2652.69
   08:48:27.464.08-Feb-2020 3153.01 5767.66 70.93 2.00 396.83 2652.69
   08:48:27.664.08-Feb-2020 3153.01 5766.90 70.93 2.00 397.03 2652.69
   08:48:27.864.08-Feb-2020 3153.01 5766.90 70.93 2.00 397.23 2652.69
   08:48:28.064.08-Feb-2020 3153.01 5767.62 70.93 2.00 397.43 2652.69
   08:48:28.264.08-Feb-2020 3153.01 5766.87 70.93 2.00 397.63 2652.69
   08:48:28.464.08-Feb-2020 3153.01 5766.33 70.92 2.00 397.83 2652.69
   08:48:28.664.08-Feb-2020 3153.01 5767.09 70.92 2.00 398.03 2652.69
   08:48:28.864.08-Feb-2020 3153.01 5767.09 70.92 2.00 398.23 2652.69
   08:48:29.064.08-Feb-2020 3153.01 5765.20 70.92 2.00 398.43 2652.69
   08:48:29.265.08-Feb-2020 3153.01 5763.77 70.92 2.00 398.63 2652.69
   08:48:29.465.08-Feb-2020 3153.01 5772.29 70.92 2.00 398.83 2652.69
   08:48:29.665.08-Feb-2020 3153.01 5767.03 70.92 2.00 399.03 2652.69
   08:48:29.865.08-Feb-2020 3153.01 5767.03 70.92 2.00 399.23 2652.69
   08:48:30.065.08-Feb-2020 3153.01 5765.69 70.92 2.00 399.43 2652.69
   08:48:30.265.08-Feb-2020 3153.01 5772.22 70.92 2.00 399.63 2652.69
   08:48:30.465.08-Feb-2020 3153.01 5764.92 70.92 2.00 399.83 2652.69
   08:48:30.665.08-Feb-2020 3153.01 5763.27 70.92 2.00 400.03 2652.69
   08:48:30.865.08-Feb-2020 3153.01 5763.27 70.92 2.00 400.23 2652.69
   08:48:31.065.08-Feb-2020 3153.01 5764.62 70.92 2.00 400.43 2652.69
   08:48:31.265.08-Feb-2020 3153.01 5762.83 70.92 2.00 400.63 2652.69
   08:48:31.465.08-Feb-2020 3153.01 5763.84 70.92 2.00 400.83 2652.69
   08:48:31.665.08-Feb-2020 3153.01 5769.33 70.92 2.00 401.03 2652.69
   08:48:31.865.08-Feb-2020 3153.01 5769.33 70.92 2.00 401.23 2652.69
   08:48:32.065.08-Feb-2020 3153.01 5765.08 70.92 2.00 401.43 2652.69
   08:48:32.265.08-Feb-2020 3153.01 5766.48 70.92 2.00 401.63 2652.69
   08:48:32.465.08-Feb-2020 3153.01 5767.10 70.92 2.00 401.83 2652.69
   08:48:32.665.08-Feb-2020 3153.01 5765.78 70.92 2.00 402.03 2652.69
   08:48:32.865.08-Feb-2020 3153.01 5765.78 70.92 2.00 402.23 2652.69
   08:48:33.065.08-Feb-2020 3153.01 5767.54 70.92 2.00 402.43 2652.69
   08:48:33.265.08-Feb-2020 3153.01 5766.48 70.92 2.00 402.63 2652.69
   08:48:33.465.08-Feb-2020 3153.01 5766.61 70.92 2.00 402.83 2652.69
   08:48:33.665.08-Feb-2020 3153.01 5766.45 70.92 2.00 403.03 2652.69
   08:48:33.865.08-Feb-2020 3153.01 5766.45 70.92 2.00 403.23 2652.69
   08:48:34.065.08-Feb-2020 3153.01 5766.26 70.92 2.00 403.43 2652.69
   08:48:34.265.08-Feb-2020 3153.01 5765.19 70.92 2.00 403.63 2652.69
   08:48:34.465.08-Feb-2020 3153.01 5766.69 70.92 2.00 403.83 2652.69
   08:48:34.665.08-Feb-2020 3153.01 5767.54 70.92 2.00 404.03 2652.69
   08:48:34.865.08-Feb-2020 3153.01 5767.54 70.92 2.00 404.23 2652.69
   08:48:35.065.08-Feb-2020 3153.01 5766.22 70.92 2.00 404.43 2652.69
   08:48:35.265.08-Feb-2020 3153.01 5766.59 70.92 2.00 404.63 2652.69
   08:48:35.465.08-Feb-2020 3153.01 5766.22 70.92 2.00 404.83 2652.69
   08:48:35.665.08-Feb-2020 3153.01 5768.93 70.92 2.00 405.03 2652.69
   08:48:35.865.08-Feb-2020 3153.01 5768.93 70.92 2.00 405.23 2652.69
   08:48:36.065.08-Feb-2020 3153.01 5770.66 70.92 2.00 405.43 2652.69
   08:48:36.265.08-Feb-2020 3153.01 5769.11 70.92 2.00 405.63 2652.69
   08:48:36.465.08-Feb-2020 3153.01 5766.87 70.92 2.00 405.83 2652.69
   08:48:36.665.08-Feb-2020 3153.01 5771.64 70.92 2.00 406.03 2652.69
   08:48:36.865.08-Feb-2020 3153.01 5771.64 70.92 2.00 406.23 2652.69
   08:48:37.065.08-Feb-2020 3153.01 5766.73 70.92 2.00 406.43 2652.69
   08:48:37.265.08-Feb-2020 3153.01 5767.95 70.92 2.00 406.63 2652.69
   08:48:37.465.08-Feb-2020 3153.01 5773.18 70.92 2.00 406.83 2652.69
   08:48:37.665.08-Feb-2020 3153.01 5767.51 70.92 2.00 407.03 2652.69
   08:48:37.865.08-Feb-2020 3153.01 5767.51 70.92 2.00 407.23 2652.69
   08:48:38.065.08-Feb-2020 3153.01 5770.89 70.92 2.00 407.43 2652.69
   08:48:38.265.08-Feb-2020 3153.01 5769.41 70.92 2.00 407.63 2652.69
   08:48:38.465.08-Feb-2020 3153.01 5770.74 70.92 2.00 407.83 2652.69
   08:48:38.665.08-Feb-2020 3153.01 5769.78 70.92 2.00 408.03 2652.69
   08:48:38.865.08-Feb-2020 3153.01 5769.78 70.92 2.00 408.23 2652.69
   08:48:39.065.08-Feb-2020 3153.01 5766.60 70.92 2.00 408.43 2652.69
   08:48:39.265.08-Feb-2020 3153.01 5768.94 70.92 2.00 408.63 2652.69
   08:48:39.465.08-Feb-2020 3153.01 5769.40 70.91 2.00 408.83 2652.69
   08:48:39.665.08-Feb-2020 3153.01 5768.47 70.91 2.00 409.03 2652.69
   08:48:39.865.08-Feb-2020 3153.01 5768.47 70.91 2.00 409.23 2652.69
   08:48:40.065.08-Feb-2020 3153.01 5769.19 70.91 2.00 409.43 2652.69
   08:48:40.265.08-Feb-2020 3153.01 5768.80 70.91 2.00 409.63 2652.69
   08:48:40.465.08-Feb-2020 3153.01 5768.32 70.91 2.00 409.83 2652.69
   08:48:40.665.08-Feb-2020 3153.01 5768.93 70.91 2.00 410.03 2652.69
   08:48:40.865.08-Feb-2020 3153.01 5768.93 70.91 2.00 410.23 2652.69
   08:48:41.066.08-Feb-2020 3153.01 5769.21 70.91 2.00 410.43 2652.69
   08:48:41.266.08-Feb-2020 3153.01 5766.93 70.91 2.00 410.63 2652.69
   08:48:41.466.08-Feb-2020 3153.01 5767.73 70.91 2.00 410.83 2652.69
   08:48:41.666.08-Feb-2020 3153.01 5768.51 70.91 2.00 411.03 2652.69
   08:48:41.866.08-Feb-2020 3153.01 5768.51 70.91 2.00 411.23 2652.69
   08:48:42.066.08-Feb-2020 3153.01 5767.50 70.91 2.00 411.43 2652.69
   08:48:42.266.08-Feb-2020 3153.01 5768.67 70.91 2.00 411.63 2652.69
   08:48:42.466.08-Feb-2020 3153.01 5767.93 70.91 2.00 411.83 2652.69
   08:48:42.666.08-Feb-2020 3153.01 5767.64 70.91 2.00 412.03 2652.69
   08:48:42.866.08-Feb-2020 3153.01 5767.64 70.91 2.00 412.23 2652.69
   08:48:43.066.08-Feb-2020 3153.01 5770.19 70.91 2.00 412.43 2652.69
   08:48:43.266.08-Feb-2020 3153.01 5766.61 70.91 2.00 412.63 2652.69
   08:48:43.466.08-Feb-2020 3153.01 5772.81 70.91 2.00 412.83 2652.69
   08:48:43.666.08-Feb-2020 3153.01 5769.39 70.91 2.00 413.03 2652.69
   08:48:43.866.08-Feb-2020 3153.01 5769.39 70.91 2.00 413.23 2652.69
   08:48:44.066.08-Feb-2020 3153.01 5766.36 70.91 2.00 413.43 2652.69
   08:48:44.266.08-Feb-2020 3153.01 5774.42 70.91 2.00 413.63 2652.69
   08:48:44.466.08-Feb-2020 3153.01 5768.70 70.91 2.00 413.83 2652.69
