~Version Information
 VERS.                  2.0:   CWLS log ASCII Standard -VERSION 2.0
 WRAP.                   NO:   One line per depth step
~Well Information Block
#MNEM.UNIT     VALUE/NAME     DESCRIPTION
#---------     -----------    ---------------------------
 STRT.S             12:03:05 08-Feb-20: START TIME 12:03:05 08-Feb-20
 STOP.S             12:09:57 08-Feb-20: STOP TIME  12:09:57 08-Feb-20
 STEP.S                   0.00: STEP TIME
 NULL.                 -999.25: NULL VALUE
 DFWT.                        :  DIST FWL TEXT
 DFST.                        :  DIST FSL TEXT
 DMF .             Drill Floor:  DRILL MEAS FROM
 STIM.      07.00.00 09-Jan-20:  START TIME
 DATE.      14.04.48 07-Feb-20:  END TIME
 SPUD.               09-Jan-20:  SPUD DATE
 NREF.                    Grid:  NORTH REFERENCE
 HPTY.       Minimum Curvature:  HOLE POS TYPE
 DMOD.             Drill Model:  DRILL MOD DESC
 SVYD.                  Survey:  SURVEY DESC
 ILTD.               Lithology:  INTERP LTH DESC
 FTOP.          Formation Tops:  FORM TOPS DESC
 SON .        AZ-XX-0905059384:  JOB NUMBER
 MDS .        Operator Entered:  MAG DATA SOURCE
 WTYP.                Deviated:  WELL TYPE
 COMP.     BP Exploration (Caspian Sea) Ltd.:  COMPANY
 UWI .                     N/A:  UNIQUE WELL IDENTIFIER
 API .                     N/A:  API NUMBER
 BASE.              Azerbaijan:  LOGGING EQUIPMENT BASE LOCATION
 REGN.                   EESSA:  REGION
 PROV.                    Baku:  PROVINCE
 STAT.                    Baku:  STATE NAME
 CTRY.              Azerbaijan:  COUNTRY NAME
 FLD .                     ACG:  FIELD NAME
 SRVC.     TURAN Drilling & Engineering:  CONTRACTOR
 MWDS.                    Baku:  MWD SHOP
 WELL.                     J22:  WELL NAME
 RIG .             West Chirag:  RIG NAME
 DOE .                     N/A:  DOE NUMBER
 DCON.         Sperry Drilling:  DIRECTNL CONTR
 UNIT.                     N/A:  LOGGING EQUIPMENT ID
 PDAT.          Mean Sea Level:  PERMANENT DATUM
 JOBN.        AZ-XX-0905059384:  JOB TICKET NUMB
 CNTY.                        :  COUNTY
 LOC .                        :  LOCATION
 LMF .             Drill Floor:  LOG MEASURED FROM
 TVDS.m                  43.00:  TVDSS CORRECTN
 LATI.deg                40.13:  LATITUDE
 LONG.deg                51.22:  LONGITUDE
 WHNS.m                  10.28:  WELL HEAD N/S
 WHEW.m                  -6.24:  WELL HEAD E/W
 UTMX.m              519005.06:  UTM X
 UTMY.m             4443793.85:  UTM Y
 DFWL.m                   0.00:  DISTANCE FWL
 DFSL.m                   0.00:  DISTANCE FSL
 SDEP.m                 362.00:  START DEPTH
 TDD .m                 904.00:  TOTAL DEPTH (DRILLER)
 VSDR.deg               148.53:  VERT SEC DIRECT
 GVFD.g                   1.00:  GRAVITY FIELD
 MFLD.nT              50277.00:  MAGNETIC FIELD
 MDIP.deg                59.56:  MAGNETIC DIP
 MDEC.deg                 6.42:  MAGNETIC DECL
 GRDC.deg                 0.15:  GRID CORRECTION
 AZTC.deg                 6.27:  AZM TOTAL CORR
 EPD .m                   0.00:  ELEVATION
 EGL .m                   0.00:  GROUND ELEVATION
 WDMS.m                 169.80:  WD ELEV
 APD .m                  43.00:  DEPTH ABOVE PD
 AGAP.m                  43.00:  AIR GAP
 VSEW.m                  -6.24:  VERT SEC E/W
 VSNS.m                  10.28:  VERT SEC N/S
 DEP .m                   0.00:  DEPTH
 EKB .m                   0.00:  KB ELEVATION
 EDF .m                  43.00:  DF ELEVATION
 TDL .m                1183.00:  TOTAL DEPTH (LOGGER)
 VSC .                       0:  VS TO CLOSURE
 MAGU.                 1850021:  MAGUTM CHECKSUM
~Parameter Information Block
#MNEM.UNIT       Value        Description
#---------     -----------    ---------------------------
 AV  .mps                 4.00:  Ann Velocity 
 AVMX.mps                 4.50:  Max Ann Veloc 
 AZIF.deg               145.38:  Azm, Final 
 BHAT.        Rotary Steerable:  BHA Type 
 BROT.°/30m               3.00:  Build Rotating 
 BS  .in                 12.25:  Bit Size 
 BSZ .in                 12.25:  Bit Size 
 BTPL.psig              650.00:  Bit Press Loss 
 CABU.                      No:  Customer Abuse 
 COMM.                     ÌSf:  Run Comments 1 
 TCS .hr                101.62:  Time Ciculation Ended 
 CV  .mps                 5.00:  Crit Velocity 
 CVMX.mps                 5.00:  Max Crit Veloc 
 DD1 .             Aziz Aliyev:  Direct Drillr 1 
 DD2 .      Fakhraddin Guliyev:  Direct Drillr 2 
 DDSV.                 iCruise:  DD Service 
 DEFF.%                  97.00:  % Det Eff 
 DLRX.°/30m               4.16:  Dogleg Rot Max 
 DLSO.°/30m               3.20:  Dogleg Oriented 
 DLSX.°/30m               4.10:  Dogleg Str Max 
 DRET.      23.12.00 07-Feb-20:  Drill End Time 
 DRST.      11.30.00 04-Feb-20:  Drill Start Tim 
 DTIM.hr                 61.06:  Time Drilling 
 EDEP.m                3219.01:  End Depth 
 ENG1.         Almaz Almadatov:  Engineer 1 
 ENG2.         Dair Mahammadov:  Engineer 2 
 ENG3.          Nazrin Asgarli:  Engineer 3 
 ETIM.      02.30.00 11-Feb-20:  End Time 
 FLOI.gpm              1100.00:  Flow In 
 FLON.gpm               900.00:  Flow In Min 
 FLOS.cptm               55.00:  Fluid Loss 
 FLOX.gpm              1150.00:  Flow In Max 
 FTRO.       Formation Presure:  FTWD Run Obj 
 HFLO.                      No:  High Flow 
 HPRE.                      No:  High Pressure 
 HTEM.                      No:  High Temp 
 HYDO.m                   1.80:  Hydro Offset 
 IFIN.deg                75.11:  Inc, Final 
 IMAX.deg                75.11:  Inc Max 
 IMIN.deg                33.55:  Inc Min 
 IMND.m                2186.05:  Inc Min Depth 
 IMXD.m                3205.61:  Inc Max Depth 
 JARR.                      No:  Jarring 
 LETM.      23.12.00 07-Feb-20:  Log End Time 
 LOST.hr                     0:  Lost Rig Time 
 LSTM.      11.30.00 04-Feb-20:  Log Start Time 
 MDCL.ppm             40000.00:  Mud Chlorides 
 MDES.     Inversion Oil/Synthetic:  Mud Desc 
 DFD .sg                  1.49:  Mud Density 
 MDMN.sg                  1.49:  Dens Mud Min 
 MDMX.sg                  1.49:  Dens Mud Max 
 MOIL.                      73:  Run Mud Oil % 
 MOWR.                   73:27:  Run Mud OWR 
 MSND.                     0.1:  Run Mud Sand % 
 MSOL.                    20.1:  Run Mud Solids% 
 DFV .spqt               78.00:  Mud Viscosity 
 MWOD.in                  8.00:  MWD Tool OD 
 MWSI.                      No:  Serv Intrp, MWD 
 OTIM.hr                177.15:  Time Operating 
 PCON.          Wear / Scratch:  Pad Condition 
 PMAX.psia            10493.93:  Press Op, Max 
 PV  .cP                 73.00:  Mud PV 
 RUN .                     700:  Run Number 
 ROPA.m/hr               15.00:  ROP Avg 
 ROPN.m/hr               10.00:  ROP Min 
 ROPX.m/hr               35.00:  ROP Max 
 RPMA.rpm               130.00:  RPM Surface Avg 
 RPMN.rpm                80.00:  RPM Surface Min 
 RPMX.rpm               150.00:  RPM Surface Max 
 RRUN.                    L402:  Rig Run Number 
 RTIM.hr                 80.50:  Time Reaming 
 SAZI.deg               155.55:  Azm, Start 
 SDEP.m                2036.00:  Start Depth 
 SIDD.                      No:  Serv Intrp, DD 
 SINC.deg                35.44:  Inc, Start 
 SPPA.psig             4270.00:  SPP Avg 
 SPPN.psig             2800.00:  SPP Min 
 SPPX.psig             4850.00:  SPP Max 
 STIM.      09.30.00 03-Feb-20:  Start Time 
 SVCS.                 DD, MWD:  Services 
 SVER.                    9.20:  Sperry Version 
 TDAT.m                1183.00:  Tot Depth Attmp 
 TDDF.                      No:  Trip for DD 
 TDLG.m                1183.00:  Tot Depth Loggd 
 TFF .                      No:  Trip for Fail 
 TQAA.f-kp               16.00:  Torque Abs Avg 
 TQAN.f-kp               10.00:  Torque Abs Min 
 TQAX.f-kp               20.00:  Torque Abs Max 
 TRRT.°/30m               1.00:  Turn Rotating 
 MRT .                  EWR-M5:  Maximum Recorded Temperature 
 TTMX.degC               80.39:  Max Tool Temp 
 VS01.               13098498 :  Virtual Str1 SN 
 VS02.                90569596:  Virtual Str2 SN 
 VS03.                90523599:  Virtual Str3 SN 
 VS04.                90573553:  Virtual Str4 SN 
 VS05.                90598598:  Virtual Str5 SN 
 VS06.                90577297:  Virtual Str6 SN 
 WBMN.klb                13.00:  WOB Min 
 WITN.         Alistair Sprott:  Customer Rep 
 WITN.           Rufat Babayev:  Customer Rep 2 
 WOBA.klb                15.00:  WOB Avg 
 WOBX.klb                20.00:  WOB Max 
 YP  .lhf2               39.00:  Yield Point 
~Curve Information Block
#MNEM.UNIT                 API CODE     Curve Description
#---------               -----------    ---------------------------
 TIME.HHMMSS            00 000 000 000:  GT Time & Date
 GTDEPTH.m              00 000 000 000:  GT Depth
 GTPQH.psia             00 000 000 000:  GT HR Quartz Pressure
 GTTQ.degC              00 000 000 000:  GT Quartz Temperature
 GTTN.NONE              00 000 000 000:  GT Test Number
 GTET.sec               00 000 000 000:  GT Elapsed Test Time
 GTTVD.m                00 000 000 000:  GT True Vertical Depth
#Other Information
#
#WARRANTY: Halliburton will use its best efforts to furnish customers with 
#accurate information and interpretations that are part of, and incident to, the services 
#provided.  However, Halliburton cannot and does not warrant the accuracy 
#or correctness of such information and interpretations.  Under no circumstances should any 
#such information or interpretation be relied upon as the sole basis for any drilling, 
#completion, production, or financial decision or any procedure involving any risk to the 
#safety of any drilling venture, drilling rig or its crew or any other third party.  The 
#Customer has full responsibility for all drilling, completion and production operation.  
#Halliburton makes no representations or warranties, either expressed or 
#implied, including, but not limited to, the implied warranties of merchantability or fitness 
#for a particular purpose, with respect to the services rendered.  In no event will 
#Halliburton be liable for failure to obtain any particular results or for 
#any damages, including, but not limited to, indirect, special or consequential damages, 
#resulting from the use of any information or interpretation provided by Halliburton.
#
~A           TIME           GTDEPTH  GTPQH  GTTQ  GTTN  GTET   GTTVD  
# ...
   12:08:27.000.08-Feb-2020 3069.01 3989.93 65.92 7.00 322.00 2627.56
   12:08:27.200.08-Feb-2020 3069.01 3989.93 65.92 7.00 322.20 2627.56
   12:08:27.400.08-Feb-2020 3069.01 4002.48 65.92 7.00 322.40 2627.56
   12:08:27.600.08-Feb-2020 3069.01 4008.60 65.92 7.00 322.60 2627.56
   12:08:27.800.08-Feb-2020 3069.01 4014.31 65.92 7.00 322.80 2627.56
   12:08:28.000.08-Feb-2020 3069.01 4020.44 65.92 7.00 323.00 2627.56
   12:08:28.200.08-Feb-2020 3069.01 4020.44 65.92 7.00 323.20 2627.56
   12:08:28.400.08-Feb-2020 3069.01 4032.57 65.92 7.00 323.40 2627.56
   12:08:28.600.08-Feb-2020 3069.01 4038.51 65.92 7.00 323.60 2627.56
   12:08:28.800.08-Feb-2020 3069.01 4043.77 65.92 7.00 323.80 2627.56
   12:08:29.000.08-Feb-2020 3069.01 4049.56 65.92 7.00 324.00 2627.56
   12:08:29.200.08-Feb-2020 3069.01 4049.56 65.92 7.00 324.20 2627.56
   12:08:29.400.08-Feb-2020 3069.01 4060.86 65.92 7.00 324.40 2627.56
   12:08:29.600.08-Feb-2020 3069.01 4066.41 65.92 7.00 324.60 2627.56
   12:08:29.800.08-Feb-2020 3069.01 4072.00 65.92 7.00 324.80 2627.56
   12:08:30.000.08-Feb-2020 3069.01 4077.78 65.92 7.00 325.00 2627.56
   12:08:30.200.08-Feb-2020 3069.01 4077.78 65.92 7.00 325.20 2627.56
   12:08:30.400.08-Feb-2020 3069.01 4088.48 65.92 7.00 325.40 2627.56
   12:08:30.600.08-Feb-2020 3069.01 4093.93 65.92 7.00 325.60 2627.56
   12:08:30.800.08-Feb-2020 3069.01 4099.29 65.92 7.00 325.80 2627.56
   12:08:31.000.08-Feb-2020 3069.01 4104.53 65.92 7.00 326.00 2627.56
   12:08:31.200.08-Feb-2020 3069.01 4104.53 65.92 7.00 326.20 2627.56
   12:08:31.400.08-Feb-2020 3069.01 4114.90 65.92 7.00 326.40 2627.56
   12:08:31.600.08-Feb-2020 3069.01 4119.94 65.92 7.00 326.60 2627.56
   12:08:31.800.08-Feb-2020 3069.01 4125.06 65.92 7.00 326.80 2627.56
   12:08:32.000.08-Feb-2020 3069.01 4130.21 65.92 7.00 327.00 2627.56
   12:08:32.200.08-Feb-2020 3069.01 4130.21 65.92 7.00 327.20 2627.56
   12:08:32.400.08-Feb-2020 3069.01 4139.24 65.92 7.00 327.40 2627.56
   12:08:32.600.08-Feb-2020 3069.01 4144.05 65.92 7.00 327.60 2627.56
   12:08:32.800.08-Feb-2020 3069.01 4149.03 65.92 7.00 327.80 2627.56
   12:08:33.000.08-Feb-2020 3069.01 4153.81 65.92 7.00 328.00 2627.56
   12:08:33.200.08-Feb-2020 3069.01 4153.81 65.92 7.00 328.20 2627.56
   12:08:33.400.08-Feb-2020 3069.01 4163.35 65.92 7.00 328.40 2627.56
   12:08:33.600.08-Feb-2020 3069.01 4167.92 65.91 7.00 328.60 2627.56
   12:08:33.800.08-Feb-2020 3069.01 4172.54 65.91 7.00 328.80 2627.56
   12:08:34.000.08-Feb-2020 3069.01 4177.17 65.91 7.00 329.00 2627.56
   12:08:34.200.08-Feb-2020 3069.01 4177.17 65.91 7.00 329.20 2627.56
   12:08:34.400.08-Feb-2020 3069.01 4186.15 65.91 7.00 329.40 2627.56
   12:08:34.600.08-Feb-2020 3069.01 4190.22 65.91 7.00 329.60 2627.56
   12:08:34.800.08-Feb-2020 3069.01 4194.52 65.91 7.00 329.80 2627.56
   12:08:35.000.08-Feb-2020 3069.01 4199.04 65.91 7.00 330.00 2627.56
   12:08:35.200.08-Feb-2020 3069.01 4199.04 65.91 7.00 330.20 2627.56
   12:08:35.400.08-Feb-2020 3069.01 4207.40 65.91 7.00 330.40 2627.56
   12:08:35.600.08-Feb-2020 3069.01 4211.65 65.91 7.00 330.60 2627.56
   12:08:35.800.08-Feb-2020 3069.01 4215.63 65.91 7.00 330.80 2627.56
   12:08:36.000.08-Feb-2020 3069.01 4219.96 65.91 7.00 331.00 2627.56
   12:08:36.200.08-Feb-2020 3069.01 4219.96 65.91 7.00 331.20 2627.56
   12:08:36.400.08-Feb-2020 3069.01 4227.34 65.91 7.00 331.40 2627.56
   12:08:36.600.08-Feb-2020 3069.01 4232.22 65.91 7.00 331.60 2627.56
   12:08:36.800.08-Feb-2020 3069.01 4236.19 65.91 7.00 331.80 2627.56
   12:08:37.000.08-Feb-2020 3069.01 4240.11 65.91 7.00 332.00 2627.56
   12:08:37.200.08-Feb-2020 3069.01 4240.11 65.91 7.00 332.20 2627.56
   12:08:37.400.08-Feb-2020 3069.01 4248.22 65.91 7.00 332.40 2627.56
   12:08:37.600.08-Feb-2020 3069.01 4252.12 65.91 7.00 332.60 2627.56
   12:08:37.800.08-Feb-2020 3069.01 4256.20 65.91 7.00 332.80 2627.56
   12:08:38.000.08-Feb-2020 3069.01 4260.08 65.91 7.00 333.00 2627.56
   12:08:38.200.08-Feb-2020 3069.01 4260.08 65.91 7.00 333.20 2627.56
   12:08:38.400.08-Feb-2020 3069.01 4267.64 65.91 7.00 333.40 2627.56
   12:08:38.600.08-Feb-2020 3069.01 4271.40 65.91 7.00 333.60 2627.56
   12:08:38.800.08-Feb-2020 3069.01 4275.10 65.91 7.00 333.80 2627.56
   12:08:39.000.08-Feb-2020 3069.01 4278.51 65.91 7.00 334.00 2627.56
   12:08:39.200.08-Feb-2020 3069.01 4278.51 65.91 7.00 334.20 2627.56
   12:08:39.400.08-Feb-2020 3069.01 4285.77 65.91 7.00 334.40 2627.56
   12:08:39.600.08-Feb-2020 3069.01 4289.18 65.91 7.00 334.60 2627.56
   12:08:39.800.08-Feb-2020 3069.01 4292.68 65.91 7.00 334.80 2627.56
   12:08:40.000.08-Feb-2020 3069.01 4296.33 65.91 7.00 335.00 2627.56
   12:08:40.200.08-Feb-2020 3069.01 4296.33 65.91 7.00 335.20 2627.56
   12:08:40.400.08-Feb-2020 3069.01 4303.26 65.91 7.00 335.40 2627.56
   12:08:40.600.08-Feb-2020 3069.01 4306.81 65.91 7.00 335.60 2627.56
   12:08:40.800.08-Feb-2020 3069.01 4310.14 65.91 7.00 335.80 2627.56
   12:08:41.000.08-Feb-2020 3069.01 4313.74 65.91 7.00 336.00 2627.56
   12:08:41.200.08-Feb-2020 3069.01 4313.74 65.91 7.00 336.20 2627.56
   12:08:41.400.08-Feb-2020 3069.01 4319.98 65.91 7.00 336.40 2627.56
   12:08:41.600.08-Feb-2020 3069.01 4323.60 65.91 7.00 336.60 2627.56
   12:08:41.800.08-Feb-2020 3069.01 4326.26 65.90 7.00 336.80 2627.56
   12:08:42.000.08-Feb-2020 3069.01 4329.65 65.90 7.00 337.00 2627.56
   12:08:42.200.08-Feb-2020 3069.01 4329.65 65.90 7.00 337.20 2627.56
   12:08:42.400.08-Feb-2020 3069.01 4336.35 65.90 7.00 337.40 2627.56
   12:08:42.600.08-Feb-2020 3069.01 4339.81 65.90 7.00 337.60 2627.56
   12:08:42.800.08-Feb-2020 3069.01 4342.82 65.90 7.00 337.80 2627.56
   12:08:43.000.08-Feb-2020 3069.01 4345.65 65.90 7.00 338.00 2627.56
   12:08:43.200.08-Feb-2020 3069.01 4345.65 65.90 7.00 338.20 2627.56
   12:08:43.400.08-Feb-2020 3069.01 4351.68 65.90 7.00 338.40 2627.56
   12:08:43.600.08-Feb-2020 3069.01 4354.72 65.90 7.00 338.60 2627.56
   12:08:43.800.08-Feb-2020 3069.01 4357.90 65.90 7.00 338.80 2627.56
   12:08:44.000.08-Feb-2020 3069.01 4361.10 65.90 7.00 339.00 2627.56
   12:08:44.200.08-Feb-2020 3069.01 4361.10 65.90 7.00 339.20 2627.56
   12:08:44.400.08-Feb-2020 3069.01 4366.68 65.90 7.00 339.40 2627.56
   12:08:44.600.08-Feb-2020 3069.01 4369.70 65.90 7.00 339.60 2627.56
   12:08:44.800.08-Feb-2020 3069.01 4372.75 65.90 7.00 339.80 2627.56
   12:08:45.000.08-Feb-2020 3069.01 4375.87 65.90 7.00 340.00 2627.56
   12:08:45.200.08-Feb-2020 3069.01 4375.87 65.90 7.00 340.20 2627.56
   12:08:45.400.08-Feb-2020 3069.01 4381.76 65.90 7.00 340.40 2627.56
   12:08:45.600.08-Feb-2020 3069.01 4384.51 65.90 7.00 340.60 2627.56
   12:08:45.800.08-Feb-2020 3069.01 4387.33 65.90 7.00 340.80 2627.56
   12:08:46.000.08-Feb-2020 3069.01 4390.01 65.90 7.00 341.00 2627.56
   12:08:46.200.08-Feb-2020 3069.01 4390.01 65.90 7.00 341.20 2627.56
   12:08:46.400.08-Feb-2020 3069.01 4395.79 65.90 7.00 341.40 2627.56
   12:08:46.600.08-Feb-2020 3069.01 4398.41 65.90 7.00 341.60 2627.56
   12:08:46.800.08-Feb-2020 3069.01 4400.98 65.90 7.00 341.80 2627.56
   12:08:47.000.08-Feb-2020 3069.01 4403.74 65.90 7.00 342.00 2627.56
   12:08:47.200.08-Feb-2020 3069.01 4403.74 65.90 7.00 342.20 2627.56
   12:08:47.400.08-Feb-2020 3069.01 4409.02 65.90 7.00 342.40 2627.56
   12:08:47.600.08-Feb-2020 3069.01 4411.72 65.90 7.00 342.60 2627.56
   12:08:47.800.08-Feb-2020 3069.01 4414.23 65.90 7.00 342.80 2627.56
   12:08:48.000.08-Feb-2020 3069.01 4417.18 65.90 7.00 343.00 2627.56
   12:08:48.200.08-Feb-2020 3069.01 4417.18 65.90 7.00 343.20 2627.56
   12:08:48.400.08-Feb-2020 3069.01 4421.62 65.89 7.00 343.40 2627.56
   12:08:48.600.08-Feb-2020 3069.01 4424.56 65.89 7.00 343.60 2627.56
   12:08:48.800.08-Feb-2020 3069.01 4426.06 65.89 7.00 343.80 2627.56
   12:08:49.000.08-Feb-2020 3069.01 4428.80 65.89 7.00 344.00 2627.56
   12:08:49.200.08-Feb-2020 3069.01 4428.80 65.89 7.00 344.20 2627.56
   12:08:49.400.08-Feb-2020 3069.01 4433.71 65.89 7.00 344.40 2627.56
   12:08:49.600.08-Feb-2020 3069.01 4436.51 65.89 7.00 344.60 2627.56
   12:08:49.800.08-Feb-2020 3069.01 4438.31 65.89 7.00 344.80 2627.56
