~Version Information
 VERS.                  2.0:   CWLS log ASCII Standard -VERSION 2.0
 WRAP.                   NO:   One line per depth step
~Well Information Block
#MNEM.UNIT     VALUE/NAME     DESCRIPTION
#---------     -----------    ---------------------------
 STRT.S             09:08:12 08-Feb-20: START TIME 09:08:12 08-Feb-20
 STOP.S             09:14:54 08-Feb-20: STOP TIME  09:14:54 08-Feb-20
 STEP.S                   0.00: STEP TIME
 NULL.                 -999.25: NULL VALUE
 DFWT.                        :  DIST FWL TEXT
 DFST.                        :  DIST FSL TEXT
 DMF .             Drill Floor:  DRILL MEAS FROM
 STIM.      07.00.00 09-Jan-20:  START TIME
 DATE.      14.04.48 07-Feb-20:  END TIME
 SPUD.               09-Jan-20:  SPUD DATE
 NREF.                    Grid:  NORTH REFERENCE
 HPTY.       Minimum Curvature:  HOLE POS TYPE
 DMOD.             Drill Model:  DRILL MOD DESC
 SVYD.                  Survey:  SURVEY DESC
 ILTD.               Lithology:  INTERP LTH DESC
 FTOP.          Formation Tops:  FORM TOPS DESC
 SON .        AZ-XX-0905059384:  JOB NUMBER
 MDS .        Operator Entered:  MAG DATA SOURCE
 WTYP.                Deviated:  WELL TYPE
 COMP.     BP Exploration (Caspian Sea) Ltd.:  COMPANY
 UWI .                     N/A:  UNIQUE WELL IDENTIFIER
 API .                     N/A:  API NUMBER
 BASE.              Azerbaijan:  LOGGING EQUIPMENT BASE LOCATION
 REGN.                   EESSA:  REGION
 PROV.                    Baku:  PROVINCE
 STAT.                    Baku:  STATE NAME
 CTRY.              Azerbaijan:  COUNTRY NAME
 FLD .                     ACG:  FIELD NAME
 SRVC.     TURAN Drilling & Engineering:  CONTRACTOR
 MWDS.                    Baku:  MWD SHOP
 WELL.                     J22:  WELL NAME
 RIG .             West Chirag:  RIG NAME
 DOE .                     N/A:  DOE NUMBER
 DCON.         Sperry Drilling:  DIRECTNL CONTR
 UNIT.                     N/A:  LOGGING EQUIPMENT ID
 PDAT.          Mean Sea Level:  PERMANENT DATUM
 JOBN.        AZ-XX-0905059384:  JOB TICKET NUMB
 CNTY.                        :  COUNTY
 LOC .                        :  LOCATION
 LMF .             Drill Floor:  LOG MEASURED FROM
 TVDS.m                  43.00:  TVDSS CORRECTN
 LATI.deg                40.13:  LATITUDE
 LONG.deg                51.22:  LONGITUDE
 WHNS.m                  10.28:  WELL HEAD N/S
 WHEW.m                  -6.24:  WELL HEAD E/W
 UTMX.m              519005.06:  UTM X
 UTMY.m             4443793.85:  UTM Y
 DFWL.m                   0.00:  DISTANCE FWL
 DFSL.m                   0.00:  DISTANCE FSL
 SDEP.m                 362.00:  START DEPTH
 TDD .m                 904.00:  TOTAL DEPTH (DRILLER)
 VSDR.deg               148.53:  VERT SEC DIRECT
 GVFD.g                   1.00:  GRAVITY FIELD
 MFLD.nT              50277.00:  MAGNETIC FIELD
 MDIP.deg                59.56:  MAGNETIC DIP
 MDEC.deg                 6.42:  MAGNETIC DECL
 GRDC.deg                 0.15:  GRID CORRECTION
 AZTC.deg                 6.27:  AZM TOTAL CORR
 EPD .m                   0.00:  ELEVATION
 EGL .m                   0.00:  GROUND ELEVATION
 WDMS.m                 169.80:  WD ELEV
 APD .m                  43.00:  DEPTH ABOVE PD
 AGAP.m                  43.00:  AIR GAP
 VSEW.m                  -6.24:  VERT SEC E/W
 VSNS.m                  10.28:  VERT SEC N/S
 DEP .m                   0.00:  DEPTH
 EKB .m                   0.00:  KB ELEVATION
 EDF .m                  43.00:  DF ELEVATION
 TDL .m                1183.00:  TOTAL DEPTH (LOGGER)
 VSC .                       0:  VS TO CLOSURE
 MAGU.                 1850021:  MAGUTM CHECKSUM
~Parameter Information Block
#MNEM.UNIT       Value        Description
#---------     -----------    ---------------------------
 AV  .mps                 4.00:  Ann Velocity 
 AVMX.mps                 4.50:  Max Ann Veloc 
 AZIF.deg               145.38:  Azm, Final 
 BHAT.        Rotary Steerable:  BHA Type 
 BROT.°/30m               3.00:  Build Rotating 
 BS  .in                 12.25:  Bit Size 
 BSZ .in                 12.25:  Bit Size 
 BTPL.psig              650.00:  Bit Press Loss 
 CABU.                      No:  Customer Abuse 
 COMM.                     T!k:  Run Comments 1 
 TCS .hr                101.62:  Time Ciculation Ended 
 CV  .mps                 5.00:  Crit Velocity 
 CVMX.mps                 5.00:  Max Crit Veloc 
 DD1 .             Aziz Aliyev:  Direct Drillr 1 
 DD2 .      Fakhraddin Guliyev:  Direct Drillr 2 
 DDSV.                 iCruise:  DD Service 
 DEFF.%                  97.00:  % Det Eff 
 DLRX.°/30m               4.16:  Dogleg Rot Max 
 DLSO.°/30m               3.20:  Dogleg Oriented 
 DLSX.°/30m               4.10:  Dogleg Str Max 
 DRET.      23.12.00 07-Feb-20:  Drill End Time 
 DRST.      11.30.00 04-Feb-20:  Drill Start Tim 
 DTIM.hr                 61.06:  Time Drilling 
 EDEP.m                3219.01:  End Depth 
 ENG1.         Almaz Almadatov:  Engineer 1 
 ENG2.         Dair Mahammadov:  Engineer 2 
 ENG3.          Nazrin Asgarli:  Engineer 3 
 ETIM.      02.30.00 11-Feb-20:  End Time 
 FLOI.gpm              1100.00:  Flow In 
 FLON.gpm               900.00:  Flow In Min 
 FLOS.cptm               55.00:  Fluid Loss 
 FLOX.gpm              1150.00:  Flow In Max 
 FTRO.       Formation Presure:  FTWD Run Obj 
 HFLO.                      No:  High Flow 
 HPRE.                      No:  High Pressure 
 HTEM.                      No:  High Temp 
 HYDO.m                   1.80:  Hydro Offset 
 IFIN.deg                75.11:  Inc, Final 
 IMAX.deg                75.11:  Inc Max 
 IMIN.deg                33.55:  Inc Min 
 IMND.m                2186.05:  Inc Min Depth 
 IMXD.m                3205.61:  Inc Max Depth 
 JARR.                      No:  Jarring 
 LETM.      23.12.00 07-Feb-20:  Log End Time 
 LOST.hr                     0:  Lost Rig Time 
 LSTM.      11.30.00 04-Feb-20:  Log Start Time 
 MDCL.ppm             40000.00:  Mud Chlorides 
 MDES.     Inversion Oil/Synthetic:  Mud Desc 
 DFD .sg                  1.49:  Mud Density 
 MDMN.sg                  1.49:  Dens Mud Min 
 MDMX.sg                  1.49:  Dens Mud Max 
 MOIL.                      73:  Run Mud Oil % 
 MOWR.                   73:27:  Run Mud OWR 
 MSND.                     0.1:  Run Mud Sand % 
 MSOL.                    20.1:  Run Mud Solids% 
 DFV .spqt               78.00:  Mud Viscosity 
 MWOD.in                  8.00:  MWD Tool OD 
 MWSI.                      No:  Serv Intrp, MWD 
 OTIM.hr                177.15:  Time Operating 
 PCON.          Wear / Scratch:  Pad Condition 
 PMAX.psia            10493.93:  Press Op, Max 
 PV  .cP                 73.00:  Mud PV 
 RUN .                     700:  Run Number 
 ROPA.m/hr               15.00:  ROP Avg 
 ROPN.m/hr               10.00:  ROP Min 
 ROPX.m/hr               35.00:  ROP Max 
 RPMA.rpm               130.00:  RPM Surface Avg 
 RPMN.rpm                80.00:  RPM Surface Min 
 RPMX.rpm               150.00:  RPM Surface Max 
 RRUN.                    L402:  Rig Run Number 
 RTIM.hr                 80.50:  Time Reaming 
 SAZI.deg               155.55:  Azm, Start 
 SDEP.m                2036.00:  Start Depth 
 SIDD.                      No:  Serv Intrp, DD 
 SINC.deg                35.44:  Inc, Start 
 SPPA.psig             4270.00:  SPP Avg 
 SPPN.psig             2800.00:  SPP Min 
 SPPX.psig             4850.00:  SPP Max 
 STIM.      09.30.00 03-Feb-20:  Start Time 
 SVCS.                 DD, MWD:  Services 
 SVER.                    9.20:  Sperry Version 
 TDAT.m                1183.00:  Tot Depth Attmp 
 TDDF.                      No:  Trip for DD 
 TDLG.m                1183.00:  Tot Depth Loggd 
 TFF .                      No:  Trip for Fail 
 TQAA.f-kp               16.00:  Torque Abs Avg 
 TQAN.f-kp               10.00:  Torque Abs Min 
 TQAX.f-kp               20.00:  Torque Abs Max 
 TRRT.°/30m               1.00:  Turn Rotating 
 MRT .                  EWR-M5:  Maximum Recorded Temperature 
 TTMX.degC               80.39:  Max Tool Temp 
 VS01.               13098498 :  Virtual Str1 SN 
 VS02.                90569596:  Virtual Str2 SN 
 VS03.                90523599:  Virtual Str3 SN 
 VS04.                90573553:  Virtual Str4 SN 
 VS05.                90598598:  Virtual Str5 SN 
 VS06.                90577297:  Virtual Str6 SN 
 WBMN.klb                13.00:  WOB Min 
 WITN.         Alistair Sprott:  Customer Rep 
 WITN.           Rufat Babayev:  Customer Rep 2 
 WOBA.klb                15.00:  WOB Avg 
 WOBX.klb                20.00:  WOB Max 
 YP  .lhf2               39.00:  Yield Point 
~Curve Information Block
#MNEM.UNIT                 API CODE     Curve Description
#---------               -----------    ---------------------------
 TIME.HHMMSS            00 000 000 000:  GT Time & Date
 GTDEPTH.m              00 000 000 000:  GT Depth
 GTPQH.psia             00 000 000 000:  GT HR Quartz Pressure
 GTTQ.degC              00 000 000 000:  GT Quartz Temperature
 GTTN.NONE              00 000 000 000:  GT Test Number
 GTET.sec               00 000 000 000:  GT Elapsed Test Time
 GTTVD.m                00 000 000 000:  GT True Vertical Depth
#Other Information
#
#WARRANTY: Halliburton will use its best efforts to furnish customers with 
#accurate information and interpretations that are part of, and incident to, the services 
#provided.  However, Halliburton cannot and does not warrant the accuracy 
#or correctness of such information and interpretations.  Under no circumstances should any 
#such information or interpretation be relied upon as the sole basis for any drilling, 
#completion, production, or financial decision or any procedure involving any risk to the 
#safety of any drilling venture, drilling rig or its crew or any other third party.  The 
#Customer has full responsibility for all drilling, completion and production operation.  
#Halliburton makes no representations or warranties, either expressed or 
#implied, including, but not limited to, the implied warranties of merchantability or fitness 
#for a particular purpose, with respect to the services rendered.  In no event will 
#Halliburton be liable for failure to obtain any particular results or for 
#any damages, including, but not limited to, indirect, special or consequential damages, 
#resulting from the use of any information or interpretation provided by Halliburton.
#
~A           TIME           GTDEPTH  GTPQH  GTTQ  GTTN  GTET   GTTVD  
# ...
   09:13:34.791.08-Feb-2020 3153.21 4822.83 69.80 3.00 322.03 2652.75
   09:13:34.991.08-Feb-2020 3153.21 4822.83 69.80 3.00 322.23 2652.75
   09:13:35.191.08-Feb-2020 3153.21 4822.80 69.80 3.00 322.43 2652.75
   09:13:35.391.08-Feb-2020 3153.21 4823.55 69.80 3.00 322.63 2652.75
   09:13:35.591.08-Feb-2020 3153.21 4822.60 69.80 3.00 322.83 2652.75
   09:13:35.791.08-Feb-2020 3153.21 4822.70 69.80 3.00 323.03 2652.75
   09:13:35.991.08-Feb-2020 3153.21 4822.70 69.80 3.00 323.23 2652.75
   09:13:36.191.08-Feb-2020 3153.21 4822.71 69.80 3.00 323.43 2652.75
   09:13:36.391.08-Feb-2020 3153.21 4822.96 69.80 3.00 323.63 2652.75
   09:13:36.591.08-Feb-2020 3153.21 4822.83 69.80 3.00 323.83 2652.75
   09:13:36.791.08-Feb-2020 3153.21 4822.67 69.80 3.00 324.03 2652.75
   09:13:36.991.08-Feb-2020 3153.21 4822.67 69.80 3.00 324.23 2652.75
   09:13:37.191.08-Feb-2020 3153.21 4822.61 69.80 3.00 324.43 2652.75
   09:13:37.391.08-Feb-2020 3153.21 4822.59 69.80 3.00 324.63 2652.75
   09:13:37.591.08-Feb-2020 3153.21 4822.82 69.80 3.00 324.83 2652.75
   09:13:37.791.08-Feb-2020 3153.21 4823.09 69.80 3.00 325.03 2652.75
   09:13:37.991.08-Feb-2020 3153.21 4823.09 69.80 3.00 325.23 2652.75
   09:13:38.191.08-Feb-2020 3153.21 4823.27 69.80 3.00 325.43 2652.75
   09:13:38.391.08-Feb-2020 3153.21 4822.96 69.80 3.00 325.63 2652.75
   09:13:38.591.08-Feb-2020 3153.21 4821.92 69.80 3.00 325.83 2652.75
   09:13:38.791.08-Feb-2020 3153.21 4822.98 69.80 3.00 326.03 2652.75
   09:13:38.991.08-Feb-2020 3153.21 4822.98 69.80 3.00 326.23 2652.75
   09:13:39.191.08-Feb-2020 3153.21 4822.92 69.80 3.00 326.43 2652.75
   09:13:39.391.08-Feb-2020 3153.21 4822.52 69.80 3.00 326.63 2652.75
   09:13:39.591.08-Feb-2020 3153.21 4822.91 69.80 3.00 326.83 2652.75
   09:13:39.791.08-Feb-2020 3153.21 4822.81 69.80 3.00 327.03 2652.75
   09:13:39.991.08-Feb-2020 3153.21 4822.81 69.80 3.00 327.23 2652.75
   09:13:40.191.08-Feb-2020 3153.21 4822.52 69.80 3.00 327.43 2652.75
   09:13:40.391.08-Feb-2020 3153.21 4822.47 69.80 3.00 327.63 2652.75
   09:13:40.591.08-Feb-2020 3153.21 4823.93 69.80 3.00 327.83 2652.75
   09:13:40.791.08-Feb-2020 3153.21 4822.41 69.80 3.00 328.03 2652.75
   09:13:40.991.08-Feb-2020 3153.21 4822.41 69.80 3.00 328.23 2652.75
   09:13:41.191.08-Feb-2020 3153.21 4823.12 69.80 3.00 328.43 2652.75
   09:13:41.391.08-Feb-2020 3153.21 4822.52 69.80 3.00 328.63 2652.75
   09:13:41.591.08-Feb-2020 3153.21 4822.98 69.80 3.00 328.83 2652.75
   09:13:41.791.08-Feb-2020 3153.21 4823.06 69.80 3.00 329.03 2652.75
   09:13:41.991.08-Feb-2020 3153.21 4823.06 69.80 3.00 329.23 2652.75
   09:13:42.191.08-Feb-2020 3153.21 4822.89 69.80 3.00 329.43 2652.75
   09:13:42.391.08-Feb-2020 3153.21 4822.89 69.80 3.00 329.63 2652.75
   09:13:42.591.08-Feb-2020 3153.21 4822.96 69.80 3.00 329.83 2652.75
   09:13:42.791.08-Feb-2020 3153.21 4823.12 69.80 3.00 330.03 2652.75
   09:13:42.991.08-Feb-2020 3153.21 4823.12 69.80 3.00 330.23 2652.75
   09:13:43.191.08-Feb-2020 3153.21 4822.71 69.80 3.00 330.43 2652.75
   09:13:43.391.08-Feb-2020 3153.21 4822.68 69.80 3.00 330.63 2652.75
   09:13:43.591.08-Feb-2020 3153.21 4823.06 69.80 3.00 330.83 2652.75
   09:13:43.791.08-Feb-2020 3153.21 4822.89 69.80 3.00 331.03 2652.75
   09:13:43.991.08-Feb-2020 3153.21 4822.89 69.80 3.00 331.23 2652.75
   09:13:44.191.08-Feb-2020 3153.21 4822.85 69.80 3.00 331.43 2652.75
   09:13:44.391.08-Feb-2020 3153.21 4822.80 69.80 3.00 331.63 2652.75
   09:13:44.591.08-Feb-2020 3153.21 4822.82 69.80 3.00 331.83 2652.75
   09:13:44.791.08-Feb-2020 3153.21 4822.74 69.80 3.00 332.03 2652.75
   09:13:44.991.08-Feb-2020 3153.21 4822.74 69.80 3.00 332.23 2652.75
   09:13:45.192.08-Feb-2020 3153.21 4822.68 69.80 3.00 332.43 2652.75
   09:13:45.392.08-Feb-2020 3153.21 4822.81 69.80 3.00 332.63 2652.75
   09:13:45.592.08-Feb-2020 3153.21 4822.84 69.80 3.00 332.83 2652.75
   09:13:45.792.08-Feb-2020 3153.21 4823.09 69.80 3.00 333.03 2652.75
   09:13:45.992.08-Feb-2020 3153.21 4823.09 69.80 3.00 333.23 2652.75
   09:13:46.192.08-Feb-2020 3153.21 4822.30 69.80 3.00 333.43 2652.75
   09:13:46.392.08-Feb-2020 3153.21 4823.38 69.80 3.00 333.63 2652.75
   09:13:46.592.08-Feb-2020 3153.21 4822.90 69.80 3.00 333.83 2652.75
   09:13:46.792.08-Feb-2020 3153.21 4822.50 69.80 3.00 334.03 2652.75
   09:13:46.992.08-Feb-2020 3153.21 4822.50 69.80 3.00 334.23 2652.75
   09:13:47.192.08-Feb-2020 3153.21 4822.61 69.80 3.00 334.43 2652.75
   09:13:47.392.08-Feb-2020 3153.21 4822.82 69.80 3.00 334.63 2652.75
   09:13:47.592.08-Feb-2020 3153.21 4823.12 69.80 3.00 334.83 2652.75
   09:13:47.792.08-Feb-2020 3153.21 4822.22 69.80 3.00 335.03 2652.75
   09:13:47.992.08-Feb-2020 3153.21 4822.22 69.80 3.00 335.23 2652.75
   09:13:48.192.08-Feb-2020 3153.21 4823.46 69.80 3.00 335.43 2652.75
   09:13:48.392.08-Feb-2020 3153.21 4822.45 69.80 3.00 335.63 2652.75
   09:13:48.592.08-Feb-2020 3153.21 4822.85 69.80 3.00 335.83 2652.75
   09:13:48.792.08-Feb-2020 3153.21 4822.92 69.80 3.00 336.03 2652.75
   09:13:48.992.08-Feb-2020 3153.21 4822.92 69.80 3.00 336.23 2652.75
   09:13:49.192.08-Feb-2020 3153.21 4823.10 69.80 3.00 336.43 2652.75
   09:13:49.392.08-Feb-2020 3153.21 4822.85 69.80 3.00 336.63 2652.75
   09:13:49.592.08-Feb-2020 3153.21 4822.73 69.80 3.00 336.83 2652.75
   09:13:49.792.08-Feb-2020 3153.21 4822.81 69.80 3.00 337.03 2652.75
   09:13:49.992.08-Feb-2020 3153.21 4822.81 69.80 3.00 337.23 2652.75
   09:13:50.192.08-Feb-2020 3153.21 4822.76 69.80 3.00 337.43 2652.75
   09:13:50.392.08-Feb-2020 3153.21 4823.34 69.80 3.00 337.63 2652.75
   09:13:50.592.08-Feb-2020 3153.21 4823.12 69.80 3.00 337.83 2652.75
   09:13:50.792.08-Feb-2020 3153.21 4822.41 69.80 3.00 338.03 2652.75
   09:13:50.992.08-Feb-2020 3153.21 4822.41 69.80 3.00 338.23 2652.75
   09:13:51.192.08-Feb-2020 3153.21 4823.06 69.80 3.00 338.43 2652.75
   09:13:51.392.08-Feb-2020 3153.21 4822.66 69.80 3.00 338.63 2652.75
   09:13:51.592.08-Feb-2020 3153.21 4822.98 69.80 3.00 338.83 2652.75
   09:13:51.792.08-Feb-2020 3153.21 4822.76 69.80 3.00 339.03 2652.75
   09:13:51.992.08-Feb-2020 3153.21 4822.76 69.80 3.00 339.23 2652.75
   09:13:52.192.08-Feb-2020 3153.21 4822.77 69.80 3.00 339.43 2652.75
   09:13:52.392.08-Feb-2020 3153.21 4823.55 69.80 3.00 339.63 2652.75
   09:13:52.592.08-Feb-2020 3153.21 4822.12 69.80 3.00 339.83 2652.75
   09:13:52.792.08-Feb-2020 3153.21 4822.76 69.79 3.00 340.03 2652.75
   09:13:52.992.08-Feb-2020 3153.21 4822.76 69.79 3.00 340.23 2652.75
   09:13:53.192.08-Feb-2020 3153.21 4821.94 69.79 3.00 340.43 2652.75
   09:13:53.392.08-Feb-2020 3153.21 4822.83 69.79 3.00 340.63 2652.75
   09:13:53.592.08-Feb-2020 3153.21 4822.61 69.79 3.00 340.83 2652.75
   09:13:53.792.08-Feb-2020 3153.21 4823.59 69.79 3.00 341.03 2652.75
   09:13:53.992.08-Feb-2020 3153.21 4823.59 69.79 3.00 341.23 2652.75
   09:13:54.192.08-Feb-2020 3153.21 4822.80 69.79 3.00 341.43 2652.75
   09:13:54.392.08-Feb-2020 3153.21 4822.66 69.79 3.00 341.63 2652.75
   09:13:54.592.08-Feb-2020 3153.21 4822.69 69.79 3.00 341.83 2652.75
   09:13:54.792.08-Feb-2020 3153.21 4823.40 69.79 3.00 342.03 2652.75
   09:13:54.992.08-Feb-2020 3153.21 4823.40 69.79 3.00 342.23 2652.75
   09:13:55.192.08-Feb-2020 3153.21 4822.95 69.79 3.00 342.43 2652.75
   09:13:55.392.08-Feb-2020 3153.21 4822.72 69.79 3.00 342.63 2652.75
   09:13:55.592.08-Feb-2020 3153.21 4823.35 69.79 3.00 342.83 2652.75
   09:13:55.792.08-Feb-2020 3153.21 4822.75 69.79 3.00 343.03 2652.75
   09:13:55.992.08-Feb-2020 3153.21 4822.75 69.79 3.00 343.23 2652.75
   09:13:56.192.08-Feb-2020 3153.21 4823.02 69.79 3.00 343.43 2652.75
   09:13:56.392.08-Feb-2020 3153.21 4822.80 69.79 3.00 343.63 2652.75
   09:13:56.592.08-Feb-2020 3153.21 4822.91 69.79 3.00 343.83 2652.75
   09:13:56.792.08-Feb-2020 3153.21 4823.06 69.79 3.00 344.03 2652.75
   09:13:56.992.08-Feb-2020 3153.21 4823.06 69.79 3.00 344.23 2652.75
   09:13:57.193.08-Feb-2020 3153.21 4822.78 69.79 3.00 344.43 2652.75
   09:13:57.393.08-Feb-2020 3153.21 4822.86 69.79 3.00 344.63 2652.75
   09:13:57.593.08-Feb-2020 3153.21 4822.81 69.79 3.00 344.83 2652.75
