~Version Information
 VERS.                  2.0:   CWLS log ASCII Standard -VERSION 2.0
 WRAP.                   NO:   One line per depth step
~Well Information Block
#MNEM.UNIT     VALUE/NAME     DESCRIPTION
#---------     -----------    ---------------------------
 STRT.S             12:03:05 08-Feb-20: START TIME 12:03:05 08-Feb-20
 STOP.S             12:09:57 08-Feb-20: STOP TIME  12:09:57 08-Feb-20
 STEP.S                   0.00: STEP TIME
 NULL.                 -999.25: NULL VALUE
 DFWT.                        :  DIST FWL TEXT
 DFST.                        :  DIST FSL TEXT
 DMF .             Drill Floor:  DRILL MEAS FROM
 STIM.      07.00.00 09-Jan-20:  START TIME
 DATE.      14.04.48 07-Feb-20:  END TIME
 SPUD.               09-Jan-20:  SPUD DATE
 NREF.                    Grid:  NORTH REFERENCE
 HPTY.       Minimum Curvature:  HOLE POS TYPE
 DMOD.             Drill Model:  DRILL MOD DESC
 SVYD.                  Survey:  SURVEY DESC
 ILTD.               Lithology:  INTERP LTH DESC
 FTOP.          Formation Tops:  FORM TOPS DESC
 SON .        AZ-XX-0905059384:  JOB NUMBER
 MDS .        Operator Entered:  MAG DATA SOURCE
 WTYP.                Deviated:  WELL TYPE
 COMP.     BP Exploration (Caspian Sea) Ltd.:  COMPANY
 UWI .                     N/A:  UNIQUE WELL IDENTIFIER
 API .                     N/A:  API NUMBER
 BASE.              Azerbaijan:  LOGGING EQUIPMENT BASE LOCATION
 REGN.                   EESSA:  REGION
 PROV.                    Baku:  PROVINCE
 STAT.                    Baku:  STATE NAME
 CTRY.              Azerbaijan:  COUNTRY NAME
 FLD .                     ACG:  FIELD NAME
 SRVC.     TURAN Drilling & Engineering:  CONTRACTOR
 MWDS.                    Baku:  MWD SHOP
 WELL.                     J22:  WELL NAME
 RIG .             West Chirag:  RIG NAME
 DOE .                     N/A:  DOE NUMBER
 DCON.         Sperry Drilling:  DIRECTNL CONTR
 UNIT.                     N/A:  LOGGING EQUIPMENT ID
 PDAT.          Mean Sea Level:  PERMANENT DATUM
 JOBN.        AZ-XX-0905059384:  JOB TICKET NUMB
 CNTY.                        :  COUNTY
 LOC .                        :  LOCATION
 LMF .             Drill Floor:  LOG MEASURED FROM
 TVDS.m                  43.00:  TVDSS CORRECTN
 LATI.deg                40.13:  LATITUDE
 LONG.deg                51.22:  LONGITUDE
 WHNS.m                  10.28:  WELL HEAD N/S
 WHEW.m                  -6.24:  WELL HEAD E/W
 UTMX.m              519005.06:  UTM X
 UTMY.m             4443793.85:  UTM Y
 DFWL.m                   0.00:  DISTANCE FWL
 DFSL.m                   0.00:  DISTANCE FSL
 SDEP.m                 362.00:  START DEPTH
 TDD .m                 904.00:  TOTAL DEPTH (DRILLER)
 VSDR.deg               148.53:  VERT SEC DIRECT
 GVFD.g                   1.00:  GRAVITY FIELD
 MFLD.nT              50277.00:  MAGNETIC FIELD
 MDIP.deg                59.56:  MAGNETIC DIP
 MDEC.deg                 6.42:  MAGNETIC DECL
 GRDC.deg                 0.15:  GRID CORRECTION
 AZTC.deg                 6.27:  AZM TOTAL CORR
 EPD .m                   0.00:  ELEVATION
 EGL .m                   0.00:  GROUND ELEVATION
 WDMS.m                 169.80:  WD ELEV
 APD .m                  43.00:  DEPTH ABOVE PD
 AGAP.m                  43.00:  AIR GAP
 VSEW.m                  -6.24:  VERT SEC E/W
 VSNS.m                  10.28:  VERT SEC N/S
 DEP .m                   0.00:  DEPTH
 EKB .m                   0.00:  KB ELEVATION
 EDF .m                  43.00:  DF ELEVATION
 TDL .m                1183.00:  TOTAL DEPTH (LOGGER)
 VSC .                       0:  VS TO CLOSURE
 MAGU.                 1850021:  MAGUTM CHECKSUM
~Parameter Information Block
#MNEM.UNIT       Value        Description
#---------     -----------    ---------------------------
 AV  .mps                 4.00:  Ann Velocity 
 AVMX.mps                 4.50:  Max Ann Veloc 
 AZIF.deg               145.38:  Azm, Final 
 BHAT.        Rotary Steerable:  BHA Type 
 BROT.°/30m               3.00:  Build Rotating 
 BS  .in                 12.25:  Bit Size 
 BSZ .in                 12.25:  Bit Size 
 BTPL.psig              650.00:  Bit Press Loss 
 CABU.                      No:  Customer Abuse 
 COMM.                     ÌSf:  Run Comments 1 
 TCS .hr                101.62:  Time Ciculation Ended 
 CV  .mps                 5.00:  Crit Velocity 
 CVMX.mps                 5.00:  Max Crit Veloc 
 DD1 .             Aziz Aliyev:  Direct Drillr 1 
 DD2 .      Fakhraddin Guliyev:  Direct Drillr 2 
 DDSV.                 iCruise:  DD Service 
 DEFF.%                  97.00:  % Det Eff 
 DLRX.°/30m               4.16:  Dogleg Rot Max 
 DLSO.°/30m               3.20:  Dogleg Oriented 
 DLSX.°/30m               4.10:  Dogleg Str Max 
 DRET.      23.12.00 07-Feb-20:  Drill End Time 
 DRST.      11.30.00 04-Feb-20:  Drill Start Tim 
 DTIM.hr                 61.06:  Time Drilling 
 EDEP.m                3219.01:  End Depth 
 ENG1.         Almaz Almadatov:  Engineer 1 
 ENG2.         Dair Mahammadov:  Engineer 2 
 ENG3.          Nazrin Asgarli:  Engineer 3 
 ETIM.      02.30.00 11-Feb-20:  End Time 
 FLOI.gpm              1100.00:  Flow In 
 FLON.gpm               900.00:  Flow In Min 
 FLOS.cptm               55.00:  Fluid Loss 
 FLOX.gpm              1150.00:  Flow In Max 
 FTRO.       Formation Presure:  FTWD Run Obj 
 HFLO.                      No:  High Flow 
 HPRE.                      No:  High Pressure 
 HTEM.                      No:  High Temp 
 HYDO.m                   1.80:  Hydro Offset 
 IFIN.deg                75.11:  Inc, Final 
 IMAX.deg                75.11:  Inc Max 
 IMIN.deg                33.55:  Inc Min 
 IMND.m                2186.05:  Inc Min Depth 
 IMXD.m                3205.61:  Inc Max Depth 
 JARR.                      No:  Jarring 
 LETM.      23.12.00 07-Feb-20:  Log End Time 
 LOST.hr                     0:  Lost Rig Time 
 LSTM.      11.30.00 04-Feb-20:  Log Start Time 
 MDCL.ppm             40000.00:  Mud Chlorides 
 MDES.     Inversion Oil/Synthetic:  Mud Desc 
 DFD .sg                  1.49:  Mud Density 
 MDMN.sg                  1.49:  Dens Mud Min 
 MDMX.sg                  1.49:  Dens Mud Max 
 MOIL.                      73:  Run Mud Oil % 
 MOWR.                   73:27:  Run Mud OWR 
 MSND.                     0.1:  Run Mud Sand % 
 MSOL.                    20.1:  Run Mud Solids% 
 DFV .spqt               78.00:  Mud Viscosity 
 MWOD.in                  8.00:  MWD Tool OD 
 MWSI.                      No:  Serv Intrp, MWD 
 OTIM.hr                177.15:  Time Operating 
 PCON.          Wear / Scratch:  Pad Condition 
 PMAX.psia            10493.93:  Press Op, Max 
 PV  .cP                 73.00:  Mud PV 
 RUN .                     700:  Run Number 
 ROPA.m/hr               15.00:  ROP Avg 
 ROPN.m/hr               10.00:  ROP Min 
 ROPX.m/hr               35.00:  ROP Max 
 RPMA.rpm               130.00:  RPM Surface Avg 
 RPMN.rpm                80.00:  RPM Surface Min 
 RPMX.rpm               150.00:  RPM Surface Max 
 RRUN.                    L402:  Rig Run Number 
 RTIM.hr                 80.50:  Time Reaming 
 SAZI.deg               155.55:  Azm, Start 
 SDEP.m                2036.00:  Start Depth 
 SIDD.                      No:  Serv Intrp, DD 
 SINC.deg                35.44:  Inc, Start 
 SPPA.psig             4270.00:  SPP Avg 
 SPPN.psig             2800.00:  SPP Min 
 SPPX.psig             4850.00:  SPP Max 
 STIM.      09.30.00 03-Feb-20:  Start Time 
 SVCS.                 DD, MWD:  Services 
 SVER.                    9.20:  Sperry Version 
 TDAT.m                1183.00:  Tot Depth Attmp 
 TDDF.                      No:  Trip for DD 
 TDLG.m                1183.00:  Tot Depth Loggd 
 TFF .                      No:  Trip for Fail 
 TQAA.f-kp               16.00:  Torque Abs Avg 
 TQAN.f-kp               10.00:  Torque Abs Min 
 TQAX.f-kp               20.00:  Torque Abs Max 
 TRRT.°/30m               1.00:  Turn Rotating 
 MRT .                  EWR-M5:  Maximum Recorded Temperature 
 TTMX.degC               80.39:  Max Tool Temp 
 VS01.               13098498 :  Virtual Str1 SN 
 VS02.                90569596:  Virtual Str2 SN 
 VS03.                90523599:  Virtual Str3 SN 
 VS04.                90573553:  Virtual Str4 SN 
 VS05.                90598598:  Virtual Str5 SN 
 VS06.                90577297:  Virtual Str6 SN 
 WBMN.klb                13.00:  WOB Min 
 WITN.         Alistair Sprott:  Customer Rep 
 WITN.           Rufat Babayev:  Customer Rep 2 
 WOBA.klb                15.00:  WOB Avg 
 WOBX.klb                20.00:  WOB Max 
 YP  .lhf2               39.00:  Yield Point 
~Curve Information Block
#MNEM.UNIT                 API CODE     Curve Description
#---------               -----------    ---------------------------
 TIME.HHMMSS            00 000 000 000:  GT Time & Date
 GTDEPTH.m              00 000 000 000:  GT Depth
 GTPQH.psia             00 000 000 000:  GT HR Quartz Pressure
 GTTQ.degC              00 000 000 000:  GT Quartz Temperature
 GTTN.NONE              00 000 000 000:  GT Test Number
 GTET.sec               00 000 000 000:  GT Elapsed Test Time
 GTTVD.m                00 000 000 000:  GT True Vertical Depth
#Other Information
#
#WARRANTY: Halliburton will use its best efforts to furnish customers with 
#accurate information and interpretations that are part of, and incident to, the services 
#provided.  However, Halliburton cannot and does not warrant the accuracy 
#or correctness of such information and interpretations.  Under no circumstances should any 
#such information or interpretation be relied upon as the sole basis for any drilling, 
#completion, production, or financial decision or any procedure involving any risk to the 
#safety of any drilling venture, drilling rig or its crew or any other third party.  The 
#Customer has full responsibility for all drilling, completion and production operation.  
#Halliburton makes no representations or warranties, either expressed or 
#implied, including, but not limited to, the implied warranties of merchantability or fitness 
#for a particular purpose, with respect to the services rendered.  In no event will 
#Halliburton be liable for failure to obtain any particular results or for 
#any damages, including, but not limited to, indirect, special or consequential damages, 
#resulting from the use of any information or interpretation provided by Halliburton.
#
~A           TIME           GTDEPTH  GTPQH  GTTQ  GTTN  GTET   GTTVD  
   12:03:05.000.08-Feb-2020 3069.01 5742.61 66.30 7.00   0.00 2627.56
   12:03:05.200.08-Feb-2020 3069.01 5742.61 66.30 7.00   0.20 2627.56
   12:03:05.400.08-Feb-2020 3069.01 5739.70 66.30 7.00   0.40 2627.56
   12:03:05.600.08-Feb-2020 3069.01 5747.10 66.30 7.00   0.60 2627.56
   12:03:05.800.08-Feb-2020 3069.01 5740.89 66.30 7.00   0.80 2627.56
   12:03:06.000.08-Feb-2020 3069.01 5744.53 66.30 7.00   1.00 2627.56
   12:03:06.200.08-Feb-2020 3069.01 5744.53 66.30 7.00   1.20 2627.56
   12:03:06.400.08-Feb-2020 3069.01 5743.35 66.30 7.00   1.40 2627.56
   12:03:06.600.08-Feb-2020 3069.01 5747.78 66.30 7.00   1.60 2627.56
   12:03:06.800.08-Feb-2020 3069.01 5746.86 66.30 7.00   1.80 2627.56
   12:03:07.000.08-Feb-2020 3069.01 5747.54 66.30 7.00   2.00 2627.56
   12:03:07.200.08-Feb-2020 3069.01 5747.54 66.30 7.00   2.20 2627.56
   12:03:07.400.08-Feb-2020 3069.01 5751.35 66.29 7.00   2.40 2627.56
   12:03:07.600.08-Feb-2020 3069.01 5748.77 66.29 7.00   2.60 2627.56
   12:03:07.800.08-Feb-2020 3069.01 5754.43 66.29 7.00   2.80 2627.56
   12:03:08.000.08-Feb-2020 3069.01 5748.72 66.29 7.00   3.00 2627.56
   12:03:08.200.08-Feb-2020 3069.01 5748.72 66.29 7.00   3.20 2627.56
   12:03:08.400.08-Feb-2020 3069.01 5750.35 66.29 7.00   3.40 2627.56
   12:03:08.600.08-Feb-2020 3069.01 5748.10 66.29 7.00   3.60 2627.56
   12:03:08.800.08-Feb-2020 3069.01 5747.95 66.29 7.00   3.80 2627.56
   12:03:09.000.08-Feb-2020 3069.01 5747.18 66.29 7.00   4.00 2627.56
   12:03:09.200.08-Feb-2020 3069.01 5747.18 66.29 7.00   4.20 2627.56
   12:03:09.400.08-Feb-2020 3069.01 5744.27 66.29 7.00   4.40 2627.56
   12:03:09.600.08-Feb-2020 3069.01 5743.12 66.29 7.00   4.60 2627.56
   12:03:09.800.08-Feb-2020 3069.01 5742.24 66.29 7.00   4.80 2627.56
   12:03:10.000.08-Feb-2020 3069.01 5746.90 66.29 7.00   5.00 2627.56
   12:03:10.200.08-Feb-2020 3069.01 5746.90 66.29 7.00   5.20 2627.56
   12:03:10.400.08-Feb-2020 3069.01 5746.90 66.29 7.00   5.40 2627.56
   12:03:10.600.08-Feb-2020 3069.01 5740.86 66.29 7.00   5.60 2627.56
   12:03:10.800.08-Feb-2020 3069.01 5739.05 66.29 7.00   5.80 2627.56
   12:03:11.000.08-Feb-2020 3069.01 5740.00 66.29 7.00   6.00 2627.56
   12:03:11.200.08-Feb-2020 3069.01 5740.00 66.29 7.00   6.20 2627.56
   12:03:11.400.08-Feb-2020 3069.01 5739.02 66.29 7.00   6.40 2627.56
   12:03:11.600.08-Feb-2020 3069.01 5738.82 66.29 7.00   6.60 2627.56
   12:03:11.800.08-Feb-2020 3069.01 5739.60 66.29 7.00   6.80 2627.56
   12:03:12.000.08-Feb-2020 3069.01 5739.72 66.29 7.00   7.00 2627.56
   12:03:12.200.08-Feb-2020 3069.01 5739.72 66.29 7.00   7.20 2627.56
   12:03:12.400.08-Feb-2020 3069.01 5740.43 66.29 7.00   7.40 2627.56
   12:03:12.600.08-Feb-2020 3069.01 5740.30 66.29 7.00   7.60 2627.56
   12:03:12.800.08-Feb-2020 3069.01 5739.11 66.29 7.00   7.80 2627.56
   12:03:13.000.08-Feb-2020 3069.01 5743.93 66.29 7.00   8.00 2627.56
   12:03:13.200.08-Feb-2020 3069.01 5743.93 66.29 7.00   8.20 2627.56
   12:03:13.400.08-Feb-2020 3069.01 5738.76 66.29 7.00   8.40 2627.56
   12:03:13.600.08-Feb-2020 3069.01 5736.76 66.29 7.00   8.60 2627.56
   12:03:13.800.08-Feb-2020 3069.01 5741.62 66.29 7.00   8.80 2627.56
   12:03:14.000.08-Feb-2020 3069.01 5731.23 66.29 7.00   9.00 2627.56
   12:03:14.200.08-Feb-2020 3069.01 5731.23 66.29 7.00   9.20 2627.56
   12:03:14.400.08-Feb-2020 3069.01 5733.17 66.29 7.00   9.40 2627.56
   12:03:14.600.08-Feb-2020 3069.01 5737.01 66.29 7.00   9.60 2627.56
   12:03:14.800.08-Feb-2020 3069.01 5730.28 66.29 7.00   9.80 2627.56
   12:03:15.000.08-Feb-2020 3069.01 5733.98 66.29 7.00  10.00 2627.56
   12:03:15.200.08-Feb-2020 3069.01 5733.98 66.29 7.00  10.20 2627.56
   12:03:15.400.08-Feb-2020 3069.01 5733.23 66.29 7.00  10.40 2627.56
   12:03:15.600.08-Feb-2020 3069.01 5734.24 66.29 7.00  10.60 2627.56
   12:03:15.800.08-Feb-2020 3069.01 5734.29 66.29 7.00  10.80 2627.56
   12:03:16.000.08-Feb-2020 3069.01 5734.05 66.29 7.00  11.00 2627.56
   12:03:16.200.08-Feb-2020 3069.01 5734.05 66.29 7.00  11.20 2627.56
   12:03:16.400.08-Feb-2020 3069.01 5737.23 66.29 7.00  11.40 2627.56
   12:03:16.600.08-Feb-2020 3069.01 5733.90 66.29 7.00  11.60 2627.56
   12:03:16.800.08-Feb-2020 3069.01 5734.52 66.29 7.00  11.80 2627.56
   12:03:17.000.08-Feb-2020 3069.01 5734.42 66.29 7.00  12.00 2627.56
   12:03:17.200.08-Feb-2020 3069.01 5734.42 66.29 7.00  12.20 2627.56
   12:03:17.400.08-Feb-2020 3069.01 5734.96 66.29 7.00  12.40 2627.56
   12:03:17.600.08-Feb-2020 3069.01 5735.26 66.29 7.00  12.60 2627.56
   12:03:17.800.08-Feb-2020 3069.01 5735.97 66.29 7.00  12.80 2627.56
   12:03:18.000.08-Feb-2020 3069.01 5735.98 66.29 7.00  13.00 2627.56
   12:03:18.200.08-Feb-2020 3069.01 5735.98 66.29 7.00  13.20 2627.56
   12:03:18.400.08-Feb-2020 3069.01 5740.81 66.28 7.00  13.40 2627.56
   12:03:18.600.08-Feb-2020 3069.01 5736.41 66.28 7.00  13.60 2627.56
   12:03:18.800.08-Feb-2020 3069.01 5737.72 66.28 7.00  13.80 2627.56
   12:03:19.000.08-Feb-2020 3069.01 5737.01 66.28 7.00  14.00 2627.56
   12:03:19.200.08-Feb-2020 3069.01 5737.01 66.28 7.00  14.20 2627.56
   12:03:19.400.08-Feb-2020 3069.01 5735.36 66.28 7.00  14.40 2627.56
   12:03:19.600.08-Feb-2020 3069.01 5735.61 66.28 7.00  14.60 2627.56
   12:03:19.800.08-Feb-2020 3069.01 5734.96 66.28 7.00  14.80 2627.56
   12:03:20.000.08-Feb-2020 3069.01 5735.21 66.28 7.00  15.00 2627.56
   12:03:20.200.08-Feb-2020 3069.01 5735.21 66.28 7.00  15.20 2627.56
   12:03:20.400.08-Feb-2020 3069.01 5735.73 66.28 7.00  15.40 2627.56
   12:03:20.600.08-Feb-2020 3069.01 5739.92 66.28 7.00  15.60 2627.56
   12:03:20.800.08-Feb-2020 3069.01 5739.08 66.28 7.00  15.80 2627.56
   12:03:21.000.08-Feb-2020 3069.01 5740.78 66.28 7.00  16.00 2627.56
   12:03:21.200.08-Feb-2020 3069.01 5740.78 66.28 7.00  16.20 2627.56
   12:03:21.400.08-Feb-2020 3069.01 5741.76 66.28 7.00  16.40 2627.56
   12:03:21.600.08-Feb-2020 3069.01 5738.84 66.28 7.00  16.60 2627.56
   12:03:21.800.08-Feb-2020 3069.01 5746.39 66.28 7.00  16.80 2627.56
   12:03:22.000.08-Feb-2020 3069.01 5735.25 66.28 7.00  17.00 2627.56
   12:03:22.200.08-Feb-2020 3069.01 5735.25 66.28 7.00  17.20 2627.56
   12:03:22.400.08-Feb-2020 3069.01 5740.82 66.28 7.00  17.40 2627.56
   12:03:22.600.08-Feb-2020 3069.01 5744.75 66.28 7.00  17.60 2627.56
   12:03:22.800.08-Feb-2020 3069.01 5737.06 66.28 7.00  17.80 2627.56
   12:03:23.000.08-Feb-2020 3069.01 5742.52 66.28 7.00  18.00 2627.56
   12:03:23.200.08-Feb-2020 3069.01 5742.52 66.28 7.00  18.20 2627.56
   12:03:23.400.08-Feb-2020 3069.01 5736.49 66.28 7.00  18.40 2627.56
   12:03:23.600.08-Feb-2020 3069.01 5743.04 66.28 7.00  18.60 2627.56
   12:03:23.800.08-Feb-2020 3069.01 5740.76 66.28 7.00  18.80 2627.56
   12:03:24.000.08-Feb-2020 3069.01 5739.77 66.28 7.00  19.00 2627.56
   12:03:24.200.08-Feb-2020 3069.01 5739.77 66.28 7.00  19.20 2627.56
   12:03:24.400.08-Feb-2020 3069.01 5741.05 66.28 7.00  19.40 2627.56
   12:03:24.600.08-Feb-2020 3069.01 5741.31 66.28 7.00  19.60 2627.56
   12:03:24.800.08-Feb-2020 3069.01 5740.93 66.28 7.00  19.80 2627.56
   12:03:25.000.08-Feb-2020 3069.01 5740.75 66.28 7.00  20.00 2627.56
   12:03:25.200.08-Feb-2020 3069.01 5740.75 66.28 7.00  20.20 2627.56
   12:03:25.400.08-Feb-2020 3069.01 5740.99 66.28 7.00  20.40 2627.56
   12:03:25.600.08-Feb-2020 3069.01 5742.42 66.28 7.00  20.60 2627.56
   12:03:25.800.08-Feb-2020 3069.01 5743.45 66.28 7.00  20.80 2627.56
   12:03:26.000.08-Feb-2020 3069.01 5740.22 66.28 7.00  21.00 2627.56
   12:03:26.200.08-Feb-2020 3069.01 5740.22 66.28 7.00  21.20 2627.56
   12:03:26.400.08-Feb-2020 3069.01 5741.29 66.28 7.00  21.40 2627.56
   12:03:26.600.08-Feb-2020 3069.01 5741.31 66.28 7.00  21.60 2627.56
   12:03:26.800.08-Feb-2020 3069.01 5742.11 66.28 7.00  21.80 2627.56
   12:03:27.000.08-Feb-2020 3069.01 5741.16 66.28 7.00  22.00 2627.56
   12:03:27.200.08-Feb-2020 3069.01 5741.16 66.28 7.00  22.20 2627.56
   12:03:27.400.08-Feb-2020 3069.01 5740.32 66.28 7.00  22.40 2627.56
   12:03:27.600.08-Feb-2020 3069.01 5745.19 66.28 7.00  22.60 2627.56
   12:03:27.800.08-Feb-2020 3069.01 5737.65 66.28 7.00  22.80 2627.56
