~Version Information
 VERS.                  2.0:   CWLS log ASCII Standard -VERSION 2.0
 WRAP.                   NO:   One line per depth step
~Well Information Block
#MNEM.UNIT     VALUE/NAME     DESCRIPTION
#---------     -----------    ---------------------------
 STRT.S             09:08:12 08-Feb-20: START TIME 09:08:12 08-Feb-20
 STOP.S             09:14:54 08-Feb-20: STOP TIME  09:14:54 08-Feb-20
 STEP.S                   0.00: STEP TIME
 NULL.                 -999.25: NULL VALUE
 DFWT.                        :  DIST FWL TEXT
 DFST.                        :  DIST FSL TEXT
 DMF .             Drill Floor:  DRILL MEAS FROM
 STIM.      07.00.00 09-Jan-20:  START TIME
 DATE.      14.04.48 07-Feb-20:  END TIME
 SPUD.               09-Jan-20:  SPUD DATE
 NREF.                    Grid:  NORTH REFERENCE
 HPTY.       Minimum Curvature:  HOLE POS TYPE
 DMOD.             Drill Model:  DRILL MOD DESC
 SVYD.                  Survey:  SURVEY DESC
 ILTD.               Lithology:  INTERP LTH DESC
 FTOP.          Formation Tops:  FORM TOPS DESC
 SON .        AZ-XX-0905059384:  JOB NUMBER
 MDS .        Operator Entered:  MAG DATA SOURCE
 WTYP.                Deviated:  WELL TYPE
 COMP.     BP Exploration (Caspian Sea) Ltd.:  COMPANY
 UWI .                     N/A:  UNIQUE WELL IDENTIFIER
 API .                     N/A:  API NUMBER
 BASE.              Azerbaijan:  LOGGING EQUIPMENT BASE LOCATION
 REGN.                   EESSA:  REGION
 PROV.                    Baku:  PROVINCE
 STAT.                    Baku:  STATE NAME
 CTRY.              Azerbaijan:  COUNTRY NAME
 FLD .                     ACG:  FIELD NAME
 SRVC.     TURAN Drilling & Engineering:  CONTRACTOR
 MWDS.                    Baku:  MWD SHOP
 WELL.                     J22:  WELL NAME
 RIG .             West Chirag:  RIG NAME
 DOE .                     N/A:  DOE NUMBER
 DCON.         Sperry Drilling:  DIRECTNL CONTR
 UNIT.                     N/A:  LOGGING EQUIPMENT ID
 PDAT.          Mean Sea Level:  PERMANENT DATUM
 JOBN.        AZ-XX-0905059384:  JOB TICKET NUMB
 CNTY.                        :  COUNTY
 LOC .                        :  LOCATION
 LMF .             Drill Floor:  LOG MEASURED FROM
 TVDS.m                  43.00:  TVDSS CORRECTN
 LATI.deg                40.13:  LATITUDE
 LONG.deg                51.22:  LONGITUDE
 WHNS.m                  10.28:  WELL HEAD N/S
 WHEW.m                  -6.24:  WELL HEAD E/W
 UTMX.m              519005.06:  UTM X
 UTMY.m             4443793.85:  UTM Y
 DFWL.m                   0.00:  DISTANCE FWL
 DFSL.m                   0.00:  DISTANCE FSL
 SDEP.m                 362.00:  START DEPTH
 TDD .m                 904.00:  TOTAL DEPTH (DRILLER)
 VSDR.deg               148.53:  VERT SEC DIRECT
 GVFD.g                   1.00:  GRAVITY FIELD
 MFLD.nT              50277.00:  MAGNETIC FIELD
 MDIP.deg                59.56:  MAGNETIC DIP
 MDEC.deg                 6.42:  MAGNETIC DECL
 GRDC.deg                 0.15:  GRID CORRECTION
 AZTC.deg                 6.27:  AZM TOTAL CORR
 EPD .m                   0.00:  ELEVATION
 EGL .m                   0.00:  GROUND ELEVATION
 WDMS.m                 169.80:  WD ELEV
 APD .m                  43.00:  DEPTH ABOVE PD
 AGAP.m                  43.00:  AIR GAP
 VSEW.m                  -6.24:  VERT SEC E/W
 VSNS.m                  10.28:  VERT SEC N/S
 DEP .m                   0.00:  DEPTH
 EKB .m                   0.00:  KB ELEVATION
 EDF .m                  43.00:  DF ELEVATION
 TDL .m                1183.00:  TOTAL DEPTH (LOGGER)
 VSC .                       0:  VS TO CLOSURE
 MAGU.                 1850021:  MAGUTM CHECKSUM
~Parameter Information Block
#MNEM.UNIT       Value        Description
#---------     -----------    ---------------------------
 AV  .mps                 4.00:  Ann Velocity 
 AVMX.mps                 4.50:  Max Ann Veloc 
 AZIF.deg               145.38:  Azm, Final 
 BHAT.        Rotary Steerable:  BHA Type 
 BROT.°/30m               3.00:  Build Rotating 
 BS  .in                 12.25:  Bit Size 
 BSZ .in                 12.25:  Bit Size 
 BTPL.psig              650.00:  Bit Press Loss 
 CABU.                      No:  Customer Abuse 
 COMM.                     T!k:  Run Comments 1 
 TCS .hr                101.62:  Time Ciculation Ended 
 CV  .mps                 5.00:  Crit Velocity 
 CVMX.mps                 5.00:  Max Crit Veloc 
 DD1 .             Aziz Aliyev:  Direct Drillr 1 
 DD2 .      Fakhraddin Guliyev:  Direct Drillr 2 
 DDSV.                 iCruise:  DD Service 
 DEFF.%                  97.00:  % Det Eff 
 DLRX.°/30m               4.16:  Dogleg Rot Max 
 DLSO.°/30m               3.20:  Dogleg Oriented 
 DLSX.°/30m               4.10:  Dogleg Str Max 
 DRET.      23.12.00 07-Feb-20:  Drill End Time 
 DRST.      11.30.00 04-Feb-20:  Drill Start Tim 
 DTIM.hr                 61.06:  Time Drilling 
 EDEP.m                3219.01:  End Depth 
 ENG1.         Almaz Almadatov:  Engineer 1 
 ENG2.         Dair Mahammadov:  Engineer 2 
 ENG3.          Nazrin Asgarli:  Engineer 3 
 ETIM.      02.30.00 11-Feb-20:  End Time 
 FLOI.gpm              1100.00:  Flow In 
 FLON.gpm               900.00:  Flow In Min 
 FLOS.cptm               55.00:  Fluid Loss 
 FLOX.gpm              1150.00:  Flow In Max 
 FTRO.       Formation Presure:  FTWD Run Obj 
 HFLO.                      No:  High Flow 
 HPRE.                      No:  High Pressure 
 HTEM.                      No:  High Temp 
 HYDO.m                   1.80:  Hydro Offset 
 IFIN.deg                75.11:  Inc, Final 
 IMAX.deg                75.11:  Inc Max 
 IMIN.deg                33.55:  Inc Min 
 IMND.m                2186.05:  Inc Min Depth 
 IMXD.m                3205.61:  Inc Max Depth 
 JARR.                      No:  Jarring 
 LETM.      23.12.00 07-Feb-20:  Log End Time 
 LOST.hr                     0:  Lost Rig Time 
 LSTM.      11.30.00 04-Feb-20:  Log Start Time 
 MDCL.ppm             40000.00:  Mud Chlorides 
 MDES.     Inversion Oil/Synthetic:  Mud Desc 
 DFD .sg                  1.49:  Mud Density 
 MDMN.sg                  1.49:  Dens Mud Min 
 MDMX.sg                  1.49:  Dens Mud Max 
 MOIL.                      73:  Run Mud Oil % 
 MOWR.                   73:27:  Run Mud OWR 
 MSND.                     0.1:  Run Mud Sand % 
 MSOL.                    20.1:  Run Mud Solids% 
 DFV .spqt               78.00:  Mud Viscosity 
 MWOD.in                  8.00:  MWD Tool OD 
 MWSI.                      No:  Serv Intrp, MWD 
 OTIM.hr                177.15:  Time Operating 
 PCON.          Wear / Scratch:  Pad Condition 
 PMAX.psia            10493.93:  Press Op, Max 
 PV  .cP                 73.00:  Mud PV 
 RUN .                     700:  Run Number 
 ROPA.m/hr               15.00:  ROP Avg 
 ROPN.m/hr               10.00:  ROP Min 
 ROPX.m/hr               35.00:  ROP Max 
 RPMA.rpm               130.00:  RPM Surface Avg 
 RPMN.rpm                80.00:  RPM Surface Min 
 RPMX.rpm               150.00:  RPM Surface Max 
 RRUN.                    L402:  Rig Run Number 
 RTIM.hr                 80.50:  Time Reaming 
 SAZI.deg               155.55:  Azm, Start 
 SDEP.m                2036.00:  Start Depth 
 SIDD.                      No:  Serv Intrp, DD 
 SINC.deg                35.44:  Inc, Start 
 SPPA.psig             4270.00:  SPP Avg 
 SPPN.psig             2800.00:  SPP Min 
 SPPX.psig             4850.00:  SPP Max 
 STIM.      09.30.00 03-Feb-20:  Start Time 
 SVCS.                 DD, MWD:  Services 
 SVER.                    9.20:  Sperry Version 
 TDAT.m                1183.00:  Tot Depth Attmp 
 TDDF.                      No:  Trip for DD 
 TDLG.m                1183.00:  Tot Depth Loggd 
 TFF .                      No:  Trip for Fail 
 TQAA.f-kp               16.00:  Torque Abs Avg 
 TQAN.f-kp               10.00:  Torque Abs Min 
 TQAX.f-kp               20.00:  Torque Abs Max 
 TRRT.°/30m               1.00:  Turn Rotating 
 MRT .                  EWR-M5:  Maximum Recorded Temperature 
 TTMX.degC               80.39:  Max Tool Temp 
 VS01.               13098498 :  Virtual Str1 SN 
 VS02.                90569596:  Virtual Str2 SN 
 VS03.                90523599:  Virtual Str3 SN 
 VS04.                90573553:  Virtual Str4 SN 
 VS05.                90598598:  Virtual Str5 SN 
 VS06.                90577297:  Virtual Str6 SN 
 WBMN.klb                13.00:  WOB Min 
 WITN.         Alistair Sprott:  Customer Rep 
 WITN.           Rufat Babayev:  Customer Rep 2 
 WOBA.klb                15.00:  WOB Avg 
 WOBX.klb                20.00:  WOB Max 
 YP  .lhf2               39.00:  Yield Point 
~Curve Information Block
#MNEM.UNIT                 API CODE     Curve Description
#---------               -----------    ---------------------------
 TIME.HHMMSS            00 000 000 000:  GT Time & Date
 GTDEPTH.m              00 000 000 000:  GT Depth
 GTPQH.psia             00 000 000 000:  GT HR Quartz Pressure
 GTTQ.degC              00 000 000 000:  GT Quartz Temperature
 GTTN.NONE              00 000 000 000:  GT Test Number
 GTET.sec               00 000 000 000:  GT Elapsed Test Time
 GTTVD.m                00 000 000 000:  GT True Vertical Depth
#Other Information
#
#WARRANTY: Halliburton will use its best efforts to furnish customers with 
#accurate information and interpretations that are part of, and incident to, the services 
#provided.  However, Halliburton cannot and does not warrant the accuracy 
#or correctness of such information and interpretations.  Under no circumstances should any 
#such information or interpretation be relied upon as the sole basis for any drilling, 
#completion, production, or financial decision or any procedure involving any risk to the 
#safety of any drilling venture, drilling rig or its crew or any other third party.  The 
#Customer has full responsibility for all drilling, completion and production operation.  
#Halliburton makes no representations or warranties, either expressed or 
#implied, including, but not limited to, the implied warranties of merchantability or fitness 
#for a particular purpose, with respect to the services rendered.  In no event will 
#Halliburton be liable for failure to obtain any particular results or for 
#any damages, including, but not limited to, indirect, special or consequential damages, 
#resulting from the use of any information or interpretation provided by Halliburton.
#
~A           TIME           GTDEPTH  GTPQH  GTTQ  GTTN  GTET   GTTVD  
# ...
   09:10:07.773.08-Feb-2020 3153.21 4822.86 69.89 3.00 115.01 2652.75
   09:10:07.973.08-Feb-2020 3153.21 4822.86 69.89 3.00 115.21 2652.75
   09:10:08.173.08-Feb-2020 3153.21 4824.06 69.89 3.00 115.41 2652.75
   09:10:08.373.08-Feb-2020 3153.21 4822.03 69.89 3.00 115.61 2652.75
   09:10:08.573.08-Feb-2020 3153.21 4823.17 69.89 3.00 115.81 2652.75
   09:10:08.773.08-Feb-2020 3153.21 4823.28 69.89 3.00 116.01 2652.75
   09:10:08.973.08-Feb-2020 3153.21 4823.28 69.89 3.00 116.21 2652.75
   09:10:09.173.08-Feb-2020 3153.21 4823.39 69.89 3.00 116.41 2652.75
   09:10:09.373.08-Feb-2020 3153.21 4823.12 69.89 3.00 116.61 2652.75
   09:10:09.573.08-Feb-2020 3153.21 4822.95 69.89 3.00 116.81 2652.75
   09:10:09.773.08-Feb-2020 3153.21 4823.23 69.89 3.00 117.01 2652.75
   09:10:09.973.08-Feb-2020 3153.21 4823.23 69.89 3.00 117.21 2652.75
   09:10:10.173.08-Feb-2020 3153.21 4822.94 69.89 3.00 117.41 2652.75
   09:10:10.374.08-Feb-2020 3153.21 4823.48 69.89 3.00 117.61 2652.75
   09:10:10.574.08-Feb-2020 3153.21 4823.14 69.89 3.00 117.81 2652.75
   09:10:10.774.08-Feb-2020 3153.21 4822.21 69.89 3.00 118.01 2652.75
   09:10:10.974.08-Feb-2020 3153.21 4822.21 69.89 3.00 118.21 2652.75
   09:10:11.174.08-Feb-2020 3153.21 4822.81 69.89 3.00 118.41 2652.75
   09:10:11.374.08-Feb-2020 3153.21 4821.90 69.89 3.00 118.61 2652.75
   09:10:11.574.08-Feb-2020 3153.21 4823.30 69.89 3.00 118.81 2652.75
   09:10:11.774.08-Feb-2020 3153.21 4823.85 69.89 3.00 119.01 2652.75
   09:10:11.974.08-Feb-2020 3153.21 4823.85 69.89 3.00 119.21 2652.75
   09:10:12.174.08-Feb-2020 3153.21 4822.62 69.89 3.00 119.41 2652.75
   09:10:12.374.08-Feb-2020 3153.21 4823.24 69.89 3.00 119.61 2652.75
   09:10:12.574.08-Feb-2020 3153.21 4822.83 69.89 3.00 119.81 2652.75
   09:10:12.774.08-Feb-2020 3153.21 4823.37 69.89 3.00 120.01 2652.75
   09:10:12.974.08-Feb-2020 3153.21 4823.37 69.89 3.00 120.21 2652.75
   09:10:13.174.08-Feb-2020 3153.21 4822.36 69.88 3.00 120.41 2652.75
   09:10:13.374.08-Feb-2020 3153.21 4824.08 69.89 3.00 120.61 2652.75
   09:10:13.574.08-Feb-2020 3153.21 4822.36 69.88 3.00 120.81 2652.75
   09:10:13.774.08-Feb-2020 3153.21 4823.10 69.88 3.00 121.01 2652.75
   09:10:13.974.08-Feb-2020 3153.21 4823.10 69.88 3.00 121.21 2652.75
   09:10:14.174.08-Feb-2020 3153.21 4822.66 69.88 3.00 121.41 2652.75
   09:10:14.374.08-Feb-2020 3153.21 4823.24 69.88 3.00 121.61 2652.75
   09:10:14.574.08-Feb-2020 3153.21 4823.04 69.88 3.00 121.81 2652.75
   09:10:14.774.08-Feb-2020 3153.21 4823.08 69.88 3.00 122.01 2652.75
   09:10:14.974.08-Feb-2020 3153.21 4823.08 69.88 3.00 122.21 2652.75
   09:10:15.174.08-Feb-2020 3153.21 4822.83 69.88 3.00 122.41 2652.75
   09:10:15.374.08-Feb-2020 3153.21 4823.05 69.88 3.00 122.61 2652.75
   09:10:15.574.08-Feb-2020 3153.21 4823.91 69.88 3.00 122.81 2652.75
   09:10:15.774.08-Feb-2020 3153.21 4822.10 69.88 3.00 123.01 2652.75
   09:10:15.974.08-Feb-2020 3153.21 4822.10 69.88 3.00 123.21 2652.75
   09:10:16.174.08-Feb-2020 3153.21 4823.28 69.88 3.00 123.41 2652.75
   09:10:16.374.08-Feb-2020 3153.21 4822.89 69.88 3.00 123.61 2652.75
   09:10:16.574.08-Feb-2020 3153.21 4823.27 69.88 3.00 123.81 2652.75
   09:10:16.774.08-Feb-2020 3153.21 4823.21 69.88 3.00 124.01 2652.75
   09:10:16.974.08-Feb-2020 3153.21 4823.21 69.88 3.00 124.21 2652.75
   09:10:17.174.08-Feb-2020 3153.21 4823.17 69.88 3.00 124.41 2652.75
   09:10:17.374.08-Feb-2020 3153.21 4822.97 69.88 3.00 124.61 2652.75
   09:10:17.574.08-Feb-2020 3153.21 4822.92 69.88 3.00 124.81 2652.75
   09:10:17.774.08-Feb-2020 3153.21 4823.09 69.88 3.00 125.01 2652.75
   09:10:17.974.08-Feb-2020 3153.21 4823.09 69.88 3.00 125.21 2652.75
   09:10:18.174.08-Feb-2020 3153.21 4823.28 69.88 3.00 125.41 2652.75
   09:10:18.374.08-Feb-2020 3153.21 4823.62 69.88 3.00 125.61 2652.75
   09:10:18.574.08-Feb-2020 3153.21 4823.15 69.88 3.00 125.81 2652.75
   09:10:18.774.08-Feb-2020 3153.21 4821.88 69.88 3.00 126.01 2652.75
   09:10:18.974.08-Feb-2020 3153.21 4821.88 69.88 3.00 126.21 2652.75
   09:10:19.174.08-Feb-2020 3153.21 4823.76 69.88 3.00 126.41 2652.75
   09:10:19.374.08-Feb-2020 3153.21 4823.04 69.88 3.00 126.61 2652.75
   09:10:19.574.08-Feb-2020 3153.21 4822.58 69.88 3.00 126.81 2652.75
   09:10:19.774.08-Feb-2020 3153.21 4823.13 69.88 3.00 127.01 2652.75
   09:10:19.974.08-Feb-2020 3153.21 4823.13 69.88 3.00 127.21 2652.75
   09:10:20.174.08-Feb-2020 3153.21 4823.03 69.88 3.00 127.41 2652.75
   09:10:20.374.08-Feb-2020 3153.21 4823.02 69.88 3.00 127.61 2652.75
   09:10:20.574.08-Feb-2020 3153.21 4822.21 69.88 3.00 127.81 2652.75
   09:10:20.774.08-Feb-2020 3153.21 4824.06 69.88 3.00 128.01 2652.75
   09:10:20.974.08-Feb-2020 3153.21 4824.06 69.88 3.00 128.21 2652.75
   09:10:21.174.08-Feb-2020 3153.21 4822.99 69.88 3.00 128.41 2652.75
   09:10:21.374.08-Feb-2020 3153.21 4822.99 69.88 3.00 128.61 2652.75
   09:10:21.574.08-Feb-2020 3153.21 4822.77 69.88 3.00 128.81 2652.75
   09:10:21.774.08-Feb-2020 3153.21 4823.29 69.88 3.00 129.01 2652.75
   09:10:21.974.08-Feb-2020 3153.21 4823.29 69.88 3.00 129.21 2652.75
   09:10:22.175.08-Feb-2020 3153.21 4823.00 69.88 3.00 129.41 2652.75
   09:10:22.375.08-Feb-2020 3153.21 4823.13 69.88 3.00 129.61 2652.75
   09:10:22.575.08-Feb-2020 3153.21 4822.90 69.88 3.00 129.81 2652.75
   09:10:22.775.08-Feb-2020 3153.21 4822.98 69.88 3.00 130.01 2652.75
   09:10:22.975.08-Feb-2020 3153.21 4822.98 69.88 3.00 130.21 2652.75
   09:10:23.175.08-Feb-2020 3153.21 4822.78 69.88 3.00 130.41 2652.75
   09:10:23.375.08-Feb-2020 3153.21 4822.77 69.88 3.00 130.61 2652.75
   09:10:23.575.08-Feb-2020 3153.21 4823.22 69.88 3.00 130.81 2652.75
   09:10:23.775.08-Feb-2020 3153.21 4823.09 69.88 3.00 131.01 2652.75
   09:10:23.975.08-Feb-2020 3153.21 4823.09 69.88 3.00 131.21 2652.75
   09:10:24.175.08-Feb-2020 3153.21 4823.18 69.88 3.00 131.41 2652.75
   09:10:24.375.08-Feb-2020 3153.21 4822.94 69.88 3.00 131.61 2652.75
   09:10:24.575.08-Feb-2020 3153.21 4823.23 69.88 3.00 131.81 2652.75
   09:10:24.775.08-Feb-2020 3153.21 4823.12 69.88 3.00 132.01 2652.75
   09:10:24.975.08-Feb-2020 3153.21 4823.12 69.88 3.00 132.21 2652.75
   09:10:25.175.08-Feb-2020 3153.21 4823.07 69.88 3.00 132.41 2652.75
   09:10:25.375.08-Feb-2020 3153.21 4823.30 69.88 3.00 132.61 2652.75
   09:10:25.575.08-Feb-2020 3153.21 4822.35 69.88 3.00 132.81 2652.75
   09:10:25.775.08-Feb-2020 3153.21 4823.39 69.88 3.00 133.01 2652.75
   09:10:25.975.08-Feb-2020 3153.21 4823.39 69.88 3.00 133.21 2652.75
   09:10:26.175.08-Feb-2020 3153.21 4822.00 69.88 3.00 133.41 2652.75
   09:10:26.375.08-Feb-2020 3153.21 4823.53 69.88 3.00 133.61 2652.75
   09:10:26.575.08-Feb-2020 3153.21 4823.72 69.88 3.00 133.81 2652.75
   09:10:26.775.08-Feb-2020 3153.21 4823.09 69.88 3.00 134.01 2652.75
   09:10:26.975.08-Feb-2020 3153.21 4823.09 69.88 3.00 134.21 2652.75
   09:10:27.175.08-Feb-2020 3153.21 4823.22 69.88 3.00 134.41 2652.75
   09:10:27.375.08-Feb-2020 3153.21 4822.98 69.88 3.00 134.61 2652.75
   09:10:27.575.08-Feb-2020 3153.21 4823.27 69.88 3.00 134.81 2652.75
   09:10:27.775.08-Feb-2020 3153.21 4822.81 69.88 3.00 135.01 2652.75
   09:10:27.975.08-Feb-2020 3153.21 4822.81 69.88 3.00 135.21 2652.75
   09:10:28.175.08-Feb-2020 3153.21 4824.09 69.88 3.00 135.41 2652.75
   09:10:28.375.08-Feb-2020 3153.21 4822.43 69.88 3.00 135.61 2652.75
   09:10:28.575.08-Feb-2020 3153.21 4822.87 69.88 3.00 135.81 2652.75
   09:10:28.775.08-Feb-2020 3153.21 4823.32 69.88 3.00 136.01 2652.75
   09:10:28.975.08-Feb-2020 3153.21 4823.32 69.88 3.00 136.21 2652.75
   09:10:29.175.08-Feb-2020 3153.21 4823.23 69.88 3.00 136.41 2652.75
   09:10:29.375.08-Feb-2020 3153.21 4823.39 69.88 3.00 136.61 2652.75
   09:10:29.575.08-Feb-2020 3153.21 4822.92 69.88 3.00 136.81 2652.75
   09:10:29.775.08-Feb-2020 3153.21 4823.17 69.88 3.00 137.01 2652.75
   09:10:29.975.08-Feb-2020 3153.21 4823.17 69.88 3.00 137.21 2652.75
   09:10:30.175.08-Feb-2020 3153.21 4822.78 69.88 3.00 137.41 2652.75
   09:10:30.375.08-Feb-2020 3153.21 4822.94 69.88 3.00 137.61 2652.75
   09:10:30.575.08-Feb-2020 3153.21 4823.48 69.88 3.00 137.81 2652.75
