~Version Information
 VERS.                  2.0:   CWLS log ASCII Standard -VERSION 2.0
 WRAP.                   NO:   One line per depth step
~Well Information Block
#MNEM.UNIT     VALUE/NAME     DESCRIPTION
#---------     -----------    ---------------------------
 STRT.S             10:04:49 08-Feb-20: START TIME 10:04:49 08-Feb-20
 STOP.S             10:11:45 08-Feb-20: STOP TIME  10:11:45 08-Feb-20
 STEP.S                   0.00: STEP TIME
 NULL.                 -999.25: NULL VALUE
 DFWT.                        :  DIST FWL TEXT
 DFST.                        :  DIST FSL TEXT
 DMF .             Drill Floor:  DRILL MEAS FROM
 STIM.      07.00.00 09-Jan-20:  START TIME
 DATE.      14.04.48 07-Feb-20:  END TIME
 SPUD.               09-Jan-20:  SPUD DATE
 NREF.                    Grid:  NORTH REFERENCE
 HPTY.       Minimum Curvature:  HOLE POS TYPE
 DMOD.             Drill Model:  DRILL MOD DESC
 SVYD.                  Survey:  SURVEY DESC
 ILTD.               Lithology:  INTERP LTH DESC
 FTOP.          Formation Tops:  FORM TOPS DESC
 SON .        AZ-XX-0905059384:  JOB NUMBER
 MDS .        Operator Entered:  MAG DATA SOURCE
 WTYP.                Deviated:  WELL TYPE
 COMP.     BP Exploration (Caspian Sea) Ltd.:  COMPANY
 UWI .                     N/A:  UNIQUE WELL IDENTIFIER
 API .                     N/A:  API NUMBER
 BASE.              Azerbaijan:  LOGGING EQUIPMENT BASE LOCATION
 REGN.                   EESSA:  REGION
 PROV.                    Baku:  PROVINCE
 STAT.                    Baku:  STATE NAME
 CTRY.              Azerbaijan:  COUNTRY NAME
 FLD .                     ACG:  FIELD NAME
 SRVC.     TURAN Drilling & Engineering:  CONTRACTOR
 MWDS.                    Baku:  MWD SHOP
 WELL.                     J22:  WELL NAME
 RIG .             West Chirag:  RIG NAME
 DOE .                     N/A:  DOE NUMBER
 DCON.         Sperry Drilling:  DIRECTNL CONTR
 UNIT.                     N/A:  LOGGING EQUIPMENT ID
 PDAT.          Mean Sea Level:  PERMANENT DATUM
 JOBN.        AZ-XX-0905059384:  JOB TICKET NUMB
 CNTY.                        :  COUNTY
 LOC .                        :  LOCATION
 LMF .             Drill Floor:  LOG MEASURED FROM
 TVDS.m                  43.00:  TVDSS CORRECTN
 LATI.deg                40.13:  LATITUDE
 LONG.deg                51.22:  LONGITUDE
 WHNS.m                  10.28:  WELL HEAD N/S
 WHEW.m                  -6.24:  WELL HEAD E/W
 UTMX.m              519005.06:  UTM X
 UTMY.m             4443793.85:  UTM Y
 DFWL.m                   0.00:  DISTANCE FWL
 DFSL.m                   0.00:  DISTANCE FSL
 SDEP.m                 362.00:  START DEPTH
 TDD .m                 904.00:  TOTAL DEPTH (DRILLER)
 VSDR.deg               148.53:  VERT SEC DIRECT
 GVFD.g                   1.00:  GRAVITY FIELD
 MFLD.nT              50277.00:  MAGNETIC FIELD
 MDIP.deg                59.56:  MAGNETIC DIP
 MDEC.deg                 6.42:  MAGNETIC DECL
 GRDC.deg                 0.15:  GRID CORRECTION
 AZTC.deg                 6.27:  AZM TOTAL CORR
 EPD .m                   0.00:  ELEVATION
 EGL .m                   0.00:  GROUND ELEVATION
 WDMS.m                 169.80:  WD ELEV
 APD .m                  43.00:  DEPTH ABOVE PD
 AGAP.m                  43.00:  AIR GAP
 VSEW.m                  -6.24:  VERT SEC E/W
 VSNS.m                  10.28:  VERT SEC N/S
 DEP .m                   0.00:  DEPTH
 EKB .m                   0.00:  KB ELEVATION
 EDF .m                  43.00:  DF ELEVATION
 TDL .m                1183.00:  TOTAL DEPTH (LOGGER)
 VSC .                       0:  VS TO CLOSURE
 MAGU.                 1850021:  MAGUTM CHECKSUM
~Parameter Information Block
#MNEM.UNIT       Value        Description
#---------     -----------    ---------------------------
 AV  .mps                 4.00:  Ann Velocity 
 AVMX.mps                 4.50:  Max Ann Veloc 
 AZIF.deg               145.38:  Azm, Final 
 BHAT.        Rotary Steerable:  BHA Type 
 BROT.°/30m               3.00:  Build Rotating 
 BS  .in                 12.25:  Bit Size 
 BSZ .in                 12.25:  Bit Size 
 BTPL.psig              650.00:  Bit Press Loss 
 CABU.                      No:  Customer Abuse 
 COMM.                     |¶Q:  Run Comments 1 
 TCS .hr                101.62:  Time Ciculation Ended 
 CV  .mps                 5.00:  Crit Velocity 
 CVMX.mps                 5.00:  Max Crit Veloc 
 DD1 .             Aziz Aliyev:  Direct Drillr 1 
 DD2 .      Fakhraddin Guliyev:  Direct Drillr 2 
 DDSV.                 iCruise:  DD Service 
 DEFF.%                  97.00:  % Det Eff 
 DLRX.°/30m               4.16:  Dogleg Rot Max 
 DLSO.°/30m               3.20:  Dogleg Oriented 
 DLSX.°/30m               4.10:  Dogleg Str Max 
 DRET.      23.12.00 07-Feb-20:  Drill End Time 
 DRST.      11.30.00 04-Feb-20:  Drill Start Tim 
 DTIM.hr                 61.06:  Time Drilling 
 EDEP.m                3219.01:  End Depth 
 ENG1.         Almaz Almadatov:  Engineer 1 
 ENG2.         Dair Mahammadov:  Engineer 2 
 ENG3.          Nazrin Asgarli:  Engineer 3 
 ETIM.      02.30.00 11-Feb-20:  End Time 
 FLOI.gpm              1100.00:  Flow In 
 FLON.gpm               900.00:  Flow In Min 
 FLOS.cptm               55.00:  Fluid Loss 
 FLOX.gpm              1150.00:  Flow In Max 
 FTRO.       Formation Presure:  FTWD Run Obj 
 HFLO.                      No:  High Flow 
 HPRE.                      No:  High Pressure 
 HTEM.                      No:  High Temp 
 HYDO.m                   1.80:  Hydro Offset 
 IFIN.deg                75.11:  Inc, Final 
 IMAX.deg                75.11:  Inc Max 
 IMIN.deg                33.55:  Inc Min 
 IMND.m                2186.05:  Inc Min Depth 
 IMXD.m                3205.61:  Inc Max Depth 
 JARR.                      No:  Jarring 
 LETM.      23.12.00 07-Feb-20:  Log End Time 
 LOST.hr                     0:  Lost Rig Time 
 LSTM.      11.30.00 04-Feb-20:  Log Start Time 
 MDCL.ppm             40000.00:  Mud Chlorides 
 MDES.     Inversion Oil/Synthetic:  Mud Desc 
 DFD .sg                  1.49:  Mud Density 
 MDMN.sg                  1.49:  Dens Mud Min 
 MDMX.sg                  1.49:  Dens Mud Max 
 MOIL.                      73:  Run Mud Oil % 
 MOWR.                   73:27:  Run Mud OWR 
 MSND.                     0.1:  Run Mud Sand % 
 MSOL.                    20.1:  Run Mud Solids% 
 DFV .spqt               78.00:  Mud Viscosity 
 MWOD.in                  8.00:  MWD Tool OD 
 MWSI.                      No:  Serv Intrp, MWD 
 OTIM.hr                177.15:  Time Operating 
 PCON.          Wear / Scratch:  Pad Condition 
 PMAX.psia            10493.93:  Press Op, Max 
 PV  .cP                 73.00:  Mud PV 
 RUN .                     700:  Run Number 
 ROPA.m/hr               15.00:  ROP Avg 
 ROPN.m/hr               10.00:  ROP Min 
 ROPX.m/hr               35.00:  ROP Max 
 RPMA.rpm               130.00:  RPM Surface Avg 
 RPMN.rpm                80.00:  RPM Surface Min 
 RPMX.rpm               150.00:  RPM Surface Max 
 RRUN.                    L402:  Rig Run Number 
 RTIM.hr                 80.50:  Time Reaming 
 SAZI.deg               155.55:  Azm, Start 
 SDEP.m                2036.00:  Start Depth 
 SIDD.                      No:  Serv Intrp, DD 
 SINC.deg                35.44:  Inc, Start 
 SPPA.psig             4270.00:  SPP Avg 
 SPPN.psig             2800.00:  SPP Min 
 SPPX.psig             4850.00:  SPP Max 
 STIM.      09.30.00 03-Feb-20:  Start Time 
 SVCS.                 DD, MWD:  Services 
 SVER.                    9.20:  Sperry Version 
 TDAT.m                1183.00:  Tot Depth Attmp 
 TDDF.                      No:  Trip for DD 
 TDLG.m                1183.00:  Tot Depth Loggd 
 TFF .                      No:  Trip for Fail 
 TQAA.f-kp               16.00:  Torque Abs Avg 
 TQAN.f-kp               10.00:  Torque Abs Min 
 TQAX.f-kp               20.00:  Torque Abs Max 
 TRRT.°/30m               1.00:  Turn Rotating 
 MRT .                  EWR-M5:  Maximum Recorded Temperature 
 TTMX.degC               80.39:  Max Tool Temp 
 VS01.               13098498 :  Virtual Str1 SN 
 VS02.                90569596:  Virtual Str2 SN 
 VS03.                90523599:  Virtual Str3 SN 
 VS04.                90573553:  Virtual Str4 SN 
 VS05.                90598598:  Virtual Str5 SN 
 VS06.                90577297:  Virtual Str6 SN 
 WBMN.klb                13.00:  WOB Min 
 WITN.         Alistair Sprott:  Customer Rep 
 WITN.           Rufat Babayev:  Customer Rep 2 
 WOBA.klb                15.00:  WOB Avg 
 WOBX.klb                20.00:  WOB Max 
 YP  .lhf2               39.00:  Yield Point 
~Curve Information Block
#MNEM.UNIT                 API CODE     Curve Description
#---------               -----------    ---------------------------
 TIME.HHMMSS            00 000 000 000:  GT Time & Date
 GTDEPTH.m              00 000 000 000:  GT Depth
 GTPQH.psia             00 000 000 000:  GT HR Quartz Pressure
 GTTQ.degC              00 000 000 000:  GT Quartz Temperature
 GTTN.NONE              00 000 000 000:  GT Test Number
 GTET.sec               00 000 000 000:  GT Elapsed Test Time
 GTTVD.m                00 000 000 000:  GT True Vertical Depth
#Other Information
#
#WARRANTY: Halliburton will use its best efforts to furnish customers with 
#accurate information and interpretations that are part of, and incident to, the services 
#provided.  However, Halliburton cannot and does not warrant the accuracy 
#or correctness of such information and interpretations.  Under no circumstances should any 
#such information or interpretation be relied upon as the sole basis for any drilling, 
#completion, production, or financial decision or any procedure involving any risk to the 
#safety of any drilling venture, drilling rig or its crew or any other third party.  The 
#Customer has full responsibility for all drilling, completion and production operation.  
#Halliburton makes no representations or warranties, either expressed or 
#implied, including, but not limited to, the implied warranties of merchantability or fitness 
#for a particular purpose, with respect to the services rendered.  In no event will 
#Halliburton be liable for failure to obtain any particular results or for 
#any damages, including, but not limited to, indirect, special or consequential damages, 
#resulting from the use of any information or interpretation provided by Halliburton.
#
~A           TIME           GTDEPTH  GTPQH  GTTQ  GTTN  GTET   GTTVD  
# ...
   10:10:57.294.08-Feb-2020 3159.51 4881.34 68.38 5.00 368.11 2654.38
   10:10:57.495.08-Feb-2020 3159.51 4881.34 68.38 5.00 368.31 2654.38
   10:10:57.695.08-Feb-2020 3159.51 4881.60 68.38 5.00 368.51 2654.38
   10:10:57.895.08-Feb-2020 3159.51 4881.49 68.38 5.00 368.71 2654.38
   10:10:58.095.08-Feb-2020 3159.51 4881.26 68.38 5.00 368.91 2654.38
   10:10:58.295.08-Feb-2020 3159.51 4881.35 68.38 5.00 369.11 2654.38
   10:10:58.495.08-Feb-2020 3159.51 4881.35 68.38 5.00 369.31 2654.38
   10:10:58.695.08-Feb-2020 3159.51 4881.74 68.38 5.00 369.51 2654.38
   10:10:58.895.08-Feb-2020 3159.51 4881.39 68.38 5.00 369.71 2654.38
   10:10:59.095.08-Feb-2020 3159.51 4881.22 68.38 5.00 369.91 2654.38
   10:10:59.295.08-Feb-2020 3159.51 4881.36 68.38 5.00 370.12 2654.38
   10:10:59.495.08-Feb-2020 3159.51 4881.36 68.38 5.00 370.32 2654.38
   10:10:59.695.08-Feb-2020 3159.51 4881.57 68.38 5.00 370.52 2654.38
   10:10:59.895.08-Feb-2020 3159.51 4881.38 68.38 5.00 370.72 2654.38
   10:11:00.095.08-Feb-2020 3159.51 4881.48 68.38 5.00 370.92 2654.38
   10:11:00.295.08-Feb-2020 3159.51 4881.51 68.38 5.00 371.12 2654.38
   10:11:00.495.08-Feb-2020 3159.51 4881.51 68.38 5.00 371.32 2654.38
   10:11:00.696.08-Feb-2020 3159.51 4881.50 68.38 5.00 371.52 2654.38
   10:11:00.896.08-Feb-2020 3159.51 4881.51 68.38 5.00 371.72 2654.38
   10:11:01.096.08-Feb-2020 3159.51 4881.42 68.38 5.00 371.92 2654.38
   10:11:01.296.08-Feb-2020 3159.51 4881.46 68.38 5.00 372.12 2654.38
   10:11:01.496.08-Feb-2020 3159.51 4881.46 68.38 5.00 372.32 2654.38
   10:11:01.696.08-Feb-2020 3159.51 4881.64 68.38 5.00 372.52 2654.38
   10:11:01.896.08-Feb-2020 3159.51 4881.34 68.38 5.00 372.72 2654.38
   10:11:02.096.08-Feb-2020 3159.51 4881.35 68.38 5.00 372.92 2654.38
   10:11:02.296.08-Feb-2020 3159.51 4881.54 68.38 5.00 373.12 2654.38
   10:11:02.496.08-Feb-2020 3159.51 4881.54 68.38 5.00 373.32 2654.38
   10:11:02.696.08-Feb-2020 3159.51 4881.41 68.38 5.00 373.52 2654.38
   10:11:02.896.08-Feb-2020 3159.51 4881.48 68.38 5.00 373.72 2654.38
   10:11:03.096.08-Feb-2020 3159.51 4881.54 68.38 5.00 373.92 2654.38
   10:11:03.296.08-Feb-2020 3159.51 4881.43 68.38 5.00 374.12 2654.38
   10:11:03.496.08-Feb-2020 3159.51 4881.43 68.38 5.00 374.32 2654.38
   10:11:03.696.08-Feb-2020 3159.51 4881.51 68.37 5.00 374.52 2654.38
   10:11:03.897.08-Feb-2020 3159.51 4881.45 68.37 5.00 374.72 2654.38
   10:11:04.097.08-Feb-2020 3159.51 4881.44 68.37 5.00 374.92 2654.38
   10:11:04.297.08-Feb-2020 3159.51 4881.76 68.37 5.00 375.12 2654.38
   10:11:04.497.08-Feb-2020 3159.51 4881.76 68.37 5.00 375.32 2654.38
   10:11:04.697.08-Feb-2020 3159.51 4881.39 68.37 5.00 375.52 2654.38
   10:11:04.897.08-Feb-2020 3159.51 4882.05 68.37 5.00 375.72 2654.38
   10:11:05.097.08-Feb-2020 3159.51 4881.10 68.37 5.00 375.92 2654.38
   10:11:05.297.08-Feb-2020 3159.51 4881.11 68.37 5.00 376.12 2654.38
   10:11:05.497.08-Feb-2020 3159.51 4881.11 68.37 5.00 376.32 2654.38
   10:11:05.697.08-Feb-2020 3159.51 4881.59 68.37 5.00 376.52 2654.38
   10:11:05.897.08-Feb-2020 3159.51 4881.41 68.37 5.00 376.72 2654.38
   10:11:06.097.08-Feb-2020 3159.51 4881.32 68.37 5.00 376.92 2654.38
   10:11:06.297.08-Feb-2020 3159.51 4882.05 68.37 5.00 377.12 2654.38
   10:11:06.497.08-Feb-2020 3159.51 4882.05 68.37 5.00 377.32 2654.38
   10:11:06.697.08-Feb-2020 3159.51 4881.21 68.37 5.00 377.52 2654.38
   10:11:06.897.08-Feb-2020 3159.51 4881.50 68.37 5.00 377.72 2654.38
   10:11:07.098.08-Feb-2020 3159.51 4881.63 68.37 5.00 377.92 2654.38
   10:11:07.298.08-Feb-2020 3159.51 4881.45 68.37 5.00 378.12 2654.38
   10:11:07.498.08-Feb-2020 3159.51 4881.45 68.37 5.00 378.32 2654.38
   10:11:07.698.08-Feb-2020 3159.51 4881.51 68.37 5.00 378.52 2654.38
   10:11:07.898.08-Feb-2020 3159.51 4881.49 68.37 5.00 378.72 2654.38
   10:11:08.098.08-Feb-2020 3159.51 4881.43 68.37 5.00 378.92 2654.38
   10:11:08.298.08-Feb-2020 3159.51 4881.49 68.37 5.00 379.12 2654.38
   10:11:08.498.08-Feb-2020 3159.51 4881.49 68.37 5.00 379.32 2654.38
   10:11:08.698.08-Feb-2020 3159.51 4881.48 68.37 5.00 379.52 2654.38
   10:11:08.898.08-Feb-2020 3159.51 4881.47 68.37 5.00 379.72 2654.38
   10:11:09.098.08-Feb-2020 3159.51 4881.39 68.37 5.00 379.92 2654.38
   10:11:09.298.08-Feb-2020 3159.51 4880.65 68.37 5.00 380.12 2654.38
   10:11:09.498.08-Feb-2020 3159.51 4880.65 68.37 5.00 380.32 2654.38
   10:11:09.698.08-Feb-2020 3159.51 4836.95 68.37 5.00 380.52 2654.38
   10:11:09.898.08-Feb-2020 3159.51 4901.26 68.37 5.00 380.72 2654.38
   10:11:10.098.08-Feb-2020 3159.51 4945.85 68.37 5.00 380.92 2654.38
   10:11:10.299.08-Feb-2020 3159.51 4994.30 68.37 5.00 381.12 2654.38
   10:11:10.499.08-Feb-2020 3159.51 4994.30 68.37 5.00 381.32 2654.38
   10:11:10.699.08-Feb-2020 3159.51 5160.64 68.37 5.00 381.52 2654.38
   10:11:10.899.08-Feb-2020 3159.51 5267.73 68.37 5.00 381.72 2654.38
   10:11:11.099.08-Feb-2020 3159.51 5388.94 68.37 5.00 381.92 2654.38
   10:11:11.299.08-Feb-2020 3159.51 5448.67 68.37 5.00 382.12 2654.38
   10:11:11.499.08-Feb-2020 3159.51 5448.67 68.37 5.00 382.32 2654.38
   10:11:11.699.08-Feb-2020 3159.51 5771.95 68.37 5.00 382.52 2654.38
   10:11:11.899.08-Feb-2020 3159.51 5803.10 68.37 5.00 382.72 2654.38
   10:11:12.099.08-Feb-2020 3159.51 5780.45 68.37 5.00 382.92 2654.38
   10:11:12.299.08-Feb-2020 3159.51 5776.20 68.37 5.00 383.12 2654.38
   10:11:12.499.08-Feb-2020 3159.51 5776.20 68.37 5.00 383.32 2654.38
   10:11:12.699.08-Feb-2020 3159.51 5778.19 68.37 5.00 383.52 2654.38
   10:11:12.899.08-Feb-2020 3159.51 5775.61 68.37 5.00 383.72 2654.38
   10:11:13.099.08-Feb-2020 3159.51 5776.96 68.37 5.00 383.92 2654.38
   10:11:13.299.08-Feb-2020 3159.51 5783.71 68.37 5.00 384.12 2654.38
   10:11:13.500.08-Feb-2020 3159.51 5783.71 68.37 5.00 384.32 2654.38
   10:11:13.700.08-Feb-2020 3159.51 5777.93 68.37 5.00 384.52 2654.38
   10:11:13.900.08-Feb-2020 3159.51 5779.70 68.37 5.00 384.72 2654.38
   10:11:14.100.08-Feb-2020 3159.51 5780.84 68.37 5.00 384.92 2654.38
   10:11:14.300.08-Feb-2020 3159.51 5779.65 68.37 5.00 385.12 2654.38
   10:11:14.500.08-Feb-2020 3159.51 5779.65 68.37 5.00 385.32 2654.38
   10:11:14.700.08-Feb-2020 3159.51 5780.99 68.38 5.00 385.52 2654.38
   10:11:14.900.08-Feb-2020 3159.51 5780.44 68.38 5.00 385.72 2654.38
   10:11:15.100.08-Feb-2020 3159.51 5779.87 68.38 5.00 385.92 2654.38
   10:11:15.300.08-Feb-2020 3159.51 5780.81 68.38 5.00 386.12 2654.38
   10:11:15.500.08-Feb-2020 3159.51 5780.81 68.38 5.00 386.32 2654.38
   10:11:15.700.08-Feb-2020 3159.51 5778.41 68.38 5.00 386.52 2654.38
   10:11:15.900.08-Feb-2020 3159.51 5778.00 68.38 5.00 386.72 2654.38
   10:11:16.100.08-Feb-2020 3159.51 5779.68 68.38 5.00 386.92 2654.38
   10:11:16.300.08-Feb-2020 3159.51 5781.06 68.38 5.00 387.12 2654.38
   10:11:16.500.08-Feb-2020 3159.51 5781.06 68.38 5.00 387.32 2654.38
   10:11:16.701.08-Feb-2020 3159.51 5779.84 68.38 5.00 387.52 2654.38
   10:11:16.901.08-Feb-2020 3159.51 5780.64 68.38 5.00 387.72 2654.38
   10:11:17.101.08-Feb-2020 3159.51 5780.29 68.38 5.00 387.92 2654.38
   10:11:17.301.08-Feb-2020 3159.51 5779.57 68.38 5.00 388.12 2654.38
   10:11:17.501.08-Feb-2020 3159.51 5779.57 68.38 5.00 388.32 2654.38
   10:11:17.701.08-Feb-2020 3159.51 5783.23 68.38 5.00 388.52 2654.38
   10:11:17.901.08-Feb-2020 3159.51 5780.60 68.38 5.00 388.72 2654.38
   10:11:18.101.08-Feb-2020 3159.51 5778.92 68.38 5.00 388.92 2654.38
   10:11:18.301.08-Feb-2020 3159.51 5783.39 68.38 5.00 389.12 2654.38
   10:11:18.501.08-Feb-2020 3159.51 5783.39 68.38 5.00 389.32 2654.38
   10:11:18.701.08-Feb-2020 3159.51 5783.25 68.38 5.00 389.52 2654.38
   10:11:18.901.08-Feb-2020 3159.51 5781.13 68.38 5.00 389.72 2654.38
   10:11:19.101.08-Feb-2020 3159.51 5778.65 68.38 5.00 389.92 2654.38
   10:11:19.301.08-Feb-2020 3159.51 5777.83 68.38 5.00 390.12 2654.38
   10:11:19.501.08-Feb-2020 3159.51 5777.83 68.38 5.00 390.32 2654.38
   10:11:19.701.08-Feb-2020 3159.51 5781.74 68.38 5.00 390.52 2654.38
   10:11:19.902.08-Feb-2020 3159.51 5778.04 68.38 5.00 390.72 2654.38
   10:11:20.102.08-Feb-2020 3159.51 5780.03 68.38 5.00 390.92 2654.38
