~Version Information
 VERS.                  2.0:   CWLS log ASCII Standard -VERSION 2.0
 WRAP.                   NO:   One line per depth step
~Well Information Block
#MNEM.UNIT     VALUE/NAME     DESCRIPTION
#---------     -----------    ---------------------------
 STRT.S             08:19:39 08-Feb-20: START TIME 08:19:39 08-Feb-20
 STOP.S             08:26:25 08-Feb-20: STOP TIME  08:26:25 08-Feb-20
 STEP.S                   0.00: STEP TIME
 NULL.                 -999.25: NULL VALUE
 DFWT.                        :  DIST FWL TEXT
 DFST.                        :  DIST FSL TEXT
 DMF .             Drill Floor:  DRILL MEAS FROM
 STIM.      07.00.00 09-Jan-20:  START TIME
 DATE.      14.04.48 07-Feb-20:  END TIME
 SPUD.               09-Jan-20:  SPUD DATE
 NREF.                    Grid:  NORTH REFERENCE
 HPTY.       Minimum Curvature:  HOLE POS TYPE
 DMOD.             Drill Model:  DRILL MOD DESC
 SVYD.                  Survey:  SURVEY DESC
 ILTD.               Lithology:  INTERP LTH DESC
 FTOP.          Formation Tops:  FORM TOPS DESC
 SON .        AZ-XX-0905059384:  JOB NUMBER
 MDS .        Operator Entered:  MAG DATA SOURCE
 WTYP.                Deviated:  WELL TYPE
 COMP.     BP Exploration (Caspian Sea) Ltd.:  COMPANY
 UWI .                     N/A:  UNIQUE WELL IDENTIFIER
 API .                     N/A:  API NUMBER
 BASE.              Azerbaijan:  LOGGING EQUIPMENT BASE LOCATION
 REGN.                   EESSA:  REGION
 PROV.                    Baku:  PROVINCE
 STAT.                    Baku:  STATE NAME
 CTRY.              Azerbaijan:  COUNTRY NAME
 FLD .                     ACG:  FIELD NAME
 SRVC.     TURAN Drilling & Engineering:  CONTRACTOR
 MWDS.                    Baku:  MWD SHOP
 WELL.                     J22:  WELL NAME
 RIG .             West Chirag:  RIG NAME
 DOE .                     N/A:  DOE NUMBER
 DCON.         Sperry Drilling:  DIRECTNL CONTR
 UNIT.                     N/A:  LOGGING EQUIPMENT ID
 PDAT.          Mean Sea Level:  PERMANENT DATUM
 JOBN.        AZ-XX-0905059384:  JOB TICKET NUMB
 CNTY.                        :  COUNTY
 LOC .                        :  LOCATION
 LMF .             Drill Floor:  LOG MEASURED FROM
 TVDS.m                  43.00:  TVDSS CORRECTN
 LATI.deg                40.13:  LATITUDE
 LONG.deg                51.22:  LONGITUDE
 WHNS.m                  10.28:  WELL HEAD N/S
 WHEW.m                  -6.24:  WELL HEAD E/W
 UTMX.m              519005.06:  UTM X
 UTMY.m             4443793.85:  UTM Y
 DFWL.m                   0.00:  DISTANCE FWL
 DFSL.m                   0.00:  DISTANCE FSL
 SDEP.m                 362.00:  START DEPTH
 TDD .m                 904.00:  TOTAL DEPTH (DRILLER)
 VSDR.deg               148.53:  VERT SEC DIRECT
 GVFD.g                   1.00:  GRAVITY FIELD
 MFLD.nT              50277.00:  MAGNETIC FIELD
 MDIP.deg                59.56:  MAGNETIC DIP
 MDEC.deg                 6.42:  MAGNETIC DECL
 GRDC.deg                 0.15:  GRID CORRECTION
 AZTC.deg                 6.27:  AZM TOTAL CORR
 EPD .m                   0.00:  ELEVATION
 EGL .m                   0.00:  GROUND ELEVATION
 WDMS.m                 169.80:  WD ELEV
 APD .m                  43.00:  DEPTH ABOVE PD
 AGAP.m                  43.00:  AIR GAP
 VSEW.m                  -6.24:  VERT SEC E/W
 VSNS.m                  10.28:  VERT SEC N/S
 DEP .m                   0.00:  DEPTH
 EKB .m                   0.00:  KB ELEVATION
 EDF .m                  43.00:  DF ELEVATION
 TDL .m                1183.00:  TOTAL DEPTH (LOGGER)
 VSC .                       0:  VS TO CLOSURE
 MAGU.                 1850021:  MAGUTM CHECKSUM
~Parameter Information Block
#MNEM.UNIT       Value        Description
#---------     -----------    ---------------------------
 AV  .mps                 4.00:  Ann Velocity 
 AVMX.mps                 4.50:  Max Ann Veloc 
 AZIF.deg               145.38:  Azm, Final 
 BHAT.        Rotary Steerable:  BHA Type 
 BROT.°/30m               3.00:  Build Rotating 
 BS  .in                 12.25:  Bit Size 
 BSZ .in                 12.25:  Bit Size 
 BTPL.psig              650.00:  Bit Press Loss 
 CABU.                      No:  Customer Abuse 
 COMM.                     ä7n:  Run Comments 1 
 TCS .hr                101.62:  Time Ciculation Ended 
 CV  .mps                 5.00:  Crit Velocity 
 CVMX.mps                 5.00:  Max Crit Veloc 
 DD1 .             Aziz Aliyev:  Direct Drillr 1 
 DD2 .      Fakhraddin Guliyev:  Direct Drillr 2 
 DDSV.                 iCruise:  DD Service 
 DEFF.%                  97.00:  % Det Eff 
 DLRX.°/30m               4.16:  Dogleg Rot Max 
 DLSO.°/30m               3.20:  Dogleg Oriented 
 DLSX.°/30m               4.10:  Dogleg Str Max 
 DRET.      23.12.00 07-Feb-20:  Drill End Time 
 DRST.      11.30.00 04-Feb-20:  Drill Start Tim 
 DTIM.hr                 61.06:  Time Drilling 
 EDEP.m                3219.01:  End Depth 
 ENG1.         Almaz Almadatov:  Engineer 1 
 ENG2.         Dair Mahammadov:  Engineer 2 
 ENG3.          Nazrin Asgarli:  Engineer 3 
 ETIM.      02.30.00 11-Feb-20:  End Time 
 FLOI.gpm              1100.00:  Flow In 
 FLON.gpm               900.00:  Flow In Min 
 FLOS.cptm               55.00:  Fluid Loss 
 FLOX.gpm              1150.00:  Flow In Max 
 FTRO.       Formation Presure:  FTWD Run Obj 
 HFLO.                      No:  High Flow 
 HPRE.                      No:  High Pressure 
 HTEM.                      No:  High Temp 
 HYDO.m                   1.80:  Hydro Offset 
 IFIN.deg                75.11:  Inc, Final 
 IMAX.deg                75.11:  Inc Max 
 IMIN.deg                33.55:  Inc Min 
 IMND.m                2186.05:  Inc Min Depth 
 IMXD.m                3205.61:  Inc Max Depth 
 JARR.                      No:  Jarring 
 LETM.      23.12.00 07-Feb-20:  Log End Time 
 LOST.hr                     0:  Lost Rig Time 
 LSTM.      11.30.00 04-Feb-20:  Log Start Time 
 MDCL.ppm             40000.00:  Mud Chlorides 
 MDES.     Inversion Oil/Synthetic:  Mud Desc 
 DFD .sg                  1.49:  Mud Density 
 MDMN.sg                  1.49:  Dens Mud Min 
 MDMX.sg                  1.49:  Dens Mud Max 
 MOIL.                      73:  Run Mud Oil % 
 MOWR.                   73:27:  Run Mud OWR 
 MSND.                     0.1:  Run Mud Sand % 
 MSOL.                    20.1:  Run Mud Solids% 
 DFV .spqt               78.00:  Mud Viscosity 
 MWOD.in                  8.00:  MWD Tool OD 
 MWSI.                      No:  Serv Intrp, MWD 
 OTIM.hr                177.15:  Time Operating 
 PCON.          Wear / Scratch:  Pad Condition 
 PMAX.psia            10493.93:  Press Op, Max 
 PV  .cP                 73.00:  Mud PV 
 RUN .                     700:  Run Number 
 ROPA.m/hr               15.00:  ROP Avg 
 ROPN.m/hr               10.00:  ROP Min 
 ROPX.m/hr               35.00:  ROP Max 
 RPMA.rpm               130.00:  RPM Surface Avg 
 RPMN.rpm                80.00:  RPM Surface Min 
 RPMX.rpm               150.00:  RPM Surface Max 
 RRUN.                    L402:  Rig Run Number 
 RTIM.hr                 80.50:  Time Reaming 
 SAZI.deg               155.55:  Azm, Start 
 SDEP.m                2036.00:  Start Depth 
 SIDD.                      No:  Serv Intrp, DD 
 SINC.deg                35.44:  Inc, Start 
 SPPA.psig             4270.00:  SPP Avg 
 SPPN.psig             2800.00:  SPP Min 
 SPPX.psig             4850.00:  SPP Max 
 STIM.      09.30.00 03-Feb-20:  Start Time 
 SVCS.                 DD, MWD:  Services 
 SVER.                    9.20:  Sperry Version 
 TDAT.m                1183.00:  Tot Depth Attmp 
 TDDF.                      No:  Trip for DD 
 TDLG.m                1183.00:  Tot Depth Loggd 
 TFF .                      No:  Trip for Fail 
 TQAA.f-kp               16.00:  Torque Abs Avg 
 TQAN.f-kp               10.00:  Torque Abs Min 
 TQAX.f-kp               20.00:  Torque Abs Max 
 TRRT.°/30m               1.00:  Turn Rotating 
 MRT .                  EWR-M5:  Maximum Recorded Temperature 
 TTMX.degC               80.39:  Max Tool Temp 
 VS01.               13098498 :  Virtual Str1 SN 
 VS02.                90569596:  Virtual Str2 SN 
 VS03.                90523599:  Virtual Str3 SN 
 VS04.                90573553:  Virtual Str4 SN 
 VS05.                90598598:  Virtual Str5 SN 
 VS06.                90577297:  Virtual Str6 SN 
 WBMN.klb                13.00:  WOB Min 
 WITN.         Alistair Sprott:  Customer Rep 
 WITN.           Rufat Babayev:  Customer Rep 2 
 WOBA.klb                15.00:  WOB Avg 
 WOBX.klb                20.00:  WOB Max 
 YP  .lhf2               39.00:  Yield Point 
~Curve Information Block
#MNEM.UNIT                 API CODE     Curve Description
#---------               -----------    ---------------------------
 TIME.HHMMSS            00 000 000 000:  GT Time & Date
 GTDEPTH.m              00 000 000 000:  GT Depth
 GTPQH.psia             00 000 000 000:  GT HR Quartz Pressure
 GTTQ.degC              00 000 000 000:  GT Quartz Temperature
 GTTN.NONE              00 000 000 000:  GT Test Number
 GTET.sec               00 000 000 000:  GT Elapsed Test Time
 GTTVD.m                00 000 000 000:  GT True Vertical Depth
#Other Information
#
#WARRANTY: Halliburton will use its best efforts to furnish customers with 
#accurate information and interpretations that are part of, and incident to, the services 
#provided.  However, Halliburton cannot and does not warrant the accuracy 
#or correctness of such information and interpretations.  Under no circumstances should any 
#such information or interpretation be relied upon as the sole basis for any drilling, 
#completion, production, or financial decision or any procedure involving any risk to the 
#safety of any drilling venture, drilling rig or its crew or any other third party.  The 
#Customer has full responsibility for all drilling, completion and production operation.  
#Halliburton makes no representations or warranties, either expressed or 
#implied, including, but not limited to, the implied warranties of merchantability or fitness 
#for a particular purpose, with respect to the services rendered.  In no event will 
#Halliburton be liable for failure to obtain any particular results or for 
#any damages, including, but not limited to, indirect, special or consequential damages, 
#resulting from the use of any information or interpretation provided by Halliburton.
#
~A           TIME           GTDEPTH  GTPQH  GTTQ  GTTN  GTET   GTTVD  
# ...
   08:23:52.541.08-Feb-2020 3134.51 4718.02 73.69 1.00 253.02 2647.81
   08:23:52.741.08-Feb-2020 3134.51 4718.02 73.69 1.00 253.22 2647.81
   08:23:52.941.08-Feb-2020 3134.51 4718.45 73.69 1.00 253.42 2647.81
   08:23:53.141.08-Feb-2020 3134.51 4718.26 73.69 1.00 253.62 2647.81
   08:23:53.341.08-Feb-2020 3134.51 4718.35 73.69 1.00 253.82 2647.81
   08:23:53.541.08-Feb-2020 3134.51 4718.52 73.69 1.00 254.02 2647.81
   08:23:53.741.08-Feb-2020 3134.51 4718.52 73.69 1.00 254.22 2647.81
   08:23:53.941.08-Feb-2020 3134.51 4718.62 73.69 1.00 254.42 2647.81
   08:23:54.141.08-Feb-2020 3134.51 4718.75 73.69 1.00 254.62 2647.81
   08:23:54.341.08-Feb-2020 3134.51 4719.12 73.69 1.00 254.82 2647.81
   08:23:54.541.08-Feb-2020 3134.51 4718.94 73.69 1.00 255.02 2647.81
   08:23:54.741.08-Feb-2020 3134.51 4718.94 73.69 1.00 255.22 2647.81
   08:23:54.941.08-Feb-2020 3134.51 4718.90 73.69 1.00 255.42 2647.81
   08:23:55.141.08-Feb-2020 3134.51 4718.78 73.69 1.00 255.62 2647.81
   08:23:55.341.08-Feb-2020 3134.51 4718.74 73.69 1.00 255.82 2647.81
   08:23:55.541.08-Feb-2020 3134.51 4718.90 73.68 1.00 256.02 2647.81
   08:23:55.741.08-Feb-2020 3134.51 4718.90 73.68 1.00 256.22 2647.81
   08:23:55.941.08-Feb-2020 3134.51 4718.80 73.68 1.00 256.42 2647.81
   08:23:56.141.08-Feb-2020 3134.51 4719.37 73.68 1.00 256.62 2647.81
   08:23:56.341.08-Feb-2020 3134.51 4719.16 73.68 1.00 256.82 2647.81
   08:23:56.541.08-Feb-2020 3134.51 4719.36 73.68 1.00 257.02 2647.81
   08:23:56.741.08-Feb-2020 3134.51 4719.36 73.68 1.00 257.22 2647.81
   08:23:56.941.08-Feb-2020 3134.51 4719.43 73.68 1.00 257.42 2647.81
   08:23:57.141.08-Feb-2020 3134.51 4719.55 73.68 1.00 257.62 2647.81
   08:23:57.341.08-Feb-2020 3134.51 4719.72 73.68 1.00 257.82 2647.81
   08:23:57.541.08-Feb-2020 3134.51 4719.57 73.68 1.00 258.02 2647.81
   08:23:57.741.08-Feb-2020 3134.51 4719.57 73.68 1.00 258.22 2647.81
   08:23:57.941.08-Feb-2020 3134.51 4719.72 73.68 1.00 258.42 2647.81
   08:23:58.141.08-Feb-2020 3134.51 4719.90 73.68 1.00 258.62 2647.81
   08:23:58.341.08-Feb-2020 3134.51 4719.48 73.68 1.00 258.82 2647.81
   08:23:58.541.08-Feb-2020 3134.51 4719.60 73.68 1.00 259.02 2647.81
   08:23:58.741.08-Feb-2020 3134.51 4719.60 73.68 1.00 259.22 2647.81
   08:23:58.941.08-Feb-2020 3134.51 4719.40 73.68 1.00 259.42 2647.81
   08:23:59.141.08-Feb-2020 3134.51 4719.60 73.68 1.00 259.62 2647.81
   08:23:59.341.08-Feb-2020 3134.51 4719.78 73.68 1.00 259.82 2647.81
   08:23:59.541.08-Feb-2020 3134.51 4720.23 73.67 1.00 260.02 2647.81
   08:23:59.741.08-Feb-2020 3134.51 4720.23 73.67 1.00 260.22 2647.81
   08:23:59.941.08-Feb-2020 3134.51 4720.14 73.67 1.00 260.42 2647.81
   08:24:00.141.08-Feb-2020 3134.51 4720.45 73.67 1.00 260.62 2647.81
   08:24:00.341.08-Feb-2020 3134.51 4720.80 73.67 1.00 260.82 2647.81
   08:24:00.541.08-Feb-2020 3134.51 4720.42 73.67 1.00 261.02 2647.81
   08:24:00.741.08-Feb-2020 3134.51 4720.42 73.67 1.00 261.22 2647.81
   08:24:00.942.08-Feb-2020 3134.51 4720.92 73.67 1.00 261.42 2647.81
   08:24:01.142.08-Feb-2020 3134.51 4720.86 73.67 1.00 261.62 2647.81
   08:24:01.342.08-Feb-2020 3134.51 4721.15 73.67 1.00 261.82 2647.81
   08:24:01.542.08-Feb-2020 3134.51 4721.19 73.67 1.00 262.02 2647.81
   08:24:01.742.08-Feb-2020 3134.51 4721.19 73.67 1.00 262.22 2647.81
   08:24:01.942.08-Feb-2020 3134.51 4721.36 73.67 1.00 262.42 2647.81
   08:24:02.142.08-Feb-2020 3134.51 4721.52 73.67 1.00 262.62 2647.81
   08:24:02.342.08-Feb-2020 3134.51 4721.61 73.67 1.00 262.82 2647.81
   08:24:02.542.08-Feb-2020 3134.51 4721.79 73.67 1.00 263.02 2647.81
   08:24:02.742.08-Feb-2020 3134.51 4721.79 73.67 1.00 263.22 2647.81
   08:24:02.942.08-Feb-2020 3134.51 4721.79 73.67 1.00 263.42 2647.81
   08:24:03.142.08-Feb-2020 3134.51 4722.31 73.67 1.00 263.62 2647.81
   08:24:03.342.08-Feb-2020 3134.51 4721.98 73.66 1.00 263.82 2647.81
   08:24:03.542.08-Feb-2020 3134.51 4722.00 73.66 1.00 264.02 2647.81
   08:24:03.742.08-Feb-2020 3134.51 4722.00 73.66 1.00 264.22 2647.81
   08:24:03.942.08-Feb-2020 3134.51 4722.11 73.66 1.00 264.42 2647.81
   08:24:04.142.08-Feb-2020 3134.51 4722.01 73.66 1.00 264.62 2647.81
   08:24:04.342.08-Feb-2020 3134.51 4722.15 73.66 1.00 264.82 2647.81
   08:24:04.542.08-Feb-2020 3134.51 4722.11 73.66 1.00 265.02 2647.81
   08:24:04.742.08-Feb-2020 3134.51 4722.11 73.66 1.00 265.22 2647.81
   08:24:04.942.08-Feb-2020 3134.51 4722.24 73.66 1.00 265.42 2647.81
   08:24:05.142.08-Feb-2020 3134.51 4722.32 73.66 1.00 265.62 2647.81
   08:24:05.342.08-Feb-2020 3134.51 4722.15 73.66 1.00 265.82 2647.81
   08:24:05.542.08-Feb-2020 3134.51 4722.34 73.66 1.00 266.02 2647.81
   08:24:05.742.08-Feb-2020 3134.51 4722.34 73.66 1.00 266.22 2647.81
   08:24:05.942.08-Feb-2020 3134.51 4722.38 73.66 1.00 266.42 2647.81
   08:24:06.142.08-Feb-2020 3134.51 4722.59 73.66 1.00 266.62 2647.81
   08:24:06.342.08-Feb-2020 3134.51 4722.44 73.66 1.00 266.82 2647.81
   08:24:06.542.08-Feb-2020 3134.51 4722.39 73.66 1.00 267.02 2647.81
   08:24:06.742.08-Feb-2020 3134.51 4722.39 73.66 1.00 267.22 2647.81
   08:24:06.942.08-Feb-2020 3134.51 4722.51 73.66 1.00 267.42 2647.81
   08:24:07.142.08-Feb-2020 3134.51 4722.65 73.66 1.00 267.62 2647.81
   08:24:07.342.08-Feb-2020 3134.51 4127.46 73.65 1.00 267.82 2647.81
   08:24:07.542.08-Feb-2020 3134.51 3344.62 73.65 1.00 268.02 2647.81
   08:24:07.742.08-Feb-2020 3134.51 3344.62 73.65 1.00 268.22 2647.81
   08:24:07.942.08-Feb-2020 3134.51 2944.97 73.65 1.00 268.42 2647.81
   08:24:08.142.08-Feb-2020 3134.51 2802.65 73.65 1.00 268.62 2647.81
   08:24:08.342.08-Feb-2020 3134.51 2681.18 73.65 1.00 268.82 2647.81
   08:24:08.542.08-Feb-2020 3134.51 2571.45 73.65 1.00 269.02 2647.81
   08:24:08.742.08-Feb-2020 3134.51 2571.45 73.65 1.00 269.22 2647.81
   08:24:08.942.08-Feb-2020 3134.51 2380.73 73.65 1.00 269.42 2647.81
   08:24:09.142.08-Feb-2020 3134.51 2296.48 73.64 1.00 269.62 2647.81
   08:24:09.342.08-Feb-2020 3134.51 2219.14 73.64 1.00 269.82 2647.81
   08:24:09.542.08-Feb-2020 3134.51 2153.84 73.64 1.00 270.02 2647.81
   08:24:09.742.08-Feb-2020 3134.51 2153.84 73.64 1.00 270.22 2647.81
   08:24:09.942.08-Feb-2020 3134.51 2080.77 73.64 1.00 270.42 2647.81
   08:24:10.142.08-Feb-2020 3134.51 2059.82 73.63 1.00 270.62 2647.81
   08:24:10.342.08-Feb-2020 3134.51 2022.58 73.63 1.00 270.82 2647.81
   08:24:10.542.08-Feb-2020 3134.51 1992.75 73.63 1.00 271.02 2647.81
   08:24:10.742.08-Feb-2020 3134.51 1992.75 73.63 1.00 271.22 2647.81
   08:24:10.942.08-Feb-2020 3134.51 1942.26 73.62 1.00 271.42 2647.81
   08:24:11.142.08-Feb-2020 3134.51 1914.52 73.62 1.00 271.62 2647.81
   08:24:11.342.08-Feb-2020 3134.51 1888.66 73.62 1.00 271.82 2647.81
   08:24:11.542.08-Feb-2020 3134.51 1863.42 73.62 1.00 272.02 2647.81
   08:24:11.742.08-Feb-2020 3134.51 1863.42 73.62 1.00 272.22 2647.81
   08:24:11.942.08-Feb-2020 3134.51 1813.56 73.61 1.00 272.42 2647.81
   08:24:12.142.08-Feb-2020 3134.51 1798.54 73.61 1.00 272.62 2647.81
   08:24:12.342.08-Feb-2020 3134.51 1776.79 73.61 1.00 272.82 2647.81
   08:24:12.542.08-Feb-2020 3134.51 1744.86 73.60 1.00 273.02 2647.81
   08:24:12.742.08-Feb-2020 3134.51 1744.86 73.60 1.00 273.22 2647.81
   08:24:12.943.08-Feb-2020 3134.51 1704.22 73.60 1.00 273.42 2647.81
   08:24:13.143.08-Feb-2020 3134.51 1683.32 73.60 1.00 273.62 2647.81
   08:24:13.343.08-Feb-2020 3134.51 1667.97 73.59 1.00 273.82 2647.81
   08:24:13.543.08-Feb-2020 3134.51 1653.89 73.59 1.00 274.02 2647.81
   08:24:13.743.08-Feb-2020 3134.51 1653.89 73.59 1.00 274.22 2647.81
   08:24:13.943.08-Feb-2020 3134.51 1614.01 73.59 1.00 274.42 2647.81
   08:24:14.143.08-Feb-2020 3134.51 1594.27 73.58 1.00 274.62 2647.81
   08:24:14.343.08-Feb-2020 3134.51 1587.15 73.58 1.00 274.82 2647.81
   08:24:14.543.08-Feb-2020 3134.51 1566.45 73.58 1.00 275.02 2647.81
   08:24:14.743.08-Feb-2020 3134.51 1566.45 73.58 1.00 275.22 2647.81
   08:24:14.943.08-Feb-2020 3134.51 1535.96 73.58 1.00 275.42 2647.81
   08:24:15.143.08-Feb-2020 3134.51 1530.00 73.57 1.00 275.62 2647.81
   08:24:15.343.08-Feb-2020 3134.51 1511.50 73.57 1.00 275.82 2647.81
