~Version Information
 VERS.                  2.0:   CWLS log ASCII Standard -VERSION 2.0
 WRAP.                   NO:   One line per depth step
~Well Information Block
#MNEM.UNIT     VALUE/NAME     DESCRIPTION
#---------     -----------    ---------------------------
 STRT.S             12:03:05 08-Feb-20: START TIME 12:03:05 08-Feb-20
 STOP.S             12:09:57 08-Feb-20: STOP TIME  12:09:57 08-Feb-20
 STEP.S                   0.00: STEP TIME
 NULL.                 -999.25: NULL VALUE
 DFWT.                        :  DIST FWL TEXT
 DFST.                        :  DIST FSL TEXT
 DMF .             Drill Floor:  DRILL MEAS FROM
 STIM.      07.00.00 09-Jan-20:  START TIME
 DATE.      14.04.48 07-Feb-20:  END TIME
 SPUD.               09-Jan-20:  SPUD DATE
 NREF.                    Grid:  NORTH REFERENCE
 HPTY.       Minimum Curvature:  HOLE POS TYPE
 DMOD.             Drill Model:  DRILL MOD DESC
 SVYD.                  Survey:  SURVEY DESC
 ILTD.               Lithology:  INTERP LTH DESC
 FTOP.          Formation Tops:  FORM TOPS DESC
 SON .        AZ-XX-0905059384:  JOB NUMBER
 MDS .        Operator Entered:  MAG DATA SOURCE
 WTYP.                Deviated:  WELL TYPE
 COMP.     BP Exploration (Caspian Sea) Ltd.:  COMPANY
 UWI .                     N/A:  UNIQUE WELL IDENTIFIER
 API .                     N/A:  API NUMBER
 BASE.              Azerbaijan:  LOGGING EQUIPMENT BASE LOCATION
 REGN.                   EESSA:  REGION
 PROV.                    Baku:  PROVINCE
 STAT.                    Baku:  STATE NAME
 CTRY.              Azerbaijan:  COUNTRY NAME
 FLD .                     ACG:  FIELD NAME
 SRVC.     TURAN Drilling & Engineering:  CONTRACTOR
 MWDS.                    Baku:  MWD SHOP
 WELL.                     J22:  WELL NAME
 RIG .             West Chirag:  RIG NAME
 DOE .                     N/A:  DOE NUMBER
 DCON.         Sperry Drilling:  DIRECTNL CONTR
 UNIT.                     N/A:  LOGGING EQUIPMENT ID
 PDAT.          Mean Sea Level:  PERMANENT DATUM
 JOBN.        AZ-XX-0905059384:  JOB TICKET NUMB
 CNTY.                        :  COUNTY
 LOC .                        :  LOCATION
 LMF .             Drill Floor:  LOG MEASURED FROM
 TVDS.m                  43.00:  TVDSS CORRECTN
 LATI.deg                40.13:  LATITUDE
 LONG.deg                51.22:  LONGITUDE
 WHNS.m                  10.28:  WELL HEAD N/S
 WHEW.m                  -6.24:  WELL HEAD E/W
 UTMX.m              519005.06:  UTM X
 UTMY.m             4443793.85:  UTM Y
 DFWL.m                   0.00:  DISTANCE FWL
 DFSL.m                   0.00:  DISTANCE FSL
 SDEP.m                 362.00:  START DEPTH
 TDD .m                 904.00:  TOTAL DEPTH (DRILLER)
 VSDR.deg               148.53:  VERT SEC DIRECT
 GVFD.g                   1.00:  GRAVITY FIELD
 MFLD.nT              50277.00:  MAGNETIC FIELD
 MDIP.deg                59.56:  MAGNETIC DIP
 MDEC.deg                 6.42:  MAGNETIC DECL
 GRDC.deg                 0.15:  GRID CORRECTION
 AZTC.deg                 6.27:  AZM TOTAL CORR
 EPD .m                   0.00:  ELEVATION
 EGL .m                   0.00:  GROUND ELEVATION
 WDMS.m                 169.80:  WD ELEV
 APD .m                  43.00:  DEPTH ABOVE PD
 AGAP.m                  43.00:  AIR GAP
 VSEW.m                  -6.24:  VERT SEC E/W
 VSNS.m                  10.28:  VERT SEC N/S
 DEP .m                   0.00:  DEPTH
 EKB .m                   0.00:  KB ELEVATION
 EDF .m                  43.00:  DF ELEVATION
 TDL .m                1183.00:  TOTAL DEPTH (LOGGER)
 VSC .                       0:  VS TO CLOSURE
 MAGU.                 1850021:  MAGUTM CHECKSUM
~Parameter Information Block
#MNEM.UNIT       Value        Description
#---------     -----------    ---------------------------
 AV  .mps                 4.00:  Ann Velocity 
 AVMX.mps                 4.50:  Max Ann Veloc 
 AZIF.deg               145.38:  Azm, Final 
 BHAT.        Rotary Steerable:  BHA Type 
 BROT.°/30m               3.00:  Build Rotating 
 BS  .in                 12.25:  Bit Size 
 BSZ .in                 12.25:  Bit Size 
 BTPL.psig              650.00:  Bit Press Loss 
 CABU.                      No:  Customer Abuse 
 COMM.                     ÌSf:  Run Comments 1 
 TCS .hr                101.62:  Time Ciculation Ended 
 CV  .mps                 5.00:  Crit Velocity 
 CVMX.mps                 5.00:  Max Crit Veloc 
 DD1 .             Aziz Aliyev:  Direct Drillr 1 
 DD2 .      Fakhraddin Guliyev:  Direct Drillr 2 
 DDSV.                 iCruise:  DD Service 
 DEFF.%                  97.00:  % Det Eff 
 DLRX.°/30m               4.16:  Dogleg Rot Max 
 DLSO.°/30m               3.20:  Dogleg Oriented 
 DLSX.°/30m               4.10:  Dogleg Str Max 
 DRET.      23.12.00 07-Feb-20:  Drill End Time 
 DRST.      11.30.00 04-Feb-20:  Drill Start Tim 
 DTIM.hr                 61.06:  Time Drilling 
 EDEP.m                3219.01:  End Depth 
 ENG1.         Almaz Almadatov:  Engineer 1 
 ENG2.         Dair Mahammadov:  Engineer 2 
 ENG3.          Nazrin Asgarli:  Engineer 3 
 ETIM.      02.30.00 11-Feb-20:  End Time 
 FLOI.gpm              1100.00:  Flow In 
 FLON.gpm               900.00:  Flow In Min 
 FLOS.cptm               55.00:  Fluid Loss 
 FLOX.gpm              1150.00:  Flow In Max 
 FTRO.       Formation Presure:  FTWD Run Obj 
 HFLO.                      No:  High Flow 
 HPRE.                      No:  High Pressure 
 HTEM.                      No:  High Temp 
 HYDO.m                   1.80:  Hydro Offset 
 IFIN.deg                75.11:  Inc, Final 
 IMAX.deg                75.11:  Inc Max 
 IMIN.deg                33.55:  Inc Min 
 IMND.m                2186.05:  Inc Min Depth 
 IMXD.m                3205.61:  Inc Max Depth 
 JARR.                      No:  Jarring 
 LETM.      23.12.00 07-Feb-20:  Log End Time 
 LOST.hr                     0:  Lost Rig Time 
 LSTM.      11.30.00 04-Feb-20:  Log Start Time 
 MDCL.ppm             40000.00:  Mud Chlorides 
 MDES.     Inversion Oil/Synthetic:  Mud Desc 
 DFD .sg                  1.49:  Mud Density 
 MDMN.sg                  1.49:  Dens Mud Min 
 MDMX.sg                  1.49:  Dens Mud Max 
 MOIL.                      73:  Run Mud Oil % 
 MOWR.                   73:27:  Run Mud OWR 
 MSND.                     0.1:  Run Mud Sand % 
 MSOL.                    20.1:  Run Mud Solids% 
 DFV .spqt               78.00:  Mud Viscosity 
 MWOD.in                  8.00:  MWD Tool OD 
 MWSI.                      No:  Serv Intrp, MWD 
 OTIM.hr                177.15:  Time Operating 
 PCON.          Wear / Scratch:  Pad Condition 
 PMAX.psia            10493.93:  Press Op, Max 
 PV  .cP                 73.00:  Mud PV 
 RUN .                     700:  Run Number 
 ROPA.m/hr               15.00:  ROP Avg 
 ROPN.m/hr               10.00:  ROP Min 
 ROPX.m/hr               35.00:  ROP Max 
 RPMA.rpm               130.00:  RPM Surface Avg 
 RPMN.rpm                80.00:  RPM Surface Min 
 RPMX.rpm               150.00:  RPM Surface Max 
 RRUN.                    L402:  Rig Run Number 
 RTIM.hr                 80.50:  Time Reaming 
 SAZI.deg               155.55:  Azm, Start 
 SDEP.m                2036.00:  Start Depth 
 SIDD.                      No:  Serv Intrp, DD 
 SINC.deg                35.44:  Inc, Start 
 SPPA.psig             4270.00:  SPP Avg 
 SPPN.psig             2800.00:  SPP Min 
 SPPX.psig             4850.00:  SPP Max 
 STIM.      09.30.00 03-Feb-20:  Start Time 
 SVCS.                 DD, MWD:  Services 
 SVER.                    9.20:  Sperry Version 
 TDAT.m                1183.00:  Tot Depth Attmp 
 TDDF.                      No:  Trip for DD 
 TDLG.m                1183.00:  Tot Depth Loggd 
 TFF .                      No:  Trip for Fail 
 TQAA.f-kp               16.00:  Torque Abs Avg 
 TQAN.f-kp               10.00:  Torque Abs Min 
 TQAX.f-kp               20.00:  Torque Abs Max 
 TRRT.°/30m               1.00:  Turn Rotating 
 MRT .                  EWR-M5:  Maximum Recorded Temperature 
 TTMX.degC               80.39:  Max Tool Temp 
 VS01.               13098498 :  Virtual Str1 SN 
 VS02.                90569596:  Virtual Str2 SN 
 VS03.                90523599:  Virtual Str3 SN 
 VS04.                90573553:  Virtual Str4 SN 
 VS05.                90598598:  Virtual Str5 SN 
 VS06.                90577297:  Virtual Str6 SN 
 WBMN.klb                13.00:  WOB Min 
 WITN.         Alistair Sprott:  Customer Rep 
 WITN.           Rufat Babayev:  Customer Rep 2 
 WOBA.klb                15.00:  WOB Avg 
 WOBX.klb                20.00:  WOB Max 
 YP  .lhf2               39.00:  Yield Point 
~Curve Information Block
#MNEM.UNIT                 API CODE     Curve Description
#---------               -----------    ---------------------------
 TIME.HHMMSS            00 000 000 000:  GT Time & Date
 GTDEPTH.m              00 000 000 000:  GT Depth
 GTPQH.psia             00 000 000 000:  GT HR Quartz Pressure
 GTTQ.degC              00 000 000 000:  GT Quartz Temperature
 GTTN.NONE              00 000 000 000:  GT Test Number
 GTET.sec               00 000 000 000:  GT Elapsed Test Time
 GTTVD.m                00 000 000 000:  GT True Vertical Depth
#Other Information
#
#WARRANTY: Halliburton will use its best efforts to furnish customers with 
#accurate information and interpretations that are part of, and incident to, the services 
#provided.  However, Halliburton cannot and does not warrant the accuracy 
#or correctness of such information and interpretations.  Under no circumstances should any 
#such information or interpretation be relied upon as the sole basis for any drilling, 
#completion, production, or financial decision or any procedure involving any risk to the 
#safety of any drilling venture, drilling rig or its crew or any other third party.  The 
#Customer has full responsibility for all drilling, completion and production operation.  
#Halliburton makes no representations or warranties, either expressed or 
#implied, including, but not limited to, the implied warranties of merchantability or fitness 
#for a particular purpose, with respect to the services rendered.  In no event will 
#Halliburton be liable for failure to obtain any particular results or for 
#any damages, including, but not limited to, indirect, special or consequential damages, 
#resulting from the use of any information or interpretation provided by Halliburton.
#
~A           TIME           GTDEPTH  GTPQH  GTTQ  GTTN  GTET   GTTVD  
# ...
   12:03:51.000.08-Feb-2020 3069.01 5733.97 66.25 7.00  46.00 2627.56
   12:03:51.200.08-Feb-2020 3069.01 5733.97 66.25 7.00  46.20 2627.56
   12:03:51.400.08-Feb-2020 3069.01 5736.48 66.25 7.00  46.40 2627.56
   12:03:51.600.08-Feb-2020 3069.01 5742.58 66.25 7.00  46.60 2627.56
   12:03:51.800.08-Feb-2020 3069.01 5732.87 66.25 7.00  46.80 2627.56
   12:03:52.000.08-Feb-2020 3069.01 5737.70 66.25 7.00  47.00 2627.56
   12:03:52.200.08-Feb-2020 3069.01 5737.70 66.25 7.00  47.20 2627.56
   12:03:52.400.08-Feb-2020 3069.01 5742.52 66.25 7.00  47.40 2627.56
   12:03:52.600.08-Feb-2020 3069.01 5731.93 66.25 7.00  47.60 2627.56
   12:03:52.800.08-Feb-2020 3069.01 5737.69 66.25 7.00  47.80 2627.56
   12:03:53.000.08-Feb-2020 3069.01 5740.01 66.25 7.00  48.00 2627.56
   12:03:53.200.08-Feb-2020 3069.01 5740.01 66.25 7.00  48.20 2627.56
   12:03:53.400.08-Feb-2020 3069.01 5737.78 66.25 7.00  48.40 2627.56
   12:03:53.600.08-Feb-2020 3069.01 5737.52 66.25 7.00  48.60 2627.56
   12:03:53.800.08-Feb-2020 3069.01 5736.14 66.25 7.00  48.80 2627.56
   12:03:54.000.08-Feb-2020 3069.01 5715.38 66.25 7.00  49.00 2627.56
   12:03:54.200.08-Feb-2020 3069.01 5715.38 66.25 7.00  49.20 2627.56
   12:03:54.400.08-Feb-2020 3069.01 5556.59 66.25 7.00  49.40 2627.56
   12:03:54.600.08-Feb-2020 3069.01 5447.95 66.25 7.00  49.60 2627.56
   12:03:54.800.08-Feb-2020 3069.01 5311.90 66.25 7.00  49.80 2627.56
   12:03:55.000.08-Feb-2020 3069.01 5197.77 66.25 7.00  50.00 2627.56
   12:03:55.200.08-Feb-2020 3069.01 5197.77 66.25 7.00  50.20 2627.56
   12:03:55.400.08-Feb-2020 3069.01 5030.41 66.25 7.00  50.40 2627.56
   12:03:55.600.08-Feb-2020 3069.01 4978.35 66.25 7.00  50.60 2627.56
   12:03:55.800.08-Feb-2020 3069.01 4968.79 66.25 7.00  50.80 2627.56
   12:03:56.000.08-Feb-2020 3069.01 4871.55 66.25 7.00  51.00 2627.56
   12:03:56.200.08-Feb-2020 3069.01 4871.55 66.25 7.00  51.20 2627.56
   12:03:56.400.08-Feb-2020 3069.01 4660.15 66.25 7.00  51.40 2627.56
   12:03:56.600.08-Feb-2020 3069.01 4567.65 66.24 7.00  51.60 2627.56
   12:03:56.800.08-Feb-2020 3069.01 4462.93 66.24 7.00  51.80 2627.56
   12:03:57.000.08-Feb-2020 3069.01 4443.54 66.24 7.00  52.00 2627.56
   12:03:57.200.08-Feb-2020 3069.01 4443.54 66.24 7.00  52.20 2627.56
   12:03:57.400.08-Feb-2020 3069.01 4692.76 66.24 7.00  52.40 2627.56
   12:03:57.600.08-Feb-2020 3069.01 5332.98 66.24 7.00  52.60 2627.56
   12:03:57.800.08-Feb-2020 3069.01 5551.58 66.24 7.00  52.80 2627.56
   12:03:58.000.08-Feb-2020 3069.01 5669.40 66.24 7.00  53.00 2627.56
   12:03:58.200.08-Feb-2020 3069.01 5669.40 66.24 7.00  53.20 2627.56
   12:03:58.400.08-Feb-2020 3069.01 5931.99 66.24 7.00  53.40 2627.56
   12:03:58.600.08-Feb-2020 3069.01 6054.55 66.24 7.00  53.60 2627.56
   12:03:58.800.08-Feb-2020 3069.01 6132.29 66.24 7.00  53.80 2627.56
   12:03:59.000.08-Feb-2020 3069.01 6173.61 66.24 7.00  54.00 2627.56
   12:03:59.200.08-Feb-2020 3069.01 6173.61 66.24 7.00  54.20 2627.56
   12:03:59.400.08-Feb-2020 3069.01 6256.17 66.24 7.00  54.40 2627.56
   12:03:59.600.08-Feb-2020 3069.01 6274.00 66.23 7.00  54.60 2627.56
   12:03:59.800.08-Feb-2020 3069.01 6312.17 66.23 7.00  54.80 2627.56
   12:04:00.000.08-Feb-2020 3069.01 6344.71 66.24 7.00  55.00 2627.56
   12:04:00.200.08-Feb-2020 3069.01 6344.71 66.24 7.00  55.20 2627.56
   12:04:00.400.08-Feb-2020 3069.01 6399.02 66.24 7.00  55.40 2627.56
   12:04:00.600.08-Feb-2020 3069.01 6425.85 66.24 7.00  55.60 2627.56
   12:04:00.800.08-Feb-2020 3069.01 6455.56 66.24 7.00  55.80 2627.56
   12:04:01.000.08-Feb-2020 3069.01 6488.59 66.24 7.00  56.00 2627.56
   12:04:01.200.08-Feb-2020 3069.01 6488.59 66.24 7.00  56.20 2627.56
   12:04:01.400.08-Feb-2020 3069.01 6544.78 66.24 7.00  56.40 2627.56
   12:04:01.600.08-Feb-2020 3069.01 6569.10 66.24 7.00  56.60 2627.56
   12:04:01.800.08-Feb-2020 3069.01 6596.16 66.24 7.00  56.80 2627.56
   12:04:02.000.08-Feb-2020 3069.01 6620.80 66.24 7.00  57.00 2627.56
   12:04:02.200.08-Feb-2020 3069.01 6620.80 66.24 7.00  57.20 2627.56
   12:04:02.400.08-Feb-2020 3069.01 6660.60 66.24 7.00  57.40 2627.56
   12:04:02.600.08-Feb-2020 3069.01 6672.79 66.24 7.00  57.60 2627.56
   12:04:02.800.08-Feb-2020 3069.01 6689.20 66.24 7.00  57.80 2627.56
   12:04:03.000.08-Feb-2020 3069.01 6701.02 66.24 7.00  58.00 2627.56
   12:04:03.200.08-Feb-2020 3069.01 6701.02 66.24 7.00  58.20 2627.56
   12:04:03.400.08-Feb-2020 3069.01 6721.12 66.24 7.00  58.40 2627.56
   12:04:03.600.08-Feb-2020 3069.01 6731.29 66.25 7.00  58.60 2627.56
   12:04:03.800.08-Feb-2020 3069.01 6744.62 66.25 7.00  58.80 2627.56
   12:04:04.000.08-Feb-2020 3069.01 6748.44 66.25 7.00  59.00 2627.56
   12:04:04.200.08-Feb-2020 3069.01 6748.44 66.25 7.00  59.20 2627.56
   12:04:04.400.08-Feb-2020 3069.01 6765.85 66.25 7.00  59.40 2627.56
   12:04:04.600.08-Feb-2020 3069.01 6769.56 66.25 7.00  59.60 2627.56
   12:04:04.800.08-Feb-2020 3069.01 6776.71 66.25 7.00  59.80 2627.56
   12:04:05.000.08-Feb-2020 3069.01 6786.18 66.25 7.00  60.00 2627.56
   12:04:05.200.08-Feb-2020 3069.01 6786.18 66.25 7.00  60.20 2627.56
   12:04:05.400.08-Feb-2020 3069.01 6787.67 66.25 7.00  60.40 2627.56
   12:04:05.600.08-Feb-2020 3069.01 6795.03 66.25 7.00  60.60 2627.56
   12:04:05.800.08-Feb-2020 3069.01 6393.53 66.25 7.00  60.80 2627.56
   12:04:06.000.08-Feb-2020 3069.01 6103.00 66.25 7.00  61.00 2627.56
   12:04:06.200.08-Feb-2020 3069.01 6103.00 66.25 7.00  61.20 2627.56
   12:04:06.400.08-Feb-2020 3069.01 6067.89 66.25 7.00  61.40 2627.56
   12:04:06.600.08-Feb-2020 3069.01 5976.88 66.25 7.00  61.60 2627.56
   12:04:06.800.08-Feb-2020 3069.01 5923.18 66.25 7.00  61.80 2627.56
   12:04:07.000.08-Feb-2020 3069.01 5856.03 66.25 7.00  62.00 2627.56
   12:04:07.200.08-Feb-2020 3069.01 5856.03 66.25 7.00  62.20 2627.56
   12:04:07.400.08-Feb-2020 3069.01 5737.99 66.25 7.00  62.40 2627.56
   12:04:07.600.08-Feb-2020 3069.01 5672.30 66.25 7.00  62.60 2627.56
   12:04:07.800.08-Feb-2020 3069.01 5629.41 66.25 7.00  62.80 2627.56
   12:04:08.000.08-Feb-2020 3069.01 5555.35 66.25 7.00  63.00 2627.56
   12:04:08.200.08-Feb-2020 3069.01 5555.35 66.25 7.00  63.20 2627.56
   12:04:08.400.08-Feb-2020 3069.01 5293.83 66.25 7.00  63.40 2627.56
   12:04:08.600.08-Feb-2020 3069.01 5094.32 66.25 7.00  63.60 2627.56
   12:04:08.800.08-Feb-2020 3069.01 4866.25 66.25 7.00  63.80 2627.56
   12:04:09.000.08-Feb-2020 3069.01 4611.26 66.25 7.00  64.00 2627.56
   12:04:09.200.08-Feb-2020 3069.01 4611.26 66.25 7.00  64.20 2627.56
   12:04:09.400.08-Feb-2020 3069.01 4122.98 66.25 7.00  64.40 2627.56
   12:04:09.600.08-Feb-2020 3069.01 3914.40 66.25 7.00  64.60 2627.56
   12:04:09.800.08-Feb-2020 3069.01 3758.86 66.25 7.00  64.80 2627.56
   12:04:10.000.08-Feb-2020 3069.01 3616.89 66.24 7.00  65.00 2627.56
   12:04:10.200.08-Feb-2020 3069.01 3616.89 66.24 7.00  65.20 2627.56
   12:04:10.400.08-Feb-2020 3069.01 3344.24 66.24 7.00  65.40 2627.56
   12:04:10.600.08-Feb-2020 3069.01 3132.53 66.24 7.00  65.60 2627.56
   12:04:10.800.08-Feb-2020 3069.01 2804.67 66.24 7.00  65.80 2627.56
   12:04:11.000.08-Feb-2020 3069.01 2502.89 66.23 7.00  66.00 2627.56
   12:04:11.200.08-Feb-2020 3069.01 2502.89 66.23 7.00  66.20 2627.56
   12:04:11.400.08-Feb-2020 3069.01 2040.50 66.23 7.00  66.40 2627.56
   12:04:11.600.08-Feb-2020 3069.01 1937.15 66.23 7.00  66.60 2627.56
   12:04:11.800.08-Feb-2020 3069.01 1813.26 66.22 7.00  66.80 2627.56
   12:04:12.000.08-Feb-2020 3069.01 1701.60 66.22 7.00  67.00 2627.56
   12:04:12.200.08-Feb-2020 3069.01 1701.60 66.22 7.00  67.20 2627.56
   12:04:12.400.08-Feb-2020 3069.01 1475.36 66.22 7.00  67.40 2627.56
   12:04:12.600.08-Feb-2020 3069.01 1364.21 66.21 7.00  67.60 2627.56
   12:04:12.800.08-Feb-2020 3069.01 1254.82 66.21 7.00  67.80 2627.56
   12:04:13.000.08-Feb-2020 3069.01 1157.54 66.21 7.00  68.00 2627.56
   12:04:13.200.08-Feb-2020 3069.01 1157.54 66.21 7.00  68.20 2627.56
   12:04:13.400.08-Feb-2020 3069.01  958.27 66.20 7.00  68.40 2627.56
   12:04:13.600.08-Feb-2020 3069.01  877.96 66.19 7.00  68.60 2627.56
   12:04:13.800.08-Feb-2020 3069.01  802.86 66.19 7.00  68.80 2627.56
