~Version Information
 VERS.                  2.0:   CWLS log ASCII Standard -VERSION 2.0
 WRAP.                   NO:   One line per depth step
~Well Information Block
#MNEM.UNIT     VALUE/NAME     DESCRIPTION
#---------     -----------    ---------------------------
 STRT.S             10:04:49 08-Feb-20: START TIME 10:04:49 08-Feb-20
 STOP.S             10:11:45 08-Feb-20: STOP TIME  10:11:45 08-Feb-20
 STEP.S                   0.00: STEP TIME
 NULL.                 -999.25: NULL VALUE
 DFWT.                        :  DIST FWL TEXT
 DFST.                        :  DIST FSL TEXT
 DMF .             Drill Floor:  DRILL MEAS FROM
 STIM.      07.00.00 09-Jan-20:  START TIME
 DATE.      14.04.48 07-Feb-20:  END TIME
 SPUD.               09-Jan-20:  SPUD DATE
 NREF.                    Grid:  NORTH REFERENCE
 HPTY.       Minimum Curvature:  HOLE POS TYPE
 DMOD.             Drill Model:  DRILL MOD DESC
 SVYD.                  Survey:  SURVEY DESC
 ILTD.               Lithology:  INTERP LTH DESC
 FTOP.          Formation Tops:  FORM TOPS DESC
 SON .        AZ-XX-0905059384:  JOB NUMBER
 MDS .        Operator Entered:  MAG DATA SOURCE
 WTYP.                Deviated:  WELL TYPE
 COMP.     BP Exploration (Caspian Sea) Ltd.:  COMPANY
 UWI .                     N/A:  UNIQUE WELL IDENTIFIER
 API .                     N/A:  API NUMBER
 BASE.              Azerbaijan:  LOGGING EQUIPMENT BASE LOCATION
 REGN.                   EESSA:  REGION
 PROV.                    Baku:  PROVINCE
 STAT.                    Baku:  STATE NAME
 CTRY.              Azerbaijan:  COUNTRY NAME
 FLD .                     ACG:  FIELD NAME
 SRVC.     TURAN Drilling & Engineering:  CONTRACTOR
 MWDS.                    Baku:  MWD SHOP
 WELL.                     J22:  WELL NAME
 RIG .             West Chirag:  RIG NAME
 DOE .                     N/A:  DOE NUMBER
 DCON.         Sperry Drilling:  DIRECTNL CONTR
 UNIT.                     N/A:  LOGGING EQUIPMENT ID
 PDAT.          Mean Sea Level:  PERMANENT DATUM
 JOBN.        AZ-XX-0905059384:  JOB TICKET NUMB
 CNTY.                        :  COUNTY
 LOC .                        :  LOCATION
 LMF .             Drill Floor:  LOG MEASURED FROM
 TVDS.m                  43.00:  TVDSS CORRECTN
 LATI.deg                40.13:  LATITUDE
 LONG.deg                51.22:  LONGITUDE
 WHNS.m                  10.28:  WELL HEAD N/S
 WHEW.m                  -6.24:  WELL HEAD E/W
 UTMX.m              519005.06:  UTM X
 UTMY.m             4443793.85:  UTM Y
 DFWL.m                   0.00:  DISTANCE FWL
 DFSL.m                   0.00:  DISTANCE FSL
 SDEP.m                 362.00:  START DEPTH
 TDD .m                 904.00:  TOTAL DEPTH (DRILLER)
 VSDR.deg               148.53:  VERT SEC DIRECT
 GVFD.g                   1.00:  GRAVITY FIELD
 MFLD.nT              50277.00:  MAGNETIC FIELD
 MDIP.deg                59.56:  MAGNETIC DIP
 MDEC.deg                 6.42:  MAGNETIC DECL
 GRDC.deg                 0.15:  GRID CORRECTION
 AZTC.deg                 6.27:  AZM TOTAL CORR
 EPD .m                   0.00:  ELEVATION
 EGL .m                   0.00:  GROUND ELEVATION
 WDMS.m                 169.80:  WD ELEV
 APD .m                  43.00:  DEPTH ABOVE PD
 AGAP.m                  43.00:  AIR GAP
 VSEW.m                  -6.24:  VERT SEC E/W
 VSNS.m                  10.28:  VERT SEC N/S
 DEP .m                   0.00:  DEPTH
 EKB .m                   0.00:  KB ELEVATION
 EDF .m                  43.00:  DF ELEVATION
 TDL .m                1183.00:  TOTAL DEPTH (LOGGER)
 VSC .                       0:  VS TO CLOSURE
 MAGU.                 1850021:  MAGUTM CHECKSUM
~Parameter Information Block
#MNEM.UNIT       Value        Description
#---------     -----------    ---------------------------
 AV  .mps                 4.00:  Ann Velocity 
 AVMX.mps                 4.50:  Max Ann Veloc 
 AZIF.deg               145.38:  Azm, Final 
 BHAT.        Rotary Steerable:  BHA Type 
 BROT.°/30m               3.00:  Build Rotating 
 BS  .in                 12.25:  Bit Size 
 BSZ .in                 12.25:  Bit Size 
 BTPL.psig              650.00:  Bit Press Loss 
 CABU.                      No:  Customer Abuse 
 COMM.                     |¶Q:  Run Comments 1 
 TCS .hr                101.62:  Time Ciculation Ended 
 CV  .mps                 5.00:  Crit Velocity 
 CVMX.mps                 5.00:  Max Crit Veloc 
 DD1 .             Aziz Aliyev:  Direct Drillr 1 
 DD2 .      Fakhraddin Guliyev:  Direct Drillr 2 
 DDSV.                 iCruise:  DD Service 
 DEFF.%                  97.00:  % Det Eff 
 DLRX.°/30m               4.16:  Dogleg Rot Max 
 DLSO.°/30m               3.20:  Dogleg Oriented 
 DLSX.°/30m               4.10:  Dogleg Str Max 
 DRET.      23.12.00 07-Feb-20:  Drill End Time 
 DRST.      11.30.00 04-Feb-20:  Drill Start Tim 
 DTIM.hr                 61.06:  Time Drilling 
 EDEP.m                3219.01:  End Depth 
 ENG1.         Almaz Almadatov:  Engineer 1 
 ENG2.         Dair Mahammadov:  Engineer 2 
 ENG3.          Nazrin Asgarli:  Engineer 3 
 ETIM.      02.30.00 11-Feb-20:  End Time 
 FLOI.gpm              1100.00:  Flow In 
 FLON.gpm               900.00:  Flow In Min 
 FLOS.cptm               55.00:  Fluid Loss 
 FLOX.gpm              1150.00:  Flow In Max 
 FTRO.       Formation Presure:  FTWD Run Obj 
 HFLO.                      No:  High Flow 
 HPRE.                      No:  High Pressure 
 HTEM.                      No:  High Temp 
 HYDO.m                   1.80:  Hydro Offset 
 IFIN.deg                75.11:  Inc, Final 
 IMAX.deg                75.11:  Inc Max 
 IMIN.deg                33.55:  Inc Min 
 IMND.m                2186.05:  Inc Min Depth 
 IMXD.m                3205.61:  Inc Max Depth 
 JARR.                      No:  Jarring 
 LETM.      23.12.00 07-Feb-20:  Log End Time 
 LOST.hr                     0:  Lost Rig Time 
 LSTM.      11.30.00 04-Feb-20:  Log Start Time 
 MDCL.ppm             40000.00:  Mud Chlorides 
 MDES.     Inversion Oil/Synthetic:  Mud Desc 
 DFD .sg                  1.49:  Mud Density 
 MDMN.sg                  1.49:  Dens Mud Min 
 MDMX.sg                  1.49:  Dens Mud Max 
 MOIL.                      73:  Run Mud Oil % 
 MOWR.                   73:27:  Run Mud OWR 
 MSND.                     0.1:  Run Mud Sand % 
 MSOL.                    20.1:  Run Mud Solids% 
 DFV .spqt               78.00:  Mud Viscosity 
 MWOD.in                  8.00:  MWD Tool OD 
 MWSI.                      No:  Serv Intrp, MWD 
 OTIM.hr                177.15:  Time Operating 
 PCON.          Wear / Scratch:  Pad Condition 
 PMAX.psia            10493.93:  Press Op, Max 
 PV  .cP                 73.00:  Mud PV 
 RUN .                     700:  Run Number 
 ROPA.m/hr               15.00:  ROP Avg 
 ROPN.m/hr               10.00:  ROP Min 
 ROPX.m/hr               35.00:  ROP Max 
 RPMA.rpm               130.00:  RPM Surface Avg 
 RPMN.rpm                80.00:  RPM Surface Min 
 RPMX.rpm               150.00:  RPM Surface Max 
 RRUN.                    L402:  Rig Run Number 
 RTIM.hr                 80.50:  Time Reaming 
 SAZI.deg               155.55:  Azm, Start 
 SDEP.m                2036.00:  Start Depth 
 SIDD.                      No:  Serv Intrp, DD 
 SINC.deg                35.44:  Inc, Start 
 SPPA.psig             4270.00:  SPP Avg 
 SPPN.psig             2800.00:  SPP Min 
 SPPX.psig             4850.00:  SPP Max 
 STIM.      09.30.00 03-Feb-20:  Start Time 
 SVCS.                 DD, MWD:  Services 
 SVER.                    9.20:  Sperry Version 
 TDAT.m                1183.00:  Tot Depth Attmp 
 TDDF.                      No:  Trip for DD 
 TDLG.m                1183.00:  Tot Depth Loggd 
 TFF .                      No:  Trip for Fail 
 TQAA.f-kp               16.00:  Torque Abs Avg 
 TQAN.f-kp               10.00:  Torque Abs Min 
 TQAX.f-kp               20.00:  Torque Abs Max 
 TRRT.°/30m               1.00:  Turn Rotating 
 MRT .                  EWR-M5:  Maximum Recorded Temperature 
 TTMX.degC               80.39:  Max Tool Temp 
 VS01.               13098498 :  Virtual Str1 SN 
 VS02.                90569596:  Virtual Str2 SN 
 VS03.                90523599:  Virtual Str3 SN 
 VS04.                90573553:  Virtual Str4 SN 
 VS05.                90598598:  Virtual Str5 SN 
 VS06.                90577297:  Virtual Str6 SN 
 WBMN.klb                13.00:  WOB Min 
 WITN.         Alistair Sprott:  Customer Rep 
 WITN.           Rufat Babayev:  Customer Rep 2 
 WOBA.klb                15.00:  WOB Avg 
 WOBX.klb                20.00:  WOB Max 
 YP  .lhf2               39.00:  Yield Point 
~Curve Information Block
#MNEM.UNIT                 API CODE     Curve Description
#---------               -----------    ---------------------------
 TIME.HHMMSS            00 000 000 000:  GT Time & Date
 GTDEPTH.m              00 000 000 000:  GT Depth
 GTPQH.psia             00 000 000 000:  GT HR Quartz Pressure
 GTTQ.degC              00 000 000 000:  GT Quartz Temperature
 GTTN.NONE              00 000 000 000:  GT Test Number
 GTET.sec               00 000 000 000:  GT Elapsed Test Time
 GTTVD.m                00 000 000 000:  GT True Vertical Depth
#Other Information
#
#WARRANTY: Halliburton will use its best efforts to furnish customers with 
#accurate information and interpretations that are part of, and incident to, the services 
#provided.  However, Halliburton cannot and does not warrant the accuracy 
#or correctness of such information and interpretations.  Under no circumstances should any 
#such information or interpretation be relied upon as the sole basis for any drilling, 
#completion, production, or financial decision or any procedure involving any risk to the 
#safety of any drilling venture, drilling rig or its crew or any other third party.  The 
#Customer has full responsibility for all drilling, completion and production operation.  
#Halliburton makes no representations or warranties, either expressed or 
#implied, including, but not limited to, the implied warranties of merchantability or fitness 
#for a particular purpose, with respect to the services rendered.  In no event will 
#Halliburton be liable for failure to obtain any particular results or for 
#any damages, including, but not limited to, indirect, special or consequential damages, 
#resulting from the use of any information or interpretation provided by Halliburton.
#
~A           TIME           GTDEPTH  GTPQH  GTTQ  GTTN  GTET   GTTVD  
# ...
   10:09:02.259.08-Feb-2020 3159.51 4881.52 68.45 5.00 253.08 2654.38
   10:09:02.459.08-Feb-2020 3159.51 4881.52 68.45 5.00 253.28 2654.38
   10:09:02.659.08-Feb-2020 3159.51 4881.53 68.45 5.00 253.48 2654.38
   10:09:02.859.08-Feb-2020 3159.51 4881.51 68.45 5.00 253.68 2654.38
   10:09:03.059.08-Feb-2020 3159.51 4881.43 68.45 5.00 253.88 2654.38
   10:09:03.259.08-Feb-2020 3159.51 4881.47 68.45 5.00 254.08 2654.38
   10:09:03.459.08-Feb-2020 3159.51 4881.47 68.45 5.00 254.28 2654.38
   10:09:03.659.08-Feb-2020 3159.51 4881.69 68.45 5.00 254.48 2654.38
   10:09:03.859.08-Feb-2020 3159.51 4881.29 68.45 5.00 254.68 2654.38
   10:09:04.059.08-Feb-2020 3159.51 4881.36 68.45 5.00 254.88 2654.38
   10:09:04.259.08-Feb-2020 3159.51 4881.50 68.45 5.00 255.08 2654.38
   10:09:04.459.08-Feb-2020 3159.51 4881.50 68.45 5.00 255.28 2654.38
   10:09:04.659.08-Feb-2020 3159.51 4881.42 68.45 5.00 255.48 2654.38
   10:09:04.860.08-Feb-2020 3159.51 4881.47 68.45 5.00 255.68 2654.38
   10:09:05.060.08-Feb-2020 3159.51 4881.55 68.45 5.00 255.88 2654.38
   10:09:05.260.08-Feb-2020 3159.51 4881.44 68.45 5.00 256.08 2654.38
   10:09:05.460.08-Feb-2020 3159.51 4881.44 68.45 5.00 256.28 2654.38
   10:09:05.660.08-Feb-2020 3159.51 4881.48 68.45 5.00 256.48 2654.38
   10:09:05.860.08-Feb-2020 3159.51 4881.39 68.45 5.00 256.68 2654.38
   10:09:06.060.08-Feb-2020 3159.51 4881.50 68.45 5.00 256.88 2654.38
   10:09:06.260.08-Feb-2020 3159.51 4881.65 68.45 5.00 257.08 2654.38
   10:09:06.460.08-Feb-2020 3159.51 4881.65 68.45 5.00 257.28 2654.38
   10:09:06.660.08-Feb-2020 3159.51 4881.45 68.45 5.00 257.48 2654.38
   10:09:06.860.08-Feb-2020 3159.51 4882.11 68.45 5.00 257.68 2654.38
   10:09:07.060.08-Feb-2020 3159.51 4881.01 68.45 5.00 257.88 2654.38
   10:09:07.260.08-Feb-2020 3159.51 4881.11 68.45 5.00 258.08 2654.38
   10:09:07.460.08-Feb-2020 3159.51 4881.11 68.45 5.00 258.28 2654.38
   10:09:07.660.08-Feb-2020 3159.51 4881.60 68.45 5.00 258.48 2654.38
   10:09:07.860.08-Feb-2020 3159.51 4881.51 68.45 5.00 258.68 2654.38
   10:09:08.061.08-Feb-2020 3159.51 4881.32 68.45 5.00 258.88 2654.38
   10:09:08.261.08-Feb-2020 3159.51 4881.98 68.45 5.00 259.08 2654.38
   10:09:08.461.08-Feb-2020 3159.51 4881.98 68.45 5.00 259.28 2654.38
   10:09:08.661.08-Feb-2020 3159.51 4881.28 68.45 5.00 259.48 2654.38
   10:09:08.861.08-Feb-2020 3159.51 4881.46 68.45 5.00 259.68 2654.38
   10:09:09.061.08-Feb-2020 3159.51 4881.62 68.45 5.00 259.88 2654.38
   10:09:09.261.08-Feb-2020 3159.51 4881.48 68.45 5.00 260.08 2654.38
   10:09:09.461.08-Feb-2020 3159.51 4881.48 68.45 5.00 260.28 2654.38
   10:09:09.661.08-Feb-2020 3159.51 4881.55 68.45 5.00 260.48 2654.38
   10:09:09.861.08-Feb-2020 3159.51 4881.51 68.45 5.00 260.68 2654.38
   10:09:10.061.08-Feb-2020 3159.51 4881.42 68.45 5.00 260.88 2654.38
   10:09:10.261.08-Feb-2020 3159.51 4881.49 68.45 5.00 261.08 2654.38
   10:09:10.461.08-Feb-2020 3159.51 4881.49 68.45 5.00 261.28 2654.38
   10:09:10.661.08-Feb-2020 3159.51 4881.40 68.45 5.00 261.48 2654.38
   10:09:10.861.08-Feb-2020 3159.51 4881.51 68.45 5.00 261.68 2654.38
   10:09:11.061.08-Feb-2020 3159.51 4881.40 68.45 5.00 261.88 2654.38
   10:09:11.262.08-Feb-2020 3159.51 4881.50 68.45 5.00 262.08 2654.38
   10:09:11.462.08-Feb-2020 3159.51 4881.50 68.45 5.00 262.28 2654.38
   10:09:11.662.08-Feb-2020 3159.51 4881.43 68.45 5.00 262.48 2654.38
   10:09:11.862.08-Feb-2020 3159.51 4881.47 68.45 5.00 262.68 2654.38
   10:09:12.062.08-Feb-2020 3159.51 4881.52 68.45 5.00 262.88 2654.38
   10:09:12.262.08-Feb-2020 3159.51 4881.43 68.45 5.00 263.08 2654.38
   10:09:12.462.08-Feb-2020 3159.51 4881.43 68.45 5.00 263.28 2654.38
   10:09:12.662.08-Feb-2020 3159.51 4882.20 68.45 5.00 263.48 2654.38
   10:09:12.862.08-Feb-2020 3159.51 4880.90 68.45 5.00 263.68 2654.38
   10:09:13.062.08-Feb-2020 3159.51 4881.20 68.45 5.00 263.88 2654.38
   10:09:13.262.08-Feb-2020 3159.51 4882.15 68.45 5.00 264.08 2654.38
   10:09:13.462.08-Feb-2020 3159.51 4882.15 68.45 5.00 264.28 2654.38
   10:09:13.662.08-Feb-2020 3159.51 4881.06 68.45 5.00 264.48 2654.38
   10:09:13.862.08-Feb-2020 3159.51 4881.51 68.45 5.00 264.68 2654.38
   10:09:14.062.08-Feb-2020 3159.51 4881.55 68.45 5.00 264.88 2654.38
   10:09:14.262.08-Feb-2020 3159.51 4881.31 68.45 5.00 265.08 2654.38
   10:09:14.463.08-Feb-2020 3159.51 4881.31 68.45 5.00 265.28 2654.38
   10:09:14.663.08-Feb-2020 3159.51 4880.96 68.45 5.00 265.48 2654.38
   10:09:14.863.08-Feb-2020 3159.51 4881.09 68.45 5.00 265.68 2654.38
   10:09:15.063.08-Feb-2020 3159.51 4881.44 68.45 5.00 265.88 2654.38
   10:09:15.263.08-Feb-2020 3159.51 4882.14 68.45 5.00 266.08 2654.38
   10:09:15.463.08-Feb-2020 3159.51 4882.14 68.45 5.00 266.28 2654.38
   10:09:15.663.08-Feb-2020 3159.51 4881.31 68.45 5.00 266.48 2654.38
   10:09:15.863.08-Feb-2020 3159.51 4881.57 68.45 5.00 266.68 2654.38
   10:09:16.063.08-Feb-2020 3159.51 4881.52 68.44 5.00 266.88 2654.38
   10:09:16.263.08-Feb-2020 3159.51 4881.46 68.44 5.00 267.08 2654.38
   10:09:16.463.08-Feb-2020 3159.51 4881.46 68.44 5.00 267.28 2654.38
   10:09:16.663.08-Feb-2020 3159.51 4881.50 68.44 5.00 267.48 2654.38
   10:09:16.863.08-Feb-2020 3159.51 4881.46 68.44 5.00 267.68 2654.38
   10:09:17.063.08-Feb-2020 3159.51 4881.43 68.44 5.00 267.88 2654.38
   10:09:17.263.08-Feb-2020 3159.51 4881.51 68.44 5.00 268.08 2654.38
   10:09:17.463.08-Feb-2020 3159.51 4881.51 68.44 5.00 268.28 2654.38
   10:09:17.664.08-Feb-2020 3159.51 4880.89 68.44 5.00 268.48 2654.38
   10:09:17.864.08-Feb-2020 3159.51 4881.20 68.44 5.00 268.68 2654.38
   10:09:18.064.08-Feb-2020 3159.51 4881.49 68.44 5.00 268.88 2654.38
   10:09:18.264.08-Feb-2020 3159.51 4881.63 68.44 5.00 269.08 2654.38
   10:09:18.464.08-Feb-2020 3159.51 4881.63 68.44 5.00 269.28 2654.38
   10:09:18.664.08-Feb-2020 3159.51 4881.48 68.44 5.00 269.48 2654.38
   10:09:18.864.08-Feb-2020 3159.51 4881.54 68.44 5.00 269.68 2654.38
   10:09:19.064.08-Feb-2020 3159.51 4881.49 68.44 5.00 269.88 2654.38
   10:09:19.264.08-Feb-2020 3159.51 4881.43 68.44 5.00 270.08 2654.38
   10:09:19.464.08-Feb-2020 3159.51 4881.43 68.44 5.00 270.28 2654.38
   10:09:19.664.08-Feb-2020 3159.51 4881.63 68.44 5.00 270.48 2654.38
   10:09:19.864.08-Feb-2020 3159.51 4881.33 68.44 5.00 270.68 2654.38
   10:09:20.064.08-Feb-2020 3159.51 4881.40 68.44 5.00 270.88 2654.38
   10:09:20.264.08-Feb-2020 3159.51 4881.46 68.44 5.00 271.08 2654.38
   10:09:20.464.08-Feb-2020 3159.51 4881.46 68.44 5.00 271.28 2654.38
   10:09:20.664.08-Feb-2020 3159.51 4881.52 68.44 5.00 271.48 2654.38
   10:09:20.865.08-Feb-2020 3159.51 4881.25 68.44 5.00 271.68 2654.38
   10:09:21.065.08-Feb-2020 3159.51 4881.38 68.44 5.00 271.88 2654.38
   10:09:21.265.08-Feb-2020 3159.51 4881.37 68.44 5.00 272.08 2654.38
   10:09:21.465.08-Feb-2020 3159.51 4881.37 68.44 5.00 272.28 2654.38
   10:09:21.665.08-Feb-2020 3159.51 4881.40 68.44 5.00 272.48 2654.38
   10:09:21.865.08-Feb-2020 3159.51 4881.28 68.44 5.00 272.68 2654.38
   10:09:22.065.08-Feb-2020 3159.51 4881.35 68.44 5.00 272.88 2654.38
   10:09:22.265.08-Feb-2020 3159.51 4881.64 68.44 5.00 273.08 2654.38
   10:09:22.465.08-Feb-2020 3159.51 4881.64 68.44 5.00 273.28 2654.38
   10:09:22.665.08-Feb-2020 3159.51 4881.40 68.44 5.00 273.48 2654.38
   10:09:22.865.08-Feb-2020 3159.51 4881.51 68.44 5.00 273.69 2654.38
   10:09:23.065.08-Feb-2020 3159.51 4881.53 68.44 5.00 273.89 2654.38
   10:09:23.265.08-Feb-2020 3159.51 4881.48 68.44 5.00 274.09 2654.38
   10:09:23.465.08-Feb-2020 3159.51 4881.48 68.44 5.00 274.29 2654.38
   10:09:23.665.08-Feb-2020 3159.51 4881.53 68.44 5.00 274.49 2654.38
   10:09:23.865.08-Feb-2020 3159.51 4881.45 68.44 5.00 274.69 2654.38
   10:09:24.066.08-Feb-2020 3159.51 4881.48 68.44 5.00 274.89 2654.38
   10:09:24.266.08-Feb-2020 3159.51 4881.52 68.44 5.00 275.09 2654.38
   10:09:24.466.08-Feb-2020 3159.51 4881.52 68.44 5.00 275.29 2654.38
   10:09:24.666.08-Feb-2020 3159.51 4799.56 68.44 5.00 275.49 2654.38
   10:09:24.866.08-Feb-2020 3159.51 4798.32 68.44 5.00 275.69 2654.38
   10:09:25.066.08-Feb-2020 3159.51 4797.60 68.44 5.00 275.89 2654.38
