~Version Information
 VERS.                  2.0:   CWLS log ASCII Standard -VERSION 2.0
 WRAP.                   NO:   One line per depth step
~Well Information Block
#MNEM.UNIT     VALUE/NAME     DESCRIPTION
#---------     -----------    ---------------------------
 STRT.S             08:19:39 08-Feb-20: START TIME 08:19:39 08-Feb-20
 STOP.S             08:26:25 08-Feb-20: STOP TIME  08:26:25 08-Feb-20
 STEP.S                   0.00: STEP TIME
 NULL.                 -999.25: NULL VALUE
 DFWT.                        :  DIST FWL TEXT
 DFST.                        :  DIST FSL TEXT
 DMF .             Drill Floor:  DRILL MEAS FROM
 STIM.      07.00.00 09-Jan-20:  START TIME
 DATE.      14.04.48 07-Feb-20:  END TIME
 SPUD.               09-Jan-20:  SPUD DATE
 NREF.                    Grid:  NORTH REFERENCE
 HPTY.       Minimum Curvature:  HOLE POS TYPE
 DMOD.             Drill Model:  DRILL MOD DESC
 SVYD.                  Survey:  SURVEY DESC
 ILTD.               Lithology:  INTERP LTH DESC
 FTOP.          Formation Tops:  FORM TOPS DESC
 SON .        AZ-XX-0905059384:  JOB NUMBER
 MDS .        Operator Entered:  MAG DATA SOURCE
 WTYP.                Deviated:  WELL TYPE
 COMP.     BP Exploration (Caspian Sea) Ltd.:  COMPANY
 UWI .                     N/A:  UNIQUE WELL IDENTIFIER
 API .                     N/A:  API NUMBER
 BASE.              Azerbaijan:  LOGGING EQUIPMENT BASE LOCATION
 REGN.                   EESSA:  REGION
 PROV.                    Baku:  PROVINCE
 STAT.                    Baku:  STATE NAME
 CTRY.              Azerbaijan:  COUNTRY NAME
 FLD .                     ACG:  FIELD NAME
 SRVC.     TURAN Drilling & Engineering:  CONTRACTOR
 MWDS.                    Baku:  MWD SHOP
 WELL.                     J22:  WELL NAME
 RIG .             West Chirag:  RIG NAME
 DOE .                     N/A:  DOE NUMBER
 DCON.         Sperry Drilling:  DIRECTNL CONTR
 UNIT.                     N/A:  LOGGING EQUIPMENT ID
 PDAT.          Mean Sea Level:  PERMANENT DATUM
 JOBN.        AZ-XX-0905059384:  JOB TICKET NUMB
 CNTY.                        :  COUNTY
 LOC .                        :  LOCATION
 LMF .             Drill Floor:  LOG MEASURED FROM
 TVDS.m                  43.00:  TVDSS CORRECTN
 LATI.deg                40.13:  LATITUDE
 LONG.deg                51.22:  LONGITUDE
 WHNS.m                  10.28:  WELL HEAD N/S
 WHEW.m                  -6.24:  WELL HEAD E/W
 UTMX.m              519005.06:  UTM X
 UTMY.m             4443793.85:  UTM Y
 DFWL.m                   0.00:  DISTANCE FWL
 DFSL.m                   0.00:  DISTANCE FSL
 SDEP.m                 362.00:  START DEPTH
 TDD .m                 904.00:  TOTAL DEPTH (DRILLER)
 VSDR.deg               148.53:  VERT SEC DIRECT
 GVFD.g                   1.00:  GRAVITY FIELD
 MFLD.nT              50277.00:  MAGNETIC FIELD
 MDIP.deg                59.56:  MAGNETIC DIP
 MDEC.deg                 6.42:  MAGNETIC DECL
 GRDC.deg                 0.15:  GRID CORRECTION
 AZTC.deg                 6.27:  AZM TOTAL CORR
 EPD .m                   0.00:  ELEVATION
 EGL .m                   0.00:  GROUND ELEVATION
 WDMS.m                 169.80:  WD ELEV
 APD .m                  43.00:  DEPTH ABOVE PD
 AGAP.m                  43.00:  AIR GAP
 VSEW.m                  -6.24:  VERT SEC E/W
 VSNS.m                  10.28:  VERT SEC N/S
 DEP .m                   0.00:  DEPTH
 EKB .m                   0.00:  KB ELEVATION
 EDF .m                  43.00:  DF ELEVATION
 TDL .m                1183.00:  TOTAL DEPTH (LOGGER)
 VSC .                       0:  VS TO CLOSURE
 MAGU.                 1850021:  MAGUTM CHECKSUM
~Parameter Information Block
#MNEM.UNIT       Value        Description
#---------     -----------    ---------------------------
 AV  .mps                 4.00:  Ann Velocity 
 AVMX.mps                 4.50:  Max Ann Veloc 
 AZIF.deg               145.38:  Azm, Final 
 BHAT.        Rotary Steerable:  BHA Type 
 BROT.°/30m               3.00:  Build Rotating 
 BS  .in                 12.25:  Bit Size 
 BSZ .in                 12.25:  Bit Size 
 BTPL.psig              650.00:  Bit Press Loss 
 CABU.                      No:  Customer Abuse 
 COMM.                     ä7n:  Run Comments 1 
 TCS .hr                101.62:  Time Ciculation Ended 
 CV  .mps                 5.00:  Crit Velocity 
 CVMX.mps                 5.00:  Max Crit Veloc 
 DD1 .             Aziz Aliyev:  Direct Drillr 1 
 DD2 .      Fakhraddin Guliyev:  Direct Drillr 2 
 DDSV.                 iCruise:  DD Service 
 DEFF.%                  97.00:  % Det Eff 
 DLRX.°/30m               4.16:  Dogleg Rot Max 
 DLSO.°/30m               3.20:  Dogleg Oriented 
 DLSX.°/30m               4.10:  Dogleg Str Max 
 DRET.      23.12.00 07-Feb-20:  Drill End Time 
 DRST.      11.30.00 04-Feb-20:  Drill Start Tim 
 DTIM.hr                 61.06:  Time Drilling 
 EDEP.m                3219.01:  End Depth 
 ENG1.         Almaz Almadatov:  Engineer 1 
 ENG2.         Dair Mahammadov:  Engineer 2 
 ENG3.          Nazrin Asgarli:  Engineer 3 
 ETIM.      02.30.00 11-Feb-20:  End Time 
 FLOI.gpm              1100.00:  Flow In 
 FLON.gpm               900.00:  Flow In Min 
 FLOS.cptm               55.00:  Fluid Loss 
 FLOX.gpm              1150.00:  Flow In Max 
 FTRO.       Formation Presure:  FTWD Run Obj 
 HFLO.                      No:  High Flow 
 HPRE.                      No:  High Pressure 
 HTEM.                      No:  High Temp 
 HYDO.m                   1.80:  Hydro Offset 
 IFIN.deg                75.11:  Inc, Final 
 IMAX.deg                75.11:  Inc Max 
 IMIN.deg                33.55:  Inc Min 
 IMND.m                2186.05:  Inc Min Depth 
 IMXD.m                3205.61:  Inc Max Depth 
 JARR.                      No:  Jarring 
 LETM.      23.12.00 07-Feb-20:  Log End Time 
 LOST.hr                     0:  Lost Rig Time 
 LSTM.      11.30.00 04-Feb-20:  Log Start Time 
 MDCL.ppm             40000.00:  Mud Chlorides 
 MDES.     Inversion Oil/Synthetic:  Mud Desc 
 DFD .sg                  1.49:  Mud Density 
 MDMN.sg                  1.49:  Dens Mud Min 
 MDMX.sg                  1.49:  Dens Mud Max 
 MOIL.                      73:  Run Mud Oil % 
 MOWR.                   73:27:  Run Mud OWR 
 MSND.                     0.1:  Run Mud Sand % 
 MSOL.                    20.1:  Run Mud Solids% 
 DFV .spqt               78.00:  Mud Viscosity 
 MWOD.in                  8.00:  MWD Tool OD 
 MWSI.                      No:  Serv Intrp, MWD 
 OTIM.hr                177.15:  Time Operating 
 PCON.          Wear / Scratch:  Pad Condition 
 PMAX.psia            10493.93:  Press Op, Max 
 PV  .cP                 73.00:  Mud PV 
 RUN .                     700:  Run Number 
 ROPA.m/hr               15.00:  ROP Avg 
 ROPN.m/hr               10.00:  ROP Min 
 ROPX.m/hr               35.00:  ROP Max 
 RPMA.rpm               130.00:  RPM Surface Avg 
 RPMN.rpm                80.00:  RPM Surface Min 
 RPMX.rpm               150.00:  RPM Surface Max 
 RRUN.                    L402:  Rig Run Number 
 RTIM.hr                 80.50:  Time Reaming 
 SAZI.deg               155.55:  Azm, Start 
 SDEP.m                2036.00:  Start Depth 
 SIDD.                      No:  Serv Intrp, DD 
 SINC.deg                35.44:  Inc, Start 
 SPPA.psig             4270.00:  SPP Avg 
 SPPN.psig             2800.00:  SPP Min 
 SPPX.psig             4850.00:  SPP Max 
 STIM.      09.30.00 03-Feb-20:  Start Time 
 SVCS.                 DD, MWD:  Services 
 SVER.                    9.20:  Sperry Version 
 TDAT.m                1183.00:  Tot Depth Attmp 
 TDDF.                      No:  Trip for DD 
 TDLG.m                1183.00:  Tot Depth Loggd 
 TFF .                      No:  Trip for Fail 
 TQAA.f-kp               16.00:  Torque Abs Avg 
 TQAN.f-kp               10.00:  Torque Abs Min 
 TQAX.f-kp               20.00:  Torque Abs Max 
 TRRT.°/30m               1.00:  Turn Rotating 
 MRT .                  EWR-M5:  Maximum Recorded Temperature 
 TTMX.degC               80.39:  Max Tool Temp 
 VS01.               13098498 :  Virtual Str1 SN 
 VS02.                90569596:  Virtual Str2 SN 
 VS03.                90523599:  Virtual Str3 SN 
 VS04.                90573553:  Virtual Str4 SN 
 VS05.                90598598:  Virtual Str5 SN 
 VS06.                90577297:  Virtual Str6 SN 
 WBMN.klb                13.00:  WOB Min 
 WITN.         Alistair Sprott:  Customer Rep 
 WITN.           Rufat Babayev:  Customer Rep 2 
 WOBA.klb                15.00:  WOB Avg 
 WOBX.klb                20.00:  WOB Max 
 YP  .lhf2               39.00:  Yield Point 
~Curve Information Block
#MNEM.UNIT                 API CODE     Curve Description
#---------               -----------    ---------------------------
 TIME.HHMMSS            00 000 000 000:  GT Time & Date
 GTDEPTH.m              00 000 000 000:  GT Depth
 GTPQH.psia             00 000 000 000:  GT HR Quartz Pressure
 GTTQ.degC              00 000 000 000:  GT Quartz Temperature
 GTTN.NONE              00 000 000 000:  GT Test Number
 GTET.sec               00 000 000 000:  GT Elapsed Test Time
 GTTVD.m                00 000 000 000:  GT True Vertical Depth
#Other Information
#
#WARRANTY: Halliburton will use its best efforts to furnish customers with 
#accurate information and interpretations that are part of, and incident to, the services 
#provided.  However, Halliburton cannot and does not warrant the accuracy 
#or correctness of such information and interpretations.  Under no circumstances should any 
#such information or interpretation be relied upon as the sole basis for any drilling, 
#completion, production, or financial decision or any procedure involving any risk to the 
#safety of any drilling venture, drilling rig or its crew or any other third party.  The 
#Customer has full responsibility for all drilling, completion and production operation.  
#Halliburton makes no representations or warranties, either expressed or 
#implied, including, but not limited to, the implied warranties of merchantability or fitness 
#for a particular purpose, with respect to the services rendered.  In no event will 
#Halliburton be liable for failure to obtain any particular results or for 
#any damages, including, but not limited to, indirect, special or consequential damages, 
#resulting from the use of any information or interpretation provided by Halliburton.
#
~A           TIME           GTDEPTH  GTPQH  GTTQ  GTTN  GTET   GTTVD  
# ...
   08:23:06.537.08-Feb-2020 3134.51 4673.57 73.81 1.00 207.02 2647.81
   08:23:06.737.08-Feb-2020 3134.51 4673.57 73.81 1.00 207.22 2647.81
   08:23:06.937.08-Feb-2020 3134.51 4674.14 73.81 1.00 207.42 2647.81
   08:23:07.137.08-Feb-2020 3134.51 4674.50 73.81 1.00 207.62 2647.81
   08:23:07.337.08-Feb-2020 3134.51 4674.63 73.81 1.00 207.82 2647.81
   08:23:07.537.08-Feb-2020 3134.51 4674.87 73.81 1.00 208.02 2647.81
   08:23:07.737.08-Feb-2020 3134.51 4674.87 73.81 1.00 208.22 2647.81
   08:23:07.937.08-Feb-2020 3134.51 4675.47 73.81 1.00 208.42 2647.81
   08:23:08.137.08-Feb-2020 3134.51 4676.22 73.81 1.00 208.62 2647.81
   08:23:08.337.08-Feb-2020 3134.51 4676.51 73.81 1.00 208.82 2647.81
   08:23:08.537.08-Feb-2020 3134.51 4676.88 73.81 1.00 209.02 2647.81
   08:23:08.737.08-Feb-2020 3134.51 4676.88 73.81 1.00 209.22 2647.81
   08:23:08.937.08-Feb-2020 3134.51 4678.04 73.81 1.00 209.42 2647.81
   08:23:09.137.08-Feb-2020 3134.51 4678.52 73.81 1.00 209.62 2647.81
   08:23:09.337.08-Feb-2020 3134.51 4679.36 73.81 1.00 209.82 2647.81
   08:23:09.537.08-Feb-2020 3134.51 4679.32 73.81 1.00 210.02 2647.81
   08:23:09.737.08-Feb-2020 3134.51 4679.32 73.81 1.00 210.22 2647.81
   08:23:09.937.08-Feb-2020 3134.51 4680.55 73.81 1.00 210.42 2647.81
   08:23:10.137.08-Feb-2020 3134.51 4680.65 73.80 1.00 210.62 2647.81
   08:23:10.337.08-Feb-2020 3134.51 4680.95 73.80 1.00 210.82 2647.81
   08:23:10.537.08-Feb-2020 3134.51 4681.40 73.80 1.00 211.02 2647.81
   08:23:10.737.08-Feb-2020 3134.51 4681.40 73.80 1.00 211.22 2647.81
   08:23:10.937.08-Feb-2020 3134.51 4681.72 73.80 1.00 211.42 2647.81
   08:23:11.137.08-Feb-2020 3134.51 4682.16 73.80 1.00 211.62 2647.81
   08:23:11.337.08-Feb-2020 3134.51 4682.34 73.80 1.00 211.82 2647.81
   08:23:11.537.08-Feb-2020 3134.51 4682.59 73.80 1.00 212.02 2647.81
   08:23:11.737.08-Feb-2020 3134.51 4682.59 73.80 1.00 212.22 2647.81
   08:23:11.937.08-Feb-2020 3134.51 4683.35 73.80 1.00 212.42 2647.81
   08:23:12.137.08-Feb-2020 3134.51 4683.73 73.80 1.00 212.62 2647.81
   08:23:12.337.08-Feb-2020 3134.51 4684.23 73.80 1.00 212.82 2647.81
   08:23:12.537.08-Feb-2020 3134.51 4684.46 73.80 1.00 213.02 2647.81
   08:23:12.737.08-Feb-2020 3134.51 4684.46 73.80 1.00 213.22 2647.81
   08:23:12.937.08-Feb-2020 3134.51 4685.71 73.80 1.00 213.42 2647.81
   08:23:13.138.08-Feb-2020 3134.51 4685.56 73.80 1.00 213.62 2647.81
   08:23:13.338.08-Feb-2020 3134.51 4685.90 73.80 1.00 213.82 2647.81
   08:23:13.538.08-Feb-2020 3134.51 4686.40 73.80 1.00 214.02 2647.81
   08:23:13.738.08-Feb-2020 3134.51 4686.40 73.80 1.00 214.22 2647.81
   08:23:13.938.08-Feb-2020 3134.51 4686.48 73.79 1.00 214.42 2647.81
   08:23:14.138.08-Feb-2020 3134.51 4687.19 73.79 1.00 214.62 2647.81
   08:23:14.338.08-Feb-2020 3134.51 4687.34 73.79 1.00 214.82 2647.81
   08:23:14.538.08-Feb-2020 3134.51 4687.56 73.79 1.00 215.02 2647.81
   08:23:14.738.08-Feb-2020 3134.51 4687.56 73.79 1.00 215.22 2647.81
   08:23:14.938.08-Feb-2020 3134.51 4688.65 73.79 1.00 215.42 2647.81
   08:23:15.138.08-Feb-2020 3134.51 4688.65 73.79 1.00 215.62 2647.81
   08:23:15.338.08-Feb-2020 3134.51 4688.96 73.79 1.00 215.82 2647.81
   08:23:15.538.08-Feb-2020 3134.51 4689.38 73.79 1.00 216.02 2647.81
   08:23:15.738.08-Feb-2020 3134.51 4689.38 73.79 1.00 216.22 2647.81
   08:23:15.938.08-Feb-2020 3134.51 4689.79 73.79 1.00 216.42 2647.81
   08:23:16.138.08-Feb-2020 3134.51 4689.68 73.79 1.00 216.62 2647.81
   08:23:16.338.08-Feb-2020 3134.51 4690.14 73.79 1.00 216.82 2647.81
   08:23:16.538.08-Feb-2020 3134.51 4690.04 73.79 1.00 217.02 2647.81
   08:23:16.738.08-Feb-2020 3134.51 4690.04 73.79 1.00 217.22 2647.81
   08:23:16.938.08-Feb-2020 3134.51 4690.63 73.79 1.00 217.42 2647.81
   08:23:17.138.08-Feb-2020 3134.51 4690.98 73.79 1.00 217.62 2647.81
   08:23:17.338.08-Feb-2020 3134.51 4690.95 73.79 1.00 217.82 2647.81
   08:23:17.538.08-Feb-2020 3134.51 4691.65 73.78 1.00 218.02 2647.81
   08:23:17.738.08-Feb-2020 3134.51 4691.65 73.78 1.00 218.22 2647.81
   08:23:17.938.08-Feb-2020 3134.51 4692.31 73.78 1.00 218.42 2647.81
   08:23:18.138.08-Feb-2020 3134.51 4692.99 73.78 1.00 218.62 2647.81
   08:23:18.338.08-Feb-2020 3134.51 4693.29 73.78 1.00 218.82 2647.81
   08:23:18.538.08-Feb-2020 3134.51 4693.78 73.78 1.00 219.02 2647.81
   08:23:18.738.08-Feb-2020 3134.51 4693.78 73.78 1.00 219.22 2647.81
   08:23:18.938.08-Feb-2020 3134.51 4694.07 73.78 1.00 219.42 2647.81
   08:23:19.138.08-Feb-2020 3134.51 4694.39 73.78 1.00 219.62 2647.81
   08:23:19.338.08-Feb-2020 3134.51 4694.51 73.78 1.00 219.82 2647.81
   08:23:19.538.08-Feb-2020 3134.51 4694.67 73.78 1.00 220.02 2647.81
   08:23:19.738.08-Feb-2020 3134.51 4694.67 73.78 1.00 220.22 2647.81
   08:23:19.938.08-Feb-2020 3134.51 4694.87 73.78 1.00 220.42 2647.81
   08:23:20.138.08-Feb-2020 3134.51 4695.24 73.78 1.00 220.62 2647.81
   08:23:20.338.08-Feb-2020 3134.51 4696.04 73.78 1.00 220.82 2647.81
   08:23:20.538.08-Feb-2020 3134.51 4695.92 73.78 1.00 221.02 2647.81
   08:23:20.738.08-Feb-2020 3134.51 4695.92 73.78 1.00 221.22 2647.81
   08:23:20.938.08-Feb-2020 3134.51 4696.63 73.78 1.00 221.42 2647.81
   08:23:21.138.08-Feb-2020 3134.51 4696.70 73.78 1.00 221.62 2647.81
   08:23:21.338.08-Feb-2020 3134.51 4696.77 73.77 1.00 221.82 2647.81
   08:23:21.538.08-Feb-2020 3134.51 4697.21 73.77 1.00 222.02 2647.81
   08:23:21.738.08-Feb-2020 3134.51 4697.21 73.77 1.00 222.22 2647.81
   08:23:21.938.08-Feb-2020 3134.51 4697.41 73.77 1.00 222.42 2647.81
   08:23:22.138.08-Feb-2020 3134.51 4697.69 73.77 1.00 222.62 2647.81
   08:23:22.338.08-Feb-2020 3134.51 4698.31 73.77 1.00 222.82 2647.81
   08:23:22.538.08-Feb-2020 3134.51 4698.19 73.77 1.00 223.02 2647.81
   08:23:22.738.08-Feb-2020 3134.51 4698.19 73.77 1.00 223.22 2647.81
   08:23:22.938.08-Feb-2020 3134.51 4698.91 73.77 1.00 223.42 2647.81
   08:23:23.138.08-Feb-2020 3134.51 4698.72 73.77 1.00 223.62 2647.81
   08:23:23.338.08-Feb-2020 3134.51 4698.78 73.77 1.00 223.82 2647.81
   08:23:23.538.08-Feb-2020 3134.51 4698.64 73.77 1.00 224.02 2647.81
   08:23:23.738.08-Feb-2020 3134.51 4698.64 73.77 1.00 224.22 2647.81
   08:23:23.938.08-Feb-2020 3134.51 4699.34 73.77 1.00 224.42 2647.81
   08:23:24.138.08-Feb-2020 3134.51 4699.53 73.77 1.00 224.62 2647.81
   08:23:24.338.08-Feb-2020 3134.51 4700.00 73.77 1.00 224.82 2647.81
   08:23:24.538.08-Feb-2020 3134.51 4699.93 73.77 1.00 225.02 2647.81
   08:23:24.738.08-Feb-2020 3134.51 4699.93 73.77 1.00 225.22 2647.81
   08:23:24.938.08-Feb-2020 3134.51 4700.56 73.77 1.00 225.42 2647.81
   08:23:25.139.08-Feb-2020 3134.51 4700.50 73.76 1.00 225.62 2647.81
   08:23:25.339.08-Feb-2020 3134.51 4700.90 73.76 1.00 225.82 2647.81
   08:23:25.539.08-Feb-2020 3134.51 4700.99 73.76 1.00 226.02 2647.81
   08:23:25.739.08-Feb-2020 3134.51 4700.99 73.76 1.00 226.22 2647.81
   08:23:25.939.08-Feb-2020 3134.51 4701.50 73.76 1.00 226.42 2647.81
   08:23:26.139.08-Feb-2020 3134.51 4701.55 73.76 1.00 226.62 2647.81
   08:23:26.339.08-Feb-2020 3134.51 4701.79 73.76 1.00 226.82 2647.81
   08:23:26.539.08-Feb-2020 3134.51 4701.97 73.76 1.00 227.02 2647.81
   08:23:26.739.08-Feb-2020 3134.51 4701.97 73.76 1.00 227.22 2647.81
   08:23:26.939.08-Feb-2020 3134.51 4701.87 73.76 1.00 227.42 2647.81
   08:23:27.139.08-Feb-2020 3134.51 4702.58 73.76 1.00 227.62 2647.81
   08:23:27.339.08-Feb-2020 3134.51 4702.41 73.76 1.00 227.82 2647.81
   08:23:27.539.08-Feb-2020 3134.51 4702.71 73.76 1.00 228.02 2647.81
   08:23:27.739.08-Feb-2020 3134.51 4702.71 73.76 1.00 228.22 2647.81
   08:23:27.939.08-Feb-2020 3134.51 4703.02 73.76 1.00 228.42 2647.81
   08:23:28.139.08-Feb-2020 3134.51 4703.14 73.76 1.00 228.62 2647.81
   08:23:28.339.08-Feb-2020 3134.51 4703.55 73.76 1.00 228.82 2647.81
   08:23:28.539.08-Feb-2020 3134.51 4703.46 73.76 1.00 229.02 2647.81
   08:23:28.739.08-Feb-2020 3134.51 4703.46 73.76 1.00 229.22 2647.81
   08:23:28.939.08-Feb-2020 3134.51 4703.83 73.75 1.00 229.42 2647.81
   08:23:29.139.08-Feb-2020 3134.51 4703.89 73.75 1.00 229.62 2647.81
   08:23:29.339.08-Feb-2020 3134.51 4704.25 73.75 1.00 229.82 2647.81
