~Version Information
 VERS.                  2.0:   CWLS log ASCII Standard -VERSION 2.0
 WRAP.                   NO:   One line per depth step
~Well Information Block
#MNEM.UNIT     VALUE/NAME     DESCRIPTION
#---------     -----------    ---------------------------
 STRT.S             09:27:25 08-Feb-20: START TIME 09:27:25 08-Feb-20
 STOP.S             09:34:14 08-Feb-20: STOP TIME  09:34:14 08-Feb-20
 STEP.S                   0.00: STEP TIME
 NULL.                 -999.25: NULL VALUE
 DFWT.                        :  DIST FWL TEXT
 DFST.                        :  DIST FSL TEXT
 DMF .             Drill Floor:  DRILL MEAS FROM
 STIM.      07.00.00 09-Jan-20:  START TIME
 DATE.      14.04.48 07-Feb-20:  END TIME
 SPUD.               09-Jan-20:  SPUD DATE
 NREF.                    Grid:  NORTH REFERENCE
 HPTY.       Minimum Curvature:  HOLE POS TYPE
 DMOD.             Drill Model:  DRILL MOD DESC
 SVYD.                  Survey:  SURVEY DESC
 ILTD.               Lithology:  INTERP LTH DESC
 FTOP.          Formation Tops:  FORM TOPS DESC
 SON .        AZ-XX-0905059384:  JOB NUMBER
 MDS .        Operator Entered:  MAG DATA SOURCE
 WTYP.                Deviated:  WELL TYPE
 COMP.     BP Exploration (Caspian Sea) Ltd.:  COMPANY
 UWI .                     N/A:  UNIQUE WELL IDENTIFIER
 API .                     N/A:  API NUMBER
 BASE.              Azerbaijan:  LOGGING EQUIPMENT BASE LOCATION
 REGN.                   EESSA:  REGION
 PROV.                    Baku:  PROVINCE
 STAT.                    Baku:  STATE NAME
 CTRY.              Azerbaijan:  COUNTRY NAME
 FLD .                     ACG:  FIELD NAME
 SRVC.     TURAN Drilling & Engineering:  CONTRACTOR
 MWDS.                    Baku:  MWD SHOP
 WELL.                     J22:  WELL NAME
 RIG .             West Chirag:  RIG NAME
 DOE .                     N/A:  DOE NUMBER
 DCON.         Sperry Drilling:  DIRECTNL CONTR
 UNIT.                     N/A:  LOGGING EQUIPMENT ID
 PDAT.          Mean Sea Level:  PERMANENT DATUM
 JOBN.        AZ-XX-0905059384:  JOB TICKET NUMB
 CNTY.                        :  COUNTY
 LOC .                        :  LOCATION
 LMF .             Drill Floor:  LOG MEASURED FROM
 TVDS.m                  43.00:  TVDSS CORRECTN
 LATI.deg                40.13:  LATITUDE
 LONG.deg                51.22:  LONGITUDE
 WHNS.m                  10.28:  WELL HEAD N/S
 WHEW.m                  -6.24:  WELL HEAD E/W
 UTMX.m              519005.06:  UTM X
 UTMY.m             4443793.85:  UTM Y
 DFWL.m                   0.00:  DISTANCE FWL
 DFSL.m                   0.00:  DISTANCE FSL
 SDEP.m                 362.00:  START DEPTH
 TDD .m                 904.00:  TOTAL DEPTH (DRILLER)
 VSDR.deg               148.53:  VERT SEC DIRECT
 GVFD.g                   1.00:  GRAVITY FIELD
 MFLD.nT              50277.00:  MAGNETIC FIELD
 MDIP.deg                59.56:  MAGNETIC DIP
 MDEC.deg                 6.42:  MAGNETIC DECL
 GRDC.deg                 0.15:  GRID CORRECTION
 AZTC.deg                 6.27:  AZM TOTAL CORR
 EPD .m                   0.00:  ELEVATION
 EGL .m                   0.00:  GROUND ELEVATION
 WDMS.m                 169.80:  WD ELEV
 APD .m                  43.00:  DEPTH ABOVE PD
 AGAP.m                  43.00:  AIR GAP
 VSEW.m                  -6.24:  VERT SEC E/W
 VSNS.m                  10.28:  VERT SEC N/S
 DEP .m                   0.00:  DEPTH
 EKB .m                   0.00:  KB ELEVATION
 EDF .m                  43.00:  DF ELEVATION
 TDL .m                1183.00:  TOTAL DEPTH (LOGGER)
 VSC .                       0:  VS TO CLOSURE
 MAGU.                 1850021:  MAGUTM CHECKSUM
~Parameter Information Block
#MNEM.UNIT       Value        Description
#---------     -----------    ---------------------------
 AV  .mps                 4.00:  Ann Velocity 
 AVMX.mps                 4.50:  Max Ann Veloc 
 AZIF.deg               145.38:  Azm, Final 
 BHAT.        Rotary Steerable:  BHA Type 
 BROT.∞/30m               3.00:  Build Rotating 
 BS  .in                 12.25:  Bit Size 
 BSZ .in                 12.25:  Bit Size 
 BTPL.psig              650.00:  Bit Press Loss 
 CABU.                      No:  Customer Abuse 
 COMM.                     $ÊW:  Run Comments 1 
 TCS .hr                101.62:  Time Ciculation Ended 
 CV  .mps                 5.00:  Crit Velocity 
 CVMX.mps                 5.00:  Max Crit Veloc 
 DD1 .             Aziz Aliyev:  Direct Drillr 1 
 DD2 .      Fakhraddin Guliyev:  Direct Drillr 2 
 DDSV.                 iCruise:  DD Service 
 DEFF.%                  97.00:  % Det Eff 
 DLRX.∞/30m               4.16:  Dogleg Rot Max 
 DLSO.∞/30m               3.20:  Dogleg Oriented 
 DLSX.∞/30m               4.10:  Dogleg Str Max 
 DRET.      23.12.00 07-Feb-20:  Drill End Time 
 DRST.      11.30.00 04-Feb-20:  Drill Start Tim 
 DTIM.hr                 61.06:  Time Drilling 
 EDEP.m                3219.01:  End Depth 
 ENG1.         Almaz Almadatov:  Engineer 1 
 ENG2.         Dair Mahammadov:  Engineer 2 
 ENG3.          Nazrin Asgarli:  Engineer 3 
 ETIM.      02.30.00 11-Feb-20:  End Time 
 FLOI.gpm              1100.00:  Flow In 
 FLON.gpm               900.00:  Flow In Min 
 FLOS.cptm               55.00:  Fluid Loss 
 FLOX.gpm              1150.00:  Flow In Max 
 FTRO.       Formation Presure:  FTWD Run Obj 
 HFLO.                      No:  High Flow 
 HPRE.                      No:  High Pressure 
 HTEM.                      No:  High Temp 
 HYDO.m                   1.80:  Hydro Offset 
 IFIN.deg                75.11:  Inc, Final 
 IMAX.deg                75.11:  Inc Max 
 IMIN.deg                33.55:  Inc Min 
 IMND.m                2186.05:  Inc Min Depth 
 IMXD.m                3205.61:  Inc Max Depth 
 JARR.                      No:  Jarring 
 LETM.      23.12.00 07-Feb-20:  Log End Time 
 LOST.hr                     0:  Lost Rig Time 
 LSTM.      11.30.00 04-Feb-20:  Log Start Time 
 MDCL.ppm             40000.00:  Mud Chlorides 
 MDES.     Inversion Oil/Synthetic:  Mud Desc 
 DFD .sg                  1.49:  Mud Density 
 MDMN.sg                  1.49:  Dens Mud Min 
 MDMX.sg                  1.49:  Dens Mud Max 
 MOIL.                      73:  Run Mud Oil % 
 MOWR.                   73:27:  Run Mud OWR 
 MSND.                     0.1:  Run Mud Sand % 
 MSOL.                    20.1:  Run Mud Solids% 
 DFV .spqt               78.00:  Mud Viscosity 
 MWOD.in                  8.00:  MWD Tool OD 
 MWSI.                      No:  Serv Intrp, MWD 
 OTIM.hr                177.15:  Time Operating 
 PCON.          Wear / Scratch:  Pad Condition 
 PMAX.psia            10493.93:  Press Op, Max 
 PV  .cP                 73.00:  Mud PV 
 RUN .                     700:  Run Number 
 ROPA.m/hr               15.00:  ROP Avg 
 ROPN.m/hr               10.00:  ROP Min 
 ROPX.m/hr               35.00:  ROP Max 
 RPMA.rpm               130.00:  RPM Surface Avg 
 RPMN.rpm                80.00:  RPM Surface Min 
 RPMX.rpm               150.00:  RPM Surface Max 
 RRUN.                    L402:  Rig Run Number 
 RTIM.hr                 80.50:  Time Reaming 
 SAZI.deg               155.55:  Azm, Start 
 SDEP.m                2036.00:  Start Depth 
 SIDD.                      No:  Serv Intrp, DD 
 SINC.deg                35.44:  Inc, Start 
 SPPA.psig             4270.00:  SPP Avg 
 SPPN.psig             2800.00:  SPP Min 
 SPPX.psig             4850.00:  SPP Max 
 STIM.      09.30.00 03-Feb-20:  Start Time 
 SVCS.                 DD, MWD:  Services 
 SVER.                    9.20:  Sperry Version 
 TDAT.m                1183.00:  Tot Depth Attmp 
 TDDF.                      No:  Trip for DD 
 TDLG.m                1183.00:  Tot Depth Loggd 
 TFF .                      No:  Trip for Fail 
 TQAA.f-kp               16.00:  Torque Abs Avg 
 TQAN.f-kp               10.00:  Torque Abs Min 
 TQAX.f-kp               20.00:  Torque Abs Max 
 TRRT.∞/30m               1.00:  Turn Rotating 
 MRT .                  EWR-M5:  Maximum Recorded Temperature 
 TTMX.degC               80.39:  Max Tool Temp 
 VS01.               13098498 :  Virtual Str1 SN 
 VS02.                90569596:  Virtual Str2 SN 
 VS03.                90523599:  Virtual Str3 SN 
 VS04.                90573553:  Virtual Str4 SN 
 VS05.                90598598:  Virtual Str5 SN 
 VS06.                90577297:  Virtual Str6 SN 
 WBMN.klb                13.00:  WOB Min 
 WITN.         Alistair Sprott:  Customer Rep 
 WITN.           Rufat Babayev:  Customer Rep 2 
 WOBA.klb                15.00:  WOB Avg 
 WOBX.klb                20.00:  WOB Max 
 YP  .lhf2               39.00:  Yield Point 
~Curve Information Block
#MNEM.UNIT                 API CODE     Curve Description
#---------               -----------    ---------------------------
 TIME.HHMMSS            00 000 000 000:  GT Time & Date
 GTDEPTH.m              00 000 000 000:  GT Depth
 GTPQH.psia             00 000 000 000:  GT HR Quartz Pressure
 GTTQ.degC              00 000 000 000:  GT Quartz Temperature
 GTTN.NONE              00 000 000 000:  GT Test Number
 GTET.sec               00 000 000 000:  GT Elapsed Test Time
 GTTVD.m                00 000 000 000:  GT True Vertical Depth
#Other Information
#
#WARRANTY: Halliburton will use its best efforts to furnish customers with 
#accurate information and interpretations that are part of, and incident to, the services 
#provided.  However, Halliburton cannot and does not warrant the accuracy 
#or correctness of such information and interpretations.  Under no circumstances should any 
#such information or interpretation be relied upon as the sole basis for any drilling, 
#completion, production, or financial decision or any procedure involving any risk to the 
#safety of any drilling venture, drilling rig or its crew or any other third party.  The 
#Customer has full responsibility for all drilling, completion and production operation.  
#Halliburton makes no representations or warranties, either expressed or 
#implied, including, but not limited to, the implied warranties of merchantability or fitness 
#for a particular purpose, with respect to the services rendered.  In no event will 
#Halliburton be liable for failure to obtain any particular results or for 
#any damages, including, but not limited to, indirect, special or consequential damages, 
#resulting from the use of any information or interpretation provided by Halliburton.
#
~A           TIME           GTDEPTH  GTPQH  GTTQ  GTTN  GTET   GTTVD  
# ...
   09:31:15.880.08-Feb-2020 3135.01 4728.23 69.14 4.00 230.02 2647.94
   09:31:16.080.08-Feb-2020 3135.01 4728.23 69.14 4.00 230.22 2647.94
   09:31:16.280.08-Feb-2020 3135.01 4728.01 69.14 4.00 230.42 2647.94
   09:31:16.480.08-Feb-2020 3135.01 4728.13 69.14 4.00 230.62 2647.94
   09:31:16.680.08-Feb-2020 3135.01 4727.87 69.14 4.00 230.82 2647.94
   09:31:16.880.08-Feb-2020 3135.01 4727.91 69.14 4.00 231.02 2647.94
   09:31:17.080.08-Feb-2020 3135.01 4727.91 69.14 4.00 231.22 2647.94
   09:31:17.280.08-Feb-2020 3135.01 4728.03 69.14 4.00 231.42 2647.94
   09:31:17.480.08-Feb-2020 3135.01 4729.19 69.14 4.00 231.62 2647.94
   09:31:17.680.08-Feb-2020 3135.01 4727.10 69.14 4.00 231.82 2647.94
   09:31:17.880.08-Feb-2020 3135.01 4727.82 69.14 4.00 232.02 2647.94
   09:31:18.080.08-Feb-2020 3135.01 4727.82 69.14 4.00 232.22 2647.94
   09:31:18.280.08-Feb-2020 3135.01 4728.32 69.14 4.00 232.42 2647.94
   09:31:18.480.08-Feb-2020 3135.01 4728.35 69.14 4.00 232.62 2647.94
   09:31:18.680.08-Feb-2020 3135.01 4728.46 69.14 4.00 232.82 2647.94
   09:31:18.880.08-Feb-2020 3135.01 4728.38 69.14 4.00 233.02 2647.94
   09:31:19.080.08-Feb-2020 3135.01 4728.38 69.14 4.00 233.22 2647.94
   09:31:19.280.08-Feb-2020 3135.01 4727.97 69.14 4.00 233.42 2647.94
   09:31:19.480.08-Feb-2020 3135.01 4728.00 69.14 4.00 233.62 2647.94
   09:31:19.680.08-Feb-2020 3135.01 4727.77 69.14 4.00 233.82 2647.94
   09:31:19.880.08-Feb-2020 3135.01 4728.96 69.14 4.00 234.02 2647.94
   09:31:20.080.08-Feb-2020 3135.01 4728.96 69.14 4.00 234.22 2647.94
   09:31:20.280.08-Feb-2020 3135.01 4727.69 69.14 4.00 234.42 2647.94
   09:31:20.480.08-Feb-2020 3135.01 4728.82 69.14 4.00 234.62 2647.94
   09:31:20.680.08-Feb-2020 3135.01 4727.64 69.14 4.00 234.82 2647.94
   09:31:20.880.08-Feb-2020 3135.01 4728.86 69.14 4.00 235.02 2647.94
   09:31:21.080.08-Feb-2020 3135.01 4728.86 69.14 4.00 235.22 2647.94
   09:31:21.280.08-Feb-2020 3135.01 4728.33 69.14 4.00 235.42 2647.94
   09:31:21.480.08-Feb-2020 3135.01 4728.08 69.14 4.00 235.62 2647.94
   09:31:21.680.08-Feb-2020 3135.01 4727.86 69.14 4.00 235.82 2647.94
   09:31:21.880.08-Feb-2020 3135.01 4728.46 69.14 4.00 236.02 2647.94
   09:31:22.080.08-Feb-2020 3135.01 4728.46 69.14 4.00 236.22 2647.94
   09:31:22.280.08-Feb-2020 3135.01 4728.45 69.14 4.00 236.42 2647.94
   09:31:22.480.08-Feb-2020 3135.01 4728.09 69.14 4.00 236.62 2647.94
   09:31:22.680.08-Feb-2020 3135.01 4727.91 69.14 4.00 236.82 2647.94
   09:31:22.880.08-Feb-2020 3135.01 4728.91 69.14 4.00 237.02 2647.94
   09:31:23.080.08-Feb-2020 3135.01 4728.91 69.14 4.00 237.22 2647.94
   09:31:23.280.08-Feb-2020 3135.01 4728.14 69.14 4.00 237.42 2647.94
   09:31:23.480.08-Feb-2020 3135.01 4728.45 69.14 4.00 237.62 2647.94
   09:31:23.680.08-Feb-2020 3135.01 4728.04 69.14 4.00 237.82 2647.94
   09:31:23.880.08-Feb-2020 3135.01 4728.11 69.14 4.00 238.02 2647.94
   09:31:24.080.08-Feb-2020 3135.01 4728.11 69.14 4.00 238.22 2647.94
   09:31:24.280.08-Feb-2020 3135.01 4727.90 69.14 4.00 238.42 2647.94
   09:31:24.480.08-Feb-2020 3135.01 4727.92 69.14 4.00 238.62 2647.94
   09:31:24.680.08-Feb-2020 3135.01 4728.06 69.14 4.00 238.82 2647.94
   09:31:24.880.08-Feb-2020 3135.01 4727.78 69.14 4.00 239.02 2647.94
   09:31:25.080.08-Feb-2020 3135.01 4727.78 69.14 4.00 239.22 2647.94
   09:31:25.280.08-Feb-2020 3135.01 4728.60 69.14 4.00 239.42 2647.94
   09:31:25.480.08-Feb-2020 3135.01 4728.60 69.14 4.00 239.62 2647.94
   09:31:25.680.08-Feb-2020 3135.01 4728.35 69.14 4.00 239.82 2647.94
   09:31:25.880.08-Feb-2020 3135.01 4728.38 69.14 4.00 240.02 2647.94
   09:31:26.080.08-Feb-2020 3135.01 4728.38 69.14 4.00 240.22 2647.94
   09:31:26.280.08-Feb-2020 3135.01 4728.03 69.14 4.00 240.42 2647.94
   09:31:26.480.08-Feb-2020 3135.01 4728.21 69.14 4.00 240.62 2647.94
   09:31:26.680.08-Feb-2020 3135.01 4727.98 69.14 4.00 240.82 2647.94
   09:31:26.880.08-Feb-2020 3135.01 4728.62 69.14 4.00 241.02 2647.94
   09:31:27.080.08-Feb-2020 3135.01 4728.62 69.14 4.00 241.22 2647.94
   09:31:27.280.08-Feb-2020 3135.01 4727.26 69.14 4.00 241.42 2647.94
   09:31:27.480.08-Feb-2020 3135.01 4729.24 69.14 4.00 241.62 2647.94
   09:31:27.681.08-Feb-2020 3135.01 4727.56 69.14 4.00 241.82 2647.94
   09:31:27.881.08-Feb-2020 3135.01 4727.74 69.14 4.00 242.02 2647.94
   09:31:28.081.08-Feb-2020 3135.01 4727.74 69.14 4.00 242.22 2647.94
   09:31:28.281.08-Feb-2020 3135.01 4727.91 69.14 4.00 242.42 2647.94
   09:31:28.481.08-Feb-2020 3135.01 4728.98 69.14 4.00 242.62 2647.94
   09:31:28.681.08-Feb-2020 3135.01 4728.31 69.14 4.00 242.82 2647.94
   09:31:28.881.08-Feb-2020 3135.01 4727.82 69.14 4.00 243.02 2647.94
   09:31:29.081.08-Feb-2020 3135.01 4727.82 69.14 4.00 243.22 2647.94
   09:31:29.281.08-Feb-2020 3135.01 4727.82 69.14 4.00 243.42 2647.94
   09:31:29.481.08-Feb-2020 3135.01 4727.56 69.14 4.00 243.62 2647.94
   09:31:29.681.08-Feb-2020 3135.01 4728.33 69.14 4.00 243.82 2647.94
   09:31:29.881.08-Feb-2020 3135.01 4728.39 69.14 4.00 244.02 2647.94
   09:31:30.081.08-Feb-2020 3135.01 4728.39 69.14 4.00 244.22 2647.94
   09:31:30.281.08-Feb-2020 3135.01 4729.38 69.14 4.00 244.42 2647.94
   09:31:30.481.08-Feb-2020 3135.01 4728.53 69.14 4.00 244.62 2647.94
   09:31:30.681.08-Feb-2020 3135.01 4727.87 69.14 4.00 244.82 2647.94
   09:31:30.881.08-Feb-2020 3135.01 4728.37 69.14 4.00 245.02 2647.94
   09:31:31.081.08-Feb-2020 3135.01 4728.37 69.14 4.00 245.22 2647.94
   09:31:31.281.08-Feb-2020 3135.01 4728.03 69.14 4.00 245.42 2647.94
   09:31:31.481.08-Feb-2020 3135.01 4728.06 69.14 4.00 245.62 2647.94
   09:31:31.681.08-Feb-2020 3135.01 4728.17 69.14 4.00 245.82 2647.94
   09:31:31.881.08-Feb-2020 3135.01 4728.02 69.14 4.00 246.02 2647.94
   09:31:32.081.08-Feb-2020 3135.01 4728.02 69.14 4.00 246.22 2647.94
   09:31:32.281.08-Feb-2020 3135.01 4728.03 69.14 4.00 246.42 2647.94
   09:31:32.481.08-Feb-2020 3135.01 4727.61 69.14 4.00 246.62 2647.94
   09:31:32.681.08-Feb-2020 3135.01 4728.70 69.14 4.00 246.82 2647.94
   09:31:32.881.08-Feb-2020 3135.01 4728.28 69.14 4.00 247.02 2647.94
   09:31:33.081.08-Feb-2020 3135.01 4728.28 69.14 4.00 247.22 2647.94
   09:31:33.281.08-Feb-2020 3135.01 4728.40 69.14 4.00 247.42 2647.94
   09:31:33.481.08-Feb-2020 3135.01 4728.12 69.14 4.00 247.62 2647.94
   09:31:33.681.08-Feb-2020 3135.01 4728.04 69.14 4.00 247.82 2647.94
   09:31:33.881.08-Feb-2020 3135.01 4728.12 69.14 4.00 248.02 2647.94
   09:31:34.081.08-Feb-2020 3135.01 4728.12 69.14 4.00 248.22 2647.94
   09:31:34.281.08-Feb-2020 3135.01 4728.24 69.14 4.00 248.42 2647.94
   09:31:34.481.08-Feb-2020 3135.01 4728.61 69.14 4.00 248.62 2647.94
   09:31:34.681.08-Feb-2020 3135.01 4728.85 69.14 4.00 248.82 2647.94
   09:31:34.881.08-Feb-2020 3135.01 4728.73 69.14 4.00 249.02 2647.94
   09:31:35.081.08-Feb-2020 3135.01 4728.73 69.14 4.00 249.22 2647.94
   09:31:35.281.08-Feb-2020 3135.01 4727.94 69.14 4.00 249.42 2647.94
   09:31:35.481.08-Feb-2020 3135.01 4727.78 69.14 4.00 249.62 2647.94
   09:31:35.681.08-Feb-2020 3135.01 4728.95 69.14 4.00 249.82 2647.94
   09:31:35.881.08-Feb-2020 3135.01 4727.83 69.14 4.00 250.02 2647.94
   09:31:36.081.08-Feb-2020 3135.01 4727.83 69.14 4.00 250.22 2647.94
   09:31:36.281.08-Feb-2020 3135.01 4728.22 69.14 4.00 250.42 2647.94
   09:31:36.481.08-Feb-2020 3135.01 4727.75 69.14 4.00 250.62 2647.94
   09:31:36.681.08-Feb-2020 3135.01 4728.50 69.14 4.00 250.82 2647.94
   09:31:36.881.08-Feb-2020 3135.01 4729.21 69.14 4.00 251.02 2647.94
   09:31:37.081.08-Feb-2020 3135.01 4729.21 69.14 4.00 251.22 2647.94
   09:31:37.281.08-Feb-2020 3135.01 4728.02 69.14 4.00 251.42 2647.94
   09:31:37.481.08-Feb-2020 3135.01 4729.19 69.14 4.00 251.62 2647.94
   09:31:37.681.08-Feb-2020 3135.01 4728.50 69.14 4.00 251.82 2647.94
   09:31:37.881.08-Feb-2020 3135.01 4728.08 69.14 4.00 252.02 2647.94
   09:31:38.081.08-Feb-2020 3135.01 4728.08 69.14 4.00 252.22 2647.94
   09:31:38.281.08-Feb-2020 3135.01 4728.71 69.14 4.00 252.42 2647.94
   09:31:38.481.08-Feb-2020 3135.01 4728.21 69.14 4.00 252.62 2647.94
   09:31:38.681.08-Feb-2020 3135.01 4728.03 69.14 4.00 252.82 2647.94
