~Version Information
 VERS.                  2.0:   CWLS log ASCII Standard -VERSION 2.0
 WRAP.                   NO:   One line per depth step
~Well Information Block
#MNEM.UNIT     VALUE/NAME     DESCRIPTION
#---------     -----------    ---------------------------
 STRT.S             08:19:39 08-Feb-20: START TIME 08:19:39 08-Feb-20
 STOP.S             08:26:25 08-Feb-20: STOP TIME  08:26:25 08-Feb-20
 STEP.S                   0.00: STEP TIME
 NULL.                 -999.25: NULL VALUE
 DFWT.                        :  DIST FWL TEXT
 DFST.                        :  DIST FSL TEXT
 DMF .             Drill Floor:  DRILL MEAS FROM
 STIM.      07.00.00 09-Jan-20:  START TIME
 DATE.      14.04.48 07-Feb-20:  END TIME
 SPUD.               09-Jan-20:  SPUD DATE
 NREF.                    Grid:  NORTH REFERENCE
 HPTY.       Minimum Curvature:  HOLE POS TYPE
 DMOD.             Drill Model:  DRILL MOD DESC
 SVYD.                  Survey:  SURVEY DESC
 ILTD.               Lithology:  INTERP LTH DESC
 FTOP.          Formation Tops:  FORM TOPS DESC
 SON .        AZ-XX-0905059384:  JOB NUMBER
 MDS .        Operator Entered:  MAG DATA SOURCE
 WTYP.                Deviated:  WELL TYPE
 COMP.     BP Exploration (Caspian Sea) Ltd.:  COMPANY
 UWI .                     N/A:  UNIQUE WELL IDENTIFIER
 API .                     N/A:  API NUMBER
 BASE.              Azerbaijan:  LOGGING EQUIPMENT BASE LOCATION
 REGN.                   EESSA:  REGION
 PROV.                    Baku:  PROVINCE
 STAT.                    Baku:  STATE NAME
 CTRY.              Azerbaijan:  COUNTRY NAME
 FLD .                     ACG:  FIELD NAME
 SRVC.     TURAN Drilling & Engineering:  CONTRACTOR
 MWDS.                    Baku:  MWD SHOP
 WELL.                     J22:  WELL NAME
 RIG .             West Chirag:  RIG NAME
 DOE .                     N/A:  DOE NUMBER
 DCON.         Sperry Drilling:  DIRECTNL CONTR
 UNIT.                     N/A:  LOGGING EQUIPMENT ID
 PDAT.          Mean Sea Level:  PERMANENT DATUM
 JOBN.        AZ-XX-0905059384:  JOB TICKET NUMB
 CNTY.                        :  COUNTY
 LOC .                        :  LOCATION
 LMF .             Drill Floor:  LOG MEASURED FROM
 TVDS.m                  43.00:  TVDSS CORRECTN
 LATI.deg                40.13:  LATITUDE
 LONG.deg                51.22:  LONGITUDE
 WHNS.m                  10.28:  WELL HEAD N/S
 WHEW.m                  -6.24:  WELL HEAD E/W
 UTMX.m              519005.06:  UTM X
 UTMY.m             4443793.85:  UTM Y
 DFWL.m                   0.00:  DISTANCE FWL
 DFSL.m                   0.00:  DISTANCE FSL
 SDEP.m                 362.00:  START DEPTH
 TDD .m                 904.00:  TOTAL DEPTH (DRILLER)
 VSDR.deg               148.53:  VERT SEC DIRECT
 GVFD.g                   1.00:  GRAVITY FIELD
 MFLD.nT              50277.00:  MAGNETIC FIELD
 MDIP.deg                59.56:  MAGNETIC DIP
 MDEC.deg                 6.42:  MAGNETIC DECL
 GRDC.deg                 0.15:  GRID CORRECTION
 AZTC.deg                 6.27:  AZM TOTAL CORR
 EPD .m                   0.00:  ELEVATION
 EGL .m                   0.00:  GROUND ELEVATION
 WDMS.m                 169.80:  WD ELEV
 APD .m                  43.00:  DEPTH ABOVE PD
 AGAP.m                  43.00:  AIR GAP
 VSEW.m                  -6.24:  VERT SEC E/W
 VSNS.m                  10.28:  VERT SEC N/S
 DEP .m                   0.00:  DEPTH
 EKB .m                   0.00:  KB ELEVATION
 EDF .m                  43.00:  DF ELEVATION
 TDL .m                1183.00:  TOTAL DEPTH (LOGGER)
 VSC .                       0:  VS TO CLOSURE
 MAGU.                 1850021:  MAGUTM CHECKSUM
~Parameter Information Block
#MNEM.UNIT       Value        Description
#---------     -----------    ---------------------------
 AV  .mps                 4.00:  Ann Velocity 
 AVMX.mps                 4.50:  Max Ann Veloc 
 AZIF.deg               145.38:  Azm, Final 
 BHAT.        Rotary Steerable:  BHA Type 
 BROT.°/30m               3.00:  Build Rotating 
 BS  .in                 12.25:  Bit Size 
 BSZ .in                 12.25:  Bit Size 
 BTPL.psig              650.00:  Bit Press Loss 
 CABU.                      No:  Customer Abuse 
 COMM.                     ä7n:  Run Comments 1 
 TCS .hr                101.62:  Time Ciculation Ended 
 CV  .mps                 5.00:  Crit Velocity 
 CVMX.mps                 5.00:  Max Crit Veloc 
 DD1 .             Aziz Aliyev:  Direct Drillr 1 
 DD2 .      Fakhraddin Guliyev:  Direct Drillr 2 
 DDSV.                 iCruise:  DD Service 
 DEFF.%                  97.00:  % Det Eff 
 DLRX.°/30m               4.16:  Dogleg Rot Max 
 DLSO.°/30m               3.20:  Dogleg Oriented 
 DLSX.°/30m               4.10:  Dogleg Str Max 
 DRET.      23.12.00 07-Feb-20:  Drill End Time 
 DRST.      11.30.00 04-Feb-20:  Drill Start Tim 
 DTIM.hr                 61.06:  Time Drilling 
 EDEP.m                3219.01:  End Depth 
 ENG1.         Almaz Almadatov:  Engineer 1 
 ENG2.         Dair Mahammadov:  Engineer 2 
 ENG3.          Nazrin Asgarli:  Engineer 3 
 ETIM.      02.30.00 11-Feb-20:  End Time 
 FLOI.gpm              1100.00:  Flow In 
 FLON.gpm               900.00:  Flow In Min 
 FLOS.cptm               55.00:  Fluid Loss 
 FLOX.gpm              1150.00:  Flow In Max 
 FTRO.       Formation Presure:  FTWD Run Obj 
 HFLO.                      No:  High Flow 
 HPRE.                      No:  High Pressure 
 HTEM.                      No:  High Temp 
 HYDO.m                   1.80:  Hydro Offset 
 IFIN.deg                75.11:  Inc, Final 
 IMAX.deg                75.11:  Inc Max 
 IMIN.deg                33.55:  Inc Min 
 IMND.m                2186.05:  Inc Min Depth 
 IMXD.m                3205.61:  Inc Max Depth 
 JARR.                      No:  Jarring 
 LETM.      23.12.00 07-Feb-20:  Log End Time 
 LOST.hr                     0:  Lost Rig Time 
 LSTM.      11.30.00 04-Feb-20:  Log Start Time 
 MDCL.ppm             40000.00:  Mud Chlorides 
 MDES.     Inversion Oil/Synthetic:  Mud Desc 
 DFD .sg                  1.49:  Mud Density 
 MDMN.sg                  1.49:  Dens Mud Min 
 MDMX.sg                  1.49:  Dens Mud Max 
 MOIL.                      73:  Run Mud Oil % 
 MOWR.                   73:27:  Run Mud OWR 
 MSND.                     0.1:  Run Mud Sand % 
 MSOL.                    20.1:  Run Mud Solids% 
 DFV .spqt               78.00:  Mud Viscosity 
 MWOD.in                  8.00:  MWD Tool OD 
 MWSI.                      No:  Serv Intrp, MWD 
 OTIM.hr                177.15:  Time Operating 
 PCON.          Wear / Scratch:  Pad Condition 
 PMAX.psia            10493.93:  Press Op, Max 
 PV  .cP                 73.00:  Mud PV 
 RUN .                     700:  Run Number 
 ROPA.m/hr               15.00:  ROP Avg 
 ROPN.m/hr               10.00:  ROP Min 
 ROPX.m/hr               35.00:  ROP Max 
 RPMA.rpm               130.00:  RPM Surface Avg 
 RPMN.rpm                80.00:  RPM Surface Min 
 RPMX.rpm               150.00:  RPM Surface Max 
 RRUN.                    L402:  Rig Run Number 
 RTIM.hr                 80.50:  Time Reaming 
 SAZI.deg               155.55:  Azm, Start 
 SDEP.m                2036.00:  Start Depth 
 SIDD.                      No:  Serv Intrp, DD 
 SINC.deg                35.44:  Inc, Start 
 SPPA.psig             4270.00:  SPP Avg 
 SPPN.psig             2800.00:  SPP Min 
 SPPX.psig             4850.00:  SPP Max 
 STIM.      09.30.00 03-Feb-20:  Start Time 
 SVCS.                 DD, MWD:  Services 
 SVER.                    9.20:  Sperry Version 
 TDAT.m                1183.00:  Tot Depth Attmp 
 TDDF.                      No:  Trip for DD 
 TDLG.m                1183.00:  Tot Depth Loggd 
 TFF .                      No:  Trip for Fail 
 TQAA.f-kp               16.00:  Torque Abs Avg 
 TQAN.f-kp               10.00:  Torque Abs Min 
 TQAX.f-kp               20.00:  Torque Abs Max 
 TRRT.°/30m               1.00:  Turn Rotating 
 MRT .                  EWR-M5:  Maximum Recorded Temperature 
 TTMX.degC               80.39:  Max Tool Temp 
 VS01.               13098498 :  Virtual Str1 SN 
 VS02.                90569596:  Virtual Str2 SN 
 VS03.                90523599:  Virtual Str3 SN 
 VS04.                90573553:  Virtual Str4 SN 
 VS05.                90598598:  Virtual Str5 SN 
 VS06.                90577297:  Virtual Str6 SN 
 WBMN.klb                13.00:  WOB Min 
 WITN.         Alistair Sprott:  Customer Rep 
 WITN.           Rufat Babayev:  Customer Rep 2 
 WOBA.klb                15.00:  WOB Avg 
 WOBX.klb                20.00:  WOB Max 
 YP  .lhf2               39.00:  Yield Point 
~Curve Information Block
#MNEM.UNIT                 API CODE     Curve Description
#---------               -----------    ---------------------------
 TIME.HHMMSS            00 000 000 000:  GT Time & Date
 GTDEPTH.m              00 000 000 000:  GT Depth
 GTPQH.psia             00 000 000 000:  GT HR Quartz Pressure
 GTTQ.degC              00 000 000 000:  GT Quartz Temperature
 GTTN.NONE              00 000 000 000:  GT Test Number
 GTET.sec               00 000 000 000:  GT Elapsed Test Time
 GTTVD.m                00 000 000 000:  GT True Vertical Depth
#Other Information
#
#WARRANTY: Halliburton will use its best efforts to furnish customers with 
#accurate information and interpretations that are part of, and incident to, the services 
#provided.  However, Halliburton cannot and does not warrant the accuracy 
#or correctness of such information and interpretations.  Under no circumstances should any 
#such information or interpretation be relied upon as the sole basis for any drilling, 
#completion, production, or financial decision or any procedure involving any risk to the 
#safety of any drilling venture, drilling rig or its crew or any other third party.  The 
#Customer has full responsibility for all drilling, completion and production operation.  
#Halliburton makes no representations or warranties, either expressed or 
#implied, including, but not limited to, the implied warranties of merchantability or fitness 
#for a particular purpose, with respect to the services rendered.  In no event will 
#Halliburton be liable for failure to obtain any particular results or for 
#any damages, including, but not limited to, indirect, special or consequential damages, 
#resulting from the use of any information or interpretation provided by Halliburton.
#
~A           TIME           GTDEPTH  GTPQH  GTTQ  GTTN  GTET   GTTVD  
# ...
   08:21:57.531.08-Feb-2020 3134.51 4724.89 73.98 1.00 138.01 2647.81
   08:21:57.731.08-Feb-2020 3134.51 4724.89 73.98 1.00 138.21 2647.81
   08:21:57.931.08-Feb-2020 3134.51 4724.78 73.98 1.00 138.41 2647.81
   08:21:58.131.08-Feb-2020 3134.51 4724.85 73.98 1.00 138.61 2647.81
   08:21:58.331.08-Feb-2020 3134.51 4725.33 73.98 1.00 138.81 2647.81
   08:21:58.531.08-Feb-2020 3134.51 4725.23 73.98 1.00 139.01 2647.81
   08:21:58.731.08-Feb-2020 3134.51 4725.23 73.98 1.00 139.21 2647.81
   08:21:58.931.08-Feb-2020 3134.51 4725.55 73.98 1.00 139.41 2647.81
   08:21:59.131.08-Feb-2020 3134.51 4725.53 73.98 1.00 139.61 2647.81
   08:21:59.331.08-Feb-2020 3134.51 4725.51 73.98 1.00 139.81 2647.81
   08:21:59.531.08-Feb-2020 3134.51 4725.66 73.97 1.00 140.01 2647.81
   08:21:59.731.08-Feb-2020 3134.51 4725.66 73.97 1.00 140.21 2647.81
   08:21:59.931.08-Feb-2020 3134.51 4726.03 73.97 1.00 140.41 2647.81
   08:22:00.131.08-Feb-2020 3134.51 4726.14 73.97 1.00 140.61 2647.81
   08:22:00.331.08-Feb-2020 3134.51 4726.22 73.97 1.00 140.81 2647.81
   08:22:00.531.08-Feb-2020 3134.51 4725.91 73.97 1.00 141.01 2647.81
   08:22:00.731.08-Feb-2020 3134.51 4725.91 73.97 1.00 141.21 2647.81
   08:22:00.931.08-Feb-2020 3134.51 4726.09 73.97 1.00 141.41 2647.81
   08:22:01.131.08-Feb-2020 3134.51 4725.84 73.97 1.00 141.61 2647.81
   08:22:01.331.08-Feb-2020 3134.51 4726.05 73.97 1.00 141.81 2647.81
   08:22:01.532.08-Feb-2020 3134.51 4726.19 73.97 1.00 142.01 2647.81
   08:22:01.732.08-Feb-2020 3134.51 4726.19 73.97 1.00 142.21 2647.81
   08:22:01.932.08-Feb-2020 3134.51 4726.33 73.97 1.00 142.41 2647.81
   08:22:02.132.08-Feb-2020 3134.51 4726.51 73.97 1.00 142.61 2647.81
   08:22:02.332.08-Feb-2020 3134.51 4726.41 73.97 1.00 142.81 2647.81
   08:22:02.532.08-Feb-2020 3134.51 4727.15 73.97 1.00 143.01 2647.81
   08:22:02.732.08-Feb-2020 3134.51 4727.15 73.97 1.00 143.21 2647.81
   08:22:02.932.08-Feb-2020 3134.51 4726.65 73.97 1.00 143.41 2647.81
   08:22:03.132.08-Feb-2020 3134.51 4727.32 73.97 1.00 143.61 2647.81
   08:22:03.332.08-Feb-2020 3134.51 4727.55 73.97 1.00 143.81 2647.81
   08:22:03.532.08-Feb-2020 3134.51 4727.17 73.96 1.00 144.01 2647.81
   08:22:03.732.08-Feb-2020 3134.51 4727.17 73.96 1.00 144.21 2647.81
   08:22:03.932.08-Feb-2020 3134.51 4727.19 73.96 1.00 144.41 2647.81
   08:22:04.132.08-Feb-2020 3134.51 4727.17 73.96 1.00 144.61 2647.81
   08:22:04.332.08-Feb-2020 3134.51 4727.17 73.96 1.00 144.81 2647.81
   08:22:04.532.08-Feb-2020 3134.51 4727.06 73.96 1.00 145.01 2647.81
   08:22:04.732.08-Feb-2020 3134.51 4727.06 73.96 1.00 145.21 2647.81
   08:22:04.932.08-Feb-2020 3134.51 4727.72 73.96 1.00 145.41 2647.81
   08:22:05.132.08-Feb-2020 3134.51 4727.18 73.96 1.00 145.61 2647.81
   08:22:05.332.08-Feb-2020 3134.51 4727.92 73.96 1.00 145.81 2647.81
   08:22:05.532.08-Feb-2020 3134.51 4727.84 73.96 1.00 146.01 2647.81
   08:22:05.732.08-Feb-2020 3134.51 4727.84 73.96 1.00 146.21 2647.81
   08:22:05.932.08-Feb-2020 3134.51 4727.84 73.96 1.00 146.41 2647.81
   08:22:06.132.08-Feb-2020 3134.51 4727.86 73.96 1.00 146.61 2647.81
   08:22:06.332.08-Feb-2020 3134.51 4727.61 73.96 1.00 146.81 2647.81
   08:22:06.532.08-Feb-2020 3134.51 4727.72 73.96 1.00 147.01 2647.81
   08:22:06.732.08-Feb-2020 3134.51 4727.72 73.96 1.00 147.21 2647.81
   08:22:06.932.08-Feb-2020 3134.51 4727.75 73.96 1.00 147.41 2647.81
   08:22:07.132.08-Feb-2020 3134.51 4728.45 73.96 1.00 147.61 2647.81
   08:22:07.332.08-Feb-2020 3134.51 4728.10 73.95 1.00 147.81 2647.81
   08:22:07.532.08-Feb-2020 3134.51 4727.88 73.95 1.00 148.01 2647.81
   08:22:07.732.08-Feb-2020 3134.51 4727.88 73.95 1.00 148.21 2647.81
   08:22:07.932.08-Feb-2020 3134.51 4728.10 73.95 1.00 148.41 2647.81
   08:22:08.132.08-Feb-2020 3134.51 4727.95 73.95 1.00 148.61 2647.81
   08:22:08.332.08-Feb-2020 3134.51 4728.11 73.95 1.00 148.81 2647.81
   08:22:08.532.08-Feb-2020 3134.51 4728.10 73.95 1.00 149.01 2647.81
   08:22:08.732.08-Feb-2020 3134.51 4728.10 73.95 1.00 149.21 2647.81
   08:22:08.932.08-Feb-2020 3134.51 4728.09 73.95 1.00 149.41 2647.81
   08:22:09.132.08-Feb-2020 3134.51 4728.47 73.95 1.00 149.61 2647.81
   08:22:09.332.08-Feb-2020 3134.51 4728.31 73.95 1.00 149.81 2647.81
   08:22:09.532.08-Feb-2020 3134.51 4728.49 73.95 1.00 150.01 2647.81
   08:22:09.732.08-Feb-2020 3134.51 4728.49 73.95 1.00 150.21 2647.81
   08:22:09.932.08-Feb-2020 3134.51 4728.37 73.95 1.00 150.41 2647.81
   08:22:10.132.08-Feb-2020 3134.51 4728.69 73.95 1.00 150.61 2647.81
   08:22:10.332.08-Feb-2020 3134.51 4728.58 73.95 1.00 150.81 2647.81
   08:22:10.532.08-Feb-2020 3134.51 4728.29 73.95 1.00 151.01 2647.81
   08:22:10.732.08-Feb-2020 3134.51 4728.29 73.95 1.00 151.21 2647.81
   08:22:10.932.08-Feb-2020 3134.51 4728.60 73.95 1.00 151.41 2647.81
   08:22:11.132.08-Feb-2020 3134.51 4728.15 73.95 1.00 151.61 2647.81
   08:22:11.332.08-Feb-2020 3134.51 4728.64 73.94 1.00 151.81 2647.81
   08:22:11.532.08-Feb-2020 3134.51 4728.34 73.94 1.00 152.01 2647.81
   08:22:11.732.08-Feb-2020 3134.51 4728.34 73.94 1.00 152.21 2647.81
   08:22:11.932.08-Feb-2020 3134.51 4728.91 73.94 1.00 152.41 2647.81
   08:22:12.132.08-Feb-2020 3134.51 4728.23 73.94 1.00 152.61 2647.81
   08:22:12.332.08-Feb-2020 3134.51 4728.70 73.94 1.00 152.81 2647.81
   08:22:12.532.08-Feb-2020 3134.51 4729.26 73.94 1.00 153.01 2647.81
   08:22:12.732.08-Feb-2020 3134.51 4729.26 73.94 1.00 153.21 2647.81
   08:22:12.932.08-Feb-2020 3134.51 4729.05 73.94 1.00 153.41 2647.81
   08:22:13.132.08-Feb-2020 3134.51 4729.41 73.94 1.00 153.61 2647.81
   08:22:13.332.08-Feb-2020 3134.51 4729.19 73.94 1.00 153.81 2647.81
   08:22:13.533.08-Feb-2020 3134.51 4729.18 73.94 1.00 154.01 2647.81
   08:22:13.733.08-Feb-2020 3134.51 4729.18 73.94 1.00 154.21 2647.81
   08:22:13.933.08-Feb-2020 3134.51 4729.12 73.94 1.00 154.41 2647.81
   08:22:14.133.08-Feb-2020 3134.51 4729.69 73.94 1.00 154.61 2647.81
   08:22:14.333.08-Feb-2020 3134.51 4730.21 73.94 1.00 154.81 2647.81
   08:22:14.533.08-Feb-2020 3134.51 4729.82 73.94 1.00 155.01 2647.81
   08:22:14.733.08-Feb-2020 3134.51 4729.82 73.94 1.00 155.21 2647.81
   08:22:14.933.08-Feb-2020 3134.51 4730.07 73.94 1.00 155.41 2647.81
   08:22:15.133.08-Feb-2020 3134.51 4729.74 73.94 1.00 155.61 2647.81
   08:22:15.333.08-Feb-2020 3134.51 4729.87 73.93 1.00 155.81 2647.81
   08:22:15.533.08-Feb-2020 3134.51 4729.99 73.93 1.00 156.01 2647.81
   08:22:15.733.08-Feb-2020 3134.51 4729.99 73.93 1.00 156.21 2647.81
   08:22:15.933.08-Feb-2020 3134.51 4729.78 73.93 1.00 156.41 2647.81
   08:22:16.133.08-Feb-2020 3134.51 4729.85 73.93 1.00 156.61 2647.81
   08:22:16.333.08-Feb-2020 3134.51 4729.49 73.93 1.00 156.81 2647.81
   08:22:16.533.08-Feb-2020 3134.51 4729.66 73.93 1.00 157.01 2647.81
   08:22:16.733.08-Feb-2020 3134.51 4729.66 73.93 1.00 157.21 2647.81
   08:22:16.933.08-Feb-2020 3134.51 4729.94 73.93 1.00 157.41 2647.81
   08:22:17.133.08-Feb-2020 3134.51 4730.02 73.93 1.00 157.61 2647.81
   08:22:17.333.08-Feb-2020 3134.51 4729.95 73.93 1.00 157.81 2647.81
   08:22:17.533.08-Feb-2020 3134.51 4730.11 73.93 1.00 158.01 2647.81
   08:22:17.733.08-Feb-2020 3134.51 4730.11 73.93 1.00 158.21 2647.81
   08:22:17.933.08-Feb-2020 3134.51 4730.11 73.93 1.00 158.41 2647.81
   08:22:18.133.08-Feb-2020 3134.51 4730.50 73.93 1.00 158.61 2647.81
   08:22:18.333.08-Feb-2020 3134.51 4730.46 73.93 1.00 158.81 2647.81
   08:22:18.533.08-Feb-2020 3134.51 4730.63 73.93 1.00 159.01 2647.81
   08:22:18.733.08-Feb-2020 3134.51 4730.63 73.93 1.00 159.21 2647.81
   08:22:18.933.08-Feb-2020 3134.51 4730.71 73.93 1.00 159.41 2647.81
   08:22:19.133.08-Feb-2020 3134.51 4730.22 73.93 1.00 159.61 2647.81
   08:22:19.333.08-Feb-2020 3134.51 4730.83 73.92 1.00 159.81 2647.81
   08:22:19.533.08-Feb-2020 3134.51 4731.21 73.92 1.00 160.01 2647.81
   08:22:19.733.08-Feb-2020 3134.51 4731.21 73.92 1.00 160.21 2647.81
   08:22:19.933.08-Feb-2020 3134.51 4731.04 73.92 1.00 160.41 2647.81
   08:22:20.133.08-Feb-2020 3134.51 4731.14 73.92 1.00 160.61 2647.81
   08:22:20.333.08-Feb-2020 3134.51 4730.85 73.92 1.00 160.81 2647.81
