~Version Information
 VERS.                  2.0:   CWLS log ASCII Standard -VERSION 2.0
 WRAP.                   NO:   One line per depth step
~Well Information Block
#MNEM.UNIT     VALUE/NAME     DESCRIPTION
#---------     -----------    ---------------------------
 STRT.S             10:04:49 08-Feb-20: START TIME 10:04:49 08-Feb-20
 STOP.S             10:11:45 08-Feb-20: STOP TIME  10:11:45 08-Feb-20
 STEP.S                   0.00: STEP TIME
 NULL.                 -999.25: NULL VALUE
 DFWT.                        :  DIST FWL TEXT
 DFST.                        :  DIST FSL TEXT
 DMF .             Drill Floor:  DRILL MEAS FROM
 STIM.      07.00.00 09-Jan-20:  START TIME
 DATE.      14.04.48 07-Feb-20:  END TIME
 SPUD.               09-Jan-20:  SPUD DATE
 NREF.                    Grid:  NORTH REFERENCE
 HPTY.       Minimum Curvature:  HOLE POS TYPE
 DMOD.             Drill Model:  DRILL MOD DESC
 SVYD.                  Survey:  SURVEY DESC
 ILTD.               Lithology:  INTERP LTH DESC
 FTOP.          Formation Tops:  FORM TOPS DESC
 SON .        AZ-XX-0905059384:  JOB NUMBER
 MDS .        Operator Entered:  MAG DATA SOURCE
 WTYP.                Deviated:  WELL TYPE
 COMP.     BP Exploration (Caspian Sea) Ltd.:  COMPANY
 UWI .                     N/A:  UNIQUE WELL IDENTIFIER
 API .                     N/A:  API NUMBER
 BASE.              Azerbaijan:  LOGGING EQUIPMENT BASE LOCATION
 REGN.                   EESSA:  REGION
 PROV.                    Baku:  PROVINCE
 STAT.                    Baku:  STATE NAME
 CTRY.              Azerbaijan:  COUNTRY NAME
 FLD .                     ACG:  FIELD NAME
 SRVC.     TURAN Drilling & Engineering:  CONTRACTOR
 MWDS.                    Baku:  MWD SHOP
 WELL.                     J22:  WELL NAME
 RIG .             West Chirag:  RIG NAME
 DOE .                     N/A:  DOE NUMBER
 DCON.         Sperry Drilling:  DIRECTNL CONTR
 UNIT.                     N/A:  LOGGING EQUIPMENT ID
 PDAT.          Mean Sea Level:  PERMANENT DATUM
 JOBN.        AZ-XX-0905059384:  JOB TICKET NUMB
 CNTY.                        :  COUNTY
 LOC .                        :  LOCATION
 LMF .             Drill Floor:  LOG MEASURED FROM
 TVDS.m                  43.00:  TVDSS CORRECTN
 LATI.deg                40.13:  LATITUDE
 LONG.deg                51.22:  LONGITUDE
 WHNS.m                  10.28:  WELL HEAD N/S
 WHEW.m                  -6.24:  WELL HEAD E/W
 UTMX.m              519005.06:  UTM X
 UTMY.m             4443793.85:  UTM Y
 DFWL.m                   0.00:  DISTANCE FWL
 DFSL.m                   0.00:  DISTANCE FSL
 SDEP.m                 362.00:  START DEPTH
 TDD .m                 904.00:  TOTAL DEPTH (DRILLER)
 VSDR.deg               148.53:  VERT SEC DIRECT
 GVFD.g                   1.00:  GRAVITY FIELD
 MFLD.nT              50277.00:  MAGNETIC FIELD
 MDIP.deg                59.56:  MAGNETIC DIP
 MDEC.deg                 6.42:  MAGNETIC DECL
 GRDC.deg                 0.15:  GRID CORRECTION
 AZTC.deg                 6.27:  AZM TOTAL CORR
 EPD .m                   0.00:  ELEVATION
 EGL .m                   0.00:  GROUND ELEVATION
 WDMS.m                 169.80:  WD ELEV
 APD .m                  43.00:  DEPTH ABOVE PD
 AGAP.m                  43.00:  AIR GAP
 VSEW.m                  -6.24:  VERT SEC E/W
 VSNS.m                  10.28:  VERT SEC N/S
 DEP .m                   0.00:  DEPTH
 EKB .m                   0.00:  KB ELEVATION
 EDF .m                  43.00:  DF ELEVATION
 TDL .m                1183.00:  TOTAL DEPTH (LOGGER)
 VSC .                       0:  VS TO CLOSURE
 MAGU.                 1850021:  MAGUTM CHECKSUM
~Parameter Information Block
#MNEM.UNIT       Value        Description
#---------     -----------    ---------------------------
 AV  .mps                 4.00:  Ann Velocity 
 AVMX.mps                 4.50:  Max Ann Veloc 
 AZIF.deg               145.38:  Azm, Final 
 BHAT.        Rotary Steerable:  BHA Type 
 BROT.°/30m               3.00:  Build Rotating 
 BS  .in                 12.25:  Bit Size 
 BSZ .in                 12.25:  Bit Size 
 BTPL.psig              650.00:  Bit Press Loss 
 CABU.                      No:  Customer Abuse 
 COMM.                     |¶Q:  Run Comments 1 
 TCS .hr                101.62:  Time Ciculation Ended 
 CV  .mps                 5.00:  Crit Velocity 
 CVMX.mps                 5.00:  Max Crit Veloc 
 DD1 .             Aziz Aliyev:  Direct Drillr 1 
 DD2 .      Fakhraddin Guliyev:  Direct Drillr 2 
 DDSV.                 iCruise:  DD Service 
 DEFF.%                  97.00:  % Det Eff 
 DLRX.°/30m               4.16:  Dogleg Rot Max 
 DLSO.°/30m               3.20:  Dogleg Oriented 
 DLSX.°/30m               4.10:  Dogleg Str Max 
 DRET.      23.12.00 07-Feb-20:  Drill End Time 
 DRST.      11.30.00 04-Feb-20:  Drill Start Tim 
 DTIM.hr                 61.06:  Time Drilling 
 EDEP.m                3219.01:  End Depth 
 ENG1.         Almaz Almadatov:  Engineer 1 
 ENG2.         Dair Mahammadov:  Engineer 2 
 ENG3.          Nazrin Asgarli:  Engineer 3 
 ETIM.      02.30.00 11-Feb-20:  End Time 
 FLOI.gpm              1100.00:  Flow In 
 FLON.gpm               900.00:  Flow In Min 
 FLOS.cptm               55.00:  Fluid Loss 
 FLOX.gpm              1150.00:  Flow In Max 
 FTRO.       Formation Presure:  FTWD Run Obj 
 HFLO.                      No:  High Flow 
 HPRE.                      No:  High Pressure 
 HTEM.                      No:  High Temp 
 HYDO.m                   1.80:  Hydro Offset 
 IFIN.deg                75.11:  Inc, Final 
 IMAX.deg                75.11:  Inc Max 
 IMIN.deg                33.55:  Inc Min 
 IMND.m                2186.05:  Inc Min Depth 
 IMXD.m                3205.61:  Inc Max Depth 
 JARR.                      No:  Jarring 
 LETM.      23.12.00 07-Feb-20:  Log End Time 
 LOST.hr                     0:  Lost Rig Time 
 LSTM.      11.30.00 04-Feb-20:  Log Start Time 
 MDCL.ppm             40000.00:  Mud Chlorides 
 MDES.     Inversion Oil/Synthetic:  Mud Desc 
 DFD .sg                  1.49:  Mud Density 
 MDMN.sg                  1.49:  Dens Mud Min 
 MDMX.sg                  1.49:  Dens Mud Max 
 MOIL.                      73:  Run Mud Oil % 
 MOWR.                   73:27:  Run Mud OWR 
 MSND.                     0.1:  Run Mud Sand % 
 MSOL.                    20.1:  Run Mud Solids% 
 DFV .spqt               78.00:  Mud Viscosity 
 MWOD.in                  8.00:  MWD Tool OD 
 MWSI.                      No:  Serv Intrp, MWD 
 OTIM.hr                177.15:  Time Operating 
 PCON.          Wear / Scratch:  Pad Condition 
 PMAX.psia            10493.93:  Press Op, Max 
 PV  .cP                 73.00:  Mud PV 
 RUN .                     700:  Run Number 
 ROPA.m/hr               15.00:  ROP Avg 
 ROPN.m/hr               10.00:  ROP Min 
 ROPX.m/hr               35.00:  ROP Max 
 RPMA.rpm               130.00:  RPM Surface Avg 
 RPMN.rpm                80.00:  RPM Surface Min 
 RPMX.rpm               150.00:  RPM Surface Max 
 RRUN.                    L402:  Rig Run Number 
 RTIM.hr                 80.50:  Time Reaming 
 SAZI.deg               155.55:  Azm, Start 
 SDEP.m                2036.00:  Start Depth 
 SIDD.                      No:  Serv Intrp, DD 
 SINC.deg                35.44:  Inc, Start 
 SPPA.psig             4270.00:  SPP Avg 
 SPPN.psig             2800.00:  SPP Min 
 SPPX.psig             4850.00:  SPP Max 
 STIM.      09.30.00 03-Feb-20:  Start Time 
 SVCS.                 DD, MWD:  Services 
 SVER.                    9.20:  Sperry Version 
 TDAT.m                1183.00:  Tot Depth Attmp 
 TDDF.                      No:  Trip for DD 
 TDLG.m                1183.00:  Tot Depth Loggd 
 TFF .                      No:  Trip for Fail 
 TQAA.f-kp               16.00:  Torque Abs Avg 
 TQAN.f-kp               10.00:  Torque Abs Min 
 TQAX.f-kp               20.00:  Torque Abs Max 
 TRRT.°/30m               1.00:  Turn Rotating 
 MRT .                  EWR-M5:  Maximum Recorded Temperature 
 TTMX.degC               80.39:  Max Tool Temp 
 VS01.               13098498 :  Virtual Str1 SN 
 VS02.                90569596:  Virtual Str2 SN 
 VS03.                90523599:  Virtual Str3 SN 
 VS04.                90573553:  Virtual Str4 SN 
 VS05.                90598598:  Virtual Str5 SN 
 VS06.                90577297:  Virtual Str6 SN 
 WBMN.klb                13.00:  WOB Min 
 WITN.         Alistair Sprott:  Customer Rep 
 WITN.           Rufat Babayev:  Customer Rep 2 
 WOBA.klb                15.00:  WOB Avg 
 WOBX.klb                20.00:  WOB Max 
 YP  .lhf2               39.00:  Yield Point 
~Curve Information Block
#MNEM.UNIT                 API CODE     Curve Description
#---------               -----------    ---------------------------
 TIME.HHMMSS            00 000 000 000:  GT Time & Date
 GTDEPTH.m              00 000 000 000:  GT Depth
 GTPQH.psia             00 000 000 000:  GT HR Quartz Pressure
 GTTQ.degC              00 000 000 000:  GT Quartz Temperature
 GTTN.NONE              00 000 000 000:  GT Test Number
 GTET.sec               00 000 000 000:  GT Elapsed Test Time
 GTTVD.m                00 000 000 000:  GT True Vertical Depth
#Other Information
#
#WARRANTY: Halliburton will use its best efforts to furnish customers with 
#accurate information and interpretations that are part of, and incident to, the services 
#provided.  However, Halliburton cannot and does not warrant the accuracy 
#or correctness of such information and interpretations.  Under no circumstances should any 
#such information or interpretation be relied upon as the sole basis for any drilling, 
#completion, production, or financial decision or any procedure involving any risk to the 
#safety of any drilling venture, drilling rig or its crew or any other third party.  The 
#Customer has full responsibility for all drilling, completion and production operation.  
#Halliburton makes no representations or warranties, either expressed or 
#implied, including, but not limited to, the implied warranties of merchantability or fitness 
#for a particular purpose, with respect to the services rendered.  In no event will 
#Halliburton be liable for failure to obtain any particular results or for 
#any damages, including, but not limited to, indirect, special or consequential damages, 
#resulting from the use of any information or interpretation provided by Halliburton.
#
~A           TIME           GTDEPTH  GTPQH  GTTQ  GTTN  GTET   GTTVD  
# ...
   10:10:34.287.08-Feb-2020 3159.51 4880.89 68.40 5.00 345.11 2654.38
   10:10:34.487.08-Feb-2020 3159.51 4880.89 68.40 5.00 345.31 2654.38
   10:10:34.687.08-Feb-2020 3159.51 4881.51 68.40 5.00 345.51 2654.38
   10:10:34.888.08-Feb-2020 3159.51 4881.59 68.40 5.00 345.71 2654.38
   10:10:35.088.08-Feb-2020 3159.51 4881.36 68.40 5.00 345.91 2654.38
   10:10:35.288.08-Feb-2020 3159.51 4881.45 68.39 5.00 346.11 2654.38
   10:10:35.488.08-Feb-2020 3159.51 4881.45 68.39 5.00 346.31 2654.38
   10:10:35.688.08-Feb-2020 3159.51 4881.45 68.39 5.00 346.51 2654.38
   10:10:35.888.08-Feb-2020 3159.51 4881.41 68.39 5.00 346.71 2654.38
   10:10:36.088.08-Feb-2020 3159.51 4881.52 68.39 5.00 346.91 2654.38
   10:10:36.288.08-Feb-2020 3159.51 4881.51 68.39 5.00 347.11 2654.38
   10:10:36.488.08-Feb-2020 3159.51 4881.51 68.39 5.00 347.31 2654.38
   10:10:36.688.08-Feb-2020 3159.51 4881.37 68.39 5.00 347.51 2654.38
   10:10:36.888.08-Feb-2020 3159.51 4881.48 68.39 5.00 347.71 2654.38
   10:10:37.088.08-Feb-2020 3159.51 4881.53 68.39 5.00 347.91 2654.38
   10:10:37.288.08-Feb-2020 3159.51 4881.65 68.39 5.00 348.11 2654.38
   10:10:37.488.08-Feb-2020 3159.51 4881.65 68.39 5.00 348.31 2654.38
   10:10:37.688.08-Feb-2020 3159.51 4881.33 68.39 5.00 348.51 2654.38
   10:10:37.888.08-Feb-2020 3159.51 4881.31 68.39 5.00 348.71 2654.38
   10:10:38.089.08-Feb-2020 3159.51 4881.65 68.39 5.00 348.91 2654.38
   10:10:38.289.08-Feb-2020 3159.51 4881.42 68.39 5.00 349.11 2654.38
   10:10:38.489.08-Feb-2020 3159.51 4881.42 68.39 5.00 349.31 2654.38
   10:10:38.689.08-Feb-2020 3159.51 4881.39 68.39 5.00 349.51 2654.38
   10:10:38.889.08-Feb-2020 3159.51 4881.63 68.39 5.00 349.71 2654.38
   10:10:39.089.08-Feb-2020 3159.51 4881.55 68.39 5.00 349.91 2654.38
   10:10:39.289.08-Feb-2020 3159.51 4881.36 68.39 5.00 350.11 2654.38
   10:10:39.489.08-Feb-2020 3159.51 4881.36 68.39 5.00 350.31 2654.38
   10:10:39.689.08-Feb-2020 3159.51 4881.48 68.39 5.00 350.51 2654.38
   10:10:39.889.08-Feb-2020 3159.51 4881.46 68.39 5.00 350.71 2654.38
   10:10:40.089.08-Feb-2020 3159.51 4881.50 68.39 5.00 350.91 2654.38
   10:10:40.289.08-Feb-2020 3159.51 4881.51 68.39 5.00 351.11 2654.38
   10:10:40.489.08-Feb-2020 3159.51 4881.51 68.39 5.00 351.31 2654.38
   10:10:40.689.08-Feb-2020 3159.51 4881.46 68.39 5.00 351.51 2654.38
   10:10:40.889.08-Feb-2020 3159.51 4881.48 68.39 5.00 351.71 2654.38
   10:10:41.089.08-Feb-2020 3159.51 4881.48 68.39 5.00 351.91 2654.38
   10:10:41.290.08-Feb-2020 3159.51 4881.39 68.39 5.00 352.11 2654.38
   10:10:41.490.08-Feb-2020 3159.51 4881.39 68.39 5.00 352.31 2654.38
   10:10:41.690.08-Feb-2020 3159.51 4881.47 68.39 5.00 352.51 2654.38
   10:10:41.890.08-Feb-2020 3159.51 4881.50 68.39 5.00 352.71 2654.38
   10:10:42.090.08-Feb-2020 3159.51 4881.41 68.39 5.00 352.91 2654.38
   10:10:42.290.08-Feb-2020 3159.51 4881.46 68.39 5.00 353.11 2654.38
   10:10:42.490.08-Feb-2020 3159.51 4881.46 68.39 5.00 353.31 2654.38
   10:10:42.690.08-Feb-2020 3159.51 4881.41 68.39 5.00 353.51 2654.38
   10:10:42.890.08-Feb-2020 3159.51 4881.43 68.39 5.00 353.71 2654.38
   10:10:43.090.08-Feb-2020 3159.51 4881.58 68.39 5.00 353.91 2654.38
   10:10:43.290.08-Feb-2020 3159.51 4881.31 68.39 5.00 354.11 2654.38
   10:10:43.490.08-Feb-2020 3159.51 4881.31 68.39 5.00 354.31 2654.38
   10:10:43.690.08-Feb-2020 3159.51 4881.89 68.39 5.00 354.51 2654.38
   10:10:43.890.08-Feb-2020 3159.51 4881.03 68.39 5.00 354.71 2654.38
   10:10:44.090.08-Feb-2020 3159.51 4881.31 68.39 5.00 354.91 2654.38
   10:10:44.290.08-Feb-2020 3159.51 4882.16 68.39 5.00 355.11 2654.38
   10:10:44.491.08-Feb-2020 3159.51 4882.16 68.39 5.00 355.31 2654.38
   10:10:44.691.08-Feb-2020 3159.51 4881.12 68.39 5.00 355.51 2654.38
   10:10:44.891.08-Feb-2020 3159.51 4881.52 68.39 5.00 355.71 2654.38
   10:10:45.091.08-Feb-2020 3159.51 4881.74 68.39 5.00 355.91 2654.38
   10:10:45.291.08-Feb-2020 3159.51 4881.29 68.39 5.00 356.11 2654.38
   10:10:45.491.08-Feb-2020 3159.51 4881.29 68.39 5.00 356.31 2654.38
   10:10:45.691.08-Feb-2020 3159.51 4881.01 68.39 5.00 356.51 2654.38
   10:10:45.891.08-Feb-2020 3159.51 4881.33 68.39 5.00 356.71 2654.38
   10:10:46.091.08-Feb-2020 3159.51 4881.39 68.39 5.00 356.91 2654.38
   10:10:46.291.08-Feb-2020 3159.51 4881.59 68.39 5.00 357.11 2654.38
   10:10:46.491.08-Feb-2020 3159.51 4881.59 68.39 5.00 357.31 2654.38
   10:10:46.691.08-Feb-2020 3159.51 4881.47 68.39 5.00 357.51 2654.38
   10:10:46.891.08-Feb-2020 3159.51 4881.52 68.39 5.00 357.71 2654.38
   10:10:47.091.08-Feb-2020 3159.51 4881.49 68.39 5.00 357.91 2654.38
   10:10:47.291.08-Feb-2020 3159.51 4881.48 68.39 5.00 358.11 2654.38
   10:10:47.491.08-Feb-2020 3159.51 4881.48 68.39 5.00 358.31 2654.38
   10:10:47.692.08-Feb-2020 3159.51 4881.44 68.39 5.00 358.51 2654.38
   10:10:47.892.08-Feb-2020 3159.51 4881.53 68.39 5.00 358.71 2654.38
   10:10:48.092.08-Feb-2020 3159.51 4881.55 68.39 5.00 358.91 2654.38
   10:10:48.292.08-Feb-2020 3159.51 4881.30 68.39 5.00 359.11 2654.38
   10:10:48.492.08-Feb-2020 3159.51 4881.30 68.39 5.00 359.31 2654.38
   10:10:48.692.08-Feb-2020 3159.51 4881.46 68.39 5.00 359.51 2654.38
   10:10:48.892.08-Feb-2020 3159.51 4881.44 68.39 5.00 359.71 2654.38
   10:10:49.092.08-Feb-2020 3159.51 4881.43 68.39 5.00 359.91 2654.38
   10:10:49.292.08-Feb-2020 3159.51 4881.48 68.39 5.00 360.11 2654.38
   10:10:49.492.08-Feb-2020 3159.51 4881.48 68.39 5.00 360.31 2654.38
   10:10:49.692.08-Feb-2020 3159.51 4881.41 68.38 5.00 360.51 2654.38
   10:10:49.892.08-Feb-2020 3159.51 4882.15 68.38 5.00 360.71 2654.38
   10:10:50.092.08-Feb-2020 3159.51 4881.01 68.38 5.00 360.91 2654.38
   10:10:50.292.08-Feb-2020 3159.51 4881.12 68.38 5.00 361.11 2654.38
   10:10:50.492.08-Feb-2020 3159.51 4881.12 68.38 5.00 361.31 2654.38
   10:10:50.692.08-Feb-2020 3159.51 4881.23 68.38 5.00 361.51 2654.38
   10:10:50.893.08-Feb-2020 3159.51 4881.03 68.38 5.00 361.71 2654.38
   10:10:51.093.08-Feb-2020 3159.51 4881.52 68.38 5.00 361.91 2654.38
   10:10:51.293.08-Feb-2020 3159.51 4881.59 68.38 5.00 362.11 2654.38
   10:10:51.493.08-Feb-2020 3159.51 4881.59 68.38 5.00 362.31 2654.38
   10:10:51.693.08-Feb-2020 3159.51 4882.14 68.38 5.00 362.51 2654.38
   10:10:51.893.08-Feb-2020 3159.51 4880.99 68.38 5.00 362.71 2654.38
   10:10:52.093.08-Feb-2020 3159.51 4881.09 68.38 5.00 362.91 2654.38
   10:10:52.293.08-Feb-2020 3159.51 4881.35 68.38 5.00 363.11 2654.38
   10:10:52.493.08-Feb-2020 3159.51 4881.35 68.38 5.00 363.31 2654.38
   10:10:52.693.08-Feb-2020 3159.51 4881.23 68.38 5.00 363.51 2654.38
   10:10:52.893.08-Feb-2020 3159.51 4881.27 68.38 5.00 363.71 2654.38
   10:10:53.093.08-Feb-2020 3159.51 4881.54 68.38 5.00 363.91 2654.38
   10:10:53.293.08-Feb-2020 3159.51 4881.55 68.38 5.00 364.11 2654.38
   10:10:53.493.08-Feb-2020 3159.51 4881.55 68.38 5.00 364.31 2654.38
   10:10:53.693.08-Feb-2020 3159.51 4881.51 68.38 5.00 364.51 2654.38
   10:10:53.893.08-Feb-2020 3159.51 4881.48 68.38 5.00 364.71 2654.38
   10:10:54.094.08-Feb-2020 3159.51 4881.46 68.38 5.00 364.91 2654.38
   10:10:54.294.08-Feb-2020 3159.51 4881.41 68.38 5.00 365.11 2654.38
   10:10:54.494.08-Feb-2020 3159.51 4881.41 68.38 5.00 365.31 2654.38
   10:10:54.694.08-Feb-2020 3159.51 4882.08 68.38 5.00 365.51 2654.38
   10:10:54.894.08-Feb-2020 3159.51 4880.90 68.38 5.00 365.71 2654.38
   10:10:55.094.08-Feb-2020 3159.51 4881.15 68.38 5.00 365.91 2654.38
   10:10:55.294.08-Feb-2020 3159.51 4881.50 68.38 5.00 366.11 2654.38
   10:10:55.494.08-Feb-2020 3159.51 4881.50 68.38 5.00 366.31 2654.38
   10:10:55.694.08-Feb-2020 3159.51 4881.62 68.38 5.00 366.51 2654.38
   10:10:55.894.08-Feb-2020 3159.51 4881.49 68.38 5.00 366.71 2654.38
   10:10:56.094.08-Feb-2020 3159.51 4881.54 68.38 5.00 366.91 2654.38
   10:10:56.294.08-Feb-2020 3159.51 4881.46 68.38 5.00 367.11 2654.38
   10:10:56.494.08-Feb-2020 3159.51 4881.46 68.38 5.00 367.31 2654.38
   10:10:56.694.08-Feb-2020 3159.51 4881.52 68.38 5.00 367.51 2654.38
   10:10:56.894.08-Feb-2020 3159.51 4881.63 68.38 5.00 367.71 2654.38
   10:10:57.094.08-Feb-2020 3159.51 4881.28 68.38 5.00 367.91 2654.38
