~Version Information
 VERS.                  2.0:   CWLS log ASCII Standard -VERSION 2.0
 WRAP.                   NO:   One line per depth step
~Well Information Block
#MNEM.UNIT     VALUE/NAME     DESCRIPTION
#---------     -----------    ---------------------------
 STRT.S             09:27:25 08-Feb-20: START TIME 09:27:25 08-Feb-20
 STOP.S             09:34:14 08-Feb-20: STOP TIME  09:34:14 08-Feb-20
 STEP.S                   0.00: STEP TIME
 NULL.                 -999.25: NULL VALUE
 DFWT.                        :  DIST FWL TEXT
 DFST.                        :  DIST FSL TEXT
 DMF .             Drill Floor:  DRILL MEAS FROM
 STIM.      07.00.00 09-Jan-20:  START TIME
 DATE.      14.04.48 07-Feb-20:  END TIME
 SPUD.               09-Jan-20:  SPUD DATE
 NREF.                    Grid:  NORTH REFERENCE
 HPTY.       Minimum Curvature:  HOLE POS TYPE
 DMOD.             Drill Model:  DRILL MOD DESC
 SVYD.                  Survey:  SURVEY DESC
 ILTD.               Lithology:  INTERP LTH DESC
 FTOP.          Formation Tops:  FORM TOPS DESC
 SON .        AZ-XX-0905059384:  JOB NUMBER
 MDS .        Operator Entered:  MAG DATA SOURCE
 WTYP.                Deviated:  WELL TYPE
 COMP.     BP Exploration (Caspian Sea) Ltd.:  COMPANY
 UWI .                     N/A:  UNIQUE WELL IDENTIFIER
 API .                     N/A:  API NUMBER
 BASE.              Azerbaijan:  LOGGING EQUIPMENT BASE LOCATION
 REGN.                   EESSA:  REGION
 PROV.                    Baku:  PROVINCE
 STAT.                    Baku:  STATE NAME
 CTRY.              Azerbaijan:  COUNTRY NAME
 FLD .                     ACG:  FIELD NAME
 SRVC.     TURAN Drilling & Engineering:  CONTRACTOR
 MWDS.                    Baku:  MWD SHOP
 WELL.                     J22:  WELL NAME
 RIG .             West Chirag:  RIG NAME
 DOE .                     N/A:  DOE NUMBER
 DCON.         Sperry Drilling:  DIRECTNL CONTR
 UNIT.                     N/A:  LOGGING EQUIPMENT ID
 PDAT.          Mean Sea Level:  PERMANENT DATUM
 JOBN.        AZ-XX-0905059384:  JOB TICKET NUMB
 CNTY.                        :  COUNTY
 LOC .                        :  LOCATION
 LMF .             Drill Floor:  LOG MEASURED FROM
 TVDS.m                  43.00:  TVDSS CORRECTN
 LATI.deg                40.13:  LATITUDE
 LONG.deg                51.22:  LONGITUDE
 WHNS.m                  10.28:  WELL HEAD N/S
 WHEW.m                  -6.24:  WELL HEAD E/W
 UTMX.m              519005.06:  UTM X
 UTMY.m             4443793.85:  UTM Y
 DFWL.m                   0.00:  DISTANCE FWL
 DFSL.m                   0.00:  DISTANCE FSL
 SDEP.m                 362.00:  START DEPTH
 TDD .m                 904.00:  TOTAL DEPTH (DRILLER)
 VSDR.deg               148.53:  VERT SEC DIRECT
 GVFD.g                   1.00:  GRAVITY FIELD
 MFLD.nT              50277.00:  MAGNETIC FIELD
 MDIP.deg                59.56:  MAGNETIC DIP
 MDEC.deg                 6.42:  MAGNETIC DECL
 GRDC.deg                 0.15:  GRID CORRECTION
 AZTC.deg                 6.27:  AZM TOTAL CORR
 EPD .m                   0.00:  ELEVATION
 EGL .m                   0.00:  GROUND ELEVATION
 WDMS.m                 169.80:  WD ELEV
 APD .m                  43.00:  DEPTH ABOVE PD
 AGAP.m                  43.00:  AIR GAP
 VSEW.m                  -6.24:  VERT SEC E/W
 VSNS.m                  10.28:  VERT SEC N/S
 DEP .m                   0.00:  DEPTH
 EKB .m                   0.00:  KB ELEVATION
 EDF .m                  43.00:  DF ELEVATION
 TDL .m                1183.00:  TOTAL DEPTH (LOGGER)
 VSC .                       0:  VS TO CLOSURE
 MAGU.                 1850021:  MAGUTM CHECKSUM
~Parameter Information Block
#MNEM.UNIT       Value        Description
#---------     -----------    ---------------------------
 AV  .mps                 4.00:  Ann Velocity 
 AVMX.mps                 4.50:  Max Ann Veloc 
 AZIF.deg               145.38:  Azm, Final 
 BHAT.        Rotary Steerable:  BHA Type 
 BROT.∞/30m               3.00:  Build Rotating 
 BS  .in                 12.25:  Bit Size 
 BSZ .in                 12.25:  Bit Size 
 BTPL.psig              650.00:  Bit Press Loss 
 CABU.                      No:  Customer Abuse 
 COMM.                     $ÊW:  Run Comments 1 
 TCS .hr                101.62:  Time Ciculation Ended 
 CV  .mps                 5.00:  Crit Velocity 
 CVMX.mps                 5.00:  Max Crit Veloc 
 DD1 .             Aziz Aliyev:  Direct Drillr 1 
 DD2 .      Fakhraddin Guliyev:  Direct Drillr 2 
 DDSV.                 iCruise:  DD Service 
 DEFF.%                  97.00:  % Det Eff 
 DLRX.∞/30m               4.16:  Dogleg Rot Max 
 DLSO.∞/30m               3.20:  Dogleg Oriented 
 DLSX.∞/30m               4.10:  Dogleg Str Max 
 DRET.      23.12.00 07-Feb-20:  Drill End Time 
 DRST.      11.30.00 04-Feb-20:  Drill Start Tim 
 DTIM.hr                 61.06:  Time Drilling 
 EDEP.m                3219.01:  End Depth 
 ENG1.         Almaz Almadatov:  Engineer 1 
 ENG2.         Dair Mahammadov:  Engineer 2 
 ENG3.          Nazrin Asgarli:  Engineer 3 
 ETIM.      02.30.00 11-Feb-20:  End Time 
 FLOI.gpm              1100.00:  Flow In 
 FLON.gpm               900.00:  Flow In Min 
 FLOS.cptm               55.00:  Fluid Loss 
 FLOX.gpm              1150.00:  Flow In Max 
 FTRO.       Formation Presure:  FTWD Run Obj 
 HFLO.                      No:  High Flow 
 HPRE.                      No:  High Pressure 
 HTEM.                      No:  High Temp 
 HYDO.m                   1.80:  Hydro Offset 
 IFIN.deg                75.11:  Inc, Final 
 IMAX.deg                75.11:  Inc Max 
 IMIN.deg                33.55:  Inc Min 
 IMND.m                2186.05:  Inc Min Depth 
 IMXD.m                3205.61:  Inc Max Depth 
 JARR.                      No:  Jarring 
 LETM.      23.12.00 07-Feb-20:  Log End Time 
 LOST.hr                     0:  Lost Rig Time 
 LSTM.      11.30.00 04-Feb-20:  Log Start Time 
 MDCL.ppm             40000.00:  Mud Chlorides 
 MDES.     Inversion Oil/Synthetic:  Mud Desc 
 DFD .sg                  1.49:  Mud Density 
 MDMN.sg                  1.49:  Dens Mud Min 
 MDMX.sg                  1.49:  Dens Mud Max 
 MOIL.                      73:  Run Mud Oil % 
 MOWR.                   73:27:  Run Mud OWR 
 MSND.                     0.1:  Run Mud Sand % 
 MSOL.                    20.1:  Run Mud Solids% 
 DFV .spqt               78.00:  Mud Viscosity 
 MWOD.in                  8.00:  MWD Tool OD 
 MWSI.                      No:  Serv Intrp, MWD 
 OTIM.hr                177.15:  Time Operating 
 PCON.          Wear / Scratch:  Pad Condition 
 PMAX.psia            10493.93:  Press Op, Max 
 PV  .cP                 73.00:  Mud PV 
 RUN .                     700:  Run Number 
 ROPA.m/hr               15.00:  ROP Avg 
 ROPN.m/hr               10.00:  ROP Min 
 ROPX.m/hr               35.00:  ROP Max 
 RPMA.rpm               130.00:  RPM Surface Avg 
 RPMN.rpm                80.00:  RPM Surface Min 
 RPMX.rpm               150.00:  RPM Surface Max 
 RRUN.                    L402:  Rig Run Number 
 RTIM.hr                 80.50:  Time Reaming 
 SAZI.deg               155.55:  Azm, Start 
 SDEP.m                2036.00:  Start Depth 
 SIDD.                      No:  Serv Intrp, DD 
 SINC.deg                35.44:  Inc, Start 
 SPPA.psig             4270.00:  SPP Avg 
 SPPN.psig             2800.00:  SPP Min 
 SPPX.psig             4850.00:  SPP Max 
 STIM.      09.30.00 03-Feb-20:  Start Time 
 SVCS.                 DD, MWD:  Services 
 SVER.                    9.20:  Sperry Version 
 TDAT.m                1183.00:  Tot Depth Attmp 
 TDDF.                      No:  Trip for DD 
 TDLG.m                1183.00:  Tot Depth Loggd 
 TFF .                      No:  Trip for Fail 
 TQAA.f-kp               16.00:  Torque Abs Avg 
 TQAN.f-kp               10.00:  Torque Abs Min 
 TQAX.f-kp               20.00:  Torque Abs Max 
 TRRT.∞/30m               1.00:  Turn Rotating 
 MRT .                  EWR-M5:  Maximum Recorded Temperature 
 TTMX.degC               80.39:  Max Tool Temp 
 VS01.               13098498 :  Virtual Str1 SN 
 VS02.                90569596:  Virtual Str2 SN 
 VS03.                90523599:  Virtual Str3 SN 
 VS04.                90573553:  Virtual Str4 SN 
 VS05.                90598598:  Virtual Str5 SN 
 VS06.                90577297:  Virtual Str6 SN 
 WBMN.klb                13.00:  WOB Min 
 WITN.         Alistair Sprott:  Customer Rep 
 WITN.           Rufat Babayev:  Customer Rep 2 
 WOBA.klb                15.00:  WOB Avg 
 WOBX.klb                20.00:  WOB Max 
 YP  .lhf2               39.00:  Yield Point 
~Curve Information Block
#MNEM.UNIT                 API CODE     Curve Description
#---------               -----------    ---------------------------
 TIME.HHMMSS            00 000 000 000:  GT Time & Date
 GTDEPTH.m              00 000 000 000:  GT Depth
 GTPQH.psia             00 000 000 000:  GT HR Quartz Pressure
 GTTQ.degC              00 000 000 000:  GT Quartz Temperature
 GTTN.NONE              00 000 000 000:  GT Test Number
 GTET.sec               00 000 000 000:  GT Elapsed Test Time
 GTTVD.m                00 000 000 000:  GT True Vertical Depth
#Other Information
#
#WARRANTY: Halliburton will use its best efforts to furnish customers with 
#accurate information and interpretations that are part of, and incident to, the services 
#provided.  However, Halliburton cannot and does not warrant the accuracy 
#or correctness of such information and interpretations.  Under no circumstances should any 
#such information or interpretation be relied upon as the sole basis for any drilling, 
#completion, production, or financial decision or any procedure involving any risk to the 
#safety of any drilling venture, drilling rig or its crew or any other third party.  The 
#Customer has full responsibility for all drilling, completion and production operation.  
#Halliburton makes no representations or warranties, either expressed or 
#implied, including, but not limited to, the implied warranties of merchantability or fitness 
#for a particular purpose, with respect to the services rendered.  In no event will 
#Halliburton be liable for failure to obtain any particular results or for 
#any damages, including, but not limited to, indirect, special or consequential damages, 
#resulting from the use of any information or interpretation provided by Halliburton.
#
~A           TIME           GTDEPTH  GTPQH  GTTQ  GTTN  GTET   GTTVD  
   09:27:25.860.08-Feb-2020 3135.01 5780.56 69.30 4.00   0.00 2647.94
   09:27:26.060.08-Feb-2020 3135.01 5780.56 69.30 4.00   0.20 2647.94
   09:27:26.260.08-Feb-2020 3135.01 5788.24 69.30 4.00   0.40 2647.94
   09:27:26.460.08-Feb-2020 3135.01 5782.72 69.30 4.00   0.60 2647.94
   09:27:26.660.08-Feb-2020 3135.01 5782.92 69.30 4.00   0.80 2647.94
   09:27:26.860.08-Feb-2020 3135.01 5782.89 69.30 4.00   1.00 2647.94
   09:27:27.060.08-Feb-2020 3135.01 5782.89 69.30 4.00   1.20 2647.94
   09:27:27.260.08-Feb-2020 3135.01 5785.68 69.30 4.00   1.40 2647.94
   09:27:27.460.08-Feb-2020 3135.01 5786.07 69.30 4.00   1.60 2647.94
   09:27:27.660.08-Feb-2020 3135.01 5786.18 69.30 4.00   1.80 2647.94
   09:27:27.860.08-Feb-2020 3135.01 5786.81 69.30 4.00   2.00 2647.94
   09:27:28.060.08-Feb-2020 3135.01 5786.81 69.30 4.00   2.20 2647.94
   09:27:28.260.08-Feb-2020 3135.01 5787.85 69.30 4.00   2.40 2647.94
   09:27:28.460.08-Feb-2020 3135.01 5790.97 69.30 4.00   2.60 2647.94
   09:27:28.660.08-Feb-2020 3135.01 5789.07 69.30 4.00   2.80 2647.94
   09:27:28.861.08-Feb-2020 3135.01 5786.01 69.30 4.00   3.00 2647.94
   09:27:29.061.08-Feb-2020 3135.01 5786.01 69.30 4.00   3.20 2647.94
   09:27:29.261.08-Feb-2020 3135.01 5789.85 69.30 4.00   3.40 2647.94
   09:27:29.461.08-Feb-2020 3135.01 5787.54 69.30 4.00   3.60 2647.94
   09:27:29.661.08-Feb-2020 3135.01 5784.26 69.30 4.00   3.80 2647.94
   09:27:29.861.08-Feb-2020 3135.01 5783.34 69.30 4.00   4.00 2647.94
   09:27:30.061.08-Feb-2020 3135.01 5783.34 69.30 4.00   4.20 2647.94
   09:27:30.261.08-Feb-2020 3135.01 5784.34 69.30 4.00   4.40 2647.94
   09:27:30.461.08-Feb-2020 3135.01 5781.39 69.30 4.00   4.60 2647.94
   09:27:30.661.08-Feb-2020 3135.01 5781.71 69.30 4.00   4.80 2647.94
   09:27:30.861.08-Feb-2020 3135.01 5781.95 69.30 4.00   5.00 2647.94
   09:27:31.061.08-Feb-2020 3135.01 5781.95 69.30 4.00   5.20 2647.94
   09:27:31.261.08-Feb-2020 3135.01 5777.97 69.30 4.00   5.40 2647.94
   09:27:31.461.08-Feb-2020 3135.01 5777.29 69.30 4.00   5.60 2647.94
   09:27:31.661.08-Feb-2020 3135.01 5779.05 69.30 4.00   5.80 2647.94
   09:27:31.861.08-Feb-2020 3135.01 5779.54 69.30 4.00   6.00 2647.94
   09:27:32.061.08-Feb-2020 3135.01 5779.54 69.30 4.00   6.20 2647.94
   09:27:32.261.08-Feb-2020 3135.01 5777.24 69.30 4.00   6.40 2647.94
   09:27:32.461.08-Feb-2020 3135.01 5777.11 69.30 4.00   6.60 2647.94
   09:27:32.661.08-Feb-2020 3135.01 5784.21 69.30 4.00   6.80 2647.94
   09:27:32.861.08-Feb-2020 3135.01 5777.77 69.29 4.00   7.00 2647.94
   09:27:33.061.08-Feb-2020 3135.01 5777.77 69.29 4.00   7.20 2647.94
   09:27:33.261.08-Feb-2020 3135.01 5775.48 69.29 4.00   7.40 2647.94
   09:27:33.461.08-Feb-2020 3135.01 5776.35 69.29 4.00   7.60 2647.94
   09:27:33.661.08-Feb-2020 3135.01 5776.31 69.29 4.00   7.80 2647.94
   09:27:33.861.08-Feb-2020 3135.01 5775.51 69.29 4.00   8.00 2647.94
   09:27:34.061.08-Feb-2020 3135.01 5775.51 69.29 4.00   8.20 2647.94
   09:27:34.261.08-Feb-2020 3135.01 5774.56 69.29 4.00   8.40 2647.94
   09:27:34.461.08-Feb-2020 3135.01 5774.51 69.29 4.00   8.60 2647.94
   09:27:34.661.08-Feb-2020 3135.01 5774.57 69.29 4.00   8.80 2647.94
   09:27:34.861.08-Feb-2020 3135.01 5779.72 69.29 4.00   9.00 2647.94
   09:27:35.061.08-Feb-2020 3135.01 5779.72 69.29 4.00   9.20 2647.94
   09:27:35.261.08-Feb-2020 3135.01 5771.39 69.29 4.00   9.40 2647.94
   09:27:35.461.08-Feb-2020 3135.01 5770.64 69.29 4.00   9.60 2647.94
   09:27:35.661.08-Feb-2020 3135.01 5771.46 69.29 4.00   9.80 2647.94
   09:27:35.861.08-Feb-2020 3135.01 5770.74 69.29 4.00  10.00 2647.94
   09:27:36.061.08-Feb-2020 3135.01 5770.74 69.29 4.00  10.20 2647.94
   09:27:36.261.08-Feb-2020 3135.01 5770.21 69.29 4.00  10.40 2647.94
   09:27:36.461.08-Feb-2020 3135.01 5770.11 69.29 4.00  10.60 2647.94
   09:27:36.661.08-Feb-2020 3135.01 5770.04 69.29 4.00  10.80 2647.94
   09:27:36.861.08-Feb-2020 3135.01 5770.50 69.29 4.00  11.00 2647.94
   09:27:37.061.08-Feb-2020 3135.01 5770.50 69.29 4.00  11.20 2647.94
   09:27:37.261.08-Feb-2020 3135.01 5771.57 69.29 4.00  11.40 2647.94
   09:27:37.461.08-Feb-2020 3135.01 5770.65 69.29 4.00  11.60 2647.94
   09:27:37.661.08-Feb-2020 3135.01 5771.65 69.29 4.00  11.80 2647.94
   09:27:37.861.08-Feb-2020 3135.01 5778.94 69.29 4.00  12.00 2647.94
   09:27:38.061.08-Feb-2020 3135.01 5778.94 69.29 4.00  12.20 2647.94
   09:27:38.261.08-Feb-2020 3135.01 5772.58 69.29 4.00  12.40 2647.94
   09:27:38.461.08-Feb-2020 3135.01 5772.89 69.29 4.00  12.60 2647.94
   09:27:38.661.08-Feb-2020 3135.01 5779.06 69.29 4.00  12.80 2647.94
   09:27:38.861.08-Feb-2020 3135.01 5774.34 69.29 4.00  13.00 2647.94
   09:27:39.061.08-Feb-2020 3135.01 5774.34 69.29 4.00  13.20 2647.94
   09:27:39.261.08-Feb-2020 3135.01 5772.44 69.29 4.00  13.40 2647.94
   09:27:39.461.08-Feb-2020 3135.01 5779.47 69.29 4.00  13.60 2647.94
   09:27:39.661.08-Feb-2020 3135.01 5773.67 69.29 4.00  13.80 2647.94
   09:27:39.861.08-Feb-2020 3135.01 5772.97 69.29 4.00  14.00 2647.94
   09:27:40.061.08-Feb-2020 3135.01 5772.97 69.29 4.00  14.20 2647.94
   09:27:40.261.08-Feb-2020 3135.01 5772.97 69.29 4.00  14.40 2647.94
   09:27:40.461.08-Feb-2020 3135.01 5774.50 69.29 4.00  14.60 2647.94
   09:27:40.661.08-Feb-2020 3135.01 5775.23 69.29 4.00  14.80 2647.94
   09:27:40.862.08-Feb-2020 3135.01 5776.48 69.29 4.00  15.00 2647.94
   09:27:41.062.08-Feb-2020 3135.01 5776.48 69.29 4.00  15.20 2647.94
   09:27:41.262.08-Feb-2020 3135.01 5778.95 69.29 4.00  15.40 2647.94
   09:27:41.462.08-Feb-2020 3135.01 5778.95 69.28 4.00  15.60 2647.94
   09:27:41.662.08-Feb-2020 3135.01 5776.69 69.28 4.00  15.80 2647.94
   09:27:41.862.08-Feb-2020 3135.01 5776.46 69.28 4.00  16.00 2647.94
   09:27:42.062.08-Feb-2020 3135.01 5776.46 69.28 4.00  16.20 2647.94
   09:27:42.262.08-Feb-2020 3135.01 5777.18 69.28 4.00  16.40 2647.94
   09:27:42.462.08-Feb-2020 3135.01 5777.71 69.28 4.00  16.60 2647.94
   09:27:42.662.08-Feb-2020 3135.01 5778.67 69.28 4.00  16.80 2647.94
   09:27:42.862.08-Feb-2020 3135.01 5779.69 69.28 4.00  17.00 2647.94
   09:27:43.062.08-Feb-2020 3135.01 5779.69 69.28 4.00  17.20 2647.94
   09:27:43.262.08-Feb-2020 3135.01 5786.48 69.28 4.00  17.40 2647.94
   09:27:43.462.08-Feb-2020 3135.01 5781.56 69.28 4.00  17.60 2647.94
   09:27:43.662.08-Feb-2020 3135.01 5780.32 69.28 4.00  17.80 2647.94
   09:27:43.862.08-Feb-2020 3135.01 5780.70 69.28 4.00  18.00 2647.94
   09:27:44.062.08-Feb-2020 3135.01 5780.70 69.28 4.00  18.20 2647.94
   09:27:44.262.08-Feb-2020 3135.01 5780.24 69.28 4.00  18.40 2647.94
   09:27:44.462.08-Feb-2020 3135.01 5779.37 69.28 4.00  18.60 2647.94
   09:27:44.662.08-Feb-2020 3135.01 5779.35 69.28 4.00  18.80 2647.94
   09:27:44.862.08-Feb-2020 3135.01 5778.58 69.28 4.00  19.00 2647.94
   09:27:45.062.08-Feb-2020 3135.01 5778.58 69.28 4.00  19.20 2647.94
   09:27:45.262.08-Feb-2020 3135.01 5778.28 69.28 4.00  19.40 2647.94
   09:27:45.462.08-Feb-2020 3135.01 5782.62 69.28 4.00  19.60 2647.94
   09:27:45.662.08-Feb-2020 3135.01 5780.19 69.28 4.00  19.80 2647.94
   09:27:45.862.08-Feb-2020 3135.01 5778.48 69.28 4.00  20.00 2647.94
   09:27:46.062.08-Feb-2020 3135.01 5778.48 69.28 4.00  20.20 2647.94
   09:27:46.262.08-Feb-2020 3135.01 5782.58 69.28 4.00  20.40 2647.94
   09:27:46.462.08-Feb-2020 3135.01 5778.20 69.28 4.00  20.60 2647.94
   09:27:46.662.08-Feb-2020 3135.01 5778.05 69.28 4.00  20.80 2647.94
   09:27:46.862.08-Feb-2020 3135.01 5784.92 69.28 4.00  21.00 2647.94
   09:27:47.062.08-Feb-2020 3135.01 5784.92 69.28 4.00  21.20 2647.94
   09:27:47.262.08-Feb-2020 3135.01 5777.62 69.28 4.00  21.40 2647.94
   09:27:47.462.08-Feb-2020 3135.01 5781.45 69.28 4.00  21.60 2647.94
   09:27:47.662.08-Feb-2020 3135.01 5781.45 69.28 4.00  21.80 2647.94
   09:27:47.862.08-Feb-2020 3135.01 5780.77 69.28 4.00  22.00 2647.94
   09:27:48.062.08-Feb-2020 3135.01 5780.77 69.28 4.00  22.20 2647.94
   09:27:48.262.08-Feb-2020 3135.01 5780.07 69.28 4.00  22.40 2647.94
   09:27:48.462.08-Feb-2020 3135.01 5776.69 69.28 4.00  22.60 2647.94
   09:27:48.662.08-Feb-2020 3135.01 5778.27 69.28 4.00  22.80 2647.94
