~Version Information
 VERS.                  2.0:   CWLS log ASCII Standard -VERSION 2.0
 WRAP.                   NO:   One line per depth step
~Well Information Block
#MNEM.UNIT     VALUE/NAME     DESCRIPTION
#---------     -----------    ---------------------------
 STRT.S             11:02:51 08-Feb-20: START TIME 11:02:51 08-Feb-20
 STOP.S             11:09:43 08-Feb-20: STOP TIME  11:09:43 08-Feb-20
 STEP.S                   0.00: STEP TIME
 NULL.                 -999.25: NULL VALUE
 DFWT.                        :  DIST FWL TEXT
 DFST.                        :  DIST FSL TEXT
 DMF .             Drill Floor:  DRILL MEAS FROM
 STIM.      07.00.00 09-Jan-20:  START TIME
 DATE.      14.04.48 07-Feb-20:  END TIME
 SPUD.               09-Jan-20:  SPUD DATE
 NREF.                    Grid:  NORTH REFERENCE
 HPTY.       Minimum Curvature:  HOLE POS TYPE
 DMOD.             Drill Model:  DRILL MOD DESC
 SVYD.                  Survey:  SURVEY DESC
 ILTD.               Lithology:  INTERP LTH DESC
 FTOP.          Formation Tops:  FORM TOPS DESC
 SON .        AZ-XX-0905059384:  JOB NUMBER
 MDS .        Operator Entered:  MAG DATA SOURCE
 WTYP.                Deviated:  WELL TYPE
 COMP.     BP Exploration (Caspian Sea) Ltd.:  COMPANY
 UWI .                     N/A:  UNIQUE WELL IDENTIFIER
 API .                     N/A:  API NUMBER
 BASE.              Azerbaijan:  LOGGING EQUIPMENT BASE LOCATION
 REGN.                   EESSA:  REGION
 PROV.                    Baku:  PROVINCE
 STAT.                    Baku:  STATE NAME
 CTRY.              Azerbaijan:  COUNTRY NAME
 FLD .                     ACG:  FIELD NAME
 SRVC.     TURAN Drilling & Engineering:  CONTRACTOR
 MWDS.                    Baku:  MWD SHOP
 WELL.                     J22:  WELL NAME
 RIG .             West Chirag:  RIG NAME
 DOE .                     N/A:  DOE NUMBER
 DCON.         Sperry Drilling:  DIRECTNL CONTR
 UNIT.                     N/A:  LOGGING EQUIPMENT ID
 PDAT.          Mean Sea Level:  PERMANENT DATUM
 JOBN.        AZ-XX-0905059384:  JOB TICKET NUMB
 CNTY.                        :  COUNTY
 LOC .                        :  LOCATION
 LMF .             Drill Floor:  LOG MEASURED FROM
 TVDS.m                  43.00:  TVDSS CORRECTN
 LATI.deg                40.13:  LATITUDE
 LONG.deg                51.22:  LONGITUDE
 WHNS.m                  10.28:  WELL HEAD N/S
 WHEW.m                  -6.24:  WELL HEAD E/W
 UTMX.m              519005.06:  UTM X
 UTMY.m             4443793.85:  UTM Y
 DFWL.m                   0.00:  DISTANCE FWL
 DFSL.m                   0.00:  DISTANCE FSL
 SDEP.m                 362.00:  START DEPTH
 TDD .m                 904.00:  TOTAL DEPTH (DRILLER)
 VSDR.deg               148.53:  VERT SEC DIRECT
 GVFD.g                   1.00:  GRAVITY FIELD
 MFLD.nT              50277.00:  MAGNETIC FIELD
 MDIP.deg                59.56:  MAGNETIC DIP
 MDEC.deg                 6.42:  MAGNETIC DECL
 GRDC.deg                 0.15:  GRID CORRECTION
 AZTC.deg                 6.27:  AZM TOTAL CORR
 EPD .m                   0.00:  ELEVATION
 EGL .m                   0.00:  GROUND ELEVATION
 WDMS.m                 169.80:  WD ELEV
 APD .m                  43.00:  DEPTH ABOVE PD
 AGAP.m                  43.00:  AIR GAP
 VSEW.m                  -6.24:  VERT SEC E/W
 VSNS.m                  10.28:  VERT SEC N/S
 DEP .m                   0.00:  DEPTH
 EKB .m                   0.00:  KB ELEVATION
 EDF .m                  43.00:  DF ELEVATION
 TDL .m                1183.00:  TOTAL DEPTH (LOGGER)
 VSC .                       0:  VS TO CLOSURE
 MAGU.                 1850021:  MAGUTM CHECKSUM
~Parameter Information Block
#MNEM.UNIT       Value        Description
#---------     -----------    ---------------------------
 AV  .mps                 4.00:  Ann Velocity 
 AVMX.mps                 4.50:  Max Ann Veloc 
 AZIF.deg               145.38:  Azm, Final 
 BHAT.        Rotary Steerable:  BHA Type 
 BROT.°/30m               3.00:  Build Rotating 
 BS  .in                 12.25:  Bit Size 
 BSZ .in                 12.25:  Bit Size 
 BTPL.psig              650.00:  Bit Press Loss 
 CABU.                      No:  Customer Abuse 
 COMM.                     Ä%€:  Run Comments 1 
 TCS .hr                101.62:  Time Ciculation Ended 
 CV  .mps                 5.00:  Crit Velocity 
 CVMX.mps                 5.00:  Max Crit Veloc 
 DD1 .             Aziz Aliyev:  Direct Drillr 1 
 DD2 .      Fakhraddin Guliyev:  Direct Drillr 2 
 DDSV.                 iCruise:  DD Service 
 DEFF.%                  97.00:  % Det Eff 
 DLRX.°/30m               4.16:  Dogleg Rot Max 
 DLSO.°/30m               3.20:  Dogleg Oriented 
 DLSX.°/30m               4.10:  Dogleg Str Max 
 DRET.      23.12.00 07-Feb-20:  Drill End Time 
 DRST.      11.30.00 04-Feb-20:  Drill Start Tim 
 DTIM.hr                 61.06:  Time Drilling 
 EDEP.m                3219.01:  End Depth 
 ENG1.         Almaz Almadatov:  Engineer 1 
 ENG2.         Dair Mahammadov:  Engineer 2 
 ENG3.          Nazrin Asgarli:  Engineer 3 
 ETIM.      02.30.00 11-Feb-20:  End Time 
 FLOI.gpm              1100.00:  Flow In 
 FLON.gpm               900.00:  Flow In Min 
 FLOS.cptm               55.00:  Fluid Loss 
 FLOX.gpm              1150.00:  Flow In Max 
 FTRO.       Formation Presure:  FTWD Run Obj 
 HFLO.                      No:  High Flow 
 HPRE.                      No:  High Pressure 
 HTEM.                      No:  High Temp 
 HYDO.m                   1.80:  Hydro Offset 
 IFIN.deg                75.11:  Inc, Final 
 IMAX.deg                75.11:  Inc Max 
 IMIN.deg                33.55:  Inc Min 
 IMND.m                2186.05:  Inc Min Depth 
 IMXD.m                3205.61:  Inc Max Depth 
 JARR.                      No:  Jarring 
 LETM.      23.12.00 07-Feb-20:  Log End Time 
 LOST.hr                     0:  Lost Rig Time 
 LSTM.      11.30.00 04-Feb-20:  Log Start Time 
 MDCL.ppm             40000.00:  Mud Chlorides 
 MDES.     Inversion Oil/Synthetic:  Mud Desc 
 DFD .sg                  1.49:  Mud Density 
 MDMN.sg                  1.49:  Dens Mud Min 
 MDMX.sg                  1.49:  Dens Mud Max 
 MOIL.                      73:  Run Mud Oil % 
 MOWR.                   73:27:  Run Mud OWR 
 MSND.                     0.1:  Run Mud Sand % 
 MSOL.                    20.1:  Run Mud Solids% 
 DFV .spqt               78.00:  Mud Viscosity 
 MWOD.in                  8.00:  MWD Tool OD 
 MWSI.                      No:  Serv Intrp, MWD 
 OTIM.hr                177.15:  Time Operating 
 PCON.          Wear / Scratch:  Pad Condition 
 PMAX.psia            10493.93:  Press Op, Max 
 PV  .cP                 73.00:  Mud PV 
 RUN .                     700:  Run Number 
 ROPA.m/hr               15.00:  ROP Avg 
 ROPN.m/hr               10.00:  ROP Min 
 ROPX.m/hr               35.00:  ROP Max 
 RPMA.rpm               130.00:  RPM Surface Avg 
 RPMN.rpm                80.00:  RPM Surface Min 
 RPMX.rpm               150.00:  RPM Surface Max 
 RRUN.                    L402:  Rig Run Number 
 RTIM.hr                 80.50:  Time Reaming 
 SAZI.deg               155.55:  Azm, Start 
 SDEP.m                2036.00:  Start Depth 
 SIDD.                      No:  Serv Intrp, DD 
 SINC.deg                35.44:  Inc, Start 
 SPPA.psig             4270.00:  SPP Avg 
 SPPN.psig             2800.00:  SPP Min 
 SPPX.psig             4850.00:  SPP Max 
 STIM.      09.30.00 03-Feb-20:  Start Time 
 SVCS.                 DD, MWD:  Services 
 SVER.                    9.20:  Sperry Version 
 TDAT.m                1183.00:  Tot Depth Attmp 
 TDDF.                      No:  Trip for DD 
 TDLG.m                1183.00:  Tot Depth Loggd 
 TFF .                      No:  Trip for Fail 
 TQAA.f-kp               16.00:  Torque Abs Avg 
 TQAN.f-kp               10.00:  Torque Abs Min 
 TQAX.f-kp               20.00:  Torque Abs Max 
 TRRT.°/30m               1.00:  Turn Rotating 
 MRT .                  EWR-M5:  Maximum Recorded Temperature 
 TTMX.degC               80.39:  Max Tool Temp 
 VS01.               13098498 :  Virtual Str1 SN 
 VS02.                90569596:  Virtual Str2 SN 
 VS03.                90523599:  Virtual Str3 SN 
 VS04.                90573553:  Virtual Str4 SN 
 VS05.                90598598:  Virtual Str5 SN 
 VS06.                90577297:  Virtual Str6 SN 
 WBMN.klb                13.00:  WOB Min 
 WITN.         Alistair Sprott:  Customer Rep 
 WITN.           Rufat Babayev:  Customer Rep 2 
 WOBA.klb                15.00:  WOB Avg 
 WOBX.klb                20.00:  WOB Max 
 YP  .lhf2               39.00:  Yield Point 
~Curve Information Block
#MNEM.UNIT                 API CODE     Curve Description
#---------               -----------    ---------------------------
 TIME.HHMMSS            00 000 000 000:  GT Time & Date
 GTDEPTH.m              00 000 000 000:  GT Depth
 GTPQH.psia             00 000 000 000:  GT HR Quartz Pressure
 GTTQ.degC              00 000 000 000:  GT Quartz Temperature
 GTTN.NONE              00 000 000 000:  GT Test Number
 GTET.sec               00 000 000 000:  GT Elapsed Test Time
 GTTVD.m                00 000 000 000:  GT True Vertical Depth
#Other Information
#
#WARRANTY: Halliburton will use its best efforts to furnish customers with 
#accurate information and interpretations that are part of, and incident to, the services 
#provided.  However, Halliburton cannot and does not warrant the accuracy 
#or correctness of such information and interpretations.  Under no circumstances should any 
#such information or interpretation be relied upon as the sole basis for any drilling, 
#completion, production, or financial decision or any procedure involving any risk to the 
#safety of any drilling venture, drilling rig or its crew or any other third party.  The 
#Customer has full responsibility for all drilling, completion and production operation.  
#Halliburton makes no representations or warranties, either expressed or 
#implied, including, but not limited to, the implied warranties of merchantability or fitness 
#for a particular purpose, with respect to the services rendered.  In no event will 
#Halliburton be liable for failure to obtain any particular results or for 
#any damages, including, but not limited to, indirect, special or consequential damages, 
#resulting from the use of any information or interpretation provided by Halliburton.
#
~A           TIME           GTDEPTH  GTPQH  GTTQ  GTTN  GTET   GTTVD  
# ...
   11:05:55.538.08-Feb-2020 3115.78 4567.42 67.10 6.00 184.10 2642.62
   11:05:55.738.08-Feb-2020 3115.78 4567.42 67.10 6.00 184.30 2642.62
   11:05:55.938.08-Feb-2020 3115.78 4568.83 67.10 6.00 184.50 2642.62
   11:05:56.138.08-Feb-2020 3115.78 4569.56 67.10 6.00 184.70 2642.62
   11:05:56.338.08-Feb-2020 3115.78 4569.37 67.10 6.00 184.90 2642.62
   11:05:56.538.08-Feb-2020 3115.78 4571.47 67.10 6.00 185.10 2642.62
   11:05:56.738.08-Feb-2020 3115.78 4571.47 67.10 6.00 185.30 2642.62
   11:05:56.938.08-Feb-2020 3115.78 4571.65 67.10 6.00 185.50 2642.62
   11:05:57.138.08-Feb-2020 3115.78 4572.75 67.10 6.00 185.70 2642.62
   11:05:57.338.08-Feb-2020 3115.78 4573.84 67.10 6.00 185.90 2642.62
   11:05:57.539.08-Feb-2020 3115.78 4573.99 67.10 6.00 186.10 2642.62
   11:05:57.739.08-Feb-2020 3115.78 4573.99 67.10 6.00 186.30 2642.62
   11:05:57.939.08-Feb-2020 3115.78 4575.03 67.10 6.00 186.50 2642.62
   11:05:58.139.08-Feb-2020 3115.78 4575.50 67.10 6.00 186.70 2642.62
   11:05:58.339.08-Feb-2020 3115.78 4576.93 67.10 6.00 186.90 2642.62
   11:05:58.539.08-Feb-2020 3115.78 4575.15 67.10 6.00 187.10 2642.62
   11:05:58.739.08-Feb-2020 3115.78 4575.15 67.10 6.00 187.30 2642.62
   11:05:58.939.08-Feb-2020 3115.78 4577.86 67.10 6.00 187.50 2642.62
   11:05:59.139.08-Feb-2020 3115.78 4576.13 67.10 6.00 187.70 2642.62
   11:05:59.340.08-Feb-2020 3115.78 4576.67 67.10 6.00 187.90 2642.62
   11:05:59.540.08-Feb-2020 3115.78 4578.79 67.10 6.00 188.10 2642.62
   11:05:59.740.08-Feb-2020 3115.78 4578.79 67.10 6.00 188.30 2642.62
   11:05:59.940.08-Feb-2020 3115.78 4576.38 67.10 6.00 188.50 2642.62
   11:06:00.140.08-Feb-2020 3115.78 4577.89 67.10 6.00 188.70 2642.62
   11:06:00.340.08-Feb-2020 3115.78 4578.84 67.10 6.00 188.90 2642.62
   11:06:00.540.08-Feb-2020 3115.78 4579.24 67.10 6.00 189.10 2642.62
   11:06:00.740.08-Feb-2020 3115.78 4579.24 67.10 6.00 189.30 2642.62
   11:06:00.940.08-Feb-2020 3115.78 4579.06 67.10 6.00 189.50 2642.62
   11:06:01.140.08-Feb-2020 3115.78 4579.55 67.10 6.00 189.70 2642.62
   11:06:01.341.08-Feb-2020 3115.78 4578.44 67.10 6.00 189.90 2642.62
   11:06:01.541.08-Feb-2020 3115.78 4578.65 67.10 6.00 190.10 2642.62
   11:06:01.741.08-Feb-2020 3115.78 4578.65 67.10 6.00 190.30 2642.62
   11:06:01.941.08-Feb-2020 3115.78 4579.04 67.10 6.00 190.50 2642.62
   11:06:02.141.08-Feb-2020 3115.78 4579.28 67.10 6.00 190.70 2642.62
   11:06:02.341.08-Feb-2020 3115.78 4578.52 67.10 6.00 190.90 2642.62
   11:06:02.541.08-Feb-2020 3115.78 4579.26 67.10 6.00 191.10 2642.62
   11:06:02.741.08-Feb-2020 3115.78 4579.26 67.10 6.00 191.30 2642.62
   11:06:02.941.08-Feb-2020 3115.78 4580.03 67.10 6.00 191.50 2642.62
   11:06:03.142.08-Feb-2020 3115.78 4580.04 67.10 6.00 191.70 2642.62
   11:06:03.342.08-Feb-2020 3115.78 4579.79 67.10 6.00 191.90 2642.62
   11:06:03.542.08-Feb-2020 3115.78 4580.13 67.10 6.00 192.10 2642.62
   11:06:03.742.08-Feb-2020 3115.78 4580.13 67.10 6.00 192.30 2642.62
   11:06:03.942.08-Feb-2020 3115.78 4578.41 67.10 6.00 192.50 2642.62
   11:06:04.142.08-Feb-2020 3115.78 4580.00 67.10 6.00 192.70 2642.62
   11:06:04.342.08-Feb-2020 3115.78 4581.01 67.10 6.00 192.90 2642.62
   11:06:04.542.08-Feb-2020 3115.78 4580.65 67.10 6.00 193.10 2642.62
   11:06:04.742.08-Feb-2020 3115.78 4580.65 67.10 6.00 193.30 2642.62
   11:06:04.942.08-Feb-2020 3115.78 4581.09 67.10 6.00 193.50 2642.62
   11:06:05.143.08-Feb-2020 3115.78 4581.59 67.10 6.00 193.70 2642.62
   11:06:05.343.08-Feb-2020 3115.78 4582.40 67.10 6.00 193.90 2642.62
   11:06:05.543.08-Feb-2020 3115.78 4582.60 67.10 6.00 194.10 2642.62
   11:06:05.743.08-Feb-2020 3115.78 4582.60 67.10 6.00 194.30 2642.62
   11:06:05.943.08-Feb-2020 3115.78 4581.54 67.10 6.00 194.50 2642.62
   11:06:06.143.08-Feb-2020 3115.78 4582.74 67.10 6.00 194.70 2642.62
   11:06:06.343.08-Feb-2020 3115.78 4582.15 67.10 6.00 194.90 2642.62
   11:06:06.543.08-Feb-2020 3115.78 4581.23 67.10 6.00 195.10 2642.62
   11:06:06.743.08-Feb-2020 3115.78 4581.23 67.10 6.00 195.30 2642.62
   11:06:06.944.08-Feb-2020 3115.78 4581.86 67.10 6.00 195.50 2642.62
   11:06:07.144.08-Feb-2020 3115.78 4581.85 67.10 6.00 195.70 2642.62
   11:06:07.344.08-Feb-2020 3115.78 4582.74 67.10 6.00 195.90 2642.62
   11:06:07.544.08-Feb-2020 3115.78 4581.55 67.10 6.00 196.10 2642.62
   11:06:07.744.08-Feb-2020 3115.78 4581.79 67.10 6.00 196.30 2642.62
   11:06:07.944.08-Feb-2020 3115.78 4581.85 67.10 6.00 196.50 2642.62
   11:06:08.144.08-Feb-2020 3115.78 4581.28 67.10 6.00 196.70 2642.62
   11:06:08.344.08-Feb-2020 3115.78 4581.22 67.10 6.00 196.90 2642.62
   11:06:08.544.08-Feb-2020 3115.78 4582.49 67.10 6.00 197.10 2642.62
   11:06:08.744.08-Feb-2020 3115.78 4582.49 67.10 6.00 197.30 2642.62
   11:06:08.945.08-Feb-2020 3115.78 4581.31 67.10 6.00 197.50 2642.62
   11:06:09.145.08-Feb-2020 3115.78 4582.09 67.10 6.00 197.70 2642.62
   11:06:09.345.08-Feb-2020 3115.78 4583.47 67.10 6.00 197.90 2642.62
   11:06:09.545.08-Feb-2020 3115.78 4583.00 67.10 6.00 198.10 2642.62
   11:06:09.745.08-Feb-2020 3115.78 4583.00 67.10 6.00 198.30 2642.62
   11:06:09.945.08-Feb-2020 3115.78 4582.51 67.09 6.00 198.50 2642.62
   11:06:10.145.08-Feb-2020 3115.78 4583.39 67.09 6.00 198.70 2642.62
   11:06:10.345.08-Feb-2020 3115.78 4582.96 67.09 6.00 198.90 2642.62
   11:06:10.545.08-Feb-2020 3115.78 4582.50 67.09 6.00 199.10 2642.62
   11:06:10.745.08-Feb-2020 3115.78 4582.50 67.09 6.00 199.30 2642.62
   11:06:10.946.08-Feb-2020 3115.78 4582.98 67.09 6.00 199.50 2642.62
   11:06:11.146.08-Feb-2020 3115.78 4582.90 67.09 6.00 199.70 2642.62
   11:06:11.346.08-Feb-2020 3115.78 4582.72 67.09 6.00 199.90 2642.62
   11:06:11.546.08-Feb-2020 3115.78 4583.08 67.09 6.00 200.10 2642.62
   11:06:11.746.08-Feb-2020 3115.78 4583.08 67.09 6.00 200.30 2642.62
   11:06:11.946.08-Feb-2020 3115.78 4583.10 67.09 6.00 200.50 2642.62
   11:06:12.146.08-Feb-2020 3115.78 4582.55 67.09 6.00 200.70 2642.62
   11:06:12.346.08-Feb-2020 3115.78 4583.34 67.09 6.00 200.90 2642.62
   11:06:12.546.08-Feb-2020 3115.78 4583.60 67.09 6.00 201.11 2642.62
   11:06:12.747.08-Feb-2020 3115.78 4583.60 67.09 6.00 201.31 2642.62
   11:06:12.947.08-Feb-2020 3115.78 4582.79 67.09 6.00 201.51 2642.62
   11:06:13.147.08-Feb-2020 3115.78 4582.82 67.09 6.00 201.71 2642.62
   11:06:13.347.08-Feb-2020 3115.78 4582.33 67.09 6.00 201.91 2642.62
   11:06:13.547.08-Feb-2020 3115.78 4581.88 67.09 6.00 202.11 2642.62
   11:06:13.747.08-Feb-2020 3115.78 4581.88 67.09 6.00 202.31 2642.62
   11:06:13.947.08-Feb-2020 3115.78 4582.34 67.09 6.00 202.51 2642.62
   11:06:14.147.08-Feb-2020 3115.78 4582.17 67.09 6.00 202.71 2642.62
   11:06:14.347.08-Feb-2020 3115.78 4582.39 67.09 6.00 202.91 2642.62
   11:06:14.547.08-Feb-2020 3115.78 4581.61 67.09 6.00 203.11 2642.62
   11:06:14.748.08-Feb-2020 3115.78 4581.61 67.09 6.00 203.31 2642.62
   11:06:14.948.08-Feb-2020 3115.78 4582.58 67.09 6.00 203.51 2642.62
   11:06:15.148.08-Feb-2020 3115.78 4581.83 67.09 6.00 203.71 2642.62
   11:06:15.348.08-Feb-2020 3115.78 4582.96 67.09 6.00 203.91 2642.62
   11:06:15.548.08-Feb-2020 3115.78 4582.54 67.09 6.00 204.11 2642.62
   11:06:15.748.08-Feb-2020 3115.78 4582.54 67.09 6.00 204.31 2642.62
   11:06:15.948.08-Feb-2020 3115.78 4581.23 67.09 6.00 204.51 2642.62
   11:06:16.148.08-Feb-2020 3115.78 4582.63 67.09 6.00 204.71 2642.62
   11:06:16.348.08-Feb-2020 3115.78 4583.20 67.08 6.00 204.91 2642.62
   11:06:16.549.08-Feb-2020 3115.78 4584.28 67.08 6.00 205.11 2642.62
   11:06:16.749.08-Feb-2020 3115.78 4584.28 67.08 6.00 205.31 2642.62
   11:06:16.949.08-Feb-2020 3115.78 4582.74 67.08 6.00 205.51 2642.62
   11:06:17.149.08-Feb-2020 3115.78 4583.78 67.08 6.00 205.71 2642.62
   11:06:17.349.08-Feb-2020 3115.78 4583.27 67.08 6.00 205.91 2642.62
   11:06:17.549.08-Feb-2020 3115.78 4582.81 67.08 6.00 206.11 2642.62
   11:06:17.749.08-Feb-2020 3115.78 4582.81 67.08 6.00 206.31 2642.62
   11:06:17.949.08-Feb-2020 3115.78 4583.79 67.08 6.00 206.51 2642.62
   11:06:18.149.08-Feb-2020 3115.78 4583.37 67.08 6.00 206.71 2642.62
   11:06:18.349.08-Feb-2020 3115.78 4583.15 67.08 6.00 206.91 2642.62
