~Version Information
 VERS.                  2.0:   CWLS log ASCII Standard -VERSION 2.0
 WRAP.                   NO:   One line per depth step
~Well Information Block
#MNEM.UNIT     VALUE/NAME     DESCRIPTION
#---------     -----------    ---------------------------
 STRT.S             11:02:51 08-Feb-20: START TIME 11:02:51 08-Feb-20
 STOP.S             11:09:43 08-Feb-20: STOP TIME  11:09:43 08-Feb-20
 STEP.S                   0.00: STEP TIME
 NULL.                 -999.25: NULL VALUE
 DFWT.                        :  DIST FWL TEXT
 DFST.                        :  DIST FSL TEXT
 DMF .             Drill Floor:  DRILL MEAS FROM
 STIM.      07.00.00 09-Jan-20:  START TIME
 DATE.      14.04.48 07-Feb-20:  END TIME
 SPUD.               09-Jan-20:  SPUD DATE
 NREF.                    Grid:  NORTH REFERENCE
 HPTY.       Minimum Curvature:  HOLE POS TYPE
 DMOD.             Drill Model:  DRILL MOD DESC
 SVYD.                  Survey:  SURVEY DESC
 ILTD.               Lithology:  INTERP LTH DESC
 FTOP.          Formation Tops:  FORM TOPS DESC
 SON .        AZ-XX-0905059384:  JOB NUMBER
 MDS .        Operator Entered:  MAG DATA SOURCE
 WTYP.                Deviated:  WELL TYPE
 COMP.     BP Exploration (Caspian Sea) Ltd.:  COMPANY
 UWI .                     N/A:  UNIQUE WELL IDENTIFIER
 API .                     N/A:  API NUMBER
 BASE.              Azerbaijan:  LOGGING EQUIPMENT BASE LOCATION
 REGN.                   EESSA:  REGION
 PROV.                    Baku:  PROVINCE
 STAT.                    Baku:  STATE NAME
 CTRY.              Azerbaijan:  COUNTRY NAME
 FLD .                     ACG:  FIELD NAME
 SRVC.     TURAN Drilling & Engineering:  CONTRACTOR
 MWDS.                    Baku:  MWD SHOP
 WELL.                     J22:  WELL NAME
 RIG .             West Chirag:  RIG NAME
 DOE .                     N/A:  DOE NUMBER
 DCON.         Sperry Drilling:  DIRECTNL CONTR
 UNIT.                     N/A:  LOGGING EQUIPMENT ID
 PDAT.          Mean Sea Level:  PERMANENT DATUM
 JOBN.        AZ-XX-0905059384:  JOB TICKET NUMB
 CNTY.                        :  COUNTY
 LOC .                        :  LOCATION
 LMF .             Drill Floor:  LOG MEASURED FROM
 TVDS.m                  43.00:  TVDSS CORRECTN
 LATI.deg                40.13:  LATITUDE
 LONG.deg                51.22:  LONGITUDE
 WHNS.m                  10.28:  WELL HEAD N/S
 WHEW.m                  -6.24:  WELL HEAD E/W
 UTMX.m              519005.06:  UTM X
 UTMY.m             4443793.85:  UTM Y
 DFWL.m                   0.00:  DISTANCE FWL
 DFSL.m                   0.00:  DISTANCE FSL
 SDEP.m                 362.00:  START DEPTH
 TDD .m                 904.00:  TOTAL DEPTH (DRILLER)
 VSDR.deg               148.53:  VERT SEC DIRECT
 GVFD.g                   1.00:  GRAVITY FIELD
 MFLD.nT              50277.00:  MAGNETIC FIELD
 MDIP.deg                59.56:  MAGNETIC DIP
 MDEC.deg                 6.42:  MAGNETIC DECL
 GRDC.deg                 0.15:  GRID CORRECTION
 AZTC.deg                 6.27:  AZM TOTAL CORR
 EPD .m                   0.00:  ELEVATION
 EGL .m                   0.00:  GROUND ELEVATION
 WDMS.m                 169.80:  WD ELEV
 APD .m                  43.00:  DEPTH ABOVE PD
 AGAP.m                  43.00:  AIR GAP
 VSEW.m                  -6.24:  VERT SEC E/W
 VSNS.m                  10.28:  VERT SEC N/S
 DEP .m                   0.00:  DEPTH
 EKB .m                   0.00:  KB ELEVATION
 EDF .m                  43.00:  DF ELEVATION
 TDL .m                1183.00:  TOTAL DEPTH (LOGGER)
 VSC .                       0:  VS TO CLOSURE
 MAGU.                 1850021:  MAGUTM CHECKSUM
~Parameter Information Block
#MNEM.UNIT       Value        Description
#---------     -----------    ---------------------------
 AV  .mps                 4.00:  Ann Velocity 
 AVMX.mps                 4.50:  Max Ann Veloc 
 AZIF.deg               145.38:  Azm, Final 
 BHAT.        Rotary Steerable:  BHA Type 
 BROT.°/30m               3.00:  Build Rotating 
 BS  .in                 12.25:  Bit Size 
 BSZ .in                 12.25:  Bit Size 
 BTPL.psig              650.00:  Bit Press Loss 
 CABU.                      No:  Customer Abuse 
 COMM.                     Ä%€:  Run Comments 1 
 TCS .hr                101.62:  Time Ciculation Ended 
 CV  .mps                 5.00:  Crit Velocity 
 CVMX.mps                 5.00:  Max Crit Veloc 
 DD1 .             Aziz Aliyev:  Direct Drillr 1 
 DD2 .      Fakhraddin Guliyev:  Direct Drillr 2 
 DDSV.                 iCruise:  DD Service 
 DEFF.%                  97.00:  % Det Eff 
 DLRX.°/30m               4.16:  Dogleg Rot Max 
 DLSO.°/30m               3.20:  Dogleg Oriented 
 DLSX.°/30m               4.10:  Dogleg Str Max 
 DRET.      23.12.00 07-Feb-20:  Drill End Time 
 DRST.      11.30.00 04-Feb-20:  Drill Start Tim 
 DTIM.hr                 61.06:  Time Drilling 
 EDEP.m                3219.01:  End Depth 
 ENG1.         Almaz Almadatov:  Engineer 1 
 ENG2.         Dair Mahammadov:  Engineer 2 
 ENG3.          Nazrin Asgarli:  Engineer 3 
 ETIM.      02.30.00 11-Feb-20:  End Time 
 FLOI.gpm              1100.00:  Flow In 
 FLON.gpm               900.00:  Flow In Min 
 FLOS.cptm               55.00:  Fluid Loss 
 FLOX.gpm              1150.00:  Flow In Max 
 FTRO.       Formation Presure:  FTWD Run Obj 
 HFLO.                      No:  High Flow 
 HPRE.                      No:  High Pressure 
 HTEM.                      No:  High Temp 
 HYDO.m                   1.80:  Hydro Offset 
 IFIN.deg                75.11:  Inc, Final 
 IMAX.deg                75.11:  Inc Max 
 IMIN.deg                33.55:  Inc Min 
 IMND.m                2186.05:  Inc Min Depth 
 IMXD.m                3205.61:  Inc Max Depth 
 JARR.                      No:  Jarring 
 LETM.      23.12.00 07-Feb-20:  Log End Time 
 LOST.hr                     0:  Lost Rig Time 
 LSTM.      11.30.00 04-Feb-20:  Log Start Time 
 MDCL.ppm             40000.00:  Mud Chlorides 
 MDES.     Inversion Oil/Synthetic:  Mud Desc 
 DFD .sg                  1.49:  Mud Density 
 MDMN.sg                  1.49:  Dens Mud Min 
 MDMX.sg                  1.49:  Dens Mud Max 
 MOIL.                      73:  Run Mud Oil % 
 MOWR.                   73:27:  Run Mud OWR 
 MSND.                     0.1:  Run Mud Sand % 
 MSOL.                    20.1:  Run Mud Solids% 
 DFV .spqt               78.00:  Mud Viscosity 
 MWOD.in                  8.00:  MWD Tool OD 
 MWSI.                      No:  Serv Intrp, MWD 
 OTIM.hr                177.15:  Time Operating 
 PCON.          Wear / Scratch:  Pad Condition 
 PMAX.psia            10493.93:  Press Op, Max 
 PV  .cP                 73.00:  Mud PV 
 RUN .                     700:  Run Number 
 ROPA.m/hr               15.00:  ROP Avg 
 ROPN.m/hr               10.00:  ROP Min 
 ROPX.m/hr               35.00:  ROP Max 
 RPMA.rpm               130.00:  RPM Surface Avg 
 RPMN.rpm                80.00:  RPM Surface Min 
 RPMX.rpm               150.00:  RPM Surface Max 
 RRUN.                    L402:  Rig Run Number 
 RTIM.hr                 80.50:  Time Reaming 
 SAZI.deg               155.55:  Azm, Start 
 SDEP.m                2036.00:  Start Depth 
 SIDD.                      No:  Serv Intrp, DD 
 SINC.deg                35.44:  Inc, Start 
 SPPA.psig             4270.00:  SPP Avg 
 SPPN.psig             2800.00:  SPP Min 
 SPPX.psig             4850.00:  SPP Max 
 STIM.      09.30.00 03-Feb-20:  Start Time 
 SVCS.                 DD, MWD:  Services 
 SVER.                    9.20:  Sperry Version 
 TDAT.m                1183.00:  Tot Depth Attmp 
 TDDF.                      No:  Trip for DD 
 TDLG.m                1183.00:  Tot Depth Loggd 
 TFF .                      No:  Trip for Fail 
 TQAA.f-kp               16.00:  Torque Abs Avg 
 TQAN.f-kp               10.00:  Torque Abs Min 
 TQAX.f-kp               20.00:  Torque Abs Max 
 TRRT.°/30m               1.00:  Turn Rotating 
 MRT .                  EWR-M5:  Maximum Recorded Temperature 
 TTMX.degC               80.39:  Max Tool Temp 
 VS01.               13098498 :  Virtual Str1 SN 
 VS02.                90569596:  Virtual Str2 SN 
 VS03.                90523599:  Virtual Str3 SN 
 VS04.                90573553:  Virtual Str4 SN 
 VS05.                90598598:  Virtual Str5 SN 
 VS06.                90577297:  Virtual Str6 SN 
 WBMN.klb                13.00:  WOB Min 
 WITN.         Alistair Sprott:  Customer Rep 
 WITN.           Rufat Babayev:  Customer Rep 2 
 WOBA.klb                15.00:  WOB Avg 
 WOBX.klb                20.00:  WOB Max 
 YP  .lhf2               39.00:  Yield Point 
~Curve Information Block
#MNEM.UNIT                 API CODE     Curve Description
#---------               -----------    ---------------------------
 TIME.HHMMSS            00 000 000 000:  GT Time & Date
 GTDEPTH.m              00 000 000 000:  GT Depth
 GTPQH.psia             00 000 000 000:  GT HR Quartz Pressure
 GTTQ.degC              00 000 000 000:  GT Quartz Temperature
 GTTN.NONE              00 000 000 000:  GT Test Number
 GTET.sec               00 000 000 000:  GT Elapsed Test Time
 GTTVD.m                00 000 000 000:  GT True Vertical Depth
#Other Information
#
#WARRANTY: Halliburton will use its best efforts to furnish customers with 
#accurate information and interpretations that are part of, and incident to, the services 
#provided.  However, Halliburton cannot and does not warrant the accuracy 
#or correctness of such information and interpretations.  Under no circumstances should any 
#such information or interpretation be relied upon as the sole basis for any drilling, 
#completion, production, or financial decision or any procedure involving any risk to the 
#safety of any drilling venture, drilling rig or its crew or any other third party.  The 
#Customer has full responsibility for all drilling, completion and production operation.  
#Halliburton makes no representations or warranties, either expressed or 
#implied, including, but not limited to, the implied warranties of merchantability or fitness 
#for a particular purpose, with respect to the services rendered.  In no event will 
#Halliburton be liable for failure to obtain any particular results or for 
#any damages, including, but not limited to, indirect, special or consequential damages, 
#resulting from the use of any information or interpretation provided by Halliburton.
#
~A           TIME           GTDEPTH  GTPQH  GTTQ  GTTN  GTET   GTTVD  
# ...
   11:09:22.646.08-Feb-2020 3115.78 5771.12 66.86 6.00 391.20 2642.62
   11:09:22.846.08-Feb-2020 3115.78 5771.12 66.86 6.00 391.40 2642.62
   11:09:23.046.08-Feb-2020 3115.78 5776.32 66.86 6.00 391.60 2642.62
   11:09:23.246.08-Feb-2020 3115.78 5769.39 66.86 6.00 391.80 2642.62
   11:09:23.446.08-Feb-2020 3115.78 5771.39 66.86 6.00 392.00 2642.62
   11:09:23.646.08-Feb-2020 3115.78 5770.53 66.86 6.00 392.20 2642.62
   11:09:23.846.08-Feb-2020 3115.78 5770.53 66.86 6.00 392.41 2642.62
   11:09:24.047.08-Feb-2020 3115.78 5772.17 66.86 6.00 392.61 2642.62
   11:09:24.247.08-Feb-2020 3115.78 5771.79 66.86 6.00 392.81 2642.62
   11:09:24.447.08-Feb-2020 3115.78 5771.93 66.86 6.00 393.01 2642.62
   11:09:24.647.08-Feb-2020 3115.78 5771.39 66.85 6.00 393.21 2642.62
   11:09:24.847.08-Feb-2020 3115.78 5771.39 66.85 6.00 393.41 2642.62
   11:09:25.047.08-Feb-2020 3115.78 5771.46 66.85 6.00 393.61 2642.62
   11:09:25.247.08-Feb-2020 3115.78 5775.02 66.85 6.00 393.81 2642.62
   11:09:25.447.08-Feb-2020 3115.78 5770.17 66.85 6.00 394.01 2642.62
   11:09:25.647.08-Feb-2020 3115.78 5772.77 66.85 6.00 394.21 2642.62
   11:09:25.847.08-Feb-2020 3115.78 5772.77 66.85 6.00 394.41 2642.62
   11:09:26.048.08-Feb-2020 3115.78 5771.48 66.85 6.00 394.61 2642.62
   11:09:26.248.08-Feb-2020 3115.78 5771.02 66.85 6.00 394.81 2642.62
   11:09:26.448.08-Feb-2020 3115.78 5770.90 66.85 6.00 395.01 2642.62
   11:09:26.648.08-Feb-2020 3115.78 5771.29 66.85 6.00 395.21 2642.62
   11:09:26.848.08-Feb-2020 3115.78 5771.29 66.85 6.00 395.41 2642.62
   11:09:27.048.08-Feb-2020 3115.78 5770.70 66.85 6.00 395.61 2642.62
   11:09:27.248.08-Feb-2020 3115.78 5770.93 66.85 6.00 395.81 2642.62
   11:09:27.448.08-Feb-2020 3115.78 5777.15 66.85 6.00 396.01 2642.62
   11:09:27.648.08-Feb-2020 3115.78 5767.92 66.85 6.00 396.21 2642.62
   11:09:27.848.08-Feb-2020 3115.78 5771.75 66.85 6.00 396.41 2642.62
   11:09:28.049.08-Feb-2020 3115.78 5775.20 66.85 6.00 396.61 2642.62
   11:09:28.249.08-Feb-2020 3115.78 5771.15 66.85 6.00 396.81 2642.62
   11:09:28.449.08-Feb-2020 3115.78 5770.36 66.85 6.00 397.01 2642.62
   11:09:28.649.08-Feb-2020 3115.78 5769.22 66.85 6.00 397.21 2642.62
   11:09:28.849.08-Feb-2020 3115.78 5769.22 66.85 6.00 397.41 2642.62
   11:09:29.049.08-Feb-2020 3115.78 5769.70 66.85 6.00 397.61 2642.62
   11:09:29.249.08-Feb-2020 3115.78 5771.88 66.85 6.00 397.81 2642.62
   11:09:29.449.08-Feb-2020 3115.78 5776.03 66.85 6.00 398.01 2642.62
   11:09:29.649.08-Feb-2020 3115.78 5769.79 66.85 6.00 398.21 2642.62
   11:09:29.850.08-Feb-2020 3115.78 5769.79 66.85 6.00 398.41 2642.62
   11:09:30.050.08-Feb-2020 3115.78 5772.84 66.85 6.00 398.61 2642.62
   11:09:30.250.08-Feb-2020 3115.78 5773.34 66.85 6.00 398.81 2642.62
   11:09:30.450.08-Feb-2020 3115.78 5770.99 66.85 6.00 399.01 2642.62
   11:09:30.650.08-Feb-2020 3115.78 5770.72 66.85 6.00 399.21 2642.62
   11:09:30.850.08-Feb-2020 3115.78 5770.72 66.85 6.00 399.41 2642.62
   11:09:31.050.08-Feb-2020 3115.78 5771.17 66.84 6.00 399.61 2642.62
   11:09:31.250.08-Feb-2020 3115.78 5771.85 66.84 6.00 399.81 2642.62
   11:09:31.450.08-Feb-2020 3115.78 5771.60 66.84 6.00 400.01 2642.62
   11:09:31.650.08-Feb-2020 3115.78 5771.53 66.84 6.00 400.21 2642.62
   11:09:31.851.08-Feb-2020 3115.78 5771.53 66.84 6.00 400.41 2642.62
   11:09:32.051.08-Feb-2020 3115.78 5770.95 66.84 6.00 400.61 2642.62
   11:09:32.251.08-Feb-2020 3115.78 5776.24 66.84 6.00 400.81 2642.62
   11:09:32.451.08-Feb-2020 3115.78 5771.73 66.84 6.00 401.01 2642.62
   11:09:32.651.08-Feb-2020 3115.78 5770.29 66.84 6.00 401.21 2642.62
   11:09:32.851.08-Feb-2020 3115.78 5770.29 66.84 6.00 401.41 2642.62
   11:09:33.051.08-Feb-2020 3115.78 5771.31 66.84 6.00 401.61 2642.62
   11:09:33.251.08-Feb-2020 3115.78 5771.94 66.84 6.00 401.81 2642.62
   11:09:33.451.08-Feb-2020 3115.78 5771.19 66.84 6.00 402.01 2642.62
   11:09:33.652.08-Feb-2020 3115.78 5771.86 66.84 6.00 402.21 2642.62
   11:09:33.852.08-Feb-2020 3115.78 5771.86 66.84 6.00 402.41 2642.62
   11:09:34.052.08-Feb-2020 3115.78 5771.07 66.84 6.00 402.61 2642.62
   11:09:34.252.08-Feb-2020 3115.78 5771.27 66.84 6.00 402.81 2642.62
   11:09:34.452.08-Feb-2020 3115.78 5774.35 66.84 6.00 403.01 2642.62
   11:09:34.652.08-Feb-2020 3115.78 5773.34 66.84 6.00 403.21 2642.62
   11:09:34.852.08-Feb-2020 3115.78 5773.34 66.84 6.00 403.41 2642.62
   11:09:35.052.08-Feb-2020 3115.78 5774.18 66.84 6.00 403.61 2642.62
   11:09:35.252.08-Feb-2020 3115.78 5774.22 66.84 6.00 403.81 2642.62
   11:09:35.452.08-Feb-2020 3115.78 5770.85 66.84 6.00 404.01 2642.62
   11:09:35.653.08-Feb-2020 3115.78 5770.96 66.84 6.00 404.21 2642.62
   11:09:35.853.08-Feb-2020 3115.78 5770.96 66.84 6.00 404.41 2642.62
   11:09:36.053.08-Feb-2020 3115.78 5771.05 66.84 6.00 404.61 2642.62
   11:09:36.253.08-Feb-2020 3115.78 5769.63 66.84 6.00 404.81 2642.62
   11:09:36.453.08-Feb-2020 3115.78 5772.63 66.84 6.00 405.01 2642.62
   11:09:36.653.08-Feb-2020 3115.78 5771.64 66.84 6.00 405.21 2642.62
   11:09:36.853.08-Feb-2020 3115.78 5771.64 66.84 6.00 405.41 2642.62
   11:09:37.053.08-Feb-2020 3115.78 5772.28 66.83 6.00 405.61 2642.62
   11:09:37.253.08-Feb-2020 3115.78 5772.81 66.83 6.00 405.81 2642.62
   11:09:37.454.08-Feb-2020 3115.78 5769.98 66.83 6.00 406.01 2642.62
   11:09:37.654.08-Feb-2020 3115.78 5770.05 66.83 6.00 406.21 2642.62
   11:09:37.854.08-Feb-2020 3115.78 5770.05 66.83 6.00 406.41 2642.62
   11:09:38.054.08-Feb-2020 3115.78 5771.57 66.83 6.00 406.61 2642.62
   11:09:38.254.08-Feb-2020 3115.78 5771.14 66.83 6.00 406.81 2642.62
   11:09:38.454.08-Feb-2020 3115.78 5771.68 66.83 6.00 407.01 2642.62
   11:09:38.654.08-Feb-2020 3115.78 5771.80 66.83 6.00 407.21 2642.62
   11:09:38.854.08-Feb-2020 3115.78 5771.80 66.83 6.00 407.41 2642.62
   11:09:39.054.08-Feb-2020 3115.78 5771.15 66.83 6.00 407.61 2642.62
   11:09:39.254.08-Feb-2020 3115.78 5777.37 66.83 6.00 407.81 2642.62
   11:09:39.455.08-Feb-2020 3115.78 5769.43 66.83 6.00 408.01 2642.62
   11:09:39.655.08-Feb-2020 3115.78 5771.97 66.83 6.00 408.21 2642.62
   11:09:39.855.08-Feb-2020 3115.78 5771.97 66.83 6.00 408.41 2642.62
   11:09:40.055.08-Feb-2020 3115.78 5771.48 66.83 6.00 408.61 2642.62
   11:09:40.255.08-Feb-2020 3115.78 5772.11 66.83 6.00 408.81 2642.62
   11:09:40.455.08-Feb-2020 3115.78 5771.42 66.83 6.00 409.01 2642.62
   11:09:40.655.08-Feb-2020 3115.78 5771.92 66.83 6.00 409.21 2642.62
   11:09:40.855.08-Feb-2020 3115.78 5771.92 66.83 6.00 409.41 2642.62
   11:09:41.055.08-Feb-2020 3115.78 5770.66 66.83 6.00 409.61 2642.62
   11:09:41.256.08-Feb-2020 3115.78 5770.67 66.83 6.00 409.81 2642.62
   11:09:41.456.08-Feb-2020 3115.78 5774.16 66.83 6.00 410.01 2642.62
   11:09:41.656.08-Feb-2020 3115.78 5771.82 66.83 6.00 410.21 2642.62
   11:09:41.856.08-Feb-2020 3115.78 5771.82 66.83 6.00 410.41 2642.62
   11:09:42.056.08-Feb-2020 3115.78 5773.05 66.83 6.00 410.61 2642.62
   11:09:42.256.08-Feb-2020 3115.78 5773.01 66.83 6.00 410.81 2642.62
   11:09:42.456.08-Feb-2020 3115.78 5770.13 66.83 6.00 411.01 2642.62
   11:09:42.656.08-Feb-2020 3115.78 5769.54 66.83 6.00 411.21 2642.62
   11:09:42.856.08-Feb-2020 3115.78 5769.54 66.83 6.00 411.42 2642.62
   11:09:43.056.08-Feb-2020 3115.78 5767.83 66.82 6.00 411.62 2642.62
   11:09:43.257.08-Feb-2020 3115.78 5770.11 66.82 6.00 411.82 2642.62
   11:09:43.457.08-Feb-2020 3115.78 5771.91 66.82 6.00 412.02 2642.62
