~Version Information
 VERS.                  2.0:   CWLS log ASCII Standard -VERSION 2.0
 WRAP.                   NO:   One line per depth step
~Well Information Block
#MNEM.UNIT     VALUE/NAME     DESCRIPTION
#---------     -----------    ---------------------------
 STRT.S             08:19:39 08-Feb-20: START TIME 08:19:39 08-Feb-20
 STOP.S             08:26:25 08-Feb-20: STOP TIME  08:26:25 08-Feb-20
 STEP.S                   0.00: STEP TIME
 NULL.                 -999.25: NULL VALUE
 DFWT.                        :  DIST FWL TEXT
 DFST.                        :  DIST FSL TEXT
 DMF .             Drill Floor:  DRILL MEAS FROM
 STIM.      07.00.00 09-Jan-20:  START TIME
 DATE.      14.04.48 07-Feb-20:  END TIME
 SPUD.               09-Jan-20:  SPUD DATE
 NREF.                    Grid:  NORTH REFERENCE
 HPTY.       Minimum Curvature:  HOLE POS TYPE
 DMOD.             Drill Model:  DRILL MOD DESC
 SVYD.                  Survey:  SURVEY DESC
 ILTD.               Lithology:  INTERP LTH DESC
 FTOP.          Formation Tops:  FORM TOPS DESC
 SON .        AZ-XX-0905059384:  JOB NUMBER
 MDS .        Operator Entered:  MAG DATA SOURCE
 WTYP.                Deviated:  WELL TYPE
 COMP.     BP Exploration (Caspian Sea) Ltd.:  COMPANY
 UWI .                     N/A:  UNIQUE WELL IDENTIFIER
 API .                     N/A:  API NUMBER
 BASE.              Azerbaijan:  LOGGING EQUIPMENT BASE LOCATION
 REGN.                   EESSA:  REGION
 PROV.                    Baku:  PROVINCE
 STAT.                    Baku:  STATE NAME
 CTRY.              Azerbaijan:  COUNTRY NAME
 FLD .                     ACG:  FIELD NAME
 SRVC.     TURAN Drilling & Engineering:  CONTRACTOR
 MWDS.                    Baku:  MWD SHOP
 WELL.                     J22:  WELL NAME
 RIG .             West Chirag:  RIG NAME
 DOE .                     N/A:  DOE NUMBER
 DCON.         Sperry Drilling:  DIRECTNL CONTR
 UNIT.                     N/A:  LOGGING EQUIPMENT ID
 PDAT.          Mean Sea Level:  PERMANENT DATUM
 JOBN.        AZ-XX-0905059384:  JOB TICKET NUMB
 CNTY.                        :  COUNTY
 LOC .                        :  LOCATION
 LMF .             Drill Floor:  LOG MEASURED FROM
 TVDS.m                  43.00:  TVDSS CORRECTN
 LATI.deg                40.13:  LATITUDE
 LONG.deg                51.22:  LONGITUDE
 WHNS.m                  10.28:  WELL HEAD N/S
 WHEW.m                  -6.24:  WELL HEAD E/W
 UTMX.m              519005.06:  UTM X
 UTMY.m             4443793.85:  UTM Y
 DFWL.m                   0.00:  DISTANCE FWL
 DFSL.m                   0.00:  DISTANCE FSL
 SDEP.m                 362.00:  START DEPTH
 TDD .m                 904.00:  TOTAL DEPTH (DRILLER)
 VSDR.deg               148.53:  VERT SEC DIRECT
 GVFD.g                   1.00:  GRAVITY FIELD
 MFLD.nT              50277.00:  MAGNETIC FIELD
 MDIP.deg                59.56:  MAGNETIC DIP
 MDEC.deg                 6.42:  MAGNETIC DECL
 GRDC.deg                 0.15:  GRID CORRECTION
 AZTC.deg                 6.27:  AZM TOTAL CORR
 EPD .m                   0.00:  ELEVATION
 EGL .m                   0.00:  GROUND ELEVATION
 WDMS.m                 169.80:  WD ELEV
 APD .m                  43.00:  DEPTH ABOVE PD
 AGAP.m                  43.00:  AIR GAP
 VSEW.m                  -6.24:  VERT SEC E/W
 VSNS.m                  10.28:  VERT SEC N/S
 DEP .m                   0.00:  DEPTH
 EKB .m                   0.00:  KB ELEVATION
 EDF .m                  43.00:  DF ELEVATION
 TDL .m                1183.00:  TOTAL DEPTH (LOGGER)
 VSC .                       0:  VS TO CLOSURE
 MAGU.                 1850021:  MAGUTM CHECKSUM
~Parameter Information Block
#MNEM.UNIT       Value        Description
#---------     -----------    ---------------------------
 AV  .mps                 4.00:  Ann Velocity 
 AVMX.mps                 4.50:  Max Ann Veloc 
 AZIF.deg               145.38:  Azm, Final 
 BHAT.        Rotary Steerable:  BHA Type 
 BROT.°/30m               3.00:  Build Rotating 
 BS  .in                 12.25:  Bit Size 
 BSZ .in                 12.25:  Bit Size 
 BTPL.psig              650.00:  Bit Press Loss 
 CABU.                      No:  Customer Abuse 
 COMM.                     ä7n:  Run Comments 1 
 TCS .hr                101.62:  Time Ciculation Ended 
 CV  .mps                 5.00:  Crit Velocity 
 CVMX.mps                 5.00:  Max Crit Veloc 
 DD1 .             Aziz Aliyev:  Direct Drillr 1 
 DD2 .      Fakhraddin Guliyev:  Direct Drillr 2 
 DDSV.                 iCruise:  DD Service 
 DEFF.%                  97.00:  % Det Eff 
 DLRX.°/30m               4.16:  Dogleg Rot Max 
 DLSO.°/30m               3.20:  Dogleg Oriented 
 DLSX.°/30m               4.10:  Dogleg Str Max 
 DRET.      23.12.00 07-Feb-20:  Drill End Time 
 DRST.      11.30.00 04-Feb-20:  Drill Start Tim 
 DTIM.hr                 61.06:  Time Drilling 
 EDEP.m                3219.01:  End Depth 
 ENG1.         Almaz Almadatov:  Engineer 1 
 ENG2.         Dair Mahammadov:  Engineer 2 
 ENG3.          Nazrin Asgarli:  Engineer 3 
 ETIM.      02.30.00 11-Feb-20:  End Time 
 FLOI.gpm              1100.00:  Flow In 
 FLON.gpm               900.00:  Flow In Min 
 FLOS.cptm               55.00:  Fluid Loss 
 FLOX.gpm              1150.00:  Flow In Max 
 FTRO.       Formation Presure:  FTWD Run Obj 
 HFLO.                      No:  High Flow 
 HPRE.                      No:  High Pressure 
 HTEM.                      No:  High Temp 
 HYDO.m                   1.80:  Hydro Offset 
 IFIN.deg                75.11:  Inc, Final 
 IMAX.deg                75.11:  Inc Max 
 IMIN.deg                33.55:  Inc Min 
 IMND.m                2186.05:  Inc Min Depth 
 IMXD.m                3205.61:  Inc Max Depth 
 JARR.                      No:  Jarring 
 LETM.      23.12.00 07-Feb-20:  Log End Time 
 LOST.hr                     0:  Lost Rig Time 
 LSTM.      11.30.00 04-Feb-20:  Log Start Time 
 MDCL.ppm             40000.00:  Mud Chlorides 
 MDES.     Inversion Oil/Synthetic:  Mud Desc 
 DFD .sg                  1.49:  Mud Density 
 MDMN.sg                  1.49:  Dens Mud Min 
 MDMX.sg                  1.49:  Dens Mud Max 
 MOIL.                      73:  Run Mud Oil % 
 MOWR.                   73:27:  Run Mud OWR 
 MSND.                     0.1:  Run Mud Sand % 
 MSOL.                    20.1:  Run Mud Solids% 
 DFV .spqt               78.00:  Mud Viscosity 
 MWOD.in                  8.00:  MWD Tool OD 
 MWSI.                      No:  Serv Intrp, MWD 
 OTIM.hr                177.15:  Time Operating 
 PCON.          Wear / Scratch:  Pad Condition 
 PMAX.psia            10493.93:  Press Op, Max 
 PV  .cP                 73.00:  Mud PV 
 RUN .                     700:  Run Number 
 ROPA.m/hr               15.00:  ROP Avg 
 ROPN.m/hr               10.00:  ROP Min 
 ROPX.m/hr               35.00:  ROP Max 
 RPMA.rpm               130.00:  RPM Surface Avg 
 RPMN.rpm                80.00:  RPM Surface Min 
 RPMX.rpm               150.00:  RPM Surface Max 
 RRUN.                    L402:  Rig Run Number 
 RTIM.hr                 80.50:  Time Reaming 
 SAZI.deg               155.55:  Azm, Start 
 SDEP.m                2036.00:  Start Depth 
 SIDD.                      No:  Serv Intrp, DD 
 SINC.deg                35.44:  Inc, Start 
 SPPA.psig             4270.00:  SPP Avg 
 SPPN.psig             2800.00:  SPP Min 
 SPPX.psig             4850.00:  SPP Max 
 STIM.      09.30.00 03-Feb-20:  Start Time 
 SVCS.                 DD, MWD:  Services 
 SVER.                    9.20:  Sperry Version 
 TDAT.m                1183.00:  Tot Depth Attmp 
 TDDF.                      No:  Trip for DD 
 TDLG.m                1183.00:  Tot Depth Loggd 
 TFF .                      No:  Trip for Fail 
 TQAA.f-kp               16.00:  Torque Abs Avg 
 TQAN.f-kp               10.00:  Torque Abs Min 
 TQAX.f-kp               20.00:  Torque Abs Max 
 TRRT.°/30m               1.00:  Turn Rotating 
 MRT .                  EWR-M5:  Maximum Recorded Temperature 
 TTMX.degC               80.39:  Max Tool Temp 
 VS01.               13098498 :  Virtual Str1 SN 
 VS02.                90569596:  Virtual Str2 SN 
 VS03.                90523599:  Virtual Str3 SN 
 VS04.                90573553:  Virtual Str4 SN 
 VS05.                90598598:  Virtual Str5 SN 
 VS06.                90577297:  Virtual Str6 SN 
 WBMN.klb                13.00:  WOB Min 
 WITN.         Alistair Sprott:  Customer Rep 
 WITN.           Rufat Babayev:  Customer Rep 2 
 WOBA.klb                15.00:  WOB Avg 
 WOBX.klb                20.00:  WOB Max 
 YP  .lhf2               39.00:  Yield Point 
~Curve Information Block
#MNEM.UNIT                 API CODE     Curve Description
#---------               -----------    ---------------------------
 TIME.HHMMSS            00 000 000 000:  GT Time & Date
 GTDEPTH.m              00 000 000 000:  GT Depth
 GTPQH.psia             00 000 000 000:  GT HR Quartz Pressure
 GTTQ.degC              00 000 000 000:  GT Quartz Temperature
 GTTN.NONE              00 000 000 000:  GT Test Number
 GTET.sec               00 000 000 000:  GT Elapsed Test Time
 GTTVD.m                00 000 000 000:  GT True Vertical Depth
#Other Information
#
#WARRANTY: Halliburton will use its best efforts to furnish customers with 
#accurate information and interpretations that are part of, and incident to, the services 
#provided.  However, Halliburton cannot and does not warrant the accuracy 
#or correctness of such information and interpretations.  Under no circumstances should any 
#such information or interpretation be relied upon as the sole basis for any drilling, 
#completion, production, or financial decision or any procedure involving any risk to the 
#safety of any drilling venture, drilling rig or its crew or any other third party.  The 
#Customer has full responsibility for all drilling, completion and production operation.  
#Halliburton makes no representations or warranties, either expressed or 
#implied, including, but not limited to, the implied warranties of merchantability or fitness 
#for a particular purpose, with respect to the services rendered.  In no event will 
#Halliburton be liable for failure to obtain any particular results or for 
#any damages, including, but not limited to, indirect, special or consequential damages, 
#resulting from the use of any information or interpretation provided by Halliburton.
#
~A           TIME           GTDEPTH  GTPQH  GTTQ  GTTN  GTET   GTTVD  
# ...
   08:20:48.525.08-Feb-2020 3134.51 4213.96 74.09 1.00  69.01 2647.81
   08:20:48.725.08-Feb-2020 3134.51 4213.96 74.09 1.00  69.21 2647.81
   08:20:48.925.08-Feb-2020 3134.51 4263.53 74.09 1.00  69.41 2647.81
   08:20:49.125.08-Feb-2020 3134.51 4285.55 74.09 1.00  69.61 2647.81
   08:20:49.325.08-Feb-2020 3134.51 4305.89 74.09 1.00  69.81 2647.81
   08:20:49.525.08-Feb-2020 3134.51 4324.24 74.09 1.00  70.01 2647.81
   08:20:49.725.08-Feb-2020 3134.51 4324.24 74.09 1.00  70.21 2647.81
   08:20:49.926.08-Feb-2020 3134.51 4355.98 74.10 1.00  70.41 2647.81
   08:20:50.126.08-Feb-2020 3134.51 4370.90 74.10 1.00  70.61 2647.81
   08:20:50.326.08-Feb-2020 3134.51 4384.95 74.10 1.00  70.81 2647.81
   08:20:50.526.08-Feb-2020 3134.51 4398.14 74.10 1.00  71.01 2647.81
   08:20:50.726.08-Feb-2020 3134.51 4398.14 74.10 1.00  71.21 2647.81
   08:20:50.926.08-Feb-2020 3134.51 4422.73 74.10 1.00  71.41 2647.81
   08:20:51.126.08-Feb-2020 3134.51 4433.09 74.10 1.00  71.61 2647.81
   08:20:51.326.08-Feb-2020 3134.51 4443.10 74.10 1.00  71.81 2647.81
   08:20:51.526.08-Feb-2020 3134.51 4453.08 74.10 1.00  72.01 2647.81
   08:20:51.726.08-Feb-2020 3134.51 4453.08 74.10 1.00  72.21 2647.81
   08:20:51.926.08-Feb-2020 3134.51 4470.49 74.11 1.00  72.41 2647.81
   08:20:52.126.08-Feb-2020 3134.51 4478.26 74.11 1.00  72.61 2647.81
   08:20:52.326.08-Feb-2020 3134.51 4486.30 74.11 1.00  72.81 2647.81
   08:20:52.526.08-Feb-2020 3134.51 4493.48 74.11 1.00  73.01 2647.81
   08:20:52.726.08-Feb-2020 3134.51 4493.48 74.11 1.00  73.21 2647.81
   08:20:52.926.08-Feb-2020 3134.51 4507.43 74.11 1.00  73.41 2647.81
   08:20:53.126.08-Feb-2020 3134.51 4513.53 74.11 1.00  73.61 2647.81
   08:20:53.326.08-Feb-2020 3134.51 4519.48 74.11 1.00  73.81 2647.81
   08:20:53.526.08-Feb-2020 3134.51 4525.01 74.11 1.00  74.01 2647.81
   08:20:53.726.08-Feb-2020 3134.51 4525.01 74.11 1.00  74.21 2647.81
   08:20:53.926.08-Feb-2020 3134.51 4535.76 74.11 1.00  74.41 2647.81
   08:20:54.126.08-Feb-2020 3134.51 4540.40 74.11 1.00  74.61 2647.81
   08:20:54.326.08-Feb-2020 3134.51 4545.08 74.11 1.00  74.81 2647.81
   08:20:54.526.08-Feb-2020 3134.51 4549.64 74.11 1.00  75.01 2647.81
   08:20:54.726.08-Feb-2020 3134.51 4549.64 74.11 1.00  75.21 2647.81
   08:20:54.926.08-Feb-2020 3134.51 4557.71 74.11 1.00  75.41 2647.81
   08:20:55.126.08-Feb-2020 3134.51 4561.24 74.12 1.00  75.61 2647.81
   08:20:55.326.08-Feb-2020 3134.51 4564.99 74.12 1.00  75.81 2647.81
   08:20:55.526.08-Feb-2020 3134.51 4568.29 74.12 1.00  76.01 2647.81
   08:20:55.726.08-Feb-2020 3134.51 4568.29 74.12 1.00  76.21 2647.81
   08:20:55.926.08-Feb-2020 3134.51 4575.86 74.12 1.00  76.41 2647.81
   08:20:56.126.08-Feb-2020 3134.51 4578.81 74.12 1.00  76.61 2647.81
   08:20:56.326.08-Feb-2020 3134.51 4581.95 74.12 1.00  76.81 2647.81
   08:20:56.526.08-Feb-2020 3134.51 4585.26 74.12 1.00  77.01 2647.81
   08:20:56.726.08-Feb-2020 3134.51 4585.26 74.12 1.00  77.21 2647.81
   08:20:56.926.08-Feb-2020 3134.51 4590.95 74.12 1.00  77.41 2647.81
   08:20:57.126.08-Feb-2020 3134.51 4593.94 74.12 1.00  77.61 2647.81
   08:20:57.326.08-Feb-2020 3134.51 4596.28 74.12 1.00  77.81 2647.81
   08:20:57.526.08-Feb-2020 3134.51 4598.98 74.12 1.00  78.01 2647.81
   08:20:57.726.08-Feb-2020 3134.51 4598.98 74.12 1.00  78.21 2647.81
   08:20:57.926.08-Feb-2020 3134.51 4603.02 74.12 1.00  78.41 2647.81
   08:20:58.126.08-Feb-2020 3134.51 4605.20 74.12 1.00  78.61 2647.81
   08:20:58.326.08-Feb-2020 3134.51 4607.57 74.12 1.00  78.81 2647.81
   08:20:58.526.08-Feb-2020 3134.51 4609.88 74.12 1.00  79.01 2647.81
   08:20:58.726.08-Feb-2020 3134.51 4609.88 74.12 1.00  79.21 2647.81
   08:20:58.926.08-Feb-2020 3134.51 4613.73 74.12 1.00  79.41 2647.81
   08:20:59.126.08-Feb-2020 3134.51 4615.81 74.12 1.00  79.61 2647.81
   08:20:59.326.08-Feb-2020 3134.51 4617.81 74.12 1.00  79.81 2647.81
   08:20:59.526.08-Feb-2020 3134.51 4620.03 74.12 1.00  80.01 2647.81
   08:20:59.726.08-Feb-2020 3134.51 4620.03 74.12 1.00  80.21 2647.81
   08:20:59.926.08-Feb-2020 3134.51 4623.16 74.12 1.00  80.41 2647.81
   08:21:00.126.08-Feb-2020 3134.51 4625.50 74.12 1.00  80.61 2647.81
   08:21:00.326.08-Feb-2020 3134.51 4626.53 74.12 1.00  80.81 2647.81
   08:21:00.526.08-Feb-2020 3134.51 4628.21 74.12 1.00  81.01 2647.81
   08:21:00.726.08-Feb-2020 3134.51 4628.21 74.12 1.00  81.21 2647.81
   08:21:00.926.08-Feb-2020 3134.51 4631.76 74.12 1.00  81.41 2647.81
   08:21:01.126.08-Feb-2020 3134.51 4633.42 74.12 1.00  81.61 2647.81
   08:21:01.326.08-Feb-2020 3134.51 4635.36 74.12 1.00  81.81 2647.81
   08:21:01.526.08-Feb-2020 3134.51 4636.70 74.12 1.00  82.01 2647.81
   08:21:01.726.08-Feb-2020 3134.51 4636.70 74.12 1.00  82.21 2647.81
   08:21:01.927.08-Feb-2020 3134.51 4639.55 74.12 1.00  82.41 2647.81
   08:21:02.127.08-Feb-2020 3134.51 4640.82 74.12 1.00  82.61 2647.81
   08:21:02.327.08-Feb-2020 3134.51 4642.20 74.11 1.00  82.81 2647.81
   08:21:02.527.08-Feb-2020 3134.51 4643.59 74.11 1.00  83.01 2647.81
   08:21:02.727.08-Feb-2020 3134.51 4643.59 74.11 1.00  83.21 2647.81
   08:21:02.927.08-Feb-2020 3134.51 4646.35 74.11 1.00  83.41 2647.81
   08:21:03.127.08-Feb-2020 3134.51 4647.36 74.11 1.00  83.61 2647.81
   08:21:03.327.08-Feb-2020 3134.51 4648.25 74.11 1.00  83.81 2647.81
   08:21:03.527.08-Feb-2020 3134.51 4649.63 74.11 1.00  84.01 2647.81
   08:21:03.727.08-Feb-2020 3134.51 4649.63 74.11 1.00  84.21 2647.81
   08:21:03.927.08-Feb-2020 3134.51 4651.63 74.11 1.00  84.41 2647.81
   08:21:04.127.08-Feb-2020 3134.51 4652.74 74.11 1.00  84.61 2647.81
   08:21:04.327.08-Feb-2020 3134.51 4653.91 74.11 1.00  84.81 2647.81
   08:21:04.527.08-Feb-2020 3134.51 4654.46 74.11 1.00  85.01 2647.81
   08:21:04.727.08-Feb-2020 3134.51 4654.46 74.11 1.00  85.21 2647.81
   08:21:04.927.08-Feb-2020 3134.51 4656.47 74.11 1.00  85.41 2647.81
   08:21:05.127.08-Feb-2020 3134.51 4657.38 74.11 1.00  85.61 2647.81
   08:21:05.327.08-Feb-2020 3134.51 4658.22 74.11 1.00  85.81 2647.81
   08:21:05.527.08-Feb-2020 3134.51 4659.29 74.11 1.00  86.01 2647.81
   08:21:05.727.08-Feb-2020 3134.51 4659.29 74.11 1.00  86.21 2647.81
   08:21:05.927.08-Feb-2020 3134.51 4661.03 74.11 1.00  86.41 2647.81
   08:21:06.127.08-Feb-2020 3134.51 4662.08 74.11 1.00  86.61 2647.81
   08:21:06.327.08-Feb-2020 3134.51 4662.53 74.11 1.00  86.81 2647.81
   08:21:06.527.08-Feb-2020 3134.51 4663.38 74.11 1.00  87.01 2647.81
   08:21:06.727.08-Feb-2020 3134.51 4663.38 74.11 1.00  87.21 2647.81
   08:21:06.927.08-Feb-2020 3134.51 4665.19 74.11 1.00  87.41 2647.81
   08:21:07.127.08-Feb-2020 3134.51 4666.22 74.11 1.00  87.61 2647.81
   08:21:07.327.08-Feb-2020 3134.51 4667.32 74.11 1.00  87.81 2647.81
   08:21:07.527.08-Feb-2020 3134.51 4667.91 74.11 1.00  88.01 2647.81
   08:21:07.727.08-Feb-2020 3134.51 4667.91 74.11 1.00  88.21 2647.81
   08:21:07.927.08-Feb-2020 3134.51 4669.35 74.10 1.00  88.41 2647.81
   08:21:08.127.08-Feb-2020 3134.51 4670.40 74.10 1.00  88.61 2647.81
   08:21:08.327.08-Feb-2020 3134.51 4671.00 74.10 1.00  88.81 2647.81
   08:21:08.527.08-Feb-2020 3134.51 4671.69 74.10 1.00  89.01 2647.81
   08:21:08.727.08-Feb-2020 3134.51 4671.69 74.10 1.00  89.21 2647.81
   08:21:08.927.08-Feb-2020 3134.51 4673.00 74.10 1.00  89.41 2647.81
   08:21:09.127.08-Feb-2020 3134.51 4673.57 74.10 1.00  89.61 2647.81
   08:21:09.327.08-Feb-2020 3134.51 4674.40 74.10 1.00  89.81 2647.81
   08:21:09.527.08-Feb-2020 3134.51 4674.84 74.10 1.00  90.01 2647.81
   08:21:09.727.08-Feb-2020 3134.51 4674.84 74.10 1.00  90.21 2647.81
   08:21:09.927.08-Feb-2020 3134.51 4676.61 74.10 1.00  90.41 2647.81
   08:21:10.127.08-Feb-2020 3134.51 4676.76 74.10 1.00  90.61 2647.81
   08:21:10.327.08-Feb-2020 3134.51 4677.28 74.10 1.00  90.81 2647.81
   08:21:10.527.08-Feb-2020 3134.51 4678.40 74.10 1.00  91.01 2647.81
   08:21:10.727.08-Feb-2020 3134.51 4678.40 74.10 1.00  91.21 2647.81
   08:21:10.927.08-Feb-2020 3134.51 4678.72 74.10 1.00  91.41 2647.81
   08:21:11.127.08-Feb-2020 3134.51 4679.47 74.10 1.00  91.61 2647.81
   08:21:11.327.08-Feb-2020 3134.51 4679.91 74.10 1.00  91.81 2647.81
