~Version Information
 VERS.                  2.0:   CWLS log ASCII Standard -VERSION 2.0
 WRAP.                   NO:   One line per depth step
~Well Information Block
#MNEM.UNIT     VALUE/NAME     DESCRIPTION
#---------     -----------    ---------------------------
 STRT.S             08:41:50 08-Feb-20: START TIME 08:41:50 08-Feb-20
 STOP.S             08:48:48 08-Feb-20: STOP TIME  08:48:48 08-Feb-20
 STEP.S                   0.00: STEP TIME
 NULL.                 -999.25: NULL VALUE
 DFWT.                        :  DIST FWL TEXT
 DFST.                        :  DIST FSL TEXT
 DMF .             Drill Floor:  DRILL MEAS FROM
 STIM.      07.00.00 09-Jan-20:  START TIME
 DATE.      14.04.48 07-Feb-20:  END TIME
 SPUD.               09-Jan-20:  SPUD DATE
 NREF.                    Grid:  NORTH REFERENCE
 HPTY.       Minimum Curvature:  HOLE POS TYPE
 DMOD.             Drill Model:  DRILL MOD DESC
 SVYD.                  Survey:  SURVEY DESC
 ILTD.               Lithology:  INTERP LTH DESC
 FTOP.          Formation Tops:  FORM TOPS DESC
 SON .        AZ-XX-0905059384:  JOB NUMBER
 MDS .        Operator Entered:  MAG DATA SOURCE
 WTYP.                Deviated:  WELL TYPE
 COMP.     BP Exploration (Caspian Sea) Ltd.:  COMPANY
 UWI .                     N/A:  UNIQUE WELL IDENTIFIER
 API .                     N/A:  API NUMBER
 BASE.              Azerbaijan:  LOGGING EQUIPMENT BASE LOCATION
 REGN.                   EESSA:  REGION
 PROV.                    Baku:  PROVINCE
 STAT.                    Baku:  STATE NAME
 CTRY.              Azerbaijan:  COUNTRY NAME
 FLD .                     ACG:  FIELD NAME
 SRVC.     TURAN Drilling & Engineering:  CONTRACTOR
 MWDS.                    Baku:  MWD SHOP
 WELL.                     J22:  WELL NAME
 RIG .             West Chirag:  RIG NAME
 DOE .                     N/A:  DOE NUMBER
 DCON.         Sperry Drilling:  DIRECTNL CONTR
 UNIT.                     N/A:  LOGGING EQUIPMENT ID
 PDAT.          Mean Sea Level:  PERMANENT DATUM
 JOBN.        AZ-XX-0905059384:  JOB TICKET NUMB
 CNTY.                        :  COUNTY
 LOC .                        :  LOCATION
 LMF .             Drill Floor:  LOG MEASURED FROM
 TVDS.m                  43.00:  TVDSS CORRECTN
 LATI.deg                40.13:  LATITUDE
 LONG.deg                51.22:  LONGITUDE
 WHNS.m                  10.28:  WELL HEAD N/S
 WHEW.m                  -6.24:  WELL HEAD E/W
 UTMX.m              519005.06:  UTM X
 UTMY.m             4443793.85:  UTM Y
 DFWL.m                   0.00:  DISTANCE FWL
 DFSL.m                   0.00:  DISTANCE FSL
 SDEP.m                 362.00:  START DEPTH
 TDD .m                 904.00:  TOTAL DEPTH (DRILLER)
 VSDR.deg               148.53:  VERT SEC DIRECT
 GVFD.g                   1.00:  GRAVITY FIELD
 MFLD.nT              50277.00:  MAGNETIC FIELD
 MDIP.deg                59.56:  MAGNETIC DIP
 MDEC.deg                 6.42:  MAGNETIC DECL
 GRDC.deg                 0.15:  GRID CORRECTION
 AZTC.deg                 6.27:  AZM TOTAL CORR
 EPD .m                   0.00:  ELEVATION
 EGL .m                   0.00:  GROUND ELEVATION
 WDMS.m                 169.80:  WD ELEV
 APD .m                  43.00:  DEPTH ABOVE PD
 AGAP.m                  43.00:  AIR GAP
 VSEW.m                  -6.24:  VERT SEC E/W
 VSNS.m                  10.28:  VERT SEC N/S
 DEP .m                   0.00:  DEPTH
 EKB .m                   0.00:  KB ELEVATION
 EDF .m                  43.00:  DF ELEVATION
 TDL .m                1183.00:  TOTAL DEPTH (LOGGER)
 VSC .                       0:  VS TO CLOSURE
 MAGU.                 1850021:  MAGUTM CHECKSUM
~Parameter Information Block
#MNEM.UNIT       Value        Description
#---------     -----------    ---------------------------
 AV  .mps                 4.00:  Ann Velocity 
 AVMX.mps                 4.50:  Max Ann Veloc 
 AZIF.deg               145.38:  Azm, Final 
 BHAT.        Rotary Steerable:  BHA Type 
 BROT.°/30m               3.00:  Build Rotating 
 BS  .in                 12.25:  Bit Size 
 BSZ .in                 12.25:  Bit Size 
 BTPL.psig              650.00:  Bit Press Loss 
 CABU.                      No:  Customer Abuse 
 COMM.                     [:  Run Comments 1 
 TCS .hr                101.62:  Time Ciculation Ended 
 CV  .mps                 5.00:  Crit Velocity 
 CVMX.mps                 5.00:  Max Crit Veloc 
 DD1 .             Aziz Aliyev:  Direct Drillr 1 
 DD2 .      Fakhraddin Guliyev:  Direct Drillr 2 
 DDSV.                 iCruise:  DD Service 
 DEFF.%                  97.00:  % Det Eff 
 DLRX.°/30m               4.16:  Dogleg Rot Max 
 DLSO.°/30m               3.20:  Dogleg Oriented 
 DLSX.°/30m               4.10:  Dogleg Str Max 
 DRET.      23.12.00 07-Feb-20:  Drill End Time 
 DRST.      11.30.00 04-Feb-20:  Drill Start Tim 
 DTIM.hr                 61.06:  Time Drilling 
 EDEP.m                3219.01:  End Depth 
 ENG1.         Almaz Almadatov:  Engineer 1 
 ENG2.         Dair Mahammadov:  Engineer 2 
 ENG3.          Nazrin Asgarli:  Engineer 3 
 ETIM.      02.30.00 11-Feb-20:  End Time 
 FLOI.gpm              1100.00:  Flow In 
 FLON.gpm               900.00:  Flow In Min 
 FLOS.cptm               55.00:  Fluid Loss 
 FLOX.gpm              1150.00:  Flow In Max 
 FTRO.       Formation Presure:  FTWD Run Obj 
 HFLO.                      No:  High Flow 
 HPRE.                      No:  High Pressure 
 HTEM.                      No:  High Temp 
 HYDO.m                   1.80:  Hydro Offset 
 IFIN.deg                75.11:  Inc, Final 
 IMAX.deg                75.11:  Inc Max 
 IMIN.deg                33.55:  Inc Min 
 IMND.m                2186.05:  Inc Min Depth 
 IMXD.m                3205.61:  Inc Max Depth 
 JARR.                      No:  Jarring 
 LETM.      23.12.00 07-Feb-20:  Log End Time 
 LOST.hr                     0:  Lost Rig Time 
 LSTM.      11.30.00 04-Feb-20:  Log Start Time 
 MDCL.ppm             40000.00:  Mud Chlorides 
 MDES.     Inversion Oil/Synthetic:  Mud Desc 
 DFD .sg                  1.49:  Mud Density 
 MDMN.sg                  1.49:  Dens Mud Min 
 MDMX.sg                  1.49:  Dens Mud Max 
 MOIL.                      73:  Run Mud Oil % 
 MOWR.                   73:27:  Run Mud OWR 
 MSND.                     0.1:  Run Mud Sand % 
 MSOL.                    20.1:  Run Mud Solids% 
 DFV .spqt               78.00:  Mud Viscosity 
 MWOD.in                  8.00:  MWD Tool OD 
 MWSI.                      No:  Serv Intrp, MWD 
 OTIM.hr                177.15:  Time Operating 
 PCON.          Wear / Scratch:  Pad Condition 
 PMAX.psia            10493.93:  Press Op, Max 
 PV  .cP                 73.00:  Mud PV 
 RUN .                     700:  Run Number 
 ROPA.m/hr               15.00:  ROP Avg 
 ROPN.m/hr               10.00:  ROP Min 
 ROPX.m/hr               35.00:  ROP Max 
 RPMA.rpm               130.00:  RPM Surface Avg 
 RPMN.rpm                80.00:  RPM Surface Min 
 RPMX.rpm               150.00:  RPM Surface Max 
 RRUN.                    L402:  Rig Run Number 
 RTIM.hr                 80.50:  Time Reaming 
 SAZI.deg               155.55:  Azm, Start 
 SDEP.m                2036.00:  Start Depth 
 SIDD.                      No:  Serv Intrp, DD 
 SINC.deg                35.44:  Inc, Start 
 SPPA.psig             4270.00:  SPP Avg 
 SPPN.psig             2800.00:  SPP Min 
 SPPX.psig             4850.00:  SPP Max 
 STIM.      09.30.00 03-Feb-20:  Start Time 
 SVCS.                 DD, MWD:  Services 
 SVER.                    9.20:  Sperry Version 
 TDAT.m                1183.00:  Tot Depth Attmp 
 TDDF.                      No:  Trip for DD 
 TDLG.m                1183.00:  Tot Depth Loggd 
 TFF .                      No:  Trip for Fail 
 TQAA.f-kp               16.00:  Torque Abs Avg 
 TQAN.f-kp               10.00:  Torque Abs Min 
 TQAX.f-kp               20.00:  Torque Abs Max 
 TRRT.°/30m               1.00:  Turn Rotating 
 MRT .                  EWR-M5:  Maximum Recorded Temperature 
 TTMX.degC               80.39:  Max Tool Temp 
 VS01.               13098498 :  Virtual Str1 SN 
 VS02.                90569596:  Virtual Str2 SN 
 VS03.                90523599:  Virtual Str3 SN 
 VS04.                90573553:  Virtual Str4 SN 
 VS05.                90598598:  Virtual Str5 SN 
 VS06.                90577297:  Virtual Str6 SN 
 WBMN.klb                13.00:  WOB Min 
 WITN.         Alistair Sprott:  Customer Rep 
 WITN.           Rufat Babayev:  Customer Rep 2 
 WOBA.klb                15.00:  WOB Avg 
 WOBX.klb                20.00:  WOB Max 
 YP  .lhf2               39.00:  Yield Point 
~Curve Information Block
#MNEM.UNIT                 API CODE     Curve Description
#---------               -----------    ---------------------------
 TIME.HHMMSS            00 000 000 000:  GT Time & Date
 GTDEPTH.m              00 000 000 000:  GT Depth
 GTPQH.psia             00 000 000 000:  GT HR Quartz Pressure
 GTTQ.degC              00 000 000 000:  GT Quartz Temperature
 GTTN.NONE              00 000 000 000:  GT Test Number
 GTET.sec               00 000 000 000:  GT Elapsed Test Time
 GTTVD.m                00 000 000 000:  GT True Vertical Depth
#Other Information
#
#WARRANTY: Halliburton will use its best efforts to furnish customers with 
#accurate information and interpretations that are part of, and incident to, the services 
#provided.  However, Halliburton cannot and does not warrant the accuracy 
#or correctness of such information and interpretations.  Under no circumstances should any 
#such information or interpretation be relied upon as the sole basis for any drilling, 
#completion, production, or financial decision or any procedure involving any risk to the 
#safety of any drilling venture, drilling rig or its crew or any other third party.  The 
#Customer has full responsibility for all drilling, completion and production operation.  
#Halliburton makes no representations or warranties, either expressed or 
#implied, including, but not limited to, the implied warranties of merchantability or fitness 
#for a particular purpose, with respect to the services rendered.  In no event will 
#Halliburton be liable for failure to obtain any particular results or for 
#any damages, including, but not limited to, indirect, special or consequential damages, 
#resulting from the use of any information or interpretation provided by Halliburton.
#
~A           TIME           GTDEPTH  GTPQH  GTTQ  GTTN  GTET   GTTVD  
# ...
   08:45:40.650.08-Feb-2020 3153.01 5768.79 71.08 2.00 230.02 2652.69
   08:45:40.850.08-Feb-2020 3153.01 5768.79 71.08 2.00 230.22 2652.69
   08:45:41.050.08-Feb-2020 3153.01 5765.35 71.08 2.00 230.42 2652.69
   08:45:41.250.08-Feb-2020 3153.01 5765.04 71.08 2.00 230.62 2652.69
   08:45:41.450.08-Feb-2020 3153.01 5766.97 71.08 2.00 230.82 2652.69
   08:45:41.650.08-Feb-2020 3153.01 5766.21 71.08 2.00 231.02 2652.69
   08:45:41.850.08-Feb-2020 3153.01 5766.21 71.08 2.00 231.22 2652.69
   08:45:42.051.08-Feb-2020 3153.01 5766.81 71.08 2.00 231.42 2652.69
   08:45:42.251.08-Feb-2020 3153.01 5766.03 71.08 2.00 231.62 2652.69
   08:45:42.451.08-Feb-2020 3153.01 5765.60 71.08 2.00 231.82 2652.69
   08:45:42.651.08-Feb-2020 3153.01 5766.30 71.08 2.00 232.02 2652.69
   08:45:42.851.08-Feb-2020 3153.01 5766.30 71.08 2.00 232.22 2652.69
   08:45:43.051.08-Feb-2020 3153.01 5765.54 71.08 2.00 232.42 2652.69
   08:45:43.251.08-Feb-2020 3153.01 5763.57 71.08 2.00 232.62 2652.69
   08:45:43.451.08-Feb-2020 3153.01 5772.32 71.08 2.00 232.82 2652.69
   08:45:43.651.08-Feb-2020 3153.01 5766.43 71.08 2.00 233.02 2652.69
   08:45:43.851.08-Feb-2020 3153.01 5766.43 71.08 2.00 233.22 2652.69
   08:45:44.051.08-Feb-2020 3153.01 5765.36 71.08 2.00 233.42 2652.69
   08:45:44.251.08-Feb-2020 3153.01 5771.82 71.08 2.00 233.62 2652.69
   08:45:44.451.08-Feb-2020 3153.01 5765.83 71.08 2.00 233.82 2652.69
   08:45:44.651.08-Feb-2020 3153.01 5763.92 71.08 2.00 234.02 2652.69
   08:45:44.851.08-Feb-2020 3153.01 5763.92 71.08 2.00 234.22 2652.69
   08:45:45.051.08-Feb-2020 3153.01 5765.86 71.08 2.00 234.42 2652.69
   08:45:45.251.08-Feb-2020 3153.01 5763.66 71.08 2.00 234.62 2652.69
   08:45:45.451.08-Feb-2020 3153.01 5770.39 71.08 2.00 234.82 2652.69
   08:45:45.651.08-Feb-2020 3153.01 5767.19 71.08 2.00 235.02 2652.69
   08:45:45.851.08-Feb-2020 3153.01 5767.19 71.08 2.00 235.22 2652.69
   08:45:46.051.08-Feb-2020 3153.01 5764.89 71.08 2.00 235.42 2652.69
   08:45:46.251.08-Feb-2020 3153.01 5766.87 71.08 2.00 235.62 2652.69
   08:45:46.451.08-Feb-2020 3153.01 5766.46 71.08 2.00 235.82 2652.69
   08:45:46.651.08-Feb-2020 3153.01 5765.71 71.08 2.00 236.02 2652.69
   08:45:46.851.08-Feb-2020 3153.01 5765.71 71.08 2.00 236.22 2652.69
   08:45:47.051.08-Feb-2020 3153.01 5767.00 71.08 2.00 236.42 2652.69
   08:45:47.251.08-Feb-2020 3153.01 5766.05 71.08 2.00 236.62 2652.69
   08:45:47.451.08-Feb-2020 3153.01 5766.56 71.08 2.00 236.82 2652.69
   08:45:47.651.08-Feb-2020 3153.01 5767.63 71.08 2.00 237.02 2652.69
   08:45:47.851.08-Feb-2020 3153.01 5767.63 71.08 2.00 237.22 2652.69
   08:45:48.051.08-Feb-2020 3153.01 5766.95 71.08 2.00 237.42 2652.69
   08:45:48.251.08-Feb-2020 3153.01 5765.28 71.08 2.00 237.62 2652.69
   08:45:48.451.08-Feb-2020 3153.01 5766.49 71.08 2.00 237.82 2652.69
   08:45:48.651.08-Feb-2020 3153.01 5766.99 71.08 2.00 238.02 2652.69
   08:45:48.851.08-Feb-2020 3153.01 5766.99 71.08 2.00 238.22 2652.69
   08:45:49.051.08-Feb-2020 3153.01 5766.54 71.08 2.00 238.42 2652.69
   08:45:49.251.08-Feb-2020 3153.01 5767.06 71.08 2.00 238.62 2652.69
   08:45:49.451.08-Feb-2020 3153.01 5766.10 71.08 2.00 238.82 2652.69
   08:45:49.651.08-Feb-2020 3153.01 5766.39 71.07 2.00 239.02 2652.69
   08:45:49.851.08-Feb-2020 3153.01 5766.39 71.07 2.00 239.22 2652.69
   08:45:50.051.08-Feb-2020 3153.01 5767.46 71.07 2.00 239.42 2652.69
   08:45:50.251.08-Feb-2020 3153.01 5764.28 71.07 2.00 239.62 2652.69
   08:45:50.451.08-Feb-2020 3153.01 5771.94 71.07 2.00 239.82 2652.69
   08:45:50.651.08-Feb-2020 3153.01 5766.55 71.07 2.00 240.02 2652.69
   08:45:50.851.08-Feb-2020 3153.01 5766.55 71.07 2.00 240.22 2652.69
   08:45:51.051.08-Feb-2020 3153.01 5765.01 71.07 2.00 240.42 2652.69
   08:45:51.251.08-Feb-2020 3153.01 5770.04 71.07 2.00 240.62 2652.69
   08:45:51.451.08-Feb-2020 3153.01 5767.47 71.07 2.00 240.82 2652.69
   08:45:51.651.08-Feb-2020 3153.01 5764.06 71.07 2.00 241.02 2652.69
   08:45:51.851.08-Feb-2020 3153.01 5764.06 71.07 2.00 241.22 2652.69
   08:45:52.051.08-Feb-2020 3153.01 5764.78 71.07 2.00 241.42 2652.69
   08:45:52.251.08-Feb-2020 3153.01 5762.75 71.07 2.00 241.62 2652.69
   08:45:52.451.08-Feb-2020 3153.01 5767.53 71.07 2.00 241.82 2652.69
   08:45:52.651.08-Feb-2020 3153.01 5768.49 71.07 2.00 242.02 2652.69
   08:45:52.851.08-Feb-2020 3153.01 5768.49 71.07 2.00 242.22 2652.69
   08:45:53.051.08-Feb-2020 3153.01 5764.64 71.07 2.00 242.42 2652.69
   08:45:53.251.08-Feb-2020 3153.01 5767.01 71.07 2.00 242.62 2652.69
   08:45:53.451.08-Feb-2020 3153.01 5767.28 71.07 2.00 242.82 2652.69
   08:45:53.651.08-Feb-2020 3153.01 5766.14 71.07 2.00 243.02 2652.69
   08:45:53.851.08-Feb-2020 3153.01 5766.14 71.07 2.00 243.22 2652.69
   08:45:54.052.08-Feb-2020 3153.01 5767.61 71.07 2.00 243.42 2652.69
   08:45:54.252.08-Feb-2020 3153.01 5766.48 71.07 2.00 243.62 2652.69
   08:45:54.452.08-Feb-2020 3153.01 5766.83 71.07 2.00 243.82 2652.69
   08:45:54.652.08-Feb-2020 3153.01 5766.70 71.07 2.00 244.02 2652.69
   08:45:54.852.08-Feb-2020 3153.01 5766.70 71.07 2.00 244.22 2652.69
   08:45:55.052.08-Feb-2020 3153.01 5767.47 71.07 2.00 244.42 2652.69
   08:45:55.252.08-Feb-2020 3153.01 5765.48 71.07 2.00 244.62 2652.69
   08:45:55.452.08-Feb-2020 3153.01 5766.43 71.07 2.00 244.82 2652.69
   08:45:55.652.08-Feb-2020 3153.01 5766.92 71.07 2.00 245.02 2652.69
   08:45:55.852.08-Feb-2020 3153.01 5766.92 71.07 2.00 245.22 2652.69
   08:45:56.052.08-Feb-2020 3153.01 5766.40 71.07 2.00 245.42 2652.69
   08:45:56.252.08-Feb-2020 3153.01 5766.81 71.07 2.00 245.62 2652.69
   08:45:56.452.08-Feb-2020 3153.01 5765.67 71.07 2.00 245.82 2652.69
   08:45:56.652.08-Feb-2020 3153.01 5765.71 71.07 2.00 246.02 2652.69
   08:45:56.852.08-Feb-2020 3153.01 5765.71 71.07 2.00 246.22 2652.69
   08:45:57.052.08-Feb-2020 3153.01 5767.97 71.07 2.00 246.42 2652.69
   08:45:57.252.08-Feb-2020 3153.01 5764.50 71.07 2.00 246.62 2652.69
   08:45:57.452.08-Feb-2020 3153.01 5769.80 71.07 2.00 246.82 2652.69
   08:45:57.652.08-Feb-2020 3153.01 5767.50 71.07 2.00 247.02 2652.69
   08:45:57.852.08-Feb-2020 3153.01 5767.50 71.07 2.00 247.22 2652.69
   08:45:58.052.08-Feb-2020 3153.01 5764.45 71.07 2.00 247.42 2652.69
   08:45:58.252.08-Feb-2020 3153.01 5771.05 71.07 2.00 247.62 2652.69
   08:45:58.452.08-Feb-2020 3153.01 5766.85 71.07 2.00 247.82 2652.69
   08:45:58.652.08-Feb-2020 3153.01 5763.86 71.07 2.00 248.02 2652.69
   08:45:58.852.08-Feb-2020 3153.01 5763.86 71.07 2.00 248.22 2652.69
   08:45:59.052.08-Feb-2020 3153.01 5768.03 71.07 2.00 248.42 2652.69
   08:45:59.252.08-Feb-2020 3153.01 5765.27 71.07 2.00 248.62 2652.69
   08:45:59.452.08-Feb-2020 3153.01 5763.63 71.07 2.00 248.82 2652.69
   08:45:59.652.08-Feb-2020 3153.01 5765.24 71.07 2.00 249.02 2652.69
   08:45:59.852.08-Feb-2020 3153.01 5765.24 71.07 2.00 249.22 2652.69
   08:46:00.052.08-Feb-2020 3153.01 5766.61 71.06 2.00 249.42 2652.69
   08:46:00.252.08-Feb-2020 3153.01 5765.90 71.06 2.00 249.62 2652.69
   08:46:00.452.08-Feb-2020 3153.01 5766.48 71.06 2.00 249.82 2652.69
   08:46:00.652.08-Feb-2020 3153.01 5766.53 71.06 2.00 250.02 2652.69
   08:46:00.852.08-Feb-2020 3153.01 5766.53 71.06 2.00 250.22 2652.69
   08:46:01.052.08-Feb-2020 3153.01 5767.28 71.06 2.00 250.42 2652.69
   08:46:01.252.08-Feb-2020 3153.01 5766.57 71.06 2.00 250.62 2652.69
   08:46:01.452.08-Feb-2020 3153.01 5766.25 71.06 2.00 250.82 2652.69
   08:46:01.652.08-Feb-2020 3153.01 5766.01 71.06 2.00 251.02 2652.69
   08:46:01.852.08-Feb-2020 3153.01 5766.01 71.06 2.00 251.22 2652.69
   08:46:02.052.08-Feb-2020 3153.01 5766.58 71.06 2.00 251.42 2652.69
   08:46:02.252.08-Feb-2020 3153.01 5767.96 71.06 2.00 251.62 2652.69
   08:46:02.452.08-Feb-2020 3153.01 5767.00 71.06 2.00 251.82 2652.69
   08:46:02.652.08-Feb-2020 3153.01 5766.10 71.06 2.00 252.02 2652.69
   08:46:02.852.08-Feb-2020 3153.01 5766.10 71.06 2.00 252.22 2652.69
   08:46:03.052.08-Feb-2020 3153.01 5766.76 71.06 2.00 252.42 2652.69
   08:46:03.252.08-Feb-2020 3153.01 5766.66 71.06 2.00 252.62 2652.69
   08:46:03.452.08-Feb-2020 3153.01 5766.12 71.06 2.00 252.82 2652.69
