~Version Information
 VERS.                  2.0:   CWLS log ASCII Standard -VERSION 2.0
 WRAP.                   NO:   One line per depth step
~Well Information Block
#MNEM.UNIT     VALUE/NAME     DESCRIPTION
#---------     -----------    ---------------------------
 STRT.S             08:41:50 08-Feb-20: START TIME 08:41:50 08-Feb-20
 STOP.S             08:48:48 08-Feb-20: STOP TIME  08:48:48 08-Feb-20
 STEP.S                   0.00: STEP TIME
 NULL.                 -999.25: NULL VALUE
 DFWT.                        :  DIST FWL TEXT
 DFST.                        :  DIST FSL TEXT
 DMF .             Drill Floor:  DRILL MEAS FROM
 STIM.      07.00.00 09-Jan-20:  START TIME
 DATE.      14.04.48 07-Feb-20:  END TIME
 SPUD.               09-Jan-20:  SPUD DATE
 NREF.                    Grid:  NORTH REFERENCE
 HPTY.       Minimum Curvature:  HOLE POS TYPE
 DMOD.             Drill Model:  DRILL MOD DESC
 SVYD.                  Survey:  SURVEY DESC
 ILTD.               Lithology:  INTERP LTH DESC
 FTOP.          Formation Tops:  FORM TOPS DESC
 SON .        AZ-XX-0905059384:  JOB NUMBER
 MDS .        Operator Entered:  MAG DATA SOURCE
 WTYP.                Deviated:  WELL TYPE
 COMP.     BP Exploration (Caspian Sea) Ltd.:  COMPANY
 UWI .                     N/A:  UNIQUE WELL IDENTIFIER
 API .                     N/A:  API NUMBER
 BASE.              Azerbaijan:  LOGGING EQUIPMENT BASE LOCATION
 REGN.                   EESSA:  REGION
 PROV.                    Baku:  PROVINCE
 STAT.                    Baku:  STATE NAME
 CTRY.              Azerbaijan:  COUNTRY NAME
 FLD .                     ACG:  FIELD NAME
 SRVC.     TURAN Drilling & Engineering:  CONTRACTOR
 MWDS.                    Baku:  MWD SHOP
 WELL.                     J22:  WELL NAME
 RIG .             West Chirag:  RIG NAME
 DOE .                     N/A:  DOE NUMBER
 DCON.         Sperry Drilling:  DIRECTNL CONTR
 UNIT.                     N/A:  LOGGING EQUIPMENT ID
 PDAT.          Mean Sea Level:  PERMANENT DATUM
 JOBN.        AZ-XX-0905059384:  JOB TICKET NUMB
 CNTY.                        :  COUNTY
 LOC .                        :  LOCATION
 LMF .             Drill Floor:  LOG MEASURED FROM
 TVDS.m                  43.00:  TVDSS CORRECTN
 LATI.deg                40.13:  LATITUDE
 LONG.deg                51.22:  LONGITUDE
 WHNS.m                  10.28:  WELL HEAD N/S
 WHEW.m                  -6.24:  WELL HEAD E/W
 UTMX.m              519005.06:  UTM X
 UTMY.m             4443793.85:  UTM Y
 DFWL.m                   0.00:  DISTANCE FWL
 DFSL.m                   0.00:  DISTANCE FSL
 SDEP.m                 362.00:  START DEPTH
 TDD .m                 904.00:  TOTAL DEPTH (DRILLER)
 VSDR.deg               148.53:  VERT SEC DIRECT
 GVFD.g                   1.00:  GRAVITY FIELD
 MFLD.nT              50277.00:  MAGNETIC FIELD
 MDIP.deg                59.56:  MAGNETIC DIP
 MDEC.deg                 6.42:  MAGNETIC DECL
 GRDC.deg                 0.15:  GRID CORRECTION
 AZTC.deg                 6.27:  AZM TOTAL CORR
 EPD .m                   0.00:  ELEVATION
 EGL .m                   0.00:  GROUND ELEVATION
 WDMS.m                 169.80:  WD ELEV
 APD .m                  43.00:  DEPTH ABOVE PD
 AGAP.m                  43.00:  AIR GAP
 VSEW.m                  -6.24:  VERT SEC E/W
 VSNS.m                  10.28:  VERT SEC N/S
 DEP .m                   0.00:  DEPTH
 EKB .m                   0.00:  KB ELEVATION
 EDF .m                  43.00:  DF ELEVATION
 TDL .m                1183.00:  TOTAL DEPTH (LOGGER)
 VSC .                       0:  VS TO CLOSURE
 MAGU.                 1850021:  MAGUTM CHECKSUM
~Parameter Information Block
#MNEM.UNIT       Value        Description
#---------     -----------    ---------------------------
 AV  .mps                 4.00:  Ann Velocity 
 AVMX.mps                 4.50:  Max Ann Veloc 
 AZIF.deg               145.38:  Azm, Final 
 BHAT.        Rotary Steerable:  BHA Type 
 BROT.°/30m               3.00:  Build Rotating 
 BS  .in                 12.25:  Bit Size 
 BSZ .in                 12.25:  Bit Size 
 BTPL.psig              650.00:  Bit Press Loss 
 CABU.                      No:  Customer Abuse 
 COMM.                     [:  Run Comments 1 
 TCS .hr                101.62:  Time Ciculation Ended 
 CV  .mps                 5.00:  Crit Velocity 
 CVMX.mps                 5.00:  Max Crit Veloc 
 DD1 .             Aziz Aliyev:  Direct Drillr 1 
 DD2 .      Fakhraddin Guliyev:  Direct Drillr 2 
 DDSV.                 iCruise:  DD Service 
 DEFF.%                  97.00:  % Det Eff 
 DLRX.°/30m               4.16:  Dogleg Rot Max 
 DLSO.°/30m               3.20:  Dogleg Oriented 
 DLSX.°/30m               4.10:  Dogleg Str Max 
 DRET.      23.12.00 07-Feb-20:  Drill End Time 
 DRST.      11.30.00 04-Feb-20:  Drill Start Tim 
 DTIM.hr                 61.06:  Time Drilling 
 EDEP.m                3219.01:  End Depth 
 ENG1.         Almaz Almadatov:  Engineer 1 
 ENG2.         Dair Mahammadov:  Engineer 2 
 ENG3.          Nazrin Asgarli:  Engineer 3 
 ETIM.      02.30.00 11-Feb-20:  End Time 
 FLOI.gpm              1100.00:  Flow In 
 FLON.gpm               900.00:  Flow In Min 
 FLOS.cptm               55.00:  Fluid Loss 
 FLOX.gpm              1150.00:  Flow In Max 
 FTRO.       Formation Presure:  FTWD Run Obj 
 HFLO.                      No:  High Flow 
 HPRE.                      No:  High Pressure 
 HTEM.                      No:  High Temp 
 HYDO.m                   1.80:  Hydro Offset 
 IFIN.deg                75.11:  Inc, Final 
 IMAX.deg                75.11:  Inc Max 
 IMIN.deg                33.55:  Inc Min 
 IMND.m                2186.05:  Inc Min Depth 
 IMXD.m                3205.61:  Inc Max Depth 
 JARR.                      No:  Jarring 
 LETM.      23.12.00 07-Feb-20:  Log End Time 
 LOST.hr                     0:  Lost Rig Time 
 LSTM.      11.30.00 04-Feb-20:  Log Start Time 
 MDCL.ppm             40000.00:  Mud Chlorides 
 MDES.     Inversion Oil/Synthetic:  Mud Desc 
 DFD .sg                  1.49:  Mud Density 
 MDMN.sg                  1.49:  Dens Mud Min 
 MDMX.sg                  1.49:  Dens Mud Max 
 MOIL.                      73:  Run Mud Oil % 
 MOWR.                   73:27:  Run Mud OWR 
 MSND.                     0.1:  Run Mud Sand % 
 MSOL.                    20.1:  Run Mud Solids% 
 DFV .spqt               78.00:  Mud Viscosity 
 MWOD.in                  8.00:  MWD Tool OD 
 MWSI.                      No:  Serv Intrp, MWD 
 OTIM.hr                177.15:  Time Operating 
 PCON.          Wear / Scratch:  Pad Condition 
 PMAX.psia            10493.93:  Press Op, Max 
 PV  .cP                 73.00:  Mud PV 
 RUN .                     700:  Run Number 
 ROPA.m/hr               15.00:  ROP Avg 
 ROPN.m/hr               10.00:  ROP Min 
 ROPX.m/hr               35.00:  ROP Max 
 RPMA.rpm               130.00:  RPM Surface Avg 
 RPMN.rpm                80.00:  RPM Surface Min 
 RPMX.rpm               150.00:  RPM Surface Max 
 RRUN.                    L402:  Rig Run Number 
 RTIM.hr                 80.50:  Time Reaming 
 SAZI.deg               155.55:  Azm, Start 
 SDEP.m                2036.00:  Start Depth 
 SIDD.                      No:  Serv Intrp, DD 
 SINC.deg                35.44:  Inc, Start 
 SPPA.psig             4270.00:  SPP Avg 
 SPPN.psig             2800.00:  SPP Min 
 SPPX.psig             4850.00:  SPP Max 
 STIM.      09.30.00 03-Feb-20:  Start Time 
 SVCS.                 DD, MWD:  Services 
 SVER.                    9.20:  Sperry Version 
 TDAT.m                1183.00:  Tot Depth Attmp 
 TDDF.                      No:  Trip for DD 
 TDLG.m                1183.00:  Tot Depth Loggd 
 TFF .                      No:  Trip for Fail 
 TQAA.f-kp               16.00:  Torque Abs Avg 
 TQAN.f-kp               10.00:  Torque Abs Min 
 TQAX.f-kp               20.00:  Torque Abs Max 
 TRRT.°/30m               1.00:  Turn Rotating 
 MRT .                  EWR-M5:  Maximum Recorded Temperature 
 TTMX.degC               80.39:  Max Tool Temp 
 VS01.               13098498 :  Virtual Str1 SN 
 VS02.                90569596:  Virtual Str2 SN 
 VS03.                90523599:  Virtual Str3 SN 
 VS04.                90573553:  Virtual Str4 SN 
 VS05.                90598598:  Virtual Str5 SN 
 VS06.                90577297:  Virtual Str6 SN 
 WBMN.klb                13.00:  WOB Min 
 WITN.         Alistair Sprott:  Customer Rep 
 WITN.           Rufat Babayev:  Customer Rep 2 
 WOBA.klb                15.00:  WOB Avg 
 WOBX.klb                20.00:  WOB Max 
 YP  .lhf2               39.00:  Yield Point 
~Curve Information Block
#MNEM.UNIT                 API CODE     Curve Description
#---------               -----------    ---------------------------
 TIME.HHMMSS            00 000 000 000:  GT Time & Date
 GTDEPTH.m              00 000 000 000:  GT Depth
 GTPQH.psia             00 000 000 000:  GT HR Quartz Pressure
 GTTQ.degC              00 000 000 000:  GT Quartz Temperature
 GTTN.NONE              00 000 000 000:  GT Test Number
 GTET.sec               00 000 000 000:  GT Elapsed Test Time
 GTTVD.m                00 000 000 000:  GT True Vertical Depth
#Other Information
#
#WARRANTY: Halliburton will use its best efforts to furnish customers with 
#accurate information and interpretations that are part of, and incident to, the services 
#provided.  However, Halliburton cannot and does not warrant the accuracy 
#or correctness of such information and interpretations.  Under no circumstances should any 
#such information or interpretation be relied upon as the sole basis for any drilling, 
#completion, production, or financial decision or any procedure involving any risk to the 
#safety of any drilling venture, drilling rig or its crew or any other third party.  The 
#Customer has full responsibility for all drilling, completion and production operation.  
#Halliburton makes no representations or warranties, either expressed or 
#implied, including, but not limited to, the implied warranties of merchantability or fitness 
#for a particular purpose, with respect to the services rendered.  In no event will 
#Halliburton be liable for failure to obtain any particular results or for 
#any damages, including, but not limited to, indirect, special or consequential damages, 
#resulting from the use of any information or interpretation provided by Halliburton.
#
~A           TIME           GTDEPTH  GTPQH  GTTQ  GTTN  GTET   GTTVD  
   08:41:50.631.08-Feb-2020 3153.01 5769.42 71.39 2.00   0.00 2652.69
   08:41:50.831.08-Feb-2020 3153.01 5769.42 71.39 2.00   0.20 2652.69
   08:41:51.031.08-Feb-2020 3153.01 5774.65 71.39 2.00   0.40 2652.69
   08:41:51.231.08-Feb-2020 3153.01 5771.38 71.39 2.00   0.60 2652.69
   08:41:51.431.08-Feb-2020 3153.01 5772.58 71.39 2.00   0.80 2652.69
   08:41:51.631.08-Feb-2020 3153.01 5779.08 71.39 2.00   1.00 2652.69
   08:41:51.831.08-Feb-2020 3153.01 5779.08 71.39 2.00   1.20 2652.69
   08:41:52.031.08-Feb-2020 3153.01 5774.61 71.39 2.00   1.40 2652.69
   08:41:52.231.08-Feb-2020 3153.01 5779.97 71.39 2.00   1.60 2652.69
   08:41:52.431.08-Feb-2020 3153.01 5778.46 71.39 2.00   1.80 2652.69
   08:41:52.631.08-Feb-2020 3153.01 5774.47 71.39 2.00   2.00 2652.69
   08:41:52.831.08-Feb-2020 3153.01 5774.47 71.39 2.00   2.20 2652.69
   08:41:53.031.08-Feb-2020 3153.01 5777.49 71.39 2.00   2.40 2652.69
   08:41:53.231.08-Feb-2020 3153.01 5776.17 71.39 2.00   2.60 2652.69
   08:41:53.431.08-Feb-2020 3153.01 5776.24 71.39 2.00   2.80 2652.69
   08:41:53.631.08-Feb-2020 3153.01 5776.65 71.39 2.00   3.00 2652.69
   08:41:53.831.08-Feb-2020 3153.01 5776.65 71.39 2.00   3.20 2652.69
   08:41:54.031.08-Feb-2020 3153.01 5775.11 71.39 2.00   3.40 2652.69
   08:41:54.231.08-Feb-2020 3153.01 5775.34 71.39 2.00   3.60 2652.69
   08:41:54.431.08-Feb-2020 3153.01 5781.38 71.39 2.00   3.80 2652.69
   08:41:54.631.08-Feb-2020 3153.01 5775.26 71.39 2.00   4.00 2652.69
   08:41:54.831.08-Feb-2020 3153.01 5775.26 71.39 2.00   4.20 2652.69
   08:41:55.031.08-Feb-2020 3153.01 5772.22 71.38 2.00   4.40 2652.69
   08:41:55.232.08-Feb-2020 3153.01 5771.92 71.38 2.00   4.60 2652.69
   08:41:55.432.08-Feb-2020 3153.01 5768.53 71.38 2.00   4.80 2652.69
   08:41:55.632.08-Feb-2020 3153.01 5767.84 71.38 2.00   5.00 2652.69
   08:41:55.832.08-Feb-2020 3153.01 5767.84 71.38 2.00   5.20 2652.69
   08:41:56.032.08-Feb-2020 3153.01 5766.81 71.38 2.00   5.40 2652.69
   08:41:56.232.08-Feb-2020 3153.01 5765.65 71.38 2.00   5.60 2652.69
   08:41:56.432.08-Feb-2020 3153.01 5766.17 71.38 2.00   5.80 2652.69
   08:41:56.632.08-Feb-2020 3153.01 5769.95 71.38 2.00   6.00 2652.69
   08:41:56.832.08-Feb-2020 3153.01 5769.95 71.38 2.00   6.20 2652.69
   08:41:57.032.08-Feb-2020 3153.01 5765.39 71.38 2.00   6.40 2652.69
   08:41:57.232.08-Feb-2020 3153.01 5767.18 71.38 2.00   6.60 2652.69
   08:41:57.432.08-Feb-2020 3153.01 5772.97 71.38 2.00   6.80 2652.69
   08:41:57.632.08-Feb-2020 3153.01 5766.51 71.38 2.00   7.00 2652.69
   08:41:57.832.08-Feb-2020 3153.01 5766.51 71.38 2.00   7.20 2652.69
   08:41:58.032.08-Feb-2020 3153.01 5765.06 71.38 2.00   7.40 2652.69
   08:41:58.232.08-Feb-2020 3153.01 5770.86 71.38 2.00   7.60 2652.69
   08:41:58.432.08-Feb-2020 3153.01 5764.22 71.38 2.00   7.80 2652.69
   08:41:58.632.08-Feb-2020 3153.01 5762.72 71.38 2.00   8.00 2652.69
   08:41:58.832.08-Feb-2020 3153.01 5762.72 71.38 2.00   8.20 2652.69
   08:41:59.032.08-Feb-2020 3153.01 5767.12 71.38 2.00   8.40 2652.69
   08:41:59.232.08-Feb-2020 3153.01 5762.10 71.38 2.00   8.60 2652.69
   08:41:59.432.08-Feb-2020 3153.01 5761.04 71.38 2.00   8.80 2652.69
   08:41:59.632.08-Feb-2020 3153.01 5764.33 71.38 2.00   9.00 2652.69
   08:41:59.832.08-Feb-2020 3153.01 5764.33 71.38 2.00   9.20 2652.69
   08:42:00.032.08-Feb-2020 3153.01 5764.33 71.38 2.00   9.40 2652.69
   08:42:00.232.08-Feb-2020 3153.01 5761.84 71.37 2.00   9.60 2652.69
   08:42:00.432.08-Feb-2020 3153.01 5762.94 71.37 2.00   9.80 2652.69
   08:42:00.632.08-Feb-2020 3153.01 5764.42 71.37 2.00  10.00 2652.69
   08:42:00.832.08-Feb-2020 3153.01 5764.42 71.37 2.00  10.20 2652.69
   08:42:01.032.08-Feb-2020 3153.01 5761.50 71.37 2.00  10.40 2652.69
   08:42:01.232.08-Feb-2020 3153.01 5761.34 71.37 2.00  10.60 2652.69
   08:42:01.432.08-Feb-2020 3153.01 5760.51 71.37 2.00  10.80 2652.69
   08:42:01.632.08-Feb-2020 3153.01 5760.20 71.37 2.00  11.00 2652.69
   08:42:01.832.08-Feb-2020 3153.01 5760.20 71.37 2.00  11.20 2652.69
   08:42:02.032.08-Feb-2020 3153.01 5760.54 71.37 2.00  11.40 2652.69
   08:42:02.232.08-Feb-2020 3153.01 5761.61 71.37 2.00  11.60 2652.69
   08:42:02.432.08-Feb-2020 3153.01 5762.48 71.37 2.00  11.80 2652.69
   08:42:02.632.08-Feb-2020 3153.01 5762.85 71.37 2.00  12.00 2652.69
   08:42:02.832.08-Feb-2020 3153.01 5762.85 71.37 2.00  12.20 2652.69
   08:42:03.032.08-Feb-2020 3153.01 5766.33 71.37 2.00  12.40 2652.69
   08:42:03.232.08-Feb-2020 3153.01 5764.20 71.37 2.00  12.60 2652.69
   08:42:03.432.08-Feb-2020 3153.01 5764.64 71.37 2.00  12.80 2652.69
   08:42:03.632.08-Feb-2020 3153.01 5764.88 71.37 2.00  13.00 2652.69
   08:42:03.832.08-Feb-2020 3153.01 5764.88 71.37 2.00  13.20 2652.69
   08:42:04.032.08-Feb-2020 3153.01 5763.76 71.37 2.00  13.40 2652.69
   08:42:04.232.08-Feb-2020 3153.01 5763.85 71.37 2.00  13.60 2652.69
   08:42:04.432.08-Feb-2020 3153.01 5763.43 71.37 2.00  13.80 2652.69
   08:42:04.632.08-Feb-2020 3153.01 5763.61 71.37 2.00  14.00 2652.69
   08:42:04.832.08-Feb-2020 3153.01 5763.61 71.37 2.00  14.20 2652.69
   08:42:05.032.08-Feb-2020 3153.01 5767.51 71.37 2.00  14.40 2652.69
   08:42:05.232.08-Feb-2020 3153.01 5766.25 71.36 2.00  14.60 2652.69
   08:42:05.432.08-Feb-2020 3153.01 5766.61 71.36 2.00  14.80 2652.69
   08:42:05.632.08-Feb-2020 3153.01 5767.67 71.36 2.00  15.00 2652.69
   08:42:05.832.08-Feb-2020 3153.01 5767.67 71.36 2.00  15.20 2652.69
   08:42:06.032.08-Feb-2020 3153.01 5764.62 71.36 2.00  15.40 2652.69
   08:42:06.232.08-Feb-2020 3153.01 5765.88 71.36 2.00  15.60 2652.69
   08:42:06.432.08-Feb-2020 3153.01 5770.11 71.36 2.00  15.80 2652.69
   08:42:06.632.08-Feb-2020 3153.01 5767.99 71.36 2.00  16.00 2652.69
   08:42:06.832.08-Feb-2020 3153.01 5767.99 71.36 2.00  16.20 2652.69
   08:42:07.032.08-Feb-2020 3153.01 5769.50 71.36 2.00  16.40 2652.69
   08:42:07.233.08-Feb-2020 3153.01 5767.32 71.36 2.00  16.60 2652.69
   08:42:07.433.08-Feb-2020 3153.01 5766.34 71.36 2.00  16.80 2652.69
   08:42:07.633.08-Feb-2020 3153.01 5772.27 71.36 2.00  17.00 2652.69
   08:42:07.833.08-Feb-2020 3153.01 5772.27 71.36 2.00  17.20 2652.69
   08:42:08.033.08-Feb-2020 3153.01 5767.33 71.36 2.00  17.40 2652.69
   08:42:08.233.08-Feb-2020 3153.01 5768.78 71.36 2.00  17.60 2652.69
   08:42:08.433.08-Feb-2020 3153.01 5770.19 71.36 2.00  17.80 2652.69
   08:42:08.633.08-Feb-2020 3153.01 5768.93 71.36 2.00  18.00 2652.69
   08:42:08.833.08-Feb-2020 3153.01 5768.93 71.36 2.00  18.20 2652.69
   08:42:09.033.08-Feb-2020 3153.01 5770.43 71.36 2.00  18.40 2652.69
   08:42:09.233.08-Feb-2020 3153.01 5770.06 71.36 2.00  18.60 2652.69
   08:42:09.433.08-Feb-2020 3153.01 5769.83 71.36 2.00  18.80 2652.69
   08:42:09.633.08-Feb-2020 3153.01 5770.11 71.36 2.00  19.00 2652.69
   08:42:09.833.08-Feb-2020 3153.01 5770.11 71.36 2.00  19.20 2652.69
   08:42:10.033.08-Feb-2020 3153.01 5769.52 71.36 2.00  19.40 2652.69
   08:42:10.233.08-Feb-2020 3153.01 5767.87 71.36 2.00  19.60 2652.69
   08:42:10.433.08-Feb-2020 3153.01 5768.71 71.36 2.00  19.80 2652.69
   08:42:10.633.08-Feb-2020 3153.01 5769.82 71.35 2.00  20.00 2652.69
   08:42:10.833.08-Feb-2020 3153.01 5769.82 71.35 2.00  20.20 2652.69
   08:42:11.033.08-Feb-2020 3153.01 5768.48 71.35 2.00  20.40 2652.69
   08:42:11.233.08-Feb-2020 3153.01 5769.67 71.35 2.00  20.60 2652.69
   08:42:11.433.08-Feb-2020 3153.01 5768.89 71.35 2.00  20.80 2652.69
   08:42:11.633.08-Feb-2020 3153.01 5768.62 71.35 2.00  21.00 2652.69
   08:42:11.833.08-Feb-2020 3153.01 5768.62 71.35 2.00  21.20 2652.69
   08:42:12.033.08-Feb-2020 3153.01 5772.28 71.35 2.00  21.40 2652.69
   08:42:12.233.08-Feb-2020 3153.01 5770.47 71.35 2.00  21.60 2652.69
   08:42:12.433.08-Feb-2020 3153.01 5768.01 71.35 2.00  21.80 2652.69
   08:42:12.633.08-Feb-2020 3153.01 5772.60 71.35 2.00  22.00 2652.69
   08:42:12.833.08-Feb-2020 3153.01 5772.60 71.35 2.00  22.20 2652.69
   08:42:13.033.08-Feb-2020 3153.01 5766.78 71.35 2.00  22.40 2652.69
   08:42:13.233.08-Feb-2020 3153.01 5768.41 71.35 2.00  22.60 2652.69
   08:42:13.433.08-Feb-2020 3153.01 5771.30 71.35 2.00  22.80 2652.69
