~Version Information
 VERS.                  2.0:   CWLS log ASCII Standard -VERSION 2.0
 WRAP.                   NO:   One line per depth step
~Well Information Block
#MNEM.UNIT     VALUE/NAME     DESCRIPTION
#---------     -----------    ---------------------------
 STRT.S             12:03:05 08-Feb-20: START TIME 12:03:05 08-Feb-20
 STOP.S             12:09:57 08-Feb-20: STOP TIME  12:09:57 08-Feb-20
 STEP.S                   0.00: STEP TIME
 NULL.                 -999.25: NULL VALUE
 DFWT.                        :  DIST FWL TEXT
 DFST.                        :  DIST FSL TEXT
 DMF .             Drill Floor:  DRILL MEAS FROM
 STIM.      07.00.00 09-Jan-20:  START TIME
 DATE.      14.04.48 07-Feb-20:  END TIME
 SPUD.               09-Jan-20:  SPUD DATE
 NREF.                    Grid:  NORTH REFERENCE
 HPTY.       Minimum Curvature:  HOLE POS TYPE
 DMOD.             Drill Model:  DRILL MOD DESC
 SVYD.                  Survey:  SURVEY DESC
 ILTD.               Lithology:  INTERP LTH DESC
 FTOP.          Formation Tops:  FORM TOPS DESC
 SON .        AZ-XX-0905059384:  JOB NUMBER
 MDS .        Operator Entered:  MAG DATA SOURCE
 WTYP.                Deviated:  WELL TYPE
 COMP.     BP Exploration (Caspian Sea) Ltd.:  COMPANY
 UWI .                     N/A:  UNIQUE WELL IDENTIFIER
 API .                     N/A:  API NUMBER
 BASE.              Azerbaijan:  LOGGING EQUIPMENT BASE LOCATION
 REGN.                   EESSA:  REGION
 PROV.                    Baku:  PROVINCE
 STAT.                    Baku:  STATE NAME
 CTRY.              Azerbaijan:  COUNTRY NAME
 FLD .                     ACG:  FIELD NAME
 SRVC.     TURAN Drilling & Engineering:  CONTRACTOR
 MWDS.                    Baku:  MWD SHOP
 WELL.                     J22:  WELL NAME
 RIG .             West Chirag:  RIG NAME
 DOE .                     N/A:  DOE NUMBER
 DCON.         Sperry Drilling:  DIRECTNL CONTR
 UNIT.                     N/A:  LOGGING EQUIPMENT ID
 PDAT.          Mean Sea Level:  PERMANENT DATUM
 JOBN.        AZ-XX-0905059384:  JOB TICKET NUMB
 CNTY.                        :  COUNTY
 LOC .                        :  LOCATION
 LMF .             Drill Floor:  LOG MEASURED FROM
 TVDS.m                  43.00:  TVDSS CORRECTN
 LATI.deg                40.13:  LATITUDE
 LONG.deg                51.22:  LONGITUDE
 WHNS.m                  10.28:  WELL HEAD N/S
 WHEW.m                  -6.24:  WELL HEAD E/W
 UTMX.m              519005.06:  UTM X
 UTMY.m             4443793.85:  UTM Y
 DFWL.m                   0.00:  DISTANCE FWL
 DFSL.m                   0.00:  DISTANCE FSL
 SDEP.m                 362.00:  START DEPTH
 TDD .m                 904.00:  TOTAL DEPTH (DRILLER)
 VSDR.deg               148.53:  VERT SEC DIRECT
 GVFD.g                   1.00:  GRAVITY FIELD
 MFLD.nT              50277.00:  MAGNETIC FIELD
 MDIP.deg                59.56:  MAGNETIC DIP
 MDEC.deg                 6.42:  MAGNETIC DECL
 GRDC.deg                 0.15:  GRID CORRECTION
 AZTC.deg                 6.27:  AZM TOTAL CORR
 EPD .m                   0.00:  ELEVATION
 EGL .m                   0.00:  GROUND ELEVATION
 WDMS.m                 169.80:  WD ELEV
 APD .m                  43.00:  DEPTH ABOVE PD
 AGAP.m                  43.00:  AIR GAP
 VSEW.m                  -6.24:  VERT SEC E/W
 VSNS.m                  10.28:  VERT SEC N/S
 DEP .m                   0.00:  DEPTH
 EKB .m                   0.00:  KB ELEVATION
 EDF .m                  43.00:  DF ELEVATION
 TDL .m                1183.00:  TOTAL DEPTH (LOGGER)
 VSC .                       0:  VS TO CLOSURE
 MAGU.                 1850021:  MAGUTM CHECKSUM
~Parameter Information Block
#MNEM.UNIT       Value        Description
#---------     -----------    ---------------------------
 AV  .mps                 4.00:  Ann Velocity 
 AVMX.mps                 4.50:  Max Ann Veloc 
 AZIF.deg               145.38:  Azm, Final 
 BHAT.        Rotary Steerable:  BHA Type 
 BROT.°/30m               3.00:  Build Rotating 
 BS  .in                 12.25:  Bit Size 
 BSZ .in                 12.25:  Bit Size 
 BTPL.psig              650.00:  Bit Press Loss 
 CABU.                      No:  Customer Abuse 
 COMM.                     ÌSf:  Run Comments 1 
 TCS .hr                101.62:  Time Ciculation Ended 
 CV  .mps                 5.00:  Crit Velocity 
 CVMX.mps                 5.00:  Max Crit Veloc 
 DD1 .             Aziz Aliyev:  Direct Drillr 1 
 DD2 .      Fakhraddin Guliyev:  Direct Drillr 2 
 DDSV.                 iCruise:  DD Service 
 DEFF.%                  97.00:  % Det Eff 
 DLRX.°/30m               4.16:  Dogleg Rot Max 
 DLSO.°/30m               3.20:  Dogleg Oriented 
 DLSX.°/30m               4.10:  Dogleg Str Max 
 DRET.      23.12.00 07-Feb-20:  Drill End Time 
 DRST.      11.30.00 04-Feb-20:  Drill Start Tim 
 DTIM.hr                 61.06:  Time Drilling 
 EDEP.m                3219.01:  End Depth 
 ENG1.         Almaz Almadatov:  Engineer 1 
 ENG2.         Dair Mahammadov:  Engineer 2 
 ENG3.          Nazrin Asgarli:  Engineer 3 
 ETIM.      02.30.00 11-Feb-20:  End Time 
 FLOI.gpm              1100.00:  Flow In 
 FLON.gpm               900.00:  Flow In Min 
 FLOS.cptm               55.00:  Fluid Loss 
 FLOX.gpm              1150.00:  Flow In Max 
 FTRO.       Formation Presure:  FTWD Run Obj 
 HFLO.                      No:  High Flow 
 HPRE.                      No:  High Pressure 
 HTEM.                      No:  High Temp 
 HYDO.m                   1.80:  Hydro Offset 
 IFIN.deg                75.11:  Inc, Final 
 IMAX.deg                75.11:  Inc Max 
 IMIN.deg                33.55:  Inc Min 
 IMND.m                2186.05:  Inc Min Depth 
 IMXD.m                3205.61:  Inc Max Depth 
 JARR.                      No:  Jarring 
 LETM.      23.12.00 07-Feb-20:  Log End Time 
 LOST.hr                     0:  Lost Rig Time 
 LSTM.      11.30.00 04-Feb-20:  Log Start Time 
 MDCL.ppm             40000.00:  Mud Chlorides 
 MDES.     Inversion Oil/Synthetic:  Mud Desc 
 DFD .sg                  1.49:  Mud Density 
 MDMN.sg                  1.49:  Dens Mud Min 
 MDMX.sg                  1.49:  Dens Mud Max 
 MOIL.                      73:  Run Mud Oil % 
 MOWR.                   73:27:  Run Mud OWR 
 MSND.                     0.1:  Run Mud Sand % 
 MSOL.                    20.1:  Run Mud Solids% 
 DFV .spqt               78.00:  Mud Viscosity 
 MWOD.in                  8.00:  MWD Tool OD 
 MWSI.                      No:  Serv Intrp, MWD 
 OTIM.hr                177.15:  Time Operating 
 PCON.          Wear / Scratch:  Pad Condition 
 PMAX.psia            10493.93:  Press Op, Max 
 PV  .cP                 73.00:  Mud PV 
 RUN .                     700:  Run Number 
 ROPA.m/hr               15.00:  ROP Avg 
 ROPN.m/hr               10.00:  ROP Min 
 ROPX.m/hr               35.00:  ROP Max 
 RPMA.rpm               130.00:  RPM Surface Avg 
 RPMN.rpm                80.00:  RPM Surface Min 
 RPMX.rpm               150.00:  RPM Surface Max 
 RRUN.                    L402:  Rig Run Number 
 RTIM.hr                 80.50:  Time Reaming 
 SAZI.deg               155.55:  Azm, Start 
 SDEP.m                2036.00:  Start Depth 
 SIDD.                      No:  Serv Intrp, DD 
 SINC.deg                35.44:  Inc, Start 
 SPPA.psig             4270.00:  SPP Avg 
 SPPN.psig             2800.00:  SPP Min 
 SPPX.psig             4850.00:  SPP Max 
 STIM.      09.30.00 03-Feb-20:  Start Time 
 SVCS.                 DD, MWD:  Services 
 SVER.                    9.20:  Sperry Version 
 TDAT.m                1183.00:  Tot Depth Attmp 
 TDDF.                      No:  Trip for DD 
 TDLG.m                1183.00:  Tot Depth Loggd 
 TFF .                      No:  Trip for Fail 
 TQAA.f-kp               16.00:  Torque Abs Avg 
 TQAN.f-kp               10.00:  Torque Abs Min 
 TQAX.f-kp               20.00:  Torque Abs Max 
 TRRT.°/30m               1.00:  Turn Rotating 
 MRT .                  EWR-M5:  Maximum Recorded Temperature 
 TTMX.degC               80.39:  Max Tool Temp 
 VS01.               13098498 :  Virtual Str1 SN 
 VS02.                90569596:  Virtual Str2 SN 
 VS03.                90523599:  Virtual Str3 SN 
 VS04.                90573553:  Virtual Str4 SN 
 VS05.                90598598:  Virtual Str5 SN 
 VS06.                90577297:  Virtual Str6 SN 
 WBMN.klb                13.00:  WOB Min 
 WITN.         Alistair Sprott:  Customer Rep 
 WITN.           Rufat Babayev:  Customer Rep 2 
 WOBA.klb                15.00:  WOB Avg 
 WOBX.klb                20.00:  WOB Max 
 YP  .lhf2               39.00:  Yield Point 
~Curve Information Block
#MNEM.UNIT                 API CODE     Curve Description
#---------               -----------    ---------------------------
 TIME.HHMMSS            00 000 000 000:  GT Time & Date
 GTDEPTH.m              00 000 000 000:  GT Depth
 GTPQH.psia             00 000 000 000:  GT HR Quartz Pressure
 GTTQ.degC              00 000 000 000:  GT Quartz Temperature
 GTTN.NONE              00 000 000 000:  GT Test Number
 GTET.sec               00 000 000 000:  GT Elapsed Test Time
 GTTVD.m                00 000 000 000:  GT True Vertical Depth
#Other Information
#
#WARRANTY: Halliburton will use its best efforts to furnish customers with 
#accurate information and interpretations that are part of, and incident to, the services 
#provided.  However, Halliburton cannot and does not warrant the accuracy 
#or correctness of such information and interpretations.  Under no circumstances should any 
#such information or interpretation be relied upon as the sole basis for any drilling, 
#completion, production, or financial decision or any procedure involving any risk to the 
#safety of any drilling venture, drilling rig or its crew or any other third party.  The 
#Customer has full responsibility for all drilling, completion and production operation.  
#Halliburton makes no representations or warranties, either expressed or 
#implied, including, but not limited to, the implied warranties of merchantability or fitness 
#for a particular purpose, with respect to the services rendered.  In no event will 
#Halliburton be liable for failure to obtain any particular results or for 
#any damages, including, but not limited to, indirect, special or consequential damages, 
#resulting from the use of any information or interpretation provided by Halliburton.
#
~A           TIME           GTDEPTH  GTPQH  GTTQ  GTTN  GTET   GTTVD  
# ...
   12:03:28.000.08-Feb-2020 3069.01 5741.94 66.28 7.00  23.00 2627.56
   12:03:28.200.08-Feb-2020 3069.01 5741.94 66.28 7.00  23.20 2627.56
   12:03:28.400.08-Feb-2020 3069.01 5734.29 66.28 7.00  23.40 2627.56
   12:03:28.600.08-Feb-2020 3069.01 5740.51 66.27 7.00  23.60 2627.56
   12:03:28.800.08-Feb-2020 3069.01 5738.13 66.27 7.00  23.80 2627.56
   12:03:29.000.08-Feb-2020 3069.01 5741.28 66.27 7.00  24.00 2627.56
   12:03:29.200.08-Feb-2020 3069.01 5741.28 66.27 7.00  24.20 2627.56
   12:03:29.400.08-Feb-2020 3069.01 5737.69 66.27 7.00  24.40 2627.56
   12:03:29.600.08-Feb-2020 3069.01 5737.59 66.27 7.00  24.60 2627.56
   12:03:29.800.08-Feb-2020 3069.01 5742.28 66.27 7.00  24.80 2627.56
   12:03:30.000.08-Feb-2020 3069.01 5733.30 66.27 7.00  25.00 2627.56
   12:03:30.200.08-Feb-2020 3069.01 5733.30 66.27 7.00  25.20 2627.56
   12:03:30.400.08-Feb-2020 3069.01 5743.51 66.27 7.00  25.40 2627.56
   12:03:30.600.08-Feb-2020 3069.01 5734.54 66.27 7.00  25.60 2627.56
   12:03:30.800.08-Feb-2020 3069.01 5740.05 66.27 7.00  25.80 2627.56
   12:03:31.000.08-Feb-2020 3069.01 5739.28 66.27 7.00  26.00 2627.56
   12:03:31.200.08-Feb-2020 3069.01 5739.28 66.27 7.00  26.20 2627.56
   12:03:31.400.08-Feb-2020 3069.01 5738.59 66.27 7.00  26.40 2627.56
   12:03:31.600.08-Feb-2020 3069.01 5738.23 66.27 7.00  26.60 2627.56
   12:03:31.800.08-Feb-2020 3069.01 5737.76 66.27 7.00  26.80 2627.56
   12:03:32.000.08-Feb-2020 3069.01 5737.56 66.27 7.00  27.00 2627.56
   12:03:32.200.08-Feb-2020 3069.01 5737.56 66.27 7.00  27.20 2627.56
   12:03:32.400.08-Feb-2020 3069.01 5736.76 66.27 7.00  27.40 2627.56
   12:03:32.600.08-Feb-2020 3069.01 5743.59 66.27 7.00  27.60 2627.56
   12:03:32.800.08-Feb-2020 3069.01 5733.20 66.27 7.00  27.80 2627.56
   12:03:33.000.08-Feb-2020 3069.01 5739.59 66.27 7.00  28.00 2627.56
   12:03:33.200.08-Feb-2020 3069.01 5739.59 66.27 7.00  28.20 2627.56
   12:03:33.400.08-Feb-2020 3069.01 5736.63 66.27 7.00  28.40 2627.56
   12:03:33.600.08-Feb-2020 3069.01 5737.78 66.27 7.00  28.60 2627.56
   12:03:33.800.08-Feb-2020 3069.01 5736.46 66.27 7.00  28.80 2627.56
   12:03:34.000.08-Feb-2020 3069.01 5736.48 66.27 7.00  29.00 2627.56
   12:03:34.200.08-Feb-2020 3069.01 5736.48 66.27 7.00  29.20 2627.56
   12:03:34.400.08-Feb-2020 3069.01 5735.68 66.27 7.00  29.40 2627.56
   12:03:34.600.08-Feb-2020 3069.01 5735.47 66.27 7.00  29.60 2627.56
   12:03:34.800.08-Feb-2020 3069.01 5741.60 66.27 7.00  29.80 2627.56
   12:03:35.000.08-Feb-2020 3069.01 5732.38 66.27 7.00  30.00 2627.56
   12:03:35.200.08-Feb-2020 3069.01 5732.38 66.27 7.00  30.20 2627.56
   12:03:35.400.08-Feb-2020 3069.01 5741.42 66.27 7.00  30.40 2627.56
   12:03:35.600.08-Feb-2020 3069.01 5734.84 66.27 7.00  30.60 2627.56
   12:03:35.800.08-Feb-2020 3069.01 5738.41 66.27 7.00  30.80 2627.56
   12:03:36.000.08-Feb-2020 3069.01 5738.79 66.27 7.00  31.00 2627.56
   12:03:36.200.08-Feb-2020 3069.01 5738.79 66.27 7.00  31.20 2627.56
   12:03:36.400.08-Feb-2020 3069.01 5737.84 66.27 7.00  31.40 2627.56
   12:03:36.600.08-Feb-2020 3069.01 5735.28 66.27 7.00  31.60 2627.56
   12:03:36.800.08-Feb-2020 3069.01 5735.79 66.27 7.00  31.80 2627.56
   12:03:37.000.08-Feb-2020 3069.01 5740.04 66.27 7.00  32.00 2627.56
   12:03:37.200.08-Feb-2020 3069.01 5740.04 66.27 7.00  32.20 2627.56
   12:03:37.400.08-Feb-2020 3069.01 5736.91 66.27 7.00  32.40 2627.56
   12:03:37.600.08-Feb-2020 3069.01 5741.03 66.27 7.00  32.60 2627.56
   12:03:37.800.08-Feb-2020 3069.01 5739.20 66.27 7.00  32.80 2627.56
   12:03:38.000.08-Feb-2020 3069.01 5738.53 66.27 7.00  33.00 2627.56
   12:03:38.200.08-Feb-2020 3069.01 5738.53 66.27 7.00  33.20 2627.56
   12:03:38.400.08-Feb-2020 3069.01 5738.20 66.26 7.00  33.40 2627.56
   12:03:38.600.08-Feb-2020 3069.01 5738.38 66.26 7.00  33.60 2627.56
   12:03:38.800.08-Feb-2020 3069.01 5738.67 66.26 7.00  33.80 2627.56
   12:03:39.000.08-Feb-2020 3069.01 5737.88 66.26 7.00  34.00 2627.56
   12:03:39.200.08-Feb-2020 3069.01 5737.88 66.26 7.00  34.20 2627.56
   12:03:39.400.08-Feb-2020 3069.01 5737.51 66.26 7.00  34.40 2627.56
   12:03:39.600.08-Feb-2020 3069.01 5737.55 66.26 7.00  34.60 2627.56
   12:03:39.800.08-Feb-2020 3069.01 5741.00 66.26 7.00  34.80 2627.56
   12:03:40.000.08-Feb-2020 3069.01 5738.44 66.26 7.00  35.00 2627.56
   12:03:40.200.08-Feb-2020 3069.01 5738.44 66.26 7.00  35.20 2627.56
   12:03:40.400.08-Feb-2020 3069.01 5739.16 66.26 7.00  35.40 2627.56
   12:03:40.600.08-Feb-2020 3069.01 5738.74 66.26 7.00  35.60 2627.56
   12:03:40.800.08-Feb-2020 3069.01 5739.16 66.26 7.00  35.80 2627.56
   12:03:41.000.08-Feb-2020 3069.01 5739.44 66.26 7.00  36.00 2627.56
   12:03:41.200.08-Feb-2020 3069.01 5739.44 66.26 7.00  36.20 2627.56
   12:03:41.400.08-Feb-2020 3069.01 5739.11 66.26 7.00  36.40 2627.56
   12:03:41.600.08-Feb-2020 3069.01 5738.88 66.26 7.00  36.60 2627.56
   12:03:41.800.08-Feb-2020 3069.01 5738.56 66.26 7.00  36.80 2627.56
   12:03:42.000.08-Feb-2020 3069.01 5740.78 66.26 7.00  37.00 2627.56
   12:03:42.200.08-Feb-2020 3069.01 5740.78 66.26 7.00  37.20 2627.56
   12:03:42.400.08-Feb-2020 3069.01 5738.52 66.26 7.00  37.40 2627.56
   12:03:42.600.08-Feb-2020 3069.01 5738.34 66.26 7.00  37.60 2627.56
   12:03:42.800.08-Feb-2020 3069.01 5741.95 66.26 7.00  37.80 2627.56
   12:03:43.000.08-Feb-2020 3069.01 5739.40 66.26 7.00  38.00 2627.56
   12:03:43.200.08-Feb-2020 3069.01 5739.40 66.26 7.00  38.20 2627.56
   12:03:43.400.08-Feb-2020 3069.01 5738.39 66.26 7.00  38.40 2627.56
   12:03:43.600.08-Feb-2020 3069.01 5742.28 66.26 7.00  38.60 2627.56
   12:03:43.800.08-Feb-2020 3069.01 5737.56 66.26 7.00  38.80 2627.56
   12:03:44.000.08-Feb-2020 3069.01 5738.57 66.26 7.00  39.00 2627.56
   12:03:44.200.08-Feb-2020 3069.01 5738.57 66.26 7.00  39.20 2627.56
   12:03:44.400.08-Feb-2020 3069.01 5740.97 66.26 7.00  39.40 2627.56
   12:03:44.600.08-Feb-2020 3069.01 5738.35 66.26 7.00  39.60 2627.56
   12:03:44.800.08-Feb-2020 3069.01 5738.94 66.26 7.00  39.80 2627.56
   12:03:45.000.08-Feb-2020 3069.01 5741.07 66.26 7.00  40.00 2627.56
   12:03:45.200.08-Feb-2020 3069.01 5741.07 66.26 7.00  40.20 2627.56
   12:03:45.400.08-Feb-2020 3069.01 5738.14 66.26 7.00  40.40 2627.56
   12:03:45.600.08-Feb-2020 3069.01 5739.07 66.26 7.00  40.60 2627.56
   12:03:45.800.08-Feb-2020 3069.01 5742.70 66.26 7.00  40.80 2627.56
   12:03:46.000.08-Feb-2020 3069.01 5738.23 66.26 7.00  41.00 2627.56
   12:03:46.200.08-Feb-2020 3069.01 5738.23 66.26 7.00  41.20 2627.56
   12:03:46.400.08-Feb-2020 3069.01 5737.42 66.26 7.00  41.40 2627.56
   12:03:46.600.08-Feb-2020 3069.01 5737.42 66.26 7.00  41.60 2627.56
   12:03:46.800.08-Feb-2020 3069.01 5737.96 66.26 7.00  41.80 2627.56
   12:03:47.000.08-Feb-2020 3069.01 5737.44 66.26 7.00  42.00 2627.56
   12:03:47.200.08-Feb-2020 3069.01 5737.44 66.26 7.00  42.20 2627.56
   12:03:47.400.08-Feb-2020 3069.01 5738.11 66.26 7.00  42.40 2627.56
   12:03:47.600.08-Feb-2020 3069.01 5738.68 66.26 7.00  42.60 2627.56
   12:03:47.800.08-Feb-2020 3069.01 5738.18 66.26 7.00  42.80 2627.56
   12:03:48.000.08-Feb-2020 3069.01 5738.04 66.26 7.00  43.00 2627.56
   12:03:48.200.08-Feb-2020 3069.01 5738.04 66.26 7.00  43.20 2627.56
   12:03:48.400.08-Feb-2020 3069.01 5740.33 66.26 7.00  43.40 2627.56
   12:03:48.600.08-Feb-2020 3069.01 5738.33 66.26 7.00  43.60 2627.56
   12:03:48.800.08-Feb-2020 3069.01 5738.09 66.25 7.00  43.80 2627.56
   12:03:49.000.08-Feb-2020 3069.01 5737.71 66.25 7.00  44.00 2627.56
   12:03:49.200.08-Feb-2020 3069.01 5737.71 66.25 7.00  44.20 2627.56
   12:03:49.400.08-Feb-2020 3069.01 5736.89 66.25 7.00  44.40 2627.56
   12:03:49.600.08-Feb-2020 3069.01 5736.65 66.25 7.00  44.60 2627.56
   12:03:49.800.08-Feb-2020 3069.01 5736.23 66.25 7.00  44.80 2627.56
   12:03:50.000.08-Feb-2020 3069.01 5736.28 66.25 7.00  45.00 2627.56
   12:03:50.200.08-Feb-2020 3069.01 5736.28 66.25 7.00  45.20 2627.56
   12:03:50.400.08-Feb-2020 3069.01 5736.50 66.25 7.00  45.40 2627.56
   12:03:50.600.08-Feb-2020 3069.01 5739.59 66.25 7.00  45.60 2627.56
   12:03:50.800.08-Feb-2020 3069.01 5742.38 66.25 7.00  45.80 2627.56
