~Version Information
 VERS.                  2.0:   CWLS log ASCII Standard -VERSION 2.0
 WRAP.                   NO:   One line per depth step
~Well Information Block
#MNEM.UNIT     VALUE/NAME     DESCRIPTION
#---------     -----------    ---------------------------
 STRT.S             10:04:49 08-Feb-20: START TIME 10:04:49 08-Feb-20
 STOP.S             10:11:45 08-Feb-20: STOP TIME  10:11:45 08-Feb-20
 STEP.S                   0.00: STEP TIME
 NULL.                 -999.25: NULL VALUE
 DFWT.                        :  DIST FWL TEXT
 DFST.                        :  DIST FSL TEXT
 DMF .             Drill Floor:  DRILL MEAS FROM
 STIM.      07.00.00 09-Jan-20:  START TIME
 DATE.      14.04.48 07-Feb-20:  END TIME
 SPUD.               09-Jan-20:  SPUD DATE
 NREF.                    Grid:  NORTH REFERENCE
 HPTY.       Minimum Curvature:  HOLE POS TYPE
 DMOD.             Drill Model:  DRILL MOD DESC
 SVYD.                  Survey:  SURVEY DESC
 ILTD.               Lithology:  INTERP LTH DESC
 FTOP.          Formation Tops:  FORM TOPS DESC
 SON .        AZ-XX-0905059384:  JOB NUMBER
 MDS .        Operator Entered:  MAG DATA SOURCE
 WTYP.                Deviated:  WELL TYPE
 COMP.     BP Exploration (Caspian Sea) Ltd.:  COMPANY
 UWI .                     N/A:  UNIQUE WELL IDENTIFIER
 API .                     N/A:  API NUMBER
 BASE.              Azerbaijan:  LOGGING EQUIPMENT BASE LOCATION
 REGN.                   EESSA:  REGION
 PROV.                    Baku:  PROVINCE
 STAT.                    Baku:  STATE NAME
 CTRY.              Azerbaijan:  COUNTRY NAME
 FLD .                     ACG:  FIELD NAME
 SRVC.     TURAN Drilling & Engineering:  CONTRACTOR
 MWDS.                    Baku:  MWD SHOP
 WELL.                     J22:  WELL NAME
 RIG .             West Chirag:  RIG NAME
 DOE .                     N/A:  DOE NUMBER
 DCON.         Sperry Drilling:  DIRECTNL CONTR
 UNIT.                     N/A:  LOGGING EQUIPMENT ID
 PDAT.          Mean Sea Level:  PERMANENT DATUM
 JOBN.        AZ-XX-0905059384:  JOB TICKET NUMB
 CNTY.                        :  COUNTY
 LOC .                        :  LOCATION
 LMF .             Drill Floor:  LOG MEASURED FROM
 TVDS.m                  43.00:  TVDSS CORRECTN
 LATI.deg                40.13:  LATITUDE
 LONG.deg                51.22:  LONGITUDE
 WHNS.m                  10.28:  WELL HEAD N/S
 WHEW.m                  -6.24:  WELL HEAD E/W
 UTMX.m              519005.06:  UTM X
 UTMY.m             4443793.85:  UTM Y
 DFWL.m                   0.00:  DISTANCE FWL
 DFSL.m                   0.00:  DISTANCE FSL
 SDEP.m                 362.00:  START DEPTH
 TDD .m                 904.00:  TOTAL DEPTH (DRILLER)
 VSDR.deg               148.53:  VERT SEC DIRECT
 GVFD.g                   1.00:  GRAVITY FIELD
 MFLD.nT              50277.00:  MAGNETIC FIELD
 MDIP.deg                59.56:  MAGNETIC DIP
 MDEC.deg                 6.42:  MAGNETIC DECL
 GRDC.deg                 0.15:  GRID CORRECTION
 AZTC.deg                 6.27:  AZM TOTAL CORR
 EPD .m                   0.00:  ELEVATION
 EGL .m                   0.00:  GROUND ELEVATION
 WDMS.m                 169.80:  WD ELEV
 APD .m                  43.00:  DEPTH ABOVE PD
 AGAP.m                  43.00:  AIR GAP
 VSEW.m                  -6.24:  VERT SEC E/W
 VSNS.m                  10.28:  VERT SEC N/S
 DEP .m                   0.00:  DEPTH
 EKB .m                   0.00:  KB ELEVATION
 EDF .m                  43.00:  DF ELEVATION
 TDL .m                1183.00:  TOTAL DEPTH (LOGGER)
 VSC .                       0:  VS TO CLOSURE
 MAGU.                 1850021:  MAGUTM CHECKSUM
~Parameter Information Block
#MNEM.UNIT       Value        Description
#---------     -----------    ---------------------------
 AV  .mps                 4.00:  Ann Velocity 
 AVMX.mps                 4.50:  Max Ann Veloc 
 AZIF.deg               145.38:  Azm, Final 
 BHAT.        Rotary Steerable:  BHA Type 
 BROT.°/30m               3.00:  Build Rotating 
 BS  .in                 12.25:  Bit Size 
 BSZ .in                 12.25:  Bit Size 
 BTPL.psig              650.00:  Bit Press Loss 
 CABU.                      No:  Customer Abuse 
 COMM.                     |¶Q:  Run Comments 1 
 TCS .hr                101.62:  Time Ciculation Ended 
 CV  .mps                 5.00:  Crit Velocity 
 CVMX.mps                 5.00:  Max Crit Veloc 
 DD1 .             Aziz Aliyev:  Direct Drillr 1 
 DD2 .      Fakhraddin Guliyev:  Direct Drillr 2 
 DDSV.                 iCruise:  DD Service 
 DEFF.%                  97.00:  % Det Eff 
 DLRX.°/30m               4.16:  Dogleg Rot Max 
 DLSO.°/30m               3.20:  Dogleg Oriented 
 DLSX.°/30m               4.10:  Dogleg Str Max 
 DRET.      23.12.00 07-Feb-20:  Drill End Time 
 DRST.      11.30.00 04-Feb-20:  Drill Start Tim 
 DTIM.hr                 61.06:  Time Drilling 
 EDEP.m                3219.01:  End Depth 
 ENG1.         Almaz Almadatov:  Engineer 1 
 ENG2.         Dair Mahammadov:  Engineer 2 
 ENG3.          Nazrin Asgarli:  Engineer 3 
 ETIM.      02.30.00 11-Feb-20:  End Time 
 FLOI.gpm              1100.00:  Flow In 
 FLON.gpm               900.00:  Flow In Min 
 FLOS.cptm               55.00:  Fluid Loss 
 FLOX.gpm              1150.00:  Flow In Max 
 FTRO.       Formation Presure:  FTWD Run Obj 
 HFLO.                      No:  High Flow 
 HPRE.                      No:  High Pressure 
 HTEM.                      No:  High Temp 
 HYDO.m                   1.80:  Hydro Offset 
 IFIN.deg                75.11:  Inc, Final 
 IMAX.deg                75.11:  Inc Max 
 IMIN.deg                33.55:  Inc Min 
 IMND.m                2186.05:  Inc Min Depth 
 IMXD.m                3205.61:  Inc Max Depth 
 JARR.                      No:  Jarring 
 LETM.      23.12.00 07-Feb-20:  Log End Time 
 LOST.hr                     0:  Lost Rig Time 
 LSTM.      11.30.00 04-Feb-20:  Log Start Time 
 MDCL.ppm             40000.00:  Mud Chlorides 
 MDES.     Inversion Oil/Synthetic:  Mud Desc 
 DFD .sg                  1.49:  Mud Density 
 MDMN.sg                  1.49:  Dens Mud Min 
 MDMX.sg                  1.49:  Dens Mud Max 
 MOIL.                      73:  Run Mud Oil % 
 MOWR.                   73:27:  Run Mud OWR 
 MSND.                     0.1:  Run Mud Sand % 
 MSOL.                    20.1:  Run Mud Solids% 
 DFV .spqt               78.00:  Mud Viscosity 
 MWOD.in                  8.00:  MWD Tool OD 
 MWSI.                      No:  Serv Intrp, MWD 
 OTIM.hr                177.15:  Time Operating 
 PCON.          Wear / Scratch:  Pad Condition 
 PMAX.psia            10493.93:  Press Op, Max 
 PV  .cP                 73.00:  Mud PV 
 RUN .                     700:  Run Number 
 ROPA.m/hr               15.00:  ROP Avg 
 ROPN.m/hr               10.00:  ROP Min 
 ROPX.m/hr               35.00:  ROP Max 
 RPMA.rpm               130.00:  RPM Surface Avg 
 RPMN.rpm                80.00:  RPM Surface Min 
 RPMX.rpm               150.00:  RPM Surface Max 
 RRUN.                    L402:  Rig Run Number 
 RTIM.hr                 80.50:  Time Reaming 
 SAZI.deg               155.55:  Azm, Start 
 SDEP.m                2036.00:  Start Depth 
 SIDD.                      No:  Serv Intrp, DD 
 SINC.deg                35.44:  Inc, Start 
 SPPA.psig             4270.00:  SPP Avg 
 SPPN.psig             2800.00:  SPP Min 
 SPPX.psig             4850.00:  SPP Max 
 STIM.      09.30.00 03-Feb-20:  Start Time 
 SVCS.                 DD, MWD:  Services 
 SVER.                    9.20:  Sperry Version 
 TDAT.m                1183.00:  Tot Depth Attmp 
 TDDF.                      No:  Trip for DD 
 TDLG.m                1183.00:  Tot Depth Loggd 
 TFF .                      No:  Trip for Fail 
 TQAA.f-kp               16.00:  Torque Abs Avg 
 TQAN.f-kp               10.00:  Torque Abs Min 
 TQAX.f-kp               20.00:  Torque Abs Max 
 TRRT.°/30m               1.00:  Turn Rotating 
 MRT .                  EWR-M5:  Maximum Recorded Temperature 
 TTMX.degC               80.39:  Max Tool Temp 
 VS01.               13098498 :  Virtual Str1 SN 
 VS02.                90569596:  Virtual Str2 SN 
 VS03.                90523599:  Virtual Str3 SN 
 VS04.                90573553:  Virtual Str4 SN 
 VS05.                90598598:  Virtual Str5 SN 
 VS06.                90577297:  Virtual Str6 SN 
 WBMN.klb                13.00:  WOB Min 
 WITN.         Alistair Sprott:  Customer Rep 
 WITN.           Rufat Babayev:  Customer Rep 2 
 WOBA.klb                15.00:  WOB Avg 
 WOBX.klb                20.00:  WOB Max 
 YP  .lhf2               39.00:  Yield Point 
~Curve Information Block
#MNEM.UNIT                 API CODE     Curve Description
#---------               -----------    ---------------------------
 TIME.HHMMSS            00 000 000 000:  GT Time & Date
 GTDEPTH.m              00 000 000 000:  GT Depth
 GTPQH.psia             00 000 000 000:  GT HR Quartz Pressure
 GTTQ.degC              00 000 000 000:  GT Quartz Temperature
 GTTN.NONE              00 000 000 000:  GT Test Number
 GTET.sec               00 000 000 000:  GT Elapsed Test Time
 GTTVD.m                00 000 000 000:  GT True Vertical Depth
#Other Information
#
#WARRANTY: Halliburton will use its best efforts to furnish customers with 
#accurate information and interpretations that are part of, and incident to, the services 
#provided.  However, Halliburton cannot and does not warrant the accuracy 
#or correctness of such information and interpretations.  Under no circumstances should any 
#such information or interpretation be relied upon as the sole basis for any drilling, 
#completion, production, or financial decision or any procedure involving any risk to the 
#safety of any drilling venture, drilling rig or its crew or any other third party.  The 
#Customer has full responsibility for all drilling, completion and production operation.  
#Halliburton makes no representations or warranties, either expressed or 
#implied, including, but not limited to, the implied warranties of merchantability or fitness 
#for a particular purpose, with respect to the services rendered.  In no event will 
#Halliburton be liable for failure to obtain any particular results or for 
#any damages, including, but not limited to, indirect, special or consequential damages, 
#resulting from the use of any information or interpretation provided by Halliburton.
#
~A           TIME           GTDEPTH  GTPQH  GTTQ  GTTN  GTET   GTTVD  
   10:04:49.180.08-Feb-2020 3159.51 5790.53 68.55 5.00   0.00 2654.38
   10:04:49.380.08-Feb-2020 3159.51 5790.53 68.55 5.00   0.20 2654.38
   10:04:49.580.08-Feb-2020 3159.51 5793.22 68.55 5.00   0.40 2654.38
   10:04:49.780.08-Feb-2020 3159.51 5801.41 68.55 5.00   0.60 2654.38
   10:04:49.980.08-Feb-2020 3159.51 5794.59 68.55 5.00   0.80 2654.38
   10:04:50.180.08-Feb-2020 3159.51 5793.29 68.55 5.00   1.00 2654.38
   10:04:50.380.08-Feb-2020 3159.51 5793.29 68.55 5.00   1.20 2654.38
   10:04:50.581.08-Feb-2020 3159.51 5794.76 68.55 5.00   1.40 2654.38
   10:04:50.781.08-Feb-2020 3159.51 5792.32 68.55 5.00   1.60 2654.38
   10:04:50.981.08-Feb-2020 3159.51 5799.48 68.55 5.00   1.80 2654.38
   10:04:51.181.08-Feb-2020 3159.51 5793.28 68.55 5.00   2.00 2654.38
   10:04:51.381.08-Feb-2020 3159.51 5793.28 68.55 5.00   2.20 2654.38
   10:04:51.581.08-Feb-2020 3159.51 5790.67 68.55 5.00   2.40 2654.38
   10:04:51.781.08-Feb-2020 3159.51 5791.07 68.55 5.00   2.60 2654.38
   10:04:51.981.08-Feb-2020 3159.51 5789.74 68.55 5.00   2.80 2654.38
   10:04:52.181.08-Feb-2020 3159.51 5794.07 68.55 5.00   3.00 2654.38
   10:04:52.381.08-Feb-2020 3159.51 5794.07 68.55 5.00   3.20 2654.38
   10:04:52.581.08-Feb-2020 3159.51 5787.01 68.55 5.00   3.40 2654.38
   10:04:52.781.08-Feb-2020 3159.51 5786.11 68.55 5.00   3.60 2654.38
   10:04:52.981.08-Feb-2020 3159.51 5785.71 68.55 5.00   3.80 2654.38
   10:04:53.181.08-Feb-2020 3159.51 5784.44 68.55 5.00   4.00 2654.38
   10:04:53.381.08-Feb-2020 3159.51 5784.44 68.55 5.00   4.20 2654.38
   10:04:53.581.08-Feb-2020 3159.51 5783.65 68.55 5.00   4.40 2654.38
   10:04:53.782.08-Feb-2020 3159.51 5783.99 68.55 5.00   4.60 2654.38
   10:04:53.982.08-Feb-2020 3159.51 5783.70 68.55 5.00   4.80 2654.38
   10:04:54.182.08-Feb-2020 3159.51 5783.57 68.55 5.00   5.00 2654.38
   10:04:54.382.08-Feb-2020 3159.51 5783.57 68.55 5.00   5.20 2654.38
   10:04:54.582.08-Feb-2020 3159.51 5783.57 68.55 5.00   5.40 2654.38
   10:04:54.782.08-Feb-2020 3159.51 5784.70 68.55 5.00   5.60 2654.38
   10:04:54.982.08-Feb-2020 3159.51 5784.99 68.55 5.00   5.80 2654.38
   10:04:55.182.08-Feb-2020 3159.51 5785.71 68.55 5.00   6.00 2654.38
   10:04:55.382.08-Feb-2020 3159.51 5785.71 68.55 5.00   6.20 2654.38
   10:04:55.582.08-Feb-2020 3159.51 5783.59 68.55 5.00   6.40 2654.38
   10:04:55.782.08-Feb-2020 3159.51 5783.43 68.55 5.00   6.60 2654.38
   10:04:55.982.08-Feb-2020 3159.51 5783.21 68.55 5.00   6.80 2654.38
   10:04:56.182.08-Feb-2020 3159.51 5782.95 68.55 5.00   7.00 2654.38
   10:04:56.382.08-Feb-2020 3159.51 5782.95 68.55 5.00   7.20 2654.38
   10:04:56.582.08-Feb-2020 3159.51 5788.12 68.55 5.00   7.40 2654.38
   10:04:56.782.08-Feb-2020 3159.51 5779.73 68.55 5.00   7.60 2654.38
   10:04:56.983.08-Feb-2020 3159.51 5777.13 68.55 5.00   7.80 2654.38
   10:04:57.183.08-Feb-2020 3159.51 5778.09 68.55 5.00   8.00 2654.38
   10:04:57.383.08-Feb-2020 3159.51 5778.09 68.55 5.00   8.20 2654.38
   10:04:57.583.08-Feb-2020 3159.51 5781.06 68.55 5.00   8.40 2654.38
   10:04:57.783.08-Feb-2020 3159.51 5777.76 68.55 5.00   8.60 2654.38
   10:04:57.983.08-Feb-2020 3159.51 5776.98 68.55 5.00   8.80 2654.38
   10:04:58.183.08-Feb-2020 3159.51 5779.94 68.55 5.00   9.00 2654.38
   10:04:58.383.08-Feb-2020 3159.51 5779.94 68.55 5.00   9.20 2654.38
   10:04:58.583.08-Feb-2020 3159.51 5778.43 68.55 5.00   9.40 2654.38
   10:04:58.783.08-Feb-2020 3159.51 5777.48 68.55 5.00   9.60 2654.38
   10:04:58.983.08-Feb-2020 3159.51 5782.55 68.55 5.00   9.80 2654.38
   10:04:59.183.08-Feb-2020 3159.51 5780.65 68.55 5.00  10.00 2654.38
   10:04:59.383.08-Feb-2020 3159.51 5780.65 68.55 5.00  10.20 2654.38
   10:04:59.583.08-Feb-2020 3159.51 5785.46 68.55 5.00  10.40 2654.38
   10:04:59.783.08-Feb-2020 3159.51 5779.97 68.55 5.00  10.60 2654.38
   10:04:59.983.08-Feb-2020 3159.51 5778.38 68.55 5.00  10.80 2654.38
   10:05:00.184.08-Feb-2020 3159.51 5781.09 68.55 5.00  11.00 2654.38
   10:05:00.384.08-Feb-2020 3159.51 5781.09 68.55 5.00  11.20 2654.38
   10:05:00.584.08-Feb-2020 3159.51 5787.76 68.55 5.00  11.40 2654.38
   10:05:00.784.08-Feb-2020 3159.51 5782.47 68.55 5.00  11.60 2654.38
   10:05:00.984.08-Feb-2020 3159.51 5781.88 68.55 5.00  11.80 2654.38
   10:05:01.184.08-Feb-2020 3159.51 5782.14 68.54 5.00  12.00 2654.38
   10:05:01.384.08-Feb-2020 3159.51 5782.14 68.54 5.00  12.20 2654.38
   10:05:01.584.08-Feb-2020 3159.51 5780.17 68.54 5.00  12.40 2654.38
   10:05:01.784.08-Feb-2020 3159.51 5781.02 68.54 5.00  12.60 2654.38
   10:05:01.984.08-Feb-2020 3159.51 5780.91 68.54 5.00  12.80 2654.38
   10:05:02.184.08-Feb-2020 3159.51 5781.22 68.54 5.00  13.00 2654.38
   10:05:02.384.08-Feb-2020 3159.51 5781.22 68.54 5.00  13.20 2654.38
   10:05:02.584.08-Feb-2020 3159.51 5782.36 68.54 5.00  13.40 2654.38
   10:05:02.784.08-Feb-2020 3159.51 5788.43 68.54 5.00  13.60 2654.38
   10:05:02.984.08-Feb-2020 3159.51 5783.81 68.54 5.00  13.80 2654.38
   10:05:03.184.08-Feb-2020 3159.51 5782.19 68.54 5.00  14.00 2654.38
   10:05:03.385.08-Feb-2020 3159.51 5782.19 68.54 5.00  14.20 2654.38
   10:05:03.585.08-Feb-2020 3159.51 5784.10 68.54 5.00  14.40 2654.38
   10:05:03.785.08-Feb-2020 3159.51 5783.13 68.54 5.00  14.60 2654.38
   10:05:03.985.08-Feb-2020 3159.51 5783.16 68.54 5.00  14.80 2654.38
   10:05:04.185.08-Feb-2020 3159.51 5783.95 68.54 5.00  15.00 2654.38
   10:05:04.385.08-Feb-2020 3159.51 5783.95 68.54 5.00  15.20 2654.38
   10:05:04.585.08-Feb-2020 3159.51 5783.97 68.54 5.00  15.40 2654.38
   10:05:04.785.08-Feb-2020 3159.51 5784.22 68.54 5.00  15.60 2654.38
   10:05:04.985.08-Feb-2020 3159.51 5791.63 68.54 5.00  15.80 2654.38
   10:05:05.185.08-Feb-2020 3159.51 5784.25 68.54 5.00  16.00 2654.38
   10:05:05.385.08-Feb-2020 3159.51 5784.25 68.54 5.00  16.21 2654.38
   10:05:05.585.08-Feb-2020 3159.51 5789.85 68.54 5.00  16.41 2654.38
   10:05:05.785.08-Feb-2020 3159.51 5788.38 68.54 5.00  16.61 2654.38
   10:05:05.985.08-Feb-2020 3159.51 5784.44 68.54 5.00  16.81 2654.38
   10:05:06.185.08-Feb-2020 3159.51 5784.49 68.54 5.00  17.01 2654.38
   10:05:06.385.08-Feb-2020 3159.51 5784.49 68.54 5.00  17.21 2654.38
   10:05:06.586.08-Feb-2020 3159.51 5783.49 68.54 5.00  17.41 2654.38
   10:05:06.786.08-Feb-2020 3159.51 5783.22 68.54 5.00  17.61 2654.38
   10:05:06.986.08-Feb-2020 3159.51 5785.27 68.54 5.00  17.81 2654.38
   10:05:07.186.08-Feb-2020 3159.51 5789.01 68.54 5.00  18.01 2654.38
   10:05:07.386.08-Feb-2020 3159.51 5789.01 68.54 5.00  18.21 2654.38
   10:05:07.586.08-Feb-2020 3159.51 5783.50 68.54 5.00  18.41 2654.38
   10:05:07.786.08-Feb-2020 3159.51 5784.14 68.54 5.00  18.61 2654.38
   10:05:07.986.08-Feb-2020 3159.51 5788.50 68.54 5.00  18.81 2654.38
   10:05:08.186.08-Feb-2020 3159.51 5786.89 68.54 5.00  19.01 2654.38
   10:05:08.386.08-Feb-2020 3159.51 5786.89 68.54 5.00  19.21 2654.38
   10:05:08.586.08-Feb-2020 3159.51 5785.45 68.54 5.00  19.41 2654.38
   10:05:08.786.08-Feb-2020 3159.51 5785.92 68.54 5.00  19.61 2654.38
   10:05:08.986.08-Feb-2020 3159.51 5786.19 68.54 5.00  19.81 2654.38
   10:05:09.186.08-Feb-2020 3159.51 5787.23 68.54 5.00  20.01 2654.38
   10:05:09.386.08-Feb-2020 3159.51 5787.23 68.54 5.00  20.21 2654.38
   10:05:09.586.08-Feb-2020 3159.51 5785.59 68.54 5.00  20.41 2654.38
   10:05:09.787.08-Feb-2020 3159.51 5784.98 68.54 5.00  20.61 2654.38
   10:05:09.987.08-Feb-2020 3159.51 5785.06 68.54 5.00  20.81 2654.38
   10:05:10.187.08-Feb-2020 3159.51 5784.56 68.54 5.00  21.01 2654.38
   10:05:10.387.08-Feb-2020 3159.51 5784.56 68.54 5.00  21.21 2654.38
   10:05:10.587.08-Feb-2020 3159.51 5786.55 68.54 5.00  21.41 2654.38
   10:05:10.787.08-Feb-2020 3159.51 5784.54 68.54 5.00  21.61 2654.38
   10:05:10.987.08-Feb-2020 3159.51 5784.88 68.54 5.00  21.81 2654.38
   10:05:11.187.08-Feb-2020 3159.51 5785.69 68.54 5.00  22.01 2654.38
   10:05:11.387.08-Feb-2020 3159.51 5785.69 68.54 5.00  22.21 2654.38
   10:05:11.587.08-Feb-2020 3159.51 5783.91 68.54 5.00  22.41 2654.38
   10:05:11.787.08-Feb-2020 3159.51 5784.14 68.54 5.00  22.61 2654.38
   10:05:11.987.08-Feb-2020 3159.51 5782.76 68.54 5.00  22.81 2654.38
