~Version Information
 VERS.                  2.0:   CWLS log ASCII Standard -VERSION 2.0
 WRAP.                   NO:   One line per depth step
~Well Information Block
#MNEM.UNIT     VALUE/NAME     DESCRIPTION
#---------     -----------    ---------------------------
 STRT.S             12:03:05 08-Feb-20: START TIME 12:03:05 08-Feb-20
 STOP.S             12:09:57 08-Feb-20: STOP TIME  12:09:57 08-Feb-20
 STEP.S                   0.00: STEP TIME
 NULL.                 -999.25: NULL VALUE
 DFWT.                        :  DIST FWL TEXT
 DFST.                        :  DIST FSL TEXT
 DMF .             Drill Floor:  DRILL MEAS FROM
 STIM.      07.00.00 09-Jan-20:  START TIME
 DATE.      14.04.48 07-Feb-20:  END TIME
 SPUD.               09-Jan-20:  SPUD DATE
 NREF.                    Grid:  NORTH REFERENCE
 HPTY.       Minimum Curvature:  HOLE POS TYPE
 DMOD.             Drill Model:  DRILL MOD DESC
 SVYD.                  Survey:  SURVEY DESC
 ILTD.               Lithology:  INTERP LTH DESC
 FTOP.          Formation Tops:  FORM TOPS DESC
 SON .        AZ-XX-0905059384:  JOB NUMBER
 MDS .        Operator Entered:  MAG DATA SOURCE
 WTYP.                Deviated:  WELL TYPE
 COMP.     BP Exploration (Caspian Sea) Ltd.:  COMPANY
 UWI .                     N/A:  UNIQUE WELL IDENTIFIER
 API .                     N/A:  API NUMBER
 BASE.              Azerbaijan:  LOGGING EQUIPMENT BASE LOCATION
 REGN.                   EESSA:  REGION
 PROV.                    Baku:  PROVINCE
 STAT.                    Baku:  STATE NAME
 CTRY.              Azerbaijan:  COUNTRY NAME
 FLD .                     ACG:  FIELD NAME
 SRVC.     TURAN Drilling & Engineering:  CONTRACTOR
 MWDS.                    Baku:  MWD SHOP
 WELL.                     J22:  WELL NAME
 RIG .             West Chirag:  RIG NAME
 DOE .                     N/A:  DOE NUMBER
 DCON.         Sperry Drilling:  DIRECTNL CONTR
 UNIT.                     N/A:  LOGGING EQUIPMENT ID
 PDAT.          Mean Sea Level:  PERMANENT DATUM
 JOBN.        AZ-XX-0905059384:  JOB TICKET NUMB
 CNTY.                        :  COUNTY
 LOC .                        :  LOCATION
 LMF .             Drill Floor:  LOG MEASURED FROM
 TVDS.m                  43.00:  TVDSS CORRECTN
 LATI.deg                40.13:  LATITUDE
 LONG.deg                51.22:  LONGITUDE
 WHNS.m                  10.28:  WELL HEAD N/S
 WHEW.m                  -6.24:  WELL HEAD E/W
 UTMX.m              519005.06:  UTM X
 UTMY.m             4443793.85:  UTM Y
 DFWL.m                   0.00:  DISTANCE FWL
 DFSL.m                   0.00:  DISTANCE FSL
 SDEP.m                 362.00:  START DEPTH
 TDD .m                 904.00:  TOTAL DEPTH (DRILLER)
 VSDR.deg               148.53:  VERT SEC DIRECT
 GVFD.g                   1.00:  GRAVITY FIELD
 MFLD.nT              50277.00:  MAGNETIC FIELD
 MDIP.deg                59.56:  MAGNETIC DIP
 MDEC.deg                 6.42:  MAGNETIC DECL
 GRDC.deg                 0.15:  GRID CORRECTION
 AZTC.deg                 6.27:  AZM TOTAL CORR
 EPD .m                   0.00:  ELEVATION
 EGL .m                   0.00:  GROUND ELEVATION
 WDMS.m                 169.80:  WD ELEV
 APD .m                  43.00:  DEPTH ABOVE PD
 AGAP.m                  43.00:  AIR GAP
 VSEW.m                  -6.24:  VERT SEC E/W
 VSNS.m                  10.28:  VERT SEC N/S
 DEP .m                   0.00:  DEPTH
 EKB .m                   0.00:  KB ELEVATION
 EDF .m                  43.00:  DF ELEVATION
 TDL .m                1183.00:  TOTAL DEPTH (LOGGER)
 VSC .                       0:  VS TO CLOSURE
 MAGU.                 1850021:  MAGUTM CHECKSUM
~Parameter Information Block
#MNEM.UNIT       Value        Description
#---------     -----------    ---------------------------
 AV  .mps                 4.00:  Ann Velocity 
 AVMX.mps                 4.50:  Max Ann Veloc 
 AZIF.deg               145.38:  Azm, Final 
 BHAT.        Rotary Steerable:  BHA Type 
 BROT.°/30m               3.00:  Build Rotating 
 BS  .in                 12.25:  Bit Size 
 BSZ .in                 12.25:  Bit Size 
 BTPL.psig              650.00:  Bit Press Loss 
 CABU.                      No:  Customer Abuse 
 COMM.                     ÌSf:  Run Comments 1 
 TCS .hr                101.62:  Time Ciculation Ended 
 CV  .mps                 5.00:  Crit Velocity 
 CVMX.mps                 5.00:  Max Crit Veloc 
 DD1 .             Aziz Aliyev:  Direct Drillr 1 
 DD2 .      Fakhraddin Guliyev:  Direct Drillr 2 
 DDSV.                 iCruise:  DD Service 
 DEFF.%                  97.00:  % Det Eff 
 DLRX.°/30m               4.16:  Dogleg Rot Max 
 DLSO.°/30m               3.20:  Dogleg Oriented 
 DLSX.°/30m               4.10:  Dogleg Str Max 
 DRET.      23.12.00 07-Feb-20:  Drill End Time 
 DRST.      11.30.00 04-Feb-20:  Drill Start Tim 
 DTIM.hr                 61.06:  Time Drilling 
 EDEP.m                3219.01:  End Depth 
 ENG1.         Almaz Almadatov:  Engineer 1 
 ENG2.         Dair Mahammadov:  Engineer 2 
 ENG3.          Nazrin Asgarli:  Engineer 3 
 ETIM.      02.30.00 11-Feb-20:  End Time 
 FLOI.gpm              1100.00:  Flow In 
 FLON.gpm               900.00:  Flow In Min 
 FLOS.cptm               55.00:  Fluid Loss 
 FLOX.gpm              1150.00:  Flow In Max 
 FTRO.       Formation Presure:  FTWD Run Obj 
 HFLO.                      No:  High Flow 
 HPRE.                      No:  High Pressure 
 HTEM.                      No:  High Temp 
 HYDO.m                   1.80:  Hydro Offset 
 IFIN.deg                75.11:  Inc, Final 
 IMAX.deg                75.11:  Inc Max 
 IMIN.deg                33.55:  Inc Min 
 IMND.m                2186.05:  Inc Min Depth 
 IMXD.m                3205.61:  Inc Max Depth 
 JARR.                      No:  Jarring 
 LETM.      23.12.00 07-Feb-20:  Log End Time 
 LOST.hr                     0:  Lost Rig Time 
 LSTM.      11.30.00 04-Feb-20:  Log Start Time 
 MDCL.ppm             40000.00:  Mud Chlorides 
 MDES.     Inversion Oil/Synthetic:  Mud Desc 
 DFD .sg                  1.49:  Mud Density 
 MDMN.sg                  1.49:  Dens Mud Min 
 MDMX.sg                  1.49:  Dens Mud Max 
 MOIL.                      73:  Run Mud Oil % 
 MOWR.                   73:27:  Run Mud OWR 
 MSND.                     0.1:  Run Mud Sand % 
 MSOL.                    20.1:  Run Mud Solids% 
 DFV .spqt               78.00:  Mud Viscosity 
 MWOD.in                  8.00:  MWD Tool OD 
 MWSI.                      No:  Serv Intrp, MWD 
 OTIM.hr                177.15:  Time Operating 
 PCON.          Wear / Scratch:  Pad Condition 
 PMAX.psia            10493.93:  Press Op, Max 
 PV  .cP                 73.00:  Mud PV 
 RUN .                     700:  Run Number 
 ROPA.m/hr               15.00:  ROP Avg 
 ROPN.m/hr               10.00:  ROP Min 
 ROPX.m/hr               35.00:  ROP Max 
 RPMA.rpm               130.00:  RPM Surface Avg 
 RPMN.rpm                80.00:  RPM Surface Min 
 RPMX.rpm               150.00:  RPM Surface Max 
 RRUN.                    L402:  Rig Run Number 
 RTIM.hr                 80.50:  Time Reaming 
 SAZI.deg               155.55:  Azm, Start 
 SDEP.m                2036.00:  Start Depth 
 SIDD.                      No:  Serv Intrp, DD 
 SINC.deg                35.44:  Inc, Start 
 SPPA.psig             4270.00:  SPP Avg 
 SPPN.psig             2800.00:  SPP Min 
 SPPX.psig             4850.00:  SPP Max 
 STIM.      09.30.00 03-Feb-20:  Start Time 
 SVCS.                 DD, MWD:  Services 
 SVER.                    9.20:  Sperry Version 
 TDAT.m                1183.00:  Tot Depth Attmp 
 TDDF.                      No:  Trip for DD 
 TDLG.m                1183.00:  Tot Depth Loggd 
 TFF .                      No:  Trip for Fail 
 TQAA.f-kp               16.00:  Torque Abs Avg 
 TQAN.f-kp               10.00:  Torque Abs Min 
 TQAX.f-kp               20.00:  Torque Abs Max 
 TRRT.°/30m               1.00:  Turn Rotating 
 MRT .                  EWR-M5:  Maximum Recorded Temperature 
 TTMX.degC               80.39:  Max Tool Temp 
 VS01.               13098498 :  Virtual Str1 SN 
 VS02.                90569596:  Virtual Str2 SN 
 VS03.                90523599:  Virtual Str3 SN 
 VS04.                90573553:  Virtual Str4 SN 
 VS05.                90598598:  Virtual Str5 SN 
 VS06.                90577297:  Virtual Str6 SN 
 WBMN.klb                13.00:  WOB Min 
 WITN.         Alistair Sprott:  Customer Rep 
 WITN.           Rufat Babayev:  Customer Rep 2 
 WOBA.klb                15.00:  WOB Avg 
 WOBX.klb                20.00:  WOB Max 
 YP  .lhf2               39.00:  Yield Point 
~Curve Information Block
#MNEM.UNIT                 API CODE     Curve Description
#---------               -----------    ---------------------------
 TIME.HHMMSS            00 000 000 000:  GT Time & Date
 GTDEPTH.m              00 000 000 000:  GT Depth
 GTPQH.psia             00 000 000 000:  GT HR Quartz Pressure
 GTTQ.degC              00 000 000 000:  GT Quartz Temperature
 GTTN.NONE              00 000 000 000:  GT Test Number
 GTET.sec               00 000 000 000:  GT Elapsed Test Time
 GTTVD.m                00 000 000 000:  GT True Vertical Depth
#Other Information
#
#WARRANTY: Halliburton will use its best efforts to furnish customers with 
#accurate information and interpretations that are part of, and incident to, the services 
#provided.  However, Halliburton cannot and does not warrant the accuracy 
#or correctness of such information and interpretations.  Under no circumstances should any 
#such information or interpretation be relied upon as the sole basis for any drilling, 
#completion, production, or financial decision or any procedure involving any risk to the 
#safety of any drilling venture, drilling rig or its crew or any other third party.  The 
#Customer has full responsibility for all drilling, completion and production operation.  
#Halliburton makes no representations or warranties, either expressed or 
#implied, including, but not limited to, the implied warranties of merchantability or fitness 
#for a particular purpose, with respect to the services rendered.  In no event will 
#Halliburton be liable for failure to obtain any particular results or for 
#any damages, including, but not limited to, indirect, special or consequential damages, 
#resulting from the use of any information or interpretation provided by Halliburton.
#
~A           TIME           GTDEPTH  GTPQH  GTTQ  GTTN  GTET   GTTVD  
# ...
   12:06:09.000.08-Feb-2020 3069.01  234.91 65.98 7.00 184.00 2627.56
   12:06:09.200.08-Feb-2020 3069.01  234.91 65.98 7.00 184.20 2627.56
   12:06:09.400.08-Feb-2020 3069.01  247.35 65.98 7.00 184.40 2627.56
   12:06:09.600.08-Feb-2020 3069.01  253.98 65.98 7.00 184.60 2627.56
   12:06:09.800.08-Feb-2020 3069.01  260.89 65.98 7.00 184.80 2627.56
   12:06:10.000.08-Feb-2020 3069.01  268.22 65.98 7.00 185.00 2627.56
   12:06:10.200.08-Feb-2020 3069.01  268.22 65.98 7.00 185.20 2627.56
   12:06:10.400.08-Feb-2020 3069.01  283.70 65.98 7.00 185.40 2627.56
   12:06:10.600.08-Feb-2020 3069.01  292.05 65.98 7.00 185.60 2627.56
   12:06:10.800.08-Feb-2020 3069.01  300.76 65.98 7.00 185.80 2627.56
   12:06:11.000.08-Feb-2020 3069.01  309.96 65.98 7.00 186.00 2627.56
   12:06:11.200.08-Feb-2020 3069.01  309.96 65.98 7.00 186.20 2627.56
   12:06:11.400.08-Feb-2020 3069.01  330.03 65.98 7.00 186.40 2627.56
   12:06:11.600.08-Feb-2020 3069.01  340.94 65.98 7.00 186.60 2627.56
   12:06:11.800.08-Feb-2020 3069.01  352.50 65.98 7.00 186.80 2627.56
   12:06:12.000.08-Feb-2020 3069.01  364.81 65.98 7.00 187.00 2627.56
   12:06:12.200.08-Feb-2020 3069.01  364.81 65.98 7.00 187.20 2627.56
   12:06:12.400.08-Feb-2020 3069.01  391.91 65.98 7.00 187.40 2627.56
   12:06:12.600.08-Feb-2020 3069.01  406.72 65.98 7.00 187.60 2627.56
   12:06:12.800.08-Feb-2020 3069.01  422.70 65.98 7.00 187.80 2627.56
   12:06:13.000.08-Feb-2020 3069.01  439.82 65.98 7.00 188.00 2627.56
   12:06:13.200.08-Feb-2020 3069.01  439.82 65.98 7.00 188.20 2627.56
   12:06:13.400.08-Feb-2020 3069.01  477.37 65.98 7.00 188.40 2627.56
   12:06:13.600.08-Feb-2020 3069.01  498.07 65.98 7.00 188.60 2627.56
   12:06:13.800.08-Feb-2020 3069.01  520.10 65.98 7.00 188.80 2627.56
   12:06:14.000.08-Feb-2020 3069.01  543.81 65.98 7.00 189.00 2627.56
   12:06:14.200.08-Feb-2020 3069.01  543.81 65.98 7.00 189.20 2627.56
   12:06:14.400.08-Feb-2020 3069.01  595.21 65.98 7.00 189.40 2627.56
   12:06:14.600.08-Feb-2020 3069.01  623.64 65.98 7.00 189.60 2627.56
   12:06:14.800.08-Feb-2020 3069.01  653.60 65.98 7.00 189.80 2627.56
   12:06:15.000.08-Feb-2020 3069.01  684.88 65.98 7.00 190.00 2627.56
   12:06:15.200.08-Feb-2020 3069.01  684.88 65.98 7.00 190.20 2627.56
   12:06:15.400.08-Feb-2020 3069.01  752.79 65.98 7.00 190.40 2627.56
   12:06:15.600.08-Feb-2020 3069.01  789.17 65.98 7.00 190.60 2627.56
   12:06:15.800.08-Feb-2020 3069.01  826.99 65.98 7.00 190.80 2627.56
   12:06:16.000.08-Feb-2020 3069.01  866.07 65.98 7.00 191.00 2627.56
   12:06:16.200.08-Feb-2020 3069.01  866.07 65.98 7.00 191.20 2627.56
   12:06:16.400.08-Feb-2020 3069.01  947.62 65.98 7.00 191.40 2627.56
   12:06:16.600.08-Feb-2020 3069.01  989.87 65.98 7.00 191.60 2627.56
   12:06:16.800.08-Feb-2020 3069.01 1032.75 65.98 7.00 191.80 2627.56
   12:06:17.000.08-Feb-2020 3069.01 1076.41 65.98 7.00 192.00 2627.56
   12:06:17.200.08-Feb-2020 3069.01 1076.41 65.98 7.00 192.20 2627.56
   12:06:17.400.08-Feb-2020 3069.01 1164.27 65.99 7.00 192.40 2627.56
   12:06:17.600.08-Feb-2020 3069.01 1209.58 65.99 7.00 192.60 2627.56
   12:06:17.800.08-Feb-2020 3069.01 1254.64 65.99 7.00 192.80 2627.56
   12:06:18.000.08-Feb-2020 3069.01 1299.70 65.99 7.00 193.00 2627.56
   12:06:18.200.08-Feb-2020 3069.01 1299.70 65.99 7.00 193.20 2627.56
   12:06:18.400.08-Feb-2020 3069.01 1389.60 65.99 7.00 193.40 2627.56
   12:06:18.600.08-Feb-2020 3069.01 1434.22 65.99 7.00 193.60 2627.56
   12:06:18.800.08-Feb-2020 3069.01 1478.69 65.99 7.00 193.80 2627.56
   12:06:19.000.08-Feb-2020 3069.01 1522.56 65.99 7.00 194.00 2627.56
   12:06:19.200.08-Feb-2020 3069.01 1522.56 65.99 7.00 194.20 2627.56
   12:06:19.400.08-Feb-2020 3069.01 1608.45 65.99 7.00 194.40 2627.56
   12:06:19.600.08-Feb-2020 3069.01 1651.62 65.99 7.00 194.60 2627.56
   12:06:19.800.08-Feb-2020 3069.01 1693.54 65.99 7.00 194.80 2627.56
   12:06:20.000.08-Feb-2020 3069.01 1735.10 66.00 7.00 195.00 2627.56
   12:06:20.200.08-Feb-2020 3069.01 1735.10 66.00 7.00 195.20 2627.56
   12:06:20.400.08-Feb-2020 3069.01 1817.15 66.00 7.00 195.40 2627.56
   12:06:20.600.08-Feb-2020 3069.01 1855.91 66.00 7.00 195.60 2627.56
   12:06:20.800.08-Feb-2020 3069.01 1895.99 66.00 7.00 195.80 2627.56
   12:06:21.000.08-Feb-2020 3069.01 1934.78 66.00 7.00 196.00 2627.56
   12:06:21.200.08-Feb-2020 3069.01 1934.78 66.00 7.00 196.20 2627.56
   12:06:21.400.08-Feb-2020 3069.01 2010.51 66.00 7.00 196.40 2627.56
   12:06:21.600.08-Feb-2020 3069.01 2047.03 66.00 7.00 196.60 2627.56
   12:06:21.800.08-Feb-2020 3069.01 2083.60 66.00 7.00 196.80 2627.56
   12:06:22.000.08-Feb-2020 3069.01 2119.63 66.01 7.00 197.00 2627.56
   12:06:22.200.08-Feb-2020 3069.01 2119.63 66.01 7.00 197.20 2627.56
   12:06:22.400.08-Feb-2020 3069.01 2188.33 66.01 7.00 197.40 2627.56
   12:06:22.600.08-Feb-2020 3069.01 2222.46 66.01 7.00 197.60 2627.56
   12:06:22.800.08-Feb-2020 3069.01 2255.60 66.01 7.00 197.80 2627.56
   12:06:23.000.08-Feb-2020 3069.01 2288.53 66.01 7.00 198.00 2627.56
   12:06:23.200.08-Feb-2020 3069.01 2288.53 66.01 7.00 198.20 2627.56
   12:06:23.400.08-Feb-2020 3069.01 2352.19 66.01 7.00 198.40 2627.56
   12:06:23.600.08-Feb-2020 3069.01 2383.38 66.01 7.00 198.60 2627.56
   12:06:23.800.08-Feb-2020 3069.01 2413.85 66.02 7.00 198.80 2627.56
   12:06:24.000.08-Feb-2020 3069.01 2443.71 66.02 7.00 199.00 2627.56
   12:06:24.200.08-Feb-2020 3069.01 2443.71 66.02 7.00 199.20 2627.56
   12:06:24.400.08-Feb-2020 3069.01 2500.69 66.02 7.00 199.40 2627.56
   12:06:24.600.08-Feb-2020 3069.01 2529.72 66.02 7.00 199.60 2627.56
   12:06:24.800.08-Feb-2020 3069.01 2557.97 66.02 7.00 199.80 2627.56
   12:06:25.000.08-Feb-2020 3069.01 2585.33 66.02 7.00 200.00 2627.56
   12:06:25.200.08-Feb-2020 3069.01 2585.33 66.02 7.00 200.20 2627.56
   12:06:25.400.08-Feb-2020 3069.01 2638.92 66.02 7.00 200.40 2627.56
   12:06:25.600.08-Feb-2020 3069.01 2664.84 66.03 7.00 200.60 2627.56
   12:06:25.800.08-Feb-2020 3069.01 2690.42 66.03 7.00 200.80 2627.56
   12:06:26.000.08-Feb-2020 3069.01 2715.46 66.03 7.00 201.00 2627.56
   12:06:26.200.08-Feb-2020 3069.01 2715.46 66.03 7.00 201.20 2627.56
   12:06:26.400.08-Feb-2020 3069.01 2763.55 66.03 7.00 201.40 2627.56
   12:06:26.600.08-Feb-2020 3069.01 2787.32 66.03 7.00 201.60 2627.56
   12:06:26.800.08-Feb-2020 3069.01 2810.98 66.03 7.00 201.80 2627.56
   12:06:27.000.08-Feb-2020 3069.01 2833.07 66.03 7.00 202.00 2627.56
   12:06:27.200.08-Feb-2020 3069.01 2833.07 66.03 7.00 202.20 2627.56
   12:06:27.400.08-Feb-2020 3069.01 2878.39 66.03 7.00 202.40 2627.56
   12:06:27.600.08-Feb-2020 3069.01 2900.37 66.03 7.00 202.60 2627.56
   12:06:27.800.08-Feb-2020 3069.01 2921.70 66.04 7.00 202.80 2627.56
   12:06:28.000.08-Feb-2020 3069.01 2942.96 66.04 7.00 203.00 2627.56
   12:06:28.200.08-Feb-2020 3069.01 2942.96 66.04 7.00 203.20 2627.56
   12:06:28.400.08-Feb-2020 3069.01 2983.96 66.04 7.00 203.40 2627.56
   12:06:28.600.08-Feb-2020 3069.01 3003.96 66.04 7.00 203.60 2627.56
   12:06:28.800.08-Feb-2020 3069.01 3023.51 66.04 7.00 203.80 2627.56
   12:06:29.000.08-Feb-2020 3069.01 3043.53 66.04 7.00 204.00 2627.56
   12:06:29.200.08-Feb-2020 3069.01 3043.53 66.04 7.00 204.20 2627.56
   12:06:29.400.08-Feb-2020 3069.01 3081.25 66.04 7.00 204.40 2627.56
   12:06:29.600.08-Feb-2020 3069.01 3100.11 66.04 7.00 204.60 2627.56
   12:06:29.800.08-Feb-2020 3069.01 3118.26 66.04 7.00 204.80 2627.56
   12:06:30.000.08-Feb-2020 3069.01 3136.46 66.04 7.00 205.00 2627.56
   12:06:30.200.08-Feb-2020 3069.01 3136.46 66.04 7.00 205.20 2627.56
   12:06:30.400.08-Feb-2020 3069.01 3171.61 66.05 7.00 205.40 2627.56
   12:06:30.600.08-Feb-2020 3069.01 3188.93 66.05 7.00 205.60 2627.56
   12:06:30.800.08-Feb-2020 3069.01 3205.76 66.05 7.00 205.80 2627.56
   12:06:31.000.08-Feb-2020 3069.01 3222.40 66.05 7.00 206.00 2627.56
   12:06:31.200.08-Feb-2020 3069.01 3222.40 66.05 7.00 206.20 2627.56
   12:06:31.400.08-Feb-2020 3069.01 3253.84 66.05 7.00 206.40 2627.56
   12:06:31.600.08-Feb-2020 3069.01 3269.58 66.05 7.00 206.60 2627.56
   12:06:31.800.08-Feb-2020 3069.01 3285.03 66.05 7.00 206.80 2627.56
