~Version Information
 VERS.                  2.0:   CWLS log ASCII Standard -VERSION 2.0
 WRAP.                   NO:   One line per depth step
~Well Information Block
#MNEM.UNIT     VALUE/NAME     DESCRIPTION
#---------     -----------    ---------------------------
 STRT.S             08:41:50 08-Feb-20: START TIME 08:41:50 08-Feb-20
 STOP.S             08:48:48 08-Feb-20: STOP TIME  08:48:48 08-Feb-20
 STEP.S                   0.00: STEP TIME
 NULL.                 -999.25: NULL VALUE
 DFWT.                        :  DIST FWL TEXT
 DFST.                        :  DIST FSL TEXT
 DMF .             Drill Floor:  DRILL MEAS FROM
 STIM.      07.00.00 09-Jan-20:  START TIME
 DATE.      14.04.48 07-Feb-20:  END TIME
 SPUD.               09-Jan-20:  SPUD DATE
 NREF.                    Grid:  NORTH REFERENCE
 HPTY.       Minimum Curvature:  HOLE POS TYPE
 DMOD.             Drill Model:  DRILL MOD DESC
 SVYD.                  Survey:  SURVEY DESC
 ILTD.               Lithology:  INTERP LTH DESC
 FTOP.          Formation Tops:  FORM TOPS DESC
 SON .        AZ-XX-0905059384:  JOB NUMBER
 MDS .        Operator Entered:  MAG DATA SOURCE
 WTYP.                Deviated:  WELL TYPE
 COMP.     BP Exploration (Caspian Sea) Ltd.:  COMPANY
 UWI .                     N/A:  UNIQUE WELL IDENTIFIER
 API .                     N/A:  API NUMBER
 BASE.              Azerbaijan:  LOGGING EQUIPMENT BASE LOCATION
 REGN.                   EESSA:  REGION
 PROV.                    Baku:  PROVINCE
 STAT.                    Baku:  STATE NAME
 CTRY.              Azerbaijan:  COUNTRY NAME
 FLD .                     ACG:  FIELD NAME
 SRVC.     TURAN Drilling & Engineering:  CONTRACTOR
 MWDS.                    Baku:  MWD SHOP
 WELL.                     J22:  WELL NAME
 RIG .             West Chirag:  RIG NAME
 DOE .                     N/A:  DOE NUMBER
 DCON.         Sperry Drilling:  DIRECTNL CONTR
 UNIT.                     N/A:  LOGGING EQUIPMENT ID
 PDAT.          Mean Sea Level:  PERMANENT DATUM
 JOBN.        AZ-XX-0905059384:  JOB TICKET NUMB
 CNTY.                        :  COUNTY
 LOC .                        :  LOCATION
 LMF .             Drill Floor:  LOG MEASURED FROM
 TVDS.m                  43.00:  TVDSS CORRECTN
 LATI.deg                40.13:  LATITUDE
 LONG.deg                51.22:  LONGITUDE
 WHNS.m                  10.28:  WELL HEAD N/S
 WHEW.m                  -6.24:  WELL HEAD E/W
 UTMX.m              519005.06:  UTM X
 UTMY.m             4443793.85:  UTM Y
 DFWL.m                   0.00:  DISTANCE FWL
 DFSL.m                   0.00:  DISTANCE FSL
 SDEP.m                 362.00:  START DEPTH
 TDD .m                 904.00:  TOTAL DEPTH (DRILLER)
 VSDR.deg               148.53:  VERT SEC DIRECT
 GVFD.g                   1.00:  GRAVITY FIELD
 MFLD.nT              50277.00:  MAGNETIC FIELD
 MDIP.deg                59.56:  MAGNETIC DIP
 MDEC.deg                 6.42:  MAGNETIC DECL
 GRDC.deg                 0.15:  GRID CORRECTION
 AZTC.deg                 6.27:  AZM TOTAL CORR
 EPD .m                   0.00:  ELEVATION
 EGL .m                   0.00:  GROUND ELEVATION
 WDMS.m                 169.80:  WD ELEV
 APD .m                  43.00:  DEPTH ABOVE PD
 AGAP.m                  43.00:  AIR GAP
 VSEW.m                  -6.24:  VERT SEC E/W
 VSNS.m                  10.28:  VERT SEC N/S
 DEP .m                   0.00:  DEPTH
 EKB .m                   0.00:  KB ELEVATION
 EDF .m                  43.00:  DF ELEVATION
 TDL .m                1183.00:  TOTAL DEPTH (LOGGER)
 VSC .                       0:  VS TO CLOSURE
 MAGU.                 1850021:  MAGUTM CHECKSUM
~Parameter Information Block
#MNEM.UNIT       Value        Description
#---------     -----------    ---------------------------
 AV  .mps                 4.00:  Ann Velocity 
 AVMX.mps                 4.50:  Max Ann Veloc 
 AZIF.deg               145.38:  Azm, Final 
 BHAT.        Rotary Steerable:  BHA Type 
 BROT.°/30m               3.00:  Build Rotating 
 BS  .in                 12.25:  Bit Size 
 BSZ .in                 12.25:  Bit Size 
 BTPL.psig              650.00:  Bit Press Loss 
 CABU.                      No:  Customer Abuse 
 COMM.                     [:  Run Comments 1 
 TCS .hr                101.62:  Time Ciculation Ended 
 CV  .mps                 5.00:  Crit Velocity 
 CVMX.mps                 5.00:  Max Crit Veloc 
 DD1 .             Aziz Aliyev:  Direct Drillr 1 
 DD2 .      Fakhraddin Guliyev:  Direct Drillr 2 
 DDSV.                 iCruise:  DD Service 
 DEFF.%                  97.00:  % Det Eff 
 DLRX.°/30m               4.16:  Dogleg Rot Max 
 DLSO.°/30m               3.20:  Dogleg Oriented 
 DLSX.°/30m               4.10:  Dogleg Str Max 
 DRET.      23.12.00 07-Feb-20:  Drill End Time 
 DRST.      11.30.00 04-Feb-20:  Drill Start Tim 
 DTIM.hr                 61.06:  Time Drilling 
 EDEP.m                3219.01:  End Depth 
 ENG1.         Almaz Almadatov:  Engineer 1 
 ENG2.         Dair Mahammadov:  Engineer 2 
 ENG3.          Nazrin Asgarli:  Engineer 3 
 ETIM.      02.30.00 11-Feb-20:  End Time 
 FLOI.gpm              1100.00:  Flow In 
 FLON.gpm               900.00:  Flow In Min 
 FLOS.cptm               55.00:  Fluid Loss 
 FLOX.gpm              1150.00:  Flow In Max 
 FTRO.       Formation Presure:  FTWD Run Obj 
 HFLO.                      No:  High Flow 
 HPRE.                      No:  High Pressure 
 HTEM.                      No:  High Temp 
 HYDO.m                   1.80:  Hydro Offset 
 IFIN.deg                75.11:  Inc, Final 
 IMAX.deg                75.11:  Inc Max 
 IMIN.deg                33.55:  Inc Min 
 IMND.m                2186.05:  Inc Min Depth 
 IMXD.m                3205.61:  Inc Max Depth 
 JARR.                      No:  Jarring 
 LETM.      23.12.00 07-Feb-20:  Log End Time 
 LOST.hr                     0:  Lost Rig Time 
 LSTM.      11.30.00 04-Feb-20:  Log Start Time 
 MDCL.ppm             40000.00:  Mud Chlorides 
 MDES.     Inversion Oil/Synthetic:  Mud Desc 
 DFD .sg                  1.49:  Mud Density 
 MDMN.sg                  1.49:  Dens Mud Min 
 MDMX.sg                  1.49:  Dens Mud Max 
 MOIL.                      73:  Run Mud Oil % 
 MOWR.                   73:27:  Run Mud OWR 
 MSND.                     0.1:  Run Mud Sand % 
 MSOL.                    20.1:  Run Mud Solids% 
 DFV .spqt               78.00:  Mud Viscosity 
 MWOD.in                  8.00:  MWD Tool OD 
 MWSI.                      No:  Serv Intrp, MWD 
 OTIM.hr                177.15:  Time Operating 
 PCON.          Wear / Scratch:  Pad Condition 
 PMAX.psia            10493.93:  Press Op, Max 
 PV  .cP                 73.00:  Mud PV 
 RUN .                     700:  Run Number 
 ROPA.m/hr               15.00:  ROP Avg 
 ROPN.m/hr               10.00:  ROP Min 
 ROPX.m/hr               35.00:  ROP Max 
 RPMA.rpm               130.00:  RPM Surface Avg 
 RPMN.rpm                80.00:  RPM Surface Min 
 RPMX.rpm               150.00:  RPM Surface Max 
 RRUN.                    L402:  Rig Run Number 
 RTIM.hr                 80.50:  Time Reaming 
 SAZI.deg               155.55:  Azm, Start 
 SDEP.m                2036.00:  Start Depth 
 SIDD.                      No:  Serv Intrp, DD 
 SINC.deg                35.44:  Inc, Start 
 SPPA.psig             4270.00:  SPP Avg 
 SPPN.psig             2800.00:  SPP Min 
 SPPX.psig             4850.00:  SPP Max 
 STIM.      09.30.00 03-Feb-20:  Start Time 
 SVCS.                 DD, MWD:  Services 
 SVER.                    9.20:  Sperry Version 
 TDAT.m                1183.00:  Tot Depth Attmp 
 TDDF.                      No:  Trip for DD 
 TDLG.m                1183.00:  Tot Depth Loggd 
 TFF .                      No:  Trip for Fail 
 TQAA.f-kp               16.00:  Torque Abs Avg 
 TQAN.f-kp               10.00:  Torque Abs Min 
 TQAX.f-kp               20.00:  Torque Abs Max 
 TRRT.°/30m               1.00:  Turn Rotating 
 MRT .                  EWR-M5:  Maximum Recorded Temperature 
 TTMX.degC               80.39:  Max Tool Temp 
 VS01.               13098498 :  Virtual Str1 SN 
 VS02.                90569596:  Virtual Str2 SN 
 VS03.                90523599:  Virtual Str3 SN 
 VS04.                90573553:  Virtual Str4 SN 
 VS05.                90598598:  Virtual Str5 SN 
 VS06.                90577297:  Virtual Str6 SN 
 WBMN.klb                13.00:  WOB Min 
 WITN.         Alistair Sprott:  Customer Rep 
 WITN.           Rufat Babayev:  Customer Rep 2 
 WOBA.klb                15.00:  WOB Avg 
 WOBX.klb                20.00:  WOB Max 
 YP  .lhf2               39.00:  Yield Point 
~Curve Information Block
#MNEM.UNIT                 API CODE     Curve Description
#---------               -----------    ---------------------------
 TIME.HHMMSS            00 000 000 000:  GT Time & Date
 GTDEPTH.m              00 000 000 000:  GT Depth
 GTPQH.psia             00 000 000 000:  GT HR Quartz Pressure
 GTTQ.degC              00 000 000 000:  GT Quartz Temperature
 GTTN.NONE              00 000 000 000:  GT Test Number
 GTET.sec               00 000 000 000:  GT Elapsed Test Time
 GTTVD.m                00 000 000 000:  GT True Vertical Depth
#Other Information
#
#WARRANTY: Halliburton will use its best efforts to furnish customers with 
#accurate information and interpretations that are part of, and incident to, the services 
#provided.  However, Halliburton cannot and does not warrant the accuracy 
#or correctness of such information and interpretations.  Under no circumstances should any 
#such information or interpretation be relied upon as the sole basis for any drilling, 
#completion, production, or financial decision or any procedure involving any risk to the 
#safety of any drilling venture, drilling rig or its crew or any other third party.  The 
#Customer has full responsibility for all drilling, completion and production operation.  
#Halliburton makes no representations or warranties, either expressed or 
#implied, including, but not limited to, the implied warranties of merchantability or fitness 
#for a particular purpose, with respect to the services rendered.  In no event will 
#Halliburton be liable for failure to obtain any particular results or for 
#any damages, including, but not limited to, indirect, special or consequential damages, 
#resulting from the use of any information or interpretation provided by Halliburton.
#
~A           TIME           GTDEPTH  GTPQH  GTTQ  GTTN  GTET   GTTVD  
# ...
   08:46:03.652.08-Feb-2020 3153.01 5765.76 71.06 2.00 253.02 2652.69
   08:46:03.852.08-Feb-2020 3153.01 5765.76 71.06 2.00 253.22 2652.69
   08:46:04.052.08-Feb-2020 3153.01 5765.36 71.06 2.00 253.42 2652.69
   08:46:04.252.08-Feb-2020 3153.01 5769.84 71.06 2.00 253.62 2652.69
   08:46:04.452.08-Feb-2020 3153.01 5766.25 71.06 2.00 253.82 2652.69
   08:46:04.652.08-Feb-2020 3153.01 5764.79 71.06 2.00 254.02 2652.69
   08:46:04.852.08-Feb-2020 3153.01 5764.79 71.06 2.00 254.22 2652.69
   08:46:05.052.08-Feb-2020 3153.01 5765.98 71.06 2.00 254.42 2652.69
   08:46:05.252.08-Feb-2020 3153.01 5765.04 71.06 2.00 254.62 2652.69
   08:46:05.452.08-Feb-2020 3153.01 5764.59 71.06 2.00 254.82 2652.69
   08:46:05.652.08-Feb-2020 3153.01 5772.34 71.06 2.00 255.02 2652.69
   08:46:05.852.08-Feb-2020 3153.01 5772.34 71.06 2.00 255.22 2652.69
   08:46:06.053.08-Feb-2020 3153.01 5763.48 71.06 2.00 255.42 2652.69
   08:46:06.253.08-Feb-2020 3153.01 5771.06 71.06 2.00 255.62 2652.69
   08:46:06.453.08-Feb-2020 3153.01 5766.12 71.06 2.00 255.82 2652.69
   08:46:06.653.08-Feb-2020 3153.01 5763.86 71.06 2.00 256.02 2652.69
   08:46:06.853.08-Feb-2020 3153.01 5763.86 71.06 2.00 256.22 2652.69
   08:46:07.053.08-Feb-2020 3153.01 5766.21 71.06 2.00 256.42 2652.69
   08:46:07.253.08-Feb-2020 3153.01 5768.82 71.06 2.00 256.62 2652.69
   08:46:07.453.08-Feb-2020 3153.01 5768.28 71.06 2.00 256.82 2652.69
   08:46:07.653.08-Feb-2020 3153.01 5766.19 71.06 2.00 257.02 2652.69
   08:46:07.853.08-Feb-2020 3153.01 5766.19 71.06 2.00 257.22 2652.69
   08:46:08.053.08-Feb-2020 3153.01 5766.76 71.06 2.00 257.42 2652.69
   08:46:08.253.08-Feb-2020 3153.01 5766.08 71.06 2.00 257.62 2652.69
   08:46:08.453.08-Feb-2020 3153.01 5767.35 71.06 2.00 257.82 2652.69
   08:46:08.653.08-Feb-2020 3153.01 5766.35 71.06 2.00 258.02 2652.69
   08:46:08.853.08-Feb-2020 3153.01 5766.35 71.06 2.00 258.22 2652.69
   08:46:09.053.08-Feb-2020 3153.01 5766.06 71.06 2.00 258.42 2652.69
   08:46:09.253.08-Feb-2020 3153.01 5766.00 71.06 2.00 258.62 2652.69
   08:46:09.453.08-Feb-2020 3153.01 5771.20 71.06 2.00 258.82 2652.69
   08:46:09.653.08-Feb-2020 3153.01 5765.58 71.06 2.00 259.02 2652.69
   08:46:09.853.08-Feb-2020 3153.01 5765.58 71.06 2.00 259.22 2652.69
   08:46:10.053.08-Feb-2020 3153.01 5766.50 71.05 2.00 259.42 2652.69
   08:46:10.253.08-Feb-2020 3153.01 5767.01 71.05 2.00 259.62 2652.69
   08:46:10.453.08-Feb-2020 3153.01 5765.70 71.05 2.00 259.82 2652.69
   08:46:10.653.08-Feb-2020 3153.01 5767.04 71.05 2.00 260.02 2652.69
   08:46:10.853.08-Feb-2020 3153.01 5767.04 71.05 2.00 260.22 2652.69
   08:46:11.053.08-Feb-2020 3153.01 5766.20 71.05 2.00 260.42 2652.69
   08:46:11.253.08-Feb-2020 3153.01 5766.14 71.05 2.00 260.62 2652.69
   08:46:11.453.08-Feb-2020 3153.01 5765.70 71.05 2.00 260.82 2652.69
   08:46:11.653.08-Feb-2020 3153.01 5768.69 71.05 2.00 261.02 2652.69
   08:46:11.853.08-Feb-2020 3153.01 5768.69 71.05 2.00 261.22 2652.69
   08:46:12.053.08-Feb-2020 3153.01 5765.40 71.05 2.00 261.42 2652.69
   08:46:12.253.08-Feb-2020 3153.01 5769.42 71.05 2.00 261.62 2652.69
   08:46:12.453.08-Feb-2020 3153.01 5768.73 71.05 2.00 261.82 2652.69
   08:46:12.653.08-Feb-2020 3153.01 5765.19 71.05 2.00 262.02 2652.69
   08:46:12.853.08-Feb-2020 3153.01 5765.19 71.05 2.00 262.22 2652.69
   08:46:13.053.08-Feb-2020 3153.01 5769.23 71.05 2.00 262.42 2652.69
   08:46:13.253.08-Feb-2020 3153.01 5766.80 71.05 2.00 262.62 2652.69
   08:46:13.453.08-Feb-2020 3153.01 5764.86 71.05 2.00 262.82 2652.69
   08:46:13.653.08-Feb-2020 3153.01 5768.85 71.05 2.00 263.02 2652.69
   08:46:13.853.08-Feb-2020 3153.01 5768.85 71.05 2.00 263.22 2652.69
   08:46:14.053.08-Feb-2020 3153.01 5764.01 71.05 2.00 263.42 2652.69
   08:46:14.253.08-Feb-2020 3153.01 5764.90 71.05 2.00 263.62 2652.69
   08:46:14.453.08-Feb-2020 3153.01 5765.55 71.05 2.00 263.82 2652.69
   08:46:14.653.08-Feb-2020 3153.01 5768.61 71.05 2.00 264.02 2652.69
   08:46:14.853.08-Feb-2020 3153.01 5768.61 71.05 2.00 264.22 2652.69
   08:46:15.053.08-Feb-2020 3153.01 5766.31 71.05 2.00 264.42 2652.69
   08:46:15.253.08-Feb-2020 3153.01 5766.11 71.05 2.00 264.62 2652.69
   08:46:15.453.08-Feb-2020 3153.01 5765.99 71.05 2.00 264.82 2652.69
   08:46:15.653.08-Feb-2020 3153.01 5766.61 71.05 2.00 265.02 2652.69
   08:46:15.853.08-Feb-2020 3153.01 5766.61 71.05 2.00 265.22 2652.69
   08:46:16.053.08-Feb-2020 3153.01 5766.20 71.05 2.00 265.42 2652.69
   08:46:16.253.08-Feb-2020 3153.01 5766.18 71.05 2.00 265.62 2652.69
   08:46:16.453.08-Feb-2020 3153.01 5765.89 71.05 2.00 265.82 2652.69
   08:46:16.653.08-Feb-2020 3153.01 5765.76 71.05 2.00 266.02 2652.69
   08:46:16.853.08-Feb-2020 3153.01 5765.76 71.05 2.00 266.22 2652.69
   08:46:17.053.08-Feb-2020 3153.01 5766.89 71.05 2.00 266.42 2652.69
   08:46:17.253.08-Feb-2020 3153.01 5766.15 71.05 2.00 266.62 2652.69
   08:46:17.453.08-Feb-2020 3153.01 5766.64 71.05 2.00 266.82 2652.69
   08:46:17.653.08-Feb-2020 3153.01 5767.20 71.05 2.00 267.02 2652.69
   08:46:17.854.08-Feb-2020 3153.01 5767.20 71.05 2.00 267.22 2652.69
   08:46:18.054.08-Feb-2020 3153.01 5766.82 71.05 2.00 267.42 2652.69
   08:46:18.254.08-Feb-2020 3153.01 5766.06 71.05 2.00 267.62 2652.69
   08:46:18.454.08-Feb-2020 3153.01 5766.24 71.05 2.00 267.82 2652.69
   08:46:18.654.08-Feb-2020 3153.01 5765.77 71.05 2.00 268.02 2652.69
   08:46:18.854.08-Feb-2020 3153.01 5765.77 71.05 2.00 268.22 2652.69
   08:46:19.054.08-Feb-2020 3153.01 5768.02 71.05 2.00 268.42 2652.69
   08:46:19.254.08-Feb-2020 3153.01 5767.48 71.05 2.00 268.62 2652.69
   08:46:19.454.08-Feb-2020 3153.01 5765.71 71.05 2.00 268.82 2652.69
   08:46:19.654.08-Feb-2020 3153.01 5768.36 71.05 2.00 269.02 2652.69
   08:46:19.854.08-Feb-2020 3153.01 5768.36 71.05 2.00 269.22 2652.69
   08:46:20.054.08-Feb-2020 3153.01 5764.23 71.05 2.00 269.42 2652.69
   08:46:20.254.08-Feb-2020 3153.01 5767.97 71.04 2.00 269.62 2652.69
   08:46:20.454.08-Feb-2020 3153.01 5768.18 71.04 2.00 269.82 2652.69
   08:46:20.654.08-Feb-2020 3153.01 5764.38 71.04 2.00 270.02 2652.69
   08:46:20.854.08-Feb-2020 3153.01 5764.38 71.04 2.00 270.22 2652.69
   08:46:21.054.08-Feb-2020 3153.01 5768.96 71.04 2.00 270.42 2652.69
   08:46:21.254.08-Feb-2020 3153.01 5766.95 71.04 2.00 270.62 2652.69
   08:46:21.454.08-Feb-2020 3153.01 5764.34 71.04 2.00 270.82 2652.69
   08:46:21.654.08-Feb-2020 3153.01 5765.37 71.04 2.00 271.02 2652.69
   08:46:21.854.08-Feb-2020 3153.01 5765.37 71.04 2.00 271.22 2652.69
   08:46:22.054.08-Feb-2020 3153.01 5767.78 71.04 2.00 271.42 2652.69
   08:46:22.254.08-Feb-2020 3153.01 5766.03 71.04 2.00 271.62 2652.69
   08:46:22.454.08-Feb-2020 3153.01 5766.80 71.04 2.00 271.82 2652.69
   08:46:22.654.08-Feb-2020 3153.01 5766.92 71.04 2.00 272.02 2652.69
   08:46:22.854.08-Feb-2020 3153.01 5766.92 71.04 2.00 272.22 2652.69
   08:46:23.054.08-Feb-2020 3153.01 5767.49 71.04 2.00 272.42 2652.69
   08:46:23.254.08-Feb-2020 3153.01 5766.98 71.04 2.00 272.62 2652.69
   08:46:23.454.08-Feb-2020 3153.01 5766.10 71.04 2.00 272.82 2652.69
   08:46:23.654.08-Feb-2020 3153.01 5766.44 71.04 2.00 273.02 2652.69
   08:46:23.854.08-Feb-2020 3153.01 5766.44 71.04 2.00 273.22 2652.69
   08:46:24.054.08-Feb-2020 3153.01 5771.95 71.04 2.00 273.42 2652.69
   08:46:24.254.08-Feb-2020 3153.01 5765.43 71.04 2.00 273.62 2652.69
   08:46:24.454.08-Feb-2020 3153.01 5764.70 71.04 2.00 273.82 2652.69
   08:46:24.654.08-Feb-2020 3153.01 5766.43 71.04 2.00 274.02 2652.69
   08:46:24.854.08-Feb-2020 3153.01 5766.43 71.04 2.00 274.22 2652.69
   08:46:25.054.08-Feb-2020 3153.01 5765.23 71.04 2.00 274.42 2652.69
   08:46:25.254.08-Feb-2020 3153.01 5766.74 71.04 2.00 274.62 2652.69
   08:46:25.454.08-Feb-2020 3153.01 5766.13 71.04 2.00 274.82 2652.69
   08:46:25.654.08-Feb-2020 3153.01 5765.50 71.04 2.00 275.02 2652.69
   08:46:25.854.08-Feb-2020 3153.01 5765.50 71.04 2.00 275.22 2652.69
   08:46:26.054.08-Feb-2020 3153.01 5765.70 71.04 2.00 275.42 2652.69
   08:46:26.254.08-Feb-2020 3153.01 5767.43 71.04 2.00 275.62 2652.69
   08:46:26.454.08-Feb-2020 3153.01 5764.87 71.04 2.00 275.82 2652.69
