~Version Information
 VERS.                  2.0:   CWLS log ASCII Standard -VERSION 2.0
 WRAP.                   NO:   One line per depth step
~Well Information Block
#MNEM.UNIT     VALUE/NAME     DESCRIPTION
#---------     -----------    ---------------------------
 STRT.S             08:19:39 08-Feb-20: START TIME 08:19:39 08-Feb-20
 STOP.S             08:26:25 08-Feb-20: STOP TIME  08:26:25 08-Feb-20
 STEP.S                   0.00: STEP TIME
 NULL.                 -999.25: NULL VALUE
 DFWT.                        :  DIST FWL TEXT
 DFST.                        :  DIST FSL TEXT
 DMF .             Drill Floor:  DRILL MEAS FROM
 STIM.      07.00.00 09-Jan-20:  START TIME
 DATE.      14.04.48 07-Feb-20:  END TIME
 SPUD.               09-Jan-20:  SPUD DATE
 NREF.                    Grid:  NORTH REFERENCE
 HPTY.       Minimum Curvature:  HOLE POS TYPE
 DMOD.             Drill Model:  DRILL MOD DESC
 SVYD.                  Survey:  SURVEY DESC
 ILTD.               Lithology:  INTERP LTH DESC
 FTOP.          Formation Tops:  FORM TOPS DESC
 SON .        AZ-XX-0905059384:  JOB NUMBER
 MDS .        Operator Entered:  MAG DATA SOURCE
 WTYP.                Deviated:  WELL TYPE
 COMP.     BP Exploration (Caspian Sea) Ltd.:  COMPANY
 UWI .                     N/A:  UNIQUE WELL IDENTIFIER
 API .                     N/A:  API NUMBER
 BASE.              Azerbaijan:  LOGGING EQUIPMENT BASE LOCATION
 REGN.                   EESSA:  REGION
 PROV.                    Baku:  PROVINCE
 STAT.                    Baku:  STATE NAME
 CTRY.              Azerbaijan:  COUNTRY NAME
 FLD .                     ACG:  FIELD NAME
 SRVC.     TURAN Drilling & Engineering:  CONTRACTOR
 MWDS.                    Baku:  MWD SHOP
 WELL.                     J22:  WELL NAME
 RIG .             West Chirag:  RIG NAME
 DOE .                     N/A:  DOE NUMBER
 DCON.         Sperry Drilling:  DIRECTNL CONTR
 UNIT.                     N/A:  LOGGING EQUIPMENT ID
 PDAT.          Mean Sea Level:  PERMANENT DATUM
 JOBN.        AZ-XX-0905059384:  JOB TICKET NUMB
 CNTY.                        :  COUNTY
 LOC .                        :  LOCATION
 LMF .             Drill Floor:  LOG MEASURED FROM
 TVDS.m                  43.00:  TVDSS CORRECTN
 LATI.deg                40.13:  LATITUDE
 LONG.deg                51.22:  LONGITUDE
 WHNS.m                  10.28:  WELL HEAD N/S
 WHEW.m                  -6.24:  WELL HEAD E/W
 UTMX.m              519005.06:  UTM X
 UTMY.m             4443793.85:  UTM Y
 DFWL.m                   0.00:  DISTANCE FWL
 DFSL.m                   0.00:  DISTANCE FSL
 SDEP.m                 362.00:  START DEPTH
 TDD .m                 904.00:  TOTAL DEPTH (DRILLER)
 VSDR.deg               148.53:  VERT SEC DIRECT
 GVFD.g                   1.00:  GRAVITY FIELD
 MFLD.nT              50277.00:  MAGNETIC FIELD
 MDIP.deg                59.56:  MAGNETIC DIP
 MDEC.deg                 6.42:  MAGNETIC DECL
 GRDC.deg                 0.15:  GRID CORRECTION
 AZTC.deg                 6.27:  AZM TOTAL CORR
 EPD .m                   0.00:  ELEVATION
 EGL .m                   0.00:  GROUND ELEVATION
 WDMS.m                 169.80:  WD ELEV
 APD .m                  43.00:  DEPTH ABOVE PD
 AGAP.m                  43.00:  AIR GAP
 VSEW.m                  -6.24:  VERT SEC E/W
 VSNS.m                  10.28:  VERT SEC N/S
 DEP .m                   0.00:  DEPTH
 EKB .m                   0.00:  KB ELEVATION
 EDF .m                  43.00:  DF ELEVATION
 TDL .m                1183.00:  TOTAL DEPTH (LOGGER)
 VSC .                       0:  VS TO CLOSURE
 MAGU.                 1850021:  MAGUTM CHECKSUM
~Parameter Information Block
#MNEM.UNIT       Value        Description
#---------     -----------    ---------------------------
 AV  .mps                 4.00:  Ann Velocity 
 AVMX.mps                 4.50:  Max Ann Veloc 
 AZIF.deg               145.38:  Azm, Final 
 BHAT.        Rotary Steerable:  BHA Type 
 BROT.°/30m               3.00:  Build Rotating 
 BS  .in                 12.25:  Bit Size 
 BSZ .in                 12.25:  Bit Size 
 BTPL.psig              650.00:  Bit Press Loss 
 CABU.                      No:  Customer Abuse 
 COMM.                     ä7n:  Run Comments 1 
 TCS .hr                101.62:  Time Ciculation Ended 
 CV  .mps                 5.00:  Crit Velocity 
 CVMX.mps                 5.00:  Max Crit Veloc 
 DD1 .             Aziz Aliyev:  Direct Drillr 1 
 DD2 .      Fakhraddin Guliyev:  Direct Drillr 2 
 DDSV.                 iCruise:  DD Service 
 DEFF.%                  97.00:  % Det Eff 
 DLRX.°/30m               4.16:  Dogleg Rot Max 
 DLSO.°/30m               3.20:  Dogleg Oriented 
 DLSX.°/30m               4.10:  Dogleg Str Max 
 DRET.      23.12.00 07-Feb-20:  Drill End Time 
 DRST.      11.30.00 04-Feb-20:  Drill Start Tim 
 DTIM.hr                 61.06:  Time Drilling 
 EDEP.m                3219.01:  End Depth 
 ENG1.         Almaz Almadatov:  Engineer 1 
 ENG2.         Dair Mahammadov:  Engineer 2 
 ENG3.          Nazrin Asgarli:  Engineer 3 
 ETIM.      02.30.00 11-Feb-20:  End Time 
 FLOI.gpm              1100.00:  Flow In 
 FLON.gpm               900.00:  Flow In Min 
 FLOS.cptm               55.00:  Fluid Loss 
 FLOX.gpm              1150.00:  Flow In Max 
 FTRO.       Formation Presure:  FTWD Run Obj 
 HFLO.                      No:  High Flow 
 HPRE.                      No:  High Pressure 
 HTEM.                      No:  High Temp 
 HYDO.m                   1.80:  Hydro Offset 
 IFIN.deg                75.11:  Inc, Final 
 IMAX.deg                75.11:  Inc Max 
 IMIN.deg                33.55:  Inc Min 
 IMND.m                2186.05:  Inc Min Depth 
 IMXD.m                3205.61:  Inc Max Depth 
 JARR.                      No:  Jarring 
 LETM.      23.12.00 07-Feb-20:  Log End Time 
 LOST.hr                     0:  Lost Rig Time 
 LSTM.      11.30.00 04-Feb-20:  Log Start Time 
 MDCL.ppm             40000.00:  Mud Chlorides 
 MDES.     Inversion Oil/Synthetic:  Mud Desc 
 DFD .sg                  1.49:  Mud Density 
 MDMN.sg                  1.49:  Dens Mud Min 
 MDMX.sg                  1.49:  Dens Mud Max 
 MOIL.                      73:  Run Mud Oil % 
 MOWR.                   73:27:  Run Mud OWR 
 MSND.                     0.1:  Run Mud Sand % 
 MSOL.                    20.1:  Run Mud Solids% 
 DFV .spqt               78.00:  Mud Viscosity 
 MWOD.in                  8.00:  MWD Tool OD 
 MWSI.                      No:  Serv Intrp, MWD 
 OTIM.hr                177.15:  Time Operating 
 PCON.          Wear / Scratch:  Pad Condition 
 PMAX.psia            10493.93:  Press Op, Max 
 PV  .cP                 73.00:  Mud PV 
 RUN .                     700:  Run Number 
 ROPA.m/hr               15.00:  ROP Avg 
 ROPN.m/hr               10.00:  ROP Min 
 ROPX.m/hr               35.00:  ROP Max 
 RPMA.rpm               130.00:  RPM Surface Avg 
 RPMN.rpm                80.00:  RPM Surface Min 
 RPMX.rpm               150.00:  RPM Surface Max 
 RRUN.                    L402:  Rig Run Number 
 RTIM.hr                 80.50:  Time Reaming 
 SAZI.deg               155.55:  Azm, Start 
 SDEP.m                2036.00:  Start Depth 
 SIDD.                      No:  Serv Intrp, DD 
 SINC.deg                35.44:  Inc, Start 
 SPPA.psig             4270.00:  SPP Avg 
 SPPN.psig             2800.00:  SPP Min 
 SPPX.psig             4850.00:  SPP Max 
 STIM.      09.30.00 03-Feb-20:  Start Time 
 SVCS.                 DD, MWD:  Services 
 SVER.                    9.20:  Sperry Version 
 TDAT.m                1183.00:  Tot Depth Attmp 
 TDDF.                      No:  Trip for DD 
 TDLG.m                1183.00:  Tot Depth Loggd 
 TFF .                      No:  Trip for Fail 
 TQAA.f-kp               16.00:  Torque Abs Avg 
 TQAN.f-kp               10.00:  Torque Abs Min 
 TQAX.f-kp               20.00:  Torque Abs Max 
 TRRT.°/30m               1.00:  Turn Rotating 
 MRT .                  EWR-M5:  Maximum Recorded Temperature 
 TTMX.degC               80.39:  Max Tool Temp 
 VS01.               13098498 :  Virtual Str1 SN 
 VS02.                90569596:  Virtual Str2 SN 
 VS03.                90523599:  Virtual Str3 SN 
 VS04.                90573553:  Virtual Str4 SN 
 VS05.                90598598:  Virtual Str5 SN 
 VS06.                90577297:  Virtual Str6 SN 
 WBMN.klb                13.00:  WOB Min 
 WITN.         Alistair Sprott:  Customer Rep 
 WITN.           Rufat Babayev:  Customer Rep 2 
 WOBA.klb                15.00:  WOB Avg 
 WOBX.klb                20.00:  WOB Max 
 YP  .lhf2               39.00:  Yield Point 
~Curve Information Block
#MNEM.UNIT                 API CODE     Curve Description
#---------               -----------    ---------------------------
 TIME.HHMMSS            00 000 000 000:  GT Time & Date
 GTDEPTH.m              00 000 000 000:  GT Depth
 GTPQH.psia             00 000 000 000:  GT HR Quartz Pressure
 GTTQ.degC              00 000 000 000:  GT Quartz Temperature
 GTTN.NONE              00 000 000 000:  GT Test Number
 GTET.sec               00 000 000 000:  GT Elapsed Test Time
 GTTVD.m                00 000 000 000:  GT True Vertical Depth
#Other Information
#
#WARRANTY: Halliburton will use its best efforts to furnish customers with 
#accurate information and interpretations that are part of, and incident to, the services 
#provided.  However, Halliburton cannot and does not warrant the accuracy 
#or correctness of such information and interpretations.  Under no circumstances should any 
#such information or interpretation be relied upon as the sole basis for any drilling, 
#completion, production, or financial decision or any procedure involving any risk to the 
#safety of any drilling venture, drilling rig or its crew or any other third party.  The 
#Customer has full responsibility for all drilling, completion and production operation.  
#Halliburton makes no representations or warranties, either expressed or 
#implied, including, but not limited to, the implied warranties of merchantability or fitness 
#for a particular purpose, with respect to the services rendered.  In no event will 
#Halliburton be liable for failure to obtain any particular results or for 
#any damages, including, but not limited to, indirect, special or consequential damages, 
#resulting from the use of any information or interpretation provided by Halliburton.
#
~A           TIME           GTDEPTH  GTPQH  GTTQ  GTTN  GTET   GTTVD  
# ...
   08:22:43.535.08-Feb-2020 3134.51 4521.68 73.85 1.00 184.02 2647.81
   08:22:43.735.08-Feb-2020 3134.51 4521.68 73.85 1.00 184.22 2647.81
   08:22:43.935.08-Feb-2020 3134.51 4529.10 73.86 1.00 184.42 2647.81
   08:22:44.135.08-Feb-2020 3134.51 4532.81 73.86 1.00 184.62 2647.81
   08:22:44.335.08-Feb-2020 3134.51 4535.96 73.86 1.00 184.82 2647.81
   08:22:44.535.08-Feb-2020 3134.51 4539.47 73.86 1.00 185.02 2647.81
   08:22:44.735.08-Feb-2020 3134.51 4539.47 73.86 1.00 185.22 2647.81
   08:22:44.935.08-Feb-2020 3134.51 4545.52 73.86 1.00 185.42 2647.81
   08:22:45.135.08-Feb-2020 3134.51 4548.69 73.86 1.00 185.62 2647.81
   08:22:45.335.08-Feb-2020 3134.51 4551.65 73.86 1.00 185.82 2647.81
   08:22:45.535.08-Feb-2020 3134.51 4554.49 73.86 1.00 186.02 2647.81
   08:22:45.735.08-Feb-2020 3134.51 4554.49 73.86 1.00 186.22 2647.81
   08:22:45.935.08-Feb-2020 3134.51 4559.81 73.86 1.00 186.42 2647.81
   08:22:46.135.08-Feb-2020 3134.51 4562.65 73.86 1.00 186.62 2647.81
   08:22:46.335.08-Feb-2020 3134.51 4565.54 73.86 1.00 186.82 2647.81
   08:22:46.535.08-Feb-2020 3134.51 4567.49 73.86 1.00 187.02 2647.81
   08:22:46.735.08-Feb-2020 3134.51 4567.49 73.86 1.00 187.22 2647.81
   08:22:46.935.08-Feb-2020 3134.51 4572.64 73.86 1.00 187.42 2647.81
   08:22:47.135.08-Feb-2020 3134.51 4574.31 73.86 1.00 187.62 2647.81
   08:22:47.335.08-Feb-2020 3134.51 4576.46 73.86 1.00 187.82 2647.81
   08:22:47.535.08-Feb-2020 3134.51 4578.81 73.86 1.00 188.02 2647.81
   08:22:47.735.08-Feb-2020 3134.51 4578.81 73.86 1.00 188.22 2647.81
   08:22:47.935.08-Feb-2020 3134.51 4582.94 73.86 1.00 188.42 2647.81
   08:22:48.135.08-Feb-2020 3134.51 4584.78 73.86 1.00 188.62 2647.81
   08:22:48.335.08-Feb-2020 3134.51 4586.91 73.86 1.00 188.82 2647.81
   08:22:48.535.08-Feb-2020 3134.51 4589.27 73.86 1.00 189.02 2647.81
   08:22:48.735.08-Feb-2020 3134.51 4589.27 73.86 1.00 189.22 2647.81
   08:22:48.935.08-Feb-2020 3134.51 4592.80 73.85 1.00 189.42 2647.81
   08:22:49.135.08-Feb-2020 3134.51 4594.85 73.85 1.00 189.62 2647.81
   08:22:49.336.08-Feb-2020 3134.51 4596.67 73.85 1.00 189.82 2647.81
   08:22:49.536.08-Feb-2020 3134.51 4598.29 73.85 1.00 190.02 2647.81
   08:22:49.736.08-Feb-2020 3134.51 4598.29 73.85 1.00 190.22 2647.81
   08:22:49.936.08-Feb-2020 3134.51 4601.86 73.85 1.00 190.42 2647.81
   08:22:50.136.08-Feb-2020 3134.51 4603.37 73.85 1.00 190.62 2647.81
   08:22:50.336.08-Feb-2020 3134.51 4604.87 73.85 1.00 190.82 2647.81
   08:22:50.536.08-Feb-2020 3134.51 4606.26 73.85 1.00 191.02 2647.81
   08:22:50.736.08-Feb-2020 3134.51 4606.26 73.85 1.00 191.22 2647.81
   08:22:50.936.08-Feb-2020 3134.51 4609.40 73.85 1.00 191.42 2647.81
   08:22:51.136.08-Feb-2020 3134.51 4610.43 73.85 1.00 191.62 2647.81
   08:22:51.336.08-Feb-2020 3134.51 4611.87 73.85 1.00 191.82 2647.81
   08:22:51.536.08-Feb-2020 3134.51 4613.52 73.85 1.00 192.02 2647.81
   08:22:51.736.08-Feb-2020 3134.51 4613.52 73.85 1.00 192.22 2647.81
   08:22:51.936.08-Feb-2020 3134.51 4616.12 73.85 1.00 192.42 2647.81
   08:22:52.136.08-Feb-2020 3134.51 4617.62 73.85 1.00 192.62 2647.81
   08:22:52.336.08-Feb-2020 3134.51 4618.87 73.85 1.00 192.82 2647.81
   08:22:52.536.08-Feb-2020 3134.51 4619.94 73.85 1.00 193.02 2647.81
   08:22:52.736.08-Feb-2020 3134.51 4619.94 73.85 1.00 193.22 2647.81
   08:22:52.936.08-Feb-2020 3134.51 4622.79 73.85 1.00 193.42 2647.81
   08:22:53.136.08-Feb-2020 3134.51 4623.52 73.85 1.00 193.62 2647.81
   08:22:53.336.08-Feb-2020 3134.51 4624.69 73.85 1.00 193.82 2647.81
   08:22:53.536.08-Feb-2020 3134.51 4626.31 73.85 1.00 194.02 2647.81
   08:22:53.736.08-Feb-2020 3134.51 4626.31 73.85 1.00 194.22 2647.81
   08:22:53.936.08-Feb-2020 3134.51 4628.02 73.85 1.00 194.42 2647.81
   08:22:54.136.08-Feb-2020 3134.51 4629.23 73.85 1.00 194.62 2647.81
   08:22:54.336.08-Feb-2020 3134.51 4630.34 73.84 1.00 194.82 2647.81
   08:22:54.536.08-Feb-2020 3134.51 4631.80 73.84 1.00 195.02 2647.81
   08:22:54.736.08-Feb-2020 3134.51 4631.80 73.84 1.00 195.22 2647.81
   08:22:54.936.08-Feb-2020 3134.51 4632.95 73.84 1.00 195.42 2647.81
   08:22:55.136.08-Feb-2020 3134.51 4634.19 73.84 1.00 195.62 2647.81
   08:22:55.336.08-Feb-2020 3134.51 4635.13 73.84 1.00 195.82 2647.81
   08:22:55.536.08-Feb-2020 3134.51 4635.85 73.84 1.00 196.02 2647.81
   08:22:55.736.08-Feb-2020 3134.51 4635.85 73.84 1.00 196.22 2647.81
   08:22:55.936.08-Feb-2020 3134.51 4638.36 73.84 1.00 196.42 2647.81
   08:22:56.136.08-Feb-2020 3134.51 4639.14 73.84 1.00 196.62 2647.81
   08:22:56.336.08-Feb-2020 3134.51 4640.06 73.84 1.00 196.82 2647.81
   08:22:56.536.08-Feb-2020 3134.51 4640.96 73.84 1.00 197.02 2647.81
   08:22:56.736.08-Feb-2020 3134.51 4640.96 73.84 1.00 197.22 2647.81
   08:22:56.936.08-Feb-2020 3134.51 4642.84 73.84 1.00 197.42 2647.81
   08:22:57.136.08-Feb-2020 3134.51 4643.62 73.84 1.00 197.62 2647.81
   08:22:57.336.08-Feb-2020 3134.51 4644.46 73.84 1.00 197.82 2647.81
   08:22:57.536.08-Feb-2020 3134.51 4645.36 73.84 1.00 198.02 2647.81
   08:22:57.736.08-Feb-2020 3134.51 4645.36 73.84 1.00 198.22 2647.81
   08:22:57.936.08-Feb-2020 3134.51 4646.92 73.84 1.00 198.42 2647.81
   08:22:58.136.08-Feb-2020 3134.51 4647.81 73.84 1.00 198.62 2647.81
   08:22:58.336.08-Feb-2020 3134.51 4648.20 73.84 1.00 198.82 2647.81
   08:22:58.536.08-Feb-2020 3134.51 4648.95 73.83 1.00 199.02 2647.81
   08:22:58.736.08-Feb-2020 3134.51 4648.95 73.83 1.00 199.22 2647.81
   08:22:58.936.08-Feb-2020 3134.51 4650.29 73.83 1.00 199.42 2647.81
   08:22:59.136.08-Feb-2020 3134.51 4651.28 73.83 1.00 199.62 2647.81
   08:22:59.336.08-Feb-2020 3134.51 4651.89 73.83 1.00 199.82 2647.81
   08:22:59.536.08-Feb-2020 3134.51 4652.56 73.83 1.00 200.02 2647.81
   08:22:59.736.08-Feb-2020 3134.51 4652.56 73.83 1.00 200.22 2647.81
   08:22:59.936.08-Feb-2020 3134.51 4653.85 73.83 1.00 200.42 2647.81
   08:23:00.136.08-Feb-2020 3134.51 4654.60 73.83 1.00 200.62 2647.81
   08:23:00.336.08-Feb-2020 3134.51 4655.78 73.83 1.00 200.82 2647.81
   08:23:00.536.08-Feb-2020 3134.51 4655.98 73.83 1.00 201.02 2647.81
   08:23:00.736.08-Feb-2020 3134.51 4655.98 73.83 1.00 201.22 2647.81
   08:23:00.936.08-Feb-2020 3134.51 4657.47 73.83 1.00 201.42 2647.81
   08:23:01.136.08-Feb-2020 3134.51 4657.80 73.83 1.00 201.62 2647.81
   08:23:01.337.08-Feb-2020 3134.51 4658.35 73.83 1.00 201.82 2647.81
   08:23:01.537.08-Feb-2020 3134.51 4659.19 73.83 1.00 202.02 2647.81
   08:23:01.737.08-Feb-2020 3134.51 4659.19 73.83 1.00 202.22 2647.81
   08:23:01.937.08-Feb-2020 3134.51 4660.55 73.83 1.00 202.42 2647.81
   08:23:02.137.08-Feb-2020 3134.51 4660.80 73.83 1.00 202.62 2647.81
   08:23:02.337.08-Feb-2020 3134.51 4661.61 73.82 1.00 202.82 2647.81
   08:23:02.537.08-Feb-2020 3134.51 4662.48 73.82 1.00 203.02 2647.81
   08:23:02.737.08-Feb-2020 3134.51 4662.48 73.82 1.00 203.22 2647.81
   08:23:02.937.08-Feb-2020 3134.51 4663.82 73.82 1.00 203.42 2647.81
   08:23:03.137.08-Feb-2020 3134.51 4664.40 73.82 1.00 203.62 2647.81
   08:23:03.337.08-Feb-2020 3134.51 4665.20 73.82 1.00 203.82 2647.81
   08:23:03.537.08-Feb-2020 3134.51 4665.60 73.82 1.00 204.02 2647.81
   08:23:03.737.08-Feb-2020 3134.51 4665.60 73.82 1.00 204.22 2647.81
   08:23:03.937.08-Feb-2020 3134.51 4666.72 73.82 1.00 204.42 2647.81
   08:23:04.137.08-Feb-2020 3134.51 4667.21 73.82 1.00 204.62 2647.81
   08:23:04.337.08-Feb-2020 3134.51 4667.60 73.82 1.00 204.82 2647.81
   08:23:04.537.08-Feb-2020 3134.51 4668.26 73.82 1.00 205.02 2647.81
   08:23:04.737.08-Feb-2020 3134.51 4668.26 73.82 1.00 205.22 2647.81
   08:23:04.937.08-Feb-2020 3134.51 4668.83 73.82 1.00 205.42 2647.81
   08:23:05.137.08-Feb-2020 3134.51 4669.37 73.82 1.00 205.62 2647.81
   08:23:05.337.08-Feb-2020 3134.51 4669.91 73.82 1.00 205.82 2647.81
   08:23:05.537.08-Feb-2020 3134.51 4670.33 73.82 1.00 206.02 2647.81
   08:23:05.737.08-Feb-2020 3134.51 4670.33 73.82 1.00 206.22 2647.81
   08:23:05.937.08-Feb-2020 3134.51 4671.94 73.82 1.00 206.42 2647.81
   08:23:06.137.08-Feb-2020 3134.51 4672.09 73.81 1.00 206.62 2647.81
   08:23:06.337.08-Feb-2020 3134.51 4672.88 73.81 1.00 206.82 2647.81
