~Version Information
 VERS.                  2.0:   CWLS log ASCII Standard -VERSION 2.0
 WRAP.                   NO:   One line per depth step
~Well Information Block
#MNEM.UNIT     VALUE/NAME     DESCRIPTION
#---------     -----------    ---------------------------
 STRT.S             09:27:25 08-Feb-20: START TIME 09:27:25 08-Feb-20
 STOP.S             09:34:14 08-Feb-20: STOP TIME  09:34:14 08-Feb-20
 STEP.S                   0.00: STEP TIME
 NULL.                 -999.25: NULL VALUE
 DFWT.                        :  DIST FWL TEXT
 DFST.                        :  DIST FSL TEXT
 DMF .             Drill Floor:  DRILL MEAS FROM
 STIM.      07.00.00 09-Jan-20:  START TIME
 DATE.      14.04.48 07-Feb-20:  END TIME
 SPUD.               09-Jan-20:  SPUD DATE
 NREF.                    Grid:  NORTH REFERENCE
 HPTY.       Minimum Curvature:  HOLE POS TYPE
 DMOD.             Drill Model:  DRILL MOD DESC
 SVYD.                  Survey:  SURVEY DESC
 ILTD.               Lithology:  INTERP LTH DESC
 FTOP.          Formation Tops:  FORM TOPS DESC
 SON .        AZ-XX-0905059384:  JOB NUMBER
 MDS .        Operator Entered:  MAG DATA SOURCE
 WTYP.                Deviated:  WELL TYPE
 COMP.     BP Exploration (Caspian Sea) Ltd.:  COMPANY
 UWI .                     N/A:  UNIQUE WELL IDENTIFIER
 API .                     N/A:  API NUMBER
 BASE.              Azerbaijan:  LOGGING EQUIPMENT BASE LOCATION
 REGN.                   EESSA:  REGION
 PROV.                    Baku:  PROVINCE
 STAT.                    Baku:  STATE NAME
 CTRY.              Azerbaijan:  COUNTRY NAME
 FLD .                     ACG:  FIELD NAME
 SRVC.     TURAN Drilling & Engineering:  CONTRACTOR
 MWDS.                    Baku:  MWD SHOP
 WELL.                     J22:  WELL NAME
 RIG .             West Chirag:  RIG NAME
 DOE .                     N/A:  DOE NUMBER
 DCON.         Sperry Drilling:  DIRECTNL CONTR
 UNIT.                     N/A:  LOGGING EQUIPMENT ID
 PDAT.          Mean Sea Level:  PERMANENT DATUM
 JOBN.        AZ-XX-0905059384:  JOB TICKET NUMB
 CNTY.                        :  COUNTY
 LOC .                        :  LOCATION
 LMF .             Drill Floor:  LOG MEASURED FROM
 TVDS.m                  43.00:  TVDSS CORRECTN
 LATI.deg                40.13:  LATITUDE
 LONG.deg                51.22:  LONGITUDE
 WHNS.m                  10.28:  WELL HEAD N/S
 WHEW.m                  -6.24:  WELL HEAD E/W
 UTMX.m              519005.06:  UTM X
 UTMY.m             4443793.85:  UTM Y
 DFWL.m                   0.00:  DISTANCE FWL
 DFSL.m                   0.00:  DISTANCE FSL
 SDEP.m                 362.00:  START DEPTH
 TDD .m                 904.00:  TOTAL DEPTH (DRILLER)
 VSDR.deg               148.53:  VERT SEC DIRECT
 GVFD.g                   1.00:  GRAVITY FIELD
 MFLD.nT              50277.00:  MAGNETIC FIELD
 MDIP.deg                59.56:  MAGNETIC DIP
 MDEC.deg                 6.42:  MAGNETIC DECL
 GRDC.deg                 0.15:  GRID CORRECTION
 AZTC.deg                 6.27:  AZM TOTAL CORR
 EPD .m                   0.00:  ELEVATION
 EGL .m                   0.00:  GROUND ELEVATION
 WDMS.m                 169.80:  WD ELEV
 APD .m                  43.00:  DEPTH ABOVE PD
 AGAP.m                  43.00:  AIR GAP
 VSEW.m                  -6.24:  VERT SEC E/W
 VSNS.m                  10.28:  VERT SEC N/S
 DEP .m                   0.00:  DEPTH
 EKB .m                   0.00:  KB ELEVATION
 EDF .m                  43.00:  DF ELEVATION
 TDL .m                1183.00:  TOTAL DEPTH (LOGGER)
 VSC .                       0:  VS TO CLOSURE
 MAGU.                 1850021:  MAGUTM CHECKSUM
~Parameter Information Block
#MNEM.UNIT       Value        Description
#---------     -----------    ---------------------------
 AV  .mps                 4.00:  Ann Velocity 
 AVMX.mps                 4.50:  Max Ann Veloc 
 AZIF.deg               145.38:  Azm, Final 
 BHAT.        Rotary Steerable:  BHA Type 
 BROT.∞/30m               3.00:  Build Rotating 
 BS  .in                 12.25:  Bit Size 
 BSZ .in                 12.25:  Bit Size 
 BTPL.psig              650.00:  Bit Press Loss 
 CABU.                      No:  Customer Abuse 
 COMM.                     $ÊW:  Run Comments 1 
 TCS .hr                101.62:  Time Ciculation Ended 
 CV  .mps                 5.00:  Crit Velocity 
 CVMX.mps                 5.00:  Max Crit Veloc 
 DD1 .             Aziz Aliyev:  Direct Drillr 1 
 DD2 .      Fakhraddin Guliyev:  Direct Drillr 2 
 DDSV.                 iCruise:  DD Service 
 DEFF.%                  97.00:  % Det Eff 
 DLRX.∞/30m               4.16:  Dogleg Rot Max 
 DLSO.∞/30m               3.20:  Dogleg Oriented 
 DLSX.∞/30m               4.10:  Dogleg Str Max 
 DRET.      23.12.00 07-Feb-20:  Drill End Time 
 DRST.      11.30.00 04-Feb-20:  Drill Start Tim 
 DTIM.hr                 61.06:  Time Drilling 
 EDEP.m                3219.01:  End Depth 
 ENG1.         Almaz Almadatov:  Engineer 1 
 ENG2.         Dair Mahammadov:  Engineer 2 
 ENG3.          Nazrin Asgarli:  Engineer 3 
 ETIM.      02.30.00 11-Feb-20:  End Time 
 FLOI.gpm              1100.00:  Flow In 
 FLON.gpm               900.00:  Flow In Min 
 FLOS.cptm               55.00:  Fluid Loss 
 FLOX.gpm              1150.00:  Flow In Max 
 FTRO.       Formation Presure:  FTWD Run Obj 
 HFLO.                      No:  High Flow 
 HPRE.                      No:  High Pressure 
 HTEM.                      No:  High Temp 
 HYDO.m                   1.80:  Hydro Offset 
 IFIN.deg                75.11:  Inc, Final 
 IMAX.deg                75.11:  Inc Max 
 IMIN.deg                33.55:  Inc Min 
 IMND.m                2186.05:  Inc Min Depth 
 IMXD.m                3205.61:  Inc Max Depth 
 JARR.                      No:  Jarring 
 LETM.      23.12.00 07-Feb-20:  Log End Time 
 LOST.hr                     0:  Lost Rig Time 
 LSTM.      11.30.00 04-Feb-20:  Log Start Time 
 MDCL.ppm             40000.00:  Mud Chlorides 
 MDES.     Inversion Oil/Synthetic:  Mud Desc 
 DFD .sg                  1.49:  Mud Density 
 MDMN.sg                  1.49:  Dens Mud Min 
 MDMX.sg                  1.49:  Dens Mud Max 
 MOIL.                      73:  Run Mud Oil % 
 MOWR.                   73:27:  Run Mud OWR 
 MSND.                     0.1:  Run Mud Sand % 
 MSOL.                    20.1:  Run Mud Solids% 
 DFV .spqt               78.00:  Mud Viscosity 
 MWOD.in                  8.00:  MWD Tool OD 
 MWSI.                      No:  Serv Intrp, MWD 
 OTIM.hr                177.15:  Time Operating 
 PCON.          Wear / Scratch:  Pad Condition 
 PMAX.psia            10493.93:  Press Op, Max 
 PV  .cP                 73.00:  Mud PV 
 RUN .                     700:  Run Number 
 ROPA.m/hr               15.00:  ROP Avg 
 ROPN.m/hr               10.00:  ROP Min 
 ROPX.m/hr               35.00:  ROP Max 
 RPMA.rpm               130.00:  RPM Surface Avg 
 RPMN.rpm                80.00:  RPM Surface Min 
 RPMX.rpm               150.00:  RPM Surface Max 
 RRUN.                    L402:  Rig Run Number 
 RTIM.hr                 80.50:  Time Reaming 
 SAZI.deg               155.55:  Azm, Start 
 SDEP.m                2036.00:  Start Depth 
 SIDD.                      No:  Serv Intrp, DD 
 SINC.deg                35.44:  Inc, Start 
 SPPA.psig             4270.00:  SPP Avg 
 SPPN.psig             2800.00:  SPP Min 
 SPPX.psig             4850.00:  SPP Max 
 STIM.      09.30.00 03-Feb-20:  Start Time 
 SVCS.                 DD, MWD:  Services 
 SVER.                    9.20:  Sperry Version 
 TDAT.m                1183.00:  Tot Depth Attmp 
 TDDF.                      No:  Trip for DD 
 TDLG.m                1183.00:  Tot Depth Loggd 
 TFF .                      No:  Trip for Fail 
 TQAA.f-kp               16.00:  Torque Abs Avg 
 TQAN.f-kp               10.00:  Torque Abs Min 
 TQAX.f-kp               20.00:  Torque Abs Max 
 TRRT.∞/30m               1.00:  Turn Rotating 
 MRT .                  EWR-M5:  Maximum Recorded Temperature 
 TTMX.degC               80.39:  Max Tool Temp 
 VS01.               13098498 :  Virtual Str1 SN 
 VS02.                90569596:  Virtual Str2 SN 
 VS03.                90523599:  Virtual Str3 SN 
 VS04.                90573553:  Virtual Str4 SN 
 VS05.                90598598:  Virtual Str5 SN 
 VS06.                90577297:  Virtual Str6 SN 
 WBMN.klb                13.00:  WOB Min 
 WITN.         Alistair Sprott:  Customer Rep 
 WITN.           Rufat Babayev:  Customer Rep 2 
 WOBA.klb                15.00:  WOB Avg 
 WOBX.klb                20.00:  WOB Max 
 YP  .lhf2               39.00:  Yield Point 
~Curve Information Block
#MNEM.UNIT                 API CODE     Curve Description
#---------               -----------    ---------------------------
 TIME.HHMMSS            00 000 000 000:  GT Time & Date
 GTDEPTH.m              00 000 000 000:  GT Depth
 GTPQH.psia             00 000 000 000:  GT HR Quartz Pressure
 GTTQ.degC              00 000 000 000:  GT Quartz Temperature
 GTTN.NONE              00 000 000 000:  GT Test Number
 GTET.sec               00 000 000 000:  GT Elapsed Test Time
 GTTVD.m                00 000 000 000:  GT True Vertical Depth
#Other Information
#
#WARRANTY: Halliburton will use its best efforts to furnish customers with 
#accurate information and interpretations that are part of, and incident to, the services 
#provided.  However, Halliburton cannot and does not warrant the accuracy 
#or correctness of such information and interpretations.  Under no circumstances should any 
#such information or interpretation be relied upon as the sole basis for any drilling, 
#completion, production, or financial decision or any procedure involving any risk to the 
#safety of any drilling venture, drilling rig or its crew or any other third party.  The 
#Customer has full responsibility for all drilling, completion and production operation.  
#Halliburton makes no representations or warranties, either expressed or 
#implied, including, but not limited to, the implied warranties of merchantability or fitness 
#for a particular purpose, with respect to the services rendered.  In no event will 
#Halliburton be liable for failure to obtain any particular results or for 
#any damages, including, but not limited to, indirect, special or consequential damages, 
#resulting from the use of any information or interpretation provided by Halliburton.
#
~A           TIME           GTDEPTH  GTPQH  GTTQ  GTTN  GTET   GTTVD  
# ...
   09:30:06.874.08-Feb-2020 3135.01 4729.69 69.17 4.00 161.01 2647.94
   09:30:07.074.08-Feb-2020 3135.01 4729.69 69.17 4.00 161.21 2647.94
   09:30:07.274.08-Feb-2020 3135.01 4727.74 69.17 4.00 161.41 2647.94
   09:30:07.474.08-Feb-2020 3135.01 4728.42 69.17 4.00 161.61 2647.94
   09:30:07.674.08-Feb-2020 3135.01 4728.68 69.17 4.00 161.81 2647.94
   09:30:07.874.08-Feb-2020 3135.01 4727.90 69.17 4.00 162.01 2647.94
   09:30:08.074.08-Feb-2020 3135.01 4727.90 69.17 4.00 162.21 2647.94
   09:30:08.274.08-Feb-2020 3135.01 4728.79 69.17 4.00 162.41 2647.94
   09:30:08.474.08-Feb-2020 3135.01 4728.03 69.17 4.00 162.61 2647.94
   09:30:08.674.08-Feb-2020 3135.01 4729.96 69.17 4.00 162.81 2647.94
   09:30:08.874.08-Feb-2020 3135.01 4632.19 69.17 4.00 163.01 2647.94
   09:30:09.074.08-Feb-2020 3135.01 4632.19 69.17 4.00 163.21 2647.94
   09:30:09.274.08-Feb-2020 3135.01 4352.79 69.17 4.00 163.41 2647.94
   09:30:09.474.08-Feb-2020 3135.01 4324.56 69.17 4.00 163.61 2647.94
   09:30:09.674.08-Feb-2020 3135.01 4312.68 69.17 4.00 163.81 2647.94
   09:30:09.874.08-Feb-2020 3135.01 4310.41 69.17 4.00 164.01 2647.94
   09:30:10.074.08-Feb-2020 3135.01 4310.41 69.17 4.00 164.21 2647.94
   09:30:10.274.08-Feb-2020 3135.01 4308.24 69.17 4.00 164.41 2647.94
   09:30:10.474.08-Feb-2020 3135.01 4310.11 69.17 4.00 164.61 2647.94
   09:30:10.674.08-Feb-2020 3135.01 4310.65 69.17 4.00 164.81 2647.94
   09:30:10.874.08-Feb-2020 3135.01 4308.33 69.17 4.00 165.01 2647.94
   09:30:11.074.08-Feb-2020 3135.01 4308.33 69.17 4.00 165.21 2647.94
   09:30:11.274.08-Feb-2020 3135.01 4315.08 69.17 4.00 165.41 2647.94
   09:30:11.474.08-Feb-2020 3135.01 4314.39 69.17 4.00 165.61 2647.94
   09:30:11.674.08-Feb-2020 3135.01 4315.43 69.17 4.00 165.81 2647.94
   09:30:11.874.08-Feb-2020 3135.01 4317.02 69.17 4.00 166.01 2647.94
   09:30:12.074.08-Feb-2020 3135.01 4317.02 69.17 4.00 166.21 2647.94
   09:30:12.274.08-Feb-2020 3135.01 4317.71 69.17 4.00 166.41 2647.94
   09:30:12.474.08-Feb-2020 3135.01 4317.49 69.17 4.00 166.61 2647.94
   09:30:12.674.08-Feb-2020 3135.01 4319.05 69.16 4.00 166.81 2647.94
   09:30:12.874.08-Feb-2020 3135.01 4320.96 69.16 4.00 167.01 2647.94
   09:30:13.074.08-Feb-2020 3135.01 4320.96 69.16 4.00 167.21 2647.94
   09:30:13.274.08-Feb-2020 3135.01 4322.01 69.16 4.00 167.41 2647.94
   09:30:13.474.08-Feb-2020 3135.01 4324.86 69.16 4.00 167.61 2647.94
   09:30:13.674.08-Feb-2020 3135.01 4324.04 69.16 4.00 167.81 2647.94
   09:30:13.874.08-Feb-2020 3135.01 4323.84 69.16 4.00 168.01 2647.94
   09:30:14.074.08-Feb-2020 3135.01 4323.84 69.16 4.00 168.21 2647.94
   09:30:14.274.08-Feb-2020 3135.01 4324.78 69.16 4.00 168.41 2647.94
   09:30:14.474.08-Feb-2020 3135.01 4323.80 69.16 4.00 168.61 2647.94
   09:30:14.674.08-Feb-2020 3135.01 4323.65 69.16 4.00 168.81 2647.94
   09:30:14.874.08-Feb-2020 3135.01 4324.24 69.16 4.00 169.01 2647.94
   09:30:15.074.08-Feb-2020 3135.01 4324.24 69.16 4.00 169.21 2647.94
   09:30:15.274.08-Feb-2020 3135.01 4323.93 69.16 4.00 169.41 2647.94
   09:30:15.474.08-Feb-2020 3135.01 4322.62 69.16 4.00 169.61 2647.94
   09:30:15.674.08-Feb-2020 3135.01 4325.71 69.16 4.00 169.81 2647.94
   09:30:15.875.08-Feb-2020 3135.01 4325.16 69.16 4.00 170.01 2647.94
   09:30:16.075.08-Feb-2020 3135.01 4325.16 69.16 4.00 170.21 2647.94
   09:30:16.275.08-Feb-2020 3135.01 4323.09 69.16 4.00 170.41 2647.94
   09:30:16.475.08-Feb-2020 3135.01 4323.13 69.16 4.00 170.61 2647.94
   09:30:16.675.08-Feb-2020 3135.01 4322.39 69.16 4.00 170.81 2647.94
   09:30:16.875.08-Feb-2020 3135.01 4322.26 69.16 4.00 171.01 2647.94
   09:30:17.075.08-Feb-2020 3135.01 4322.26 69.16 4.00 171.21 2647.94
   09:30:17.275.08-Feb-2020 3135.01 4320.72 69.16 4.00 171.41 2647.94
   09:30:17.475.08-Feb-2020 3135.01 4320.41 69.16 4.00 171.61 2647.94
   09:30:17.675.08-Feb-2020 3135.01 4319.78 69.16 4.00 171.81 2647.94
   09:30:17.875.08-Feb-2020 3135.01 4319.36 69.16 4.00 172.01 2647.94
   09:30:18.075.08-Feb-2020 3135.01 4319.36 69.16 4.00 172.21 2647.94
   09:30:18.275.08-Feb-2020 3135.01 4321.38 69.16 4.00 172.41 2647.94
   09:30:18.475.08-Feb-2020 3135.01 4321.00 69.16 4.00 172.61 2647.94
   09:30:18.675.08-Feb-2020 3135.01 4322.96 69.16 4.00 172.81 2647.94
   09:30:18.875.08-Feb-2020 3135.01 4321.77 69.16 4.00 173.01 2647.94
   09:30:19.075.08-Feb-2020 3135.01 4321.77 69.16 4.00 173.21 2647.94
   09:30:19.275.08-Feb-2020 3135.01 4320.54 69.16 4.00 173.41 2647.94
   09:30:19.475.08-Feb-2020 3135.01 4441.42 69.16 4.00 173.61 2647.94
   09:30:19.675.08-Feb-2020 3135.01 4615.52 69.16 4.00 173.81 2647.94
   09:30:19.875.08-Feb-2020 3135.01 4676.57 69.16 4.00 174.01 2647.94
   09:30:20.075.08-Feb-2020 3135.01 4676.57 69.16 4.00 174.21 2647.94
   09:30:20.275.08-Feb-2020 3135.01 4709.76 69.16 4.00 174.41 2647.94
   09:30:20.475.08-Feb-2020 3135.01 4715.15 69.16 4.00 174.61 2647.94
   09:30:20.675.08-Feb-2020 3135.01 4715.61 69.16 4.00 174.81 2647.94
   09:30:20.875.08-Feb-2020 3135.01 4718.72 69.16 4.00 175.01 2647.94
   09:30:21.075.08-Feb-2020 3135.01 4718.72 69.16 4.00 175.21 2647.94
   09:30:21.275.08-Feb-2020 3135.01 4720.06 69.16 4.00 175.41 2647.94
   09:30:21.475.08-Feb-2020 3135.01 4721.74 69.16 4.00 175.61 2647.94
   09:30:21.675.08-Feb-2020 3135.01 4722.00 69.16 4.00 175.81 2647.94
   09:30:21.875.08-Feb-2020 3135.01 4721.57 69.16 4.00 176.01 2647.94
   09:30:22.075.08-Feb-2020 3135.01 4721.57 69.16 4.00 176.21 2647.94
   09:30:22.275.08-Feb-2020 3135.01 4723.59 69.16 4.00 176.41 2647.94
   09:30:22.475.08-Feb-2020 3135.01 4723.10 69.16 4.00 176.61 2647.94
   09:30:22.675.08-Feb-2020 3135.01 4723.73 69.16 4.00 176.81 2647.94
   09:30:22.875.08-Feb-2020 3135.01 4723.74 69.16 4.00 177.01 2647.94
   09:30:23.075.08-Feb-2020 3135.01 4723.74 69.16 4.00 177.21 2647.94
   09:30:23.275.08-Feb-2020 3135.01 4724.33 69.16 4.00 177.41 2647.94
   09:30:23.475.08-Feb-2020 3135.01 4723.93 69.16 4.00 177.61 2647.94
   09:30:23.675.08-Feb-2020 3135.01 4724.73 69.16 4.00 177.81 2647.94
   09:30:23.875.08-Feb-2020 3135.01 4724.33 69.16 4.00 178.01 2647.94
   09:30:24.075.08-Feb-2020 3135.01 4724.33 69.16 4.00 178.21 2647.94
   09:30:24.275.08-Feb-2020 3135.01 4725.34 69.16 4.00 178.41 2647.94
   09:30:24.475.08-Feb-2020 3135.01 4725.11 69.16 4.00 178.61 2647.94
   09:30:24.675.08-Feb-2020 3135.01 4725.51 69.16 4.00 178.81 2647.94
   09:30:24.875.08-Feb-2020 3135.01 4725.63 69.16 4.00 179.01 2647.94
   09:30:25.075.08-Feb-2020 3135.01 4725.63 69.16 4.00 179.22 2647.94
   09:30:25.275.08-Feb-2020 3135.01 4725.54 69.16 4.00 179.42 2647.94
   09:30:25.475.08-Feb-2020 3135.01 4725.78 69.16 4.00 179.62 2647.94
   09:30:25.675.08-Feb-2020 3135.01 4725.88 69.16 4.00 179.82 2647.94
   09:30:25.875.08-Feb-2020 3135.01 4726.48 69.16 4.00 180.02 2647.94
   09:30:26.075.08-Feb-2020 3135.01 4726.48 69.16 4.00 180.22 2647.94
   09:30:26.275.08-Feb-2020 3135.01 4726.16 69.16 4.00 180.42 2647.94
   09:30:26.475.08-Feb-2020 3135.01 4726.34 69.16 4.00 180.62 2647.94
   09:30:26.675.08-Feb-2020 3135.01 4726.07 69.16 4.00 180.82 2647.94
   09:30:26.875.08-Feb-2020 3135.01 4726.07 69.16 4.00 181.02 2647.94
   09:30:27.075.08-Feb-2020 3135.01 4726.07 69.16 4.00 181.22 2647.94
   09:30:27.275.08-Feb-2020 3135.01 4726.13 69.16 4.00 181.42 2647.94
   09:30:27.475.08-Feb-2020 3135.01 4726.14 69.16 4.00 181.62 2647.94
   09:30:27.675.08-Feb-2020 3135.01 4726.99 69.16 4.00 181.82 2647.94
   09:30:27.876.08-Feb-2020 3135.01 4725.62 69.16 4.00 182.02 2647.94
   09:30:28.076.08-Feb-2020 3135.01 4725.62 69.16 4.00 182.22 2647.94
   09:30:28.276.08-Feb-2020 3135.01 4726.43 69.16 4.00 182.42 2647.94
   09:30:28.476.08-Feb-2020 3135.01 4726.08 69.16 4.00 182.62 2647.94
   09:30:28.676.08-Feb-2020 3135.01 4726.93 69.16 4.00 182.82 2647.94
   09:30:28.876.08-Feb-2020 3135.01 4726.59 69.16 4.00 183.02 2647.94
   09:30:29.076.08-Feb-2020 3135.01 4726.59 69.16 4.00 183.22 2647.94
   09:30:29.276.08-Feb-2020 3135.01 4726.39 69.16 4.00 183.42 2647.94
   09:30:29.476.08-Feb-2020 3135.01 4726.25 69.16 4.00 183.62 2647.94
   09:30:29.676.08-Feb-2020 3135.01 4726.91 69.16 4.00 183.82 2647.94
