~Version Information
 VERS.                  2.0:   CWLS log ASCII Standard -VERSION 2.0
 WRAP.                   NO:   One line per depth step
~Well Information Block
#MNEM.UNIT     VALUE/NAME     DESCRIPTION
#---------     -----------    ---------------------------
 STRT.S             12:03:05 08-Feb-20: START TIME 12:03:05 08-Feb-20
 STOP.S             12:09:57 08-Feb-20: STOP TIME  12:09:57 08-Feb-20
 STEP.S                   0.00: STEP TIME
 NULL.                 -999.25: NULL VALUE
 DFWT.                        :  DIST FWL TEXT
 DFST.                        :  DIST FSL TEXT
 DMF .             Drill Floor:  DRILL MEAS FROM
 STIM.      07.00.00 09-Jan-20:  START TIME
 DATE.      14.04.48 07-Feb-20:  END TIME
 SPUD.               09-Jan-20:  SPUD DATE
 NREF.                    Grid:  NORTH REFERENCE
 HPTY.       Minimum Curvature:  HOLE POS TYPE
 DMOD.             Drill Model:  DRILL MOD DESC
 SVYD.                  Survey:  SURVEY DESC
 ILTD.               Lithology:  INTERP LTH DESC
 FTOP.          Formation Tops:  FORM TOPS DESC
 SON .        AZ-XX-0905059384:  JOB NUMBER
 MDS .        Operator Entered:  MAG DATA SOURCE
 WTYP.                Deviated:  WELL TYPE
 COMP.     BP Exploration (Caspian Sea) Ltd.:  COMPANY
 UWI .                     N/A:  UNIQUE WELL IDENTIFIER
 API .                     N/A:  API NUMBER
 BASE.              Azerbaijan:  LOGGING EQUIPMENT BASE LOCATION
 REGN.                   EESSA:  REGION
 PROV.                    Baku:  PROVINCE
 STAT.                    Baku:  STATE NAME
 CTRY.              Azerbaijan:  COUNTRY NAME
 FLD .                     ACG:  FIELD NAME
 SRVC.     TURAN Drilling & Engineering:  CONTRACTOR
 MWDS.                    Baku:  MWD SHOP
 WELL.                     J22:  WELL NAME
 RIG .             West Chirag:  RIG NAME
 DOE .                     N/A:  DOE NUMBER
 DCON.         Sperry Drilling:  DIRECTNL CONTR
 UNIT.                     N/A:  LOGGING EQUIPMENT ID
 PDAT.          Mean Sea Level:  PERMANENT DATUM
 JOBN.        AZ-XX-0905059384:  JOB TICKET NUMB
 CNTY.                        :  COUNTY
 LOC .                        :  LOCATION
 LMF .             Drill Floor:  LOG MEASURED FROM
 TVDS.m                  43.00:  TVDSS CORRECTN
 LATI.deg                40.13:  LATITUDE
 LONG.deg                51.22:  LONGITUDE
 WHNS.m                  10.28:  WELL HEAD N/S
 WHEW.m                  -6.24:  WELL HEAD E/W
 UTMX.m              519005.06:  UTM X
 UTMY.m             4443793.85:  UTM Y
 DFWL.m                   0.00:  DISTANCE FWL
 DFSL.m                   0.00:  DISTANCE FSL
 SDEP.m                 362.00:  START DEPTH
 TDD .m                 904.00:  TOTAL DEPTH (DRILLER)
 VSDR.deg               148.53:  VERT SEC DIRECT
 GVFD.g                   1.00:  GRAVITY FIELD
 MFLD.nT              50277.00:  MAGNETIC FIELD
 MDIP.deg                59.56:  MAGNETIC DIP
 MDEC.deg                 6.42:  MAGNETIC DECL
 GRDC.deg                 0.15:  GRID CORRECTION
 AZTC.deg                 6.27:  AZM TOTAL CORR
 EPD .m                   0.00:  ELEVATION
 EGL .m                   0.00:  GROUND ELEVATION
 WDMS.m                 169.80:  WD ELEV
 APD .m                  43.00:  DEPTH ABOVE PD
 AGAP.m                  43.00:  AIR GAP
 VSEW.m                  -6.24:  VERT SEC E/W
 VSNS.m                  10.28:  VERT SEC N/S
 DEP .m                   0.00:  DEPTH
 EKB .m                   0.00:  KB ELEVATION
 EDF .m                  43.00:  DF ELEVATION
 TDL .m                1183.00:  TOTAL DEPTH (LOGGER)
 VSC .                       0:  VS TO CLOSURE
 MAGU.                 1850021:  MAGUTM CHECKSUM
~Parameter Information Block
#MNEM.UNIT       Value        Description
#---------     -----------    ---------------------------
 AV  .mps                 4.00:  Ann Velocity 
 AVMX.mps                 4.50:  Max Ann Veloc 
 AZIF.deg               145.38:  Azm, Final 
 BHAT.        Rotary Steerable:  BHA Type 
 BROT.°/30m               3.00:  Build Rotating 
 BS  .in                 12.25:  Bit Size 
 BSZ .in                 12.25:  Bit Size 
 BTPL.psig              650.00:  Bit Press Loss 
 CABU.                      No:  Customer Abuse 
 COMM.                     ÌSf:  Run Comments 1 
 TCS .hr                101.62:  Time Ciculation Ended 
 CV  .mps                 5.00:  Crit Velocity 
 CVMX.mps                 5.00:  Max Crit Veloc 
 DD1 .             Aziz Aliyev:  Direct Drillr 1 
 DD2 .      Fakhraddin Guliyev:  Direct Drillr 2 
 DDSV.                 iCruise:  DD Service 
 DEFF.%                  97.00:  % Det Eff 
 DLRX.°/30m               4.16:  Dogleg Rot Max 
 DLSO.°/30m               3.20:  Dogleg Oriented 
 DLSX.°/30m               4.10:  Dogleg Str Max 
 DRET.      23.12.00 07-Feb-20:  Drill End Time 
 DRST.      11.30.00 04-Feb-20:  Drill Start Tim 
 DTIM.hr                 61.06:  Time Drilling 
 EDEP.m                3219.01:  End Depth 
 ENG1.         Almaz Almadatov:  Engineer 1 
 ENG2.         Dair Mahammadov:  Engineer 2 
 ENG3.          Nazrin Asgarli:  Engineer 3 
 ETIM.      02.30.00 11-Feb-20:  End Time 
 FLOI.gpm              1100.00:  Flow In 
 FLON.gpm               900.00:  Flow In Min 
 FLOS.cptm               55.00:  Fluid Loss 
 FLOX.gpm              1150.00:  Flow In Max 
 FTRO.       Formation Presure:  FTWD Run Obj 
 HFLO.                      No:  High Flow 
 HPRE.                      No:  High Pressure 
 HTEM.                      No:  High Temp 
 HYDO.m                   1.80:  Hydro Offset 
 IFIN.deg                75.11:  Inc, Final 
 IMAX.deg                75.11:  Inc Max 
 IMIN.deg                33.55:  Inc Min 
 IMND.m                2186.05:  Inc Min Depth 
 IMXD.m                3205.61:  Inc Max Depth 
 JARR.                      No:  Jarring 
 LETM.      23.12.00 07-Feb-20:  Log End Time 
 LOST.hr                     0:  Lost Rig Time 
 LSTM.      11.30.00 04-Feb-20:  Log Start Time 
 MDCL.ppm             40000.00:  Mud Chlorides 
 MDES.     Inversion Oil/Synthetic:  Mud Desc 
 DFD .sg                  1.49:  Mud Density 
 MDMN.sg                  1.49:  Dens Mud Min 
 MDMX.sg                  1.49:  Dens Mud Max 
 MOIL.                      73:  Run Mud Oil % 
 MOWR.                   73:27:  Run Mud OWR 
 MSND.                     0.1:  Run Mud Sand % 
 MSOL.                    20.1:  Run Mud Solids% 
 DFV .spqt               78.00:  Mud Viscosity 
 MWOD.in                  8.00:  MWD Tool OD 
 MWSI.                      No:  Serv Intrp, MWD 
 OTIM.hr                177.15:  Time Operating 
 PCON.          Wear / Scratch:  Pad Condition 
 PMAX.psia            10493.93:  Press Op, Max 
 PV  .cP                 73.00:  Mud PV 
 RUN .                     700:  Run Number 
 ROPA.m/hr               15.00:  ROP Avg 
 ROPN.m/hr               10.00:  ROP Min 
 ROPX.m/hr               35.00:  ROP Max 
 RPMA.rpm               130.00:  RPM Surface Avg 
 RPMN.rpm                80.00:  RPM Surface Min 
 RPMX.rpm               150.00:  RPM Surface Max 
 RRUN.                    L402:  Rig Run Number 
 RTIM.hr                 80.50:  Time Reaming 
 SAZI.deg               155.55:  Azm, Start 
 SDEP.m                2036.00:  Start Depth 
 SIDD.                      No:  Serv Intrp, DD 
 SINC.deg                35.44:  Inc, Start 
 SPPA.psig             4270.00:  SPP Avg 
 SPPN.psig             2800.00:  SPP Min 
 SPPX.psig             4850.00:  SPP Max 
 STIM.      09.30.00 03-Feb-20:  Start Time 
 SVCS.                 DD, MWD:  Services 
 SVER.                    9.20:  Sperry Version 
 TDAT.m                1183.00:  Tot Depth Attmp 
 TDDF.                      No:  Trip for DD 
 TDLG.m                1183.00:  Tot Depth Loggd 
 TFF .                      No:  Trip for Fail 
 TQAA.f-kp               16.00:  Torque Abs Avg 
 TQAN.f-kp               10.00:  Torque Abs Min 
 TQAX.f-kp               20.00:  Torque Abs Max 
 TRRT.°/30m               1.00:  Turn Rotating 
 MRT .                  EWR-M5:  Maximum Recorded Temperature 
 TTMX.degC               80.39:  Max Tool Temp 
 VS01.               13098498 :  Virtual Str1 SN 
 VS02.                90569596:  Virtual Str2 SN 
 VS03.                90523599:  Virtual Str3 SN 
 VS04.                90573553:  Virtual Str4 SN 
 VS05.                90598598:  Virtual Str5 SN 
 VS06.                90577297:  Virtual Str6 SN 
 WBMN.klb                13.00:  WOB Min 
 WITN.         Alistair Sprott:  Customer Rep 
 WITN.           Rufat Babayev:  Customer Rep 2 
 WOBA.klb                15.00:  WOB Avg 
 WOBX.klb                20.00:  WOB Max 
 YP  .lhf2               39.00:  Yield Point 
~Curve Information Block
#MNEM.UNIT                 API CODE     Curve Description
#---------               -----------    ---------------------------
 TIME.HHMMSS            00 000 000 000:  GT Time & Date
 GTDEPTH.m              00 000 000 000:  GT Depth
 GTPQH.psia             00 000 000 000:  GT HR Quartz Pressure
 GTTQ.degC              00 000 000 000:  GT Quartz Temperature
 GTTN.NONE              00 000 000 000:  GT Test Number
 GTET.sec               00 000 000 000:  GT Elapsed Test Time
 GTTVD.m                00 000 000 000:  GT True Vertical Depth
#Other Information
#
#WARRANTY: Halliburton will use its best efforts to furnish customers with 
#accurate information and interpretations that are part of, and incident to, the services 
#provided.  However, Halliburton cannot and does not warrant the accuracy 
#or correctness of such information and interpretations.  Under no circumstances should any 
#such information or interpretation be relied upon as the sole basis for any drilling, 
#completion, production, or financial decision or any procedure involving any risk to the 
#safety of any drilling venture, drilling rig or its crew or any other third party.  The 
#Customer has full responsibility for all drilling, completion and production operation.  
#Halliburton makes no representations or warranties, either expressed or 
#implied, including, but not limited to, the implied warranties of merchantability or fitness 
#for a particular purpose, with respect to the services rendered.  In no event will 
#Halliburton be liable for failure to obtain any particular results or for 
#any damages, including, but not limited to, indirect, special or consequential damages, 
#resulting from the use of any information or interpretation provided by Halliburton.
#
~A           TIME           GTDEPTH  GTPQH  GTTQ  GTTN  GTET   GTTVD  
# ...
   12:05:23.000.08-Feb-2020 3069.01 4666.71 66.16 7.00 138.00 2627.56
   12:05:23.200.08-Feb-2020 3069.01 4666.71 66.16 7.00 138.20 2627.56
   12:05:23.400.08-Feb-2020 3069.01 4668.78 66.16 7.00 138.40 2627.56
   12:05:23.600.08-Feb-2020 3069.01 4670.23 66.16 7.00 138.60 2627.56
   12:05:23.800.08-Feb-2020 3069.01 4671.27 66.16 7.00 138.80 2627.56
   12:05:24.000.08-Feb-2020 3069.01 4672.21 66.16 7.00 139.00 2627.56
   12:05:24.200.08-Feb-2020 3069.01 4672.21 66.16 7.00 139.20 2627.56
   12:05:24.400.08-Feb-2020 3069.01 4674.86 66.16 7.00 139.40 2627.56
   12:05:24.600.08-Feb-2020 3069.01 4675.32 66.16 7.00 139.60 2627.56
   12:05:24.800.08-Feb-2020 3069.01 4676.90 66.16 7.00 139.80 2627.56
   12:05:25.000.08-Feb-2020 3069.01 4677.97 66.16 7.00 140.00 2627.56
   12:05:25.200.08-Feb-2020 3069.01 4677.97 66.16 7.00 140.20 2627.56
   12:05:25.400.08-Feb-2020 3069.01 4680.68 66.16 7.00 140.40 2627.56
   12:05:25.600.08-Feb-2020 3069.01 4681.20 66.16 7.00 140.60 2627.56
   12:05:25.800.08-Feb-2020 3069.01 4682.30 66.16 7.00 140.80 2627.56
   12:05:26.000.08-Feb-2020 3069.01 4683.35 66.15 7.00 141.00 2627.56
   12:05:26.200.08-Feb-2020 3069.01 4683.35 66.15 7.00 141.20 2627.56
   12:05:26.400.08-Feb-2020 3069.01 4685.32 66.15 7.00 141.40 2627.56
   12:05:26.600.08-Feb-2020 3069.01 4686.30 66.15 7.00 141.60 2627.56
   12:05:26.800.08-Feb-2020 3069.01 4687.39 66.15 7.00 141.80 2627.56
   12:05:27.000.08-Feb-2020 3069.01 4688.42 66.15 7.00 142.00 2627.56
   12:05:27.200.08-Feb-2020 3069.01 4688.42 66.15 7.00 142.20 2627.56
   12:05:27.400.08-Feb-2020 3069.01 4690.49 66.15 7.00 142.40 2627.56
   12:05:27.600.08-Feb-2020 3069.01 4691.25 66.15 7.00 142.60 2627.56
   12:05:27.800.08-Feb-2020 3069.01 4692.56 66.15 7.00 142.80 2627.56
   12:05:28.000.08-Feb-2020 3069.01 4693.43 66.15 7.00 143.00 2627.56
   12:05:28.200.08-Feb-2020 3069.01 4693.43 66.15 7.00 143.20 2627.56
   12:05:28.400.08-Feb-2020 3069.01 4695.13 66.15 7.00 143.40 2627.56
   12:05:28.600.08-Feb-2020 3069.01 4696.00 66.15 7.00 143.60 2627.56
   12:05:28.800.08-Feb-2020 3069.01 4696.96 66.15 7.00 143.80 2627.56
   12:05:29.000.08-Feb-2020 3069.01 4697.86 66.15 7.00 144.00 2627.56
   12:05:29.200.08-Feb-2020 3069.01 4697.86 66.15 7.00 144.20 2627.56
   12:05:29.400.08-Feb-2020 3069.01 4699.68 66.15 7.00 144.40 2627.56
   12:05:29.600.08-Feb-2020 3069.01 4700.69 66.15 7.00 144.60 2627.56
   12:05:29.800.08-Feb-2020 3069.01 4701.68 66.15 7.00 144.80 2627.56
   12:05:30.000.08-Feb-2020 3069.01 4702.72 66.15 7.00 145.00 2627.56
   12:05:30.200.08-Feb-2020 3069.01 4702.72 66.15 7.00 145.20 2627.56
   12:05:30.400.08-Feb-2020 3069.01 4704.33 66.15 7.00 145.40 2627.56
   12:05:30.600.08-Feb-2020 3069.01 4705.36 66.15 7.00 145.60 2627.56
   12:05:30.800.08-Feb-2020 3069.01 4705.75 66.15 7.00 145.80 2627.56
   12:05:31.000.08-Feb-2020 3069.01 4706.50 66.15 7.00 146.00 2627.56
   12:05:31.200.08-Feb-2020 3069.01 4706.50 66.15 7.00 146.20 2627.56
   12:05:31.400.08-Feb-2020 3069.01 4708.39 66.15 7.00 146.40 2627.56
   12:05:31.600.08-Feb-2020 3069.01 4709.40 66.15 7.00 146.60 2627.56
   12:05:31.800.08-Feb-2020 3069.01 4709.66 66.15 7.00 146.80 2627.56
   12:05:32.000.08-Feb-2020 3069.01 4711.06 66.15 7.00 147.00 2627.56
   12:05:32.200.08-Feb-2020 3069.01 4711.06 66.15 7.00 147.20 2627.56
   12:05:32.400.08-Feb-2020 3069.01 4712.89 66.15 7.00 147.40 2627.56
   12:05:32.600.08-Feb-2020 3069.01 4713.59 66.15 7.00 147.60 2627.56
   12:05:32.800.08-Feb-2020 3069.01 4714.29 66.15 7.00 147.80 2627.56
   12:05:33.000.08-Feb-2020 3069.01 4715.11 66.15 7.00 148.00 2627.56
   12:05:33.200.08-Feb-2020 3069.01 4715.11 66.15 7.00 148.20 2627.56
   12:05:33.400.08-Feb-2020 3069.01 4716.79 66.15 7.00 148.40 2627.56
   12:05:33.600.08-Feb-2020 3069.01 4717.63 66.15 7.00 148.60 2627.56
   12:05:33.800.08-Feb-2020 3069.01 4718.35 66.15 7.00 148.80 2627.56
   12:05:34.000.08-Feb-2020 3069.01 4719.15 66.15 7.00 149.00 2627.56
   12:05:34.200.08-Feb-2020 3069.01 4719.15 66.15 7.00 149.20 2627.56
   12:05:34.400.08-Feb-2020 3069.01 4720.45 66.15 7.00 149.40 2627.56
   12:05:34.600.08-Feb-2020 3069.01 4721.51 66.15 7.00 149.60 2627.56
   12:05:34.800.08-Feb-2020 3069.01 4722.68 66.15 7.00 149.80 2627.56
   12:05:35.000.08-Feb-2020 3069.01 4723.15 66.14 7.00 150.00 2627.56
   12:05:35.200.08-Feb-2020 3069.01 4723.15 66.14 7.00 150.20 2627.56
   12:05:35.400.08-Feb-2020 3069.01 4724.80 66.14 7.00 150.40 2627.56
   12:05:35.600.08-Feb-2020 3069.01 4725.40 66.14 7.00 150.60 2627.56
   12:05:35.800.08-Feb-2020 3069.01 4726.14 66.14 7.00 150.80 2627.56
   12:05:36.000.08-Feb-2020 3069.01 4726.98 66.14 7.00 151.00 2627.56
   12:05:36.200.08-Feb-2020 3069.01 4726.98 66.14 7.00 151.20 2627.56
   12:05:36.400.08-Feb-2020 3069.01 4728.13 66.14 7.00 151.40 2627.56
   12:05:36.600.08-Feb-2020 3069.01 4729.39 66.14 7.00 151.60 2627.56
   12:05:36.800.08-Feb-2020 3069.01 4730.17 66.14 7.00 151.80 2627.56
   12:05:37.000.08-Feb-2020 3069.01 4730.81 66.14 7.00 152.00 2627.56
   12:05:37.200.08-Feb-2020 3069.01 4730.81 66.14 7.00 152.20 2627.56
   12:05:37.400.08-Feb-2020 3069.01 4731.94 66.14 7.00 152.40 2627.56
   12:05:37.600.08-Feb-2020 3069.01 4732.87 66.14 7.00 152.60 2627.56
   12:05:37.800.08-Feb-2020 3069.01 4733.83 66.14 7.00 152.80 2627.56
   12:05:38.000.08-Feb-2020 3069.01 4734.22 66.14 7.00 153.00 2627.56
   12:05:38.200.08-Feb-2020 3069.01 4734.22 66.14 7.00 153.20 2627.56
   12:05:38.400.08-Feb-2020 3069.01 4735.68 66.14 7.00 153.40 2627.56
   12:05:38.600.08-Feb-2020 3069.01 4735.70 66.14 7.00 153.60 2627.56
   12:05:38.800.08-Feb-2020 3069.01 4737.15 66.14 7.00 153.80 2627.56
   12:05:39.000.08-Feb-2020 3069.01 4737.56 66.14 7.00 154.00 2627.56
   12:05:39.200.08-Feb-2020 3069.01 4737.56 66.14 7.00 154.20 2627.56
   12:05:39.400.08-Feb-2020 3069.01 4739.61 66.14 7.00 154.40 2627.56
   12:05:39.600.08-Feb-2020 3069.01 4740.03 66.14 7.00 154.60 2627.56
   12:05:39.800.08-Feb-2020 3069.01 4740.55 66.14 7.00 154.80 2627.56
   12:05:40.000.08-Feb-2020 3069.01 4741.33 66.14 7.00 155.00 2627.56
   12:05:40.200.08-Feb-2020 3069.01 4741.33 66.14 7.00 155.20 2627.56
   12:05:40.400.08-Feb-2020 3069.01 4742.46 66.14 7.00 155.40 2627.56
   12:05:40.600.08-Feb-2020 3069.01 4743.18 66.14 7.00 155.60 2627.56
   12:05:40.800.08-Feb-2020 3069.01 4743.77 66.14 7.00 155.80 2627.56
   12:05:41.000.08-Feb-2020 3069.01 4744.40 66.14 7.00 156.00 2627.56
   12:05:41.200.08-Feb-2020 3069.01 4744.40 66.14 7.00 156.20 2627.56
   12:05:41.400.08-Feb-2020 3069.01 4745.39 66.14 7.00 156.40 2627.56
   12:05:41.600.08-Feb-2020 3069.01 4746.58 66.14 7.00 156.60 2627.56
   12:05:41.800.08-Feb-2020 3069.01 4747.27 66.14 7.00 156.80 2627.56
   12:05:42.000.08-Feb-2020 3069.01 4747.64 66.14 7.00 157.00 2627.56
   12:05:42.200.08-Feb-2020 3069.01 4747.64 66.14 7.00 157.20 2627.56
   12:05:42.400.08-Feb-2020 3069.01 4748.90 66.14 7.00 157.40 2627.56
   12:05:42.600.08-Feb-2020 3069.01 4749.42 66.14 7.00 157.60 2627.56
   12:05:42.800.08-Feb-2020 3069.01 4750.13 66.14 7.00 157.80 2627.56
   12:05:43.000.08-Feb-2020 3069.01 4750.56 66.14 7.00 158.00 2627.56
   12:05:43.200.08-Feb-2020 3069.01 4750.56 66.14 7.00 158.20 2627.56
   12:05:43.400.08-Feb-2020 3069.01 4752.03 66.14 7.00 158.40 2627.56
   12:05:43.600.08-Feb-2020 3069.01 4752.96 66.14 7.00 158.60 2627.56
   12:05:43.800.08-Feb-2020 3069.01 4752.95 66.13 7.00 158.80 2627.56
   12:05:44.000.08-Feb-2020 3069.01 4753.77 66.13 7.00 159.00 2627.56
   12:05:44.200.08-Feb-2020 3069.01 4753.77 66.13 7.00 159.20 2627.56
   12:05:44.400.08-Feb-2020 3069.01 4754.62 66.13 7.00 159.40 2627.56
   12:05:44.600.08-Feb-2020 3069.01 4755.33 66.13 7.00 159.60 2627.56
   12:05:44.800.08-Feb-2020 3069.01 4756.34 66.13 7.00 159.80 2627.56
   12:05:45.000.08-Feb-2020 3069.01 4756.54 66.13 7.00 160.00 2627.56
   12:05:45.200.08-Feb-2020 3069.01 4756.54 66.13 7.00 160.20 2627.56
   12:05:45.400.08-Feb-2020 3069.01 4758.12 66.13 7.00 160.40 2627.56
   12:05:45.600.08-Feb-2020 3069.01 4757.88 66.13 7.00 160.60 2627.56
   12:05:45.800.08-Feb-2020 3069.01 4758.86 66.13 7.00 160.80 2627.56
