~Version Information
 VERS.                  2.0:   CWLS log ASCII Standard -VERSION 2.0
 WRAP.                   NO:   One line per depth step
~Well Information Block
#MNEM.UNIT     VALUE/NAME     DESCRIPTION
#---------     -----------    ---------------------------
 STRT.S             10:04:49 08-Feb-20: START TIME 10:04:49 08-Feb-20
 STOP.S             10:11:45 08-Feb-20: STOP TIME  10:11:45 08-Feb-20
 STEP.S                   0.00: STEP TIME
 NULL.                 -999.25: NULL VALUE
 DFWT.                        :  DIST FWL TEXT
 DFST.                        :  DIST FSL TEXT
 DMF .             Drill Floor:  DRILL MEAS FROM
 STIM.      07.00.00 09-Jan-20:  START TIME
 DATE.      14.04.48 07-Feb-20:  END TIME
 SPUD.               09-Jan-20:  SPUD DATE
 NREF.                    Grid:  NORTH REFERENCE
 HPTY.       Minimum Curvature:  HOLE POS TYPE
 DMOD.             Drill Model:  DRILL MOD DESC
 SVYD.                  Survey:  SURVEY DESC
 ILTD.               Lithology:  INTERP LTH DESC
 FTOP.          Formation Tops:  FORM TOPS DESC
 SON .        AZ-XX-0905059384:  JOB NUMBER
 MDS .        Operator Entered:  MAG DATA SOURCE
 WTYP.                Deviated:  WELL TYPE
 COMP.     BP Exploration (Caspian Sea) Ltd.:  COMPANY
 UWI .                     N/A:  UNIQUE WELL IDENTIFIER
 API .                     N/A:  API NUMBER
 BASE.              Azerbaijan:  LOGGING EQUIPMENT BASE LOCATION
 REGN.                   EESSA:  REGION
 PROV.                    Baku:  PROVINCE
 STAT.                    Baku:  STATE NAME
 CTRY.              Azerbaijan:  COUNTRY NAME
 FLD .                     ACG:  FIELD NAME
 SRVC.     TURAN Drilling & Engineering:  CONTRACTOR
 MWDS.                    Baku:  MWD SHOP
 WELL.                     J22:  WELL NAME
 RIG .             West Chirag:  RIG NAME
 DOE .                     N/A:  DOE NUMBER
 DCON.         Sperry Drilling:  DIRECTNL CONTR
 UNIT.                     N/A:  LOGGING EQUIPMENT ID
 PDAT.          Mean Sea Level:  PERMANENT DATUM
 JOBN.        AZ-XX-0905059384:  JOB TICKET NUMB
 CNTY.                        :  COUNTY
 LOC .                        :  LOCATION
 LMF .             Drill Floor:  LOG MEASURED FROM
 TVDS.m                  43.00:  TVDSS CORRECTN
 LATI.deg                40.13:  LATITUDE
 LONG.deg                51.22:  LONGITUDE
 WHNS.m                  10.28:  WELL HEAD N/S
 WHEW.m                  -6.24:  WELL HEAD E/W
 UTMX.m              519005.06:  UTM X
 UTMY.m             4443793.85:  UTM Y
 DFWL.m                   0.00:  DISTANCE FWL
 DFSL.m                   0.00:  DISTANCE FSL
 SDEP.m                 362.00:  START DEPTH
 TDD .m                 904.00:  TOTAL DEPTH (DRILLER)
 VSDR.deg               148.53:  VERT SEC DIRECT
 GVFD.g                   1.00:  GRAVITY FIELD
 MFLD.nT              50277.00:  MAGNETIC FIELD
 MDIP.deg                59.56:  MAGNETIC DIP
 MDEC.deg                 6.42:  MAGNETIC DECL
 GRDC.deg                 0.15:  GRID CORRECTION
 AZTC.deg                 6.27:  AZM TOTAL CORR
 EPD .m                   0.00:  ELEVATION
 EGL .m                   0.00:  GROUND ELEVATION
 WDMS.m                 169.80:  WD ELEV
 APD .m                  43.00:  DEPTH ABOVE PD
 AGAP.m                  43.00:  AIR GAP
 VSEW.m                  -6.24:  VERT SEC E/W
 VSNS.m                  10.28:  VERT SEC N/S
 DEP .m                   0.00:  DEPTH
 EKB .m                   0.00:  KB ELEVATION
 EDF .m                  43.00:  DF ELEVATION
 TDL .m                1183.00:  TOTAL DEPTH (LOGGER)
 VSC .                       0:  VS TO CLOSURE
 MAGU.                 1850021:  MAGUTM CHECKSUM
~Parameter Information Block
#MNEM.UNIT       Value        Description
#---------     -----------    ---------------------------
 AV  .mps                 4.00:  Ann Velocity 
 AVMX.mps                 4.50:  Max Ann Veloc 
 AZIF.deg               145.38:  Azm, Final 
 BHAT.        Rotary Steerable:  BHA Type 
 BROT.°/30m               3.00:  Build Rotating 
 BS  .in                 12.25:  Bit Size 
 BSZ .in                 12.25:  Bit Size 
 BTPL.psig              650.00:  Bit Press Loss 
 CABU.                      No:  Customer Abuse 
 COMM.                     |¶Q:  Run Comments 1 
 TCS .hr                101.62:  Time Ciculation Ended 
 CV  .mps                 5.00:  Crit Velocity 
 CVMX.mps                 5.00:  Max Crit Veloc 
 DD1 .             Aziz Aliyev:  Direct Drillr 1 
 DD2 .      Fakhraddin Guliyev:  Direct Drillr 2 
 DDSV.                 iCruise:  DD Service 
 DEFF.%                  97.00:  % Det Eff 
 DLRX.°/30m               4.16:  Dogleg Rot Max 
 DLSO.°/30m               3.20:  Dogleg Oriented 
 DLSX.°/30m               4.10:  Dogleg Str Max 
 DRET.      23.12.00 07-Feb-20:  Drill End Time 
 DRST.      11.30.00 04-Feb-20:  Drill Start Tim 
 DTIM.hr                 61.06:  Time Drilling 
 EDEP.m                3219.01:  End Depth 
 ENG1.         Almaz Almadatov:  Engineer 1 
 ENG2.         Dair Mahammadov:  Engineer 2 
 ENG3.          Nazrin Asgarli:  Engineer 3 
 ETIM.      02.30.00 11-Feb-20:  End Time 
 FLOI.gpm              1100.00:  Flow In 
 FLON.gpm               900.00:  Flow In Min 
 FLOS.cptm               55.00:  Fluid Loss 
 FLOX.gpm              1150.00:  Flow In Max 
 FTRO.       Formation Presure:  FTWD Run Obj 
 HFLO.                      No:  High Flow 
 HPRE.                      No:  High Pressure 
 HTEM.                      No:  High Temp 
 HYDO.m                   1.80:  Hydro Offset 
 IFIN.deg                75.11:  Inc, Final 
 IMAX.deg                75.11:  Inc Max 
 IMIN.deg                33.55:  Inc Min 
 IMND.m                2186.05:  Inc Min Depth 
 IMXD.m                3205.61:  Inc Max Depth 
 JARR.                      No:  Jarring 
 LETM.      23.12.00 07-Feb-20:  Log End Time 
 LOST.hr                     0:  Lost Rig Time 
 LSTM.      11.30.00 04-Feb-20:  Log Start Time 
 MDCL.ppm             40000.00:  Mud Chlorides 
 MDES.     Inversion Oil/Synthetic:  Mud Desc 
 DFD .sg                  1.49:  Mud Density 
 MDMN.sg                  1.49:  Dens Mud Min 
 MDMX.sg                  1.49:  Dens Mud Max 
 MOIL.                      73:  Run Mud Oil % 
 MOWR.                   73:27:  Run Mud OWR 
 MSND.                     0.1:  Run Mud Sand % 
 MSOL.                    20.1:  Run Mud Solids% 
 DFV .spqt               78.00:  Mud Viscosity 
 MWOD.in                  8.00:  MWD Tool OD 
 MWSI.                      No:  Serv Intrp, MWD 
 OTIM.hr                177.15:  Time Operating 
 PCON.          Wear / Scratch:  Pad Condition 
 PMAX.psia            10493.93:  Press Op, Max 
 PV  .cP                 73.00:  Mud PV 
 RUN .                     700:  Run Number 
 ROPA.m/hr               15.00:  ROP Avg 
 ROPN.m/hr               10.00:  ROP Min 
 ROPX.m/hr               35.00:  ROP Max 
 RPMA.rpm               130.00:  RPM Surface Avg 
 RPMN.rpm                80.00:  RPM Surface Min 
 RPMX.rpm               150.00:  RPM Surface Max 
 RRUN.                    L402:  Rig Run Number 
 RTIM.hr                 80.50:  Time Reaming 
 SAZI.deg               155.55:  Azm, Start 
 SDEP.m                2036.00:  Start Depth 
 SIDD.                      No:  Serv Intrp, DD 
 SINC.deg                35.44:  Inc, Start 
 SPPA.psig             4270.00:  SPP Avg 
 SPPN.psig             2800.00:  SPP Min 
 SPPX.psig             4850.00:  SPP Max 
 STIM.      09.30.00 03-Feb-20:  Start Time 
 SVCS.                 DD, MWD:  Services 
 SVER.                    9.20:  Sperry Version 
 TDAT.m                1183.00:  Tot Depth Attmp 
 TDDF.                      No:  Trip for DD 
 TDLG.m                1183.00:  Tot Depth Loggd 
 TFF .                      No:  Trip for Fail 
 TQAA.f-kp               16.00:  Torque Abs Avg 
 TQAN.f-kp               10.00:  Torque Abs Min 
 TQAX.f-kp               20.00:  Torque Abs Max 
 TRRT.°/30m               1.00:  Turn Rotating 
 MRT .                  EWR-M5:  Maximum Recorded Temperature 
 TTMX.degC               80.39:  Max Tool Temp 
 VS01.               13098498 :  Virtual Str1 SN 
 VS02.                90569596:  Virtual Str2 SN 
 VS03.                90523599:  Virtual Str3 SN 
 VS04.                90573553:  Virtual Str4 SN 
 VS05.                90598598:  Virtual Str5 SN 
 VS06.                90577297:  Virtual Str6 SN 
 WBMN.klb                13.00:  WOB Min 
 WITN.         Alistair Sprott:  Customer Rep 
 WITN.           Rufat Babayev:  Customer Rep 2 
 WOBA.klb                15.00:  WOB Avg 
 WOBX.klb                20.00:  WOB Max 
 YP  .lhf2               39.00:  Yield Point 
~Curve Information Block
#MNEM.UNIT                 API CODE     Curve Description
#---------               -----------    ---------------------------
 TIME.HHMMSS            00 000 000 000:  GT Time & Date
 GTDEPTH.m              00 000 000 000:  GT Depth
 GTPQH.psia             00 000 000 000:  GT HR Quartz Pressure
 GTTQ.degC              00 000 000 000:  GT Quartz Temperature
 GTTN.NONE              00 000 000 000:  GT Test Number
 GTET.sec               00 000 000 000:  GT Elapsed Test Time
 GTTVD.m                00 000 000 000:  GT True Vertical Depth
#Other Information
#
#WARRANTY: Halliburton will use its best efforts to furnish customers with 
#accurate information and interpretations that are part of, and incident to, the services 
#provided.  However, Halliburton cannot and does not warrant the accuracy 
#or correctness of such information and interpretations.  Under no circumstances should any 
#such information or interpretation be relied upon as the sole basis for any drilling, 
#completion, production, or financial decision or any procedure involving any risk to the 
#safety of any drilling venture, drilling rig or its crew or any other third party.  The 
#Customer has full responsibility for all drilling, completion and production operation.  
#Halliburton makes no representations or warranties, either expressed or 
#implied, including, but not limited to, the implied warranties of merchantability or fitness 
#for a particular purpose, with respect to the services rendered.  In no event will 
#Halliburton be liable for failure to obtain any particular results or for 
#any damages, including, but not limited to, indirect, special or consequential damages, 
#resulting from the use of any information or interpretation provided by Halliburton.
#
~A           TIME           GTDEPTH  GTPQH  GTTQ  GTTN  GTET   GTTVD  
# ...
   10:08:16.244.08-Feb-2020 3159.51 4881.40 68.47 5.00 207.06 2654.38
   10:08:16.445.08-Feb-2020 3159.51 4881.40 68.47 5.00 207.26 2654.38
   10:08:16.645.08-Feb-2020 3159.51 4881.42 68.47 5.00 207.46 2654.38
   10:08:16.845.08-Feb-2020 3159.51 4881.34 68.47 5.00 207.66 2654.38
   10:08:17.045.08-Feb-2020 3159.51 4881.44 68.47 5.00 207.86 2654.38
   10:08:17.245.08-Feb-2020 3159.51 4881.93 68.47 5.00 208.06 2654.38
   10:08:17.445.08-Feb-2020 3159.51 4881.93 68.47 5.00 208.26 2654.38
   10:08:17.645.08-Feb-2020 3159.51 4881.20 68.47 5.00 208.46 2654.38
   10:08:17.845.08-Feb-2020 3159.51 4881.56 68.47 5.00 208.66 2654.38
   10:08:18.045.08-Feb-2020 3159.51 4881.35 68.47 5.00 208.86 2654.38
   10:08:18.245.08-Feb-2020 3159.51 4881.17 68.47 5.00 209.06 2654.38
   10:08:18.445.08-Feb-2020 3159.51 4881.17 68.47 5.00 209.27 2654.38
   10:08:18.645.08-Feb-2020 3159.51 4881.48 68.47 5.00 209.47 2654.38
   10:08:18.845.08-Feb-2020 3159.51 4881.21 68.47 5.00 209.67 2654.38
   10:08:19.045.08-Feb-2020 3159.51 4882.04 68.47 5.00 209.87 2654.38
   10:08:19.245.08-Feb-2020 3159.51 4881.09 68.47 5.00 210.07 2654.38
   10:08:19.445.08-Feb-2020 3159.51 4881.09 68.47 5.00 210.27 2654.38
   10:08:19.646.08-Feb-2020 3159.51 4881.38 68.47 5.00 210.47 2654.38
   10:08:19.846.08-Feb-2020 3159.51 4881.55 68.47 5.00 210.67 2654.38
   10:08:20.046.08-Feb-2020 3159.51 4881.51 68.47 5.00 210.87 2654.38
   10:08:20.246.08-Feb-2020 3159.51 4881.34 68.47 5.00 211.07 2654.38
   10:08:20.446.08-Feb-2020 3159.51 4881.34 68.47 5.00 211.27 2654.38
   10:08:20.646.08-Feb-2020 3159.51 4881.45 68.47 5.00 211.47 2654.38
   10:08:20.846.08-Feb-2020 3159.51 4881.42 68.47 5.00 211.67 2654.38
   10:08:21.046.08-Feb-2020 3159.51 4881.47 68.47 5.00 211.87 2654.38
   10:08:21.246.08-Feb-2020 3159.51 4881.45 68.47 5.00 212.07 2654.38
   10:08:21.446.08-Feb-2020 3159.51 4881.45 68.47 5.00 212.27 2654.38
   10:08:21.646.08-Feb-2020 3159.51 4881.38 68.47 5.00 212.47 2654.38
   10:08:21.846.08-Feb-2020 3159.51 4881.45 68.47 5.00 212.67 2654.38
   10:08:22.046.08-Feb-2020 3159.51 4881.87 68.47 5.00 212.87 2654.38
   10:08:22.246.08-Feb-2020 3159.51 4880.98 68.47 5.00 213.07 2654.38
   10:08:22.446.08-Feb-2020 3159.51 4880.98 68.47 5.00 213.27 2654.38
   10:08:22.646.08-Feb-2020 3159.51 4881.45 68.47 5.00 213.47 2654.38
   10:08:22.847.08-Feb-2020 3159.51 4881.48 68.47 5.00 213.67 2654.38
   10:08:23.047.08-Feb-2020 3159.51 4881.34 68.47 5.00 213.87 2654.38
   10:08:23.247.08-Feb-2020 3159.51 4881.45 68.47 5.00 214.07 2654.38
   10:08:23.447.08-Feb-2020 3159.51 4881.45 68.47 5.00 214.27 2654.38
   10:08:23.647.08-Feb-2020 3159.51 4881.40 68.47 5.00 214.47 2654.38
   10:08:23.847.08-Feb-2020 3159.51 4881.41 68.47 5.00 214.67 2654.38
   10:08:24.047.08-Feb-2020 3159.51 4881.47 68.47 5.00 214.87 2654.38
   10:08:24.247.08-Feb-2020 3159.51 4881.35 68.47 5.00 215.07 2654.38
   10:08:24.447.08-Feb-2020 3159.51 4881.35 68.47 5.00 215.27 2654.38
   10:08:24.647.08-Feb-2020 3159.51 4881.42 68.47 5.00 215.47 2654.38
   10:08:24.847.08-Feb-2020 3159.51 4881.33 68.47 5.00 215.67 2654.38
   10:08:25.047.08-Feb-2020 3159.51 4881.40 68.47 5.00 215.87 2654.38
   10:08:25.247.08-Feb-2020 3159.51 4881.98 68.47 5.00 216.07 2654.38
   10:08:25.447.08-Feb-2020 3159.51 4881.98 68.47 5.00 216.27 2654.38
   10:08:25.647.08-Feb-2020 3159.51 4881.11 68.47 5.00 216.47 2654.38
   10:08:25.847.08-Feb-2020 3159.51 4881.30 68.47 5.00 216.67 2654.38
   10:08:26.047.08-Feb-2020 3159.51 4881.54 68.47 5.00 216.87 2654.38
   10:08:26.248.08-Feb-2020 3159.51 4881.43 68.47 5.00 217.07 2654.38
   10:08:26.448.08-Feb-2020 3159.51 4881.43 68.47 5.00 217.27 2654.38
   10:08:26.648.08-Feb-2020 3159.51 4881.65 68.47 5.00 217.47 2654.38
   10:08:26.848.08-Feb-2020 3159.51 4881.29 68.47 5.00 217.67 2654.38
   10:08:27.048.08-Feb-2020 3159.51 4881.34 68.47 5.00 217.87 2654.38
   10:08:27.248.08-Feb-2020 3159.51 4881.40 68.47 5.00 218.07 2654.38
   10:08:27.448.08-Feb-2020 3159.51 4881.40 68.47 5.00 218.27 2654.38
   10:08:27.648.08-Feb-2020 3159.51 4881.44 68.47 5.00 218.47 2654.38
   10:08:27.848.08-Feb-2020 3159.51 4881.45 68.47 5.00 218.67 2654.38
   10:08:28.048.08-Feb-2020 3159.51 4881.48 68.47 5.00 218.87 2654.38
   10:08:28.248.08-Feb-2020 3159.51 4881.47 68.47 5.00 219.07 2654.38
   10:08:28.448.08-Feb-2020 3159.51 4881.47 68.47 5.00 219.27 2654.38
   10:08:28.648.08-Feb-2020 3159.51 4881.49 68.47 5.00 219.47 2654.38
   10:08:28.848.08-Feb-2020 3159.51 4881.45 68.47 5.00 219.67 2654.38
   10:08:29.048.08-Feb-2020 3159.51 4881.41 68.47 5.00 219.87 2654.38
   10:08:29.248.08-Feb-2020 3159.51 4881.52 68.47 5.00 220.07 2654.38
   10:08:29.449.08-Feb-2020 3159.51 4881.52 68.47 5.00 220.27 2654.38
   10:08:29.649.08-Feb-2020 3159.51 4881.43 68.47 5.00 220.47 2654.38
   10:08:29.849.08-Feb-2020 3159.51 4881.50 68.47 5.00 220.67 2654.38
   10:08:30.049.08-Feb-2020 3159.51 4881.42 68.47 5.00 220.87 2654.38
   10:08:30.249.08-Feb-2020 3159.51 4881.45 68.47 5.00 221.07 2654.38
   10:08:30.449.08-Feb-2020 3159.51 4881.45 68.47 5.00 221.27 2654.38
   10:08:30.649.08-Feb-2020 3159.51 4881.41 68.47 5.00 221.47 2654.38
   10:08:30.849.08-Feb-2020 3159.51 4881.45 68.47 5.00 221.67 2654.38
   10:08:31.049.08-Feb-2020 3159.51 4881.95 68.47 5.00 221.87 2654.38
   10:08:31.249.08-Feb-2020 3159.51 4880.91 68.47 5.00 222.07 2654.38
   10:08:31.449.08-Feb-2020 3159.51 4880.91 68.47 5.00 222.27 2654.38
   10:08:31.649.08-Feb-2020 3159.51 4882.21 68.47 5.00 222.47 2654.38
   10:08:31.849.08-Feb-2020 3159.51 4881.03 68.47 5.00 222.67 2654.38
   10:08:32.049.08-Feb-2020 3159.51 4881.05 68.47 5.00 222.87 2654.38
   10:08:32.249.08-Feb-2020 3159.51 4881.53 68.47 5.00 223.07 2654.38
   10:08:32.449.08-Feb-2020 3159.51 4881.53 68.47 5.00 223.27 2654.38
   10:08:32.650.08-Feb-2020 3159.51 4881.21 68.47 5.00 223.47 2654.38
   10:08:32.850.08-Feb-2020 3159.51 4881.95 68.47 5.00 223.67 2654.38
   10:08:33.050.08-Feb-2020 3159.51 4881.02 68.47 5.00 223.87 2654.38
   10:08:33.250.08-Feb-2020 3159.51 4881.17 68.47 5.00 224.07 2654.38
   10:08:33.450.08-Feb-2020 3159.51 4881.17 68.47 5.00 224.27 2654.38
   10:08:33.650.08-Feb-2020 3159.51 4882.26 68.47 5.00 224.47 2654.38
   10:08:33.850.08-Feb-2020 3159.51 4881.09 68.47 5.00 224.67 2654.38
   10:08:34.050.08-Feb-2020 3159.51 4881.16 68.47 5.00 224.87 2654.38
   10:08:34.250.08-Feb-2020 3159.51 4881.52 68.47 5.00 225.07 2654.38
   10:08:34.450.08-Feb-2020 3159.51 4881.52 68.47 5.00 225.27 2654.38
   10:08:34.650.08-Feb-2020 3159.51 4881.43 68.47 5.00 225.47 2654.38
   10:08:34.850.08-Feb-2020 3159.51 4881.52 68.47 5.00 225.67 2654.38
   10:08:35.050.08-Feb-2020 3159.51 4881.48 68.47 5.00 225.87 2654.38
   10:08:35.250.08-Feb-2020 3159.51 4881.47 68.47 5.00 226.07 2654.38
   10:08:35.450.08-Feb-2020 3159.51 4881.47 68.47 5.00 226.27 2654.38
   10:08:35.650.08-Feb-2020 3159.51 4881.48 68.47 5.00 226.47 2654.38
   10:08:35.851.08-Feb-2020 3159.51 4881.91 68.47 5.00 226.67 2654.38
   10:08:36.051.08-Feb-2020 3159.51 4881.00 68.47 5.00 226.87 2654.38
   10:08:36.251.08-Feb-2020 3159.51 4881.25 68.47 5.00 227.07 2654.38
   10:08:36.451.08-Feb-2020 3159.51 4881.25 68.47 5.00 227.27 2654.38
   10:08:36.651.08-Feb-2020 3159.51 4881.57 68.47 5.00 227.47 2654.38
   10:08:36.851.08-Feb-2020 3159.51 4881.41 68.47 5.00 227.67 2654.38
   10:08:37.051.08-Feb-2020 3159.51 4881.44 68.46 5.00 227.87 2654.38
   10:08:37.251.08-Feb-2020 3159.51 4881.51 68.46 5.00 228.07 2654.38
   10:08:37.451.08-Feb-2020 3159.51 4881.51 68.46 5.00 228.27 2654.38
   10:08:37.651.08-Feb-2020 3159.51 4881.37 68.46 5.00 228.47 2654.38
   10:08:37.851.08-Feb-2020 3159.51 4881.50 68.46 5.00 228.67 2654.38
   10:08:38.051.08-Feb-2020 3159.51 4881.81 68.46 5.00 228.87 2654.38
   10:08:38.251.08-Feb-2020 3159.51 4881.06 68.46 5.00 229.07 2654.38
   10:08:38.451.08-Feb-2020 3159.51 4881.06 68.46 5.00 229.27 2654.38
   10:08:38.651.08-Feb-2020 3159.51 4881.50 68.46 5.00 229.47 2654.38
   10:08:38.851.08-Feb-2020 3159.51 4881.47 68.46 5.00 229.67 2654.38
   10:08:39.052.08-Feb-2020 3159.51 4881.31 68.46 5.00 229.87 2654.38
