~Version Information
 VERS.                  2.0:   CWLS log ASCII Standard -VERSION 2.0
 WRAP.                   NO:   One line per depth step
~Well Information Block
#MNEM.UNIT     VALUE/NAME     DESCRIPTION
#---------     -----------    ---------------------------
 STRT.S             08:19:39 08-Feb-20: START TIME 08:19:39 08-Feb-20
 STOP.S             08:26:25 08-Feb-20: STOP TIME  08:26:25 08-Feb-20
 STEP.S                   0.00: STEP TIME
 NULL.                 -999.25: NULL VALUE
 DFWT.                        :  DIST FWL TEXT
 DFST.                        :  DIST FSL TEXT
 DMF .             Drill Floor:  DRILL MEAS FROM
 STIM.      07.00.00 09-Jan-20:  START TIME
 DATE.      14.04.48 07-Feb-20:  END TIME
 SPUD.               09-Jan-20:  SPUD DATE
 NREF.                    Grid:  NORTH REFERENCE
 HPTY.       Minimum Curvature:  HOLE POS TYPE
 DMOD.             Drill Model:  DRILL MOD DESC
 SVYD.                  Survey:  SURVEY DESC
 ILTD.               Lithology:  INTERP LTH DESC
 FTOP.          Formation Tops:  FORM TOPS DESC
 SON .        AZ-XX-0905059384:  JOB NUMBER
 MDS .        Operator Entered:  MAG DATA SOURCE
 WTYP.                Deviated:  WELL TYPE
 COMP.     BP Exploration (Caspian Sea) Ltd.:  COMPANY
 UWI .                     N/A:  UNIQUE WELL IDENTIFIER
 API .                     N/A:  API NUMBER
 BASE.              Azerbaijan:  LOGGING EQUIPMENT BASE LOCATION
 REGN.                   EESSA:  REGION
 PROV.                    Baku:  PROVINCE
 STAT.                    Baku:  STATE NAME
 CTRY.              Azerbaijan:  COUNTRY NAME
 FLD .                     ACG:  FIELD NAME
 SRVC.     TURAN Drilling & Engineering:  CONTRACTOR
 MWDS.                    Baku:  MWD SHOP
 WELL.                     J22:  WELL NAME
 RIG .             West Chirag:  RIG NAME
 DOE .                     N/A:  DOE NUMBER
 DCON.         Sperry Drilling:  DIRECTNL CONTR
 UNIT.                     N/A:  LOGGING EQUIPMENT ID
 PDAT.          Mean Sea Level:  PERMANENT DATUM
 JOBN.        AZ-XX-0905059384:  JOB TICKET NUMB
 CNTY.                        :  COUNTY
 LOC .                        :  LOCATION
 LMF .             Drill Floor:  LOG MEASURED FROM
 TVDS.m                  43.00:  TVDSS CORRECTN
 LATI.deg                40.13:  LATITUDE
 LONG.deg                51.22:  LONGITUDE
 WHNS.m                  10.28:  WELL HEAD N/S
 WHEW.m                  -6.24:  WELL HEAD E/W
 UTMX.m              519005.06:  UTM X
 UTMY.m             4443793.85:  UTM Y
 DFWL.m                   0.00:  DISTANCE FWL
 DFSL.m                   0.00:  DISTANCE FSL
 SDEP.m                 362.00:  START DEPTH
 TDD .m                 904.00:  TOTAL DEPTH (DRILLER)
 VSDR.deg               148.53:  VERT SEC DIRECT
 GVFD.g                   1.00:  GRAVITY FIELD
 MFLD.nT              50277.00:  MAGNETIC FIELD
 MDIP.deg                59.56:  MAGNETIC DIP
 MDEC.deg                 6.42:  MAGNETIC DECL
 GRDC.deg                 0.15:  GRID CORRECTION
 AZTC.deg                 6.27:  AZM TOTAL CORR
 EPD .m                   0.00:  ELEVATION
 EGL .m                   0.00:  GROUND ELEVATION
 WDMS.m                 169.80:  WD ELEV
 APD .m                  43.00:  DEPTH ABOVE PD
 AGAP.m                  43.00:  AIR GAP
 VSEW.m                  -6.24:  VERT SEC E/W
 VSNS.m                  10.28:  VERT SEC N/S
 DEP .m                   0.00:  DEPTH
 EKB .m                   0.00:  KB ELEVATION
 EDF .m                  43.00:  DF ELEVATION
 TDL .m                1183.00:  TOTAL DEPTH (LOGGER)
 VSC .                       0:  VS TO CLOSURE
 MAGU.                 1850021:  MAGUTM CHECKSUM
~Parameter Information Block
#MNEM.UNIT       Value        Description
#---------     -----------    ---------------------------
 AV  .mps                 4.00:  Ann Velocity 
 AVMX.mps                 4.50:  Max Ann Veloc 
 AZIF.deg               145.38:  Azm, Final 
 BHAT.        Rotary Steerable:  BHA Type 
 BROT.°/30m               3.00:  Build Rotating 
 BS  .in                 12.25:  Bit Size 
 BSZ .in                 12.25:  Bit Size 
 BTPL.psig              650.00:  Bit Press Loss 
 CABU.                      No:  Customer Abuse 
 COMM.                     ä7n:  Run Comments 1 
 TCS .hr                101.62:  Time Ciculation Ended 
 CV  .mps                 5.00:  Crit Velocity 
 CVMX.mps                 5.00:  Max Crit Veloc 
 DD1 .             Aziz Aliyev:  Direct Drillr 1 
 DD2 .      Fakhraddin Guliyev:  Direct Drillr 2 
 DDSV.                 iCruise:  DD Service 
 DEFF.%                  97.00:  % Det Eff 
 DLRX.°/30m               4.16:  Dogleg Rot Max 
 DLSO.°/30m               3.20:  Dogleg Oriented 
 DLSX.°/30m               4.10:  Dogleg Str Max 
 DRET.      23.12.00 07-Feb-20:  Drill End Time 
 DRST.      11.30.00 04-Feb-20:  Drill Start Tim 
 DTIM.hr                 61.06:  Time Drilling 
 EDEP.m                3219.01:  End Depth 
 ENG1.         Almaz Almadatov:  Engineer 1 
 ENG2.         Dair Mahammadov:  Engineer 2 
 ENG3.          Nazrin Asgarli:  Engineer 3 
 ETIM.      02.30.00 11-Feb-20:  End Time 
 FLOI.gpm              1100.00:  Flow In 
 FLON.gpm               900.00:  Flow In Min 
 FLOS.cptm               55.00:  Fluid Loss 
 FLOX.gpm              1150.00:  Flow In Max 
 FTRO.       Formation Presure:  FTWD Run Obj 
 HFLO.                      No:  High Flow 
 HPRE.                      No:  High Pressure 
 HTEM.                      No:  High Temp 
 HYDO.m                   1.80:  Hydro Offset 
 IFIN.deg                75.11:  Inc, Final 
 IMAX.deg                75.11:  Inc Max 
 IMIN.deg                33.55:  Inc Min 
 IMND.m                2186.05:  Inc Min Depth 
 IMXD.m                3205.61:  Inc Max Depth 
 JARR.                      No:  Jarring 
 LETM.      23.12.00 07-Feb-20:  Log End Time 
 LOST.hr                     0:  Lost Rig Time 
 LSTM.      11.30.00 04-Feb-20:  Log Start Time 
 MDCL.ppm             40000.00:  Mud Chlorides 
 MDES.     Inversion Oil/Synthetic:  Mud Desc 
 DFD .sg                  1.49:  Mud Density 
 MDMN.sg                  1.49:  Dens Mud Min 
 MDMX.sg                  1.49:  Dens Mud Max 
 MOIL.                      73:  Run Mud Oil % 
 MOWR.                   73:27:  Run Mud OWR 
 MSND.                     0.1:  Run Mud Sand % 
 MSOL.                    20.1:  Run Mud Solids% 
 DFV .spqt               78.00:  Mud Viscosity 
 MWOD.in                  8.00:  MWD Tool OD 
 MWSI.                      No:  Serv Intrp, MWD 
 OTIM.hr                177.15:  Time Operating 
 PCON.          Wear / Scratch:  Pad Condition 
 PMAX.psia            10493.93:  Press Op, Max 
 PV  .cP                 73.00:  Mud PV 
 RUN .                     700:  Run Number 
 ROPA.m/hr               15.00:  ROP Avg 
 ROPN.m/hr               10.00:  ROP Min 
 ROPX.m/hr               35.00:  ROP Max 
 RPMA.rpm               130.00:  RPM Surface Avg 
 RPMN.rpm                80.00:  RPM Surface Min 
 RPMX.rpm               150.00:  RPM Surface Max 
 RRUN.                    L402:  Rig Run Number 
 RTIM.hr                 80.50:  Time Reaming 
 SAZI.deg               155.55:  Azm, Start 
 SDEP.m                2036.00:  Start Depth 
 SIDD.                      No:  Serv Intrp, DD 
 SINC.deg                35.44:  Inc, Start 
 SPPA.psig             4270.00:  SPP Avg 
 SPPN.psig             2800.00:  SPP Min 
 SPPX.psig             4850.00:  SPP Max 
 STIM.      09.30.00 03-Feb-20:  Start Time 
 SVCS.                 DD, MWD:  Services 
 SVER.                    9.20:  Sperry Version 
 TDAT.m                1183.00:  Tot Depth Attmp 
 TDDF.                      No:  Trip for DD 
 TDLG.m                1183.00:  Tot Depth Loggd 
 TFF .                      No:  Trip for Fail 
 TQAA.f-kp               16.00:  Torque Abs Avg 
 TQAN.f-kp               10.00:  Torque Abs Min 
 TQAX.f-kp               20.00:  Torque Abs Max 
 TRRT.°/30m               1.00:  Turn Rotating 
 MRT .                  EWR-M5:  Maximum Recorded Temperature 
 TTMX.degC               80.39:  Max Tool Temp 
 VS01.               13098498 :  Virtual Str1 SN 
 VS02.                90569596:  Virtual Str2 SN 
 VS03.                90523599:  Virtual Str3 SN 
 VS04.                90573553:  Virtual Str4 SN 
 VS05.                90598598:  Virtual Str5 SN 
 VS06.                90577297:  Virtual Str6 SN 
 WBMN.klb                13.00:  WOB Min 
 WITN.         Alistair Sprott:  Customer Rep 
 WITN.           Rufat Babayev:  Customer Rep 2 
 WOBA.klb                15.00:  WOB Avg 
 WOBX.klb                20.00:  WOB Max 
 YP  .lhf2               39.00:  Yield Point 
~Curve Information Block
#MNEM.UNIT                 API CODE     Curve Description
#---------               -----------    ---------------------------
 TIME.HHMMSS            00 000 000 000:  GT Time & Date
 GTDEPTH.m              00 000 000 000:  GT Depth
 GTPQH.psia             00 000 000 000:  GT HR Quartz Pressure
 GTTQ.degC              00 000 000 000:  GT Quartz Temperature
 GTTN.NONE              00 000 000 000:  GT Test Number
 GTET.sec               00 000 000 000:  GT Elapsed Test Time
 GTTVD.m                00 000 000 000:  GT True Vertical Depth
#Other Information
#
#WARRANTY: Halliburton will use its best efforts to furnish customers with 
#accurate information and interpretations that are part of, and incident to, the services 
#provided.  However, Halliburton cannot and does not warrant the accuracy 
#or correctness of such information and interpretations.  Under no circumstances should any 
#such information or interpretation be relied upon as the sole basis for any drilling, 
#completion, production, or financial decision or any procedure involving any risk to the 
#safety of any drilling venture, drilling rig or its crew or any other third party.  The 
#Customer has full responsibility for all drilling, completion and production operation.  
#Halliburton makes no representations or warranties, either expressed or 
#implied, including, but not limited to, the implied warranties of merchantability or fitness 
#for a particular purpose, with respect to the services rendered.  In no event will 
#Halliburton be liable for failure to obtain any particular results or for 
#any damages, including, but not limited to, indirect, special or consequential damages, 
#resulting from the use of any information or interpretation provided by Halliburton.
#
~A           TIME           GTDEPTH  GTPQH  GTTQ  GTTN  GTET   GTTVD  
# ...
   08:20:02.522.08-Feb-2020 3134.51 5753.77 74.30 1.00  23.00 2647.81
   08:20:02.722.08-Feb-2020 3134.51 5753.77 74.30 1.00  23.20 2647.81
   08:20:02.922.08-Feb-2020 3134.51 5755.84 74.30 1.00  23.40 2647.81
   08:20:03.122.08-Feb-2020 3134.51 5752.76 74.30 1.00  23.60 2647.81
   08:20:03.322.08-Feb-2020 3134.51 5753.41 74.30 1.00  23.80 2647.81
   08:20:03.522.08-Feb-2020 3134.51 5753.76 74.30 1.00  24.00 2647.81
   08:20:03.722.08-Feb-2020 3134.51 5753.76 74.30 1.00  24.20 2647.81
   08:20:03.922.08-Feb-2020 3134.51 5753.39 74.30 1.00  24.40 2647.81
   08:20:04.122.08-Feb-2020 3134.51 5753.40 74.30 1.00  24.60 2647.81
   08:20:04.322.08-Feb-2020 3134.51 5752.66 74.30 1.00  24.80 2647.81
   08:20:04.522.08-Feb-2020 3134.51 5753.07 74.30 1.00  25.00 2647.81
   08:20:04.722.08-Feb-2020 3134.51 5753.07 74.30 1.00  25.20 2647.81
   08:20:04.922.08-Feb-2020 3134.51 5754.21 74.30 1.00  25.40 2647.81
   08:20:05.122.08-Feb-2020 3134.51 5753.25 74.30 1.00  25.60 2647.81
   08:20:05.322.08-Feb-2020 3134.51 5755.72 74.30 1.00  25.80 2647.81
   08:20:05.522.08-Feb-2020 3134.51 5753.47 74.29 1.00  26.00 2647.81
   08:20:05.722.08-Feb-2020 3134.51 5753.47 74.29 1.00  26.20 2647.81
   08:20:05.922.08-Feb-2020 3134.51 5750.41 74.29 1.00  26.40 2647.81
   08:20:06.122.08-Feb-2020 3134.51 5757.49 74.29 1.00  26.60 2647.81
   08:20:06.322.08-Feb-2020 3134.51 5752.65 74.29 1.00  26.80 2647.81
   08:20:06.522.08-Feb-2020 3134.51 5751.31 74.29 1.00  27.00 2647.81
   08:20:06.722.08-Feb-2020 3134.51 5751.31 74.29 1.00  27.20 2647.81
   08:20:06.922.08-Feb-2020 3134.51 5752.49 74.29 1.00  27.40 2647.81
   08:20:07.122.08-Feb-2020 3134.51 5750.50 74.29 1.00  27.60 2647.81
   08:20:07.322.08-Feb-2020 3134.51 5749.90 74.29 1.00  27.80 2647.81
   08:20:07.522.08-Feb-2020 3134.51 5751.13 74.29 1.00  28.00 2647.81
   08:20:07.722.08-Feb-2020 3134.51 5751.13 74.29 1.00  28.20 2647.81
   08:20:07.922.08-Feb-2020 3134.51 5753.46 74.29 1.00  28.40 2647.81
   08:20:08.122.08-Feb-2020 3134.51 5752.13 74.29 1.00  28.60 2647.81
   08:20:08.322.08-Feb-2020 3134.51 5752.30 74.29 1.00  28.80 2647.81
   08:20:08.522.08-Feb-2020 3134.51 5753.12 74.29 1.00  29.00 2647.81
   08:20:08.722.08-Feb-2020 3134.51 5753.12 74.29 1.00  29.20 2647.81
   08:20:08.922.08-Feb-2020 3134.51 5753.10 74.28 1.00  29.40 2647.81
   08:20:09.122.08-Feb-2020 3134.51 5752.98 74.28 1.00  29.60 2647.81
   08:20:09.322.08-Feb-2020 3134.51 5752.61 74.28 1.00  29.80 2647.81
   08:20:09.522.08-Feb-2020 3134.51 5752.69 74.28 1.00  30.00 2647.81
   08:20:09.722.08-Feb-2020 3134.51 5752.69 74.28 1.00  30.20 2647.81
   08:20:09.922.08-Feb-2020 3134.51 5758.73 74.28 1.00  30.40 2647.81
   08:20:10.122.08-Feb-2020 3134.51 5751.97 74.28 1.00  30.60 2647.81
   08:20:10.322.08-Feb-2020 3134.51 5752.33 74.28 1.00  30.80 2647.81
   08:20:10.522.08-Feb-2020 3134.51 5753.33 74.28 1.00  31.00 2647.81
   08:20:10.722.08-Feb-2020 3134.51 5753.33 74.28 1.00  31.20 2647.81
   08:20:10.922.08-Feb-2020 3134.51 5754.26 74.28 1.00  31.40 2647.81
   08:20:11.122.08-Feb-2020 3134.51 5754.68 74.28 1.00  31.60 2647.81
   08:20:11.322.08-Feb-2020 3134.51 5754.27 74.28 1.00  31.80 2647.81
   08:20:11.522.08-Feb-2020 3134.51 5753.73 74.28 1.00  32.00 2647.81
   08:20:11.722.08-Feb-2020 3134.51 5753.73 74.28 1.00  32.20 2647.81
   08:20:11.922.08-Feb-2020 3134.51 5753.09 74.28 1.00  32.40 2647.81
   08:20:12.122.08-Feb-2020 3134.51 5757.39 74.27 1.00  32.60 2647.81
   08:20:12.322.08-Feb-2020 3134.51 5753.93 74.27 1.00  32.80 2647.81
   08:20:12.522.08-Feb-2020 3134.51 5752.55 74.27 1.00  33.00 2647.81
   08:20:12.722.08-Feb-2020 3134.51 5752.55 74.27 1.00  33.20 2647.81
   08:20:12.922.08-Feb-2020 3134.51 5755.93 74.27 1.00  33.40 2647.81
   08:20:13.122.08-Feb-2020 3134.51 5752.73 74.27 1.00  33.60 2647.81
   08:20:13.322.08-Feb-2020 3134.51 5753.09 74.27 1.00  33.80 2647.81
   08:20:13.522.08-Feb-2020 3134.51 5756.65 74.27 1.00  34.00 2647.81
   08:20:13.722.08-Feb-2020 3134.51 5756.65 74.27 1.00  34.20 2647.81
   08:20:13.922.08-Feb-2020 3134.51 5751.83 74.27 1.00  34.40 2647.81
   08:20:14.123.08-Feb-2020 3134.51 5752.81 74.27 1.00  34.60 2647.81
   08:20:14.323.08-Feb-2020 3134.51 5758.68 74.27 1.00  34.80 2647.81
   08:20:14.523.08-Feb-2020 3134.51 5754.05 74.27 1.00  35.00 2647.81
   08:20:14.723.08-Feb-2020 3134.51 5754.05 74.27 1.00  35.20 2647.81
   08:20:14.923.08-Feb-2020 3134.51 5752.68 74.27 1.00  35.40 2647.81
   08:20:15.123.08-Feb-2020 3134.51 5759.54 74.27 1.00  35.60 2647.81
   08:20:15.323.08-Feb-2020 3134.51 5755.64 74.27 1.00  35.80 2647.81
   08:20:15.523.08-Feb-2020 3134.51 5754.73 74.26 1.00  36.00 2647.81
   08:20:15.723.08-Feb-2020 3134.51 5754.73 74.26 1.00  36.20 2647.81
   08:20:15.923.08-Feb-2020 3134.51 5754.76 74.26 1.00  36.40 2647.81
   08:20:16.123.08-Feb-2020 3134.51 5755.16 74.26 1.00  36.60 2647.81
   08:20:16.323.08-Feb-2020 3134.51 5755.34 74.26 1.00  36.80 2647.81
   08:20:16.523.08-Feb-2020 3134.51 5754.52 74.26 1.00  37.00 2647.81
   08:20:16.723.08-Feb-2020 3134.51 5754.52 74.26 1.00  37.20 2647.81
   08:20:16.923.08-Feb-2020 3134.51 5753.43 74.26 1.00  37.40 2647.81
   08:20:17.123.08-Feb-2020 3134.51 5753.59 74.26 1.00  37.60 2647.81
   08:20:17.323.08-Feb-2020 3134.51 5757.80 74.26 1.00  37.80 2647.81
   08:20:17.523.08-Feb-2020 3134.51 5754.75 74.26 1.00  38.00 2647.81
   08:20:17.723.08-Feb-2020 3134.51 5754.75 74.26 1.00  38.20 2647.81
   08:20:17.923.08-Feb-2020 3134.51 5753.62 74.26 1.00  38.40 2647.81
   08:20:18.123.08-Feb-2020 3134.51 5754.19 74.26 1.00  38.60 2647.81
   08:20:18.323.08-Feb-2020 3134.51 5754.49 74.26 1.00  38.80 2647.81
   08:20:18.523.08-Feb-2020 3134.51 5753.97 74.26 1.00  39.00 2647.81
   08:20:18.723.08-Feb-2020 3134.51 5753.97 74.26 1.00  39.20 2647.81
   08:20:18.923.08-Feb-2020 3134.51 5753.48 74.25 1.00  39.40 2647.81
   08:20:19.123.08-Feb-2020 3134.51 5753.34 74.25 1.00  39.60 2647.81
   08:20:19.323.08-Feb-2020 3134.51 5752.77 74.25 1.00  39.80 2647.81
   08:20:19.523.08-Feb-2020 3134.51 5759.32 74.25 1.00  40.00 2647.81
   08:20:19.723.08-Feb-2020 3134.51 5759.32 74.25 1.00  40.20 2647.81
   08:20:19.923.08-Feb-2020 3134.51 5752.34 74.25 1.00  40.40 2647.81
   08:20:20.123.08-Feb-2020 3134.51 5752.33 74.25 1.00  40.60 2647.81
   08:20:20.323.08-Feb-2020 3134.51 5755.55 74.25 1.00  40.80 2647.81
   08:20:20.523.08-Feb-2020 3134.51 5703.91 74.25 1.00  41.00 2647.81
   08:20:20.723.08-Feb-2020 3134.51 5703.91 74.25 1.00  41.20 2647.81
   08:20:20.923.08-Feb-2020 3134.51 5545.93 74.25 1.00  41.40 2647.81
   08:20:21.123.08-Feb-2020 3134.51 5540.93 74.25 1.00  41.60 2647.81
   08:20:21.323.08-Feb-2020 3134.51 5492.39 74.25 1.00  41.80 2647.81
   08:20:21.523.08-Feb-2020 3134.51 5488.66 74.25 1.00  42.00 2647.81
   08:20:21.723.08-Feb-2020 3134.51 5488.66 74.25 1.00  42.20 2647.81
   08:20:21.923.08-Feb-2020 3134.51 5331.73 74.25 1.00  42.40 2647.81
   08:20:22.123.08-Feb-2020 3134.51 5284.20 74.24 1.00  42.60 2647.81
   08:20:22.323.08-Feb-2020 3134.51 5227.11 74.24 1.00  42.80 2647.81
   08:20:22.523.08-Feb-2020 3134.51 5216.47 74.24 1.00  43.00 2647.81
   08:20:22.723.08-Feb-2020 3134.51 5216.47 74.24 1.00  43.20 2647.81
   08:20:22.923.08-Feb-2020 3134.51 5237.33 74.24 1.00  43.40 2647.81
   08:20:23.123.08-Feb-2020 3134.51 5179.80 74.24 1.00  43.60 2647.81
   08:20:23.323.08-Feb-2020 3134.51 5139.02 74.24 1.00  43.80 2647.81
   08:20:23.523.08-Feb-2020 3134.51 5475.36 74.24 1.00  44.00 2647.81
   08:20:23.723.08-Feb-2020 3134.51 5475.36 74.24 1.00  44.20 2647.81
   08:20:23.923.08-Feb-2020 3134.51 5455.67 74.24 1.00  44.40 2647.81
   08:20:24.123.08-Feb-2020 3134.51 5630.25 74.24 1.00  44.60 2647.81
   08:20:24.323.08-Feb-2020 3134.51 5566.57 74.24 1.00  44.80 2647.81
   08:20:24.523.08-Feb-2020 3134.51 5549.82 74.23 1.00  45.00 2647.81
   08:20:24.723.08-Feb-2020 3134.51 5549.82 74.23 1.00  45.20 2647.81
   08:20:24.923.08-Feb-2020 3134.51 5447.90 74.23 1.00  45.40 2647.81
   08:20:25.123.08-Feb-2020 3134.51 5361.95 74.23 1.00  45.60 2647.81
   08:20:25.323.08-Feb-2020 3134.51 5353.69 74.23 1.00  45.80 2647.81
