~Version Information
 VERS.                  2.0:   CWLS log ASCII Standard -VERSION 2.0
 WRAP.                   NO:   One line per depth step
~Well Information Block
#MNEM.UNIT     VALUE/NAME     DESCRIPTION
#---------     -----------    ---------------------------
 STRT.S             12:03:05 08-Feb-20: START TIME 12:03:05 08-Feb-20
 STOP.S             12:09:57 08-Feb-20: STOP TIME  12:09:57 08-Feb-20
 STEP.S                   0.00: STEP TIME
 NULL.                 -999.25: NULL VALUE
 DFWT.                        :  DIST FWL TEXT
 DFST.                        :  DIST FSL TEXT
 DMF .             Drill Floor:  DRILL MEAS FROM
 STIM.      07.00.00 09-Jan-20:  START TIME
 DATE.      14.04.48 07-Feb-20:  END TIME
 SPUD.               09-Jan-20:  SPUD DATE
 NREF.                    Grid:  NORTH REFERENCE
 HPTY.       Minimum Curvature:  HOLE POS TYPE
 DMOD.             Drill Model:  DRILL MOD DESC
 SVYD.                  Survey:  SURVEY DESC
 ILTD.               Lithology:  INTERP LTH DESC
 FTOP.          Formation Tops:  FORM TOPS DESC
 SON .        AZ-XX-0905059384:  JOB NUMBER
 MDS .        Operator Entered:  MAG DATA SOURCE
 WTYP.                Deviated:  WELL TYPE
 COMP.     BP Exploration (Caspian Sea) Ltd.:  COMPANY
 UWI .                     N/A:  UNIQUE WELL IDENTIFIER
 API .                     N/A:  API NUMBER
 BASE.              Azerbaijan:  LOGGING EQUIPMENT BASE LOCATION
 REGN.                   EESSA:  REGION
 PROV.                    Baku:  PROVINCE
 STAT.                    Baku:  STATE NAME
 CTRY.              Azerbaijan:  COUNTRY NAME
 FLD .                     ACG:  FIELD NAME
 SRVC.     TURAN Drilling & Engineering:  CONTRACTOR
 MWDS.                    Baku:  MWD SHOP
 WELL.                     J22:  WELL NAME
 RIG .             West Chirag:  RIG NAME
 DOE .                     N/A:  DOE NUMBER
 DCON.         Sperry Drilling:  DIRECTNL CONTR
 UNIT.                     N/A:  LOGGING EQUIPMENT ID
 PDAT.          Mean Sea Level:  PERMANENT DATUM
 JOBN.        AZ-XX-0905059384:  JOB TICKET NUMB
 CNTY.                        :  COUNTY
 LOC .                        :  LOCATION
 LMF .             Drill Floor:  LOG MEASURED FROM
 TVDS.m                  43.00:  TVDSS CORRECTN
 LATI.deg                40.13:  LATITUDE
 LONG.deg                51.22:  LONGITUDE
 WHNS.m                  10.28:  WELL HEAD N/S
 WHEW.m                  -6.24:  WELL HEAD E/W
 UTMX.m              519005.06:  UTM X
 UTMY.m             4443793.85:  UTM Y
 DFWL.m                   0.00:  DISTANCE FWL
 DFSL.m                   0.00:  DISTANCE FSL
 SDEP.m                 362.00:  START DEPTH
 TDD .m                 904.00:  TOTAL DEPTH (DRILLER)
 VSDR.deg               148.53:  VERT SEC DIRECT
 GVFD.g                   1.00:  GRAVITY FIELD
 MFLD.nT              50277.00:  MAGNETIC FIELD
 MDIP.deg                59.56:  MAGNETIC DIP
 MDEC.deg                 6.42:  MAGNETIC DECL
 GRDC.deg                 0.15:  GRID CORRECTION
 AZTC.deg                 6.27:  AZM TOTAL CORR
 EPD .m                   0.00:  ELEVATION
 EGL .m                   0.00:  GROUND ELEVATION
 WDMS.m                 169.80:  WD ELEV
 APD .m                  43.00:  DEPTH ABOVE PD
 AGAP.m                  43.00:  AIR GAP
 VSEW.m                  -6.24:  VERT SEC E/W
 VSNS.m                  10.28:  VERT SEC N/S
 DEP .m                   0.00:  DEPTH
 EKB .m                   0.00:  KB ELEVATION
 EDF .m                  43.00:  DF ELEVATION
 TDL .m                1183.00:  TOTAL DEPTH (LOGGER)
 VSC .                       0:  VS TO CLOSURE
 MAGU.                 1850021:  MAGUTM CHECKSUM
~Parameter Information Block
#MNEM.UNIT       Value        Description
#---------     -----------    ---------------------------
 AV  .mps                 4.00:  Ann Velocity 
 AVMX.mps                 4.50:  Max Ann Veloc 
 AZIF.deg               145.38:  Azm, Final 
 BHAT.        Rotary Steerable:  BHA Type 
 BROT.°/30m               3.00:  Build Rotating 
 BS  .in                 12.25:  Bit Size 
 BSZ .in                 12.25:  Bit Size 
 BTPL.psig              650.00:  Bit Press Loss 
 CABU.                      No:  Customer Abuse 
 COMM.                     ÌSf:  Run Comments 1 
 TCS .hr                101.62:  Time Ciculation Ended 
 CV  .mps                 5.00:  Crit Velocity 
 CVMX.mps                 5.00:  Max Crit Veloc 
 DD1 .             Aziz Aliyev:  Direct Drillr 1 
 DD2 .      Fakhraddin Guliyev:  Direct Drillr 2 
 DDSV.                 iCruise:  DD Service 
 DEFF.%                  97.00:  % Det Eff 
 DLRX.°/30m               4.16:  Dogleg Rot Max 
 DLSO.°/30m               3.20:  Dogleg Oriented 
 DLSX.°/30m               4.10:  Dogleg Str Max 
 DRET.      23.12.00 07-Feb-20:  Drill End Time 
 DRST.      11.30.00 04-Feb-20:  Drill Start Tim 
 DTIM.hr                 61.06:  Time Drilling 
 EDEP.m                3219.01:  End Depth 
 ENG1.         Almaz Almadatov:  Engineer 1 
 ENG2.         Dair Mahammadov:  Engineer 2 
 ENG3.          Nazrin Asgarli:  Engineer 3 
 ETIM.      02.30.00 11-Feb-20:  End Time 
 FLOI.gpm              1100.00:  Flow In 
 FLON.gpm               900.00:  Flow In Min 
 FLOS.cptm               55.00:  Fluid Loss 
 FLOX.gpm              1150.00:  Flow In Max 
 FTRO.       Formation Presure:  FTWD Run Obj 
 HFLO.                      No:  High Flow 
 HPRE.                      No:  High Pressure 
 HTEM.                      No:  High Temp 
 HYDO.m                   1.80:  Hydro Offset 
 IFIN.deg                75.11:  Inc, Final 
 IMAX.deg                75.11:  Inc Max 
 IMIN.deg                33.55:  Inc Min 
 IMND.m                2186.05:  Inc Min Depth 
 IMXD.m                3205.61:  Inc Max Depth 
 JARR.                      No:  Jarring 
 LETM.      23.12.00 07-Feb-20:  Log End Time 
 LOST.hr                     0:  Lost Rig Time 
 LSTM.      11.30.00 04-Feb-20:  Log Start Time 
 MDCL.ppm             40000.00:  Mud Chlorides 
 MDES.     Inversion Oil/Synthetic:  Mud Desc 
 DFD .sg                  1.49:  Mud Density 
 MDMN.sg                  1.49:  Dens Mud Min 
 MDMX.sg                  1.49:  Dens Mud Max 
 MOIL.                      73:  Run Mud Oil % 
 MOWR.                   73:27:  Run Mud OWR 
 MSND.                     0.1:  Run Mud Sand % 
 MSOL.                    20.1:  Run Mud Solids% 
 DFV .spqt               78.00:  Mud Viscosity 
 MWOD.in                  8.00:  MWD Tool OD 
 MWSI.                      No:  Serv Intrp, MWD 
 OTIM.hr                177.15:  Time Operating 
 PCON.          Wear / Scratch:  Pad Condition 
 PMAX.psia            10493.93:  Press Op, Max 
 PV  .cP                 73.00:  Mud PV 
 RUN .                     700:  Run Number 
 ROPA.m/hr               15.00:  ROP Avg 
 ROPN.m/hr               10.00:  ROP Min 
 ROPX.m/hr               35.00:  ROP Max 
 RPMA.rpm               130.00:  RPM Surface Avg 
 RPMN.rpm                80.00:  RPM Surface Min 
 RPMX.rpm               150.00:  RPM Surface Max 
 RRUN.                    L402:  Rig Run Number 
 RTIM.hr                 80.50:  Time Reaming 
 SAZI.deg               155.55:  Azm, Start 
 SDEP.m                2036.00:  Start Depth 
 SIDD.                      No:  Serv Intrp, DD 
 SINC.deg                35.44:  Inc, Start 
 SPPA.psig             4270.00:  SPP Avg 
 SPPN.psig             2800.00:  SPP Min 
 SPPX.psig             4850.00:  SPP Max 
 STIM.      09.30.00 03-Feb-20:  Start Time 
 SVCS.                 DD, MWD:  Services 
 SVER.                    9.20:  Sperry Version 
 TDAT.m                1183.00:  Tot Depth Attmp 
 TDDF.                      No:  Trip for DD 
 TDLG.m                1183.00:  Tot Depth Loggd 
 TFF .                      No:  Trip for Fail 
 TQAA.f-kp               16.00:  Torque Abs Avg 
 TQAN.f-kp               10.00:  Torque Abs Min 
 TQAX.f-kp               20.00:  Torque Abs Max 
 TRRT.°/30m               1.00:  Turn Rotating 
 MRT .                  EWR-M5:  Maximum Recorded Temperature 
 TTMX.degC               80.39:  Max Tool Temp 
 VS01.               13098498 :  Virtual Str1 SN 
 VS02.                90569596:  Virtual Str2 SN 
 VS03.                90523599:  Virtual Str3 SN 
 VS04.                90573553:  Virtual Str4 SN 
 VS05.                90598598:  Virtual Str5 SN 
 VS06.                90577297:  Virtual Str6 SN 
 WBMN.klb                13.00:  WOB Min 
 WITN.         Alistair Sprott:  Customer Rep 
 WITN.           Rufat Babayev:  Customer Rep 2 
 WOBA.klb                15.00:  WOB Avg 
 WOBX.klb                20.00:  WOB Max 
 YP  .lhf2               39.00:  Yield Point 
~Curve Information Block
#MNEM.UNIT                 API CODE     Curve Description
#---------               -----------    ---------------------------
 TIME.HHMMSS            00 000 000 000:  GT Time & Date
 GTDEPTH.m              00 000 000 000:  GT Depth
 GTPQH.psia             00 000 000 000:  GT HR Quartz Pressure
 GTTQ.degC              00 000 000 000:  GT Quartz Temperature
 GTTN.NONE              00 000 000 000:  GT Test Number
 GTET.sec               00 000 000 000:  GT Elapsed Test Time
 GTTVD.m                00 000 000 000:  GT True Vertical Depth
#Other Information
#
#WARRANTY: Halliburton will use its best efforts to furnish customers with 
#accurate information and interpretations that are part of, and incident to, the services 
#provided.  However, Halliburton cannot and does not warrant the accuracy 
#or correctness of such information and interpretations.  Under no circumstances should any 
#such information or interpretation be relied upon as the sole basis for any drilling, 
#completion, production, or financial decision or any procedure involving any risk to the 
#safety of any drilling venture, drilling rig or its crew or any other third party.  The 
#Customer has full responsibility for all drilling, completion and production operation.  
#Halliburton makes no representations or warranties, either expressed or 
#implied, including, but not limited to, the implied warranties of merchantability or fitness 
#for a particular purpose, with respect to the services rendered.  In no event will 
#Halliburton be liable for failure to obtain any particular results or for 
#any damages, including, but not limited to, indirect, special or consequential damages, 
#resulting from the use of any information or interpretation provided by Halliburton.
#
~A           TIME           GTDEPTH  GTPQH  GTTQ  GTTN  GTET   GTTVD  
# ...
   12:05:46.000.08-Feb-2020 3069.01 4759.53 66.13 7.00 161.00 2627.56
   12:05:46.200.08-Feb-2020 3069.01 4759.53 66.13 7.00 161.20 2627.56
   12:05:46.400.08-Feb-2020 3069.01 4760.92 66.13 7.00 161.40 2627.56
   12:05:46.600.08-Feb-2020 3069.01 4761.10 66.13 7.00 161.60 2627.56
   12:05:46.800.08-Feb-2020 3069.01 4761.75 66.13 7.00 161.80 2627.56
   12:05:47.000.08-Feb-2020 3069.01 4762.23 66.13 7.00 162.00 2627.56
   12:05:47.200.08-Feb-2020 3069.01 4762.23 66.13 7.00 162.20 2627.56
   12:05:47.400.08-Feb-2020 3069.01 4763.25 66.13 7.00 162.40 2627.56
   12:05:47.600.08-Feb-2020 3069.01 4763.58 66.13 7.00 162.60 2627.56
   12:05:47.800.08-Feb-2020 3069.01 4764.01 66.13 7.00 162.80 2627.56
   12:05:48.000.08-Feb-2020 3069.01 4764.47 66.13 7.00 163.00 2627.56
   12:05:48.200.08-Feb-2020 3069.01 4764.47 66.13 7.00 163.20 2627.56
   12:05:48.400.08-Feb-2020 3069.01 4765.09 66.13 7.00 163.40 2627.56
   12:05:48.600.08-Feb-2020 3069.01 4766.29 66.13 7.00 163.60 2627.56
   12:05:48.800.08-Feb-2020 3069.01 4766.78 66.13 7.00 163.80 2627.56
   12:05:49.000.08-Feb-2020 3069.01 4767.11 66.13 7.00 164.00 2627.56
   12:05:49.200.08-Feb-2020 3069.01 4767.11 66.13 7.00 164.20 2627.56
   12:05:49.400.08-Feb-2020 3069.01 4768.05 66.13 7.00 164.40 2627.56
   12:05:49.600.08-Feb-2020 3069.01 4768.49 66.13 7.00 164.60 2627.56
   12:05:49.800.08-Feb-2020 3069.01 4768.96 66.13 7.00 164.80 2627.56
   12:05:50.000.08-Feb-2020 3069.01 4769.34 66.13 7.00 165.00 2627.56
   12:05:50.200.08-Feb-2020 3069.01 4769.34 66.13 7.00 165.20 2627.56
   12:05:50.400.08-Feb-2020 3069.01 4770.59 66.13 7.00 165.40 2627.56
   12:05:50.600.08-Feb-2020 3069.01 4770.72 66.13 7.00 165.60 2627.56
   12:05:50.800.08-Feb-2020 3069.01 4771.27 66.13 7.00 165.80 2627.56
   12:05:51.000.08-Feb-2020 3069.01 4772.20 66.13 7.00 166.00 2627.56
   12:05:51.200.08-Feb-2020 3069.01 4772.20 66.13 7.00 166.20 2627.56
   12:05:51.400.08-Feb-2020 3069.01 4772.79 66.13 7.00 166.40 2627.56
   12:05:51.600.08-Feb-2020 3069.01 3608.76 66.13 7.00 166.60 2627.56
   12:05:51.800.08-Feb-2020 3069.01 1892.39 66.12 7.00 166.80 2627.56
   12:05:52.000.08-Feb-2020 3069.01 1738.06 66.12 7.00 167.00 2627.56
   12:05:52.200.08-Feb-2020 3069.01 1738.06 66.12 7.00 167.20 2627.56
   12:05:52.400.08-Feb-2020 3069.01 1524.53 66.12 7.00 167.40 2627.56
   12:05:52.600.08-Feb-2020 3069.01 1412.45 66.12 7.00 167.60 2627.56
   12:05:52.800.08-Feb-2020 3069.01 1307.27 66.12 7.00 167.80 2627.56
   12:05:53.000.08-Feb-2020 3069.01 1205.01 66.12 7.00 168.00 2627.56
   12:05:53.200.08-Feb-2020 3069.01 1205.01 66.12 7.00 168.20 2627.56
   12:05:53.400.08-Feb-2020 3069.01 1008.85 66.11 7.00 168.40 2627.56
   12:05:53.600.08-Feb-2020 3069.01  914.85 66.11 7.00 168.60 2627.56
   12:05:53.800.08-Feb-2020 3069.01  825.14 66.11 7.00 168.80 2627.56
   12:05:54.000.08-Feb-2020 3069.01  744.04 66.11 7.00 169.00 2627.56
   12:05:54.200.08-Feb-2020 3069.01  744.04 66.11 7.00 169.20 2627.56
   12:05:54.400.08-Feb-2020 3069.01  586.73 66.10 7.00 169.40 2627.56
   12:05:54.600.08-Feb-2020 3069.01  508.51 66.10 7.00 169.60 2627.56
   12:05:54.800.08-Feb-2020 3069.01  429.30 66.09 7.00 169.80 2627.56
   12:05:55.000.08-Feb-2020 3069.01  354.64 66.09 7.00 170.00 2627.56
   12:05:55.200.08-Feb-2020 3069.01  354.64 66.09 7.00 170.20 2627.56
   12:05:55.400.08-Feb-2020 3069.01  248.28 66.08 7.00 170.40 2627.56
   12:05:55.600.08-Feb-2020 3069.01  185.39 66.08 7.00 170.60 2627.56
   12:05:55.800.08-Feb-2020 3069.01  170.60 66.08 7.00 170.80 2627.56
   12:05:56.000.08-Feb-2020 3069.01  155.72 66.07 7.00 171.00 2627.56
   12:05:56.200.08-Feb-2020 3069.01  155.72 66.07 7.00 171.20 2627.56
   12:05:56.400.08-Feb-2020 3069.01  124.36 66.07 7.00 171.40 2627.56
   12:05:56.600.08-Feb-2020 3069.01  112.90 66.06 7.00 171.60 2627.56
   12:05:56.800.08-Feb-2020 3069.01  105.97 66.06 7.00 171.80 2627.56
   12:05:57.000.08-Feb-2020 3069.01  101.31 66.06 7.00 172.00 2627.56
   12:05:57.200.08-Feb-2020 3069.01  101.31 66.06 7.00 172.20 2627.56
   12:05:57.400.08-Feb-2020 3069.01   95.48 66.05 7.00 172.40 2627.56
   12:05:57.600.08-Feb-2020 3069.01   93.71 66.05 7.00 172.60 2627.56
   12:05:57.800.08-Feb-2020 3069.01   92.29 66.04 7.00 172.80 2627.56
   12:05:58.000.08-Feb-2020 3069.01   91.07 66.04 7.00 173.00 2627.56
   12:05:58.200.08-Feb-2020 3069.01   91.07 66.04 7.00 173.20 2627.56
   12:05:58.400.08-Feb-2020 3069.01   89.76 66.03 7.00 173.40 2627.56
   12:05:58.600.08-Feb-2020 3069.01   89.34 66.03 7.00 173.60 2627.56
   12:05:58.800.08-Feb-2020 3069.01   89.01 66.03 7.00 173.80 2627.56
   12:05:59.000.08-Feb-2020 3069.01   88.92 66.03 7.00 174.00 2627.56
   12:05:59.200.08-Feb-2020 3069.01   88.92 66.03 7.00 174.20 2627.56
   12:05:59.400.08-Feb-2020 3069.01   89.22 66.02 7.00 174.40 2627.56
   12:05:59.600.08-Feb-2020 3069.01   89.31 66.02 7.00 174.60 2627.56
   12:05:59.800.08-Feb-2020 3069.01   89.61 66.02 7.00 174.80 2627.56
   12:06:00.000.08-Feb-2020 3069.01   89.96 66.01 7.00 175.00 2627.56
   12:06:00.200.08-Feb-2020 3069.01   89.96 66.01 7.00 175.20 2627.56
   12:06:00.400.08-Feb-2020 3069.01   90.36 66.01 7.00 175.40 2627.56
   12:06:00.600.08-Feb-2020 3069.01   90.51 66.01 7.00 175.60 2627.56
   12:06:00.800.08-Feb-2020 3069.01   90.80 66.01 7.00 175.80 2627.56
   12:06:01.000.08-Feb-2020 3069.01   91.03 66.00 7.00 176.00 2627.56
   12:06:01.200.08-Feb-2020 3069.01   91.03 66.00 7.00 176.20 2627.56
   12:06:01.400.08-Feb-2020 3069.01   91.44 66.00 7.00 176.40 2627.56
   12:06:01.600.08-Feb-2020 3069.01   91.60 66.00 7.00 176.60 2627.56
   12:06:01.800.08-Feb-2020 3069.01   91.74 66.00 7.00 176.80 2627.56
   12:06:02.000.08-Feb-2020 3069.01   91.88 66.00 7.00 177.00 2627.56
   12:06:02.200.08-Feb-2020 3069.01   91.88 66.00 7.00 177.20 2627.56
   12:06:02.400.08-Feb-2020 3069.01   97.74 65.99 7.00 177.40 2627.56
   12:06:02.600.08-Feb-2020 3069.01  101.51 65.99 7.00 177.60 2627.56
   12:06:02.800.08-Feb-2020 3069.01  105.23 65.99 7.00 177.80 2627.56
   12:06:03.000.08-Feb-2020 3069.01  108.80 65.99 7.00 178.00 2627.56
   12:06:03.200.08-Feb-2020 3069.01  108.80 65.99 7.00 178.20 2627.56
   12:06:03.400.08-Feb-2020 3069.01  115.89 65.99 7.00 178.40 2627.56
   12:06:03.600.08-Feb-2020 3069.01  119.43 65.99 7.00 178.60 2627.56
   12:06:03.800.08-Feb-2020 3069.01  122.94 65.99 7.00 178.80 2627.56
   12:06:04.000.08-Feb-2020 3069.01  126.44 65.99 7.00 179.00 2627.56
   12:06:04.200.08-Feb-2020 3069.01  126.44 65.99 7.00 179.20 2627.56
   12:06:04.400.08-Feb-2020 3069.01  133.49 65.98 7.00 179.40 2627.56
   12:06:04.600.08-Feb-2020 3069.01  137.09 65.98 7.00 179.60 2627.56
   12:06:04.800.08-Feb-2020 3069.01  140.74 65.98 7.00 179.80 2627.56
   12:06:05.000.08-Feb-2020 3069.01  144.34 65.98 7.00 180.00 2627.56
   12:06:05.200.08-Feb-2020 3069.01  144.34 65.98 7.00 180.20 2627.56
   12:06:05.400.08-Feb-2020 3069.01  151.81 65.98 7.00 180.40 2627.56
   12:06:05.600.08-Feb-2020 3069.01  155.58 65.98 7.00 180.60 2627.56
   12:06:05.800.08-Feb-2020 3069.01  159.40 65.98 7.00 180.80 2627.56
   12:06:06.000.08-Feb-2020 3069.01  163.38 65.98 7.00 181.00 2627.56
   12:06:06.200.08-Feb-2020 3069.01  163.38 65.98 7.00 181.20 2627.56
   12:06:06.400.08-Feb-2020 3069.01  171.34 65.98 7.00 181.40 2627.56
   12:06:06.600.08-Feb-2020 3069.01  175.48 65.98 7.00 181.60 2627.56
   12:06:06.800.08-Feb-2020 3069.01  179.83 65.98 7.00 181.80 2627.56
   12:06:07.000.08-Feb-2020 3069.01  184.10 65.98 7.00 182.00 2627.56
   12:06:07.200.08-Feb-2020 3069.01  184.10 65.98 7.00 182.20 2627.56
   12:06:07.400.08-Feb-2020 3069.01  193.08 65.98 7.00 182.40 2627.56
   12:06:07.600.08-Feb-2020 3069.01  197.76 65.98 7.00 182.60 2627.56
   12:06:07.800.08-Feb-2020 3069.01  202.65 65.98 7.00 182.80 2627.56
   12:06:08.000.08-Feb-2020 3069.01  207.58 65.98 7.00 183.00 2627.56
   12:06:08.200.08-Feb-2020 3069.01  207.58 65.98 7.00 183.20 2627.56
   12:06:08.400.08-Feb-2020 3069.01  217.95 65.98 7.00 183.40 2627.56
   12:06:08.600.08-Feb-2020 3069.01  223.41 65.98 7.00 183.60 2627.56
   12:06:08.800.08-Feb-2020 3069.01  229.05 65.98 7.00 183.80 2627.56
