~Version Information
 VERS.                  2.0:   CWLS log ASCII Standard -VERSION 2.0
 WRAP.                   NO:   One line per depth step
~Well Information Block
#MNEM.UNIT     VALUE/NAME     DESCRIPTION
#---------     -----------    ---------------------------
 STRT.S             09:27:25 08-Feb-20: START TIME 09:27:25 08-Feb-20
 STOP.S             09:34:14 08-Feb-20: STOP TIME  09:34:14 08-Feb-20
 STEP.S                   0.00: STEP TIME
 NULL.                 -999.25: NULL VALUE
 DFWT.                        :  DIST FWL TEXT
 DFST.                        :  DIST FSL TEXT
 DMF .             Drill Floor:  DRILL MEAS FROM
 STIM.      07.00.00 09-Jan-20:  START TIME
 DATE.      14.04.48 07-Feb-20:  END TIME
 SPUD.               09-Jan-20:  SPUD DATE
 NREF.                    Grid:  NORTH REFERENCE
 HPTY.       Minimum Curvature:  HOLE POS TYPE
 DMOD.             Drill Model:  DRILL MOD DESC
 SVYD.                  Survey:  SURVEY DESC
 ILTD.               Lithology:  INTERP LTH DESC
 FTOP.          Formation Tops:  FORM TOPS DESC
 SON .        AZ-XX-0905059384:  JOB NUMBER
 MDS .        Operator Entered:  MAG DATA SOURCE
 WTYP.                Deviated:  WELL TYPE
 COMP.     BP Exploration (Caspian Sea) Ltd.:  COMPANY
 UWI .                     N/A:  UNIQUE WELL IDENTIFIER
 API .                     N/A:  API NUMBER
 BASE.              Azerbaijan:  LOGGING EQUIPMENT BASE LOCATION
 REGN.                   EESSA:  REGION
 PROV.                    Baku:  PROVINCE
 STAT.                    Baku:  STATE NAME
 CTRY.              Azerbaijan:  COUNTRY NAME
 FLD .                     ACG:  FIELD NAME
 SRVC.     TURAN Drilling & Engineering:  CONTRACTOR
 MWDS.                    Baku:  MWD SHOP
 WELL.                     J22:  WELL NAME
 RIG .             West Chirag:  RIG NAME
 DOE .                     N/A:  DOE NUMBER
 DCON.         Sperry Drilling:  DIRECTNL CONTR
 UNIT.                     N/A:  LOGGING EQUIPMENT ID
 PDAT.          Mean Sea Level:  PERMANENT DATUM
 JOBN.        AZ-XX-0905059384:  JOB TICKET NUMB
 CNTY.                        :  COUNTY
 LOC .                        :  LOCATION
 LMF .             Drill Floor:  LOG MEASURED FROM
 TVDS.m                  43.00:  TVDSS CORRECTN
 LATI.deg                40.13:  LATITUDE
 LONG.deg                51.22:  LONGITUDE
 WHNS.m                  10.28:  WELL HEAD N/S
 WHEW.m                  -6.24:  WELL HEAD E/W
 UTMX.m              519005.06:  UTM X
 UTMY.m             4443793.85:  UTM Y
 DFWL.m                   0.00:  DISTANCE FWL
 DFSL.m                   0.00:  DISTANCE FSL
 SDEP.m                 362.00:  START DEPTH
 TDD .m                 904.00:  TOTAL DEPTH (DRILLER)
 VSDR.deg               148.53:  VERT SEC DIRECT
 GVFD.g                   1.00:  GRAVITY FIELD
 MFLD.nT              50277.00:  MAGNETIC FIELD
 MDIP.deg                59.56:  MAGNETIC DIP
 MDEC.deg                 6.42:  MAGNETIC DECL
 GRDC.deg                 0.15:  GRID CORRECTION
 AZTC.deg                 6.27:  AZM TOTAL CORR
 EPD .m                   0.00:  ELEVATION
 EGL .m                   0.00:  GROUND ELEVATION
 WDMS.m                 169.80:  WD ELEV
 APD .m                  43.00:  DEPTH ABOVE PD
 AGAP.m                  43.00:  AIR GAP
 VSEW.m                  -6.24:  VERT SEC E/W
 VSNS.m                  10.28:  VERT SEC N/S
 DEP .m                   0.00:  DEPTH
 EKB .m                   0.00:  KB ELEVATION
 EDF .m                  43.00:  DF ELEVATION
 TDL .m                1183.00:  TOTAL DEPTH (LOGGER)
 VSC .                       0:  VS TO CLOSURE
 MAGU.                 1850021:  MAGUTM CHECKSUM
~Parameter Information Block
#MNEM.UNIT       Value        Description
#---------     -----------    ---------------------------
 AV  .mps                 4.00:  Ann Velocity 
 AVMX.mps                 4.50:  Max Ann Veloc 
 AZIF.deg               145.38:  Azm, Final 
 BHAT.        Rotary Steerable:  BHA Type 
 BROT.∞/30m               3.00:  Build Rotating 
 BS  .in                 12.25:  Bit Size 
 BSZ .in                 12.25:  Bit Size 
 BTPL.psig              650.00:  Bit Press Loss 
 CABU.                      No:  Customer Abuse 
 COMM.                     $ÊW:  Run Comments 1 
 TCS .hr                101.62:  Time Ciculation Ended 
 CV  .mps                 5.00:  Crit Velocity 
 CVMX.mps                 5.00:  Max Crit Veloc 
 DD1 .             Aziz Aliyev:  Direct Drillr 1 
 DD2 .      Fakhraddin Guliyev:  Direct Drillr 2 
 DDSV.                 iCruise:  DD Service 
 DEFF.%                  97.00:  % Det Eff 
 DLRX.∞/30m               4.16:  Dogleg Rot Max 
 DLSO.∞/30m               3.20:  Dogleg Oriented 
 DLSX.∞/30m               4.10:  Dogleg Str Max 
 DRET.      23.12.00 07-Feb-20:  Drill End Time 
 DRST.      11.30.00 04-Feb-20:  Drill Start Tim 
 DTIM.hr                 61.06:  Time Drilling 
 EDEP.m                3219.01:  End Depth 
 ENG1.         Almaz Almadatov:  Engineer 1 
 ENG2.         Dair Mahammadov:  Engineer 2 
 ENG3.          Nazrin Asgarli:  Engineer 3 
 ETIM.      02.30.00 11-Feb-20:  End Time 
 FLOI.gpm              1100.00:  Flow In 
 FLON.gpm               900.00:  Flow In Min 
 FLOS.cptm               55.00:  Fluid Loss 
 FLOX.gpm              1150.00:  Flow In Max 
 FTRO.       Formation Presure:  FTWD Run Obj 
 HFLO.                      No:  High Flow 
 HPRE.                      No:  High Pressure 
 HTEM.                      No:  High Temp 
 HYDO.m                   1.80:  Hydro Offset 
 IFIN.deg                75.11:  Inc, Final 
 IMAX.deg                75.11:  Inc Max 
 IMIN.deg                33.55:  Inc Min 
 IMND.m                2186.05:  Inc Min Depth 
 IMXD.m                3205.61:  Inc Max Depth 
 JARR.                      No:  Jarring 
 LETM.      23.12.00 07-Feb-20:  Log End Time 
 LOST.hr                     0:  Lost Rig Time 
 LSTM.      11.30.00 04-Feb-20:  Log Start Time 
 MDCL.ppm             40000.00:  Mud Chlorides 
 MDES.     Inversion Oil/Synthetic:  Mud Desc 
 DFD .sg                  1.49:  Mud Density 
 MDMN.sg                  1.49:  Dens Mud Min 
 MDMX.sg                  1.49:  Dens Mud Max 
 MOIL.                      73:  Run Mud Oil % 
 MOWR.                   73:27:  Run Mud OWR 
 MSND.                     0.1:  Run Mud Sand % 
 MSOL.                    20.1:  Run Mud Solids% 
 DFV .spqt               78.00:  Mud Viscosity 
 MWOD.in                  8.00:  MWD Tool OD 
 MWSI.                      No:  Serv Intrp, MWD 
 OTIM.hr                177.15:  Time Operating 
 PCON.          Wear / Scratch:  Pad Condition 
 PMAX.psia            10493.93:  Press Op, Max 
 PV  .cP                 73.00:  Mud PV 
 RUN .                     700:  Run Number 
 ROPA.m/hr               15.00:  ROP Avg 
 ROPN.m/hr               10.00:  ROP Min 
 ROPX.m/hr               35.00:  ROP Max 
 RPMA.rpm               130.00:  RPM Surface Avg 
 RPMN.rpm                80.00:  RPM Surface Min 
 RPMX.rpm               150.00:  RPM Surface Max 
 RRUN.                    L402:  Rig Run Number 
 RTIM.hr                 80.50:  Time Reaming 
 SAZI.deg               155.55:  Azm, Start 
 SDEP.m                2036.00:  Start Depth 
 SIDD.                      No:  Serv Intrp, DD 
 SINC.deg                35.44:  Inc, Start 
 SPPA.psig             4270.00:  SPP Avg 
 SPPN.psig             2800.00:  SPP Min 
 SPPX.psig             4850.00:  SPP Max 
 STIM.      09.30.00 03-Feb-20:  Start Time 
 SVCS.                 DD, MWD:  Services 
 SVER.                    9.20:  Sperry Version 
 TDAT.m                1183.00:  Tot Depth Attmp 
 TDDF.                      No:  Trip for DD 
 TDLG.m                1183.00:  Tot Depth Loggd 
 TFF .                      No:  Trip for Fail 
 TQAA.f-kp               16.00:  Torque Abs Avg 
 TQAN.f-kp               10.00:  Torque Abs Min 
 TQAX.f-kp               20.00:  Torque Abs Max 
 TRRT.∞/30m               1.00:  Turn Rotating 
 MRT .                  EWR-M5:  Maximum Recorded Temperature 
 TTMX.degC               80.39:  Max Tool Temp 
 VS01.               13098498 :  Virtual Str1 SN 
 VS02.                90569596:  Virtual Str2 SN 
 VS03.                90523599:  Virtual Str3 SN 
 VS04.                90573553:  Virtual Str4 SN 
 VS05.                90598598:  Virtual Str5 SN 
 VS06.                90577297:  Virtual Str6 SN 
 WBMN.klb                13.00:  WOB Min 
 WITN.         Alistair Sprott:  Customer Rep 
 WITN.           Rufat Babayev:  Customer Rep 2 
 WOBA.klb                15.00:  WOB Avg 
 WOBX.klb                20.00:  WOB Max 
 YP  .lhf2               39.00:  Yield Point 
~Curve Information Block
#MNEM.UNIT                 API CODE     Curve Description
#---------               -----------    ---------------------------
 TIME.HHMMSS            00 000 000 000:  GT Time & Date
 GTDEPTH.m              00 000 000 000:  GT Depth
 GTPQH.psia             00 000 000 000:  GT HR Quartz Pressure
 GTTQ.degC              00 000 000 000:  GT Quartz Temperature
 GTTN.NONE              00 000 000 000:  GT Test Number
 GTET.sec               00 000 000 000:  GT Elapsed Test Time
 GTTVD.m                00 000 000 000:  GT True Vertical Depth
#Other Information
#
#WARRANTY: Halliburton will use its best efforts to furnish customers with 
#accurate information and interpretations that are part of, and incident to, the services 
#provided.  However, Halliburton cannot and does not warrant the accuracy 
#or correctness of such information and interpretations.  Under no circumstances should any 
#such information or interpretation be relied upon as the sole basis for any drilling, 
#completion, production, or financial decision or any procedure involving any risk to the 
#safety of any drilling venture, drilling rig or its crew or any other third party.  The 
#Customer has full responsibility for all drilling, completion and production operation.  
#Halliburton makes no representations or warranties, either expressed or 
#implied, including, but not limited to, the implied warranties of merchantability or fitness 
#for a particular purpose, with respect to the services rendered.  In no event will 
#Halliburton be liable for failure to obtain any particular results or for 
#any damages, including, but not limited to, indirect, special or consequential damages, 
#resulting from the use of any information or interpretation provided by Halliburton.
#
~A           TIME           GTDEPTH  GTPQH  GTTQ  GTTN  GTET   GTTVD  
# ...
   09:30:52.878.08-Feb-2020 3135.01 4727.91 69.15 4.00 207.02 2647.94
   09:30:53.078.08-Feb-2020 3135.01 4727.91 69.15 4.00 207.22 2647.94
   09:30:53.278.08-Feb-2020 3135.01 4728.43 69.15 4.00 207.42 2647.94
   09:30:53.478.08-Feb-2020 3135.01 4727.40 69.15 4.00 207.62 2647.94
   09:30:53.678.08-Feb-2020 3135.01 4728.04 69.15 4.00 207.82 2647.94
   09:30:53.878.08-Feb-2020 3135.01 4728.17 69.15 4.00 208.02 2647.94
   09:30:54.078.08-Feb-2020 3135.01 4728.17 69.15 4.00 208.22 2647.94
   09:30:54.278.08-Feb-2020 3135.01 4727.94 69.15 4.00 208.42 2647.94
   09:30:54.478.08-Feb-2020 3135.01 4727.91 69.15 4.00 208.62 2647.94
   09:30:54.678.08-Feb-2020 3135.01 4727.73 69.15 4.00 208.82 2647.94
   09:30:54.878.08-Feb-2020 3135.01 4727.78 69.15 4.00 209.02 2647.94
   09:30:55.078.08-Feb-2020 3135.01 4727.78 69.15 4.00 209.22 2647.94
   09:30:55.278.08-Feb-2020 3135.01 4727.48 69.15 4.00 209.42 2647.94
   09:30:55.478.08-Feb-2020 3135.01 4728.96 69.15 4.00 209.62 2647.94
   09:30:55.678.08-Feb-2020 3135.01 4728.12 69.15 4.00 209.82 2647.94
   09:30:55.878.08-Feb-2020 3135.01 4727.70 69.15 4.00 210.02 2647.94
   09:30:56.078.08-Feb-2020 3135.01 4727.70 69.15 4.00 210.22 2647.94
   09:30:56.278.08-Feb-2020 3135.01 4728.10 69.15 4.00 210.42 2647.94
   09:30:56.478.08-Feb-2020 3135.01 4727.75 69.15 4.00 210.62 2647.94
   09:30:56.678.08-Feb-2020 3135.01 4727.87 69.15 4.00 210.82 2647.94
   09:30:56.878.08-Feb-2020 3135.01 4727.94 69.15 4.00 211.02 2647.94
   09:30:57.078.08-Feb-2020 3135.01 4727.94 69.15 4.00 211.22 2647.94
   09:30:57.278.08-Feb-2020 3135.01 4729.09 69.15 4.00 211.42 2647.94
   09:30:57.478.08-Feb-2020 3135.01 4727.40 69.15 4.00 211.62 2647.94
   09:30:57.678.08-Feb-2020 3135.01 4727.28 69.15 4.00 211.82 2647.94
   09:30:57.878.08-Feb-2020 3135.01 4729.08 69.15 4.00 212.02 2647.94
   09:30:58.078.08-Feb-2020 3135.01 4729.08 69.15 4.00 212.22 2647.94
   09:30:58.278.08-Feb-2020 3135.01 4727.61 69.15 4.00 212.42 2647.94
   09:30:58.478.08-Feb-2020 3135.01 4728.24 69.15 4.00 212.62 2647.94
   09:30:58.678.08-Feb-2020 3135.01 4727.61 69.15 4.00 212.82 2647.94
   09:30:58.878.08-Feb-2020 3135.01 4728.67 69.15 4.00 213.02 2647.94
   09:30:59.078.08-Feb-2020 3135.01 4728.67 69.15 4.00 213.22 2647.94
   09:30:59.278.08-Feb-2020 3135.01 4727.46 69.15 4.00 213.42 2647.94
   09:30:59.478.08-Feb-2020 3135.01 4728.76 69.15 4.00 213.62 2647.94
   09:30:59.678.08-Feb-2020 3135.01 4727.89 69.15 4.00 213.82 2647.94
   09:30:59.878.08-Feb-2020 3135.01 4727.52 69.15 4.00 214.02 2647.94
   09:31:00.078.08-Feb-2020 3135.01 4727.52 69.15 4.00 214.22 2647.94
   09:31:00.278.08-Feb-2020 3135.01 4728.42 69.15 4.00 214.42 2647.94
   09:31:00.478.08-Feb-2020 3135.01 4729.35 69.15 4.00 214.62 2647.94
   09:31:00.678.08-Feb-2020 3135.01 4727.09 69.15 4.00 214.82 2647.94
   09:31:00.878.08-Feb-2020 3135.01 4727.81 69.15 4.00 215.02 2647.94
   09:31:01.078.08-Feb-2020 3135.01 4727.81 69.15 4.00 215.22 2647.94
   09:31:01.278.08-Feb-2020 3135.01 4727.59 69.15 4.00 215.42 2647.94
   09:31:01.478.08-Feb-2020 3135.01 4728.28 69.15 4.00 215.62 2647.94
   09:31:01.678.08-Feb-2020 3135.01 4728.37 69.15 4.00 215.82 2647.94
   09:31:01.878.08-Feb-2020 3135.01 4727.68 69.15 4.00 216.02 2647.94
   09:31:02.078.08-Feb-2020 3135.01 4727.68 69.15 4.00 216.22 2647.94
   09:31:02.278.08-Feb-2020 3135.01 4728.27 69.15 4.00 216.42 2647.94
   09:31:02.478.08-Feb-2020 3135.01 4728.12 69.15 4.00 216.62 2647.94
   09:31:02.678.08-Feb-2020 3135.01 4728.81 69.15 4.00 216.82 2647.94
   09:31:02.878.08-Feb-2020 3135.01 4728.45 69.15 4.00 217.02 2647.94
   09:31:03.078.08-Feb-2020 3135.01 4728.45 69.15 4.00 217.22 2647.94
   09:31:03.278.08-Feb-2020 3135.01 4727.79 69.15 4.00 217.42 2647.94
   09:31:03.478.08-Feb-2020 3135.01 4728.69 69.15 4.00 217.62 2647.94
   09:31:03.679.08-Feb-2020 3135.01 4728.13 69.15 4.00 217.82 2647.94
   09:31:03.879.08-Feb-2020 3135.01 4727.70 69.15 4.00 218.02 2647.94
   09:31:04.079.08-Feb-2020 3135.01 4727.70 69.15 4.00 218.22 2647.94
   09:31:04.279.08-Feb-2020 3135.01 4727.96 69.15 4.00 218.42 2647.94
   09:31:04.479.08-Feb-2020 3135.01 4727.75 69.15 4.00 218.62 2647.94
   09:31:04.679.08-Feb-2020 3135.01 4727.87 69.15 4.00 218.82 2647.94
   09:31:04.879.08-Feb-2020 3135.01 4727.84 69.15 4.00 219.02 2647.94
   09:31:05.079.08-Feb-2020 3135.01 4727.84 69.15 4.00 219.22 2647.94
   09:31:05.279.08-Feb-2020 3135.01 4728.35 69.15 4.00 219.42 2647.94
   09:31:05.479.08-Feb-2020 3135.01 4727.35 69.15 4.00 219.62 2647.94
   09:31:05.679.08-Feb-2020 3135.01 4728.69 69.15 4.00 219.82 2647.94
   09:31:05.879.08-Feb-2020 3135.01 4728.26 69.15 4.00 220.02 2647.94
   09:31:06.079.08-Feb-2020 3135.01 4728.26 69.15 4.00 220.22 2647.94
   09:31:06.279.08-Feb-2020 3135.01 4727.36 69.15 4.00 220.42 2647.94
   09:31:06.479.08-Feb-2020 3135.01 4727.66 69.15 4.00 220.62 2647.94
   09:31:06.679.08-Feb-2020 3135.01 4728.16 69.15 4.00 220.82 2647.94
   09:31:06.879.08-Feb-2020 3135.01 4728.06 69.15 4.00 221.02 2647.94
   09:31:07.079.08-Feb-2020 3135.01 4728.06 69.15 4.00 221.22 2647.94
   09:31:07.279.08-Feb-2020 3135.01 4727.23 69.15 4.00 221.42 2647.94
   09:31:07.479.08-Feb-2020 3135.01 4727.77 69.15 4.00 221.62 2647.94
   09:31:07.679.08-Feb-2020 3135.01 4728.14 69.15 4.00 221.82 2647.94
   09:31:07.879.08-Feb-2020 3135.01 4727.37 69.15 4.00 222.02 2647.94
   09:31:08.079.08-Feb-2020 3135.01 4727.37 69.15 4.00 222.22 2647.94
   09:31:08.279.08-Feb-2020 3135.01 4728.37 69.15 4.00 222.42 2647.94
   09:31:08.479.08-Feb-2020 3135.01 4727.74 69.15 4.00 222.62 2647.94
   09:31:08.679.08-Feb-2020 3135.01 4728.13 69.15 4.00 222.82 2647.94
   09:31:08.879.08-Feb-2020 3135.01 4728.32 69.15 4.00 223.02 2647.94
   09:31:09.079.08-Feb-2020 3135.01 4728.32 69.15 4.00 223.22 2647.94
   09:31:09.279.08-Feb-2020 3135.01 4727.94 69.15 4.00 223.42 2647.94
   09:31:09.479.08-Feb-2020 3135.01 4727.98 69.15 4.00 223.62 2647.94
   09:31:09.679.08-Feb-2020 3135.01 4727.86 69.15 4.00 223.82 2647.94
   09:31:09.879.08-Feb-2020 3135.01 4727.94 69.15 4.00 224.02 2647.94
   09:31:10.079.08-Feb-2020 3135.01 4727.94 69.15 4.00 224.22 2647.94
   09:31:10.279.08-Feb-2020 3135.01 4727.68 69.15 4.00 224.42 2647.94
   09:31:10.479.08-Feb-2020 3135.01 4728.56 69.15 4.00 224.62 2647.94
   09:31:10.679.08-Feb-2020 3135.01 4728.25 69.15 4.00 224.82 2647.94
   09:31:10.879.08-Feb-2020 3135.01 4727.62 69.15 4.00 225.02 2647.94
   09:31:11.079.08-Feb-2020 3135.01 4727.62 69.15 4.00 225.22 2647.94
   09:31:11.279.08-Feb-2020 3135.01 4728.12 69.15 4.00 225.42 2647.94
   09:31:11.479.08-Feb-2020 3135.01 4727.91 69.15 4.00 225.62 2647.94
   09:31:11.679.08-Feb-2020 3135.01 4727.99 69.15 4.00 225.82 2647.94
   09:31:11.879.08-Feb-2020 3135.01 4728.05 69.15 4.00 226.02 2647.94
   09:31:12.079.08-Feb-2020 3135.01 4728.05 69.15 4.00 226.22 2647.94
   09:31:12.279.08-Feb-2020 3135.01 4728.01 69.15 4.00 226.42 2647.94
   09:31:12.479.08-Feb-2020 3135.01 4728.15 69.15 4.00 226.62 2647.94
   09:31:12.679.08-Feb-2020 3135.01 4728.32 69.15 4.00 226.82 2647.94
   09:31:12.879.08-Feb-2020 3135.01 4728.07 69.15 4.00 227.02 2647.94
   09:31:13.079.08-Feb-2020 3135.01 4728.07 69.15 4.00 227.22 2647.94
   09:31:13.279.08-Feb-2020 3135.01 4727.70 69.15 4.00 227.42 2647.94
   09:31:13.479.08-Feb-2020 3135.01 4728.87 69.15 4.00 227.62 2647.94
   09:31:13.679.08-Feb-2020 3135.01 4727.72 69.15 4.00 227.82 2647.94
   09:31:13.879.08-Feb-2020 3135.01 4728.38 69.15 4.00 228.02 2647.94
   09:31:14.079.08-Feb-2020 3135.01 4728.38 69.15 4.00 228.22 2647.94
   09:31:14.279.08-Feb-2020 3135.01 4728.16 69.15 4.00 228.42 2647.94
   09:31:14.479.08-Feb-2020 3135.01 4728.53 69.15 4.00 228.62 2647.94
   09:31:14.679.08-Feb-2020 3135.01 4728.21 69.15 4.00 228.82 2647.94
   09:31:14.879.08-Feb-2020 3135.01 4727.60 69.15 4.00 229.02 2647.94
   09:31:15.079.08-Feb-2020 3135.01 4727.60 69.15 4.00 229.22 2647.94
   09:31:15.279.08-Feb-2020 3135.01 4728.58 69.15 4.00 229.42 2647.94
   09:31:15.479.08-Feb-2020 3135.01 4727.85 69.14 4.00 229.62 2647.94
   09:31:15.680.08-Feb-2020 3135.01 4728.85 69.14 4.00 229.82 2647.94
