~Version Information
 VERS.                  2.0:   CWLS log ASCII Standard -VERSION 2.0
 WRAP.                   NO:   One line per depth step
~Well Information Block
#MNEM.UNIT     VALUE/NAME     DESCRIPTION
#---------     -----------    ---------------------------
 STRT.S             11:02:51 08-Feb-20: START TIME 11:02:51 08-Feb-20
 STOP.S             11:09:43 08-Feb-20: STOP TIME  11:09:43 08-Feb-20
 STEP.S                   0.00: STEP TIME
 NULL.                 -999.25: NULL VALUE
 DFWT.                        :  DIST FWL TEXT
 DFST.                        :  DIST FSL TEXT
 DMF .             Drill Floor:  DRILL MEAS FROM
 STIM.      07.00.00 09-Jan-20:  START TIME
 DATE.      14.04.48 07-Feb-20:  END TIME
 SPUD.               09-Jan-20:  SPUD DATE
 NREF.                    Grid:  NORTH REFERENCE
 HPTY.       Minimum Curvature:  HOLE POS TYPE
 DMOD.             Drill Model:  DRILL MOD DESC
 SVYD.                  Survey:  SURVEY DESC
 ILTD.               Lithology:  INTERP LTH DESC
 FTOP.          Formation Tops:  FORM TOPS DESC
 SON .        AZ-XX-0905059384:  JOB NUMBER
 MDS .        Operator Entered:  MAG DATA SOURCE
 WTYP.                Deviated:  WELL TYPE
 COMP.     BP Exploration (Caspian Sea) Ltd.:  COMPANY
 UWI .                     N/A:  UNIQUE WELL IDENTIFIER
 API .                     N/A:  API NUMBER
 BASE.              Azerbaijan:  LOGGING EQUIPMENT BASE LOCATION
 REGN.                   EESSA:  REGION
 PROV.                    Baku:  PROVINCE
 STAT.                    Baku:  STATE NAME
 CTRY.              Azerbaijan:  COUNTRY NAME
 FLD .                     ACG:  FIELD NAME
 SRVC.     TURAN Drilling & Engineering:  CONTRACTOR
 MWDS.                    Baku:  MWD SHOP
 WELL.                     J22:  WELL NAME
 RIG .             West Chirag:  RIG NAME
 DOE .                     N/A:  DOE NUMBER
 DCON.         Sperry Drilling:  DIRECTNL CONTR
 UNIT.                     N/A:  LOGGING EQUIPMENT ID
 PDAT.          Mean Sea Level:  PERMANENT DATUM
 JOBN.        AZ-XX-0905059384:  JOB TICKET NUMB
 CNTY.                        :  COUNTY
 LOC .                        :  LOCATION
 LMF .             Drill Floor:  LOG MEASURED FROM
 TVDS.m                  43.00:  TVDSS CORRECTN
 LATI.deg                40.13:  LATITUDE
 LONG.deg                51.22:  LONGITUDE
 WHNS.m                  10.28:  WELL HEAD N/S
 WHEW.m                  -6.24:  WELL HEAD E/W
 UTMX.m              519005.06:  UTM X
 UTMY.m             4443793.85:  UTM Y
 DFWL.m                   0.00:  DISTANCE FWL
 DFSL.m                   0.00:  DISTANCE FSL
 SDEP.m                 362.00:  START DEPTH
 TDD .m                 904.00:  TOTAL DEPTH (DRILLER)
 VSDR.deg               148.53:  VERT SEC DIRECT
 GVFD.g                   1.00:  GRAVITY FIELD
 MFLD.nT              50277.00:  MAGNETIC FIELD
 MDIP.deg                59.56:  MAGNETIC DIP
 MDEC.deg                 6.42:  MAGNETIC DECL
 GRDC.deg                 0.15:  GRID CORRECTION
 AZTC.deg                 6.27:  AZM TOTAL CORR
 EPD .m                   0.00:  ELEVATION
 EGL .m                   0.00:  GROUND ELEVATION
 WDMS.m                 169.80:  WD ELEV
 APD .m                  43.00:  DEPTH ABOVE PD
 AGAP.m                  43.00:  AIR GAP
 VSEW.m                  -6.24:  VERT SEC E/W
 VSNS.m                  10.28:  VERT SEC N/S
 DEP .m                   0.00:  DEPTH
 EKB .m                   0.00:  KB ELEVATION
 EDF .m                  43.00:  DF ELEVATION
 TDL .m                1183.00:  TOTAL DEPTH (LOGGER)
 VSC .                       0:  VS TO CLOSURE
 MAGU.                 1850021:  MAGUTM CHECKSUM
~Parameter Information Block
#MNEM.UNIT       Value        Description
#---------     -----------    ---------------------------
 AV  .mps                 4.00:  Ann Velocity 
 AVMX.mps                 4.50:  Max Ann Veloc 
 AZIF.deg               145.38:  Azm, Final 
 BHAT.        Rotary Steerable:  BHA Type 
 BROT.°/30m               3.00:  Build Rotating 
 BS  .in                 12.25:  Bit Size 
 BSZ .in                 12.25:  Bit Size 
 BTPL.psig              650.00:  Bit Press Loss 
 CABU.                      No:  Customer Abuse 
 COMM.                     Ä%€:  Run Comments 1 
 TCS .hr                101.62:  Time Ciculation Ended 
 CV  .mps                 5.00:  Crit Velocity 
 CVMX.mps                 5.00:  Max Crit Veloc 
 DD1 .             Aziz Aliyev:  Direct Drillr 1 
 DD2 .      Fakhraddin Guliyev:  Direct Drillr 2 
 DDSV.                 iCruise:  DD Service 
 DEFF.%                  97.00:  % Det Eff 
 DLRX.°/30m               4.16:  Dogleg Rot Max 
 DLSO.°/30m               3.20:  Dogleg Oriented 
 DLSX.°/30m               4.10:  Dogleg Str Max 
 DRET.      23.12.00 07-Feb-20:  Drill End Time 
 DRST.      11.30.00 04-Feb-20:  Drill Start Tim 
 DTIM.hr                 61.06:  Time Drilling 
 EDEP.m                3219.01:  End Depth 
 ENG1.         Almaz Almadatov:  Engineer 1 
 ENG2.         Dair Mahammadov:  Engineer 2 
 ENG3.          Nazrin Asgarli:  Engineer 3 
 ETIM.      02.30.00 11-Feb-20:  End Time 
 FLOI.gpm              1100.00:  Flow In 
 FLON.gpm               900.00:  Flow In Min 
 FLOS.cptm               55.00:  Fluid Loss 
 FLOX.gpm              1150.00:  Flow In Max 
 FTRO.       Formation Presure:  FTWD Run Obj 
 HFLO.                      No:  High Flow 
 HPRE.                      No:  High Pressure 
 HTEM.                      No:  High Temp 
 HYDO.m                   1.80:  Hydro Offset 
 IFIN.deg                75.11:  Inc, Final 
 IMAX.deg                75.11:  Inc Max 
 IMIN.deg                33.55:  Inc Min 
 IMND.m                2186.05:  Inc Min Depth 
 IMXD.m                3205.61:  Inc Max Depth 
 JARR.                      No:  Jarring 
 LETM.      23.12.00 07-Feb-20:  Log End Time 
 LOST.hr                     0:  Lost Rig Time 
 LSTM.      11.30.00 04-Feb-20:  Log Start Time 
 MDCL.ppm             40000.00:  Mud Chlorides 
 MDES.     Inversion Oil/Synthetic:  Mud Desc 
 DFD .sg                  1.49:  Mud Density 
 MDMN.sg                  1.49:  Dens Mud Min 
 MDMX.sg                  1.49:  Dens Mud Max 
 MOIL.                      73:  Run Mud Oil % 
 MOWR.                   73:27:  Run Mud OWR 
 MSND.                     0.1:  Run Mud Sand % 
 MSOL.                    20.1:  Run Mud Solids% 
 DFV .spqt               78.00:  Mud Viscosity 
 MWOD.in                  8.00:  MWD Tool OD 
 MWSI.                      No:  Serv Intrp, MWD 
 OTIM.hr                177.15:  Time Operating 
 PCON.          Wear / Scratch:  Pad Condition 
 PMAX.psia            10493.93:  Press Op, Max 
 PV  .cP                 73.00:  Mud PV 
 RUN .                     700:  Run Number 
 ROPA.m/hr               15.00:  ROP Avg 
 ROPN.m/hr               10.00:  ROP Min 
 ROPX.m/hr               35.00:  ROP Max 
 RPMA.rpm               130.00:  RPM Surface Avg 
 RPMN.rpm                80.00:  RPM Surface Min 
 RPMX.rpm               150.00:  RPM Surface Max 
 RRUN.                    L402:  Rig Run Number 
 RTIM.hr                 80.50:  Time Reaming 
 SAZI.deg               155.55:  Azm, Start 
 SDEP.m                2036.00:  Start Depth 
 SIDD.                      No:  Serv Intrp, DD 
 SINC.deg                35.44:  Inc, Start 
 SPPA.psig             4270.00:  SPP Avg 
 SPPN.psig             2800.00:  SPP Min 
 SPPX.psig             4850.00:  SPP Max 
 STIM.      09.30.00 03-Feb-20:  Start Time 
 SVCS.                 DD, MWD:  Services 
 SVER.                    9.20:  Sperry Version 
 TDAT.m                1183.00:  Tot Depth Attmp 
 TDDF.                      No:  Trip for DD 
 TDLG.m                1183.00:  Tot Depth Loggd 
 TFF .                      No:  Trip for Fail 
 TQAA.f-kp               16.00:  Torque Abs Avg 
 TQAN.f-kp               10.00:  Torque Abs Min 
 TQAX.f-kp               20.00:  Torque Abs Max 
 TRRT.°/30m               1.00:  Turn Rotating 
 MRT .                  EWR-M5:  Maximum Recorded Temperature 
 TTMX.degC               80.39:  Max Tool Temp 
 VS01.               13098498 :  Virtual Str1 SN 
 VS02.                90569596:  Virtual Str2 SN 
 VS03.                90523599:  Virtual Str3 SN 
 VS04.                90573553:  Virtual Str4 SN 
 VS05.                90598598:  Virtual Str5 SN 
 VS06.                90577297:  Virtual Str6 SN 
 WBMN.klb                13.00:  WOB Min 
 WITN.         Alistair Sprott:  Customer Rep 
 WITN.           Rufat Babayev:  Customer Rep 2 
 WOBA.klb                15.00:  WOB Avg 
 WOBX.klb                20.00:  WOB Max 
 YP  .lhf2               39.00:  Yield Point 
~Curve Information Block
#MNEM.UNIT                 API CODE     Curve Description
#---------               -----------    ---------------------------
 TIME.HHMMSS            00 000 000 000:  GT Time & Date
 GTDEPTH.m              00 000 000 000:  GT Depth
 GTPQH.psia             00 000 000 000:  GT HR Quartz Pressure
 GTTQ.degC              00 000 000 000:  GT Quartz Temperature
 GTTN.NONE              00 000 000 000:  GT Test Number
 GTET.sec               00 000 000 000:  GT Elapsed Test Time
 GTTVD.m                00 000 000 000:  GT True Vertical Depth
#Other Information
#
#WARRANTY: Halliburton will use its best efforts to furnish customers with 
#accurate information and interpretations that are part of, and incident to, the services 
#provided.  However, Halliburton cannot and does not warrant the accuracy 
#or correctness of such information and interpretations.  Under no circumstances should any 
#such information or interpretation be relied upon as the sole basis for any drilling, 
#completion, production, or financial decision or any procedure involving any risk to the 
#safety of any drilling venture, drilling rig or its crew or any other third party.  The 
#Customer has full responsibility for all drilling, completion and production operation.  
#Halliburton makes no representations or warranties, either expressed or 
#implied, including, but not limited to, the implied warranties of merchantability or fitness 
#for a particular purpose, with respect to the services rendered.  In no event will 
#Halliburton be liable for failure to obtain any particular results or for 
#any damages, including, but not limited to, indirect, special or consequential damages, 
#resulting from the use of any information or interpretation provided by Halliburton.
#
~A           TIME           GTDEPTH  GTPQH  GTTQ  GTTN  GTET   GTTVD  
# ...
   11:08:36.622.08-Feb-2020 3115.78 4586.65 66.89 6.00 345.18 2642.62
   11:08:36.822.08-Feb-2020 3115.78 4586.65 66.89 6.00 345.38 2642.62
   11:08:37.022.08-Feb-2020 3115.78 4585.04 66.89 6.00 345.58 2642.62
   11:08:37.222.08-Feb-2020 3115.78 4585.62 66.89 6.00 345.78 2642.62
   11:08:37.422.08-Feb-2020 3115.78 4585.54 66.89 6.00 345.98 2642.62
   11:08:37.622.08-Feb-2020 3115.78 4585.36 66.89 6.00 346.18 2642.62
   11:08:37.822.08-Feb-2020 3115.78 4585.36 66.89 6.00 346.38 2642.62
   11:08:38.022.08-Feb-2020 3115.78 4585.56 66.89 6.00 346.58 2642.62
   11:08:38.223.08-Feb-2020 3115.78 4585.40 66.89 6.00 346.78 2642.62
   11:08:38.423.08-Feb-2020 3115.78 4584.52 66.89 6.00 346.98 2642.62
   11:08:38.623.08-Feb-2020 3115.78 4584.02 66.89 6.00 347.18 2642.62
   11:08:38.823.08-Feb-2020 3115.78 4584.02 66.89 6.00 347.38 2642.62
   11:08:39.023.08-Feb-2020 3115.78 4585.85 66.88 6.00 347.58 2642.62
   11:08:39.223.08-Feb-2020 3115.78 4585.67 66.88 6.00 347.78 2642.62
   11:08:39.423.08-Feb-2020 3115.78 4584.83 66.88 6.00 347.98 2642.62
   11:08:39.623.08-Feb-2020 3115.78 4584.89 66.88 6.00 348.18 2642.62
   11:08:39.823.08-Feb-2020 3115.78 4584.89 66.88 6.00 348.38 2642.62
   11:08:40.024.08-Feb-2020 3115.78 4584.75 66.88 6.00 348.58 2642.62
   11:08:40.224.08-Feb-2020 3115.78 4583.93 66.88 6.00 348.78 2642.62
   11:08:40.424.08-Feb-2020 3115.78 4583.94 66.88 6.00 348.98 2642.62
   11:08:40.624.08-Feb-2020 3115.78 4584.43 66.88 6.00 349.18 2642.62
   11:08:40.824.08-Feb-2020 3115.78 4584.43 66.88 6.00 349.38 2642.62
   11:08:41.024.08-Feb-2020 3115.78 4584.57 66.88 6.00 349.58 2642.62
   11:08:41.224.08-Feb-2020 3115.78 4583.88 66.88 6.00 349.78 2642.62
   11:08:41.424.08-Feb-2020 3115.78 4585.04 66.88 6.00 349.98 2642.62
   11:08:41.624.08-Feb-2020 3115.78 4584.80 66.88 6.00 350.18 2642.62
   11:08:41.824.08-Feb-2020 3115.78 4584.80 66.88 6.00 350.38 2642.62
   11:08:42.025.08-Feb-2020 3115.78 4584.59 66.88 6.00 350.58 2642.62
   11:08:42.225.08-Feb-2020 3115.78 4584.94 66.88 6.00 350.78 2642.62
   11:08:42.425.08-Feb-2020 3115.78 4584.65 66.88 6.00 350.98 2642.62
   11:08:42.625.08-Feb-2020 3115.78 4584.45 66.88 6.00 351.18 2642.62
   11:08:42.825.08-Feb-2020 3115.78 4584.45 66.88 6.00 351.38 2642.62
   11:08:43.025.08-Feb-2020 3115.78 4584.60 66.88 6.00 351.58 2642.62
   11:08:43.225.08-Feb-2020 3115.78 4584.53 66.88 6.00 351.78 2642.62
   11:08:43.425.08-Feb-2020 3115.78 4585.30 66.88 6.00 351.98 2642.62
   11:08:43.625.08-Feb-2020 3115.78 4584.43 66.88 6.00 352.18 2642.62
   11:08:43.825.08-Feb-2020 3115.78 4584.43 66.88 6.00 352.38 2642.62
   11:08:44.026.08-Feb-2020 3115.78 4585.22 66.88 6.00 352.58 2642.62
   11:08:44.226.08-Feb-2020 3115.78 4584.07 66.88 6.00 352.78 2642.62
   11:08:44.426.08-Feb-2020 3115.78 4584.68 66.88 6.00 352.98 2642.62
   11:08:44.626.08-Feb-2020 3115.78 4586.33 66.88 6.00 353.18 2642.62
   11:08:44.826.08-Feb-2020 3115.78 4586.33 66.88 6.00 353.38 2642.62
   11:08:45.026.08-Feb-2020 3115.78 4584.58 66.88 6.00 353.58 2642.62
   11:08:45.226.08-Feb-2020 3115.78 4585.16 66.88 6.00 353.78 2642.62
   11:08:45.426.08-Feb-2020 3115.78 4584.71 66.88 6.00 353.98 2642.62
   11:08:45.626.08-Feb-2020 3115.78 4584.06 66.88 6.00 354.19 2642.62
   11:08:45.827.08-Feb-2020 3115.78 4584.06 66.88 6.00 354.39 2642.62
   11:08:46.027.08-Feb-2020 3115.78 4583.52 66.88 6.00 354.59 2642.62
   11:08:46.227.08-Feb-2020 3115.78 4584.57 66.87 6.00 354.79 2642.62
   11:08:46.427.08-Feb-2020 3115.78 4585.13 66.87 6.00 354.99 2642.62
   11:08:46.627.08-Feb-2020 3115.78 4584.07 66.87 6.00 355.19 2642.62
   11:08:46.827.08-Feb-2020 3115.78 4584.07 66.87 6.00 355.39 2642.62
   11:08:47.027.08-Feb-2020 3115.78 4584.03 66.87 6.00 355.59 2642.62
   11:08:47.227.08-Feb-2020 3115.78 4585.31 66.87 6.00 355.79 2642.62
   11:08:47.427.08-Feb-2020 3115.78 4584.84 66.87 6.00 355.99 2642.62
   11:08:47.627.08-Feb-2020 3115.78 4583.81 66.87 6.00 356.19 2642.62
   11:08:47.828.08-Feb-2020 3115.78 4584.61 66.87 6.00 356.39 2642.62
   11:08:48.028.08-Feb-2020 3115.78 4584.51 66.87 6.00 356.59 2642.62
   11:08:48.228.08-Feb-2020 3115.78 4584.53 66.87 6.00 356.79 2642.62
   11:08:48.428.08-Feb-2020 3115.78 4584.55 66.87 6.00 356.99 2642.62
   11:08:48.628.08-Feb-2020 3115.78 4584.78 66.87 6.00 357.19 2642.62
   11:08:48.828.08-Feb-2020 3115.78 4584.78 66.87 6.00 357.39 2642.62
   11:08:49.028.08-Feb-2020 3115.78 4585.00 66.87 6.00 357.59 2642.62
   11:08:49.228.08-Feb-2020 3115.78 4584.09 66.87 6.00 357.79 2642.62
   11:08:49.428.08-Feb-2020 3115.78 4584.94 66.87 6.00 357.99 2642.62
   11:08:49.629.08-Feb-2020 3115.78 4585.42 66.87 6.00 358.19 2642.62
   11:08:49.829.08-Feb-2020 3115.78 4585.42 66.87 6.00 358.39 2642.62
   11:08:50.029.08-Feb-2020 3115.78 4584.46 66.87 6.00 358.59 2642.62
   11:08:50.229.08-Feb-2020 3115.78 4584.67 66.87 6.00 358.79 2642.62
   11:08:50.429.08-Feb-2020 3115.78 4584.65 66.87 6.00 358.99 2642.62
   11:08:50.629.08-Feb-2020 3115.78 4584.38 66.87 6.00 359.19 2642.62
   11:08:50.829.08-Feb-2020 3115.78 4584.38 66.87 6.00 359.39 2642.62
   11:08:51.029.08-Feb-2020 3115.78 4583.52 66.87 6.00 359.59 2642.62
   11:08:51.229.08-Feb-2020 3115.78 4584.37 66.87 6.00 359.79 2642.62
   11:08:51.429.08-Feb-2020 3115.78 4585.72 66.87 6.00 359.99 2642.62
   11:08:51.630.08-Feb-2020 3115.78 4584.24 66.87 6.00 360.19 2642.62
   11:08:51.830.08-Feb-2020 3115.78 4584.24 66.87 6.00 360.39 2642.62
   11:08:52.030.08-Feb-2020 3115.78 4585.01 66.87 6.00 360.59 2642.62
   11:08:52.230.08-Feb-2020 3115.78 4584.45 66.87 6.00 360.79 2642.62
   11:08:52.430.08-Feb-2020 3115.78 4584.28 66.87 6.00 360.99 2642.62
   11:08:52.630.08-Feb-2020 3115.78 4586.78 66.87 6.00 361.19 2642.62
   11:08:52.830.08-Feb-2020 3115.78 4586.78 66.87 6.00 361.39 2642.62
   11:08:53.030.08-Feb-2020 3115.78 4584.85 66.87 6.00 361.59 2642.62
   11:08:53.230.08-Feb-2020 3115.78 4584.40 66.87 6.00 361.79 2642.62
   11:08:53.431.08-Feb-2020 3115.78 4586.32 66.87 6.00 361.99 2642.62
   11:08:53.631.08-Feb-2020 3115.78 4585.38 66.86 6.00 362.19 2642.62
   11:08:53.831.08-Feb-2020 3115.78 4585.38 66.86 6.00 362.39 2642.62
   11:08:54.031.08-Feb-2020 3115.78 4584.03 66.86 6.00 362.59 2642.62
   11:08:54.231.08-Feb-2020 3115.78 4585.32 66.86 6.00 362.79 2642.62
   11:08:54.431.08-Feb-2020 3115.78 4585.80 66.86 6.00 362.99 2642.62
   11:08:54.631.08-Feb-2020 3115.78 4585.19 66.86 6.00 363.19 2642.62
   11:08:54.831.08-Feb-2020 3115.78 4585.19 66.86 6.00 363.39 2642.62
   11:08:55.031.08-Feb-2020 3115.78 4585.27 66.86 6.00 363.59 2642.62
   11:08:55.231.08-Feb-2020 3115.78 4585.54 66.86 6.00 363.79 2642.62
   11:08:55.432.08-Feb-2020 3115.78 4585.12 66.86 6.00 363.99 2642.62
   11:08:55.632.08-Feb-2020 3115.78 4585.04 66.86 6.00 364.19 2642.62
   11:08:55.832.08-Feb-2020 3115.78 4585.04 66.86 6.00 364.39 2642.62
   11:08:56.032.08-Feb-2020 3115.78 4585.30 66.86 6.00 364.59 2642.62
   11:08:56.232.08-Feb-2020 3115.78 4583.59 66.86 6.00 364.79 2642.62
   11:08:56.432.08-Feb-2020 3115.78 4583.82 66.86 6.00 364.99 2642.62
   11:08:56.632.08-Feb-2020 3115.78 4584.76 66.86 6.00 365.19 2642.62
   11:08:56.832.08-Feb-2020 3115.78 4584.76 66.86 6.00 365.39 2642.62
   11:08:57.032.08-Feb-2020 3115.78 4584.34 66.86 6.00 365.59 2642.62
   11:08:57.232.08-Feb-2020 3115.78 4584.46 66.86 6.00 365.79 2642.62
   11:08:57.433.08-Feb-2020 3115.78 4585.08 66.86 6.00 365.99 2642.62
   11:08:57.633.08-Feb-2020 3115.78 4585.01 66.86 6.00 366.19 2642.62
   11:08:57.833.08-Feb-2020 3115.78 4585.01 66.86 6.00 366.39 2642.62
   11:08:58.033.08-Feb-2020 3115.78 4584.88 66.86 6.00 366.59 2642.62
   11:08:58.233.08-Feb-2020 3115.78 4584.73 66.86 6.00 366.79 2642.62
   11:08:58.433.08-Feb-2020 3115.78 4584.70 66.86 6.00 366.99 2642.62
   11:08:58.633.08-Feb-2020 3115.78 4585.34 66.86 6.00 367.19 2642.62
   11:08:58.833.08-Feb-2020 3115.78 4585.34 66.86 6.00 367.39 2642.62
   11:08:59.033.08-Feb-2020 3115.78 4585.14 66.86 6.00 367.59 2642.62
   11:08:59.234.08-Feb-2020 3115.78 4585.16 66.86 6.00 367.79 2642.62
   11:08:59.434.08-Feb-2020 3115.78 4584.38 66.86 6.00 367.99 2642.62
