~Version Information
 VERS.                  2.0:   CWLS log ASCII Standard -VERSION 2.0
 WRAP.                   NO:   One line per depth step
~Well Information Block
#MNEM.UNIT     VALUE/NAME     DESCRIPTION
#---------     -----------    ---------------------------
 STRT.S             10:04:49 08-Feb-20: START TIME 10:04:49 08-Feb-20
 STOP.S             10:11:45 08-Feb-20: STOP TIME  10:11:45 08-Feb-20
 STEP.S                   0.00: STEP TIME
 NULL.                 -999.25: NULL VALUE
 DFWT.                        :  DIST FWL TEXT
 DFST.                        :  DIST FSL TEXT
 DMF .             Drill Floor:  DRILL MEAS FROM
 STIM.      07.00.00 09-Jan-20:  START TIME
 DATE.      14.04.48 07-Feb-20:  END TIME
 SPUD.               09-Jan-20:  SPUD DATE
 NREF.                    Grid:  NORTH REFERENCE
 HPTY.       Minimum Curvature:  HOLE POS TYPE
 DMOD.             Drill Model:  DRILL MOD DESC
 SVYD.                  Survey:  SURVEY DESC
 ILTD.               Lithology:  INTERP LTH DESC
 FTOP.          Formation Tops:  FORM TOPS DESC
 SON .        AZ-XX-0905059384:  JOB NUMBER
 MDS .        Operator Entered:  MAG DATA SOURCE
 WTYP.                Deviated:  WELL TYPE
 COMP.     BP Exploration (Caspian Sea) Ltd.:  COMPANY
 UWI .                     N/A:  UNIQUE WELL IDENTIFIER
 API .                     N/A:  API NUMBER
 BASE.              Azerbaijan:  LOGGING EQUIPMENT BASE LOCATION
 REGN.                   EESSA:  REGION
 PROV.                    Baku:  PROVINCE
 STAT.                    Baku:  STATE NAME
 CTRY.              Azerbaijan:  COUNTRY NAME
 FLD .                     ACG:  FIELD NAME
 SRVC.     TURAN Drilling & Engineering:  CONTRACTOR
 MWDS.                    Baku:  MWD SHOP
 WELL.                     J22:  WELL NAME
 RIG .             West Chirag:  RIG NAME
 DOE .                     N/A:  DOE NUMBER
 DCON.         Sperry Drilling:  DIRECTNL CONTR
 UNIT.                     N/A:  LOGGING EQUIPMENT ID
 PDAT.          Mean Sea Level:  PERMANENT DATUM
 JOBN.        AZ-XX-0905059384:  JOB TICKET NUMB
 CNTY.                        :  COUNTY
 LOC .                        :  LOCATION
 LMF .             Drill Floor:  LOG MEASURED FROM
 TVDS.m                  43.00:  TVDSS CORRECTN
 LATI.deg                40.13:  LATITUDE
 LONG.deg                51.22:  LONGITUDE
 WHNS.m                  10.28:  WELL HEAD N/S
 WHEW.m                  -6.24:  WELL HEAD E/W
 UTMX.m              519005.06:  UTM X
 UTMY.m             4443793.85:  UTM Y
 DFWL.m                   0.00:  DISTANCE FWL
 DFSL.m                   0.00:  DISTANCE FSL
 SDEP.m                 362.00:  START DEPTH
 TDD .m                 904.00:  TOTAL DEPTH (DRILLER)
 VSDR.deg               148.53:  VERT SEC DIRECT
 GVFD.g                   1.00:  GRAVITY FIELD
 MFLD.nT              50277.00:  MAGNETIC FIELD
 MDIP.deg                59.56:  MAGNETIC DIP
 MDEC.deg                 6.42:  MAGNETIC DECL
 GRDC.deg                 0.15:  GRID CORRECTION
 AZTC.deg                 6.27:  AZM TOTAL CORR
 EPD .m                   0.00:  ELEVATION
 EGL .m                   0.00:  GROUND ELEVATION
 WDMS.m                 169.80:  WD ELEV
 APD .m                  43.00:  DEPTH ABOVE PD
 AGAP.m                  43.00:  AIR GAP
 VSEW.m                  -6.24:  VERT SEC E/W
 VSNS.m                  10.28:  VERT SEC N/S
 DEP .m                   0.00:  DEPTH
 EKB .m                   0.00:  KB ELEVATION
 EDF .m                  43.00:  DF ELEVATION
 TDL .m                1183.00:  TOTAL DEPTH (LOGGER)
 VSC .                       0:  VS TO CLOSURE
 MAGU.                 1850021:  MAGUTM CHECKSUM
~Parameter Information Block
#MNEM.UNIT       Value        Description
#---------     -----------    ---------------------------
 AV  .mps                 4.00:  Ann Velocity 
 AVMX.mps                 4.50:  Max Ann Veloc 
 AZIF.deg               145.38:  Azm, Final 
 BHAT.        Rotary Steerable:  BHA Type 
 BROT.°/30m               3.00:  Build Rotating 
 BS  .in                 12.25:  Bit Size 
 BSZ .in                 12.25:  Bit Size 
 BTPL.psig              650.00:  Bit Press Loss 
 CABU.                      No:  Customer Abuse 
 COMM.                     |¶Q:  Run Comments 1 
 TCS .hr                101.62:  Time Ciculation Ended 
 CV  .mps                 5.00:  Crit Velocity 
 CVMX.mps                 5.00:  Max Crit Veloc 
 DD1 .             Aziz Aliyev:  Direct Drillr 1 
 DD2 .      Fakhraddin Guliyev:  Direct Drillr 2 
 DDSV.                 iCruise:  DD Service 
 DEFF.%                  97.00:  % Det Eff 
 DLRX.°/30m               4.16:  Dogleg Rot Max 
 DLSO.°/30m               3.20:  Dogleg Oriented 
 DLSX.°/30m               4.10:  Dogleg Str Max 
 DRET.      23.12.00 07-Feb-20:  Drill End Time 
 DRST.      11.30.00 04-Feb-20:  Drill Start Tim 
 DTIM.hr                 61.06:  Time Drilling 
 EDEP.m                3219.01:  End Depth 
 ENG1.         Almaz Almadatov:  Engineer 1 
 ENG2.         Dair Mahammadov:  Engineer 2 
 ENG3.          Nazrin Asgarli:  Engineer 3 
 ETIM.      02.30.00 11-Feb-20:  End Time 
 FLOI.gpm              1100.00:  Flow In 
 FLON.gpm               900.00:  Flow In Min 
 FLOS.cptm               55.00:  Fluid Loss 
 FLOX.gpm              1150.00:  Flow In Max 
 FTRO.       Formation Presure:  FTWD Run Obj 
 HFLO.                      No:  High Flow 
 HPRE.                      No:  High Pressure 
 HTEM.                      No:  High Temp 
 HYDO.m                   1.80:  Hydro Offset 
 IFIN.deg                75.11:  Inc, Final 
 IMAX.deg                75.11:  Inc Max 
 IMIN.deg                33.55:  Inc Min 
 IMND.m                2186.05:  Inc Min Depth 
 IMXD.m                3205.61:  Inc Max Depth 
 JARR.                      No:  Jarring 
 LETM.      23.12.00 07-Feb-20:  Log End Time 
 LOST.hr                     0:  Lost Rig Time 
 LSTM.      11.30.00 04-Feb-20:  Log Start Time 
 MDCL.ppm             40000.00:  Mud Chlorides 
 MDES.     Inversion Oil/Synthetic:  Mud Desc 
 DFD .sg                  1.49:  Mud Density 
 MDMN.sg                  1.49:  Dens Mud Min 
 MDMX.sg                  1.49:  Dens Mud Max 
 MOIL.                      73:  Run Mud Oil % 
 MOWR.                   73:27:  Run Mud OWR 
 MSND.                     0.1:  Run Mud Sand % 
 MSOL.                    20.1:  Run Mud Solids% 
 DFV .spqt               78.00:  Mud Viscosity 
 MWOD.in                  8.00:  MWD Tool OD 
 MWSI.                      No:  Serv Intrp, MWD 
 OTIM.hr                177.15:  Time Operating 
 PCON.          Wear / Scratch:  Pad Condition 
 PMAX.psia            10493.93:  Press Op, Max 
 PV  .cP                 73.00:  Mud PV 
 RUN .                     700:  Run Number 
 ROPA.m/hr               15.00:  ROP Avg 
 ROPN.m/hr               10.00:  ROP Min 
 ROPX.m/hr               35.00:  ROP Max 
 RPMA.rpm               130.00:  RPM Surface Avg 
 RPMN.rpm                80.00:  RPM Surface Min 
 RPMX.rpm               150.00:  RPM Surface Max 
 RRUN.                    L402:  Rig Run Number 
 RTIM.hr                 80.50:  Time Reaming 
 SAZI.deg               155.55:  Azm, Start 
 SDEP.m                2036.00:  Start Depth 
 SIDD.                      No:  Serv Intrp, DD 
 SINC.deg                35.44:  Inc, Start 
 SPPA.psig             4270.00:  SPP Avg 
 SPPN.psig             2800.00:  SPP Min 
 SPPX.psig             4850.00:  SPP Max 
 STIM.      09.30.00 03-Feb-20:  Start Time 
 SVCS.                 DD, MWD:  Services 
 SVER.                    9.20:  Sperry Version 
 TDAT.m                1183.00:  Tot Depth Attmp 
 TDDF.                      No:  Trip for DD 
 TDLG.m                1183.00:  Tot Depth Loggd 
 TFF .                      No:  Trip for Fail 
 TQAA.f-kp               16.00:  Torque Abs Avg 
 TQAN.f-kp               10.00:  Torque Abs Min 
 TQAX.f-kp               20.00:  Torque Abs Max 
 TRRT.°/30m               1.00:  Turn Rotating 
 MRT .                  EWR-M5:  Maximum Recorded Temperature 
 TTMX.degC               80.39:  Max Tool Temp 
 VS01.               13098498 :  Virtual Str1 SN 
 VS02.                90569596:  Virtual Str2 SN 
 VS03.                90523599:  Virtual Str3 SN 
 VS04.                90573553:  Virtual Str4 SN 
 VS05.                90598598:  Virtual Str5 SN 
 VS06.                90577297:  Virtual Str6 SN 
 WBMN.klb                13.00:  WOB Min 
 WITN.         Alistair Sprott:  Customer Rep 
 WITN.           Rufat Babayev:  Customer Rep 2 
 WOBA.klb                15.00:  WOB Avg 
 WOBX.klb                20.00:  WOB Max 
 YP  .lhf2               39.00:  Yield Point 
~Curve Information Block
#MNEM.UNIT                 API CODE     Curve Description
#---------               -----------    ---------------------------
 TIME.HHMMSS            00 000 000 000:  GT Time & Date
 GTDEPTH.m              00 000 000 000:  GT Depth
 GTPQH.psia             00 000 000 000:  GT HR Quartz Pressure
 GTTQ.degC              00 000 000 000:  GT Quartz Temperature
 GTTN.NONE              00 000 000 000:  GT Test Number
 GTET.sec               00 000 000 000:  GT Elapsed Test Time
 GTTVD.m                00 000 000 000:  GT True Vertical Depth
#Other Information
#
#WARRANTY: Halliburton will use its best efforts to furnish customers with 
#accurate information and interpretations that are part of, and incident to, the services 
#provided.  However, Halliburton cannot and does not warrant the accuracy 
#or correctness of such information and interpretations.  Under no circumstances should any 
#such information or interpretation be relied upon as the sole basis for any drilling, 
#completion, production, or financial decision or any procedure involving any risk to the 
#safety of any drilling venture, drilling rig or its crew or any other third party.  The 
#Customer has full responsibility for all drilling, completion and production operation.  
#Halliburton makes no representations or warranties, either expressed or 
#implied, including, but not limited to, the implied warranties of merchantability or fitness 
#for a particular purpose, with respect to the services rendered.  In no event will 
#Halliburton be liable for failure to obtain any particular results or for 
#any damages, including, but not limited to, indirect, special or consequential damages, 
#resulting from the use of any information or interpretation provided by Halliburton.
#
~A           TIME           GTDEPTH  GTPQH  GTTQ  GTTN  GTET   GTTVD  
# ...
   10:07:30.230.08-Feb-2020 3159.51 4881.35 68.49 5.00 161.05 2654.38
   10:07:30.430.08-Feb-2020 3159.51 4881.35 68.49 5.00 161.25 2654.38
   10:07:30.630.08-Feb-2020 3159.51 4881.78 68.49 5.00 161.45 2654.38
   10:07:30.830.08-Feb-2020 3159.51 4881.64 68.49 5.00 161.65 2654.38
   10:07:31.030.08-Feb-2020 3159.51 4881.55 68.49 5.00 161.85 2654.38
   10:07:31.230.08-Feb-2020 3159.51 4881.58 68.49 5.00 162.05 2654.38
   10:07:31.431.08-Feb-2020 3159.51 4881.58 68.49 5.00 162.25 2654.38
   10:07:31.631.08-Feb-2020 3159.51 4881.54 68.49 5.00 162.45 2654.38
   10:07:31.831.08-Feb-2020 3159.51 4881.58 68.49 5.00 162.65 2654.38
   10:07:32.031.08-Feb-2020 3159.51 4881.59 68.49 5.00 162.85 2654.38
   10:07:32.231.08-Feb-2020 3159.51 4881.50 68.49 5.00 163.05 2654.38
   10:07:32.431.08-Feb-2020 3159.51 4881.50 68.49 5.00 163.25 2654.38
   10:07:32.631.08-Feb-2020 3159.51 4881.57 68.49 5.00 163.45 2654.38
   10:07:32.831.08-Feb-2020 3159.51 4881.57 68.49 5.00 163.65 2654.38
   10:07:33.031.08-Feb-2020 3159.51 4881.46 68.49 5.00 163.85 2654.38
   10:07:33.231.08-Feb-2020 3159.51 4881.42 68.49 5.00 164.05 2654.38
   10:07:33.431.08-Feb-2020 3159.51 4881.42 68.49 5.00 164.25 2654.38
   10:07:33.631.08-Feb-2020 3159.51 4881.58 68.49 5.00 164.45 2654.38
   10:07:33.831.08-Feb-2020 3159.51 4881.50 68.49 5.00 164.65 2654.38
   10:07:34.031.08-Feb-2020 3159.51 4881.58 68.49 5.00 164.85 2654.38
   10:07:34.231.08-Feb-2020 3159.51 4881.61 68.49 5.00 165.05 2654.38
   10:07:34.431.08-Feb-2020 3159.51 4881.61 68.49 5.00 165.25 2654.38
   10:07:34.632.08-Feb-2020 3159.51 4881.53 68.49 5.00 165.45 2654.38
   10:07:34.832.08-Feb-2020 3159.51 4881.60 68.49 5.00 165.65 2654.38
   10:07:35.032.08-Feb-2020 3159.51 4881.47 68.49 5.00 165.85 2654.38
   10:07:35.232.08-Feb-2020 3159.51 4881.45 68.49 5.00 166.05 2654.38
   10:07:35.432.08-Feb-2020 3159.51 4881.45 68.49 5.00 166.25 2654.38
   10:07:35.632.08-Feb-2020 3159.51 4881.27 68.49 5.00 166.45 2654.38
   10:07:35.832.08-Feb-2020 3159.51 4881.42 68.49 5.00 166.65 2654.38
   10:07:36.032.08-Feb-2020 3159.51 4882.11 68.49 5.00 166.85 2654.38
   10:07:36.232.08-Feb-2020 3159.51 4881.28 68.49 5.00 167.05 2654.38
   10:07:36.432.08-Feb-2020 3159.51 4881.28 68.49 5.00 167.25 2654.38
   10:07:36.632.08-Feb-2020 3159.51 4881.53 68.49 5.00 167.45 2654.38
   10:07:36.832.08-Feb-2020 3159.51 4881.61 68.49 5.00 167.65 2654.38
   10:07:37.032.08-Feb-2020 3159.51 4881.42 68.49 5.00 167.85 2654.38
   10:07:37.232.08-Feb-2020 3159.51 4881.45 68.49 5.00 168.05 2654.38
   10:07:37.432.08-Feb-2020 3159.51 4881.45 68.49 5.00 168.25 2654.38
   10:07:37.632.08-Feb-2020 3159.51 4835.98 68.49 5.00 168.45 2654.38
   10:07:37.833.08-Feb-2020 3159.51 4790.96 68.49 5.00 168.65 2654.38
   10:07:38.033.08-Feb-2020 3159.51 4790.57 68.49 5.00 168.85 2654.38
   10:07:38.233.08-Feb-2020 3159.51 4790.10 68.49 5.00 169.05 2654.38
   10:07:38.433.08-Feb-2020 3159.51 4790.10 68.49 5.00 169.25 2654.38
   10:07:38.633.08-Feb-2020 3159.51 4789.95 68.49 5.00 169.45 2654.38
   10:07:38.833.08-Feb-2020 3159.51 4790.40 68.49 5.00 169.65 2654.38
   10:07:39.033.08-Feb-2020 3159.51 4790.24 68.49 5.00 169.85 2654.38
   10:07:39.233.08-Feb-2020 3159.51 4789.88 68.49 5.00 170.05 2654.38
   10:07:39.433.08-Feb-2020 3159.51 4789.88 68.49 5.00 170.25 2654.38
   10:07:39.633.08-Feb-2020 3159.51 4790.86 68.49 5.00 170.45 2654.38
   10:07:39.833.08-Feb-2020 3159.51 4790.80 68.49 5.00 170.65 2654.38
   10:07:40.033.08-Feb-2020 3159.51 4792.22 68.49 5.00 170.85 2654.38
   10:07:40.233.08-Feb-2020 3159.51 4791.77 68.49 5.00 171.05 2654.38
   10:07:40.433.08-Feb-2020 3159.51 4791.77 68.49 5.00 171.25 2654.38
   10:07:40.633.08-Feb-2020 3159.51 4791.99 68.49 5.00 171.45 2654.38
   10:07:40.833.08-Feb-2020 3159.51 4791.73 68.49 5.00 171.65 2654.38
   10:07:41.034.08-Feb-2020 3159.51 4791.41 68.49 5.00 171.85 2654.38
   10:07:41.234.08-Feb-2020 3159.51 4791.27 68.49 5.00 172.05 2654.38
   10:07:41.434.08-Feb-2020 3159.51 4791.27 68.49 5.00 172.25 2654.38
   10:07:41.634.08-Feb-2020 3159.51 4792.43 68.49 5.00 172.45 2654.38
   10:07:41.834.08-Feb-2020 3159.51 4793.69 68.48 5.00 172.65 2654.38
   10:07:42.034.08-Feb-2020 3159.51 4789.88 68.49 5.00 172.85 2654.38
   10:07:42.234.08-Feb-2020 3159.51 4791.83 68.48 5.00 173.05 2654.38
   10:07:42.434.08-Feb-2020 3159.51 4791.83 68.48 5.00 173.25 2654.38
   10:07:42.634.08-Feb-2020 3159.51 4791.60 68.48 5.00 173.45 2654.38
   10:07:42.834.08-Feb-2020 3159.51 4793.02 68.48 5.00 173.65 2654.38
   10:07:43.034.08-Feb-2020 3159.51 4792.81 68.48 5.00 173.85 2654.38
   10:07:43.234.08-Feb-2020 3159.51 4793.45 68.48 5.00 174.05 2654.38
   10:07:43.434.08-Feb-2020 3159.51 4793.45 68.48 5.00 174.25 2654.38
   10:07:43.634.08-Feb-2020 3159.51 4794.75 68.48 5.00 174.45 2654.38
   10:07:43.834.08-Feb-2020 3159.51 4791.48 68.48 5.00 174.65 2654.38
   10:07:44.034.08-Feb-2020 3159.51 4793.37 68.48 5.00 174.85 2654.38
   10:07:44.235.08-Feb-2020 3159.51 4794.08 68.48 5.00 175.05 2654.38
   10:07:44.435.08-Feb-2020 3159.51 4794.08 68.48 5.00 175.25 2654.38
   10:07:44.635.08-Feb-2020 3159.51 4793.09 68.48 5.00 175.45 2654.38
   10:07:44.835.08-Feb-2020 3159.51 4794.04 68.48 5.00 175.65 2654.38
   10:07:45.035.08-Feb-2020 3159.51 4794.74 68.48 5.00 175.85 2654.38
   10:07:45.235.08-Feb-2020 3159.51 4794.52 68.48 5.00 176.05 2654.38
   10:07:45.435.08-Feb-2020 3159.51 4794.52 68.48 5.00 176.25 2654.38
   10:07:45.635.08-Feb-2020 3159.51 4794.21 68.48 5.00 176.45 2654.38
   10:07:45.835.08-Feb-2020 3159.51 4793.84 68.48 5.00 176.65 2654.38
   10:07:46.035.08-Feb-2020 3159.51 4794.29 68.48 5.00 176.85 2654.38
   10:07:46.235.08-Feb-2020 3159.51 4794.42 68.48 5.00 177.06 2654.38
   10:07:46.435.08-Feb-2020 3159.51 4794.42 68.48 5.00 177.26 2654.38
   10:07:46.635.08-Feb-2020 3159.51 4795.86 68.48 5.00 177.46 2654.38
   10:07:46.835.08-Feb-2020 3159.51 4792.07 68.48 5.00 177.66 2654.38
   10:07:47.035.08-Feb-2020 3159.51 4794.81 68.48 5.00 177.86 2654.38
   10:07:47.235.08-Feb-2020 3159.51 4795.48 68.48 5.00 178.06 2654.38
   10:07:47.435.08-Feb-2020 3159.51 4795.48 68.48 5.00 178.26 2654.38
   10:07:47.636.08-Feb-2020 3159.51 4795.14 68.48 5.00 178.46 2654.38
   10:07:47.836.08-Feb-2020 3159.51 4794.91 68.48 5.00 178.66 2654.38
   10:07:48.036.08-Feb-2020 3159.51 4794.99 68.48 5.00 178.86 2654.38
   10:07:48.236.08-Feb-2020 3159.51 4845.29 68.48 5.00 179.06 2654.38
   10:07:48.436.08-Feb-2020 3159.51 4845.29 68.48 5.00 179.26 2654.38
   10:07:48.636.08-Feb-2020 3159.51 4879.29 68.48 5.00 179.46 2654.38
   10:07:48.836.08-Feb-2020 3159.51 4880.17 68.48 5.00 179.66 2654.38
   10:07:49.036.08-Feb-2020 3159.51 4879.94 68.48 5.00 179.86 2654.38
   10:07:49.236.08-Feb-2020 3159.51 4880.10 68.48 5.00 180.06 2654.38
   10:07:49.436.08-Feb-2020 3159.51 4880.10 68.48 5.00 180.26 2654.38
   10:07:49.636.08-Feb-2020 3159.51 4880.33 68.48 5.00 180.46 2654.38
   10:07:49.836.08-Feb-2020 3159.51 4880.25 68.48 5.00 180.66 2654.38
   10:07:50.036.08-Feb-2020 3159.51 4880.48 68.48 5.00 180.86 2654.38
   10:07:50.236.08-Feb-2020 3159.51 4881.14 68.48 5.00 181.06 2654.38
   10:07:50.436.08-Feb-2020 3159.51 4881.14 68.48 5.00 181.26 2654.38
   10:07:50.636.08-Feb-2020 3159.51 4880.50 68.48 5.00 181.46 2654.38
   10:07:50.837.08-Feb-2020 3159.51 4880.66 68.48 5.00 181.66 2654.38
   10:07:51.037.08-Feb-2020 3159.51 4880.79 68.48 5.00 181.86 2654.38
   10:07:51.237.08-Feb-2020 3159.51 4880.86 68.48 5.00 182.06 2654.38
   10:07:51.437.08-Feb-2020 3159.51 4880.86 68.48 5.00 182.26 2654.38
   10:07:51.637.08-Feb-2020 3159.51 4881.00 68.48 5.00 182.46 2654.38
   10:07:51.837.08-Feb-2020 3159.51 4880.97 68.48 5.00 182.66 2654.38
   10:07:52.037.08-Feb-2020 3159.51 4880.84 68.48 5.00 182.86 2654.38
   10:07:52.237.08-Feb-2020 3159.51 4880.98 68.48 5.00 183.06 2654.38
   10:07:52.437.08-Feb-2020 3159.51 4880.98 68.48 5.00 183.26 2654.38
   10:07:52.637.08-Feb-2020 3159.51 4880.85 68.48 5.00 183.46 2654.38
   10:07:52.837.08-Feb-2020 3159.51 4881.02 68.48 5.00 183.66 2654.38
   10:07:53.037.08-Feb-2020 3159.51 4881.03 68.48 5.00 183.86 2654.38
