~Version Information
 VERS.                  2.0:   CWLS log ASCII Standard -VERSION 2.0
 WRAP.                   NO:   One line per depth step
~Well Information Block
#MNEM.UNIT     VALUE/NAME     DESCRIPTION
#---------     -----------    ---------------------------
 STRT.S             08:19:39 08-Feb-20: START TIME 08:19:39 08-Feb-20
 STOP.S             08:26:25 08-Feb-20: STOP TIME  08:26:25 08-Feb-20
 STEP.S                   0.00: STEP TIME
 NULL.                 -999.25: NULL VALUE
 DFWT.                        :  DIST FWL TEXT
 DFST.                        :  DIST FSL TEXT
 DMF .             Drill Floor:  DRILL MEAS FROM
 STIM.      07.00.00 09-Jan-20:  START TIME
 DATE.      14.04.48 07-Feb-20:  END TIME
 SPUD.               09-Jan-20:  SPUD DATE
 NREF.                    Grid:  NORTH REFERENCE
 HPTY.       Minimum Curvature:  HOLE POS TYPE
 DMOD.             Drill Model:  DRILL MOD DESC
 SVYD.                  Survey:  SURVEY DESC
 ILTD.               Lithology:  INTERP LTH DESC
 FTOP.          Formation Tops:  FORM TOPS DESC
 SON .        AZ-XX-0905059384:  JOB NUMBER
 MDS .        Operator Entered:  MAG DATA SOURCE
 WTYP.                Deviated:  WELL TYPE
 COMP.     BP Exploration (Caspian Sea) Ltd.:  COMPANY
 UWI .                     N/A:  UNIQUE WELL IDENTIFIER
 API .                     N/A:  API NUMBER
 BASE.              Azerbaijan:  LOGGING EQUIPMENT BASE LOCATION
 REGN.                   EESSA:  REGION
 PROV.                    Baku:  PROVINCE
 STAT.                    Baku:  STATE NAME
 CTRY.              Azerbaijan:  COUNTRY NAME
 FLD .                     ACG:  FIELD NAME
 SRVC.     TURAN Drilling & Engineering:  CONTRACTOR
 MWDS.                    Baku:  MWD SHOP
 WELL.                     J22:  WELL NAME
 RIG .             West Chirag:  RIG NAME
 DOE .                     N/A:  DOE NUMBER
 DCON.         Sperry Drilling:  DIRECTNL CONTR
 UNIT.                     N/A:  LOGGING EQUIPMENT ID
 PDAT.          Mean Sea Level:  PERMANENT DATUM
 JOBN.        AZ-XX-0905059384:  JOB TICKET NUMB
 CNTY.                        :  COUNTY
 LOC .                        :  LOCATION
 LMF .             Drill Floor:  LOG MEASURED FROM
 TVDS.m                  43.00:  TVDSS CORRECTN
 LATI.deg                40.13:  LATITUDE
 LONG.deg                51.22:  LONGITUDE
 WHNS.m                  10.28:  WELL HEAD N/S
 WHEW.m                  -6.24:  WELL HEAD E/W
 UTMX.m              519005.06:  UTM X
 UTMY.m             4443793.85:  UTM Y
 DFWL.m                   0.00:  DISTANCE FWL
 DFSL.m                   0.00:  DISTANCE FSL
 SDEP.m                 362.00:  START DEPTH
 TDD .m                 904.00:  TOTAL DEPTH (DRILLER)
 VSDR.deg               148.53:  VERT SEC DIRECT
 GVFD.g                   1.00:  GRAVITY FIELD
 MFLD.nT              50277.00:  MAGNETIC FIELD
 MDIP.deg                59.56:  MAGNETIC DIP
 MDEC.deg                 6.42:  MAGNETIC DECL
 GRDC.deg                 0.15:  GRID CORRECTION
 AZTC.deg                 6.27:  AZM TOTAL CORR
 EPD .m                   0.00:  ELEVATION
 EGL .m                   0.00:  GROUND ELEVATION
 WDMS.m                 169.80:  WD ELEV
 APD .m                  43.00:  DEPTH ABOVE PD
 AGAP.m                  43.00:  AIR GAP
 VSEW.m                  -6.24:  VERT SEC E/W
 VSNS.m                  10.28:  VERT SEC N/S
 DEP .m                   0.00:  DEPTH
 EKB .m                   0.00:  KB ELEVATION
 EDF .m                  43.00:  DF ELEVATION
 TDL .m                1183.00:  TOTAL DEPTH (LOGGER)
 VSC .                       0:  VS TO CLOSURE
 MAGU.                 1850021:  MAGUTM CHECKSUM
~Parameter Information Block
#MNEM.UNIT       Value        Description
#---------     -----------    ---------------------------
 AV  .mps                 4.00:  Ann Velocity 
 AVMX.mps                 4.50:  Max Ann Veloc 
 AZIF.deg               145.38:  Azm, Final 
 BHAT.        Rotary Steerable:  BHA Type 
 BROT.°/30m               3.00:  Build Rotating 
 BS  .in                 12.25:  Bit Size 
 BSZ .in                 12.25:  Bit Size 
 BTPL.psig              650.00:  Bit Press Loss 
 CABU.                      No:  Customer Abuse 
 COMM.                     ä7n:  Run Comments 1 
 TCS .hr                101.62:  Time Ciculation Ended 
 CV  .mps                 5.00:  Crit Velocity 
 CVMX.mps                 5.00:  Max Crit Veloc 
 DD1 .             Aziz Aliyev:  Direct Drillr 1 
 DD2 .      Fakhraddin Guliyev:  Direct Drillr 2 
 DDSV.                 iCruise:  DD Service 
 DEFF.%                  97.00:  % Det Eff 
 DLRX.°/30m               4.16:  Dogleg Rot Max 
 DLSO.°/30m               3.20:  Dogleg Oriented 
 DLSX.°/30m               4.10:  Dogleg Str Max 
 DRET.      23.12.00 07-Feb-20:  Drill End Time 
 DRST.      11.30.00 04-Feb-20:  Drill Start Tim 
 DTIM.hr                 61.06:  Time Drilling 
 EDEP.m                3219.01:  End Depth 
 ENG1.         Almaz Almadatov:  Engineer 1 
 ENG2.         Dair Mahammadov:  Engineer 2 
 ENG3.          Nazrin Asgarli:  Engineer 3 
 ETIM.      02.30.00 11-Feb-20:  End Time 
 FLOI.gpm              1100.00:  Flow In 
 FLON.gpm               900.00:  Flow In Min 
 FLOS.cptm               55.00:  Fluid Loss 
 FLOX.gpm              1150.00:  Flow In Max 
 FTRO.       Formation Presure:  FTWD Run Obj 
 HFLO.                      No:  High Flow 
 HPRE.                      No:  High Pressure 
 HTEM.                      No:  High Temp 
 HYDO.m                   1.80:  Hydro Offset 
 IFIN.deg                75.11:  Inc, Final 
 IMAX.deg                75.11:  Inc Max 
 IMIN.deg                33.55:  Inc Min 
 IMND.m                2186.05:  Inc Min Depth 
 IMXD.m                3205.61:  Inc Max Depth 
 JARR.                      No:  Jarring 
 LETM.      23.12.00 07-Feb-20:  Log End Time 
 LOST.hr                     0:  Lost Rig Time 
 LSTM.      11.30.00 04-Feb-20:  Log Start Time 
 MDCL.ppm             40000.00:  Mud Chlorides 
 MDES.     Inversion Oil/Synthetic:  Mud Desc 
 DFD .sg                  1.49:  Mud Density 
 MDMN.sg                  1.49:  Dens Mud Min 
 MDMX.sg                  1.49:  Dens Mud Max 
 MOIL.                      73:  Run Mud Oil % 
 MOWR.                   73:27:  Run Mud OWR 
 MSND.                     0.1:  Run Mud Sand % 
 MSOL.                    20.1:  Run Mud Solids% 
 DFV .spqt               78.00:  Mud Viscosity 
 MWOD.in                  8.00:  MWD Tool OD 
 MWSI.                      No:  Serv Intrp, MWD 
 OTIM.hr                177.15:  Time Operating 
 PCON.          Wear / Scratch:  Pad Condition 
 PMAX.psia            10493.93:  Press Op, Max 
 PV  .cP                 73.00:  Mud PV 
 RUN .                     700:  Run Number 
 ROPA.m/hr               15.00:  ROP Avg 
 ROPN.m/hr               10.00:  ROP Min 
 ROPX.m/hr               35.00:  ROP Max 
 RPMA.rpm               130.00:  RPM Surface Avg 
 RPMN.rpm                80.00:  RPM Surface Min 
 RPMX.rpm               150.00:  RPM Surface Max 
 RRUN.                    L402:  Rig Run Number 
 RTIM.hr                 80.50:  Time Reaming 
 SAZI.deg               155.55:  Azm, Start 
 SDEP.m                2036.00:  Start Depth 
 SIDD.                      No:  Serv Intrp, DD 
 SINC.deg                35.44:  Inc, Start 
 SPPA.psig             4270.00:  SPP Avg 
 SPPN.psig             2800.00:  SPP Min 
 SPPX.psig             4850.00:  SPP Max 
 STIM.      09.30.00 03-Feb-20:  Start Time 
 SVCS.                 DD, MWD:  Services 
 SVER.                    9.20:  Sperry Version 
 TDAT.m                1183.00:  Tot Depth Attmp 
 TDDF.                      No:  Trip for DD 
 TDLG.m                1183.00:  Tot Depth Loggd 
 TFF .                      No:  Trip for Fail 
 TQAA.f-kp               16.00:  Torque Abs Avg 
 TQAN.f-kp               10.00:  Torque Abs Min 
 TQAX.f-kp               20.00:  Torque Abs Max 
 TRRT.°/30m               1.00:  Turn Rotating 
 MRT .                  EWR-M5:  Maximum Recorded Temperature 
 TTMX.degC               80.39:  Max Tool Temp 
 VS01.               13098498 :  Virtual Str1 SN 
 VS02.                90569596:  Virtual Str2 SN 
 VS03.                90523599:  Virtual Str3 SN 
 VS04.                90573553:  Virtual Str4 SN 
 VS05.                90598598:  Virtual Str5 SN 
 VS06.                90577297:  Virtual Str6 SN 
 WBMN.klb                13.00:  WOB Min 
 WITN.         Alistair Sprott:  Customer Rep 
 WITN.           Rufat Babayev:  Customer Rep 2 
 WOBA.klb                15.00:  WOB Avg 
 WOBX.klb                20.00:  WOB Max 
 YP  .lhf2               39.00:  Yield Point 
~Curve Information Block
#MNEM.UNIT                 API CODE     Curve Description
#---------               -----------    ---------------------------
 TIME.HHMMSS            00 000 000 000:  GT Time & Date
 GTDEPTH.m              00 000 000 000:  GT Depth
 GTPQH.psia             00 000 000 000:  GT HR Quartz Pressure
 GTTQ.degC              00 000 000 000:  GT Quartz Temperature
 GTTN.NONE              00 000 000 000:  GT Test Number
 GTET.sec               00 000 000 000:  GT Elapsed Test Time
 GTTVD.m                00 000 000 000:  GT True Vertical Depth
#Other Information
#
#WARRANTY: Halliburton will use its best efforts to furnish customers with 
#accurate information and interpretations that are part of, and incident to, the services 
#provided.  However, Halliburton cannot and does not warrant the accuracy 
#or correctness of such information and interpretations.  Under no circumstances should any 
#such information or interpretation be relied upon as the sole basis for any drilling, 
#completion, production, or financial decision or any procedure involving any risk to the 
#safety of any drilling venture, drilling rig or its crew or any other third party.  The 
#Customer has full responsibility for all drilling, completion and production operation.  
#Halliburton makes no representations or warranties, either expressed or 
#implied, including, but not limited to, the implied warranties of merchantability or fitness 
#for a particular purpose, with respect to the services rendered.  In no event will 
#Halliburton be liable for failure to obtain any particular results or for 
#any damages, including, but not limited to, indirect, special or consequential damages, 
#resulting from the use of any information or interpretation provided by Halliburton.
#
~A           TIME           GTDEPTH  GTPQH  GTTQ  GTTN  GTET   GTTVD  
# ...
   08:24:15.543.08-Feb-2020 3134.51 1493.99 73.57 1.00 276.02 2647.81
   08:24:15.743.08-Feb-2020 3134.51 1493.99 73.57 1.00 276.22 2647.81
   08:24:15.943.08-Feb-2020 3134.51 1669.93 73.57 1.00 276.42 2647.81
   08:24:16.143.08-Feb-2020 3134.51 1948.54 73.56 1.00 276.62 2647.81
   08:24:16.343.08-Feb-2020 3134.51 2190.61 73.56 1.00 276.82 2647.81
   08:24:16.543.08-Feb-2020 3134.51 2403.31 73.56 1.00 277.02 2647.81
   08:24:16.743.08-Feb-2020 3134.51 2403.31 73.56 1.00 277.22 2647.81
   08:24:16.943.08-Feb-2020 3134.51 2759.61 73.56 1.00 277.42 2647.81
   08:24:17.143.08-Feb-2020 3134.51 2909.53 73.56 1.00 277.62 2647.81
   08:24:17.343.08-Feb-2020 3134.51 3043.46 73.56 1.00 277.82 2647.81
   08:24:17.543.08-Feb-2020 3134.51 3163.92 73.56 1.00 278.02 2647.81
   08:24:17.743.08-Feb-2020 3134.51 3163.92 73.56 1.00 278.22 2647.81
   08:24:17.943.08-Feb-2020 3134.51 3371.74 73.55 1.00 278.42 2647.81
   08:24:18.143.08-Feb-2020 3134.51 3461.11 73.55 1.00 278.62 2647.81
   08:24:18.343.08-Feb-2020 3134.51 3542.61 73.55 1.00 278.82 2647.81
   08:24:18.543.08-Feb-2020 3134.51 3616.38 73.55 1.00 279.02 2647.81
   08:24:18.743.08-Feb-2020 3134.51 3616.38 73.55 1.00 279.22 2647.81
   08:24:18.943.08-Feb-2020 3134.51 3745.43 73.55 1.00 279.42 2647.81
   08:24:19.143.08-Feb-2020 3134.51 3801.56 73.55 1.00 279.62 2647.81
   08:24:19.343.08-Feb-2020 3134.51 3852.50 73.55 1.00 279.82 2647.81
   08:24:19.543.08-Feb-2020 3134.51 3899.42 73.55 1.00 280.02 2647.81
   08:24:19.743.08-Feb-2020 3134.51 3899.42 73.55 1.00 280.22 2647.81
   08:24:19.943.08-Feb-2020 3134.51 3983.07 73.56 1.00 280.42 2647.81
   08:24:20.143.08-Feb-2020 3134.51 4020.45 73.56 1.00 280.62 2647.81
   08:24:20.343.08-Feb-2020 3134.51 4054.68 73.56 1.00 280.82 2647.81
   08:24:20.543.08-Feb-2020 3134.51 4086.71 73.56 1.00 281.02 2647.81
   08:24:20.743.08-Feb-2020 3134.51 4086.71 73.56 1.00 281.22 2647.81
   08:24:20.943.08-Feb-2020 3134.51 4142.82 73.56 1.00 281.42 2647.81
   08:24:21.143.08-Feb-2020 3134.51 4168.41 73.56 1.00 281.62 2647.81
   08:24:21.343.08-Feb-2020 3134.51 4192.62 73.56 1.00 281.82 2647.81
   08:24:21.543.08-Feb-2020 3134.51 4214.25 73.56 1.00 282.02 2647.81
   08:24:21.743.08-Feb-2020 3134.51 4214.25 73.57 1.00 282.22 2647.81
   08:24:21.943.08-Feb-2020 3134.51 4254.10 73.57 1.00 282.42 2647.81
   08:24:22.143.08-Feb-2020 3134.51 4272.31 73.57 1.00 282.62 2647.81
   08:24:22.343.08-Feb-2020 3134.51 4289.27 73.57 1.00 282.82 2647.81
   08:24:22.543.08-Feb-2020 3134.51 4305.00 73.57 1.00 283.02 2647.81
   08:24:22.743.08-Feb-2020 3134.51 4305.00 73.57 1.00 283.22 2647.81
   08:24:22.943.08-Feb-2020 3134.51 4334.47 73.57 1.00 283.42 2647.81
   08:24:23.143.08-Feb-2020 3134.51 4347.51 73.57 1.00 283.62 2647.81
   08:24:23.343.08-Feb-2020 3134.51 4360.05 73.57 1.00 283.82 2647.81
   08:24:23.543.08-Feb-2020 3134.51 4371.92 73.57 1.00 284.02 2647.81
   08:24:23.743.08-Feb-2020 3134.51 4371.92 73.57 1.00 284.22 2647.81
   08:24:23.943.08-Feb-2020 3134.51 4393.47 73.58 1.00 284.42 2647.81
   08:24:24.143.08-Feb-2020 3134.51 4403.49 73.58 1.00 284.62 2647.81
   08:24:24.343.08-Feb-2020 3134.51 4412.83 73.58 1.00 284.82 2647.81
   08:24:24.543.08-Feb-2020 3134.51 4421.39 73.58 1.00 285.02 2647.81
   08:24:24.744.08-Feb-2020 3134.51 4421.39 73.58 1.00 285.22 2647.81
   08:24:24.944.08-Feb-2020 3134.51 4438.10 73.58 1.00 285.42 2647.81
   08:24:25.144.08-Feb-2020 3134.51 4445.71 73.58 1.00 285.62 2647.81
   08:24:25.344.08-Feb-2020 3134.51 4453.24 73.58 1.00 285.82 2647.81
   08:24:25.544.08-Feb-2020 3134.51 4460.30 73.58 1.00 286.02 2647.81
   08:24:25.744.08-Feb-2020 3134.51 4460.30 73.58 1.00 286.22 2647.81
   08:24:25.944.08-Feb-2020 3134.51 4466.91 73.58 1.00 286.42 2647.81
   08:24:26.144.08-Feb-2020 3134.51 4479.53 73.59 1.00 286.62 2647.81
   08:24:26.344.08-Feb-2020 3134.51 4485.39 73.59 1.00 286.82 2647.81
   08:24:26.544.08-Feb-2020 3134.51 4490.79 73.59 1.00 287.02 2647.81
   08:24:26.744.08-Feb-2020 3134.51 4490.79 73.59 1.00 287.22 2647.81
   08:24:26.944.08-Feb-2020 3134.51 4500.83 73.59 1.00 287.42 2647.81
   08:24:27.144.08-Feb-2020 3134.51 4505.77 73.59 1.00 287.62 2647.81
   08:24:27.344.08-Feb-2020 3134.51 4510.25 73.59 1.00 287.82 2647.81
   08:24:27.544.08-Feb-2020 3134.51 4515.28 73.59 1.00 288.02 2647.81
   08:24:27.744.08-Feb-2020 3134.51 4515.28 73.59 1.00 288.22 2647.81
   08:24:27.944.08-Feb-2020 3134.51 4523.36 73.59 1.00 288.42 2647.81
   08:24:28.144.08-Feb-2020 3134.51 4527.61 73.59 1.00 288.62 2647.81
   08:24:28.344.08-Feb-2020 3134.51 4531.55 73.59 1.00 288.82 2647.81
   08:24:28.544.08-Feb-2020 3134.51 4535.05 73.59 1.00 289.02 2647.81
   08:24:28.744.08-Feb-2020 3134.51 4535.05 73.59 1.00 289.22 2647.81
   08:24:28.944.08-Feb-2020 3134.51 4542.47 73.59 1.00 289.42 2647.81
   08:24:29.144.08-Feb-2020 3134.51 4545.69 73.59 1.00 289.62 2647.81
   08:24:29.344.08-Feb-2020 3134.51 4549.26 73.59 1.00 289.82 2647.81
   08:24:29.544.08-Feb-2020 3134.51 4552.83 73.59 1.00 290.02 2647.81
   08:24:29.744.08-Feb-2020 3134.51 4552.83 73.59 1.00 290.22 2647.81
   08:24:29.944.08-Feb-2020 3134.51 4558.55 73.59 1.00 290.42 2647.81
   08:24:30.144.08-Feb-2020 3134.51 4561.64 73.59 1.00 290.62 2647.81
   08:24:30.344.08-Feb-2020 3134.51 4564.22 73.59 1.00 290.82 2647.81
   08:24:30.544.08-Feb-2020 3134.51 4567.17 73.59 1.00 291.02 2647.81
   08:24:30.744.08-Feb-2020 3134.51 4567.17 73.59 1.00 291.22 2647.81
   08:24:30.944.08-Feb-2020 3134.51 4572.32 73.59 1.00 291.42 2647.81
   08:24:31.144.08-Feb-2020 3134.51 4574.90 73.59 1.00 291.62 2647.81
   08:24:31.344.08-Feb-2020 3134.51 4577.37 73.59 1.00 291.82 2647.81
   08:24:31.544.08-Feb-2020 3134.51 4579.63 73.59 1.00 292.02 2647.81
   08:24:31.744.08-Feb-2020 3134.51 4579.63 73.59 1.00 292.22 2647.81
   08:24:31.944.08-Feb-2020 3134.51 4583.93 73.59 1.00 292.42 2647.81
   08:24:32.144.08-Feb-2020 3134.51 4586.20 73.59 1.00 292.62 2647.81
   08:24:32.344.08-Feb-2020 3134.51 4588.42 73.59 1.00 292.82 2647.81
   08:24:32.544.08-Feb-2020 3134.51 4590.27 73.59 1.00 293.02 2647.81
   08:24:32.744.08-Feb-2020 3134.51 4590.27 73.59 1.00 293.22 2647.81
   08:24:32.944.08-Feb-2020 3134.51 4594.36 73.59 1.00 293.42 2647.81
   08:24:33.144.08-Feb-2020 3134.51 4596.14 73.59 1.00 293.62 2647.81
   08:24:33.344.08-Feb-2020 3134.51 4598.02 73.59 1.00 293.82 2647.81
   08:24:33.544.08-Feb-2020 3134.51 4599.71 73.59 1.00 294.02 2647.81
   08:24:33.744.08-Feb-2020 3134.51 4599.71 73.59 1.00 294.22 2647.81
   08:24:33.944.08-Feb-2020 3134.51 4603.32 73.59 1.00 294.42 2647.81
   08:24:34.144.08-Feb-2020 3134.51 4605.07 73.59 1.00 294.62 2647.81
   08:24:34.344.08-Feb-2020 3134.51 4606.44 73.59 1.00 294.82 2647.81
   08:24:34.544.08-Feb-2020 3134.51 4608.05 73.59 1.00 295.02 2647.81
   08:24:34.744.08-Feb-2020 3134.51 4608.05 73.59 1.00 295.22 2647.81
   08:24:34.944.08-Feb-2020 3134.51 4611.31 73.59 1.00 295.42 2647.81
   08:24:35.144.08-Feb-2020 3134.51 4612.87 73.59 1.00 295.62 2647.81
   08:24:35.344.08-Feb-2020 3134.51 4614.18 73.59 1.00 295.82 2647.81
   08:24:35.544.08-Feb-2020 3134.51 4615.69 73.59 1.00 296.02 2647.81
   08:24:35.744.08-Feb-2020 3134.51 4615.69 73.59 1.00 296.22 2647.81
   08:24:35.944.08-Feb-2020 3134.51 4618.54 73.59 1.00 296.42 2647.81
   08:24:36.144.08-Feb-2020 3134.51 4619.76 73.59 1.00 296.62 2647.81
   08:24:36.344.08-Feb-2020 3134.51 4620.98 73.59 1.00 296.82 2647.81
   08:24:36.544.08-Feb-2020 3134.51 4622.18 73.59 1.00 297.02 2647.81
   08:24:36.745.08-Feb-2020 3134.51 4622.18 73.59 1.00 297.22 2647.81
   08:24:36.945.08-Feb-2020 3134.51 4624.63 73.58 1.00 297.42 2647.81
   08:24:37.145.08-Feb-2020 3134.51 4625.86 73.58 1.00 297.62 2647.81
   08:24:37.345.08-Feb-2020 3134.51 4627.33 73.58 1.00 297.82 2647.81
   08:24:37.545.08-Feb-2020 3134.51 4628.47 73.58 1.00 298.02 2647.81
   08:24:37.745.08-Feb-2020 3134.51 4628.47 73.58 1.00 298.22 2647.81
   08:24:37.945.08-Feb-2020 3134.51 4630.82 73.58 1.00 298.42 2647.81
   08:24:38.145.08-Feb-2020 3134.51 4631.85 73.58 1.00 298.63 2647.81
   08:24:38.345.08-Feb-2020 3134.51 4632.88 73.58 1.00 298.83 2647.81
