~Version Information
 VERS.                  2.0:   CWLS log ASCII Standard -VERSION 2.0
 WRAP.                   NO:   One line per depth step
~Well Information Block
#MNEM.UNIT     VALUE/NAME     DESCRIPTION
#---------     -----------    ---------------------------
 STRT.S             12:03:05 08-Feb-20: START TIME 12:03:05 08-Feb-20
 STOP.S             12:09:57 08-Feb-20: STOP TIME  12:09:57 08-Feb-20
 STEP.S                   0.00: STEP TIME
 NULL.                 -999.25: NULL VALUE
 DFWT.                        :  DIST FWL TEXT
 DFST.                        :  DIST FSL TEXT
 DMF .             Drill Floor:  DRILL MEAS FROM
 STIM.      07.00.00 09-Jan-20:  START TIME
 DATE.      14.04.48 07-Feb-20:  END TIME
 SPUD.               09-Jan-20:  SPUD DATE
 NREF.                    Grid:  NORTH REFERENCE
 HPTY.       Minimum Curvature:  HOLE POS TYPE
 DMOD.             Drill Model:  DRILL MOD DESC
 SVYD.                  Survey:  SURVEY DESC
 ILTD.               Lithology:  INTERP LTH DESC
 FTOP.          Formation Tops:  FORM TOPS DESC
 SON .        AZ-XX-0905059384:  JOB NUMBER
 MDS .        Operator Entered:  MAG DATA SOURCE
 WTYP.                Deviated:  WELL TYPE
 COMP.     BP Exploration (Caspian Sea) Ltd.:  COMPANY
 UWI .                     N/A:  UNIQUE WELL IDENTIFIER
 API .                     N/A:  API NUMBER
 BASE.              Azerbaijan:  LOGGING EQUIPMENT BASE LOCATION
 REGN.                   EESSA:  REGION
 PROV.                    Baku:  PROVINCE
 STAT.                    Baku:  STATE NAME
 CTRY.              Azerbaijan:  COUNTRY NAME
 FLD .                     ACG:  FIELD NAME
 SRVC.     TURAN Drilling & Engineering:  CONTRACTOR
 MWDS.                    Baku:  MWD SHOP
 WELL.                     J22:  WELL NAME
 RIG .             West Chirag:  RIG NAME
 DOE .                     N/A:  DOE NUMBER
 DCON.         Sperry Drilling:  DIRECTNL CONTR
 UNIT.                     N/A:  LOGGING EQUIPMENT ID
 PDAT.          Mean Sea Level:  PERMANENT DATUM
 JOBN.        AZ-XX-0905059384:  JOB TICKET NUMB
 CNTY.                        :  COUNTY
 LOC .                        :  LOCATION
 LMF .             Drill Floor:  LOG MEASURED FROM
 TVDS.m                  43.00:  TVDSS CORRECTN
 LATI.deg                40.13:  LATITUDE
 LONG.deg                51.22:  LONGITUDE
 WHNS.m                  10.28:  WELL HEAD N/S
 WHEW.m                  -6.24:  WELL HEAD E/W
 UTMX.m              519005.06:  UTM X
 UTMY.m             4443793.85:  UTM Y
 DFWL.m                   0.00:  DISTANCE FWL
 DFSL.m                   0.00:  DISTANCE FSL
 SDEP.m                 362.00:  START DEPTH
 TDD .m                 904.00:  TOTAL DEPTH (DRILLER)
 VSDR.deg               148.53:  VERT SEC DIRECT
 GVFD.g                   1.00:  GRAVITY FIELD
 MFLD.nT              50277.00:  MAGNETIC FIELD
 MDIP.deg                59.56:  MAGNETIC DIP
 MDEC.deg                 6.42:  MAGNETIC DECL
 GRDC.deg                 0.15:  GRID CORRECTION
 AZTC.deg                 6.27:  AZM TOTAL CORR
 EPD .m                   0.00:  ELEVATION
 EGL .m                   0.00:  GROUND ELEVATION
 WDMS.m                 169.80:  WD ELEV
 APD .m                  43.00:  DEPTH ABOVE PD
 AGAP.m                  43.00:  AIR GAP
 VSEW.m                  -6.24:  VERT SEC E/W
 VSNS.m                  10.28:  VERT SEC N/S
 DEP .m                   0.00:  DEPTH
 EKB .m                   0.00:  KB ELEVATION
 EDF .m                  43.00:  DF ELEVATION
 TDL .m                1183.00:  TOTAL DEPTH (LOGGER)
 VSC .                       0:  VS TO CLOSURE
 MAGU.                 1850021:  MAGUTM CHECKSUM
~Parameter Information Block
#MNEM.UNIT       Value        Description
#---------     -----------    ---------------------------
 AV  .mps                 4.00:  Ann Velocity 
 AVMX.mps                 4.50:  Max Ann Veloc 
 AZIF.deg               145.38:  Azm, Final 
 BHAT.        Rotary Steerable:  BHA Type 
 BROT.°/30m               3.00:  Build Rotating 
 BS  .in                 12.25:  Bit Size 
 BSZ .in                 12.25:  Bit Size 
 BTPL.psig              650.00:  Bit Press Loss 
 CABU.                      No:  Customer Abuse 
 COMM.                     ÌSf:  Run Comments 1 
 TCS .hr                101.62:  Time Ciculation Ended 
 CV  .mps                 5.00:  Crit Velocity 
 CVMX.mps                 5.00:  Max Crit Veloc 
 DD1 .             Aziz Aliyev:  Direct Drillr 1 
 DD2 .      Fakhraddin Guliyev:  Direct Drillr 2 
 DDSV.                 iCruise:  DD Service 
 DEFF.%                  97.00:  % Det Eff 
 DLRX.°/30m               4.16:  Dogleg Rot Max 
 DLSO.°/30m               3.20:  Dogleg Oriented 
 DLSX.°/30m               4.10:  Dogleg Str Max 
 DRET.      23.12.00 07-Feb-20:  Drill End Time 
 DRST.      11.30.00 04-Feb-20:  Drill Start Tim 
 DTIM.hr                 61.06:  Time Drilling 
 EDEP.m                3219.01:  End Depth 
 ENG1.         Almaz Almadatov:  Engineer 1 
 ENG2.         Dair Mahammadov:  Engineer 2 
 ENG3.          Nazrin Asgarli:  Engineer 3 
 ETIM.      02.30.00 11-Feb-20:  End Time 
 FLOI.gpm              1100.00:  Flow In 
 FLON.gpm               900.00:  Flow In Min 
 FLOS.cptm               55.00:  Fluid Loss 
 FLOX.gpm              1150.00:  Flow In Max 
 FTRO.       Formation Presure:  FTWD Run Obj 
 HFLO.                      No:  High Flow 
 HPRE.                      No:  High Pressure 
 HTEM.                      No:  High Temp 
 HYDO.m                   1.80:  Hydro Offset 
 IFIN.deg                75.11:  Inc, Final 
 IMAX.deg                75.11:  Inc Max 
 IMIN.deg                33.55:  Inc Min 
 IMND.m                2186.05:  Inc Min Depth 
 IMXD.m                3205.61:  Inc Max Depth 
 JARR.                      No:  Jarring 
 LETM.      23.12.00 07-Feb-20:  Log End Time 
 LOST.hr                     0:  Lost Rig Time 
 LSTM.      11.30.00 04-Feb-20:  Log Start Time 
 MDCL.ppm             40000.00:  Mud Chlorides 
 MDES.     Inversion Oil/Synthetic:  Mud Desc 
 DFD .sg                  1.49:  Mud Density 
 MDMN.sg                  1.49:  Dens Mud Min 
 MDMX.sg                  1.49:  Dens Mud Max 
 MOIL.                      73:  Run Mud Oil % 
 MOWR.                   73:27:  Run Mud OWR 
 MSND.                     0.1:  Run Mud Sand % 
 MSOL.                    20.1:  Run Mud Solids% 
 DFV .spqt               78.00:  Mud Viscosity 
 MWOD.in                  8.00:  MWD Tool OD 
 MWSI.                      No:  Serv Intrp, MWD 
 OTIM.hr                177.15:  Time Operating 
 PCON.          Wear / Scratch:  Pad Condition 
 PMAX.psia            10493.93:  Press Op, Max 
 PV  .cP                 73.00:  Mud PV 
 RUN .                     700:  Run Number 
 ROPA.m/hr               15.00:  ROP Avg 
 ROPN.m/hr               10.00:  ROP Min 
 ROPX.m/hr               35.00:  ROP Max 
 RPMA.rpm               130.00:  RPM Surface Avg 
 RPMN.rpm                80.00:  RPM Surface Min 
 RPMX.rpm               150.00:  RPM Surface Max 
 RRUN.                    L402:  Rig Run Number 
 RTIM.hr                 80.50:  Time Reaming 
 SAZI.deg               155.55:  Azm, Start 
 SDEP.m                2036.00:  Start Depth 
 SIDD.                      No:  Serv Intrp, DD 
 SINC.deg                35.44:  Inc, Start 
 SPPA.psig             4270.00:  SPP Avg 
 SPPN.psig             2800.00:  SPP Min 
 SPPX.psig             4850.00:  SPP Max 
 STIM.      09.30.00 03-Feb-20:  Start Time 
 SVCS.                 DD, MWD:  Services 
 SVER.                    9.20:  Sperry Version 
 TDAT.m                1183.00:  Tot Depth Attmp 
 TDDF.                      No:  Trip for DD 
 TDLG.m                1183.00:  Tot Depth Loggd 
 TFF .                      No:  Trip for Fail 
 TQAA.f-kp               16.00:  Torque Abs Avg 
 TQAN.f-kp               10.00:  Torque Abs Min 
 TQAX.f-kp               20.00:  Torque Abs Max 
 TRRT.°/30m               1.00:  Turn Rotating 
 MRT .                  EWR-M5:  Maximum Recorded Temperature 
 TTMX.degC               80.39:  Max Tool Temp 
 VS01.               13098498 :  Virtual Str1 SN 
 VS02.                90569596:  Virtual Str2 SN 
 VS03.                90523599:  Virtual Str3 SN 
 VS04.                90573553:  Virtual Str4 SN 
 VS05.                90598598:  Virtual Str5 SN 
 VS06.                90577297:  Virtual Str6 SN 
 WBMN.klb                13.00:  WOB Min 
 WITN.         Alistair Sprott:  Customer Rep 
 WITN.           Rufat Babayev:  Customer Rep 2 
 WOBA.klb                15.00:  WOB Avg 
 WOBX.klb                20.00:  WOB Max 
 YP  .lhf2               39.00:  Yield Point 
~Curve Information Block
#MNEM.UNIT                 API CODE     Curve Description
#---------               -----------    ---------------------------
 TIME.HHMMSS            00 000 000 000:  GT Time & Date
 GTDEPTH.m              00 000 000 000:  GT Depth
 GTPQH.psia             00 000 000 000:  GT HR Quartz Pressure
 GTTQ.degC              00 000 000 000:  GT Quartz Temperature
 GTTN.NONE              00 000 000 000:  GT Test Number
 GTET.sec               00 000 000 000:  GT Elapsed Test Time
 GTTVD.m                00 000 000 000:  GT True Vertical Depth
#Other Information
#
#WARRANTY: Halliburton will use its best efforts to furnish customers with 
#accurate information and interpretations that are part of, and incident to, the services 
#provided.  However, Halliburton cannot and does not warrant the accuracy 
#or correctness of such information and interpretations.  Under no circumstances should any 
#such information or interpretation be relied upon as the sole basis for any drilling, 
#completion, production, or financial decision or any procedure involving any risk to the 
#safety of any drilling venture, drilling rig or its crew or any other third party.  The 
#Customer has full responsibility for all drilling, completion and production operation.  
#Halliburton makes no representations or warranties, either expressed or 
#implied, including, but not limited to, the implied warranties of merchantability or fitness 
#for a particular purpose, with respect to the services rendered.  In no event will 
#Halliburton be liable for failure to obtain any particular results or for 
#any damages, including, but not limited to, indirect, special or consequential damages, 
#resulting from the use of any information or interpretation provided by Halliburton.
#
~A           TIME           GTDEPTH  GTPQH  GTTQ  GTTN  GTET   GTTVD  
# ...
   12:09:36.000.08-Feb-2020 3069.01 5736.78 65.84 7.00 391.00 2627.56
   12:09:36.200.08-Feb-2020 3069.01 5736.78 65.84 7.00 391.20 2627.56
   12:09:36.400.08-Feb-2020 3069.01 5734.72 65.84 7.00 391.40 2627.56
   12:09:36.600.08-Feb-2020 3069.01 5735.72 65.84 7.00 391.60 2627.56
   12:09:36.800.08-Feb-2020 3069.01 5734.52 65.84 7.00 391.80 2627.56
   12:09:37.000.08-Feb-2020 3069.01 5734.31 65.84 7.00 392.00 2627.56
   12:09:37.200.08-Feb-2020 3069.01 5734.31 65.84 7.00 392.20 2627.56
   12:09:37.400.08-Feb-2020 3069.01 5733.59 65.84 7.00 392.40 2627.56
   12:09:37.600.08-Feb-2020 3069.01 5733.96 65.84 7.00 392.60 2627.56
   12:09:37.800.08-Feb-2020 3069.01 5739.95 65.84 7.00 392.80 2627.56
   12:09:38.000.08-Feb-2020 3069.01 5731.62 65.84 7.00 393.00 2627.56
   12:09:38.200.08-Feb-2020 3069.01 5731.62 65.84 7.00 393.20 2627.56
   12:09:38.400.08-Feb-2020 3069.01 5735.55 65.84 7.00 393.40 2627.56
   12:09:38.600.08-Feb-2020 3069.01 5734.52 65.84 7.00 393.60 2627.56
   12:09:38.800.08-Feb-2020 3069.01 5734.87 65.83 7.00 393.80 2627.56
   12:09:39.000.08-Feb-2020 3069.01 5734.27 65.83 7.00 394.00 2627.56
   12:09:39.200.08-Feb-2020 3069.01 5734.27 65.83 7.00 394.20 2627.56
   12:09:39.400.08-Feb-2020 3069.01 5733.15 65.83 7.00 394.40 2627.56
   12:09:39.600.08-Feb-2020 3069.01 5733.23 65.83 7.00 394.60 2627.56
   12:09:39.800.08-Feb-2020 3069.01 5733.28 65.83 7.00 394.80 2627.56
   12:09:40.000.08-Feb-2020 3069.01 5740.10 65.83 7.00 395.00 2627.56
   12:09:40.200.08-Feb-2020 3069.01 5740.10 65.83 7.00 395.20 2627.56
   12:09:40.400.08-Feb-2020 3069.01 5736.04 65.83 7.00 395.40 2627.56
   12:09:40.600.08-Feb-2020 3069.01 5740.51 65.83 7.00 395.60 2627.56
   12:09:40.800.08-Feb-2020 3069.01 5731.68 65.83 7.00 395.80 2627.56
   12:09:41.000.08-Feb-2020 3069.01 5737.34 65.83 7.00 396.00 2627.56
   12:09:41.200.08-Feb-2020 3069.01 5737.34 65.83 7.00 396.20 2627.56
   12:09:41.400.08-Feb-2020 3069.01 5735.90 65.83 7.00 396.40 2627.56
   12:09:41.600.08-Feb-2020 3069.01 5737.94 65.83 7.00 396.60 2627.56
   12:09:41.800.08-Feb-2020 3069.01 5733.13 65.83 7.00 396.80 2627.56
   12:09:42.000.08-Feb-2020 3069.01 5736.53 65.83 7.00 397.00 2627.56
   12:09:42.200.08-Feb-2020 3069.01 5736.53 65.83 7.00 397.20 2627.56
   12:09:42.400.08-Feb-2020 3069.01 5737.08 65.83 7.00 397.40 2627.56
   12:09:42.600.08-Feb-2020 3069.01 5732.58 65.83 7.00 397.60 2627.56
   12:09:42.800.08-Feb-2020 3069.01 5740.39 65.83 7.00 397.80 2627.56
   12:09:43.000.08-Feb-2020 3069.01 5731.05 65.83 7.00 398.00 2627.56
   12:09:43.200.08-Feb-2020 3069.01 5731.05 65.83 7.00 398.20 2627.56
   12:09:43.400.08-Feb-2020 3069.01 5735.31 65.83 7.00 398.40 2627.56
   12:09:43.600.08-Feb-2020 3069.01 5734.76 65.83 7.00 398.60 2627.56
   12:09:43.800.08-Feb-2020 3069.01 5735.35 65.82 7.00 398.80 2627.56
   12:09:44.000.08-Feb-2020 3069.01 5734.69 65.82 7.00 399.00 2627.56
   12:09:44.200.08-Feb-2020 3069.01 5734.69 65.82 7.00 399.20 2627.56
   12:09:44.400.08-Feb-2020 3069.01 5735.01 65.82 7.00 399.40 2627.56
   12:09:44.600.08-Feb-2020 3069.01 5733.84 65.82 7.00 399.60 2627.56
   12:09:44.800.08-Feb-2020 3069.01 5734.26 65.82 7.00 399.80 2627.56
   12:09:45.000.08-Feb-2020 3069.01 5740.03 65.82 7.00 400.00 2627.56
   12:09:45.200.08-Feb-2020 3069.01 5740.03 65.82 7.00 400.20 2627.56
   12:09:45.400.08-Feb-2020 3069.01 5737.23 65.82 7.00 400.40 2627.56
   12:09:45.600.08-Feb-2020 3069.01 5735.31 65.82 7.00 400.60 2627.56
   12:09:45.800.08-Feb-2020 3069.01 5734.55 65.82 7.00 400.80 2627.56
   12:09:46.000.08-Feb-2020 3069.01 5736.18 65.82 7.00 401.00 2627.56
   12:09:46.200.08-Feb-2020 3069.01 5736.18 65.82 7.00 401.20 2627.56
   12:09:46.400.08-Feb-2020 3069.01 5735.69 65.82 7.00 401.40 2627.56
   12:09:46.600.08-Feb-2020 3069.01 5735.27 65.82 7.00 401.60 2627.56
   12:09:46.800.08-Feb-2020 3069.01 5734.92 65.82 7.00 401.80 2627.56
   12:09:47.000.08-Feb-2020 3069.01 5735.12 65.82 7.00 402.00 2627.56
   12:09:47.200.08-Feb-2020 3069.01 5735.12 65.82 7.00 402.20 2627.56
   12:09:47.400.08-Feb-2020 3069.01 5730.27 65.82 7.00 402.40 2627.56
   12:09:47.600.08-Feb-2020 3069.01 5736.54 65.82 7.00 402.60 2627.56
   12:09:47.800.08-Feb-2020 3069.01 5740.88 65.82 7.00 402.80 2627.56
   12:09:48.000.08-Feb-2020 3069.01 5731.91 65.82 7.00 403.00 2627.56
   12:09:48.200.08-Feb-2020 3069.01 5731.91 65.82 7.00 403.20 2627.56
   12:09:48.400.08-Feb-2020 3069.01 5739.27 65.81 7.00 403.40 2627.56
   12:09:48.600.08-Feb-2020 3069.01 5732.95 65.81 7.00 403.60 2627.56
   12:09:48.800.08-Feb-2020 3069.01 5738.23 65.81 7.00 403.80 2627.56
   12:09:49.000.08-Feb-2020 3069.01 5733.39 65.81 7.00 404.00 2627.56
   12:09:49.200.08-Feb-2020 3069.01 5733.39 65.81 7.00 404.20 2627.56
   12:09:49.400.08-Feb-2020 3069.01 5734.32 65.81 7.00 404.40 2627.56
   12:09:49.600.08-Feb-2020 3069.01 5736.78 65.81 7.00 404.60 2627.56
   12:09:49.800.08-Feb-2020 3069.01 5732.88 65.81 7.00 404.80 2627.56
   12:09:50.000.08-Feb-2020 3069.01 5738.84 65.81 7.00 405.00 2627.56
   12:09:50.200.08-Feb-2020 3069.01 5738.84 65.81 7.00 405.20 2627.56
   12:09:50.400.08-Feb-2020 3069.01 5738.54 65.81 7.00 405.40 2627.56
   12:09:50.600.08-Feb-2020 3069.01 5735.11 65.81 7.00 405.60 2627.56
   12:09:50.800.08-Feb-2020 3069.01 5735.50 65.81 7.00 405.80 2627.56
   12:09:51.000.08-Feb-2020 3069.01 5736.17 65.81 7.00 406.00 2627.56
   12:09:51.200.08-Feb-2020 3069.01 5736.17 65.81 7.00 406.20 2627.56
   12:09:51.400.08-Feb-2020 3069.01 5735.41 65.81 7.00 406.40 2627.56
   12:09:51.600.08-Feb-2020 3069.01 5735.39 65.81 7.00 406.60 2627.56
   12:09:51.800.08-Feb-2020 3069.01 5734.54 65.81 7.00 406.80 2627.56
   12:09:52.000.08-Feb-2020 3069.01 5734.28 65.81 7.00 407.00 2627.56
   12:09:52.200.08-Feb-2020 3069.01 5734.28 65.81 7.00 407.20 2627.56
   12:09:52.400.08-Feb-2020 3069.01 5737.69 65.81 7.00 407.40 2627.56
   12:09:52.600.08-Feb-2020 3069.01 5736.90 65.81 7.00 407.60 2627.56
   12:09:52.800.08-Feb-2020 3069.01 5735.06 65.81 7.00 407.80 2627.56
   12:09:53.000.08-Feb-2020 3069.01 5735.46 65.81 7.00 408.00 2627.56
   12:09:53.200.08-Feb-2020 3069.01 5735.46 65.81 7.00 408.20 2627.56
   12:09:53.400.08-Feb-2020 3069.01 5734.93 65.80 7.00 408.40 2627.56
   12:09:53.600.08-Feb-2020 3069.01 5735.27 65.80 7.00 408.60 2627.56
   12:09:53.800.08-Feb-2020 3069.01 5734.22 65.80 7.00 408.80 2627.56
   12:09:54.000.08-Feb-2020 3069.01 5734.12 65.80 7.00 409.00 2627.56
   12:09:54.200.08-Feb-2020 3069.01 5734.12 65.80 7.00 409.20 2627.56
   12:09:54.400.08-Feb-2020 3069.01 5737.03 65.80 7.00 409.40 2627.56
   12:09:54.600.08-Feb-2020 3069.01 5732.17 65.80 7.00 409.60 2627.56
   12:09:54.800.08-Feb-2020 3069.01 5736.87 65.80 7.00 409.80 2627.56
   12:09:55.000.08-Feb-2020 3069.01 5740.06 65.80 7.00 410.00 2627.56
   12:09:55.200.08-Feb-2020 3069.01 5740.06 65.80 7.00 410.20 2627.56
   12:09:55.400.08-Feb-2020 3069.01 5735.77 65.80 7.00 410.40 2627.56
   12:09:55.600.08-Feb-2020 3069.01 5733.79 65.80 7.00 410.60 2627.56
   12:09:55.800.08-Feb-2020 3069.01 5736.12 65.80 7.00 410.80 2627.56
   12:09:56.000.08-Feb-2020 3069.01 5735.19 65.80 7.00 411.00 2627.56
   12:09:56.200.08-Feb-2020 3069.01 5735.19 65.80 7.00 411.20 2627.56
   12:09:56.400.08-Feb-2020 3069.01 5733.43 65.80 7.00 411.40 2627.56
   12:09:56.600.08-Feb-2020 3069.01 5736.15 65.80 7.00 411.60 2627.56
   12:09:56.800.08-Feb-2020 3069.01 5734.67 65.80 7.00 411.80 2627.56
   12:09:57.000.08-Feb-2020 3069.01 5734.45 65.80 7.00 412.00 2627.56
   12:09:57.200.08-Feb-2020 3069.01 5734.45 65.80 7.00 412.20 2627.56
   12:09:57.400.08-Feb-2020 3069.01 5737.07 65.80 7.00 412.40 2627.56
   12:09:57.600.08-Feb-2020 3069.01 5736.43 65.80 7.00 412.60 2627.56
   12:09:57.800.08-Feb-2020 3069.01 5735.33 65.80 7.00 412.80 2627.56
