~Version Information
 VERS.                  2.0:   CWLS log ASCII Standard -VERSION 2.0
 WRAP.                   NO:   One line per depth step
~Well Information Block
#MNEM.UNIT     VALUE/NAME     DESCRIPTION
#---------     -----------    ---------------------------
 STRT.S             08:41:50 08-Feb-20: START TIME 08:41:50 08-Feb-20
 STOP.S             08:48:48 08-Feb-20: STOP TIME  08:48:48 08-Feb-20
 STEP.S                   0.00: STEP TIME
 NULL.                 -999.25: NULL VALUE
 DFWT.                        :  DIST FWL TEXT
 DFST.                        :  DIST FSL TEXT
 DMF .             Drill Floor:  DRILL MEAS FROM
 STIM.      07.00.00 09-Jan-20:  START TIME
 DATE.      14.04.48 07-Feb-20:  END TIME
 SPUD.               09-Jan-20:  SPUD DATE
 NREF.                    Grid:  NORTH REFERENCE
 HPTY.       Minimum Curvature:  HOLE POS TYPE
 DMOD.             Drill Model:  DRILL MOD DESC
 SVYD.                  Survey:  SURVEY DESC
 ILTD.               Lithology:  INTERP LTH DESC
 FTOP.          Formation Tops:  FORM TOPS DESC
 SON .        AZ-XX-0905059384:  JOB NUMBER
 MDS .        Operator Entered:  MAG DATA SOURCE
 WTYP.                Deviated:  WELL TYPE
 COMP.     BP Exploration (Caspian Sea) Ltd.:  COMPANY
 UWI .                     N/A:  UNIQUE WELL IDENTIFIER
 API .                     N/A:  API NUMBER
 BASE.              Azerbaijan:  LOGGING EQUIPMENT BASE LOCATION
 REGN.                   EESSA:  REGION
 PROV.                    Baku:  PROVINCE
 STAT.                    Baku:  STATE NAME
 CTRY.              Azerbaijan:  COUNTRY NAME
 FLD .                     ACG:  FIELD NAME
 SRVC.     TURAN Drilling & Engineering:  CONTRACTOR
 MWDS.                    Baku:  MWD SHOP
 WELL.                     J22:  WELL NAME
 RIG .             West Chirag:  RIG NAME
 DOE .                     N/A:  DOE NUMBER
 DCON.         Sperry Drilling:  DIRECTNL CONTR
 UNIT.                     N/A:  LOGGING EQUIPMENT ID
 PDAT.          Mean Sea Level:  PERMANENT DATUM
 JOBN.        AZ-XX-0905059384:  JOB TICKET NUMB
 CNTY.                        :  COUNTY
 LOC .                        :  LOCATION
 LMF .             Drill Floor:  LOG MEASURED FROM
 TVDS.m                  43.00:  TVDSS CORRECTN
 LATI.deg                40.13:  LATITUDE
 LONG.deg                51.22:  LONGITUDE
 WHNS.m                  10.28:  WELL HEAD N/S
 WHEW.m                  -6.24:  WELL HEAD E/W
 UTMX.m              519005.06:  UTM X
 UTMY.m             4443793.85:  UTM Y
 DFWL.m                   0.00:  DISTANCE FWL
 DFSL.m                   0.00:  DISTANCE FSL
 SDEP.m                 362.00:  START DEPTH
 TDD .m                 904.00:  TOTAL DEPTH (DRILLER)
 VSDR.deg               148.53:  VERT SEC DIRECT
 GVFD.g                   1.00:  GRAVITY FIELD
 MFLD.nT              50277.00:  MAGNETIC FIELD
 MDIP.deg                59.56:  MAGNETIC DIP
 MDEC.deg                 6.42:  MAGNETIC DECL
 GRDC.deg                 0.15:  GRID CORRECTION
 AZTC.deg                 6.27:  AZM TOTAL CORR
 EPD .m                   0.00:  ELEVATION
 EGL .m                   0.00:  GROUND ELEVATION
 WDMS.m                 169.80:  WD ELEV
 APD .m                  43.00:  DEPTH ABOVE PD
 AGAP.m                  43.00:  AIR GAP
 VSEW.m                  -6.24:  VERT SEC E/W
 VSNS.m                  10.28:  VERT SEC N/S
 DEP .m                   0.00:  DEPTH
 EKB .m                   0.00:  KB ELEVATION
 EDF .m                  43.00:  DF ELEVATION
 TDL .m                1183.00:  TOTAL DEPTH (LOGGER)
 VSC .                       0:  VS TO CLOSURE
 MAGU.                 1850021:  MAGUTM CHECKSUM
~Parameter Information Block
#MNEM.UNIT       Value        Description
#---------     -----------    ---------------------------
 AV  .mps                 4.00:  Ann Velocity 
 AVMX.mps                 4.50:  Max Ann Veloc 
 AZIF.deg               145.38:  Azm, Final 
 BHAT.        Rotary Steerable:  BHA Type 
 BROT.°/30m               3.00:  Build Rotating 
 BS  .in                 12.25:  Bit Size 
 BSZ .in                 12.25:  Bit Size 
 BTPL.psig              650.00:  Bit Press Loss 
 CABU.                      No:  Customer Abuse 
 COMM.                     [:  Run Comments 1 
 TCS .hr                101.62:  Time Ciculation Ended 
 CV  .mps                 5.00:  Crit Velocity 
 CVMX.mps                 5.00:  Max Crit Veloc 
 DD1 .             Aziz Aliyev:  Direct Drillr 1 
 DD2 .      Fakhraddin Guliyev:  Direct Drillr 2 
 DDSV.                 iCruise:  DD Service 
 DEFF.%                  97.00:  % Det Eff 
 DLRX.°/30m               4.16:  Dogleg Rot Max 
 DLSO.°/30m               3.20:  Dogleg Oriented 
 DLSX.°/30m               4.10:  Dogleg Str Max 
 DRET.      23.12.00 07-Feb-20:  Drill End Time 
 DRST.      11.30.00 04-Feb-20:  Drill Start Tim 
 DTIM.hr                 61.06:  Time Drilling 
 EDEP.m                3219.01:  End Depth 
 ENG1.         Almaz Almadatov:  Engineer 1 
 ENG2.         Dair Mahammadov:  Engineer 2 
 ENG3.          Nazrin Asgarli:  Engineer 3 
 ETIM.      02.30.00 11-Feb-20:  End Time 
 FLOI.gpm              1100.00:  Flow In 
 FLON.gpm               900.00:  Flow In Min 
 FLOS.cptm               55.00:  Fluid Loss 
 FLOX.gpm              1150.00:  Flow In Max 
 FTRO.       Formation Presure:  FTWD Run Obj 
 HFLO.                      No:  High Flow 
 HPRE.                      No:  High Pressure 
 HTEM.                      No:  High Temp 
 HYDO.m                   1.80:  Hydro Offset 
 IFIN.deg                75.11:  Inc, Final 
 IMAX.deg                75.11:  Inc Max 
 IMIN.deg                33.55:  Inc Min 
 IMND.m                2186.05:  Inc Min Depth 
 IMXD.m                3205.61:  Inc Max Depth 
 JARR.                      No:  Jarring 
 LETM.      23.12.00 07-Feb-20:  Log End Time 
 LOST.hr                     0:  Lost Rig Time 
 LSTM.      11.30.00 04-Feb-20:  Log Start Time 
 MDCL.ppm             40000.00:  Mud Chlorides 
 MDES.     Inversion Oil/Synthetic:  Mud Desc 
 DFD .sg                  1.49:  Mud Density 
 MDMN.sg                  1.49:  Dens Mud Min 
 MDMX.sg                  1.49:  Dens Mud Max 
 MOIL.                      73:  Run Mud Oil % 
 MOWR.                   73:27:  Run Mud OWR 
 MSND.                     0.1:  Run Mud Sand % 
 MSOL.                    20.1:  Run Mud Solids% 
 DFV .spqt               78.00:  Mud Viscosity 
 MWOD.in                  8.00:  MWD Tool OD 
 MWSI.                      No:  Serv Intrp, MWD 
 OTIM.hr                177.15:  Time Operating 
 PCON.          Wear / Scratch:  Pad Condition 
 PMAX.psia            10493.93:  Press Op, Max 
 PV  .cP                 73.00:  Mud PV 
 RUN .                     700:  Run Number 
 ROPA.m/hr               15.00:  ROP Avg 
 ROPN.m/hr               10.00:  ROP Min 
 ROPX.m/hr               35.00:  ROP Max 
 RPMA.rpm               130.00:  RPM Surface Avg 
 RPMN.rpm                80.00:  RPM Surface Min 
 RPMX.rpm               150.00:  RPM Surface Max 
 RRUN.                    L402:  Rig Run Number 
 RTIM.hr                 80.50:  Time Reaming 
 SAZI.deg               155.55:  Azm, Start 
 SDEP.m                2036.00:  Start Depth 
 SIDD.                      No:  Serv Intrp, DD 
 SINC.deg                35.44:  Inc, Start 
 SPPA.psig             4270.00:  SPP Avg 
 SPPN.psig             2800.00:  SPP Min 
 SPPX.psig             4850.00:  SPP Max 
 STIM.      09.30.00 03-Feb-20:  Start Time 
 SVCS.                 DD, MWD:  Services 
 SVER.                    9.20:  Sperry Version 
 TDAT.m                1183.00:  Tot Depth Attmp 
 TDDF.                      No:  Trip for DD 
 TDLG.m                1183.00:  Tot Depth Loggd 
 TFF .                      No:  Trip for Fail 
 TQAA.f-kp               16.00:  Torque Abs Avg 
 TQAN.f-kp               10.00:  Torque Abs Min 
 TQAX.f-kp               20.00:  Torque Abs Max 
 TRRT.°/30m               1.00:  Turn Rotating 
 MRT .                  EWR-M5:  Maximum Recorded Temperature 
 TTMX.degC               80.39:  Max Tool Temp 
 VS01.               13098498 :  Virtual Str1 SN 
 VS02.                90569596:  Virtual Str2 SN 
 VS03.                90523599:  Virtual Str3 SN 
 VS04.                90573553:  Virtual Str4 SN 
 VS05.                90598598:  Virtual Str5 SN 
 VS06.                90577297:  Virtual Str6 SN 
 WBMN.klb                13.00:  WOB Min 
 WITN.         Alistair Sprott:  Customer Rep 
 WITN.           Rufat Babayev:  Customer Rep 2 
 WOBA.klb                15.00:  WOB Avg 
 WOBX.klb                20.00:  WOB Max 
 YP  .lhf2               39.00:  Yield Point 
~Curve Information Block
#MNEM.UNIT                 API CODE     Curve Description
#---------               -----------    ---------------------------
 TIME.HHMMSS            00 000 000 000:  GT Time & Date
 GTDEPTH.m              00 000 000 000:  GT Depth
 GTPQH.psia             00 000 000 000:  GT HR Quartz Pressure
 GTTQ.degC              00 000 000 000:  GT Quartz Temperature
 GTTN.NONE              00 000 000 000:  GT Test Number
 GTET.sec               00 000 000 000:  GT Elapsed Test Time
 GTTVD.m                00 000 000 000:  GT True Vertical Depth
#Other Information
#
#WARRANTY: Halliburton will use its best efforts to furnish customers with 
#accurate information and interpretations that are part of, and incident to, the services 
#provided.  However, Halliburton cannot and does not warrant the accuracy 
#or correctness of such information and interpretations.  Under no circumstances should any 
#such information or interpretation be relied upon as the sole basis for any drilling, 
#completion, production, or financial decision or any procedure involving any risk to the 
#safety of any drilling venture, drilling rig or its crew or any other third party.  The 
#Customer has full responsibility for all drilling, completion and production operation.  
#Halliburton makes no representations or warranties, either expressed or 
#implied, including, but not limited to, the implied warranties of merchantability or fitness 
#for a particular purpose, with respect to the services rendered.  In no event will 
#Halliburton be liable for failure to obtain any particular results or for 
#any damages, including, but not limited to, indirect, special or consequential damages, 
#resulting from the use of any information or interpretation provided by Halliburton.
#
~A           TIME           GTDEPTH  GTPQH  GTTQ  GTTN  GTET   GTTVD  
# ...
   08:47:35.660.08-Feb-2020 3153.01 5766.04 70.97 2.00 345.03 2652.69
   08:47:35.860.08-Feb-2020 3153.01 5766.04 70.97 2.00 345.23 2652.69
   08:47:36.060.08-Feb-2020 3153.01 5768.45 70.97 2.00 345.43 2652.69
   08:47:36.260.08-Feb-2020 3153.01 5765.74 70.97 2.00 345.63 2652.69
   08:47:36.460.08-Feb-2020 3153.01 5764.83 70.97 2.00 345.83 2652.69
   08:47:36.660.08-Feb-2020 3153.01 5766.12 70.97 2.00 346.03 2652.69
   08:47:36.860.08-Feb-2020 3153.01 5766.12 70.97 2.00 346.23 2652.69
   08:47:37.060.08-Feb-2020 3153.01 5765.71 70.97 2.00 346.43 2652.69
   08:47:37.260.08-Feb-2020 3153.01 5765.72 70.97 2.00 346.63 2652.69
   08:47:37.460.08-Feb-2020 3153.01 5766.73 70.97 2.00 346.83 2652.69
   08:47:37.660.08-Feb-2020 3153.01 5766.14 70.97 2.00 347.03 2652.69
   08:47:37.860.08-Feb-2020 3153.01 5766.14 70.97 2.00 347.23 2652.69
   08:47:38.060.08-Feb-2020 3153.01 5772.81 70.97 2.00 347.43 2652.69
   08:47:38.260.08-Feb-2020 3153.01 5766.20 70.97 2.00 347.63 2652.69
   08:47:38.460.08-Feb-2020 3153.01 5764.04 70.97 2.00 347.83 2652.69
   08:47:38.660.08-Feb-2020 3153.01 5771.54 70.97 2.00 348.03 2652.69
   08:47:38.860.08-Feb-2020 3153.01 5771.54 70.97 2.00 348.23 2652.69
   08:47:39.060.08-Feb-2020 3153.01 5764.64 70.97 2.00 348.43 2652.69
   08:47:39.260.08-Feb-2020 3153.01 5764.71 70.97 2.00 348.63 2652.69
   08:47:39.460.08-Feb-2020 3153.01 5774.05 70.97 2.00 348.83 2652.69
   08:47:39.660.08-Feb-2020 3153.01 5764.85 70.97 2.00 349.03 2652.69
   08:47:39.860.08-Feb-2020 3153.01 5764.85 70.97 2.00 349.23 2652.69
   08:47:40.060.08-Feb-2020 3153.01 5771.60 70.97 2.00 349.43 2652.69
   08:47:40.260.08-Feb-2020 3153.01 5764.62 70.97 2.00 349.63 2652.69
   08:47:40.460.08-Feb-2020 3153.01 5762.22 70.97 2.00 349.83 2652.69
   08:47:40.660.08-Feb-2020 3153.01 5763.20 70.97 2.00 350.03 2652.69
   08:47:40.860.08-Feb-2020 3153.01 5763.20 70.97 2.00 350.23 2652.69
   08:47:41.060.08-Feb-2020 3153.01 5767.97 70.97 2.00 350.43 2652.69
   08:47:41.260.08-Feb-2020 3153.01 5767.18 70.97 2.00 350.63 2652.69
   08:47:41.461.08-Feb-2020 3153.01 5765.75 70.97 2.00 350.83 2652.69
   08:47:41.661.08-Feb-2020 3153.01 5766.48 70.97 2.00 351.03 2652.69
   08:47:41.861.08-Feb-2020 3153.01 5766.48 70.97 2.00 351.23 2652.69
   08:47:42.061.08-Feb-2020 3153.01 5765.84 70.97 2.00 351.43 2652.69
   08:47:42.261.08-Feb-2020 3153.01 5767.30 70.97 2.00 351.63 2652.69
   08:47:42.461.08-Feb-2020 3153.01 5766.38 70.97 2.00 351.83 2652.69
   08:47:42.661.08-Feb-2020 3153.01 5766.26 70.97 2.00 352.03 2652.69
   08:47:42.861.08-Feb-2020 3153.01 5766.26 70.97 2.00 352.23 2652.69
   08:47:43.061.08-Feb-2020 3153.01 5765.87 70.97 2.00 352.43 2652.69
   08:47:43.261.08-Feb-2020 3153.01 5769.47 70.97 2.00 352.63 2652.69
   08:47:43.461.08-Feb-2020 3153.01 5766.66 70.97 2.00 352.83 2652.69
   08:47:43.661.08-Feb-2020 3153.01 5765.56 70.97 2.00 353.03 2652.69
   08:47:43.861.08-Feb-2020 3153.01 5765.56 70.97 2.00 353.23 2652.69
   08:47:44.061.08-Feb-2020 3153.01 5767.14 70.97 2.00 353.43 2652.69
   08:47:44.261.08-Feb-2020 3153.01 5766.25 70.97 2.00 353.63 2652.69
   08:47:44.461.08-Feb-2020 3153.01 5767.02 70.97 2.00 353.83 2652.69
   08:47:44.661.08-Feb-2020 3153.01 5766.24 70.97 2.00 354.03 2652.69
   08:47:44.861.08-Feb-2020 3153.01 5766.24 70.97 2.00 354.23 2652.69
   08:47:45.061.08-Feb-2020 3153.01 5765.93 70.96 2.00 354.43 2652.69
   08:47:45.261.08-Feb-2020 3153.01 5765.22 70.96 2.00 354.63 2652.69
   08:47:45.461.08-Feb-2020 3153.01 5768.27 70.96 2.00 354.83 2652.69
   08:47:45.661.08-Feb-2020 3153.01 5766.84 70.96 2.00 355.03 2652.69
   08:47:45.861.08-Feb-2020 3153.01 5766.84 70.96 2.00 355.23 2652.69
   08:47:46.061.08-Feb-2020 3153.01 5768.12 70.96 2.00 355.43 2652.69
   08:47:46.261.08-Feb-2020 3153.01 5767.50 70.96 2.00 355.63 2652.69
   08:47:46.461.08-Feb-2020 3153.01 5764.39 70.96 2.00 355.83 2652.69
   08:47:46.661.08-Feb-2020 3153.01 5765.26 70.96 2.00 356.03 2652.69
   08:47:46.861.08-Feb-2020 3153.01 5765.26 70.96 2.00 356.23 2652.69
   08:47:47.061.08-Feb-2020 3153.01 5765.68 70.96 2.00 356.43 2652.69
   08:47:47.261.08-Feb-2020 3153.01 5764.79 70.96 2.00 356.63 2652.69
   08:47:47.461.08-Feb-2020 3153.01 5768.40 70.96 2.00 356.83 2652.69
   08:47:47.661.08-Feb-2020 3153.01 5767.07 70.96 2.00 357.03 2652.69
   08:47:47.861.08-Feb-2020 3153.01 5767.07 70.96 2.00 357.23 2652.69
   08:47:48.061.08-Feb-2020 3153.01 5765.60 70.96 2.00 357.43 2652.69
   08:47:48.261.08-Feb-2020 3153.01 5773.03 70.96 2.00 357.63 2652.69
   08:47:48.461.08-Feb-2020 3153.01 5765.43 70.96 2.00 357.83 2652.69
   08:47:48.661.08-Feb-2020 3153.01 5765.52 70.96 2.00 358.03 2652.69
   08:47:48.861.08-Feb-2020 3153.01 5765.52 70.96 2.00 358.23 2652.69
   08:47:49.061.08-Feb-2020 3153.01 5767.29 70.96 2.00 358.43 2652.69
   08:47:49.261.08-Feb-2020 3153.01 5765.98 70.96 2.00 358.63 2652.69
   08:47:49.461.08-Feb-2020 3153.01 5767.38 70.96 2.00 358.83 2652.69
   08:47:49.661.08-Feb-2020 3153.01 5767.13 70.96 2.00 359.03 2652.69
   08:47:49.861.08-Feb-2020 3153.01 5767.13 70.96 2.00 359.23 2652.69
   08:47:50.061.08-Feb-2020 3153.01 5766.36 70.96 2.00 359.43 2652.69
   08:47:50.261.08-Feb-2020 3153.01 5766.28 70.96 2.00 359.63 2652.69
   08:47:50.461.08-Feb-2020 3153.01 5770.23 70.96 2.00 359.83 2652.69
   08:47:50.661.08-Feb-2020 3153.01 5766.89 70.96 2.00 360.03 2652.69
   08:47:50.861.08-Feb-2020 3153.01 5766.89 70.96 2.00 360.23 2652.69
   08:47:51.061.08-Feb-2020 3153.01 5765.97 70.96 2.00 360.43 2652.69
   08:47:51.261.08-Feb-2020 3153.01 5766.79 70.96 2.00 360.63 2652.69
   08:47:51.461.08-Feb-2020 3153.01 5765.90 70.96 2.00 360.83 2652.69
   08:47:51.661.08-Feb-2020 3153.01 5766.60 70.96 2.00 361.03 2652.69
   08:47:51.861.08-Feb-2020 3153.01 5766.60 70.96 2.00 361.23 2652.69
   08:47:52.061.08-Feb-2020 3153.01 5765.62 70.96 2.00 361.43 2652.69
   08:47:52.261.08-Feb-2020 3153.01 5765.96 70.96 2.00 361.63 2652.69
   08:47:52.461.08-Feb-2020 3153.01 5765.59 70.96 2.00 361.83 2652.69
   08:47:52.661.08-Feb-2020 3153.01 5772.31 70.96 2.00 362.03 2652.69
   08:47:52.861.08-Feb-2020 3153.01 5772.31 70.96 2.00 362.23 2652.69
   08:47:53.061.08-Feb-2020 3153.01 5764.36 70.96 2.00 362.43 2652.69
   08:47:53.261.08-Feb-2020 3153.01 5770.93 70.96 2.00 362.63 2652.69
   08:47:53.462.08-Feb-2020 3153.01 5766.97 70.96 2.00 362.83 2652.69
   08:47:53.662.08-Feb-2020 3153.01 5765.04 70.96 2.00 363.03 2652.69
   08:47:53.862.08-Feb-2020 3153.01 5765.04 70.96 2.00 363.23 2652.69
   08:47:54.062.08-Feb-2020 3153.01 5772.25 70.96 2.00 363.43 2652.69
   08:47:54.262.08-Feb-2020 3153.01 5765.02 70.96 2.00 363.63 2652.69
   08:47:54.462.08-Feb-2020 3153.01 5764.05 70.96 2.00 363.83 2652.69
   08:47:54.662.08-Feb-2020 3153.01 5771.42 70.96 2.00 364.03 2652.69
   08:47:54.862.08-Feb-2020 3153.01 5771.42 70.96 2.00 364.23 2652.69
   08:47:55.062.08-Feb-2020 3153.01 5763.58 70.96 2.00 364.43 2652.69
   08:47:55.262.08-Feb-2020 3153.01 5765.05 70.96 2.00 364.63 2652.69
   08:47:55.462.08-Feb-2020 3153.01 5767.37 70.96 2.00 364.83 2652.69
   08:47:55.662.08-Feb-2020 3153.01 5768.11 70.96 2.00 365.03 2652.69
   08:47:55.862.08-Feb-2020 3153.01 5768.11 70.96 2.00 365.23 2652.69
   08:47:56.062.08-Feb-2020 3153.01 5765.91 70.95 2.00 365.43 2652.69
   08:47:56.262.08-Feb-2020 3153.01 5766.52 70.95 2.00 365.63 2652.69
   08:47:56.462.08-Feb-2020 3153.01 5766.15 70.95 2.00 365.83 2652.69
   08:47:56.662.08-Feb-2020 3153.01 5765.83 70.95 2.00 366.03 2652.69
   08:47:56.862.08-Feb-2020 3153.01 5765.83 70.95 2.00 366.23 2652.69
   08:47:57.062.08-Feb-2020 3153.01 5766.02 70.95 2.00 366.43 2652.69
   08:47:57.262.08-Feb-2020 3153.01 5765.91 70.95 2.00 366.63 2652.69
   08:47:57.462.08-Feb-2020 3153.01 5765.96 70.95 2.00 366.83 2652.69
   08:47:57.662.08-Feb-2020 3153.01 5765.71 70.95 2.00 367.03 2652.69
   08:47:57.862.08-Feb-2020 3153.01 5765.71 70.95 2.00 367.23 2652.69
   08:47:58.062.08-Feb-2020 3153.01 5767.55 70.95 2.00 367.43 2652.69
   08:47:58.262.08-Feb-2020 3153.01 5765.77 70.95 2.00 367.63 2652.69
   08:47:58.462.08-Feb-2020 3153.01 5766.46 70.95 2.00 367.83 2652.69
