~Version Information
 VERS.                  2.0:   CWLS log ASCII Standard -VERSION 2.0
 WRAP.                   NO:   One line per depth step
~Well Information Block
#MNEM.UNIT     VALUE/NAME     DESCRIPTION
#---------     -----------    ---------------------------
 STRT.S             09:27:25 08-Feb-20: START TIME 09:27:25 08-Feb-20
 STOP.S             09:34:14 08-Feb-20: STOP TIME  09:34:14 08-Feb-20
 STEP.S                   0.00: STEP TIME
 NULL.                 -999.25: NULL VALUE
 DFWT.                        :  DIST FWL TEXT
 DFST.                        :  DIST FSL TEXT
 DMF .             Drill Floor:  DRILL MEAS FROM
 STIM.      07.00.00 09-Jan-20:  START TIME
 DATE.      14.04.48 07-Feb-20:  END TIME
 SPUD.               09-Jan-20:  SPUD DATE
 NREF.                    Grid:  NORTH REFERENCE
 HPTY.       Minimum Curvature:  HOLE POS TYPE
 DMOD.             Drill Model:  DRILL MOD DESC
 SVYD.                  Survey:  SURVEY DESC
 ILTD.               Lithology:  INTERP LTH DESC
 FTOP.          Formation Tops:  FORM TOPS DESC
 SON .        AZ-XX-0905059384:  JOB NUMBER
 MDS .        Operator Entered:  MAG DATA SOURCE
 WTYP.                Deviated:  WELL TYPE
 COMP.     BP Exploration (Caspian Sea) Ltd.:  COMPANY
 UWI .                     N/A:  UNIQUE WELL IDENTIFIER
 API .                     N/A:  API NUMBER
 BASE.              Azerbaijan:  LOGGING EQUIPMENT BASE LOCATION
 REGN.                   EESSA:  REGION
 PROV.                    Baku:  PROVINCE
 STAT.                    Baku:  STATE NAME
 CTRY.              Azerbaijan:  COUNTRY NAME
 FLD .                     ACG:  FIELD NAME
 SRVC.     TURAN Drilling & Engineering:  CONTRACTOR
 MWDS.                    Baku:  MWD SHOP
 WELL.                     J22:  WELL NAME
 RIG .             West Chirag:  RIG NAME
 DOE .                     N/A:  DOE NUMBER
 DCON.         Sperry Drilling:  DIRECTNL CONTR
 UNIT.                     N/A:  LOGGING EQUIPMENT ID
 PDAT.          Mean Sea Level:  PERMANENT DATUM
 JOBN.        AZ-XX-0905059384:  JOB TICKET NUMB
 CNTY.                        :  COUNTY
 LOC .                        :  LOCATION
 LMF .             Drill Floor:  LOG MEASURED FROM
 TVDS.m                  43.00:  TVDSS CORRECTN
 LATI.deg                40.13:  LATITUDE
 LONG.deg                51.22:  LONGITUDE
 WHNS.m                  10.28:  WELL HEAD N/S
 WHEW.m                  -6.24:  WELL HEAD E/W
 UTMX.m              519005.06:  UTM X
 UTMY.m             4443793.85:  UTM Y
 DFWL.m                   0.00:  DISTANCE FWL
 DFSL.m                   0.00:  DISTANCE FSL
 SDEP.m                 362.00:  START DEPTH
 TDD .m                 904.00:  TOTAL DEPTH (DRILLER)
 VSDR.deg               148.53:  VERT SEC DIRECT
 GVFD.g                   1.00:  GRAVITY FIELD
 MFLD.nT              50277.00:  MAGNETIC FIELD
 MDIP.deg                59.56:  MAGNETIC DIP
 MDEC.deg                 6.42:  MAGNETIC DECL
 GRDC.deg                 0.15:  GRID CORRECTION
 AZTC.deg                 6.27:  AZM TOTAL CORR
 EPD .m                   0.00:  ELEVATION
 EGL .m                   0.00:  GROUND ELEVATION
 WDMS.m                 169.80:  WD ELEV
 APD .m                  43.00:  DEPTH ABOVE PD
 AGAP.m                  43.00:  AIR GAP
 VSEW.m                  -6.24:  VERT SEC E/W
 VSNS.m                  10.28:  VERT SEC N/S
 DEP .m                   0.00:  DEPTH
 EKB .m                   0.00:  KB ELEVATION
 EDF .m                  43.00:  DF ELEVATION
 TDL .m                1183.00:  TOTAL DEPTH (LOGGER)
 VSC .                       0:  VS TO CLOSURE
 MAGU.                 1850021:  MAGUTM CHECKSUM
~Parameter Information Block
#MNEM.UNIT       Value        Description
#---------     -----------    ---------------------------
 AV  .mps                 4.00:  Ann Velocity 
 AVMX.mps                 4.50:  Max Ann Veloc 
 AZIF.deg               145.38:  Azm, Final 
 BHAT.        Rotary Steerable:  BHA Type 
 BROT.∞/30m               3.00:  Build Rotating 
 BS  .in                 12.25:  Bit Size 
 BSZ .in                 12.25:  Bit Size 
 BTPL.psig              650.00:  Bit Press Loss 
 CABU.                      No:  Customer Abuse 
 COMM.                     $ÊW:  Run Comments 1 
 TCS .hr                101.62:  Time Ciculation Ended 
 CV  .mps                 5.00:  Crit Velocity 
 CVMX.mps                 5.00:  Max Crit Veloc 
 DD1 .             Aziz Aliyev:  Direct Drillr 1 
 DD2 .      Fakhraddin Guliyev:  Direct Drillr 2 
 DDSV.                 iCruise:  DD Service 
 DEFF.%                  97.00:  % Det Eff 
 DLRX.∞/30m               4.16:  Dogleg Rot Max 
 DLSO.∞/30m               3.20:  Dogleg Oriented 
 DLSX.∞/30m               4.10:  Dogleg Str Max 
 DRET.      23.12.00 07-Feb-20:  Drill End Time 
 DRST.      11.30.00 04-Feb-20:  Drill Start Tim 
 DTIM.hr                 61.06:  Time Drilling 
 EDEP.m                3219.01:  End Depth 
 ENG1.         Almaz Almadatov:  Engineer 1 
 ENG2.         Dair Mahammadov:  Engineer 2 
 ENG3.          Nazrin Asgarli:  Engineer 3 
 ETIM.      02.30.00 11-Feb-20:  End Time 
 FLOI.gpm              1100.00:  Flow In 
 FLON.gpm               900.00:  Flow In Min 
 FLOS.cptm               55.00:  Fluid Loss 
 FLOX.gpm              1150.00:  Flow In Max 
 FTRO.       Formation Presure:  FTWD Run Obj 
 HFLO.                      No:  High Flow 
 HPRE.                      No:  High Pressure 
 HTEM.                      No:  High Temp 
 HYDO.m                   1.80:  Hydro Offset 
 IFIN.deg                75.11:  Inc, Final 
 IMAX.deg                75.11:  Inc Max 
 IMIN.deg                33.55:  Inc Min 
 IMND.m                2186.05:  Inc Min Depth 
 IMXD.m                3205.61:  Inc Max Depth 
 JARR.                      No:  Jarring 
 LETM.      23.12.00 07-Feb-20:  Log End Time 
 LOST.hr                     0:  Lost Rig Time 
 LSTM.      11.30.00 04-Feb-20:  Log Start Time 
 MDCL.ppm             40000.00:  Mud Chlorides 
 MDES.     Inversion Oil/Synthetic:  Mud Desc 
 DFD .sg                  1.49:  Mud Density 
 MDMN.sg                  1.49:  Dens Mud Min 
 MDMX.sg                  1.49:  Dens Mud Max 
 MOIL.                      73:  Run Mud Oil % 
 MOWR.                   73:27:  Run Mud OWR 
 MSND.                     0.1:  Run Mud Sand % 
 MSOL.                    20.1:  Run Mud Solids% 
 DFV .spqt               78.00:  Mud Viscosity 
 MWOD.in                  8.00:  MWD Tool OD 
 MWSI.                      No:  Serv Intrp, MWD 
 OTIM.hr                177.15:  Time Operating 
 PCON.          Wear / Scratch:  Pad Condition 
 PMAX.psia            10493.93:  Press Op, Max 
 PV  .cP                 73.00:  Mud PV 
 RUN .                     700:  Run Number 
 ROPA.m/hr               15.00:  ROP Avg 
 ROPN.m/hr               10.00:  ROP Min 
 ROPX.m/hr               35.00:  ROP Max 
 RPMA.rpm               130.00:  RPM Surface Avg 
 RPMN.rpm                80.00:  RPM Surface Min 
 RPMX.rpm               150.00:  RPM Surface Max 
 RRUN.                    L402:  Rig Run Number 
 RTIM.hr                 80.50:  Time Reaming 
 SAZI.deg               155.55:  Azm, Start 
 SDEP.m                2036.00:  Start Depth 
 SIDD.                      No:  Serv Intrp, DD 
 SINC.deg                35.44:  Inc, Start 
 SPPA.psig             4270.00:  SPP Avg 
 SPPN.psig             2800.00:  SPP Min 
 SPPX.psig             4850.00:  SPP Max 
 STIM.      09.30.00 03-Feb-20:  Start Time 
 SVCS.                 DD, MWD:  Services 
 SVER.                    9.20:  Sperry Version 
 TDAT.m                1183.00:  Tot Depth Attmp 
 TDDF.                      No:  Trip for DD 
 TDLG.m                1183.00:  Tot Depth Loggd 
 TFF .                      No:  Trip for Fail 
 TQAA.f-kp               16.00:  Torque Abs Avg 
 TQAN.f-kp               10.00:  Torque Abs Min 
 TQAX.f-kp               20.00:  Torque Abs Max 
 TRRT.∞/30m               1.00:  Turn Rotating 
 MRT .                  EWR-M5:  Maximum Recorded Temperature 
 TTMX.degC               80.39:  Max Tool Temp 
 VS01.               13098498 :  Virtual Str1 SN 
 VS02.                90569596:  Virtual Str2 SN 
 VS03.                90523599:  Virtual Str3 SN 
 VS04.                90573553:  Virtual Str4 SN 
 VS05.                90598598:  Virtual Str5 SN 
 VS06.                90577297:  Virtual Str6 SN 
 WBMN.klb                13.00:  WOB Min 
 WITN.         Alistair Sprott:  Customer Rep 
 WITN.           Rufat Babayev:  Customer Rep 2 
 WOBA.klb                15.00:  WOB Avg 
 WOBX.klb                20.00:  WOB Max 
 YP  .lhf2               39.00:  Yield Point 
~Curve Information Block
#MNEM.UNIT                 API CODE     Curve Description
#---------               -----------    ---------------------------
 TIME.HHMMSS            00 000 000 000:  GT Time & Date
 GTDEPTH.m              00 000 000 000:  GT Depth
 GTPQH.psia             00 000 000 000:  GT HR Quartz Pressure
 GTTQ.degC              00 000 000 000:  GT Quartz Temperature
 GTTN.NONE              00 000 000 000:  GT Test Number
 GTET.sec               00 000 000 000:  GT Elapsed Test Time
 GTTVD.m                00 000 000 000:  GT True Vertical Depth
#Other Information
#
#WARRANTY: Halliburton will use its best efforts to furnish customers with 
#accurate information and interpretations that are part of, and incident to, the services 
#provided.  However, Halliburton cannot and does not warrant the accuracy 
#or correctness of such information and interpretations.  Under no circumstances should any 
#such information or interpretation be relied upon as the sole basis for any drilling, 
#completion, production, or financial decision or any procedure involving any risk to the 
#safety of any drilling venture, drilling rig or its crew or any other third party.  The 
#Customer has full responsibility for all drilling, completion and production operation.  
#Halliburton makes no representations or warranties, either expressed or 
#implied, including, but not limited to, the implied warranties of merchantability or fitness 
#for a particular purpose, with respect to the services rendered.  In no event will 
#Halliburton be liable for failure to obtain any particular results or for 
#any damages, including, but not limited to, indirect, special or consequential damages, 
#resulting from the use of any information or interpretation provided by Halliburton.
#
~A           TIME           GTDEPTH  GTPQH  GTTQ  GTTN  GTET   GTTVD  
# ...
   09:31:38.881.08-Feb-2020 3135.01 4728.23 69.14 4.00 253.02 2647.94
   09:31:39.081.08-Feb-2020 3135.01 4728.23 69.14 4.00 253.22 2647.94
   09:31:39.281.08-Feb-2020 3135.01 4727.96 69.14 4.00 253.42 2647.94
   09:31:39.482.08-Feb-2020 3135.01 4728.17 69.13 4.00 253.62 2647.94
   09:31:39.682.08-Feb-2020 3135.01 4728.02 69.13 4.00 253.82 2647.94
   09:31:39.882.08-Feb-2020 3135.01 4728.06 69.13 4.00 254.02 2647.94
   09:31:40.082.08-Feb-2020 3135.01 4728.06 69.13 4.00 254.22 2647.94
   09:31:40.282.08-Feb-2020 3135.01 4728.04 69.13 4.00 254.42 2647.94
   09:31:40.482.08-Feb-2020 3135.01 4728.09 69.13 4.00 254.62 2647.94
   09:31:40.682.08-Feb-2020 3135.01 4728.61 69.13 4.00 254.82 2647.94
   09:31:40.882.08-Feb-2020 3135.01 4728.02 69.13 4.00 255.02 2647.94
   09:31:41.082.08-Feb-2020 3135.01 4728.02 69.13 4.00 255.22 2647.94
   09:31:41.282.08-Feb-2020 3135.01 4728.25 69.13 4.00 255.42 2647.94
   09:31:41.482.08-Feb-2020 3135.01 4728.09 69.13 4.00 255.62 2647.94
   09:31:41.682.08-Feb-2020 3135.01 4727.99 69.13 4.00 255.82 2647.94
   09:31:41.882.08-Feb-2020 3135.01 4729.40 69.13 4.00 256.02 2647.94
   09:31:42.082.08-Feb-2020 3135.01 4729.40 69.13 4.00 256.22 2647.94
   09:31:42.282.08-Feb-2020 3135.01 4727.84 69.13 4.00 256.42 2647.94
   09:31:42.482.08-Feb-2020 3135.01 4728.86 69.13 4.00 256.62 2647.94
   09:31:42.682.08-Feb-2020 3135.01 4727.57 69.13 4.00 256.82 2647.94
   09:31:42.882.08-Feb-2020 3135.01 4728.12 69.13 4.00 257.02 2647.94
   09:31:43.082.08-Feb-2020 3135.01 4728.12 69.13 4.00 257.22 2647.94
   09:31:43.282.08-Feb-2020 3135.01 4727.66 69.13 4.00 257.42 2647.94
   09:31:43.482.08-Feb-2020 3135.01 4728.79 69.13 4.00 257.62 2647.94
   09:31:43.682.08-Feb-2020 3135.01 4727.79 69.13 4.00 257.82 2647.94
   09:31:43.882.08-Feb-2020 3135.01 4728.02 69.13 4.00 258.02 2647.94
   09:31:44.082.08-Feb-2020 3135.01 4728.02 69.13 4.00 258.22 2647.94
   09:31:44.282.08-Feb-2020 3135.01 4727.54 69.13 4.00 258.42 2647.94
   09:31:44.482.08-Feb-2020 3135.01 4728.14 69.13 4.00 258.62 2647.94
   09:31:44.682.08-Feb-2020 3135.01 4728.58 69.13 4.00 258.82 2647.94
   09:31:44.882.08-Feb-2020 3135.01 4727.95 69.13 4.00 259.02 2647.94
   09:31:45.082.08-Feb-2020 3135.01 4727.95 69.13 4.00 259.22 2647.94
   09:31:45.282.08-Feb-2020 3135.01 4729.36 69.13 4.00 259.42 2647.94
   09:31:45.482.08-Feb-2020 3135.01 4727.88 69.13 4.00 259.62 2647.94
   09:31:45.682.08-Feb-2020 3135.01 4728.17 69.13 4.00 259.82 2647.94
   09:31:45.882.08-Feb-2020 3135.01 4728.65 69.13 4.00 260.02 2647.94
   09:31:46.082.08-Feb-2020 3135.01 4728.65 69.13 4.00 260.22 2647.94
   09:31:46.282.08-Feb-2020 3135.01 4728.11 69.13 4.00 260.42 2647.94
   09:31:46.482.08-Feb-2020 3135.01 4728.18 69.13 4.00 260.62 2647.94
   09:31:46.682.08-Feb-2020 3135.01 4728.10 69.13 4.00 260.82 2647.94
   09:31:46.882.08-Feb-2020 3135.01 4728.10 69.13 4.00 261.02 2647.94
   09:31:47.082.08-Feb-2020 3135.01 4728.10 69.13 4.00 261.22 2647.94
   09:31:47.282.08-Feb-2020 3135.01 4727.85 69.13 4.00 261.42 2647.94
   09:31:47.482.08-Feb-2020 3135.01 4728.67 69.13 4.00 261.62 2647.94
   09:31:47.682.08-Feb-2020 3135.01 4728.75 69.13 4.00 261.82 2647.94
   09:31:47.882.08-Feb-2020 3135.01 4728.00 69.13 4.00 262.02 2647.94
   09:31:48.082.08-Feb-2020 3135.01 4728.00 69.13 4.00 262.22 2647.94
   09:31:48.282.08-Feb-2020 3135.01 4728.21 69.13 4.00 262.42 2647.94
   09:31:48.482.08-Feb-2020 3135.01 4727.90 69.13 4.00 262.62 2647.94
   09:31:48.682.08-Feb-2020 3135.01 4728.11 69.13 4.00 262.82 2647.94
   09:31:48.882.08-Feb-2020 3135.01 4728.12 69.13 4.00 263.02 2647.94
   09:31:49.082.08-Feb-2020 3135.01 4728.12 69.13 4.00 263.22 2647.94
   09:31:49.282.08-Feb-2020 3135.01 4728.83 69.13 4.00 263.42 2647.94
   09:31:49.482.08-Feb-2020 3135.01 4727.80 69.13 4.00 263.62 2647.94
   09:31:49.682.08-Feb-2020 3135.01 4727.64 69.13 4.00 263.82 2647.94
   09:31:49.882.08-Feb-2020 3135.01 4729.39 69.13 4.00 264.02 2647.94
   09:31:50.082.08-Feb-2020 3135.01 4729.39 69.13 4.00 264.22 2647.94
   09:31:50.282.08-Feb-2020 3135.01 4727.77 69.13 4.00 264.42 2647.94
   09:31:50.482.08-Feb-2020 3135.01 4728.69 69.13 4.00 264.62 2647.94
   09:31:50.682.08-Feb-2020 3135.01 4728.35 69.13 4.00 264.82 2647.94
   09:31:50.882.08-Feb-2020 3135.01 4729.02 69.13 4.00 265.02 2647.94
   09:31:51.082.08-Feb-2020 3135.01 4729.02 69.13 4.00 265.22 2647.94
   09:31:51.282.08-Feb-2020 3135.01 4727.97 69.13 4.00 265.42 2647.94
   09:31:51.483.08-Feb-2020 3135.01 4728.57 69.13 4.00 265.62 2647.94
   09:31:51.683.08-Feb-2020 3135.01 4728.84 69.13 4.00 265.82 2647.94
   09:31:51.883.08-Feb-2020 3135.01 4728.28 69.13 4.00 266.02 2647.94
   09:31:52.083.08-Feb-2020 3135.01 4728.28 69.13 4.00 266.22 2647.94
   09:31:52.283.08-Feb-2020 3135.01 4728.55 69.13 4.00 266.42 2647.94
   09:31:52.483.08-Feb-2020 3135.01 4729.71 69.13 4.00 266.62 2647.94
   09:31:52.683.08-Feb-2020 3135.01 4727.63 69.13 4.00 266.82 2647.94
   09:31:52.883.08-Feb-2020 3135.01 4727.88 69.13 4.00 267.02 2647.94
   09:31:53.083.08-Feb-2020 3135.01 4727.88 69.13 4.00 267.22 2647.94
   09:31:53.283.08-Feb-2020 3135.01 4728.40 69.13 4.00 267.42 2647.94
   09:31:53.483.08-Feb-2020 3135.01 4728.05 69.13 4.00 267.62 2647.94
   09:31:53.683.08-Feb-2020 3135.01 4728.35 69.13 4.00 267.82 2647.94
   09:31:53.883.08-Feb-2020 3135.01 4728.20 69.13 4.00 268.02 2647.94
   09:31:54.083.08-Feb-2020 3135.01 4728.20 69.13 4.00 268.22 2647.94
   09:31:54.283.08-Feb-2020 3135.01 4728.14 69.13 4.00 268.42 2647.94
   09:31:54.483.08-Feb-2020 3135.01 4728.23 69.13 4.00 268.62 2647.94
   09:31:54.683.08-Feb-2020 3135.01 4728.33 69.13 4.00 268.82 2647.94
   09:31:54.883.08-Feb-2020 3135.01 4728.47 69.13 4.00 269.02 2647.94
   09:31:55.083.08-Feb-2020 3135.01 4728.47 69.13 4.00 269.22 2647.94
   09:31:55.283.08-Feb-2020 3135.01 4727.82 69.13 4.00 269.42 2647.94
   09:31:55.483.08-Feb-2020 3135.01 4728.58 69.13 4.00 269.62 2647.94
   09:31:55.683.08-Feb-2020 3135.01 4676.19 69.13 4.00 269.82 2647.94
   09:31:55.883.08-Feb-2020 3135.01 4478.68 69.13 4.00 270.02 2647.94
   09:31:56.083.08-Feb-2020 3135.01 4478.68 69.13 4.00 270.22 2647.94
   09:31:56.283.08-Feb-2020 3135.01 4363.69 69.13 4.00 270.42 2647.94
   09:31:56.483.08-Feb-2020 3135.01 4346.17 69.13 4.00 270.62 2647.94
   09:31:56.683.08-Feb-2020 3135.01 4339.03 69.13 4.00 270.82 2647.94
   09:31:56.883.08-Feb-2020 3135.01 4338.21 69.13 4.00 271.02 2647.94
   09:31:57.083.08-Feb-2020 3135.01 4338.21 69.13 4.00 271.22 2647.94
   09:31:57.283.08-Feb-2020 3135.01 4337.08 69.13 4.00 271.42 2647.94
   09:31:57.483.08-Feb-2020 3135.01 4335.54 69.13 4.00 271.62 2647.94
   09:31:57.683.08-Feb-2020 3135.01 4334.54 69.13 4.00 271.82 2647.94
   09:31:57.883.08-Feb-2020 3135.01 4335.74 69.13 4.00 272.02 2647.94
   09:31:58.083.08-Feb-2020 3135.01 4335.74 69.13 4.00 272.22 2647.94
   09:31:58.283.08-Feb-2020 3135.01 4332.12 69.13 4.00 272.42 2647.94
   09:31:58.483.08-Feb-2020 3135.01 4334.54 69.12 4.00 272.62 2647.94
   09:31:58.683.08-Feb-2020 3135.01 4332.67 69.12 4.00 272.82 2647.94
   09:31:58.883.08-Feb-2020 3135.01 4332.29 69.12 4.00 273.02 2647.94
   09:31:59.083.08-Feb-2020 3135.01 4332.29 69.12 4.00 273.22 2647.94
   09:31:59.283.08-Feb-2020 3135.01 4330.92 69.12 4.00 273.42 2647.94
   09:31:59.483.08-Feb-2020 3135.01 4334.06 69.12 4.00 273.62 2647.94
   09:31:59.683.08-Feb-2020 3135.01 4334.00 69.12 4.00 273.82 2647.94
   09:31:59.883.08-Feb-2020 3135.01 4331.53 69.12 4.00 274.02 2647.94
   09:32:00.083.08-Feb-2020 3135.01 4331.53 69.12 4.00 274.22 2647.94
   09:32:00.283.08-Feb-2020 3135.01 4334.21 69.12 4.00 274.42 2647.94
   09:32:00.483.08-Feb-2020 3135.01 4333.11 69.12 4.00 274.62 2647.94
   09:32:00.683.08-Feb-2020 3135.01 4333.21 69.12 4.00 274.82 2647.94
   09:32:00.883.08-Feb-2020 3135.01 4334.02 69.12 4.00 275.02 2647.94
   09:32:01.083.08-Feb-2020 3135.01 4334.02 69.12 4.00 275.22 2647.94
   09:32:01.283.08-Feb-2020 3135.01 4331.78 69.12 4.00 275.42 2647.94
   09:32:01.483.08-Feb-2020 3135.01 4330.85 69.12 4.00 275.62 2647.94
   09:32:01.683.08-Feb-2020 3135.01 4330.31 69.12 4.00 275.82 2647.94
