~Version Information
 VERS.                  2.0:   CWLS log ASCII Standard -VERSION 2.0
 WRAP.                   NO:   One line per depth step
~Well Information Block
#MNEM.UNIT     VALUE/NAME     DESCRIPTION
#---------     -----------    ---------------------------
 STRT.S             12:03:05 08-Feb-20: START TIME 12:03:05 08-Feb-20
 STOP.S             12:09:57 08-Feb-20: STOP TIME  12:09:57 08-Feb-20
 STEP.S                   0.00: STEP TIME
 NULL.                 -999.25: NULL VALUE
 DFWT.                        :  DIST FWL TEXT
 DFST.                        :  DIST FSL TEXT
 DMF .             Drill Floor:  DRILL MEAS FROM
 STIM.      07.00.00 09-Jan-20:  START TIME
 DATE.      14.04.48 07-Feb-20:  END TIME
 SPUD.               09-Jan-20:  SPUD DATE
 NREF.                    Grid:  NORTH REFERENCE
 HPTY.       Minimum Curvature:  HOLE POS TYPE
 DMOD.             Drill Model:  DRILL MOD DESC
 SVYD.                  Survey:  SURVEY DESC
 ILTD.               Lithology:  INTERP LTH DESC
 FTOP.          Formation Tops:  FORM TOPS DESC
 SON .        AZ-XX-0905059384:  JOB NUMBER
 MDS .        Operator Entered:  MAG DATA SOURCE
 WTYP.                Deviated:  WELL TYPE
 COMP.     BP Exploration (Caspian Sea) Ltd.:  COMPANY
 UWI .                     N/A:  UNIQUE WELL IDENTIFIER
 API .                     N/A:  API NUMBER
 BASE.              Azerbaijan:  LOGGING EQUIPMENT BASE LOCATION
 REGN.                   EESSA:  REGION
 PROV.                    Baku:  PROVINCE
 STAT.                    Baku:  STATE NAME
 CTRY.              Azerbaijan:  COUNTRY NAME
 FLD .                     ACG:  FIELD NAME
 SRVC.     TURAN Drilling & Engineering:  CONTRACTOR
 MWDS.                    Baku:  MWD SHOP
 WELL.                     J22:  WELL NAME
 RIG .             West Chirag:  RIG NAME
 DOE .                     N/A:  DOE NUMBER
 DCON.         Sperry Drilling:  DIRECTNL CONTR
 UNIT.                     N/A:  LOGGING EQUIPMENT ID
 PDAT.          Mean Sea Level:  PERMANENT DATUM
 JOBN.        AZ-XX-0905059384:  JOB TICKET NUMB
 CNTY.                        :  COUNTY
 LOC .                        :  LOCATION
 LMF .             Drill Floor:  LOG MEASURED FROM
 TVDS.m                  43.00:  TVDSS CORRECTN
 LATI.deg                40.13:  LATITUDE
 LONG.deg                51.22:  LONGITUDE
 WHNS.m                  10.28:  WELL HEAD N/S
 WHEW.m                  -6.24:  WELL HEAD E/W
 UTMX.m              519005.06:  UTM X
 UTMY.m             4443793.85:  UTM Y
 DFWL.m                   0.00:  DISTANCE FWL
 DFSL.m                   0.00:  DISTANCE FSL
 SDEP.m                 362.00:  START DEPTH
 TDD .m                 904.00:  TOTAL DEPTH (DRILLER)
 VSDR.deg               148.53:  VERT SEC DIRECT
 GVFD.g                   1.00:  GRAVITY FIELD
 MFLD.nT              50277.00:  MAGNETIC FIELD
 MDIP.deg                59.56:  MAGNETIC DIP
 MDEC.deg                 6.42:  MAGNETIC DECL
 GRDC.deg                 0.15:  GRID CORRECTION
 AZTC.deg                 6.27:  AZM TOTAL CORR
 EPD .m                   0.00:  ELEVATION
 EGL .m                   0.00:  GROUND ELEVATION
 WDMS.m                 169.80:  WD ELEV
 APD .m                  43.00:  DEPTH ABOVE PD
 AGAP.m                  43.00:  AIR GAP
 VSEW.m                  -6.24:  VERT SEC E/W
 VSNS.m                  10.28:  VERT SEC N/S
 DEP .m                   0.00:  DEPTH
 EKB .m                   0.00:  KB ELEVATION
 EDF .m                  43.00:  DF ELEVATION
 TDL .m                1183.00:  TOTAL DEPTH (LOGGER)
 VSC .                       0:  VS TO CLOSURE
 MAGU.                 1850021:  MAGUTM CHECKSUM
~Parameter Information Block
#MNEM.UNIT       Value        Description
#---------     -----------    ---------------------------
 AV  .mps                 4.00:  Ann Velocity 
 AVMX.mps                 4.50:  Max Ann Veloc 
 AZIF.deg               145.38:  Azm, Final 
 BHAT.        Rotary Steerable:  BHA Type 
 BROT.°/30m               3.00:  Build Rotating 
 BS  .in                 12.25:  Bit Size 
 BSZ .in                 12.25:  Bit Size 
 BTPL.psig              650.00:  Bit Press Loss 
 CABU.                      No:  Customer Abuse 
 COMM.                     ÌSf:  Run Comments 1 
 TCS .hr                101.62:  Time Ciculation Ended 
 CV  .mps                 5.00:  Crit Velocity 
 CVMX.mps                 5.00:  Max Crit Veloc 
 DD1 .             Aziz Aliyev:  Direct Drillr 1 
 DD2 .      Fakhraddin Guliyev:  Direct Drillr 2 
 DDSV.                 iCruise:  DD Service 
 DEFF.%                  97.00:  % Det Eff 
 DLRX.°/30m               4.16:  Dogleg Rot Max 
 DLSO.°/30m               3.20:  Dogleg Oriented 
 DLSX.°/30m               4.10:  Dogleg Str Max 
 DRET.      23.12.00 07-Feb-20:  Drill End Time 
 DRST.      11.30.00 04-Feb-20:  Drill Start Tim 
 DTIM.hr                 61.06:  Time Drilling 
 EDEP.m                3219.01:  End Depth 
 ENG1.         Almaz Almadatov:  Engineer 1 
 ENG2.         Dair Mahammadov:  Engineer 2 
 ENG3.          Nazrin Asgarli:  Engineer 3 
 ETIM.      02.30.00 11-Feb-20:  End Time 
 FLOI.gpm              1100.00:  Flow In 
 FLON.gpm               900.00:  Flow In Min 
 FLOS.cptm               55.00:  Fluid Loss 
 FLOX.gpm              1150.00:  Flow In Max 
 FTRO.       Formation Presure:  FTWD Run Obj 
 HFLO.                      No:  High Flow 
 HPRE.                      No:  High Pressure 
 HTEM.                      No:  High Temp 
 HYDO.m                   1.80:  Hydro Offset 
 IFIN.deg                75.11:  Inc, Final 
 IMAX.deg                75.11:  Inc Max 
 IMIN.deg                33.55:  Inc Min 
 IMND.m                2186.05:  Inc Min Depth 
 IMXD.m                3205.61:  Inc Max Depth 
 JARR.                      No:  Jarring 
 LETM.      23.12.00 07-Feb-20:  Log End Time 
 LOST.hr                     0:  Lost Rig Time 
 LSTM.      11.30.00 04-Feb-20:  Log Start Time 
 MDCL.ppm             40000.00:  Mud Chlorides 
 MDES.     Inversion Oil/Synthetic:  Mud Desc 
 DFD .sg                  1.49:  Mud Density 
 MDMN.sg                  1.49:  Dens Mud Min 
 MDMX.sg                  1.49:  Dens Mud Max 
 MOIL.                      73:  Run Mud Oil % 
 MOWR.                   73:27:  Run Mud OWR 
 MSND.                     0.1:  Run Mud Sand % 
 MSOL.                    20.1:  Run Mud Solids% 
 DFV .spqt               78.00:  Mud Viscosity 
 MWOD.in                  8.00:  MWD Tool OD 
 MWSI.                      No:  Serv Intrp, MWD 
 OTIM.hr                177.15:  Time Operating 
 PCON.          Wear / Scratch:  Pad Condition 
 PMAX.psia            10493.93:  Press Op, Max 
 PV  .cP                 73.00:  Mud PV 
 RUN .                     700:  Run Number 
 ROPA.m/hr               15.00:  ROP Avg 
 ROPN.m/hr               10.00:  ROP Min 
 ROPX.m/hr               35.00:  ROP Max 
 RPMA.rpm               130.00:  RPM Surface Avg 
 RPMN.rpm                80.00:  RPM Surface Min 
 RPMX.rpm               150.00:  RPM Surface Max 
 RRUN.                    L402:  Rig Run Number 
 RTIM.hr                 80.50:  Time Reaming 
 SAZI.deg               155.55:  Azm, Start 
 SDEP.m                2036.00:  Start Depth 
 SIDD.                      No:  Serv Intrp, DD 
 SINC.deg                35.44:  Inc, Start 
 SPPA.psig             4270.00:  SPP Avg 
 SPPN.psig             2800.00:  SPP Min 
 SPPX.psig             4850.00:  SPP Max 
 STIM.      09.30.00 03-Feb-20:  Start Time 
 SVCS.                 DD, MWD:  Services 
 SVER.                    9.20:  Sperry Version 
 TDAT.m                1183.00:  Tot Depth Attmp 
 TDDF.                      No:  Trip for DD 
 TDLG.m                1183.00:  Tot Depth Loggd 
 TFF .                      No:  Trip for Fail 
 TQAA.f-kp               16.00:  Torque Abs Avg 
 TQAN.f-kp               10.00:  Torque Abs Min 
 TQAX.f-kp               20.00:  Torque Abs Max 
 TRRT.°/30m               1.00:  Turn Rotating 
 MRT .                  EWR-M5:  Maximum Recorded Temperature 
 TTMX.degC               80.39:  Max Tool Temp 
 VS01.               13098498 :  Virtual Str1 SN 
 VS02.                90569596:  Virtual Str2 SN 
 VS03.                90523599:  Virtual Str3 SN 
 VS04.                90573553:  Virtual Str4 SN 
 VS05.                90598598:  Virtual Str5 SN 
 VS06.                90577297:  Virtual Str6 SN 
 WBMN.klb                13.00:  WOB Min 
 WITN.         Alistair Sprott:  Customer Rep 
 WITN.           Rufat Babayev:  Customer Rep 2 
 WOBA.klb                15.00:  WOB Avg 
 WOBX.klb                20.00:  WOB Max 
 YP  .lhf2               39.00:  Yield Point 
~Curve Information Block
#MNEM.UNIT                 API CODE     Curve Description
#---------               -----------    ---------------------------
 TIME.HHMMSS            00 000 000 000:  GT Time & Date
 GTDEPTH.m              00 000 000 000:  GT Depth
 GTPQH.psia             00 000 000 000:  GT HR Quartz Pressure
 GTTQ.degC              00 000 000 000:  GT Quartz Temperature
 GTTN.NONE              00 000 000 000:  GT Test Number
 GTET.sec               00 000 000 000:  GT Elapsed Test Time
 GTTVD.m                00 000 000 000:  GT True Vertical Depth
#Other Information
#
#WARRANTY: Halliburton will use its best efforts to furnish customers with 
#accurate information and interpretations that are part of, and incident to, the services 
#provided.  However, Halliburton cannot and does not warrant the accuracy 
#or correctness of such information and interpretations.  Under no circumstances should any 
#such information or interpretation be relied upon as the sole basis for any drilling, 
#completion, production, or financial decision or any procedure involving any risk to the 
#safety of any drilling venture, drilling rig or its crew or any other third party.  The 
#Customer has full responsibility for all drilling, completion and production operation.  
#Halliburton makes no representations or warranties, either expressed or 
#implied, including, but not limited to, the implied warranties of merchantability or fitness 
#for a particular purpose, with respect to the services rendered.  In no event will 
#Halliburton be liable for failure to obtain any particular results or for 
#any damages, including, but not limited to, indirect, special or consequential damages, 
#resulting from the use of any information or interpretation provided by Halliburton.
#
~A           TIME           GTDEPTH  GTPQH  GTTQ  GTTN  GTET   GTTVD  
# ...
   12:06:32.000.08-Feb-2020 3069.01 3300.79 66.05 7.00 207.00 2627.56
   12:06:32.200.08-Feb-2020 3069.01 3300.79 66.05 7.00 207.20 2627.56
   12:06:32.400.08-Feb-2020 3069.01 3331.24 66.05 7.00 207.40 2627.56
   12:06:32.600.08-Feb-2020 3069.01 3346.11 66.05 7.00 207.60 2627.56
   12:06:32.800.08-Feb-2020 3069.01 3360.65 66.05 7.00 207.80 2627.56
   12:06:33.000.08-Feb-2020 3069.01 3375.02 66.05 7.00 208.00 2627.56
   12:06:33.200.08-Feb-2020 3069.01 3375.02 66.05 7.00 208.20 2627.56
   12:06:33.400.08-Feb-2020 3069.01 3402.49 66.06 7.00 208.40 2627.56
   12:06:33.600.08-Feb-2020 3069.01 3416.11 66.06 7.00 208.60 2627.56
   12:06:33.800.08-Feb-2020 3069.01 3429.58 66.06 7.00 208.80 2627.56
   12:06:34.000.08-Feb-2020 3069.01 3442.82 66.06 7.00 209.00 2627.56
   12:06:34.200.08-Feb-2020 3069.01 3442.82 66.06 7.00 209.20 2627.56
   12:06:34.400.08-Feb-2020 3069.01 3469.03 66.06 7.00 209.40 2627.56
   12:06:34.600.08-Feb-2020 3069.01 3482.01 66.06 7.00 209.60 2627.56
   12:06:34.800.08-Feb-2020 3069.01 3494.37 66.06 7.00 209.80 2627.56
   12:06:35.000.08-Feb-2020 3069.01 3506.86 66.06 7.00 210.00 2627.56
   12:06:35.200.08-Feb-2020 3069.01 3506.86 66.06 7.00 210.20 2627.56
   12:06:35.400.08-Feb-2020 3069.01 3531.08 66.06 7.00 210.40 2627.56
   12:06:35.600.08-Feb-2020 3069.01 3543.38 66.06 7.00 210.60 2627.56
   12:06:35.800.08-Feb-2020 3069.01 3554.79 66.06 7.00 210.80 2627.56
   12:06:36.000.08-Feb-2020 3069.01 3566.52 66.06 7.00 211.00 2627.56
   12:06:36.200.08-Feb-2020 3069.01 3566.52 66.06 7.00 211.20 2627.56
   12:06:36.400.08-Feb-2020 3069.01 3589.14 66.06 7.00 211.40 2627.56
   12:06:36.600.08-Feb-2020 3069.01 3600.52 66.06 7.00 211.60 2627.56
   12:06:36.800.08-Feb-2020 3069.01 3611.78 66.06 7.00 211.80 2627.56
   12:06:37.000.08-Feb-2020 3069.01 3622.77 66.06 7.00 212.00 2627.56
   12:06:37.200.08-Feb-2020 3069.01 3622.77 66.06 7.00 212.20 2627.56
   12:06:37.400.08-Feb-2020 3069.01 3644.47 66.06 7.00 212.40 2627.56
   12:06:37.600.08-Feb-2020 3069.01 3654.95 66.06 7.00 212.60 2627.56
   12:06:37.800.08-Feb-2020 3069.01 3665.41 66.06 7.00 212.80 2627.56
   12:06:38.000.08-Feb-2020 3069.01 3675.59 66.06 7.00 213.00 2627.56
   12:06:38.200.08-Feb-2020 3069.01 3675.59 66.06 7.00 213.20 2627.56
   12:06:38.400.08-Feb-2020 3069.01 3694.55 66.06 7.00 213.40 2627.56
   12:06:38.600.08-Feb-2020 3069.01 3705.07 66.06 7.00 213.60 2627.56
   12:06:38.800.08-Feb-2020 3069.01 3714.80 66.06 7.00 213.80 2627.56
   12:06:39.000.08-Feb-2020 3069.01 3724.28 66.06 7.00 214.00 2627.56
   12:06:39.200.08-Feb-2020 3069.01 3724.28 66.06 7.00 214.20 2627.56
   12:06:39.400.08-Feb-2020 3069.01 3743.42 66.06 7.00 214.40 2627.56
   12:06:39.600.08-Feb-2020 3069.01 3752.65 66.06 7.00 214.60 2627.56
   12:06:39.800.08-Feb-2020 3069.01 3761.98 66.06 7.00 214.80 2627.56
   12:06:40.000.08-Feb-2020 3069.01 3771.02 66.07 7.00 215.00 2627.56
   12:06:40.200.08-Feb-2020 3069.01 3771.02 66.07 7.00 215.20 2627.56
   12:06:40.400.08-Feb-2020 3069.01 3788.27 66.07 7.00 215.40 2627.56
   12:06:40.600.08-Feb-2020 3069.01 3797.02 66.07 7.00 215.60 2627.56
   12:06:40.800.08-Feb-2020 3069.01 3806.03 66.07 7.00 215.80 2627.56
   12:06:41.000.08-Feb-2020 3069.01 3813.59 66.07 7.00 216.00 2627.56
   12:06:41.200.08-Feb-2020 3069.01 3813.59 66.07 7.00 216.20 2627.56
   12:06:41.400.08-Feb-2020 3069.01 3830.95 66.07 7.00 216.40 2627.56
   12:06:41.600.08-Feb-2020 3069.01 3839.46 66.07 7.00 216.60 2627.56
   12:06:41.800.08-Feb-2020 3069.01 3846.72 66.07 7.00 216.80 2627.56
   12:06:42.000.08-Feb-2020 3069.01 3855.04 66.07 7.00 217.00 2627.56
   12:06:42.200.08-Feb-2020 3069.01 3855.04 66.07 7.00 217.20 2627.56
   12:06:42.400.08-Feb-2020 3069.01 3870.75 66.07 7.00 217.40 2627.56
   12:06:42.600.08-Feb-2020 3069.01 3878.49 66.07 7.00 217.60 2627.56
   12:06:42.800.08-Feb-2020 3069.01 3886.23 66.07 7.00 217.80 2627.56
   12:06:43.000.08-Feb-2020 3069.01 3893.89 66.07 7.00 218.00 2627.56
   12:06:43.200.08-Feb-2020 3069.01 3893.89 66.07 7.00 218.20 2627.56
   12:06:43.400.08-Feb-2020 3069.01 3908.87 66.07 7.00 218.40 2627.56
   12:06:43.600.08-Feb-2020 3069.01 3916.12 66.07 7.00 218.60 2627.56
   12:06:43.800.08-Feb-2020 3069.01 3923.58 66.07 7.00 218.80 2627.56
   12:06:44.000.08-Feb-2020 3069.01 3930.77 66.07 7.00 219.00 2627.56
   12:06:44.200.08-Feb-2020 3069.01 3930.77 66.07 7.00 219.20 2627.56
   12:06:44.400.08-Feb-2020 3069.01 3945.11 66.07 7.00 219.40 2627.56
   12:06:44.600.08-Feb-2020 3069.01 3952.13 66.07 7.00 219.60 2627.56
   12:06:44.800.08-Feb-2020 3069.01 3959.02 66.07 7.00 219.80 2627.56
   12:06:45.000.08-Feb-2020 3069.01 3965.93 66.07 7.00 220.00 2627.56
   12:06:45.200.08-Feb-2020 3069.01 3965.93 66.07 7.00 220.20 2627.56
   12:06:45.400.08-Feb-2020 3069.01 3979.24 66.07 7.00 220.40 2627.56
   12:06:45.600.08-Feb-2020 3069.01 3985.24 66.07 7.00 220.60 2627.56
   12:06:45.800.08-Feb-2020 3069.01 3992.18 66.07 7.00 220.80 2627.56
   12:06:46.000.08-Feb-2020 3069.01 3998.49 66.07 7.00 221.00 2627.56
   12:06:46.200.08-Feb-2020 3069.01 3998.49 66.07 7.00 221.20 2627.56
   12:06:46.400.08-Feb-2020 3069.01 4011.36 66.07 7.00 221.40 2627.56
   12:06:46.600.08-Feb-2020 3069.01 4017.61 66.07 7.00 221.60 2627.56
   12:06:46.800.08-Feb-2020 3069.01 4023.76 66.07 7.00 221.80 2627.56
   12:06:47.000.08-Feb-2020 3069.01 4029.86 66.07 7.00 222.00 2627.56
   12:06:47.200.08-Feb-2020 3069.01 4029.86 66.07 7.00 222.20 2627.56
   12:06:47.400.08-Feb-2020 3069.01 4042.03 66.07 7.00 222.40 2627.56
   12:06:47.600.08-Feb-2020 3069.01 4046.75 66.07 7.00 222.60 2627.56
   12:06:47.800.08-Feb-2020 3069.01 4052.96 66.06 7.00 222.80 2627.56
   12:06:48.000.08-Feb-2020 3069.01 4059.06 66.07 7.00 223.00 2627.56
   12:06:48.200.08-Feb-2020 3069.01 4059.06 66.07 7.00 223.20 2627.56
   12:06:48.400.08-Feb-2020 3069.01 4070.37 66.06 7.00 223.40 2627.56
   12:06:48.600.08-Feb-2020 3069.01 4076.34 66.06 7.00 223.60 2627.56
   12:06:48.800.08-Feb-2020 3069.01 4080.22 66.06 7.00 223.80 2627.56
   12:06:49.000.08-Feb-2020 3069.01 4086.45 66.06 7.00 224.00 2627.56
   12:06:49.200.08-Feb-2020 3069.01 4086.45 66.06 7.00 224.20 2627.56
   12:06:49.400.08-Feb-2020 3069.01 4097.31 66.06 7.00 224.40 2627.56
   12:06:49.600.08-Feb-2020 3069.01 4102.59 66.06 7.00 224.60 2627.56
   12:06:49.800.08-Feb-2020 3069.01 4108.20 66.06 7.00 224.80 2627.56
   12:06:50.000.08-Feb-2020 3069.01 4113.26 66.06 7.00 225.00 2627.56
   12:06:50.200.08-Feb-2020 3069.01 4113.26 66.06 7.00 225.20 2627.56
   12:06:50.400.08-Feb-2020 3069.01 4123.82 66.06 7.00 225.40 2627.56
   12:06:50.600.08-Feb-2020 3069.01 4129.25 66.06 7.00 225.60 2627.56
   12:06:50.800.08-Feb-2020 3069.01 4134.51 66.06 7.00 225.80 2627.56
   12:06:51.000.08-Feb-2020 3069.01 4139.56 66.06 7.00 226.00 2627.56
   12:06:51.200.08-Feb-2020 3069.01 4139.56 66.06 7.00 226.20 2627.56
   12:06:51.400.08-Feb-2020 3069.01 4149.51 66.06 7.00 226.40 2627.56
   12:06:51.600.08-Feb-2020 3069.01 4154.49 66.06 7.00 226.60 2627.56
   12:06:51.800.08-Feb-2020 3069.01 4159.55 66.06 7.00 226.80 2627.56
   12:06:52.000.08-Feb-2020 3069.01 4164.41 66.06 7.00 227.00 2627.56
   12:06:52.200.08-Feb-2020 3069.01 4164.41 66.06 7.00 227.20 2627.56
   12:06:52.400.08-Feb-2020 3069.01 4173.94 66.06 7.00 227.40 2627.56
   12:06:52.600.08-Feb-2020 3069.01 4178.54 66.06 7.00 227.60 2627.56
   12:06:52.800.08-Feb-2020 3069.01 4182.95 66.06 7.00 227.80 2627.56
   12:06:53.000.08-Feb-2020 3069.01 4187.39 66.06 7.00 228.00 2627.56
   12:06:53.200.08-Feb-2020 3069.01 4187.39 66.06 7.00 228.20 2627.56
   12:06:53.400.08-Feb-2020 3069.01 4196.57 66.06 7.00 228.40 2627.56
   12:06:53.600.08-Feb-2020 3069.01 4201.08 66.06 7.00 228.60 2627.56
   12:06:53.800.08-Feb-2020 3069.01 4205.55 66.06 7.00 228.80 2627.56
   12:06:54.000.08-Feb-2020 3069.01 4210.05 66.06 7.00 229.00 2627.56
   12:06:54.200.08-Feb-2020 3069.01 4210.05 66.06 7.00 229.20 2627.56
   12:06:54.400.08-Feb-2020 3069.01 4218.87 66.06 7.00 229.40 2627.56
   12:06:54.600.08-Feb-2020 3069.01 4222.96 66.06 7.00 229.60 2627.56
   12:06:54.800.08-Feb-2020 3069.01 4226.88 66.06 7.00 229.80 2627.56
