~Version Information
 VERS.                  2.0:   CWLS log ASCII Standard -VERSION 2.0
 WRAP.                   NO:   One line per depth step
~Well Information Block
#MNEM.UNIT     VALUE/NAME     DESCRIPTION
#---------     -----------    ---------------------------
 STRT.S             08:41:50 08-Feb-20: START TIME 08:41:50 08-Feb-20
 STOP.S             08:48:48 08-Feb-20: STOP TIME  08:48:48 08-Feb-20
 STEP.S                   0.00: STEP TIME
 NULL.                 -999.25: NULL VALUE
 DFWT.                        :  DIST FWL TEXT
 DFST.                        :  DIST FSL TEXT
 DMF .             Drill Floor:  DRILL MEAS FROM
 STIM.      07.00.00 09-Jan-20:  START TIME
 DATE.      14.04.48 07-Feb-20:  END TIME
 SPUD.               09-Jan-20:  SPUD DATE
 NREF.                    Grid:  NORTH REFERENCE
 HPTY.       Minimum Curvature:  HOLE POS TYPE
 DMOD.             Drill Model:  DRILL MOD DESC
 SVYD.                  Survey:  SURVEY DESC
 ILTD.               Lithology:  INTERP LTH DESC
 FTOP.          Formation Tops:  FORM TOPS DESC
 SON .        AZ-XX-0905059384:  JOB NUMBER
 MDS .        Operator Entered:  MAG DATA SOURCE
 WTYP.                Deviated:  WELL TYPE
 COMP.     BP Exploration (Caspian Sea) Ltd.:  COMPANY
 UWI .                     N/A:  UNIQUE WELL IDENTIFIER
 API .                     N/A:  API NUMBER
 BASE.              Azerbaijan:  LOGGING EQUIPMENT BASE LOCATION
 REGN.                   EESSA:  REGION
 PROV.                    Baku:  PROVINCE
 STAT.                    Baku:  STATE NAME
 CTRY.              Azerbaijan:  COUNTRY NAME
 FLD .                     ACG:  FIELD NAME
 SRVC.     TURAN Drilling & Engineering:  CONTRACTOR
 MWDS.                    Baku:  MWD SHOP
 WELL.                     J22:  WELL NAME
 RIG .             West Chirag:  RIG NAME
 DOE .                     N/A:  DOE NUMBER
 DCON.         Sperry Drilling:  DIRECTNL CONTR
 UNIT.                     N/A:  LOGGING EQUIPMENT ID
 PDAT.          Mean Sea Level:  PERMANENT DATUM
 JOBN.        AZ-XX-0905059384:  JOB TICKET NUMB
 CNTY.                        :  COUNTY
 LOC .                        :  LOCATION
 LMF .             Drill Floor:  LOG MEASURED FROM
 TVDS.m                  43.00:  TVDSS CORRECTN
 LATI.deg                40.13:  LATITUDE
 LONG.deg                51.22:  LONGITUDE
 WHNS.m                  10.28:  WELL HEAD N/S
 WHEW.m                  -6.24:  WELL HEAD E/W
 UTMX.m              519005.06:  UTM X
 UTMY.m             4443793.85:  UTM Y
 DFWL.m                   0.00:  DISTANCE FWL
 DFSL.m                   0.00:  DISTANCE FSL
 SDEP.m                 362.00:  START DEPTH
 TDD .m                 904.00:  TOTAL DEPTH (DRILLER)
 VSDR.deg               148.53:  VERT SEC DIRECT
 GVFD.g                   1.00:  GRAVITY FIELD
 MFLD.nT              50277.00:  MAGNETIC FIELD
 MDIP.deg                59.56:  MAGNETIC DIP
 MDEC.deg                 6.42:  MAGNETIC DECL
 GRDC.deg                 0.15:  GRID CORRECTION
 AZTC.deg                 6.27:  AZM TOTAL CORR
 EPD .m                   0.00:  ELEVATION
 EGL .m                   0.00:  GROUND ELEVATION
 WDMS.m                 169.80:  WD ELEV
 APD .m                  43.00:  DEPTH ABOVE PD
 AGAP.m                  43.00:  AIR GAP
 VSEW.m                  -6.24:  VERT SEC E/W
 VSNS.m                  10.28:  VERT SEC N/S
 DEP .m                   0.00:  DEPTH
 EKB .m                   0.00:  KB ELEVATION
 EDF .m                  43.00:  DF ELEVATION
 TDL .m                1183.00:  TOTAL DEPTH (LOGGER)
 VSC .                       0:  VS TO CLOSURE
 MAGU.                 1850021:  MAGUTM CHECKSUM
~Parameter Information Block
#MNEM.UNIT       Value        Description
#---------     -----------    ---------------------------
 AV  .mps                 4.00:  Ann Velocity 
 AVMX.mps                 4.50:  Max Ann Veloc 
 AZIF.deg               145.38:  Azm, Final 
 BHAT.        Rotary Steerable:  BHA Type 
 BROT.°/30m               3.00:  Build Rotating 
 BS  .in                 12.25:  Bit Size 
 BSZ .in                 12.25:  Bit Size 
 BTPL.psig              650.00:  Bit Press Loss 
 CABU.                      No:  Customer Abuse 
 COMM.                     [:  Run Comments 1 
 TCS .hr                101.62:  Time Ciculation Ended 
 CV  .mps                 5.00:  Crit Velocity 
 CVMX.mps                 5.00:  Max Crit Veloc 
 DD1 .             Aziz Aliyev:  Direct Drillr 1 
 DD2 .      Fakhraddin Guliyev:  Direct Drillr 2 
 DDSV.                 iCruise:  DD Service 
 DEFF.%                  97.00:  % Det Eff 
 DLRX.°/30m               4.16:  Dogleg Rot Max 
 DLSO.°/30m               3.20:  Dogleg Oriented 
 DLSX.°/30m               4.10:  Dogleg Str Max 
 DRET.      23.12.00 07-Feb-20:  Drill End Time 
 DRST.      11.30.00 04-Feb-20:  Drill Start Tim 
 DTIM.hr                 61.06:  Time Drilling 
 EDEP.m                3219.01:  End Depth 
 ENG1.         Almaz Almadatov:  Engineer 1 
 ENG2.         Dair Mahammadov:  Engineer 2 
 ENG3.          Nazrin Asgarli:  Engineer 3 
 ETIM.      02.30.00 11-Feb-20:  End Time 
 FLOI.gpm              1100.00:  Flow In 
 FLON.gpm               900.00:  Flow In Min 
 FLOS.cptm               55.00:  Fluid Loss 
 FLOX.gpm              1150.00:  Flow In Max 
 FTRO.       Formation Presure:  FTWD Run Obj 
 HFLO.                      No:  High Flow 
 HPRE.                      No:  High Pressure 
 HTEM.                      No:  High Temp 
 HYDO.m                   1.80:  Hydro Offset 
 IFIN.deg                75.11:  Inc, Final 
 IMAX.deg                75.11:  Inc Max 
 IMIN.deg                33.55:  Inc Min 
 IMND.m                2186.05:  Inc Min Depth 
 IMXD.m                3205.61:  Inc Max Depth 
 JARR.                      No:  Jarring 
 LETM.      23.12.00 07-Feb-20:  Log End Time 
 LOST.hr                     0:  Lost Rig Time 
 LSTM.      11.30.00 04-Feb-20:  Log Start Time 
 MDCL.ppm             40000.00:  Mud Chlorides 
 MDES.     Inversion Oil/Synthetic:  Mud Desc 
 DFD .sg                  1.49:  Mud Density 
 MDMN.sg                  1.49:  Dens Mud Min 
 MDMX.sg                  1.49:  Dens Mud Max 
 MOIL.                      73:  Run Mud Oil % 
 MOWR.                   73:27:  Run Mud OWR 
 MSND.                     0.1:  Run Mud Sand % 
 MSOL.                    20.1:  Run Mud Solids% 
 DFV .spqt               78.00:  Mud Viscosity 
 MWOD.in                  8.00:  MWD Tool OD 
 MWSI.                      No:  Serv Intrp, MWD 
 OTIM.hr                177.15:  Time Operating 
 PCON.          Wear / Scratch:  Pad Condition 
 PMAX.psia            10493.93:  Press Op, Max 
 PV  .cP                 73.00:  Mud PV 
 RUN .                     700:  Run Number 
 ROPA.m/hr               15.00:  ROP Avg 
 ROPN.m/hr               10.00:  ROP Min 
 ROPX.m/hr               35.00:  ROP Max 
 RPMA.rpm               130.00:  RPM Surface Avg 
 RPMN.rpm                80.00:  RPM Surface Min 
 RPMX.rpm               150.00:  RPM Surface Max 
 RRUN.                    L402:  Rig Run Number 
 RTIM.hr                 80.50:  Time Reaming 
 SAZI.deg               155.55:  Azm, Start 
 SDEP.m                2036.00:  Start Depth 
 SIDD.                      No:  Serv Intrp, DD 
 SINC.deg                35.44:  Inc, Start 
 SPPA.psig             4270.00:  SPP Avg 
 SPPN.psig             2800.00:  SPP Min 
 SPPX.psig             4850.00:  SPP Max 
 STIM.      09.30.00 03-Feb-20:  Start Time 
 SVCS.                 DD, MWD:  Services 
 SVER.                    9.20:  Sperry Version 
 TDAT.m                1183.00:  Tot Depth Attmp 
 TDDF.                      No:  Trip for DD 
 TDLG.m                1183.00:  Tot Depth Loggd 
 TFF .                      No:  Trip for Fail 
 TQAA.f-kp               16.00:  Torque Abs Avg 
 TQAN.f-kp               10.00:  Torque Abs Min 
 TQAX.f-kp               20.00:  Torque Abs Max 
 TRRT.°/30m               1.00:  Turn Rotating 
 MRT .                  EWR-M5:  Maximum Recorded Temperature 
 TTMX.degC               80.39:  Max Tool Temp 
 VS01.               13098498 :  Virtual Str1 SN 
 VS02.                90569596:  Virtual Str2 SN 
 VS03.                90523599:  Virtual Str3 SN 
 VS04.                90573553:  Virtual Str4 SN 
 VS05.                90598598:  Virtual Str5 SN 
 VS06.                90577297:  Virtual Str6 SN 
 WBMN.klb                13.00:  WOB Min 
 WITN.         Alistair Sprott:  Customer Rep 
 WITN.           Rufat Babayev:  Customer Rep 2 
 WOBA.klb                15.00:  WOB Avg 
 WOBX.klb                20.00:  WOB Max 
 YP  .lhf2               39.00:  Yield Point 
~Curve Information Block
#MNEM.UNIT                 API CODE     Curve Description
#---------               -----------    ---------------------------
 TIME.HHMMSS            00 000 000 000:  GT Time & Date
 GTDEPTH.m              00 000 000 000:  GT Depth
 GTPQH.psia             00 000 000 000:  GT HR Quartz Pressure
 GTTQ.degC              00 000 000 000:  GT Quartz Temperature
 GTTN.NONE              00 000 000 000:  GT Test Number
 GTET.sec               00 000 000 000:  GT Elapsed Test Time
 GTTVD.m                00 000 000 000:  GT True Vertical Depth
#Other Information
#
#WARRANTY: Halliburton will use its best efforts to furnish customers with 
#accurate information and interpretations that are part of, and incident to, the services 
#provided.  However, Halliburton cannot and does not warrant the accuracy 
#or correctness of such information and interpretations.  Under no circumstances should any 
#such information or interpretation be relied upon as the sole basis for any drilling, 
#completion, production, or financial decision or any procedure involving any risk to the 
#safety of any drilling venture, drilling rig or its crew or any other third party.  The 
#Customer has full responsibility for all drilling, completion and production operation.  
#Halliburton makes no representations or warranties, either expressed or 
#implied, including, but not limited to, the implied warranties of merchantability or fitness 
#for a particular purpose, with respect to the services rendered.  In no event will 
#Halliburton be liable for failure to obtain any particular results or for 
#any damages, including, but not limited to, indirect, special or consequential damages, 
#resulting from the use of any information or interpretation provided by Halliburton.
#
~A           TIME           GTDEPTH  GTPQH  GTTQ  GTTN  GTET   GTTVD  
# ...
   08:47:12.658.08-Feb-2020 3153.01 5766.47 71.00 2.00 322.03 2652.69
   08:47:12.858.08-Feb-2020 3153.01 5766.47 71.00 2.00 322.23 2652.69
   08:47:13.058.08-Feb-2020 3153.01 5766.69 70.99 2.00 322.43 2652.69
   08:47:13.258.08-Feb-2020 3153.01 5766.26 70.99 2.00 322.63 2652.69
   08:47:13.458.08-Feb-2020 3153.01 5767.49 70.99 2.00 322.83 2652.69
   08:47:13.658.08-Feb-2020 3153.01 5766.45 70.99 2.00 323.03 2652.69
   08:47:13.858.08-Feb-2020 3153.01 5766.45 70.99 2.00 323.23 2652.69
   08:47:14.058.08-Feb-2020 3153.01 5766.08 70.99 2.00 323.43 2652.69
   08:47:14.258.08-Feb-2020 3153.01 5765.81 70.99 2.00 323.63 2652.69
   08:47:14.458.08-Feb-2020 3153.01 5769.46 70.99 2.00 323.83 2652.69
   08:47:14.658.08-Feb-2020 3153.01 5766.48 70.99 2.00 324.03 2652.69
   08:47:14.858.08-Feb-2020 3153.01 5766.48 70.99 2.00 324.23 2652.69
   08:47:15.058.08-Feb-2020 3153.01 5766.44 70.99 2.00 324.43 2652.69
   08:47:15.258.08-Feb-2020 3153.01 5766.77 70.99 2.00 324.63 2652.69
   08:47:15.458.08-Feb-2020 3153.01 5765.71 70.99 2.00 324.83 2652.69
   08:47:15.658.08-Feb-2020 3153.01 5766.64 70.99 2.00 325.03 2652.69
   08:47:15.858.08-Feb-2020 3153.01 5766.64 70.99 2.00 325.23 2652.69
   08:47:16.058.08-Feb-2020 3153.01 5765.98 70.99 2.00 325.43 2652.69
   08:47:16.258.08-Feb-2020 3153.01 5766.06 70.99 2.00 325.63 2652.69
   08:47:16.458.08-Feb-2020 3153.01 5765.49 70.99 2.00 325.83 2652.69
   08:47:16.658.08-Feb-2020 3153.01 5768.62 70.99 2.00 326.03 2652.69
   08:47:16.858.08-Feb-2020 3153.01 5768.62 70.99 2.00 326.23 2652.69
   08:47:17.058.08-Feb-2020 3153.01 5766.58 70.99 2.00 326.43 2652.69
   08:47:17.258.08-Feb-2020 3153.01 5768.94 70.99 2.00 326.63 2652.69
   08:47:17.458.08-Feb-2020 3153.01 5768.02 70.99 2.00 326.83 2652.69
   08:47:17.659.08-Feb-2020 3153.01 5764.95 70.99 2.00 327.03 2652.69
   08:47:17.859.08-Feb-2020 3153.01 5764.95 70.99 2.00 327.23 2652.69
   08:47:18.059.08-Feb-2020 3153.01 5769.49 70.99 2.00 327.43 2652.69
   08:47:18.259.08-Feb-2020 3153.01 5766.17 70.99 2.00 327.63 2652.69
   08:47:18.459.08-Feb-2020 3153.01 5765.41 70.99 2.00 327.83 2652.69
   08:47:18.659.08-Feb-2020 3153.01 5768.82 70.99 2.00 328.03 2652.69
   08:47:18.859.08-Feb-2020 3153.01 5768.82 70.99 2.00 328.23 2652.69
   08:47:19.059.08-Feb-2020 3153.01 5764.26 70.99 2.00 328.43 2652.69
   08:47:19.259.08-Feb-2020 3153.01 5765.23 70.99 2.00 328.63 2652.69
   08:47:19.459.08-Feb-2020 3153.01 5772.33 70.99 2.00 328.83 2652.69
   08:47:19.659.08-Feb-2020 3153.01 5764.89 70.99 2.00 329.03 2652.69
   08:47:19.859.08-Feb-2020 3153.01 5764.89 70.99 2.00 329.23 2652.69
   08:47:20.059.08-Feb-2020 3153.01 5766.15 70.99 2.00 329.43 2652.69
   08:47:20.259.08-Feb-2020 3153.01 5766.58 70.99 2.00 329.63 2652.69
   08:47:20.459.08-Feb-2020 3153.01 5765.33 70.99 2.00 329.83 2652.69
   08:47:20.659.08-Feb-2020 3153.01 5766.92 70.99 2.00 330.03 2652.69
   08:47:20.859.08-Feb-2020 3153.01 5766.92 70.99 2.00 330.23 2652.69
   08:47:21.059.08-Feb-2020 3153.01 5765.91 70.99 2.00 330.43 2652.69
   08:47:21.259.08-Feb-2020 3153.01 5766.08 70.99 2.00 330.63 2652.69
   08:47:21.459.08-Feb-2020 3153.01 5765.94 70.99 2.00 330.83 2652.69
   08:47:21.659.08-Feb-2020 3153.01 5770.16 70.99 2.00 331.03 2652.69
   08:47:21.859.08-Feb-2020 3153.01 5770.16 70.99 2.00 331.23 2652.69
   08:47:22.059.08-Feb-2020 3153.01 5764.89 70.99 2.00 331.43 2652.69
   08:47:22.259.08-Feb-2020 3153.01 5766.03 70.99 2.00 331.63 2652.69
   08:47:22.459.08-Feb-2020 3153.01 5767.24 70.99 2.00 331.83 2652.69
   08:47:22.659.08-Feb-2020 3153.01 5766.14 70.99 2.00 332.03 2652.69
   08:47:22.859.08-Feb-2020 3153.01 5766.14 70.99 2.00 332.23 2652.69
   08:47:23.059.08-Feb-2020 3153.01 5766.52 70.99 2.00 332.43 2652.69
   08:47:23.259.08-Feb-2020 3153.01 5765.96 70.98 2.00 332.63 2652.69
   08:47:23.459.08-Feb-2020 3153.01 5766.27 70.98 2.00 332.83 2652.69
   08:47:23.659.08-Feb-2020 3153.01 5765.94 70.98 2.00 333.03 2652.69
   08:47:23.859.08-Feb-2020 3153.01 5765.94 70.98 2.00 333.23 2652.69
   08:47:24.059.08-Feb-2020 3153.01 5764.10 70.98 2.00 333.43 2652.69
   08:47:24.259.08-Feb-2020 3153.01 5764.27 70.98 2.00 333.63 2652.69
   08:47:24.459.08-Feb-2020 3153.01 5770.68 70.98 2.00 333.83 2652.69
   08:47:24.659.08-Feb-2020 3153.01 5766.62 70.98 2.00 334.03 2652.69
   08:47:24.859.08-Feb-2020 3153.01 5766.62 70.98 2.00 334.23 2652.69
   08:47:25.059.08-Feb-2020 3153.01 5764.64 70.98 2.00 334.43 2652.69
   08:47:25.259.08-Feb-2020 3153.01 5771.72 70.98 2.00 334.63 2652.69
   08:47:25.459.08-Feb-2020 3153.01 5764.29 70.98 2.00 334.83 2652.69
   08:47:25.659.08-Feb-2020 3153.01 5763.39 70.98 2.00 335.03 2652.69
   08:47:25.859.08-Feb-2020 3153.01 5763.39 70.98 2.00 335.23 2652.69
   08:47:26.059.08-Feb-2020 3153.01 5765.35 70.98 2.00 335.43 2652.69
   08:47:26.259.08-Feb-2020 3153.01 5763.08 70.98 2.00 335.63 2652.69
   08:47:26.459.08-Feb-2020 3153.01 5764.76 70.98 2.00 335.83 2652.69
   08:47:26.659.08-Feb-2020 3153.01 5767.14 70.98 2.00 336.03 2652.69
   08:47:26.859.08-Feb-2020 3153.01 5767.14 70.98 2.00 336.23 2652.69
   08:47:27.059.08-Feb-2020 3153.01 5767.58 70.98 2.00 336.43 2652.69
   08:47:27.259.08-Feb-2020 3153.01 5766.13 70.98 2.00 336.63 2652.69
   08:47:27.459.08-Feb-2020 3153.01 5766.69 70.98 2.00 336.83 2652.69
   08:47:27.659.08-Feb-2020 3153.01 5766.64 70.98 2.00 337.03 2652.69
   08:47:27.859.08-Feb-2020 3153.01 5766.64 70.98 2.00 337.23 2652.69
   08:47:28.059.08-Feb-2020 3153.01 5767.48 70.98 2.00 337.43 2652.69
   08:47:28.259.08-Feb-2020 3153.01 5766.55 70.98 2.00 337.63 2652.69
   08:47:28.459.08-Feb-2020 3153.01 5766.39 70.98 2.00 337.83 2652.69
   08:47:28.659.08-Feb-2020 3153.01 5766.30 70.98 2.00 338.03 2652.69
   08:47:28.859.08-Feb-2020 3153.01 5766.30 70.98 2.00 338.23 2652.69
   08:47:29.059.08-Feb-2020 3153.01 5768.66 70.98 2.00 338.43 2652.69
   08:47:29.259.08-Feb-2020 3153.01 5767.76 70.98 2.00 338.63 2652.69
   08:47:29.460.08-Feb-2020 3153.01 5765.82 70.98 2.00 338.83 2652.69
   08:47:29.660.08-Feb-2020 3153.01 5766.50 70.98 2.00 339.03 2652.69
   08:47:29.860.08-Feb-2020 3153.01 5766.50 70.98 2.00 339.23 2652.69
   08:47:30.060.08-Feb-2020 3153.01 5765.88 70.98 2.00 339.43 2652.69
   08:47:30.260.08-Feb-2020 3153.01 5766.50 70.98 2.00 339.63 2652.69
   08:47:30.460.08-Feb-2020 3153.01 5765.77 70.98 2.00 339.83 2652.69
   08:47:30.660.08-Feb-2020 3153.01 5765.81 70.98 2.00 340.03 2652.69
   08:47:30.860.08-Feb-2020 3153.01 5765.81 70.98 2.00 340.23 2652.69
   08:47:31.060.08-Feb-2020 3153.01 5765.67 70.98 2.00 340.43 2652.69
   08:47:31.260.08-Feb-2020 3153.01 5768.25 70.98 2.00 340.63 2652.69
   08:47:31.460.08-Feb-2020 3153.01 5766.35 70.98 2.00 340.83 2652.69
   08:47:31.660.08-Feb-2020 3153.01 5767.85 70.98 2.00 341.03 2652.69
   08:47:31.860.08-Feb-2020 3153.01 5767.85 70.98 2.00 341.23 2652.69
   08:47:32.060.08-Feb-2020 3153.01 5766.57 70.98 2.00 341.43 2652.69
   08:47:32.260.08-Feb-2020 3153.01 5764.56 70.98 2.00 341.63 2652.69
   08:47:32.460.08-Feb-2020 3153.01 5765.59 70.98 2.00 341.83 2652.69
   08:47:32.660.08-Feb-2020 3153.01 5768.94 70.98 2.00 342.03 2652.69
   08:47:32.860.08-Feb-2020 3153.01 5768.94 70.98 2.00 342.23 2652.69
   08:47:33.060.08-Feb-2020 3153.01 5767.08 70.98 2.00 342.43 2652.69
   08:47:33.260.08-Feb-2020 3153.01 5767.97 70.98 2.00 342.63 2652.69
   08:47:33.460.08-Feb-2020 3153.01 5766.75 70.98 2.00 342.83 2652.69
   08:47:33.660.08-Feb-2020 3153.01 5771.37 70.98 2.00 343.03 2652.69
   08:47:33.860.08-Feb-2020 3153.01 5771.37 70.98 2.00 343.23 2652.69
   08:47:34.060.08-Feb-2020 3153.01 5764.73 70.98 2.00 343.43 2652.69
   08:47:34.260.08-Feb-2020 3153.01 5764.62 70.98 2.00 343.63 2652.69
   08:47:34.460.08-Feb-2020 3153.01 5766.83 70.97 2.00 343.83 2652.69
   08:47:34.660.08-Feb-2020 3153.01 5766.78 70.97 2.00 344.03 2652.69
   08:47:34.860.08-Feb-2020 3153.01 5766.78 70.97 2.00 344.23 2652.69
   08:47:35.060.08-Feb-2020 3153.01 5765.83 70.97 2.00 344.43 2652.69
   08:47:35.260.08-Feb-2020 3153.01 5766.75 70.97 2.00 344.63 2652.69
   08:47:35.460.08-Feb-2020 3153.01 5766.19 70.97 2.00 344.83 2652.69
