~Version Information
 VERS.                  2.0:   CWLS log ASCII Standard -VERSION 2.0
 WRAP.                   NO:   One line per depth step
~Well Information Block
#MNEM.UNIT     VALUE/NAME     DESCRIPTION
#---------     -----------    ---------------------------
 STRT.S             09:08:12 08-Feb-20: START TIME 09:08:12 08-Feb-20
 STOP.S             09:14:54 08-Feb-20: STOP TIME  09:14:54 08-Feb-20
 STEP.S                   0.00: STEP TIME
 NULL.                 -999.25: NULL VALUE
 DFWT.                        :  DIST FWL TEXT
 DFST.                        :  DIST FSL TEXT
 DMF .             Drill Floor:  DRILL MEAS FROM
 STIM.      07.00.00 09-Jan-20:  START TIME
 DATE.      14.04.48 07-Feb-20:  END TIME
 SPUD.               09-Jan-20:  SPUD DATE
 NREF.                    Grid:  NORTH REFERENCE
 HPTY.       Minimum Curvature:  HOLE POS TYPE
 DMOD.             Drill Model:  DRILL MOD DESC
 SVYD.                  Survey:  SURVEY DESC
 ILTD.               Lithology:  INTERP LTH DESC
 FTOP.          Formation Tops:  FORM TOPS DESC
 SON .        AZ-XX-0905059384:  JOB NUMBER
 MDS .        Operator Entered:  MAG DATA SOURCE
 WTYP.                Deviated:  WELL TYPE
 COMP.     BP Exploration (Caspian Sea) Ltd.:  COMPANY
 UWI .                     N/A:  UNIQUE WELL IDENTIFIER
 API .                     N/A:  API NUMBER
 BASE.              Azerbaijan:  LOGGING EQUIPMENT BASE LOCATION
 REGN.                   EESSA:  REGION
 PROV.                    Baku:  PROVINCE
 STAT.                    Baku:  STATE NAME
 CTRY.              Azerbaijan:  COUNTRY NAME
 FLD .                     ACG:  FIELD NAME
 SRVC.     TURAN Drilling & Engineering:  CONTRACTOR
 MWDS.                    Baku:  MWD SHOP
 WELL.                     J22:  WELL NAME
 RIG .             West Chirag:  RIG NAME
 DOE .                     N/A:  DOE NUMBER
 DCON.         Sperry Drilling:  DIRECTNL CONTR
 UNIT.                     N/A:  LOGGING EQUIPMENT ID
 PDAT.          Mean Sea Level:  PERMANENT DATUM
 JOBN.        AZ-XX-0905059384:  JOB TICKET NUMB
 CNTY.                        :  COUNTY
 LOC .                        :  LOCATION
 LMF .             Drill Floor:  LOG MEASURED FROM
 TVDS.m                  43.00:  TVDSS CORRECTN
 LATI.deg                40.13:  LATITUDE
 LONG.deg                51.22:  LONGITUDE
 WHNS.m                  10.28:  WELL HEAD N/S
 WHEW.m                  -6.24:  WELL HEAD E/W
 UTMX.m              519005.06:  UTM X
 UTMY.m             4443793.85:  UTM Y
 DFWL.m                   0.00:  DISTANCE FWL
 DFSL.m                   0.00:  DISTANCE FSL
 SDEP.m                 362.00:  START DEPTH
 TDD .m                 904.00:  TOTAL DEPTH (DRILLER)
 VSDR.deg               148.53:  VERT SEC DIRECT
 GVFD.g                   1.00:  GRAVITY FIELD
 MFLD.nT              50277.00:  MAGNETIC FIELD
 MDIP.deg                59.56:  MAGNETIC DIP
 MDEC.deg                 6.42:  MAGNETIC DECL
 GRDC.deg                 0.15:  GRID CORRECTION
 AZTC.deg                 6.27:  AZM TOTAL CORR
 EPD .m                   0.00:  ELEVATION
 EGL .m                   0.00:  GROUND ELEVATION
 WDMS.m                 169.80:  WD ELEV
 APD .m                  43.00:  DEPTH ABOVE PD
 AGAP.m                  43.00:  AIR GAP
 VSEW.m                  -6.24:  VERT SEC E/W
 VSNS.m                  10.28:  VERT SEC N/S
 DEP .m                   0.00:  DEPTH
 EKB .m                   0.00:  KB ELEVATION
 EDF .m                  43.00:  DF ELEVATION
 TDL .m                1183.00:  TOTAL DEPTH (LOGGER)
 VSC .                       0:  VS TO CLOSURE
 MAGU.                 1850021:  MAGUTM CHECKSUM
~Parameter Information Block
#MNEM.UNIT       Value        Description
#---------     -----------    ---------------------------
 AV  .mps                 4.00:  Ann Velocity 
 AVMX.mps                 4.50:  Max Ann Veloc 
 AZIF.deg               145.38:  Azm, Final 
 BHAT.        Rotary Steerable:  BHA Type 
 BROT.°/30m               3.00:  Build Rotating 
 BS  .in                 12.25:  Bit Size 
 BSZ .in                 12.25:  Bit Size 
 BTPL.psig              650.00:  Bit Press Loss 
 CABU.                      No:  Customer Abuse 
 COMM.                     T!k:  Run Comments 1 
 TCS .hr                101.62:  Time Ciculation Ended 
 CV  .mps                 5.00:  Crit Velocity 
 CVMX.mps                 5.00:  Max Crit Veloc 
 DD1 .             Aziz Aliyev:  Direct Drillr 1 
 DD2 .      Fakhraddin Guliyev:  Direct Drillr 2 
 DDSV.                 iCruise:  DD Service 
 DEFF.%                  97.00:  % Det Eff 
 DLRX.°/30m               4.16:  Dogleg Rot Max 
 DLSO.°/30m               3.20:  Dogleg Oriented 
 DLSX.°/30m               4.10:  Dogleg Str Max 
 DRET.      23.12.00 07-Feb-20:  Drill End Time 
 DRST.      11.30.00 04-Feb-20:  Drill Start Tim 
 DTIM.hr                 61.06:  Time Drilling 
 EDEP.m                3219.01:  End Depth 
 ENG1.         Almaz Almadatov:  Engineer 1 
 ENG2.         Dair Mahammadov:  Engineer 2 
 ENG3.          Nazrin Asgarli:  Engineer 3 
 ETIM.      02.30.00 11-Feb-20:  End Time 
 FLOI.gpm              1100.00:  Flow In 
 FLON.gpm               900.00:  Flow In Min 
 FLOS.cptm               55.00:  Fluid Loss 
 FLOX.gpm              1150.00:  Flow In Max 
 FTRO.       Formation Presure:  FTWD Run Obj 
 HFLO.                      No:  High Flow 
 HPRE.                      No:  High Pressure 
 HTEM.                      No:  High Temp 
 HYDO.m                   1.80:  Hydro Offset 
 IFIN.deg                75.11:  Inc, Final 
 IMAX.deg                75.11:  Inc Max 
 IMIN.deg                33.55:  Inc Min 
 IMND.m                2186.05:  Inc Min Depth 
 IMXD.m                3205.61:  Inc Max Depth 
 JARR.                      No:  Jarring 
 LETM.      23.12.00 07-Feb-20:  Log End Time 
 LOST.hr                     0:  Lost Rig Time 
 LSTM.      11.30.00 04-Feb-20:  Log Start Time 
 MDCL.ppm             40000.00:  Mud Chlorides 
 MDES.     Inversion Oil/Synthetic:  Mud Desc 
 DFD .sg                  1.49:  Mud Density 
 MDMN.sg                  1.49:  Dens Mud Min 
 MDMX.sg                  1.49:  Dens Mud Max 
 MOIL.                      73:  Run Mud Oil % 
 MOWR.                   73:27:  Run Mud OWR 
 MSND.                     0.1:  Run Mud Sand % 
 MSOL.                    20.1:  Run Mud Solids% 
 DFV .spqt               78.00:  Mud Viscosity 
 MWOD.in                  8.00:  MWD Tool OD 
 MWSI.                      No:  Serv Intrp, MWD 
 OTIM.hr                177.15:  Time Operating 
 PCON.          Wear / Scratch:  Pad Condition 
 PMAX.psia            10493.93:  Press Op, Max 
 PV  .cP                 73.00:  Mud PV 
 RUN .                     700:  Run Number 
 ROPA.m/hr               15.00:  ROP Avg 
 ROPN.m/hr               10.00:  ROP Min 
 ROPX.m/hr               35.00:  ROP Max 
 RPMA.rpm               130.00:  RPM Surface Avg 
 RPMN.rpm                80.00:  RPM Surface Min 
 RPMX.rpm               150.00:  RPM Surface Max 
 RRUN.                    L402:  Rig Run Number 
 RTIM.hr                 80.50:  Time Reaming 
 SAZI.deg               155.55:  Azm, Start 
 SDEP.m                2036.00:  Start Depth 
 SIDD.                      No:  Serv Intrp, DD 
 SINC.deg                35.44:  Inc, Start 
 SPPA.psig             4270.00:  SPP Avg 
 SPPN.psig             2800.00:  SPP Min 
 SPPX.psig             4850.00:  SPP Max 
 STIM.      09.30.00 03-Feb-20:  Start Time 
 SVCS.                 DD, MWD:  Services 
 SVER.                    9.20:  Sperry Version 
 TDAT.m                1183.00:  Tot Depth Attmp 
 TDDF.                      No:  Trip for DD 
 TDLG.m                1183.00:  Tot Depth Loggd 
 TFF .                      No:  Trip for Fail 
 TQAA.f-kp               16.00:  Torque Abs Avg 
 TQAN.f-kp               10.00:  Torque Abs Min 
 TQAX.f-kp               20.00:  Torque Abs Max 
 TRRT.°/30m               1.00:  Turn Rotating 
 MRT .                  EWR-M5:  Maximum Recorded Temperature 
 TTMX.degC               80.39:  Max Tool Temp 
 VS01.               13098498 :  Virtual Str1 SN 
 VS02.                90569596:  Virtual Str2 SN 
 VS03.                90523599:  Virtual Str3 SN 
 VS04.                90573553:  Virtual Str4 SN 
 VS05.                90598598:  Virtual Str5 SN 
 VS06.                90577297:  Virtual Str6 SN 
 WBMN.klb                13.00:  WOB Min 
 WITN.         Alistair Sprott:  Customer Rep 
 WITN.           Rufat Babayev:  Customer Rep 2 
 WOBA.klb                15.00:  WOB Avg 
 WOBX.klb                20.00:  WOB Max 
 YP  .lhf2               39.00:  Yield Point 
~Curve Information Block
#MNEM.UNIT                 API CODE     Curve Description
#---------               -----------    ---------------------------
 TIME.HHMMSS            00 000 000 000:  GT Time & Date
 GTDEPTH.m              00 000 000 000:  GT Depth
 GTPQH.psia             00 000 000 000:  GT HR Quartz Pressure
 GTTQ.degC              00 000 000 000:  GT Quartz Temperature
 GTTN.NONE              00 000 000 000:  GT Test Number
 GTET.sec               00 000 000 000:  GT Elapsed Test Time
 GTTVD.m                00 000 000 000:  GT True Vertical Depth
#Other Information
#
#WARRANTY: Halliburton will use its best efforts to furnish customers with 
#accurate information and interpretations that are part of, and incident to, the services 
#provided.  However, Halliburton cannot and does not warrant the accuracy 
#or correctness of such information and interpretations.  Under no circumstances should any 
#such information or interpretation be relied upon as the sole basis for any drilling, 
#completion, production, or financial decision or any procedure involving any risk to the 
#safety of any drilling venture, drilling rig or its crew or any other third party.  The 
#Customer has full responsibility for all drilling, completion and production operation.  
#Halliburton makes no representations or warranties, either expressed or 
#implied, including, but not limited to, the implied warranties of merchantability or fitness 
#for a particular purpose, with respect to the services rendered.  In no event will 
#Halliburton be liable for failure to obtain any particular results or for 
#any damages, including, but not limited to, indirect, special or consequential damages, 
#resulting from the use of any information or interpretation provided by Halliburton.
#
~A           TIME           GTDEPTH  GTPQH  GTTQ  GTTN  GTET   GTTVD  
# ...
   09:12:48.787.08-Feb-2020 3153.21 4820.04 69.81 3.00 276.02 2652.75
   09:12:48.987.08-Feb-2020 3153.21 4820.04 69.81 3.00 276.22 2652.75
   09:12:49.187.08-Feb-2020 3153.21 4820.96 69.81 3.00 276.42 2652.75
   09:12:49.387.08-Feb-2020 3153.21 4820.91 69.81 3.00 276.62 2652.75
   09:12:49.587.08-Feb-2020 3153.21 4820.86 69.81 3.00 276.82 2652.75
   09:12:49.787.08-Feb-2020 3153.21 4820.75 69.81 3.00 277.02 2652.75
   09:12:49.987.08-Feb-2020 3153.21 4820.75 69.81 3.00 277.22 2652.75
   09:12:50.187.08-Feb-2020 3153.21 4821.45 69.81 3.00 277.42 2652.75
   09:12:50.387.08-Feb-2020 3153.21 4821.52 69.81 3.00 277.62 2652.75
   09:12:50.587.08-Feb-2020 3153.21 4822.01 69.82 3.00 277.82 2652.75
   09:12:50.787.08-Feb-2020 3153.21 4821.68 69.82 3.00 278.02 2652.75
   09:12:50.987.08-Feb-2020 3153.21 4821.68 69.82 3.00 278.22 2652.75
   09:12:51.187.08-Feb-2020 3153.21 4821.92 69.82 3.00 278.42 2652.75
   09:12:51.387.08-Feb-2020 3153.21 4821.65 69.82 3.00 278.62 2652.75
   09:12:51.587.08-Feb-2020 3153.21 4821.51 69.82 3.00 278.82 2652.75
   09:12:51.787.08-Feb-2020 3153.21 4821.50 69.82 3.00 279.02 2652.75
   09:12:51.987.08-Feb-2020 3153.21 4821.50 69.82 3.00 279.22 2652.75
   09:12:52.187.08-Feb-2020 3153.21 4822.18 69.82 3.00 279.42 2652.75
   09:12:52.387.08-Feb-2020 3153.21 4822.06 69.82 3.00 279.62 2652.75
   09:12:52.587.08-Feb-2020 3153.21 4821.79 69.82 3.00 279.82 2652.75
   09:12:52.787.08-Feb-2020 3153.21 4822.14 69.82 3.00 280.02 2652.75
   09:12:52.987.08-Feb-2020 3153.21 4822.14 69.82 3.00 280.22 2652.75
   09:12:53.187.08-Feb-2020 3153.21 4821.95 69.82 3.00 280.42 2652.75
   09:12:53.387.08-Feb-2020 3153.21 4822.05 69.82 3.00 280.62 2652.75
   09:12:53.587.08-Feb-2020 3153.21 4822.51 69.82 3.00 280.82 2652.75
   09:12:53.787.08-Feb-2020 3153.21 4820.94 69.82 3.00 281.02 2652.75
   09:12:53.987.08-Feb-2020 3153.21 4820.94 69.82 3.00 281.22 2652.75
   09:12:54.187.08-Feb-2020 3153.21 4822.84 69.82 3.00 281.42 2652.75
   09:12:54.387.08-Feb-2020 3153.21 4820.52 69.82 3.00 281.62 2652.75
   09:12:54.587.08-Feb-2020 3153.21 4821.84 69.82 3.00 281.82 2652.75
   09:12:54.787.08-Feb-2020 3153.21 4822.76 69.82 3.00 282.02 2652.75
   09:12:54.987.08-Feb-2020 3153.21 4822.76 69.82 3.00 282.22 2652.75
   09:12:55.187.08-Feb-2020 3153.21 4821.96 69.82 3.00 282.42 2652.75
   09:12:55.387.08-Feb-2020 3153.21 4822.05 69.82 3.00 282.62 2652.75
   09:12:55.587.08-Feb-2020 3153.21 4822.68 69.82 3.00 282.82 2652.75
   09:12:55.787.08-Feb-2020 3153.21 4822.40 69.82 3.00 283.02 2652.75
   09:12:55.987.08-Feb-2020 3153.21 4822.40 69.82 3.00 283.22 2652.75
   09:12:56.187.08-Feb-2020 3153.21 4822.41 69.82 3.00 283.42 2652.75
   09:12:56.387.08-Feb-2020 3153.21 4822.93 69.82 3.00 283.62 2652.75
   09:12:56.587.08-Feb-2020 3153.21 4821.64 69.82 3.00 283.82 2652.75
   09:12:56.787.08-Feb-2020 3153.21 4822.58 69.82 3.00 284.02 2652.75
   09:12:56.987.08-Feb-2020 3153.21 4822.58 69.82 3.00 284.22 2652.75
   09:12:57.187.08-Feb-2020 3153.21 4822.47 69.82 3.00 284.42 2652.75
   09:12:57.388.08-Feb-2020 3153.21 4822.63 69.82 3.00 284.62 2652.75
   09:12:57.588.08-Feb-2020 3153.21 4822.42 69.82 3.00 284.82 2652.75
   09:12:57.788.08-Feb-2020 3153.21 4822.64 69.82 3.00 285.02 2652.75
   09:12:57.988.08-Feb-2020 3153.21 4822.64 69.82 3.00 285.22 2652.75
   09:12:58.188.08-Feb-2020 3153.21 4822.35 69.82 3.00 285.42 2652.75
   09:12:58.388.08-Feb-2020 3153.21 4822.68 69.82 3.00 285.62 2652.75
   09:12:58.588.08-Feb-2020 3153.21 4823.50 69.82 3.00 285.82 2652.75
   09:12:58.788.08-Feb-2020 3153.21 4821.50 69.82 3.00 286.02 2652.75
   09:12:58.988.08-Feb-2020 3153.21 4821.50 69.82 3.00 286.22 2652.75
   09:12:59.188.08-Feb-2020 3153.21 4821.36 69.82 3.00 286.42 2652.75
   09:12:59.388.08-Feb-2020 3153.21 4822.24 69.82 3.00 286.62 2652.75
   09:12:59.588.08-Feb-2020 3153.21 4822.30 69.82 3.00 286.82 2652.75
   09:12:59.788.08-Feb-2020 3153.21 4822.52 69.82 3.00 287.02 2652.75
   09:12:59.988.08-Feb-2020 3153.21 4822.52 69.82 3.00 287.22 2652.75
   09:13:00.188.08-Feb-2020 3153.21 4822.68 69.82 3.00 287.42 2652.75
   09:13:00.388.08-Feb-2020 3153.21 4822.51 69.82 3.00 287.62 2652.75
   09:13:00.588.08-Feb-2020 3153.21 4822.56 69.82 3.00 287.82 2652.75
   09:13:00.788.08-Feb-2020 3153.21 4822.74 69.82 3.00 288.02 2652.75
   09:13:00.988.08-Feb-2020 3153.21 4822.74 69.82 3.00 288.22 2652.75
   09:13:01.188.08-Feb-2020 3153.21 4821.91 69.82 3.00 288.42 2652.75
   09:13:01.388.08-Feb-2020 3153.21 4822.82 69.82 3.00 288.62 2652.75
   09:13:01.588.08-Feb-2020 3153.21 4822.30 69.82 3.00 288.82 2652.75
   09:13:01.788.08-Feb-2020 3153.21 4821.59 69.82 3.00 289.02 2652.75
   09:13:01.988.08-Feb-2020 3153.21 4821.59 69.82 3.00 289.22 2652.75
   09:13:02.188.08-Feb-2020 3153.21 4823.24 69.82 3.00 289.42 2652.75
   09:13:02.388.08-Feb-2020 3153.21 4821.87 69.82 3.00 289.62 2652.75
   09:13:02.588.08-Feb-2020 3153.21 4822.37 69.82 3.00 289.82 2652.75
   09:13:02.788.08-Feb-2020 3153.21 4822.67 69.82 3.00 290.02 2652.75
   09:13:02.988.08-Feb-2020 3153.21 4822.67 69.82 3.00 290.22 2652.75
   09:13:03.188.08-Feb-2020 3153.21 4822.91 69.82 3.00 290.42 2652.75
   09:13:03.388.08-Feb-2020 3153.21 4822.29 69.82 3.00 290.62 2652.75
   09:13:03.588.08-Feb-2020 3153.21 4823.00 69.82 3.00 290.82 2652.75
   09:13:03.788.08-Feb-2020 3153.21 4822.08 69.82 3.00 291.02 2652.75
   09:13:03.988.08-Feb-2020 3153.21 4822.08 69.82 3.00 291.22 2652.75
   09:13:04.188.08-Feb-2020 3153.21 4822.62 69.82 3.00 291.42 2652.75
   09:13:04.388.08-Feb-2020 3153.21 4822.56 69.82 3.00 291.62 2652.75
   09:13:04.588.08-Feb-2020 3153.21 4822.46 69.82 3.00 291.82 2652.75
   09:13:04.788.08-Feb-2020 3153.21 4822.77 69.82 3.00 292.02 2652.75
   09:13:04.988.08-Feb-2020 3153.21 4822.77 69.82 3.00 292.22 2652.75
   09:13:05.188.08-Feb-2020 3153.21 4822.49 69.82 3.00 292.42 2652.75
   09:13:05.388.08-Feb-2020 3153.21 4822.51 69.82 3.00 292.62 2652.75
   09:13:05.588.08-Feb-2020 3153.21 4822.57 69.82 3.00 292.82 2652.75
   09:13:05.788.08-Feb-2020 3153.21 4822.74 69.82 3.00 293.02 2652.75
   09:13:05.988.08-Feb-2020 3153.21 4822.74 69.82 3.00 293.22 2652.75
   09:13:06.188.08-Feb-2020 3153.21 4822.47 69.82 3.00 293.42 2652.75
   09:13:06.388.08-Feb-2020 3153.21 4822.39 69.81 3.00 293.62 2652.75
   09:13:06.588.08-Feb-2020 3153.21 4822.93 69.81 3.00 293.82 2652.75
   09:13:06.788.08-Feb-2020 3153.21 4822.62 69.81 3.00 294.02 2652.75
   09:13:06.988.08-Feb-2020 3153.21 4822.62 69.81 3.00 294.22 2652.75
   09:13:07.188.08-Feb-2020 3153.21 4822.77 69.81 3.00 294.42 2652.75
   09:13:07.388.08-Feb-2020 3153.21 4822.58 69.81 3.00 294.62 2652.75
   09:13:07.588.08-Feb-2020 3153.21 4822.72 69.81 3.00 294.82 2652.75
   09:13:07.788.08-Feb-2020 3153.21 4822.61 69.81 3.00 295.02 2652.75
   09:13:07.988.08-Feb-2020 3153.21 4822.61 69.81 3.00 295.22 2652.75
   09:13:08.188.08-Feb-2020 3153.21 4822.17 69.81 3.00 295.42 2652.75
   09:13:08.388.08-Feb-2020 3153.21 4822.68 69.81 3.00 295.62 2652.75
   09:13:08.588.08-Feb-2020 3153.21 4822.75 69.81 3.00 295.82 2652.75
   09:13:08.788.08-Feb-2020 3153.21 4822.83 69.81 3.00 296.02 2652.75
   09:13:08.988.08-Feb-2020 3153.21 4822.83 69.81 3.00 296.22 2652.75
   09:13:09.188.08-Feb-2020 3153.21 4822.42 69.81 3.00 296.42 2652.75
   09:13:09.389.08-Feb-2020 3153.21 4823.29 69.81 3.00 296.62 2652.75
   09:13:09.589.08-Feb-2020 3153.21 4823.09 69.81 3.00 296.82 2652.75
   09:13:09.789.08-Feb-2020 3153.21 4822.21 69.81 3.00 297.02 2652.75
   09:13:09.989.08-Feb-2020 3153.21 4822.21 69.81 3.00 297.22 2652.75
   09:13:10.189.08-Feb-2020 3153.21 4822.72 69.81 3.00 297.42 2652.75
   09:13:10.389.08-Feb-2020 3153.21 4822.59 69.81 3.00 297.62 2652.75
   09:13:10.589.08-Feb-2020 3153.21 4823.12 69.81 3.00 297.82 2652.75
   09:13:10.789.08-Feb-2020 3153.21 4822.06 69.81 3.00 298.02 2652.75
   09:13:10.989.08-Feb-2020 3153.21 4822.06 69.81 3.00 298.22 2652.75
   09:13:11.189.08-Feb-2020 3153.21 4822.88 69.81 3.00 298.42 2652.75
   09:13:11.389.08-Feb-2020 3153.21 4822.01 69.81 3.00 298.63 2652.75
   09:13:11.589.08-Feb-2020 3153.21 4823.10 69.81 3.00 298.83 2652.75
