~Version Information
 VERS.                  2.0:   CWLS log ASCII Standard -VERSION 2.0
 WRAP.                   NO:   One line per depth step
~Well Information Block
#MNEM.UNIT     VALUE/NAME     DESCRIPTION
#---------     -----------    ---------------------------
 STRT.S             09:08:12 08-Feb-20: START TIME 09:08:12 08-Feb-20
 STOP.S             09:14:54 08-Feb-20: STOP TIME  09:14:54 08-Feb-20
 STEP.S                   0.00: STEP TIME
 NULL.                 -999.25: NULL VALUE
 DFWT.                        :  DIST FWL TEXT
 DFST.                        :  DIST FSL TEXT
 DMF .             Drill Floor:  DRILL MEAS FROM
 STIM.      07.00.00 09-Jan-20:  START TIME
 DATE.      14.04.48 07-Feb-20:  END TIME
 SPUD.               09-Jan-20:  SPUD DATE
 NREF.                    Grid:  NORTH REFERENCE
 HPTY.       Minimum Curvature:  HOLE POS TYPE
 DMOD.             Drill Model:  DRILL MOD DESC
 SVYD.                  Survey:  SURVEY DESC
 ILTD.               Lithology:  INTERP LTH DESC
 FTOP.          Formation Tops:  FORM TOPS DESC
 SON .        AZ-XX-0905059384:  JOB NUMBER
 MDS .        Operator Entered:  MAG DATA SOURCE
 WTYP.                Deviated:  WELL TYPE
 COMP.     BP Exploration (Caspian Sea) Ltd.:  COMPANY
 UWI .                     N/A:  UNIQUE WELL IDENTIFIER
 API .                     N/A:  API NUMBER
 BASE.              Azerbaijan:  LOGGING EQUIPMENT BASE LOCATION
 REGN.                   EESSA:  REGION
 PROV.                    Baku:  PROVINCE
 STAT.                    Baku:  STATE NAME
 CTRY.              Azerbaijan:  COUNTRY NAME
 FLD .                     ACG:  FIELD NAME
 SRVC.     TURAN Drilling & Engineering:  CONTRACTOR
 MWDS.                    Baku:  MWD SHOP
 WELL.                     J22:  WELL NAME
 RIG .             West Chirag:  RIG NAME
 DOE .                     N/A:  DOE NUMBER
 DCON.         Sperry Drilling:  DIRECTNL CONTR
 UNIT.                     N/A:  LOGGING EQUIPMENT ID
 PDAT.          Mean Sea Level:  PERMANENT DATUM
 JOBN.        AZ-XX-0905059384:  JOB TICKET NUMB
 CNTY.                        :  COUNTY
 LOC .                        :  LOCATION
 LMF .             Drill Floor:  LOG MEASURED FROM
 TVDS.m                  43.00:  TVDSS CORRECTN
 LATI.deg                40.13:  LATITUDE
 LONG.deg                51.22:  LONGITUDE
 WHNS.m                  10.28:  WELL HEAD N/S
 WHEW.m                  -6.24:  WELL HEAD E/W
 UTMX.m              519005.06:  UTM X
 UTMY.m             4443793.85:  UTM Y
 DFWL.m                   0.00:  DISTANCE FWL
 DFSL.m                   0.00:  DISTANCE FSL
 SDEP.m                 362.00:  START DEPTH
 TDD .m                 904.00:  TOTAL DEPTH (DRILLER)
 VSDR.deg               148.53:  VERT SEC DIRECT
 GVFD.g                   1.00:  GRAVITY FIELD
 MFLD.nT              50277.00:  MAGNETIC FIELD
 MDIP.deg                59.56:  MAGNETIC DIP
 MDEC.deg                 6.42:  MAGNETIC DECL
 GRDC.deg                 0.15:  GRID CORRECTION
 AZTC.deg                 6.27:  AZM TOTAL CORR
 EPD .m                   0.00:  ELEVATION
 EGL .m                   0.00:  GROUND ELEVATION
 WDMS.m                 169.80:  WD ELEV
 APD .m                  43.00:  DEPTH ABOVE PD
 AGAP.m                  43.00:  AIR GAP
 VSEW.m                  -6.24:  VERT SEC E/W
 VSNS.m                  10.28:  VERT SEC N/S
 DEP .m                   0.00:  DEPTH
 EKB .m                   0.00:  KB ELEVATION
 EDF .m                  43.00:  DF ELEVATION
 TDL .m                1183.00:  TOTAL DEPTH (LOGGER)
 VSC .                       0:  VS TO CLOSURE
 MAGU.                 1850021:  MAGUTM CHECKSUM
~Parameter Information Block
#MNEM.UNIT       Value        Description
#---------     -----------    ---------------------------
 AV  .mps                 4.00:  Ann Velocity 
 AVMX.mps                 4.50:  Max Ann Veloc 
 AZIF.deg               145.38:  Azm, Final 
 BHAT.        Rotary Steerable:  BHA Type 
 BROT.°/30m               3.00:  Build Rotating 
 BS  .in                 12.25:  Bit Size 
 BSZ .in                 12.25:  Bit Size 
 BTPL.psig              650.00:  Bit Press Loss 
 CABU.                      No:  Customer Abuse 
 COMM.                     T!k:  Run Comments 1 
 TCS .hr                101.62:  Time Ciculation Ended 
 CV  .mps                 5.00:  Crit Velocity 
 CVMX.mps                 5.00:  Max Crit Veloc 
 DD1 .             Aziz Aliyev:  Direct Drillr 1 
 DD2 .      Fakhraddin Guliyev:  Direct Drillr 2 
 DDSV.                 iCruise:  DD Service 
 DEFF.%                  97.00:  % Det Eff 
 DLRX.°/30m               4.16:  Dogleg Rot Max 
 DLSO.°/30m               3.20:  Dogleg Oriented 
 DLSX.°/30m               4.10:  Dogleg Str Max 
 DRET.      23.12.00 07-Feb-20:  Drill End Time 
 DRST.      11.30.00 04-Feb-20:  Drill Start Tim 
 DTIM.hr                 61.06:  Time Drilling 
 EDEP.m                3219.01:  End Depth 
 ENG1.         Almaz Almadatov:  Engineer 1 
 ENG2.         Dair Mahammadov:  Engineer 2 
 ENG3.          Nazrin Asgarli:  Engineer 3 
 ETIM.      02.30.00 11-Feb-20:  End Time 
 FLOI.gpm              1100.00:  Flow In 
 FLON.gpm               900.00:  Flow In Min 
 FLOS.cptm               55.00:  Fluid Loss 
 FLOX.gpm              1150.00:  Flow In Max 
 FTRO.       Formation Presure:  FTWD Run Obj 
 HFLO.                      No:  High Flow 
 HPRE.                      No:  High Pressure 
 HTEM.                      No:  High Temp 
 HYDO.m                   1.80:  Hydro Offset 
 IFIN.deg                75.11:  Inc, Final 
 IMAX.deg                75.11:  Inc Max 
 IMIN.deg                33.55:  Inc Min 
 IMND.m                2186.05:  Inc Min Depth 
 IMXD.m                3205.61:  Inc Max Depth 
 JARR.                      No:  Jarring 
 LETM.      23.12.00 07-Feb-20:  Log End Time 
 LOST.hr                     0:  Lost Rig Time 
 LSTM.      11.30.00 04-Feb-20:  Log Start Time 
 MDCL.ppm             40000.00:  Mud Chlorides 
 MDES.     Inversion Oil/Synthetic:  Mud Desc 
 DFD .sg                  1.49:  Mud Density 
 MDMN.sg                  1.49:  Dens Mud Min 
 MDMX.sg                  1.49:  Dens Mud Max 
 MOIL.                      73:  Run Mud Oil % 
 MOWR.                   73:27:  Run Mud OWR 
 MSND.                     0.1:  Run Mud Sand % 
 MSOL.                    20.1:  Run Mud Solids% 
 DFV .spqt               78.00:  Mud Viscosity 
 MWOD.in                  8.00:  MWD Tool OD 
 MWSI.                      No:  Serv Intrp, MWD 
 OTIM.hr                177.15:  Time Operating 
 PCON.          Wear / Scratch:  Pad Condition 
 PMAX.psia            10493.93:  Press Op, Max 
 PV  .cP                 73.00:  Mud PV 
 RUN .                     700:  Run Number 
 ROPA.m/hr               15.00:  ROP Avg 
 ROPN.m/hr               10.00:  ROP Min 
 ROPX.m/hr               35.00:  ROP Max 
 RPMA.rpm               130.00:  RPM Surface Avg 
 RPMN.rpm                80.00:  RPM Surface Min 
 RPMX.rpm               150.00:  RPM Surface Max 
 RRUN.                    L402:  Rig Run Number 
 RTIM.hr                 80.50:  Time Reaming 
 SAZI.deg               155.55:  Azm, Start 
 SDEP.m                2036.00:  Start Depth 
 SIDD.                      No:  Serv Intrp, DD 
 SINC.deg                35.44:  Inc, Start 
 SPPA.psig             4270.00:  SPP Avg 
 SPPN.psig             2800.00:  SPP Min 
 SPPX.psig             4850.00:  SPP Max 
 STIM.      09.30.00 03-Feb-20:  Start Time 
 SVCS.                 DD, MWD:  Services 
 SVER.                    9.20:  Sperry Version 
 TDAT.m                1183.00:  Tot Depth Attmp 
 TDDF.                      No:  Trip for DD 
 TDLG.m                1183.00:  Tot Depth Loggd 
 TFF .                      No:  Trip for Fail 
 TQAA.f-kp               16.00:  Torque Abs Avg 
 TQAN.f-kp               10.00:  Torque Abs Min 
 TQAX.f-kp               20.00:  Torque Abs Max 
 TRRT.°/30m               1.00:  Turn Rotating 
 MRT .                  EWR-M5:  Maximum Recorded Temperature 
 TTMX.degC               80.39:  Max Tool Temp 
 VS01.               13098498 :  Virtual Str1 SN 
 VS02.                90569596:  Virtual Str2 SN 
 VS03.                90523599:  Virtual Str3 SN 
 VS04.                90573553:  Virtual Str4 SN 
 VS05.                90598598:  Virtual Str5 SN 
 VS06.                90577297:  Virtual Str6 SN 
 WBMN.klb                13.00:  WOB Min 
 WITN.         Alistair Sprott:  Customer Rep 
 WITN.           Rufat Babayev:  Customer Rep 2 
 WOBA.klb                15.00:  WOB Avg 
 WOBX.klb                20.00:  WOB Max 
 YP  .lhf2               39.00:  Yield Point 
~Curve Information Block
#MNEM.UNIT                 API CODE     Curve Description
#---------               -----------    ---------------------------
 TIME.HHMMSS            00 000 000 000:  GT Time & Date
 GTDEPTH.m              00 000 000 000:  GT Depth
 GTPQH.psia             00 000 000 000:  GT HR Quartz Pressure
 GTTQ.degC              00 000 000 000:  GT Quartz Temperature
 GTTN.NONE              00 000 000 000:  GT Test Number
 GTET.sec               00 000 000 000:  GT Elapsed Test Time
 GTTVD.m                00 000 000 000:  GT True Vertical Depth
#Other Information
#
#WARRANTY: Halliburton will use its best efforts to furnish customers with 
#accurate information and interpretations that are part of, and incident to, the services 
#provided.  However, Halliburton cannot and does not warrant the accuracy 
#or correctness of such information and interpretations.  Under no circumstances should any 
#such information or interpretation be relied upon as the sole basis for any drilling, 
#completion, production, or financial decision or any procedure involving any risk to the 
#safety of any drilling venture, drilling rig or its crew or any other third party.  The 
#Customer has full responsibility for all drilling, completion and production operation.  
#Halliburton makes no representations or warranties, either expressed or 
#implied, including, but not limited to, the implied warranties of merchantability or fitness 
#for a particular purpose, with respect to the services rendered.  In no event will 
#Halliburton be liable for failure to obtain any particular results or for 
#any damages, including, but not limited to, indirect, special or consequential damages, 
#resulting from the use of any information or interpretation provided by Halliburton.
#
~A           TIME           GTDEPTH  GTPQH  GTTQ  GTTN  GTET   GTTVD  
# ...
   09:12:25.785.08-Feb-2020 3153.21 4822.77 69.83 3.00 253.02 2652.75
   09:12:25.985.08-Feb-2020 3153.21 4822.77 69.83 3.00 253.22 2652.75
   09:12:26.185.08-Feb-2020 3153.21 4823.31 69.83 3.00 253.42 2652.75
   09:12:26.385.08-Feb-2020 3153.21 4823.39 69.83 3.00 253.62 2652.75
   09:12:26.585.08-Feb-2020 3153.21 4823.44 69.83 3.00 253.82 2652.75
   09:12:26.785.08-Feb-2020 3153.21 4822.58 69.83 3.00 254.02 2652.75
   09:12:26.985.08-Feb-2020 3153.21 4822.58 69.83 3.00 254.22 2652.75
   09:12:27.185.08-Feb-2020 3153.21 4823.23 69.83 3.00 254.42 2652.75
   09:12:27.385.08-Feb-2020 3153.21 4822.95 69.83 3.00 254.62 2652.75
   09:12:27.585.08-Feb-2020 3153.21 4822.79 69.83 3.00 254.82 2652.75
   09:12:27.785.08-Feb-2020 3153.21 4822.83 69.83 3.00 255.02 2652.75
   09:12:27.985.08-Feb-2020 3153.21 4822.83 69.83 3.00 255.22 2652.75
   09:12:28.185.08-Feb-2020 3153.21 4822.89 69.83 3.00 255.42 2652.75
   09:12:28.385.08-Feb-2020 3153.21 4823.03 69.83 3.00 255.62 2652.75
   09:12:28.585.08-Feb-2020 3153.21 4823.05 69.83 3.00 255.82 2652.75
   09:12:28.785.08-Feb-2020 3153.21 4822.81 69.83 3.00 256.02 2652.75
   09:12:28.985.08-Feb-2020 3153.21 4822.81 69.83 3.00 256.22 2652.75
   09:12:29.185.08-Feb-2020 3153.21 4822.92 69.83 3.00 256.42 2652.75
   09:12:29.385.08-Feb-2020 3153.21 4823.92 69.83 3.00 256.62 2652.75
   09:12:29.585.08-Feb-2020 3153.21 4822.20 69.83 3.00 256.82 2652.75
   09:12:29.785.08-Feb-2020 3153.21 4823.14 69.83 3.00 257.02 2652.75
   09:12:29.985.08-Feb-2020 3153.21 4823.14 69.83 3.00 257.22 2652.75
   09:12:30.185.08-Feb-2020 3153.21 4822.70 69.83 3.00 257.42 2652.75
   09:12:30.385.08-Feb-2020 3153.21 4823.09 69.83 3.00 257.62 2652.75
   09:12:30.585.08-Feb-2020 3153.21 4822.84 69.83 3.00 257.82 2652.75
   09:12:30.785.08-Feb-2020 3153.21 4822.84 69.83 3.00 258.02 2652.75
   09:12:30.985.08-Feb-2020 3153.21 4822.84 69.83 3.00 258.22 2652.75
   09:12:31.185.08-Feb-2020 3153.21 4822.70 69.83 3.00 258.42 2652.75
   09:12:31.385.08-Feb-2020 3153.21 4822.69 69.83 3.00 258.62 2652.75
   09:12:31.585.08-Feb-2020 3153.21 4823.09 69.83 3.00 258.82 2652.75
   09:12:31.785.08-Feb-2020 3153.21 4822.82 69.83 3.00 259.02 2652.75
   09:12:31.985.08-Feb-2020 3153.21 4822.82 69.83 3.00 259.22 2652.75
   09:12:32.185.08-Feb-2020 3153.21 4823.60 69.83 3.00 259.42 2652.75
   09:12:32.385.08-Feb-2020 3153.21 4822.48 69.83 3.00 259.62 2652.75
   09:12:32.585.08-Feb-2020 3153.21 4822.25 69.83 3.00 259.82 2652.75
   09:12:32.785.08-Feb-2020 3153.21 4823.23 69.83 3.00 260.02 2652.75
   09:12:32.985.08-Feb-2020 3153.21 4823.23 69.83 3.00 260.22 2652.75
   09:12:33.185.08-Feb-2020 3153.21 4822.81 69.83 3.00 260.42 2652.75
   09:12:33.385.08-Feb-2020 3153.21 4822.66 69.83 3.00 260.62 2652.75
   09:12:33.586.08-Feb-2020 3153.21 4822.93 69.83 3.00 260.82 2652.75
   09:12:33.786.08-Feb-2020 3153.21 4823.34 69.83 3.00 261.02 2652.75
   09:12:33.986.08-Feb-2020 3153.21 4823.34 69.83 3.00 261.22 2652.75
   09:12:34.186.08-Feb-2020 3153.21 4822.61 69.83 3.00 261.42 2652.75
   09:12:34.386.08-Feb-2020 3153.21 4822.84 69.83 3.00 261.62 2652.75
   09:12:34.586.08-Feb-2020 3153.21 4823.74 69.83 3.00 261.82 2652.75
   09:12:34.786.08-Feb-2020 3153.21 4822.29 69.83 3.00 262.02 2652.75
   09:12:34.986.08-Feb-2020 3153.21 4822.29 69.83 3.00 262.22 2652.75
   09:12:35.186.08-Feb-2020 3153.21 4822.70 69.83 3.00 262.42 2652.75
   09:12:35.386.08-Feb-2020 3153.21 4822.82 69.83 3.00 262.62 2652.75
   09:12:35.586.08-Feb-2020 3153.21 4823.21 69.83 3.00 262.82 2652.75
   09:12:35.786.08-Feb-2020 3153.21 4822.88 69.83 3.00 263.02 2652.75
   09:12:35.986.08-Feb-2020 3153.21 4822.88 69.83 3.00 263.22 2652.75
   09:12:36.186.08-Feb-2020 3153.21 4822.87 69.83 3.00 263.42 2652.75
   09:12:36.386.08-Feb-2020 3153.21 4822.68 69.83 3.00 263.62 2652.75
   09:12:36.586.08-Feb-2020 3153.21 4718.08 69.83 3.00 263.82 2652.75
   09:12:36.786.08-Feb-2020 3153.21 4517.46 69.83 3.00 264.02 2652.75
   09:12:36.986.08-Feb-2020 3153.21 4517.46 69.83 3.00 264.22 2652.75
   09:12:37.186.08-Feb-2020 3153.21 4395.53 69.83 3.00 264.42 2652.75
   09:12:37.386.08-Feb-2020 3153.21 4380.49 69.83 3.00 264.62 2652.75
   09:12:37.586.08-Feb-2020 3153.21 4371.02 69.82 3.00 264.82 2652.75
   09:12:37.786.08-Feb-2020 3153.21 4367.49 69.82 3.00 265.02 2652.75
   09:12:37.986.08-Feb-2020 3153.21 4367.49 69.82 3.00 265.22 2652.75
   09:12:38.186.08-Feb-2020 3153.21 4364.50 69.82 3.00 265.42 2652.75
   09:12:38.386.08-Feb-2020 3153.21 4363.57 69.82 3.00 265.62 2652.75
   09:12:38.586.08-Feb-2020 3153.21 4363.09 69.82 3.00 265.82 2652.75
   09:12:38.786.08-Feb-2020 3153.21 4361.92 69.82 3.00 266.02 2652.75
   09:12:38.986.08-Feb-2020 3153.21 4361.92 69.82 3.00 266.22 2652.75
   09:12:39.186.08-Feb-2020 3153.21 4364.49 69.82 3.00 266.42 2652.75
   09:12:39.386.08-Feb-2020 3153.21 4365.65 69.82 3.00 266.62 2652.75
   09:12:39.586.08-Feb-2020 3153.21 4367.33 69.82 3.00 266.82 2652.75
   09:12:39.786.08-Feb-2020 3153.21 4366.50 69.82 3.00 267.02 2652.75
   09:12:39.986.08-Feb-2020 3153.21 4366.50 69.82 3.00 267.22 2652.75
   09:12:40.186.08-Feb-2020 3153.21 4369.04 69.82 3.00 267.42 2652.75
   09:12:40.386.08-Feb-2020 3153.21 4369.45 69.82 3.00 267.62 2652.75
   09:12:40.586.08-Feb-2020 3153.21 4366.99 69.82 3.00 267.82 2652.75
   09:12:40.786.08-Feb-2020 3153.21 4367.74 69.82 3.00 268.02 2652.75
   09:12:40.986.08-Feb-2020 3153.21 4367.74 69.82 3.00 268.22 2652.75
   09:12:41.186.08-Feb-2020 3153.21 4368.36 69.82 3.00 268.42 2652.75
   09:12:41.386.08-Feb-2020 3153.21 4369.54 69.82 3.00 268.62 2652.75
   09:12:41.586.08-Feb-2020 3153.21 4370.82 69.82 3.00 268.82 2652.75
   09:12:41.786.08-Feb-2020 3153.21 4372.64 69.82 3.00 269.02 2652.75
   09:12:41.986.08-Feb-2020 3153.21 4372.64 69.82 3.00 269.22 2652.75
   09:12:42.186.08-Feb-2020 3153.21 4375.83 69.82 3.00 269.42 2652.75
   09:12:42.386.08-Feb-2020 3153.21 4375.95 69.82 3.00 269.62 2652.75
   09:12:42.586.08-Feb-2020 3153.21 4377.29 69.82 3.00 269.82 2652.75
   09:12:42.786.08-Feb-2020 3153.21 4376.00 69.81 3.00 270.02 2652.75
   09:12:42.986.08-Feb-2020 3153.21 4376.00 69.81 3.00 270.22 2652.75
   09:12:43.186.08-Feb-2020 3153.21 4375.09 69.81 3.00 270.42 2652.75
   09:12:43.386.08-Feb-2020 3153.21 4373.33 69.81 3.00 270.62 2652.75
   09:12:43.586.08-Feb-2020 3153.21 4376.40 69.81 3.00 270.82 2652.75
   09:12:43.786.08-Feb-2020 3153.21 4377.21 69.81 3.00 271.02 2652.75
   09:12:43.986.08-Feb-2020 3153.21 4377.21 69.81 3.00 271.22 2652.75
   09:12:44.186.08-Feb-2020 3153.21 4380.20 69.81 3.00 271.42 2652.75
   09:12:44.386.08-Feb-2020 3153.21 4372.99 69.81 3.00 271.62 2652.75
   09:12:44.586.08-Feb-2020 3153.21 4378.07 69.81 3.00 271.82 2652.75
   09:12:44.786.08-Feb-2020 3153.21 4380.15 69.81 3.00 272.02 2652.75
   09:12:44.986.08-Feb-2020 3153.21 4380.15 69.81 3.00 272.22 2652.75
   09:12:45.186.08-Feb-2020 3153.21 4551.17 69.81 3.00 272.42 2652.75
   09:12:45.386.08-Feb-2020 3153.21 4708.18 69.81 3.00 272.62 2652.75
   09:12:45.587.08-Feb-2020 3153.21 4770.11 69.81 3.00 272.82 2652.75
   09:12:45.787.08-Feb-2020 3153.21 4796.47 69.81 3.00 273.02 2652.75
   09:12:45.987.08-Feb-2020 3153.21 4796.47 69.81 3.00 273.22 2652.75
   09:12:46.187.08-Feb-2020 3153.21 4812.82 69.81 3.00 273.42 2652.75
   09:12:46.387.08-Feb-2020 3153.21 4814.93 69.81 3.00 273.62 2652.75
   09:12:46.587.08-Feb-2020 3153.21 4815.98 69.81 3.00 273.82 2652.75
   09:12:46.787.08-Feb-2020 3153.21 4817.42 69.81 3.00 274.02 2652.75
   09:12:46.987.08-Feb-2020 3153.21 4817.42 69.81 3.00 274.22 2652.75
   09:12:47.187.08-Feb-2020 3153.21 4818.82 69.81 3.00 274.42 2652.75
   09:12:47.387.08-Feb-2020 3153.21 4818.61 69.81 3.00 274.62 2652.75
   09:12:47.587.08-Feb-2020 3153.21 4819.97 69.81 3.00 274.82 2652.75
   09:12:47.787.08-Feb-2020 3153.21 4821.30 69.81 3.00 275.02 2652.75
   09:12:47.987.08-Feb-2020 3153.21 4821.30 69.81 3.00 275.22 2652.75
   09:12:48.187.08-Feb-2020 3153.21 4820.08 69.81 3.00 275.42 2652.75
   09:12:48.387.08-Feb-2020 3153.21 4821.05 69.81 3.00 275.62 2652.75
   09:12:48.587.08-Feb-2020 3153.21 4819.40 69.81 3.00 275.82 2652.75
