~Version Information
 VERS.                  2.0:   CWLS log ASCII Standard -VERSION 2.0
 WRAP.                   NO:   One line per depth step
~Well Information Block
#MNEM.UNIT     VALUE/NAME     DESCRIPTION
#---------     -----------    ---------------------------
 STRT.S             15:24:16 25-Dec-20: START TIME 15:24:16 25-Dec-20
 STOP.S             15:32:36 25-Dec-20: STOP TIME  15:32:36 25-Dec-20
 STEP.S                   0.00: STEP TIME
 NULL.                 -999.25: NULL VALUE
 DFWT.                        :  DIST FWL TEXT
 DFST.                        :  DIST FSL TEXT
 DMF .             Drill Floor:  DRILL MEAS FROM
 STIM.      04.54.24 22-Sep-20:  START TIME
 DATE.      04.54.24 21-Nov-20:  END TIME
 SPUD.               21-Nov-20:  SPUD DATE
 NREF.                    Grid:  NORTH REFERENCE
 HPTY.       Minimum Curvature:  HOLE POS TYPE
 DMOD.             Drill Model:  DRILL MOD DESC
 SVYD.                  Survey:  SURVEY DESC
 ILTD.               Lithology:  INTERP LTH DESC
 FTOP.          Formation Tops:  FORM TOPS DESC
 SON .        AZ-XX-0906571587:  JOB NUMBER
 COMP.     BP Exploration (Caspian Sea) Ltd:  COMPANY
 UWI .                     N/A:  UNIQUE WELL IDENTIFIER
 API .                     N/A:  API NUMBER
 BASE.              Azerbaijan:  LOGGING EQUIPMENT BASE LOCATION
 REGN.                   EESSA:  REGION
 PROV.                    Baku:  PROVINCE
 STAT.                    Baku:  STATE NAME
 CTRY.              Azerbaijan:  COUNTRY NAME
 FLD .                     ACG:  FIELD NAME
 SRVC.     TURAN Drilling & Engineering:  CONTRACTOR
 WELL.                     J27:  WELL NAME
 RIG .             West Chirag:  RIG NAME
 DOE .                     N/A:  DOE NUMBER
 DCON.         Sperry Drilling:  DIRECTNL CONTR
 PDAT.          Mean Sea Level:  PERMANENT DATUM
 WTYP.                Deviated:  WELL TYPE
 MWDS.                    Baku:  MWD SHOP
 JOBN.        AZ-XX-0906571587:  JOB TICKET NUMB
 UNIT.                     N/A:  LOGGING EQUIPMENT ID
 MDS .        Operator Entered:  MAG DATA SOURCE
 CNTY.                        :  COUNTY
 LOC .                        :  LOCATION
 LMF .             Drill Floor:  LOG MEASURED FROM
 TVDS.m                  43.00:  TVDSS CORRECTN
 LATI.deg                40.13:  LATITUDE
 LONG.deg                51.22:  LONGITUDE
 WHNS.m                   7.72:  WELL HEAD N/S
 WHEW.m                 -14.24:  WELL HEAD E/W
 UTMX.m              519005.06:  UTM X
 UTMY.m             4443793.85:  UTM Y
 DFWL.m                   0.00:  DISTANCE FWL
 DFSL.m                   0.00:  DISTANCE FSL
 SDEP.m                 347.00:  START DEPTH
 TDD .m                 581.00:  TOTAL DEPTH (DRILLER)
 VSDR.deg               159.72:  VERT SEC DIRECT
 GVFD.g                   1.00:  GRAVITY FIELD
 MFLD.nT              50318.00:  MAGNETIC FIELD
 MDIP.deg                59.57:  MAGNETIC DIP
 MDEC.deg                 6.44:  MAGNETIC DECL
 GRDC.deg                 0.15:  GRID CORRECTION
 AZTC.deg                 6.29:  AZM TOTAL CORR
 EPD .m                   0.00:  ELEVATION
 EGL .m                   0.00:  GROUND ELEVATION
 WDMS.m                 169.80:  WD ELEV
 APD .m                  43.00:  DEPTH ABOVE PD
 AGAP.m                  43.00:  AIR GAP
 VSEW.m                 -14.24:  VERT SEC E/W
 VSNS.m                   7.72:  VERT SEC N/S
 DEP .m                 342.45:  DEPTH
 EKB .m                   0.00:  KB ELEVATION
 EDF .m                  43.00:  DF ELEVATION
 TDL .m                 237.00:  TOTAL DEPTH (LOGGER)
 VSC .                       0:  VS TO CLOSURE
 MAGU.                 1851428:  MAGUTM CHECKSUM
~Parameter Information Block
#MNEM.UNIT       Value        Description
#---------     -----------    ---------------------------
 AV  .mps                 1.50:  Ann Velocity 
 AVMX.mps                 2.90:  Max Ann Veloc 
 AZIF.deg               115.59:  Azm, Final 
 BHAT.        Rotary Steerable:  BHA Type 
 BROT.°/30m               0.50:  Build Rotating 
 BS  .in                  8.50:  Bit Size 
 BTPL.psig              580.00:  Bit Press Loss 
 CABU.                     Yes:  Customer Abuse 
 TCS .hr                 89.79:  Time Ciculation Ended 
 CV  .mps                 3.22:  Crit Velocity 
 CVMX.mps                 4.37:  Max Crit Veloc 
 DD1 .          Rashad Habibov:  Direct Drillr 1 
 DDSV.               Geo-Pilot:  DD Service 
 DEFF.%                  95.00:  % Det Eff 
 DLRX.°/30m               1.94:  Dogleg Rot Max 
 DLSO.°/30m               0.70:  Dogleg Oriented 
 DLSX.°/30m               1.94:  Dogleg Str Max 
 DRET.      04.45.00 25-Dec-20:  Drill End Time 
 DRST.      10.00.00 24-Dec-20:  Drill Start Tim 
 DTIM.hr                 16.64:  Time Drilling 
 EDEP.m                4999.01:  End Depth 
 ENG1.         Elchin Mammadov:  Engineer 1 
 ENG2.          Ruslan Safarov:  Engineer 2 
 ENG3.          Rustam Safarov:  Engineer 3 
 ETIM.      09.00.00 29-Dec-20:  End Time 
 FLOI.gpm               500.00:  Flow In 
 FLON.gpm               400.00:  Flow In Min 
 FLOS.cptm                0.00:  Fluid Loss 
 FLOX.gpm               500.00:  Flow In Max 
 HFLO.                      No:  High Flow 
 HPRE.                      No:  High Pressure 
 HTEM.                      No:  High Temp 
 HYDO.m                   2.00:  Hydro Offset 
 IFIN.deg                66.79:  Inc, Final 
 IMAX.deg                67.66:  Inc Max 
 IMIN.deg                66.39:  Inc Min 
 IMND.m                4949.37:  Inc Min Depth 
 IMXD.m                4778.63:  Inc Max Depth 
 JARR.                     Yes:  Jarring 
 LETM.      04.45.00 25-Dec-20:  Log End Time 
 LOST.hr                     0:  Lost Rig Time 
 LSTM.      10.00.00 24-Dec-20:  Log Start Time 
 MDCL.ppm             39000.00:  Mud Chlorides 
 MDES.     Inversion Oil/Synthetic:  Mud Desc 
 DFD .sg                  1.33:  Mud Density 
 MDMN.sg                  1.33:  Dens Mud Min 
 MDMX.sg                  1.33:  Dens Mud Max 
 MOIL.                      70:  Run Mud Oil % 
 MOWR.                   70:30:  Run Mud OWR 
 MSND.                       0:  Run Mud Sand % 
 MSOL.                    17.4:  Run Mud Solids% 
 DFV .spqt               84.00:  Mud Viscosity 
 MWOD.in                  6.75:  MWD Tool OD 
 MWSI.                     Yes:  Serv Intrp, MWD 
 OTIM.hr                168.14:  Time Operating 
 PCON.           Look Like New:  Pad Condition 
 PMAX.psia            10822.93:  Press Op, Max 
 PV  .cP                 30.00:  Mud PV 
 RUN .                     900:  Run Number 
 ROPA.m/hr               18.00:  ROP Avg 
 ROPN.m/hr               12.00:  ROP Min 
 ROPX.m/hr               25.00:  ROP Max 
 RPMA.rpm               120.00:  RPM Surface Avg 
 RPMN.rpm               100.00:  RPM Surface Min 
 RPMX.rpm               120.00:  RPM Surface Max 
 RRUN.                    0900:  Rig Run Number 
 SAZI.deg               115.08:  Azm, Start 
 SDEP.m                4762.01:  Start Depth 
 SIDD.                      No:  Serv Intrp, DD 
 SINC.deg                66.14:  Inc, Start 
 SPPA.psig             3700.00:  SPP Avg 
 SPPN.psig             3620.00:  SPP Min 
 SPPX.psig             3900.00:  SPP Max 
 STIM.      09.30.00 22-Dec-20:  Start Time 
 SVCS.                 DD, MWD:  Services 
 SVER.                    9.20:  Sperry Version 
 TDAT.m                 237.00:  Tot Depth Attmp 
 TDDF.                      No:  Trip for DD 
 TDLG.m                 237.00:  Tot Depth Loggd 
 TFF .                      No:  Trip for Fail 
 TQAA.f-kp               18.00:  Torque Abs Avg 
 TQAN.f-kp               17.00:  Torque Abs Min 
 TQAX.f-kp               20.00:  Torque Abs Max 
 TRRT.°/30m               0.60:  Turn Rotating 
 MRT .                    HCIM:  Maximum Recorded Temperature 
 TTMX.degC               94.12:  Max Tool Temp 
 VS01.                90627809:  Virtual Str1 SN 
 VS02.                90527813:  Virtual Str2 SN 
 VS03.                90545417:  Virtual Str3 SN 
 VS04.                12460870:  Virtual Str4 SN 
 VS05.                90516706:  Virtual Str5 SN 
 VS06.                90632007:  Virtual Str6 SN 
 WBMN.klb                 0.00:  WOB Min 
 WOBA.klb                14.00:  WOB Avg 
 WOBX.klb                25.00:  WOB Max 
 YP  .lhf2               32.00:  Yield Point 
~Curve Information Block
#MNEM.UNIT                 API CODE     Curve Description
#---------               -----------    ---------------------------
 TIME.HHMMSS            00 000 000 000:  GT Time & Date
 GTDEPTH.m              00 000 000 000:  GT Depth
 GTPQH.psia             00 000 000 000:  GT HR Quartz Pressure
 GTTQ.degC              00 000 000 000:  GT Quartz Temperature
 GTTN.NONE              00 000 000 000:  GT Test Number
 GTET.sec               00 000 000 000:  GT Elapsed Test Time
 GTTVD.m                00 000 000 000:  GT True Vertical Depth
#Other Information
#
#WARRANTY: Halliburton will use its best efforts to furnish customers with 
#accurate information and interpretations that are part of, and incident to, the services 
#provided.  However, Halliburton cannot and does not warrant the accuracy 
#or correctness of such information and interpretations.  Under no circumstances should any 
#such information or interpretation be relied upon as the sole basis for any drilling, 
#completion, production, or financial decision or any procedure involving any risk to the 
#safety of any drilling venture, drilling rig or its crew or any other third party.  The 
#Customer has full responsibility for all drilling, completion and production operation.  
#Halliburton makes no representations or warranties, either expressed or 
#implied, including, but not limited to, the implied warranties of merchantability or fitness 
#for a particular purpose, with respect to the services rendered.  In no event will 
#Halliburton be liable for failure to obtain any particular results or for 
#any damages, including, but not limited to, indirect, special or consequential damages, 
#resulting from the use of any information or interpretation provided by Halliburton.
#
~A           TIME           GTDEPTH  GTPQH  GTTQ  GTTN  GTET   GTTVD  
   15:24:16.752.25-Dec-2020 4892.01 5432.64 65.49 4.00   0.00 2535.10
   15:24:16.952.25-Dec-2020 4892.01 5432.64 65.49 4.00   0.20 2535.10
   15:24:17.152.25-Dec-2020 4892.01 5433.10 65.49 4.00   0.40 2535.10
   15:24:17.352.25-Dec-2020 4892.01 5433.51 65.49 4.00   0.60 2535.10
   15:24:17.552.25-Dec-2020 4892.01 5433.48 65.49 4.00   0.80 2535.10
   15:24:17.752.25-Dec-2020 4892.01 5433.92 65.49 4.00   1.00 2535.10
   15:24:17.952.25-Dec-2020 4892.01 5433.92 65.49 4.00   1.20 2535.10
   15:24:18.152.25-Dec-2020 4892.01 5434.69 65.49 4.00   1.40 2535.10
   15:24:18.352.25-Dec-2020 4892.01 5435.54 65.49 4.00   1.60 2535.10
   15:24:18.552.25-Dec-2020 4892.01 5435.98 65.49 4.00   1.80 2535.10
   15:24:18.752.25-Dec-2020 4892.01 5435.95 65.49 4.00   2.00 2535.10
   15:24:18.952.25-Dec-2020 4892.01 5435.95 65.49 4.00   2.20 2535.10
   15:24:19.152.25-Dec-2020 4892.01 5435.36 65.49 4.00   2.40 2535.10
   15:24:19.352.25-Dec-2020 4892.01 5444.44 65.49 4.00   2.60 2535.10
   15:24:19.552.25-Dec-2020 4892.01 5437.52 65.49 4.00   2.80 2535.10
   15:24:19.752.25-Dec-2020 4892.01 5450.95 65.49 4.00   3.00 2535.10
   15:24:19.952.25-Dec-2020 4892.01 5450.95 65.49 4.00   3.20 2535.10
   15:24:20.152.25-Dec-2020 4892.01 5444.45 65.49 4.00   3.40 2535.10
   15:24:20.353.25-Dec-2020 4892.01 5440.28 65.49 4.00   3.60 2535.10
   15:24:20.553.25-Dec-2020 4892.01 5438.63 65.49 4.00   3.80 2535.10
   15:24:20.753.25-Dec-2020 4892.01 5449.06 65.49 4.00   4.00 2535.10
   15:24:20.953.25-Dec-2020 4892.01 5449.06 65.49 4.00   4.20 2535.10
   15:24:21.153.25-Dec-2020 4892.01 5449.06 65.49 4.00   4.40 2535.10
   15:24:21.353.25-Dec-2020 4892.01 5439.81 65.49 4.00   4.60 2535.10
   15:24:21.553.25-Dec-2020 4892.01 5448.92 65.49 4.00   4.80 2535.10
   15:24:21.753.25-Dec-2020 4892.01 5439.83 65.49 4.00   5.00 2535.10
   15:24:21.953.25-Dec-2020 4892.01 5439.83 65.49 4.00   5.20 2535.10
   15:24:22.153.25-Dec-2020 4892.01 5442.28 65.49 4.00   5.40 2535.10
   15:24:22.353.25-Dec-2020 4892.01 5440.87 65.49 4.00   5.60 2535.10
   15:24:22.553.25-Dec-2020 4892.01 5445.99 65.49 4.00   5.80 2535.10
   15:24:22.753.25-Dec-2020 4892.01 5443.94 65.49 4.00   6.00 2535.10
   15:24:22.953.25-Dec-2020 4892.01 5443.94 65.49 4.00   6.20 2535.10
   15:24:23.153.25-Dec-2020 4892.01 5441.51 65.49 4.00   6.40 2535.10
   15:24:23.353.25-Dec-2020 4892.01 5446.73 65.49 4.00   6.60 2535.10
   15:24:23.553.25-Dec-2020 4892.01 5441.80 65.49 4.00   6.80 2535.10
   15:24:23.753.25-Dec-2020 4892.01 5442.40 65.49 4.00   7.00 2535.10
   15:24:23.954.25-Dec-2020 4892.01 5448.37 65.49 4.00   7.20 2535.10
   15:24:24.154.25-Dec-2020 4892.01 5444.01 65.49 4.00   7.40 2535.10
   15:24:24.354.25-Dec-2020 4892.01 5444.57 65.49 4.00   7.60 2535.10
   15:24:24.554.25-Dec-2020 4892.01 5446.48 65.48 4.00   7.80 2535.10
   15:24:24.754.25-Dec-2020 4892.01 5441.82 65.48 4.00   8.00 2535.10
   15:24:24.954.25-Dec-2020 4892.01 5441.82 65.48 4.00   8.20 2535.10
   15:24:25.154.25-Dec-2020 4892.01 5442.16 65.48 4.00   8.40 2535.10
   15:24:25.354.25-Dec-2020 4892.01 5442.06 65.48 4.00   8.60 2535.10
   15:24:25.554.25-Dec-2020 4892.01 5442.43 65.48 4.00   8.80 2535.10
   15:24:25.754.25-Dec-2020 4892.01 5442.35 65.48 4.00   9.00 2535.10
   15:24:25.954.25-Dec-2020 4892.01 5442.35 65.48 4.00   9.20 2535.10
   15:24:26.154.25-Dec-2020 4892.01 5443.21 65.48 4.00   9.40 2535.10
   15:24:26.354.25-Dec-2020 4892.01 5443.80 65.48 4.00   9.60 2535.10
   15:24:26.554.25-Dec-2020 4892.01 5446.53 65.48 4.00   9.80 2535.10
   15:24:26.754.25-Dec-2020 4892.01 5448.13 65.48 4.00  10.00 2535.10
   15:24:26.954.25-Dec-2020 4892.01 5448.13 65.48 4.00  10.20 2535.10
   15:24:27.154.25-Dec-2020 4892.01 5444.09 65.48 4.00  10.40 2535.10
   15:24:27.354.25-Dec-2020 4892.01 5451.03 65.48 4.00  10.60 2535.10
   15:24:27.554.25-Dec-2020 4892.01 5446.15 65.48 4.00  10.80 2535.10
   15:24:27.755.25-Dec-2020 4892.01 5446.03 65.48 4.00  11.00 2535.10
   15:24:27.955.25-Dec-2020 4892.01 5447.35 65.48 4.00  11.20 2535.10
   15:24:28.155.25-Dec-2020 4892.01 5447.17 65.48 4.00  11.40 2535.10
   15:24:28.355.25-Dec-2020 4892.01 5447.53 65.48 4.00  11.60 2535.10
   15:24:28.555.25-Dec-2020 4892.01 5446.52 65.48 4.00  11.80 2535.10
   15:24:28.755.25-Dec-2020 4892.01 5446.96 65.48 4.00  12.00 2535.10
   15:24:28.955.25-Dec-2020 4892.01 5446.96 65.48 4.00  12.20 2535.10
   15:24:29.155.25-Dec-2020 4892.01 5447.36 65.48 4.00  12.40 2535.10
   15:24:29.355.25-Dec-2020 4892.01 5454.51 65.48 4.00  12.60 2535.10
   15:24:29.555.25-Dec-2020 4892.01 5445.94 65.48 4.00  12.80 2535.10
   15:24:29.755.25-Dec-2020 4892.01 5452.73 65.48 4.00  13.00 2535.10
   15:24:29.955.25-Dec-2020 4892.01 5452.73 65.48 4.00  13.20 2535.10
   15:24:30.155.25-Dec-2020 4892.01 5456.25 65.48 4.00  13.40 2535.10
   15:24:30.355.25-Dec-2020 4892.01 5447.45 65.48 4.00  13.60 2535.10
   15:24:30.555.25-Dec-2020 4892.01 5453.46 65.48 4.00  13.80 2535.10
   15:24:30.755.25-Dec-2020 4892.01 5448.03 65.48 4.00  14.00 2535.10
   15:24:30.955.25-Dec-2020 4892.01 5448.03 65.48 4.00  14.20 2535.10
   15:24:31.155.25-Dec-2020 4892.01 5453.81 65.48 4.00  14.40 2535.10
   15:24:31.356.25-Dec-2020 4892.01 5450.24 65.48 4.00  14.60 2535.10
   15:24:31.556.25-Dec-2020 4892.01 5450.32 65.48 4.00  14.80 2535.10
   15:24:31.756.25-Dec-2020 4892.01 5452.37 65.48 4.00  15.00 2535.10
   15:24:31.956.25-Dec-2020 4892.01 5456.29 65.48 4.00  15.20 2535.10
   15:24:32.156.25-Dec-2020 4892.01 5451.08 65.48 4.00  15.40 2535.10
   15:24:32.356.25-Dec-2020 4892.01 5456.32 65.48 4.00  15.60 2535.10
   15:24:32.556.25-Dec-2020 4892.01 5455.88 65.48 4.00  15.80 2535.10
   15:24:32.756.25-Dec-2020 4892.01 5452.27 65.48 4.00  16.00 2535.10
   15:24:32.956.25-Dec-2020 4892.01 5452.27 65.48 4.00  16.20 2535.10
   15:24:33.156.25-Dec-2020 4892.01 5454.51 65.48 4.00  16.40 2535.10
   15:24:33.356.25-Dec-2020 4892.01 5451.08 65.48 4.00  16.60 2535.10
   15:24:33.556.25-Dec-2020 4892.01 5460.62 65.48 4.00  16.80 2535.10
   15:24:33.756.25-Dec-2020 4892.01 5451.21 65.48 4.00  17.00 2535.10
   15:24:33.956.25-Dec-2020 4892.01 5451.21 65.48 4.00  17.20 2535.10
   15:24:34.156.25-Dec-2020 4892.01 5452.67 65.48 4.00  17.40 2535.10
   15:24:34.356.25-Dec-2020 4892.01 5451.56 65.48 4.00  17.60 2535.10
   15:24:34.556.25-Dec-2020 4892.01 5454.83 65.48 4.00  17.80 2535.10
   15:24:34.756.25-Dec-2020 4892.01 5452.33 65.48 4.00  18.00 2535.10
   15:24:34.956.25-Dec-2020 4892.01 5452.33 65.48 4.00  18.20 2535.10
   15:24:35.157.25-Dec-2020 4892.01 5454.10 65.48 4.00  18.40 2535.10
   15:24:35.357.25-Dec-2020 4892.01 5453.17 65.48 4.00  18.61 2535.10
   15:24:35.557.25-Dec-2020 4892.01 5453.73 65.48 4.00  18.81 2535.10
   15:24:35.757.25-Dec-2020 4892.01 5454.30 65.48 4.00  19.01 2535.10
   15:24:35.957.25-Dec-2020 4892.01 5454.30 65.48 4.00  19.21 2535.10
   15:24:36.157.25-Dec-2020 4892.01 5451.29 65.47 4.00  19.41 2535.10
   15:24:36.357.25-Dec-2020 4892.01 5461.03 65.47 4.00  19.61 2535.10
   15:24:36.557.25-Dec-2020 4892.01 5455.05 65.47 4.00  19.81 2535.10
   15:24:36.757.25-Dec-2020 4892.01 5454.57 65.47 4.00  20.01 2535.10
   15:24:36.957.25-Dec-2020 4892.01 5454.57 65.47 4.00  20.21 2535.10
   15:24:37.157.25-Dec-2020 4892.01 5454.46 65.47 4.00  20.41 2535.10
   15:24:37.357.25-Dec-2020 4892.01 5455.95 65.47 4.00  20.61 2535.10
   15:24:37.557.25-Dec-2020 4892.01 5455.68 65.47 4.00  20.81 2535.10
   15:24:37.757.25-Dec-2020 4892.01 5456.12 65.47 4.00  21.01 2535.10
   15:24:37.957.25-Dec-2020 4892.01 5456.12 65.47 4.00  21.21 2535.10
   15:24:38.157.25-Dec-2020 4892.01 5455.13 65.47 4.00  21.41 2535.10
   15:24:38.357.25-Dec-2020 4892.01 5456.52 65.47 4.00  21.61 2535.10
   15:24:38.557.25-Dec-2020 4892.01 5457.26 65.47 4.00  21.81 2535.10
   15:24:38.757.25-Dec-2020 4892.01 5462.96 65.47 4.00  22.01 2535.10
   15:24:38.958.25-Dec-2020 4892.01 5462.96 65.47 4.00  22.21 2535.10
   15:24:39.158.25-Dec-2020 4892.01 5461.19 65.47 4.00  22.41 2535.10
   15:24:39.358.25-Dec-2020 4892.01 5465.28 65.47 4.00  22.61 2535.10
   15:24:39.558.25-Dec-2020 4892.01 5462.92 65.47 4.00  22.81 2535.10
