~Version Information
 VERS.                  2.0:   CWLS log ASCII Standard -VERSION 2.0
 WRAP.                   NO:   One line per depth step
~Well Information Block
#MNEM.UNIT     VALUE/NAME     DESCRIPTION
#---------     -----------    ---------------------------
 STRT.S             20:22:11 25-Dec-20: START TIME 20:22:11 25-Dec-20
 STOP.S             20:30:35 25-Dec-20: STOP TIME  20:30:35 25-Dec-20
 STEP.S                   0.00: STEP TIME
 NULL.                 -999.25: NULL VALUE
 DFWT.                        :  DIST FWL TEXT
 DFST.                        :  DIST FSL TEXT
 DMF .             Drill Floor:  DRILL MEAS FROM
 STIM.      04.54.24 22-Sep-20:  START TIME
 DATE.      04.54.24 21-Nov-20:  END TIME
 SPUD.               21-Nov-20:  SPUD DATE
 NREF.                    Grid:  NORTH REFERENCE
 HPTY.       Minimum Curvature:  HOLE POS TYPE
 DMOD.             Drill Model:  DRILL MOD DESC
 SVYD.                  Survey:  SURVEY DESC
 ILTD.               Lithology:  INTERP LTH DESC
 FTOP.          Formation Tops:  FORM TOPS DESC
 SON .        AZ-XX-0906571587:  JOB NUMBER
 COMP.     BP Exploration (Caspian Sea) Ltd:  COMPANY
 UWI .                     N/A:  UNIQUE WELL IDENTIFIER
 API .                     N/A:  API NUMBER
 BASE.              Azerbaijan:  LOGGING EQUIPMENT BASE LOCATION
 REGN.                   EESSA:  REGION
 PROV.                    Baku:  PROVINCE
 STAT.                    Baku:  STATE NAME
 CTRY.              Azerbaijan:  COUNTRY NAME
 FLD .                     ACG:  FIELD NAME
 SRVC.     TURAN Drilling & Engineering:  CONTRACTOR
 WELL.                     J27:  WELL NAME
 RIG .             West Chirag:  RIG NAME
 DOE .                     N/A:  DOE NUMBER
 DCON.         Sperry Drilling:  DIRECTNL CONTR
 PDAT.          Mean Sea Level:  PERMANENT DATUM
 WTYP.                Deviated:  WELL TYPE
 MWDS.                    Baku:  MWD SHOP
 JOBN.        AZ-XX-0906571587:  JOB TICKET NUMB
 UNIT.                     N/A:  LOGGING EQUIPMENT ID
 MDS .        Operator Entered:  MAG DATA SOURCE
 CNTY.                        :  COUNTY
 LOC .                        :  LOCATION
 LMF .             Drill Floor:  LOG MEASURED FROM
 TVDS.m                  43.00:  TVDSS CORRECTN
 LATI.deg                40.13:  LATITUDE
 LONG.deg                51.22:  LONGITUDE
 WHNS.m                   7.72:  WELL HEAD N/S
 WHEW.m                 -14.24:  WELL HEAD E/W
 UTMX.m              519005.06:  UTM X
 UTMY.m             4443793.85:  UTM Y
 DFWL.m                   0.00:  DISTANCE FWL
 DFSL.m                   0.00:  DISTANCE FSL
 SDEP.m                 347.00:  START DEPTH
 TDD .m                 581.00:  TOTAL DEPTH (DRILLER)
 VSDR.deg               159.72:  VERT SEC DIRECT
 GVFD.g                   1.00:  GRAVITY FIELD
 MFLD.nT              50318.00:  MAGNETIC FIELD
 MDIP.deg                59.57:  MAGNETIC DIP
 MDEC.deg                 6.44:  MAGNETIC DECL
 GRDC.deg                 0.15:  GRID CORRECTION
 AZTC.deg                 6.29:  AZM TOTAL CORR
 EPD .m                   0.00:  ELEVATION
 EGL .m                   0.00:  GROUND ELEVATION
 WDMS.m                 169.80:  WD ELEV
 APD .m                  43.00:  DEPTH ABOVE PD
 AGAP.m                  43.00:  AIR GAP
 VSEW.m                 -14.24:  VERT SEC E/W
 VSNS.m                   7.72:  VERT SEC N/S
 DEP .m                 342.45:  DEPTH
 EKB .m                   0.00:  KB ELEVATION
 EDF .m                  43.00:  DF ELEVATION
 TDL .m                 237.00:  TOTAL DEPTH (LOGGER)
 VSC .                       0:  VS TO CLOSURE
 MAGU.                 1851428:  MAGUTM CHECKSUM
~Parameter Information Block
#MNEM.UNIT       Value        Description
#---------     -----------    ---------------------------
 AV  .mps                 1.50:  Ann Velocity 
 AVMX.mps                 2.90:  Max Ann Veloc 
 AZIF.deg               115.59:  Azm, Final 
 BHAT.        Rotary Steerable:  BHA Type 
 BROT.°/30m               0.50:  Build Rotating 
 BS  .in                  8.50:  Bit Size 
 BTPL.psig              580.00:  Bit Press Loss 
 CABU.                     Yes:  Customer Abuse 
 COMM.                     ”Cf:  Run Comments 1 
 TCS .hr                 89.79:  Time Ciculation Ended 
 CV  .mps                 3.22:  Crit Velocity 
 CVMX.mps                 4.37:  Max Crit Veloc 
 DD1 .          Rashad Habibov:  Direct Drillr 1 
 DDSV.               Geo-Pilot:  DD Service 
 DEFF.%                  95.00:  % Det Eff 
 DLRX.°/30m               1.94:  Dogleg Rot Max 
 DLSO.°/30m               0.70:  Dogleg Oriented 
 DLSX.°/30m               1.94:  Dogleg Str Max 
 DRET.      04.45.00 25-Dec-20:  Drill End Time 
 DRST.      10.00.00 24-Dec-20:  Drill Start Tim 
 DTIM.hr                 16.64:  Time Drilling 
 EDEP.m                4999.01:  End Depth 
 ENG1.         Elchin Mammadov:  Engineer 1 
 ENG2.          Ruslan Safarov:  Engineer 2 
 ENG3.          Rustam Safarov:  Engineer 3 
 ETIM.      09.00.00 29-Dec-20:  End Time 
 FLOI.gpm               500.00:  Flow In 
 FLON.gpm               400.00:  Flow In Min 
 FLOS.cptm                0.00:  Fluid Loss 
 FLOX.gpm               500.00:  Flow In Max 
 HFLO.                      No:  High Flow 
 HPRE.                      No:  High Pressure 
 HTEM.                      No:  High Temp 
 HYDO.m                   2.00:  Hydro Offset 
 IFIN.deg                66.79:  Inc, Final 
 IMAX.deg                67.66:  Inc Max 
 IMIN.deg                66.39:  Inc Min 
 IMND.m                4949.37:  Inc Min Depth 
 IMXD.m                4778.63:  Inc Max Depth 
 JARR.                     Yes:  Jarring 
 LETM.      04.45.00 25-Dec-20:  Log End Time 
 LOST.hr                     0:  Lost Rig Time 
 LSTM.      10.00.00 24-Dec-20:  Log Start Time 
 MDCL.ppm             39000.00:  Mud Chlorides 
 MDES.     Inversion Oil/Synthetic:  Mud Desc 
 DFD .sg                  1.33:  Mud Density 
 MDMN.sg                  1.33:  Dens Mud Min 
 MDMX.sg                  1.33:  Dens Mud Max 
 MOIL.                      70:  Run Mud Oil % 
 MOWR.                   70:30:  Run Mud OWR 
 MSND.                       0:  Run Mud Sand % 
 MSOL.                    17.4:  Run Mud Solids% 
 DFV .spqt               84.00:  Mud Viscosity 
 MWOD.in                  6.75:  MWD Tool OD 
 MWSI.                     Yes:  Serv Intrp, MWD 
 OTIM.hr                168.14:  Time Operating 
 PCON.           Look Like New:  Pad Condition 
 PMAX.psia            10822.93:  Press Op, Max 
 PV  .cP                 30.00:  Mud PV 
 RUN .                     900:  Run Number 
 ROPA.m/hr               18.00:  ROP Avg 
 ROPN.m/hr               12.00:  ROP Min 
 ROPX.m/hr               25.00:  ROP Max 
 RPMA.rpm               120.00:  RPM Surface Avg 
 RPMN.rpm               100.00:  RPM Surface Min 
 RPMX.rpm               120.00:  RPM Surface Max 
 RRUN.                    0900:  Rig Run Number 
 SAZI.deg               115.08:  Azm, Start 
 SDEP.m                4762.01:  Start Depth 
 SIDD.                      No:  Serv Intrp, DD 
 SINC.deg                66.14:  Inc, Start 
 SPPA.psig             3700.00:  SPP Avg 
 SPPN.psig             3620.00:  SPP Min 
 SPPX.psig             3900.00:  SPP Max 
 STIM.      09.30.00 22-Dec-20:  Start Time 
 SVCS.                 DD, MWD:  Services 
 SVER.                    9.20:  Sperry Version 
 TDAT.m                 237.00:  Tot Depth Attmp 
 TDDF.                      No:  Trip for DD 
 TDLG.m                 237.00:  Tot Depth Loggd 
 TFF .                      No:  Trip for Fail 
 TQAA.f-kp               18.00:  Torque Abs Avg 
 TQAN.f-kp               17.00:  Torque Abs Min 
 TQAX.f-kp               20.00:  Torque Abs Max 
 TRRT.°/30m               0.60:  Turn Rotating 
 MRT .                    HCIM:  Maximum Recorded Temperature 
 TTMX.degC               94.12:  Max Tool Temp 
 VS01.                90627809:  Virtual Str1 SN 
 VS02.                90527813:  Virtual Str2 SN 
 VS03.                90545417:  Virtual Str3 SN 
 VS04.                12460870:  Virtual Str4 SN 
 VS05.                90516706:  Virtual Str5 SN 
 VS06.                90632007:  Virtual Str6 SN 
 WBMN.klb                 0.00:  WOB Min 
 WOBA.klb                14.00:  WOB Avg 
 WOBX.klb                25.00:  WOB Max 
 YP  .lhf2               32.00:  Yield Point 
~Curve Information Block
#MNEM.UNIT                 API CODE     Curve Description
#---------               -----------    ---------------------------
 TIME.HHMMSS            00 000 000 000:  GT Time & Date
 GTDEPTH.m              00 000 000 000:  GT Depth
 GTPQH.psia             00 000 000 000:  GT HR Quartz Pressure
 GTTQ.degC              00 000 000 000:  GT Quartz Temperature
 GTTN.NONE              00 000 000 000:  GT Test Number
 GTET.sec               00 000 000 000:  GT Elapsed Test Time
 GTTVD.m                00 000 000 000:  GT True Vertical Depth
#Other Information
#
#WARRANTY: Halliburton will use its best efforts to furnish customers with 
#accurate information and interpretations that are part of, and incident to, the services 
#provided.  However, Halliburton cannot and does not warrant the accuracy 
#or correctness of such information and interpretations.  Under no circumstances should any 
#such information or interpretation be relied upon as the sole basis for any drilling, 
#completion, production, or financial decision or any procedure involving any risk to the 
#safety of any drilling venture, drilling rig or its crew or any other third party.  The 
#Customer has full responsibility for all drilling, completion and production operation.  
#Halliburton makes no representations or warranties, either expressed or 
#implied, including, but not limited to, the implied warranties of merchantability or fitness 
#for a particular purpose, with respect to the services rendered.  In no event will 
#Halliburton be liable for failure to obtain any particular results or for 
#any damages, including, but not limited to, indirect, special or consequential damages, 
#resulting from the use of any information or interpretation provided by Halliburton.
#
~A           TIME           GTDEPTH  GTPQH  GTTQ  GTTN  GTET   GTTVD  
# ...
   20:27:33.857.25-Dec-2020 4794.01 2172.36 63.84 8.00 321.98 2496.73
   20:27:34.057.25-Dec-2020 4794.01 2172.36 63.84 8.00 322.18 2496.73
   20:27:34.257.25-Dec-2020 4794.01 2176.75 63.84 8.00 322.38 2496.73
   20:27:34.457.25-Dec-2020 4794.01 2176.00 63.84 8.00 322.58 2496.73
   20:27:34.657.25-Dec-2020 4794.01 2171.22 63.84 8.00 322.78 2496.73
   20:27:34.857.25-Dec-2020 4794.01 2168.00 63.84 8.00 322.98 2496.73
   20:27:35.057.25-Dec-2020 4794.01 2168.00 63.84 8.00 323.18 2496.73
   20:27:35.257.25-Dec-2020 4794.01 2172.31 63.84 8.00 323.38 2496.73
   20:27:35.457.25-Dec-2020 4794.01 2172.21 63.84 8.00 323.58 2496.73
   20:27:35.657.25-Dec-2020 4794.01 2172.80 63.84 8.00 323.78 2496.73
   20:27:35.857.25-Dec-2020 4794.01 2169.74 63.84 8.00 323.98 2496.73
   20:27:36.057.25-Dec-2020 4794.01 2173.67 63.84 8.00 324.18 2496.73
   20:27:36.257.25-Dec-2020 4794.01 2171.54 63.84 8.00 324.38 2496.73
   20:27:36.457.25-Dec-2020 4794.01 2169.00 63.84 8.00 324.58 2496.73
   20:27:36.657.25-Dec-2020 4794.01 2167.04 63.84 8.00 324.78 2496.73
   20:27:36.857.25-Dec-2020 4794.01 2167.45 63.84 8.00 324.98 2496.73
   20:27:37.057.25-Dec-2020 4794.01 2166.28 63.84 8.00 325.18 2496.73
   20:27:37.257.25-Dec-2020 4794.01 2169.46 63.84 8.00 325.38 2496.73
   20:27:37.457.25-Dec-2020 4794.01 2168.78 63.84 8.00 325.58 2496.73
   20:27:37.657.25-Dec-2020 4794.01 2164.46 63.84 8.00 325.78 2496.73
   20:27:37.857.25-Dec-2020 4794.01 2165.35 63.84 8.00 325.98 2496.73
   20:27:38.057.25-Dec-2020 4794.01 2165.35 63.84 8.00 326.18 2496.73
   20:27:38.257.25-Dec-2020 4794.01 2162.26 63.84 8.00 326.38 2496.73
   20:27:38.457.25-Dec-2020 4794.01 2164.41 63.84 8.00 326.58 2496.73
   20:27:38.657.25-Dec-2020 4794.01 2163.62 63.84 8.00 326.78 2496.73
   20:27:38.857.25-Dec-2020 4794.01 2168.84 63.84 8.00 326.98 2496.73
   20:27:39.057.25-Dec-2020 4794.01 2168.84 63.84 8.00 327.18 2496.73
   20:27:39.257.25-Dec-2020 4794.01 2167.47 63.84 8.00 327.38 2496.73
   20:27:39.457.25-Dec-2020 4794.01 2166.47 63.84 8.00 327.58 2496.73
   20:27:39.657.25-Dec-2020 4794.01 2166.54 63.84 8.00 327.78 2496.73
   20:27:39.857.25-Dec-2020 4794.01 2165.49 63.84 8.00 327.98 2496.73
   20:27:40.057.25-Dec-2020 4794.01 2168.40 63.84 8.00 328.18 2496.73
   20:27:40.257.25-Dec-2020 4794.01 2167.29 63.84 8.00 328.38 2496.73
   20:27:40.457.25-Dec-2020 4794.01 2162.35 63.84 8.00 328.58 2496.73
   20:27:40.657.25-Dec-2020 4794.01 2162.08 63.84 8.00 328.78 2496.73
   20:27:40.857.25-Dec-2020 4794.01 2166.35 63.83 8.00 328.98 2496.73
   20:27:41.057.25-Dec-2020 4794.01 2169.64 63.83 8.00 329.18 2496.73
   20:27:41.257.25-Dec-2020 4794.01 2170.55 63.83 8.00 329.38 2496.73
   20:27:41.457.25-Dec-2020 4794.01 2166.67 63.83 8.00 329.58 2496.73
   20:27:41.657.25-Dec-2020 4794.01 2166.92 63.83 8.00 329.78 2496.73
   20:27:41.857.25-Dec-2020 4794.01 2165.26 63.83 8.00 329.98 2496.73
   20:27:42.057.25-Dec-2020 4794.01 2165.26 63.83 8.00 330.18 2496.73
   20:27:42.257.25-Dec-2020 4794.01 2161.90 63.83 8.00 330.38 2496.73
   20:27:42.457.25-Dec-2020 4794.01 2166.70 63.83 8.00 330.58 2496.73
   20:27:42.657.25-Dec-2020 4794.01 2252.12 63.83 8.00 330.78 2496.73
   20:27:42.857.25-Dec-2020 4794.01 2295.43 63.83 8.00 330.98 2496.73
   20:27:43.057.25-Dec-2020 4794.01 2295.43 63.83 8.00 331.18 2496.73
   20:27:43.257.25-Dec-2020 4794.01 2301.37 63.83 8.00 331.38 2496.73
   20:27:43.457.25-Dec-2020 4794.01 2301.48 63.83 8.00 331.58 2496.73
   20:27:43.657.25-Dec-2020 4794.01 2301.52 63.83 8.00 331.78 2496.73
   20:27:43.857.25-Dec-2020 4794.01 2301.37 63.83 8.00 331.98 2496.73
   20:27:44.057.25-Dec-2020 4794.01 2301.37 63.83 8.00 332.18 2496.73
   20:27:44.257.25-Dec-2020 4794.01 2301.83 63.83 8.00 332.38 2496.73
   20:27:44.457.25-Dec-2020 4794.01 2301.90 63.83 8.00 332.58 2496.73
   20:27:44.657.25-Dec-2020 4794.01 2301.98 63.83 8.00 332.78 2496.73
   20:27:44.857.25-Dec-2020 4794.01 2302.04 63.83 8.00 332.98 2496.73
   20:27:45.057.25-Dec-2020 4794.01 2302.02 63.83 8.00 333.18 2496.73
   20:27:45.257.25-Dec-2020 4794.01 2302.10 63.83 8.00 333.38 2496.73
   20:27:45.457.25-Dec-2020 4794.01 2302.10 63.83 8.00 333.58 2496.73
   20:27:45.657.25-Dec-2020 4794.01 2302.09 63.83 8.00 333.78 2496.73
   20:27:45.857.25-Dec-2020 4794.01 2302.13 63.83 8.00 333.98 2496.73
   20:27:46.057.25-Dec-2020 4794.01 2302.13 63.83 8.00 334.18 2496.73
   20:27:46.257.25-Dec-2020 4794.01 2302.15 63.83 8.00 334.38 2496.73
   20:27:46.457.25-Dec-2020 4794.01 2302.17 63.83 8.00 334.58 2496.73
   20:27:46.657.25-Dec-2020 4794.01 2302.34 63.83 8.00 334.78 2496.73
   20:27:46.857.25-Dec-2020 4794.01 2302.46 63.83 8.00 334.98 2496.73
   20:27:47.057.25-Dec-2020 4794.01 2302.46 63.83 8.00 335.18 2496.73
   20:27:47.257.25-Dec-2020 4794.01 2302.36 63.83 8.00 335.38 2496.73
   20:27:47.457.25-Dec-2020 4794.01 2302.41 63.83 8.00 335.58 2496.73
   20:27:47.657.25-Dec-2020 4794.01 2302.40 63.83 8.00 335.78 2496.73
   20:27:47.856.25-Dec-2020 4794.01 2302.41 63.83 8.00 335.98 2496.73
   20:27:48.056.25-Dec-2020 4794.01 2302.41 63.83 8.00 336.18 2496.73
   20:27:48.256.25-Dec-2020 4794.01 2302.39 63.83 8.00 336.38 2496.73
   20:27:48.456.25-Dec-2020 4794.01 2302.41 63.83 8.00 336.58 2496.73
   20:27:48.656.25-Dec-2020 4794.01 2302.39 63.83 8.00 336.78 2496.73
   20:27:48.856.25-Dec-2020 4794.01 2302.39 63.83 8.00 336.98 2496.73
   20:27:49.056.25-Dec-2020 4794.01 2302.39 63.83 8.00 337.18 2496.73
   20:27:49.256.25-Dec-2020 4794.01 2302.46 63.83 8.00 337.38 2496.73
   20:27:49.456.25-Dec-2020 4794.01 2302.56 63.83 8.00 337.58 2496.73
   20:27:49.656.25-Dec-2020 4794.01 2302.66 63.83 8.00 337.78 2496.73
   20:27:49.856.25-Dec-2020 4794.01 2302.37 63.83 8.00 337.98 2496.73
   20:27:50.056.25-Dec-2020 4794.01 2302.37 63.83 8.00 338.18 2496.73
   20:27:50.256.25-Dec-2020 4794.01 2302.49 63.83 8.00 338.38 2496.73
   20:27:50.456.25-Dec-2020 4794.01 2302.56 63.83 8.00 338.58 2496.73
   20:27:50.656.25-Dec-2020 4794.01 2302.51 63.83 8.00 338.78 2496.73
   20:27:50.856.25-Dec-2020 4794.01 2302.81 63.83 8.00 338.98 2496.73
   20:27:51.056.25-Dec-2020 4794.01 2302.81 63.83 8.00 339.18 2496.73
   20:27:51.256.25-Dec-2020 4794.01 2302.31 63.83 8.00 339.38 2496.73
   20:27:51.456.25-Dec-2020 4794.01 2303.13 63.83 8.00 339.58 2496.73
   20:27:51.656.25-Dec-2020 4794.01 2302.50 63.83 8.00 339.78 2496.73
   20:27:51.856.25-Dec-2020 4794.01 2302.68 63.83 8.00 339.98 2496.73
   20:27:52.056.25-Dec-2020 4794.01 2302.64 63.83 8.00 340.18 2496.73
   20:27:52.256.25-Dec-2020 4794.01 2302.61 63.83 8.00 340.38 2496.73
   20:27:52.456.25-Dec-2020 4794.01 2302.67 63.83 8.00 340.58 2496.73
   20:27:52.656.25-Dec-2020 4794.01 2302.64 63.83 8.00 340.78 2496.73
   20:27:52.856.25-Dec-2020 4794.01 2302.66 63.83 8.00 340.98 2496.73
   20:27:53.056.25-Dec-2020 4794.01 2302.63 63.83 8.00 341.18 2496.73
   20:27:53.256.25-Dec-2020 4794.01 2302.62 63.83 8.00 341.38 2496.73
   20:27:53.456.25-Dec-2020 4794.01 2302.67 63.83 8.00 341.58 2496.73
   20:27:53.656.25-Dec-2020 4794.01 2302.61 63.83 8.00 341.78 2496.73
   20:27:53.856.25-Dec-2020 4794.01 2302.61 63.83 8.00 341.98 2496.73
   20:27:54.056.25-Dec-2020 4794.01 2302.61 63.83 8.00 342.18 2496.73
   20:27:54.256.25-Dec-2020 4794.01 2302.73 63.83 8.00 342.38 2496.73
   20:27:54.456.25-Dec-2020 4794.01 2302.79 63.83 8.00 342.58 2496.73
   20:27:54.656.25-Dec-2020 4794.01 2302.61 63.83 8.00 342.78 2496.73
   20:27:54.856.25-Dec-2020 4794.01 2302.66 63.83 8.00 342.98 2496.73
   20:27:55.056.25-Dec-2020 4794.01 2302.66 63.83 8.00 343.18 2496.73
   20:27:55.256.25-Dec-2020 4794.01 2302.66 63.83 8.00 343.38 2496.73
   20:27:55.456.25-Dec-2020 4794.01 2302.72 63.83 8.00 343.58 2496.73
   20:27:55.656.25-Dec-2020 4794.01 2302.66 63.83 8.00 343.78 2496.73
   20:27:55.856.25-Dec-2020 4794.01 2302.70 63.83 8.00 343.98 2496.73
   20:27:56.056.25-Dec-2020 4794.01 2302.67 63.83 8.00 344.18 2496.73
   20:27:56.256.25-Dec-2020 4794.01 2302.58 63.83 8.00 344.38 2496.73
   20:27:56.456.25-Dec-2020 4794.01 2302.91 63.83 8.00 344.58 2496.73
   20:27:56.656.25-Dec-2020 4794.01 2302.65 63.83 8.00 344.78 2496.73
