~Version Information
 VERS.                  2.0:   CWLS log ASCII Standard -VERSION 2.0
 WRAP.                   NO:   One line per depth step
~Well Information Block
#MNEM.UNIT     VALUE/NAME     DESCRIPTION
#---------     -----------    ---------------------------
 STRT.S             20:22:11 25-Dec-20: START TIME 20:22:11 25-Dec-20
 STOP.S             20:30:35 25-Dec-20: STOP TIME  20:30:35 25-Dec-20
 STEP.S                   0.00: STEP TIME
 NULL.                 -999.25: NULL VALUE
 DFWT.                        :  DIST FWL TEXT
 DFST.                        :  DIST FSL TEXT
 DMF .             Drill Floor:  DRILL MEAS FROM
 STIM.      04.54.24 22-Sep-20:  START TIME
 DATE.      04.54.24 21-Nov-20:  END TIME
 SPUD.               21-Nov-20:  SPUD DATE
 NREF.                    Grid:  NORTH REFERENCE
 HPTY.       Minimum Curvature:  HOLE POS TYPE
 DMOD.             Drill Model:  DRILL MOD DESC
 SVYD.                  Survey:  SURVEY DESC
 ILTD.               Lithology:  INTERP LTH DESC
 FTOP.          Formation Tops:  FORM TOPS DESC
 SON .        AZ-XX-0906571587:  JOB NUMBER
 COMP.     BP Exploration (Caspian Sea) Ltd:  COMPANY
 UWI .                     N/A:  UNIQUE WELL IDENTIFIER
 API .                     N/A:  API NUMBER
 BASE.              Azerbaijan:  LOGGING EQUIPMENT BASE LOCATION
 REGN.                   EESSA:  REGION
 PROV.                    Baku:  PROVINCE
 STAT.                    Baku:  STATE NAME
 CTRY.              Azerbaijan:  COUNTRY NAME
 FLD .                     ACG:  FIELD NAME
 SRVC.     TURAN Drilling & Engineering:  CONTRACTOR
 WELL.                     J27:  WELL NAME
 RIG .             West Chirag:  RIG NAME
 DOE .                     N/A:  DOE NUMBER
 DCON.         Sperry Drilling:  DIRECTNL CONTR
 PDAT.          Mean Sea Level:  PERMANENT DATUM
 WTYP.                Deviated:  WELL TYPE
 MWDS.                    Baku:  MWD SHOP
 JOBN.        AZ-XX-0906571587:  JOB TICKET NUMB
 UNIT.                     N/A:  LOGGING EQUIPMENT ID
 MDS .        Operator Entered:  MAG DATA SOURCE
 CNTY.                        :  COUNTY
 LOC .                        :  LOCATION
 LMF .             Drill Floor:  LOG MEASURED FROM
 TVDS.m                  43.00:  TVDSS CORRECTN
 LATI.deg                40.13:  LATITUDE
 LONG.deg                51.22:  LONGITUDE
 WHNS.m                   7.72:  WELL HEAD N/S
 WHEW.m                 -14.24:  WELL HEAD E/W
 UTMX.m              519005.06:  UTM X
 UTMY.m             4443793.85:  UTM Y
 DFWL.m                   0.00:  DISTANCE FWL
 DFSL.m                   0.00:  DISTANCE FSL
 SDEP.m                 347.00:  START DEPTH
 TDD .m                 581.00:  TOTAL DEPTH (DRILLER)
 VSDR.deg               159.72:  VERT SEC DIRECT
 GVFD.g                   1.00:  GRAVITY FIELD
 MFLD.nT              50318.00:  MAGNETIC FIELD
 MDIP.deg                59.57:  MAGNETIC DIP
 MDEC.deg                 6.44:  MAGNETIC DECL
 GRDC.deg                 0.15:  GRID CORRECTION
 AZTC.deg                 6.29:  AZM TOTAL CORR
 EPD .m                   0.00:  ELEVATION
 EGL .m                   0.00:  GROUND ELEVATION
 WDMS.m                 169.80:  WD ELEV
 APD .m                  43.00:  DEPTH ABOVE PD
 AGAP.m                  43.00:  AIR GAP
 VSEW.m                 -14.24:  VERT SEC E/W
 VSNS.m                   7.72:  VERT SEC N/S
 DEP .m                 342.45:  DEPTH
 EKB .m                   0.00:  KB ELEVATION
 EDF .m                  43.00:  DF ELEVATION
 TDL .m                 237.00:  TOTAL DEPTH (LOGGER)
 VSC .                       0:  VS TO CLOSURE
 MAGU.                 1851428:  MAGUTM CHECKSUM
~Parameter Information Block
#MNEM.UNIT       Value        Description
#---------     -----------    ---------------------------
 AV  .mps                 1.50:  Ann Velocity 
 AVMX.mps                 2.90:  Max Ann Veloc 
 AZIF.deg               115.59:  Azm, Final 
 BHAT.        Rotary Steerable:  BHA Type 
 BROT.°/30m               0.50:  Build Rotating 
 BS  .in                  8.50:  Bit Size 
 BTPL.psig              580.00:  Bit Press Loss 
 CABU.                     Yes:  Customer Abuse 
 COMM.                     ”Cf:  Run Comments 1 
 TCS .hr                 89.79:  Time Ciculation Ended 
 CV  .mps                 3.22:  Crit Velocity 
 CVMX.mps                 4.37:  Max Crit Veloc 
 DD1 .          Rashad Habibov:  Direct Drillr 1 
 DDSV.               Geo-Pilot:  DD Service 
 DEFF.%                  95.00:  % Det Eff 
 DLRX.°/30m               1.94:  Dogleg Rot Max 
 DLSO.°/30m               0.70:  Dogleg Oriented 
 DLSX.°/30m               1.94:  Dogleg Str Max 
 DRET.      04.45.00 25-Dec-20:  Drill End Time 
 DRST.      10.00.00 24-Dec-20:  Drill Start Tim 
 DTIM.hr                 16.64:  Time Drilling 
 EDEP.m                4999.01:  End Depth 
 ENG1.         Elchin Mammadov:  Engineer 1 
 ENG2.          Ruslan Safarov:  Engineer 2 
 ENG3.          Rustam Safarov:  Engineer 3 
 ETIM.      09.00.00 29-Dec-20:  End Time 
 FLOI.gpm               500.00:  Flow In 
 FLON.gpm               400.00:  Flow In Min 
 FLOS.cptm                0.00:  Fluid Loss 
 FLOX.gpm               500.00:  Flow In Max 
 HFLO.                      No:  High Flow 
 HPRE.                      No:  High Pressure 
 HTEM.                      No:  High Temp 
 HYDO.m                   2.00:  Hydro Offset 
 IFIN.deg                66.79:  Inc, Final 
 IMAX.deg                67.66:  Inc Max 
 IMIN.deg                66.39:  Inc Min 
 IMND.m                4949.37:  Inc Min Depth 
 IMXD.m                4778.63:  Inc Max Depth 
 JARR.                     Yes:  Jarring 
 LETM.      04.45.00 25-Dec-20:  Log End Time 
 LOST.hr                     0:  Lost Rig Time 
 LSTM.      10.00.00 24-Dec-20:  Log Start Time 
 MDCL.ppm             39000.00:  Mud Chlorides 
 MDES.     Inversion Oil/Synthetic:  Mud Desc 
 DFD .sg                  1.33:  Mud Density 
 MDMN.sg                  1.33:  Dens Mud Min 
 MDMX.sg                  1.33:  Dens Mud Max 
 MOIL.                      70:  Run Mud Oil % 
 MOWR.                   70:30:  Run Mud OWR 
 MSND.                       0:  Run Mud Sand % 
 MSOL.                    17.4:  Run Mud Solids% 
 DFV .spqt               84.00:  Mud Viscosity 
 MWOD.in                  6.75:  MWD Tool OD 
 MWSI.                     Yes:  Serv Intrp, MWD 
 OTIM.hr                168.14:  Time Operating 
 PCON.           Look Like New:  Pad Condition 
 PMAX.psia            10822.93:  Press Op, Max 
 PV  .cP                 30.00:  Mud PV 
 RUN .                     900:  Run Number 
 ROPA.m/hr               18.00:  ROP Avg 
 ROPN.m/hr               12.00:  ROP Min 
 ROPX.m/hr               25.00:  ROP Max 
 RPMA.rpm               120.00:  RPM Surface Avg 
 RPMN.rpm               100.00:  RPM Surface Min 
 RPMX.rpm               120.00:  RPM Surface Max 
 RRUN.                    0900:  Rig Run Number 
 SAZI.deg               115.08:  Azm, Start 
 SDEP.m                4762.01:  Start Depth 
 SIDD.                      No:  Serv Intrp, DD 
 SINC.deg                66.14:  Inc, Start 
 SPPA.psig             3700.00:  SPP Avg 
 SPPN.psig             3620.00:  SPP Min 
 SPPX.psig             3900.00:  SPP Max 
 STIM.      09.30.00 22-Dec-20:  Start Time 
 SVCS.                 DD, MWD:  Services 
 SVER.                    9.20:  Sperry Version 
 TDAT.m                 237.00:  Tot Depth Attmp 
 TDDF.                      No:  Trip for DD 
 TDLG.m                 237.00:  Tot Depth Loggd 
 TFF .                      No:  Trip for Fail 
 TQAA.f-kp               18.00:  Torque Abs Avg 
 TQAN.f-kp               17.00:  Torque Abs Min 
 TQAX.f-kp               20.00:  Torque Abs Max 
 TRRT.°/30m               0.60:  Turn Rotating 
 MRT .                    HCIM:  Maximum Recorded Temperature 
 TTMX.degC               94.12:  Max Tool Temp 
 VS01.                90627809:  Virtual Str1 SN 
 VS02.                90527813:  Virtual Str2 SN 
 VS03.                90545417:  Virtual Str3 SN 
 VS04.                12460870:  Virtual Str4 SN 
 VS05.                90516706:  Virtual Str5 SN 
 VS06.                90632007:  Virtual Str6 SN 
 WBMN.klb                 0.00:  WOB Min 
 WOBA.klb                14.00:  WOB Avg 
 WOBX.klb                25.00:  WOB Max 
 YP  .lhf2               32.00:  Yield Point 
~Curve Information Block
#MNEM.UNIT                 API CODE     Curve Description
#---------               -----------    ---------------------------
 TIME.HHMMSS            00 000 000 000:  GT Time & Date
 GTDEPTH.m              00 000 000 000:  GT Depth
 GTPQH.psia             00 000 000 000:  GT HR Quartz Pressure
 GTTQ.degC              00 000 000 000:  GT Quartz Temperature
 GTTN.NONE              00 000 000 000:  GT Test Number
 GTET.sec               00 000 000 000:  GT Elapsed Test Time
 GTTVD.m                00 000 000 000:  GT True Vertical Depth
#Other Information
#
#WARRANTY: Halliburton will use its best efforts to furnish customers with 
#accurate information and interpretations that are part of, and incident to, the services 
#provided.  However, Halliburton cannot and does not warrant the accuracy 
#or correctness of such information and interpretations.  Under no circumstances should any 
#such information or interpretation be relied upon as the sole basis for any drilling, 
#completion, production, or financial decision or any procedure involving any risk to the 
#safety of any drilling venture, drilling rig or its crew or any other third party.  The 
#Customer has full responsibility for all drilling, completion and production operation.  
#Halliburton makes no representations or warranties, either expressed or 
#implied, including, but not limited to, the implied warranties of merchantability or fitness 
#for a particular purpose, with respect to the services rendered.  In no event will 
#Halliburton be liable for failure to obtain any particular results or for 
#any damages, including, but not limited to, indirect, special or consequential damages, 
#resulting from the use of any information or interpretation provided by Halliburton.
#
~A           TIME           GTDEPTH  GTPQH  GTTQ  GTTN  GTET   GTTVD  
# ...
   20:28:42.853.25-Dec-2020 4794.01 2302.81 63.82 8.00 390.97 2496.73
   20:28:43.053.25-Dec-2020 4794.01 2302.81 63.82 8.00 391.17 2496.73
   20:28:43.253.25-Dec-2020 4794.01 2302.85 63.82 8.00 391.37 2496.73
   20:28:43.453.25-Dec-2020 4794.01 2302.75 63.82 8.00 391.57 2496.73
   20:28:43.653.25-Dec-2020 4794.01 2302.85 63.82 8.00 391.77 2496.73
   20:28:43.853.25-Dec-2020 4794.01 2302.80 63.82 8.00 391.97 2496.73
   20:28:44.053.25-Dec-2020 4794.01 2302.80 63.82 8.00 392.17 2496.73
   20:28:44.253.25-Dec-2020 4794.01 2302.82 63.82 8.00 392.37 2496.73
   20:28:44.453.25-Dec-2020 4794.01 2302.79 63.82 8.00 392.57 2496.73
   20:28:44.653.25-Dec-2020 4794.01 2302.79 63.82 8.00 392.77 2496.73
   20:28:44.853.25-Dec-2020 4794.01 2302.84 63.82 8.00 392.97 2496.73
   20:28:45.053.25-Dec-2020 4794.01 2302.81 63.82 8.00 393.17 2496.73
   20:28:45.253.25-Dec-2020 4794.01 2302.90 63.82 8.00 393.37 2496.73
   20:28:45.453.25-Dec-2020 4794.01 2302.75 63.82 8.00 393.57 2496.73
   20:28:45.653.25-Dec-2020 4794.01 2302.61 63.82 8.00 393.77 2496.73
   20:28:45.853.25-Dec-2020 4794.01 2303.23 63.82 8.00 393.97 2496.73
   20:28:46.053.25-Dec-2020 4794.01 2303.23 63.82 8.00 394.17 2496.73
   20:28:46.253.25-Dec-2020 4794.01 2303.01 63.82 8.00 394.37 2496.73
   20:28:46.453.25-Dec-2020 4794.01 2302.70 63.82 8.00 394.57 2496.73
   20:28:46.653.25-Dec-2020 4794.01 2302.84 63.82 8.00 394.77 2496.73
   20:28:46.853.25-Dec-2020 4794.01 2302.70 63.82 8.00 394.97 2496.73
   20:28:47.053.25-Dec-2020 4794.01 2302.70 63.82 8.00 395.17 2496.73
   20:28:47.253.25-Dec-2020 4794.01 2302.81 63.82 8.00 395.37 2496.73
   20:28:47.453.25-Dec-2020 4794.01 2302.77 63.82 8.00 395.57 2496.73
   20:28:47.653.25-Dec-2020 4794.01 2302.86 63.82 8.00 395.77 2496.73
   20:28:47.853.25-Dec-2020 4794.01 2302.71 63.82 8.00 395.97 2496.73
   20:28:48.053.25-Dec-2020 4794.01 2302.71 63.82 8.00 396.17 2496.73
   20:28:48.253.25-Dec-2020 4794.01 2302.90 63.82 8.00 396.37 2496.73
   20:28:48.452.25-Dec-2020 4794.01 2302.83 63.82 8.00 396.57 2496.73
   20:28:48.652.25-Dec-2020 4794.01 2302.78 63.82 8.00 396.77 2496.73
   20:28:48.852.25-Dec-2020 4794.01 2302.79 63.82 8.00 396.97 2496.73
   20:28:49.052.25-Dec-2020 4794.01 2302.79 63.82 8.00 397.17 2496.73
   20:28:49.252.25-Dec-2020 4794.01 2302.83 63.82 8.00 397.37 2496.73
   20:28:49.452.25-Dec-2020 4794.01 2302.79 63.82 8.00 397.57 2496.73
   20:28:49.652.25-Dec-2020 4794.01 2302.80 63.82 8.00 397.77 2496.73
   20:28:49.852.25-Dec-2020 4794.01 2302.81 63.82 8.00 397.97 2496.73
   20:28:50.052.25-Dec-2020 4794.01 2302.81 63.82 8.00 398.17 2496.73
   20:28:50.252.25-Dec-2020 4794.01 2302.60 63.82 8.00 398.37 2496.73
   20:28:50.452.25-Dec-2020 4794.01 2303.16 63.82 8.00 398.57 2496.73
   20:28:50.652.25-Dec-2020 4794.01 2302.64 63.82 8.00 398.77 2496.73
   20:28:50.852.25-Dec-2020 4794.01 2303.00 63.82 8.00 398.97 2496.73
   20:28:51.052.25-Dec-2020 4794.01 2303.00 63.82 8.00 399.17 2496.73
   20:28:51.252.25-Dec-2020 4794.01 2302.88 63.82 8.00 399.37 2496.73
   20:28:51.452.25-Dec-2020 4794.01 2302.79 63.82 8.00 399.57 2496.73
   20:28:51.652.25-Dec-2020 4794.01 2302.78 63.82 8.00 399.77 2496.73
   20:28:51.852.25-Dec-2020 4794.01 2302.83 63.82 8.00 399.97 2496.73
   20:28:52.052.25-Dec-2020 4794.01 2302.77 63.82 8.00 400.17 2496.73
   20:28:52.252.25-Dec-2020 4794.01 2302.83 63.82 8.00 400.37 2496.73
   20:28:52.452.25-Dec-2020 4794.01 2302.80 63.82 8.00 400.57 2496.73
   20:28:52.652.25-Dec-2020 4794.01 2302.81 63.82 8.00 400.77 2496.73
   20:28:52.852.25-Dec-2020 4794.01 2302.91 63.82 8.00 400.97 2496.73
   20:28:53.052.25-Dec-2020 4794.01 2302.57 63.82 8.00 401.17 2496.73
   20:28:53.252.25-Dec-2020 4794.01 2303.06 63.82 8.00 401.37 2496.73
   20:28:53.452.25-Dec-2020 4794.01 2302.75 63.82 8.00 401.57 2496.73
   20:28:53.652.25-Dec-2020 4794.01 2302.81 63.82 8.00 401.77 2496.73
   20:28:53.852.25-Dec-2020 4794.01 2302.65 63.82 8.00 401.97 2496.73
   20:28:54.052.25-Dec-2020 4794.01 2302.65 63.82 8.00 402.17 2496.73
   20:28:54.252.25-Dec-2020 4794.01 2302.77 63.82 8.00 402.37 2496.73
   20:28:54.452.25-Dec-2020 4794.01 2302.72 63.82 8.00 402.57 2496.73
   20:28:54.652.25-Dec-2020 4794.01 2302.81 63.82 8.00 402.77 2496.73
   20:28:54.852.25-Dec-2020 4794.01 2302.83 63.82 8.00 402.97 2496.73
   20:28:55.052.25-Dec-2020 4794.01 2302.83 63.82 8.00 403.17 2496.73
   20:28:55.252.25-Dec-2020 4794.01 2302.63 63.82 8.00 403.37 2496.73
   20:28:55.452.25-Dec-2020 4794.01 2303.00 63.82 8.00 403.57 2496.73
   20:28:55.652.25-Dec-2020 4794.01 2302.77 63.82 8.00 403.77 2496.73
   20:28:55.852.25-Dec-2020 4794.01 2302.74 63.82 8.00 403.97 2496.73
   20:28:56.052.25-Dec-2020 4794.01 2302.98 63.82 8.00 404.17 2496.73
   20:28:56.252.25-Dec-2020 4794.01 2302.73 63.82 8.00 404.37 2496.73
   20:28:56.452.25-Dec-2020 4794.01 2302.83 63.82 8.00 404.57 2496.73
   20:28:56.652.25-Dec-2020 4794.01 2302.84 63.82 8.00 404.77 2496.73
   20:28:56.852.25-Dec-2020 4794.01 2302.80 63.82 8.00 404.97 2496.73
   20:28:57.052.25-Dec-2020 4794.01 2302.83 63.82 8.00 405.17 2496.73
   20:28:57.252.25-Dec-2020 4794.01 2302.79 63.82 8.00 405.37 2496.73
   20:28:57.452.25-Dec-2020 4794.01 2302.81 63.82 8.00 405.57 2496.73
   20:28:57.652.25-Dec-2020 4794.01 2302.82 63.82 8.00 405.77 2496.73
   20:28:57.852.25-Dec-2020 4794.01 2302.83 63.82 8.00 405.97 2496.73
   20:28:58.052.25-Dec-2020 4794.01 2302.83 63.82 8.00 406.17 2496.73
   20:28:58.252.25-Dec-2020 4794.01 2302.84 63.82 8.00 406.37 2496.73
   20:28:58.452.25-Dec-2020 4794.01 2302.90 63.82 8.00 406.57 2496.73
   20:28:58.652.25-Dec-2020 4794.01 2302.58 63.82 8.00 406.77 2496.73
   20:28:58.852.25-Dec-2020 4794.01 2303.04 63.82 8.00 406.97 2496.73
   20:28:59.052.25-Dec-2020 4794.01 2303.04 63.82 8.00 407.17 2496.73
   20:28:59.252.25-Dec-2020 4794.01 2302.84 63.82 8.00 407.37 2496.73
   20:28:59.452.25-Dec-2020 4794.01 2302.86 63.82 8.00 407.57 2496.73
   20:28:59.652.25-Dec-2020 4794.01 2302.76 63.82 8.00 407.77 2496.73
   20:28:59.852.25-Dec-2020 4794.01 2302.85 63.82 8.00 407.97 2496.73
   20:29:00.052.25-Dec-2020 4794.01 2302.78 63.82 8.00 408.17 2496.73
   20:29:00.252.25-Dec-2020 4794.01 2302.82 63.82 8.00 408.37 2496.73
   20:29:00.452.25-Dec-2020 4794.01 2302.82 63.82 8.00 408.57 2496.73
   20:29:00.652.25-Dec-2020 4794.01 2302.79 63.82 8.00 408.77 2496.73
   20:29:00.852.25-Dec-2020 4794.01 2302.80 63.82 8.00 408.97 2496.73
   20:29:01.052.25-Dec-2020 4794.01 2302.81 63.82 8.00 409.17 2496.73
   20:29:01.252.25-Dec-2020 4794.01 2302.86 63.82 8.00 409.37 2496.73
   20:29:01.452.25-Dec-2020 4794.01 2302.90 63.82 8.00 409.57 2496.73
   20:29:01.652.25-Dec-2020 4794.01 2302.76 63.82 8.00 409.77 2496.73
   20:29:01.852.25-Dec-2020 4794.01 2302.60 63.82 8.00 409.97 2496.73
   20:29:02.052.25-Dec-2020 4794.01 2302.60 63.82 8.00 410.17 2496.73
   20:29:02.252.25-Dec-2020 4794.01 2302.63 63.82 8.00 410.37 2496.73
   20:29:02.452.25-Dec-2020 4794.01 2303.00 63.82 8.00 410.57 2496.73
   20:29:02.652.25-Dec-2020 4794.01 2302.70 63.82 8.00 410.77 2496.73
   20:29:02.852.25-Dec-2020 4794.01 2302.87 63.82 8.00 410.97 2496.73
   20:29:03.052.25-Dec-2020 4794.01 2302.87 63.82 8.00 411.17 2496.73
   20:29:03.252.25-Dec-2020 4794.01 2302.97 63.82 8.00 411.37 2496.73
   20:29:03.452.25-Dec-2020 4794.01 2302.77 63.82 8.00 411.57 2496.73
   20:29:03.651.25-Dec-2020 4794.01 2302.75 63.82 8.00 411.77 2496.73
   20:29:03.851.25-Dec-2020 4794.01 2302.89 63.82 8.00 411.97 2496.73
   20:29:04.051.25-Dec-2020 4794.01 2302.89 63.82 8.00 412.17 2496.73
   20:29:04.251.25-Dec-2020 4794.01 2302.88 63.82 8.00 412.37 2496.73
   20:29:04.451.25-Dec-2020 4794.01 2302.87 63.82 8.00 412.57 2496.73
   20:29:04.651.25-Dec-2020 4794.01 2302.81 63.82 8.00 412.77 2496.73
   20:29:04.851.25-Dec-2020 4794.01 2302.81 63.82 8.00 412.97 2496.73
   20:29:05.051.25-Dec-2020 4794.01 2302.77 63.82 8.00 413.17 2496.73
   20:29:05.251.25-Dec-2020 4794.01 2302.82 63.82 8.00 413.37 2496.73
   20:29:05.451.25-Dec-2020 4794.01 2302.81 63.81 8.00 413.57 2496.73
   20:29:05.651.25-Dec-2020 4794.01 2302.78 63.81 8.00 413.77 2496.73
