~Version Information
 VERS.                  2.0:   CWLS log ASCII Standard -VERSION 2.0
 WRAP.                   NO:   One line per depth step
~Well Information Block
#MNEM.UNIT     VALUE/NAME     DESCRIPTION
#---------     -----------    ---------------------------
 STRT.S             17:56:34 25-Dec-20: START TIME 17:56:34 25-Dec-20
 STOP.S             18:04:57 25-Dec-20: STOP TIME  18:04:57 25-Dec-20
 STEP.S                   0.00: STEP TIME
 NULL.                 -999.25: NULL VALUE
 DFWT.                        :  DIST FWL TEXT
 DFST.                        :  DIST FSL TEXT
 DMF .             Drill Floor:  DRILL MEAS FROM
 STIM.      04.54.24 22-Sep-20:  START TIME
 DATE.      04.54.24 21-Nov-20:  END TIME
 SPUD.               21-Nov-20:  SPUD DATE
 NREF.                    Grid:  NORTH REFERENCE
 HPTY.       Minimum Curvature:  HOLE POS TYPE
 DMOD.             Drill Model:  DRILL MOD DESC
 SVYD.                  Survey:  SURVEY DESC
 ILTD.               Lithology:  INTERP LTH DESC
 FTOP.          Formation Tops:  FORM TOPS DESC
 SON .        AZ-XX-0906571587:  JOB NUMBER
 COMP.     BP Exploration (Caspian Sea) Ltd:  COMPANY
 UWI .                     N/A:  UNIQUE WELL IDENTIFIER
 API .                     N/A:  API NUMBER
 BASE.              Azerbaijan:  LOGGING EQUIPMENT BASE LOCATION
 REGN.                   EESSA:  REGION
 PROV.                    Baku:  PROVINCE
 STAT.                    Baku:  STATE NAME
 CTRY.              Azerbaijan:  COUNTRY NAME
 FLD .                     ACG:  FIELD NAME
 SRVC.     TURAN Drilling & Engineering:  CONTRACTOR
 WELL.                     J27:  WELL NAME
 RIG .             West Chirag:  RIG NAME
 DOE .                     N/A:  DOE NUMBER
 DCON.         Sperry Drilling:  DIRECTNL CONTR
 PDAT.          Mean Sea Level:  PERMANENT DATUM
 WTYP.                Deviated:  WELL TYPE
 MWDS.                    Baku:  MWD SHOP
 JOBN.        AZ-XX-0906571587:  JOB TICKET NUMB
 UNIT.                     N/A:  LOGGING EQUIPMENT ID
 MDS .        Operator Entered:  MAG DATA SOURCE
 CNTY.                        :  COUNTY
 LOC .                        :  LOCATION
 LMF .             Drill Floor:  LOG MEASURED FROM
 TVDS.m                  43.00:  TVDSS CORRECTN
 LATI.deg                40.13:  LATITUDE
 LONG.deg                51.22:  LONGITUDE
 WHNS.m                   7.72:  WELL HEAD N/S
 WHEW.m                 -14.24:  WELL HEAD E/W
 UTMX.m              519005.06:  UTM X
 UTMY.m             4443793.85:  UTM Y
 DFWL.m                   0.00:  DISTANCE FWL
 DFSL.m                   0.00:  DISTANCE FSL
 SDEP.m                 347.00:  START DEPTH
 TDD .m                 581.00:  TOTAL DEPTH (DRILLER)
 VSDR.deg               159.72:  VERT SEC DIRECT
 GVFD.g                   1.00:  GRAVITY FIELD
 MFLD.nT              50318.00:  MAGNETIC FIELD
 MDIP.deg                59.57:  MAGNETIC DIP
 MDEC.deg                 6.44:  MAGNETIC DECL
 GRDC.deg                 0.15:  GRID CORRECTION
 AZTC.deg                 6.29:  AZM TOTAL CORR
 EPD .m                   0.00:  ELEVATION
 EGL .m                   0.00:  GROUND ELEVATION
 WDMS.m                 169.80:  WD ELEV
 APD .m                  43.00:  DEPTH ABOVE PD
 AGAP.m                  43.00:  AIR GAP
 VSEW.m                 -14.24:  VERT SEC E/W
 VSNS.m                   7.72:  VERT SEC N/S
 DEP .m                 342.45:  DEPTH
 EKB .m                   0.00:  KB ELEVATION
 EDF .m                  43.00:  DF ELEVATION
 TDL .m                 237.00:  TOTAL DEPTH (LOGGER)
 VSC .                       0:  VS TO CLOSURE
 MAGU.                 1851428:  MAGUTM CHECKSUM
~Parameter Information Block
#MNEM.UNIT       Value        Description
#---------     -----------    ---------------------------
 AV  .mps                 1.50:  Ann Velocity 
 AVMX.mps                 2.90:  Max Ann Veloc 
 AZIF.deg               115.59:  Azm, Final 
 BHAT.        Rotary Steerable:  BHA Type 
 BROT.∞/30m               0.50:  Build Rotating 
 BS  .in                  8.50:  Bit Size 
 BTPL.psig              580.00:  Bit Press Loss 
 CABU.                     Yes:  Customer Abuse 
 COMM.                     ‰E:  Run Comments 1 
 TCS .hr                 89.79:  Time Ciculation Ended 
 CV  .mps                 3.22:  Crit Velocity 
 CVMX.mps                 4.37:  Max Crit Veloc 
 DD1 .          Rashad Habibov:  Direct Drillr 1 
 DDSV.               Geo-Pilot:  DD Service 
 DEFF.%                  95.00:  % Det Eff 
 DLRX.∞/30m               1.94:  Dogleg Rot Max 
 DLSO.∞/30m               0.70:  Dogleg Oriented 
 DLSX.∞/30m               1.94:  Dogleg Str Max 
 DRET.      04.45.00 25-Dec-20:  Drill End Time 
 DRST.      10.00.00 24-Dec-20:  Drill Start Tim 
 DTIM.hr                 16.64:  Time Drilling 
 EDEP.m                4999.01:  End Depth 
 ENG1.         Elchin Mammadov:  Engineer 1 
 ENG2.          Ruslan Safarov:  Engineer 2 
 ENG3.          Rustam Safarov:  Engineer 3 
 ETIM.      09.00.00 29-Dec-20:  End Time 
 FLOI.gpm               500.00:  Flow In 
 FLON.gpm               400.00:  Flow In Min 
 FLOS.cptm                0.00:  Fluid Loss 
 FLOX.gpm               500.00:  Flow In Max 
 HFLO.                      No:  High Flow 
 HPRE.                      No:  High Pressure 
 HTEM.                      No:  High Temp 
 HYDO.m                   2.00:  Hydro Offset 
 IFIN.deg                66.79:  Inc, Final 
 IMAX.deg                67.66:  Inc Max 
 IMIN.deg                66.39:  Inc Min 
 IMND.m                4949.37:  Inc Min Depth 
 IMXD.m                4778.63:  Inc Max Depth 
 JARR.                     Yes:  Jarring 
 LETM.      04.45.00 25-Dec-20:  Log End Time 
 LOST.hr                     0:  Lost Rig Time 
 LSTM.      10.00.00 24-Dec-20:  Log Start Time 
 MDCL.ppm             39000.00:  Mud Chlorides 
 MDES.     Inversion Oil/Synthetic:  Mud Desc 
 DFD .sg                  1.33:  Mud Density 
 MDMN.sg                  1.33:  Dens Mud Min 
 MDMX.sg                  1.33:  Dens Mud Max 
 MOIL.                      70:  Run Mud Oil % 
 MOWR.                   70:30:  Run Mud OWR 
 MSND.                       0:  Run Mud Sand % 
 MSOL.                    17.4:  Run Mud Solids% 
 DFV .spqt               84.00:  Mud Viscosity 
 MWOD.in                  6.75:  MWD Tool OD 
 MWSI.                     Yes:  Serv Intrp, MWD 
 OTIM.hr                168.14:  Time Operating 
 PCON.           Look Like New:  Pad Condition 
 PMAX.psia            10822.93:  Press Op, Max 
 PV  .cP                 30.00:  Mud PV 
 RUN .                     900:  Run Number 
 ROPA.m/hr               18.00:  ROP Avg 
 ROPN.m/hr               12.00:  ROP Min 
 ROPX.m/hr               25.00:  ROP Max 
 RPMA.rpm               120.00:  RPM Surface Avg 
 RPMN.rpm               100.00:  RPM Surface Min 
 RPMX.rpm               120.00:  RPM Surface Max 
 RRUN.                    0900:  Rig Run Number 
 SAZI.deg               115.08:  Azm, Start 
 SDEP.m                4762.01:  Start Depth 
 SIDD.                      No:  Serv Intrp, DD 
 SINC.deg                66.14:  Inc, Start 
 SPPA.psig             3700.00:  SPP Avg 
 SPPN.psig             3620.00:  SPP Min 
 SPPX.psig             3900.00:  SPP Max 
 STIM.      09.30.00 22-Dec-20:  Start Time 
 SVCS.                 DD, MWD:  Services 
 SVER.                    9.20:  Sperry Version 
 TDAT.m                 237.00:  Tot Depth Attmp 
 TDDF.                      No:  Trip for DD 
 TDLG.m                 237.00:  Tot Depth Loggd 
 TFF .                      No:  Trip for Fail 
 TQAA.f-kp               18.00:  Torque Abs Avg 
 TQAN.f-kp               17.00:  Torque Abs Min 
 TQAX.f-kp               20.00:  Torque Abs Max 
 TRRT.∞/30m               0.60:  Turn Rotating 
 MRT .                    HCIM:  Maximum Recorded Temperature 
 TTMX.degC               94.12:  Max Tool Temp 
 VS01.                90627809:  Virtual Str1 SN 
 VS02.                90527813:  Virtual Str2 SN 
 VS03.                90545417:  Virtual Str3 SN 
 VS04.                12460870:  Virtual Str4 SN 
 VS05.                90516706:  Virtual Str5 SN 
 VS06.                90632007:  Virtual Str6 SN 
 WBMN.klb                 0.00:  WOB Min 
 WOBA.klb                14.00:  WOB Avg 
 WOBX.klb                25.00:  WOB Max 
 YP  .lhf2               32.00:  Yield Point 
~Curve Information Block
#MNEM.UNIT                 API CODE     Curve Description
#---------               -----------    ---------------------------
 TIME.HHMMSS            00 000 000 000:  GT Time & Date
 GTDEPTH.m              00 000 000 000:  GT Depth
 GTPQH.psia             00 000 000 000:  GT HR Quartz Pressure
 GTTQ.degC              00 000 000 000:  GT Quartz Temperature
 GTTN.NONE              00 000 000 000:  GT Test Number
 GTET.sec               00 000 000 000:  GT Elapsed Test Time
 GTTVD.m                00 000 000 000:  GT True Vertical Depth
#Other Information
#
#WARRANTY: Halliburton will use its best efforts to furnish customers with 
#accurate information and interpretations that are part of, and incident to, the services 
#provided.  However, Halliburton cannot and does not warrant the accuracy 
#or correctness of such information and interpretations.  Under no circumstances should any 
#such information or interpretation be relied upon as the sole basis for any drilling, 
#completion, production, or financial decision or any procedure involving any risk to the 
#safety of any drilling venture, drilling rig or its crew or any other third party.  The 
#Customer has full responsibility for all drilling, completion and production operation.  
#Halliburton makes no representations or warranties, either expressed or 
#implied, including, but not limited to, the implied warranties of merchantability or fitness 
#for a particular purpose, with respect to the services rendered.  In no event will 
#Halliburton be liable for failure to obtain any particular results or for 
#any damages, including, but not limited to, indirect, special or consequential damages, 
#resulting from the use of any information or interpretation provided by Halliburton.
#
~A           TIME           GTDEPTH  GTPQH  GTTQ  GTTN  GTET   GTTVD  
# ...
   17:59:15.661.25-Dec-2020 4856.51 3917.58 64.21 5.00 160.94 2521.01
   17:59:15.861.25-Dec-2020 4856.51 3917.58 64.21 5.00 161.14 2521.01
   17:59:16.061.25-Dec-2020 4856.51 3917.58 64.21 5.00 161.34 2521.01
   17:59:16.261.25-Dec-2020 4856.51 3918.02 64.21 5.00 161.54 2521.01
   17:59:16.461.25-Dec-2020 4856.51 3917.87 64.21 5.00 161.74 2521.01
   17:59:16.661.25-Dec-2020 4856.51 3917.15 64.21 5.00 161.94 2521.01
   17:59:16.860.25-Dec-2020 4856.51 3917.15 64.21 5.00 162.14 2521.01
   17:59:17.060.25-Dec-2020 4856.51 3917.87 64.21 5.00 162.34 2521.01
   17:59:17.260.25-Dec-2020 4856.51 3917.93 64.21 5.00 162.54 2521.01
   17:59:17.460.25-Dec-2020 4856.51 3918.31 64.21 5.00 162.74 2521.01
   17:59:17.660.25-Dec-2020 4856.51 3918.74 64.21 5.00 162.94 2521.01
   17:59:17.860.25-Dec-2020 4856.51 3918.74 64.21 5.00 163.14 2521.01
   17:59:18.060.25-Dec-2020 4856.51 3919.13 64.21 5.00 163.34 2521.01
   17:59:18.260.25-Dec-2020 4856.51 3919.30 64.21 5.00 163.54 2521.01
   17:59:18.460.25-Dec-2020 4856.51 3919.53 64.21 5.00 163.74 2521.01
   17:59:18.660.25-Dec-2020 4856.51 3919.59 64.21 5.00 163.94 2521.01
   17:59:18.860.25-Dec-2020 4856.51 3919.59 64.21 5.00 164.14 2521.01
   17:59:19.060.25-Dec-2020 4856.51 3918.73 64.21 5.00 164.34 2521.01
   17:59:19.260.25-Dec-2020 4856.51 3919.38 64.21 5.00 164.54 2521.01
   17:59:19.459.25-Dec-2020 4856.51 3918.68 64.21 5.00 164.74 2521.01
   17:59:19.659.25-Dec-2020 4856.51 3918.86 64.21 5.00 164.94 2521.01
   17:59:19.859.25-Dec-2020 4856.51 3919.11 64.21 5.00 165.13 2521.01
   17:59:20.059.25-Dec-2020 4856.51 3919.34 64.21 5.00 165.33 2521.01
   17:59:20.259.25-Dec-2020 4856.51 3919.47 64.21 5.00 165.53 2521.01
   17:59:20.459.25-Dec-2020 4856.51 3919.77 64.21 5.00 165.73 2521.01
   17:59:20.659.25-Dec-2020 4856.51 3919.85 64.21 5.00 165.93 2521.01
   17:59:20.859.25-Dec-2020 4856.51 3919.85 64.21 5.00 166.13 2521.01
   17:59:21.059.25-Dec-2020 4856.51 3920.03 64.21 5.00 166.33 2521.01
   17:59:21.259.25-Dec-2020 4856.51 3920.09 64.21 5.00 166.53 2521.01
   17:59:21.459.25-Dec-2020 4856.51 3920.17 64.21 5.00 166.73 2521.01
   17:59:21.659.25-Dec-2020 4856.51 3919.13 64.21 5.00 166.93 2521.01
   17:59:21.858.25-Dec-2020 4856.51 3919.13 64.21 5.00 167.13 2521.01
   17:59:22.058.25-Dec-2020 4856.51 3918.91 64.21 5.00 167.33 2521.01
   17:59:22.258.25-Dec-2020 4856.51 3917.87 64.21 5.00 167.53 2521.01
   17:59:22.458.25-Dec-2020 4856.51 3918.74 64.21 5.00 167.73 2521.01
   17:59:22.658.25-Dec-2020 4856.51 3918.18 64.21 5.00 167.93 2521.01
   17:59:22.858.25-Dec-2020 4856.51 3918.18 64.21 5.00 168.13 2521.01
   17:59:23.058.25-Dec-2020 4856.51 3918.62 64.21 5.00 168.33 2521.01
   17:59:23.258.25-Dec-2020 4856.51 3917.65 64.21 5.00 168.53 2521.01
   17:59:23.458.25-Dec-2020 4856.51 3917.57 64.21 5.00 168.73 2521.01
   17:59:23.658.25-Dec-2020 4856.51 3917.83 64.21 5.00 168.93 2521.01
   17:59:23.858.25-Dec-2020 4856.51 3918.22 64.21 5.00 169.13 2521.01
   17:59:24.058.25-Dec-2020 4856.51 3917.93 64.21 5.00 169.33 2521.01
   17:59:24.258.25-Dec-2020 4856.51 3917.15 64.21 5.00 169.53 2521.01
   17:59:24.457.25-Dec-2020 4856.51 3917.21 64.21 5.00 169.73 2521.01
   17:59:24.657.25-Dec-2020 4856.51 3917.83 64.21 5.00 169.93 2521.01
   17:59:24.857.25-Dec-2020 4856.51 3917.83 64.21 5.00 170.13 2521.01
   17:59:25.057.25-Dec-2020 4856.51 3918.31 64.21 5.00 170.33 2521.01
   17:59:25.257.25-Dec-2020 4856.51 3918.65 64.21 5.00 170.53 2521.01
   17:59:25.457.25-Dec-2020 4856.51 3919.04 64.21 5.00 170.73 2521.01
   17:59:25.657.25-Dec-2020 4856.51 3919.22 64.21 5.00 170.93 2521.01
   17:59:25.857.25-Dec-2020 4856.51 3919.22 64.21 5.00 171.13 2521.01
   17:59:26.057.25-Dec-2020 4856.51 3919.64 64.21 5.00 171.33 2521.01
   17:59:26.257.25-Dec-2020 4856.51 3919.76 64.21 5.00 171.53 2521.01
   17:59:26.457.25-Dec-2020 4856.51 3919.98 64.21 5.00 171.73 2521.01
   17:59:26.657.25-Dec-2020 4856.51 3918.89 64.21 5.00 171.93 2521.01
   17:59:26.857.25-Dec-2020 4856.51 3918.89 64.21 5.00 172.13 2521.01
   17:59:27.056.25-Dec-2020 4856.51 3918.72 64.21 5.00 172.33 2521.01
   17:59:27.256.25-Dec-2020 4856.51 3918.77 64.21 5.00 172.53 2521.01
   17:59:27.456.25-Dec-2020 4856.51 3919.04 64.21 5.00 172.73 2521.01
   17:59:27.656.25-Dec-2020 4856.51 3919.29 64.21 5.00 172.93 2521.01
   17:59:27.856.25-Dec-2020 4856.51 3919.54 64.21 5.00 173.13 2521.01
   17:59:28.056.25-Dec-2020 4856.51 3919.78 64.21 5.00 173.33 2521.01
   17:59:28.256.25-Dec-2020 4856.51 3919.82 64.21 5.00 173.53 2521.01
   17:59:28.456.25-Dec-2020 4856.51 3920.00 64.21 5.00 173.73 2521.01
   17:59:28.656.25-Dec-2020 4856.51 3920.01 64.21 5.00 173.93 2521.01
   17:59:28.856.25-Dec-2020 4856.51 3920.01 64.21 5.00 174.13 2521.01
   17:59:29.056.25-Dec-2020 4856.51 3920.23 64.21 5.00 174.33 2521.01
   17:59:29.256.25-Dec-2020 4856.51 3919.24 64.21 5.00 174.53 2521.01
   17:59:29.455.25-Dec-2020 4856.51 3919.42 64.21 5.00 174.73 2521.01
   17:59:29.655.25-Dec-2020 4856.51 3919.05 64.21 5.00 174.93 2521.01
   17:59:29.855.25-Dec-2020 4856.51 3919.05 64.21 5.00 175.13 2521.01
   17:59:30.055.25-Dec-2020 4856.51 3918.95 64.21 5.00 175.33 2521.01
   17:59:30.255.25-Dec-2020 4856.51 3918.57 64.21 5.00 175.53 2521.01
   17:59:30.455.25-Dec-2020 4856.51 3918.83 64.21 5.00 175.73 2521.01
   17:59:30.655.25-Dec-2020 4856.51 3918.96 64.21 5.00 175.93 2521.01
   17:59:30.855.25-Dec-2020 4856.51 3918.96 64.21 5.00 176.13 2521.01
   17:59:31.055.25-Dec-2020 4856.51 3918.26 64.21 5.00 176.33 2521.01
   17:59:31.255.25-Dec-2020 4856.51 3918.02 64.21 5.00 176.53 2521.01
   17:59:31.455.25-Dec-2020 4856.51 3918.32 64.21 5.00 176.73 2521.01
   17:59:31.655.25-Dec-2020 4856.51 3917.46 64.21 5.00 176.93 2521.01
   17:59:31.855.25-Dec-2020 4856.51 3917.98 64.21 5.00 177.13 2521.01
   17:59:32.054.25-Dec-2020 4856.51 3917.67 64.21 5.00 177.33 2521.01
   17:59:32.254.25-Dec-2020 4856.51 3918.03 64.21 5.00 177.53 2521.01
   17:59:32.454.25-Dec-2020 4856.51 3918.27 64.21 5.00 177.73 2521.01
   17:59:32.654.25-Dec-2020 4856.51 3918.54 64.21 5.00 177.93 2521.01
   17:59:32.854.25-Dec-2020 4856.51 3918.54 64.21 5.00 178.13 2521.01
   17:59:33.054.25-Dec-2020 4856.51 3919.22 64.21 5.00 178.33 2521.01
   17:59:33.254.25-Dec-2020 4856.51 3919.34 64.21 5.00 178.53 2521.01
   17:59:33.454.25-Dec-2020 4856.51 3919.54 64.21 5.00 178.73 2521.01
   17:59:33.654.25-Dec-2020 4856.51 3919.68 64.21 5.00 178.93 2521.01
   17:59:33.854.25-Dec-2020 4856.51 3919.68 64.21 5.00 179.13 2521.01
   17:59:34.054.25-Dec-2020 4856.51 3919.95 64.21 5.00 179.33 2521.01
   17:59:34.254.25-Dec-2020 4856.51 3919.01 64.21 5.00 179.53 2521.01
   17:59:34.454.25-Dec-2020 4856.51 3919.16 64.21 5.00 179.73 2521.01
   17:59:34.653.25-Dec-2020 4856.51 3918.97 64.21 5.00 179.93 2521.01
   17:59:34.853.25-Dec-2020 4856.51 3918.97 64.21 5.00 180.13 2521.01
   17:59:35.053.25-Dec-2020 4856.51 3919.41 64.21 5.00 180.33 2521.01
   17:59:35.253.25-Dec-2020 4856.51 3919.47 64.21 5.00 180.53 2521.01
   17:59:35.453.25-Dec-2020 4856.51 3919.75 64.21 5.00 180.73 2521.01
   17:59:35.653.25-Dec-2020 4856.51 3919.91 64.21 5.00 180.93 2521.01
   17:59:35.853.25-Dec-2020 4856.51 3919.91 64.21 5.00 181.13 2521.01
   17:59:36.053.25-Dec-2020 4856.51 3920.19 64.21 5.00 181.33 2521.01
   17:59:36.253.25-Dec-2020 4856.51 3920.14 64.21 5.00 181.53 2521.01
   17:59:36.453.25-Dec-2020 4856.51 3920.18 64.21 5.00 181.73 2521.01
   17:59:36.653.25-Dec-2020 4856.51 3920.28 64.21 5.00 181.93 2521.01
   17:59:36.853.25-Dec-2020 4856.51 3920.28 64.21 5.00 182.13 2521.01
   17:59:37.052.25-Dec-2020 4856.51 3287.90 64.21 5.00 182.33 2521.01
   17:59:37.252.25-Dec-2020 4856.51 2906.63 64.21 5.00 182.53 2521.01
   17:59:37.452.25-Dec-2020 4856.51 2581.58 64.21 5.00 182.73 2521.01
   17:59:37.652.25-Dec-2020 4856.51 2309.75 64.21 5.00 182.93 2521.01
   17:59:37.852.25-Dec-2020 4856.51 2309.75 64.21 5.00 183.13 2521.01
   17:59:38.052.25-Dec-2020 4856.51 1919.19 64.21 5.00 183.33 2521.01
   17:59:38.252.25-Dec-2020 4856.51 1756.37 64.21 5.00 183.53 2521.01
   17:59:38.452.25-Dec-2020 4856.51 1621.86 64.21 5.00 183.73 2521.01
