~Version Information
 VERS.                  2.0:   CWLS log ASCII Standard -VERSION 2.0
 WRAP.                   NO:   One line per depth step
~Well Information Block
#MNEM.UNIT     VALUE/NAME     DESCRIPTION
#---------     -----------    ---------------------------
 STRT.S             12:53:37 25-Dec-20: START TIME 12:53:37 25-Dec-20
 STOP.S             13:01:52 25-Dec-20: STOP TIME  13:01:52 25-Dec-20
 STEP.S                   0.00: STEP TIME
 NULL.                 -999.25: NULL VALUE
 DFWT.                        :  DIST FWL TEXT
 DFST.                        :  DIST FSL TEXT
 DMF .             Drill Floor:  DRILL MEAS FROM
 STIM.      04.54.24 22-Sep-20:  START TIME
 DATE.      04.54.24 21-Nov-20:  END TIME
 SPUD.               21-Nov-20:  SPUD DATE
 NREF.                    Grid:  NORTH REFERENCE
 HPTY.       Minimum Curvature:  HOLE POS TYPE
 DMOD.             Drill Model:  DRILL MOD DESC
 SVYD.                  Survey:  SURVEY DESC
 ILTD.               Lithology:  INTERP LTH DESC
 FTOP.          Formation Tops:  FORM TOPS DESC
 SON .        AZ-XX-0906571587:  JOB NUMBER
 COMP.     BP Exploration (Caspian Sea) Ltd:  COMPANY
 UWI .                     N/A:  UNIQUE WELL IDENTIFIER
 API .                     N/A:  API NUMBER
 BASE.              Azerbaijan:  LOGGING EQUIPMENT BASE LOCATION
 REGN.                   EESSA:  REGION
 PROV.                    Baku:  PROVINCE
 STAT.                    Baku:  STATE NAME
 CTRY.              Azerbaijan:  COUNTRY NAME
 FLD .                     ACG:  FIELD NAME
 SRVC.     TURAN Drilling & Engineering:  CONTRACTOR
 WELL.                     J27:  WELL NAME
 RIG .             West Chirag:  RIG NAME
 DOE .                     N/A:  DOE NUMBER
 DCON.         Sperry Drilling:  DIRECTNL CONTR
 PDAT.          Mean Sea Level:  PERMANENT DATUM
 WTYP.                Deviated:  WELL TYPE
 MWDS.                    Baku:  MWD SHOP
 JOBN.        AZ-XX-0906571587:  JOB TICKET NUMB
 UNIT.                     N/A:  LOGGING EQUIPMENT ID
 MDS .        Operator Entered:  MAG DATA SOURCE
 CNTY.                        :  COUNTY
 LOC .                        :  LOCATION
 LMF .             Drill Floor:  LOG MEASURED FROM
 TVDS.m                  43.00:  TVDSS CORRECTN
 LATI.deg                40.13:  LATITUDE
 LONG.deg                51.22:  LONGITUDE
 WHNS.m                   7.72:  WELL HEAD N/S
 WHEW.m                 -14.24:  WELL HEAD E/W
 UTMX.m              519005.06:  UTM X
 UTMY.m             4443793.85:  UTM Y
 DFWL.m                   0.00:  DISTANCE FWL
 DFSL.m                   0.00:  DISTANCE FSL
 SDEP.m                 347.00:  START DEPTH
 TDD .m                 581.00:  TOTAL DEPTH (DRILLER)
 VSDR.deg               159.72:  VERT SEC DIRECT
 GVFD.g                   1.00:  GRAVITY FIELD
 MFLD.nT              50318.00:  MAGNETIC FIELD
 MDIP.deg                59.57:  MAGNETIC DIP
 MDEC.deg                 6.44:  MAGNETIC DECL
 GRDC.deg                 0.15:  GRID CORRECTION
 AZTC.deg                 6.29:  AZM TOTAL CORR
 EPD .m                   0.00:  ELEVATION
 EGL .m                   0.00:  GROUND ELEVATION
 WDMS.m                 169.80:  WD ELEV
 APD .m                  43.00:  DEPTH ABOVE PD
 AGAP.m                  43.00:  AIR GAP
 VSEW.m                 -14.24:  VERT SEC E/W
 VSNS.m                   7.72:  VERT SEC N/S
 DEP .m                 342.45:  DEPTH
 EKB .m                   0.00:  KB ELEVATION
 EDF .m                  43.00:  DF ELEVATION
 TDL .m                 237.00:  TOTAL DEPTH (LOGGER)
 VSC .                       0:  VS TO CLOSURE
 MAGU.                 1851428:  MAGUTM CHECKSUM
~Parameter Information Block
#MNEM.UNIT       Value        Description
#---------     -----------    ---------------------------
 AV  .mps                 1.50:  Ann Velocity 
 AVMX.mps                 2.90:  Max Ann Veloc 
 AZIF.deg               115.59:  Azm, Final 
 BHAT.        Rotary Steerable:  BHA Type 
 BROT.°/30m               0.50:  Build Rotating 
 BS  .in                  8.50:  Bit Size 
 BTPL.psig              580.00:  Bit Press Loss 
 CABU.                     Yes:  Customer Abuse 
 COMM.                     LÓw:  Run Comments 1 
 TCS .hr                 89.79:  Time Ciculation Ended 
 CV  .mps                 3.22:  Crit Velocity 
 CVMX.mps                 4.37:  Max Crit Veloc 
 DD1 .          Rashad Habibov:  Direct Drillr 1 
 DDSV.               Geo-Pilot:  DD Service 
 DEFF.%                  95.00:  % Det Eff 
 DLRX.°/30m               1.94:  Dogleg Rot Max 
 DLSO.°/30m               0.70:  Dogleg Oriented 
 DLSX.°/30m               1.94:  Dogleg Str Max 
 DRET.      04.45.00 25-Dec-20:  Drill End Time 
 DRST.      10.00.00 24-Dec-20:  Drill Start Tim 
 DTIM.hr                 16.64:  Time Drilling 
 EDEP.m                4999.01:  End Depth 
 ENG1.         Elchin Mammadov:  Engineer 1 
 ENG2.          Ruslan Safarov:  Engineer 2 
 ENG3.          Rustam Safarov:  Engineer 3 
 ETIM.      09.00.00 29-Dec-20:  End Time 
 FLOI.gpm               500.00:  Flow In 
 FLON.gpm               400.00:  Flow In Min 
 FLOS.cptm                0.00:  Fluid Loss 
 FLOX.gpm               500.00:  Flow In Max 
 HFLO.                      No:  High Flow 
 HPRE.                      No:  High Pressure 
 HTEM.                      No:  High Temp 
 HYDO.m                   2.00:  Hydro Offset 
 IFIN.deg                66.79:  Inc, Final 
 IMAX.deg                67.66:  Inc Max 
 IMIN.deg                66.39:  Inc Min 
 IMND.m                4949.37:  Inc Min Depth 
 IMXD.m                4778.63:  Inc Max Depth 
 JARR.                     Yes:  Jarring 
 LETM.      04.45.00 25-Dec-20:  Log End Time 
 LOST.hr                     0:  Lost Rig Time 
 LSTM.      10.00.00 24-Dec-20:  Log Start Time 
 MDCL.ppm             39000.00:  Mud Chlorides 
 MDES.     Inversion Oil/Synthetic:  Mud Desc 
 DFD .sg                  1.33:  Mud Density 
 MDMN.sg                  1.33:  Dens Mud Min 
 MDMX.sg                  1.33:  Dens Mud Max 
 MOIL.                      70:  Run Mud Oil % 
 MOWR.                   70:30:  Run Mud OWR 
 MSND.                       0:  Run Mud Sand % 
 MSOL.                    17.4:  Run Mud Solids% 
 DFV .spqt               84.00:  Mud Viscosity 
 MWOD.in                  6.75:  MWD Tool OD 
 MWSI.                     Yes:  Serv Intrp, MWD 
 OTIM.hr                168.14:  Time Operating 
 PCON.           Look Like New:  Pad Condition 
 PMAX.psia            10822.93:  Press Op, Max 
 PV  .cP                 30.00:  Mud PV 
 RUN .                     900:  Run Number 
 ROPA.m/hr               18.00:  ROP Avg 
 ROPN.m/hr               12.00:  ROP Min 
 ROPX.m/hr               25.00:  ROP Max 
 RPMA.rpm               120.00:  RPM Surface Avg 
 RPMN.rpm               100.00:  RPM Surface Min 
 RPMX.rpm               120.00:  RPM Surface Max 
 RRUN.                    0900:  Rig Run Number 
 SAZI.deg               115.08:  Azm, Start 
 SDEP.m                4762.01:  Start Depth 
 SIDD.                      No:  Serv Intrp, DD 
 SINC.deg                66.14:  Inc, Start 
 SPPA.psig             3700.00:  SPP Avg 
 SPPN.psig             3620.00:  SPP Min 
 SPPX.psig             3900.00:  SPP Max 
 STIM.      09.30.00 22-Dec-20:  Start Time 
 SVCS.                 DD, MWD:  Services 
 SVER.                    9.20:  Sperry Version 
 TDAT.m                 237.00:  Tot Depth Attmp 
 TDDF.                      No:  Trip for DD 
 TDLG.m                 237.00:  Tot Depth Loggd 
 TFF .                      No:  Trip for Fail 
 TQAA.f-kp               18.00:  Torque Abs Avg 
 TQAN.f-kp               17.00:  Torque Abs Min 
 TQAX.f-kp               20.00:  Torque Abs Max 
 TRRT.°/30m               0.60:  Turn Rotating 
 MRT .                    HCIM:  Maximum Recorded Temperature 
 TTMX.degC               94.12:  Max Tool Temp 
 VS01.                90627809:  Virtual Str1 SN 
 VS02.                90527813:  Virtual Str2 SN 
 VS03.                90545417:  Virtual Str3 SN 
 VS04.                12460870:  Virtual Str4 SN 
 VS05.                90516706:  Virtual Str5 SN 
 VS06.                90632007:  Virtual Str6 SN 
 WBMN.klb                 0.00:  WOB Min 
 WOBA.klb                14.00:  WOB Avg 
 WOBX.klb                25.00:  WOB Max 
 YP  .lhf2               32.00:  Yield Point 
~Curve Information Block
#MNEM.UNIT                 API CODE     Curve Description
#---------               -----------    ---------------------------
 TIME.HHMMSS            00 000 000 000:  GT Time & Date
 GTDEPTH.m              00 000 000 000:  GT Depth
 GTPQH.psia             00 000 000 000:  GT HR Quartz Pressure
 GTTQ.degC              00 000 000 000:  GT Quartz Temperature
 GTTN.NONE              00 000 000 000:  GT Test Number
 GTET.sec               00 000 000 000:  GT Elapsed Test Time
 GTTVD.m                00 000 000 000:  GT True Vertical Depth
#Other Information
#
#WARRANTY: Halliburton will use its best efforts to furnish customers with 
#accurate information and interpretations that are part of, and incident to, the services 
#provided.  However, Halliburton cannot and does not warrant the accuracy 
#or correctness of such information and interpretations.  Under no circumstances should any 
#such information or interpretation be relied upon as the sole basis for any drilling, 
#completion, production, or financial decision or any procedure involving any risk to the 
#safety of any drilling venture, drilling rig or its crew or any other third party.  The 
#Customer has full responsibility for all drilling, completion and production operation.  
#Halliburton makes no representations or warranties, either expressed or 
#implied, including, but not limited to, the implied warranties of merchantability or fitness 
#for a particular purpose, with respect to the services rendered.  In no event will 
#Halliburton be liable for failure to obtain any particular results or for 
#any damages, including, but not limited to, indirect, special or consequential damages, 
#resulting from the use of any information or interpretation provided by Halliburton.
#
~A           TIME           GTDEPTH  GTPQH  GTTQ  GTTN  GTET   GTTVD  
# ...
   13:01:40.402.25-Dec-2020 4950.51 5548.70 66.62 1.00 483.22 2558.08
   13:01:40.602.25-Dec-2020 4950.51 5548.70 66.62 1.00 483.42 2558.08
   13:01:40.803.25-Dec-2020 4950.51 5542.82 66.62 1.00 483.62 2558.08
   13:01:41.003.25-Dec-2020 4950.51 5546.26 66.62 1.00 483.82 2558.08
   13:01:41.203.25-Dec-2020 4950.51 5545.16 66.61 1.00 484.02 2558.08
   13:01:41.403.25-Dec-2020 4950.51 5545.45 66.61 1.00 484.22 2558.08
   13:01:41.603.25-Dec-2020 4950.51 5545.45 66.61 1.00 484.42 2558.08
   13:01:41.803.25-Dec-2020 4950.51 5544.93 66.61 1.00 484.62 2558.08
   13:01:42.003.25-Dec-2020 4950.51 5546.06 66.61 1.00 484.82 2558.08
   13:01:42.203.25-Dec-2020 4950.51 5554.35 66.61 1.00 485.02 2558.08
   13:01:42.403.25-Dec-2020 4950.51 5551.39 66.61 1.00 485.22 2558.08
   13:01:42.603.25-Dec-2020 4950.51 5551.39 66.61 1.00 485.42 2558.08
   13:01:42.803.25-Dec-2020 4950.51 5548.45 66.61 1.00 485.62 2558.08
   13:01:43.004.25-Dec-2020 4950.51 5548.01 66.61 1.00 485.82 2558.08
   13:01:43.204.25-Dec-2020 4950.51 5545.11 66.61 1.00 486.02 2558.08
   13:01:43.404.25-Dec-2020 4950.51 5547.64 66.61 1.00 486.22 2558.08
   13:01:43.604.25-Dec-2020 4950.51 5547.64 66.61 1.00 486.42 2558.08
   13:01:43.804.25-Dec-2020 4950.51 5545.83 66.61 1.00 486.62 2558.08
   13:01:44.004.25-Dec-2020 4950.51 5546.23 66.61 1.00 486.82 2558.08
   13:01:44.204.25-Dec-2020 4950.51 5544.83 66.61 1.00 487.02 2558.08
   13:01:44.404.25-Dec-2020 4950.51 5544.78 66.61 1.00 487.22 2558.08
   13:01:44.604.25-Dec-2020 4950.51 5544.78 66.61 1.00 487.42 2558.08
   13:01:44.804.25-Dec-2020 4950.51 5554.61 66.61 1.00 487.62 2558.08
   13:01:45.004.25-Dec-2020 4950.51 5545.55 66.61 1.00 487.82 2558.08
   13:01:45.205.25-Dec-2020 4950.51 5541.83 66.61 1.00 488.02 2558.08
   13:01:45.405.25-Dec-2020 4950.51 5551.39 66.61 1.00 488.22 2558.08
   13:01:45.605.25-Dec-2020 4950.51 5551.39 66.61 1.00 488.42 2558.08
   13:01:45.805.25-Dec-2020 4950.51 5543.28 66.61 1.00 488.62 2558.08
   13:01:46.005.25-Dec-2020 4950.51 5555.20 66.61 1.00 488.82 2558.08
   13:01:46.205.25-Dec-2020 4950.51 5552.31 66.61 1.00 489.02 2558.08
   13:01:46.405.25-Dec-2020 4950.51 5544.69 66.61 1.00 489.22 2558.08
   13:01:46.605.25-Dec-2020 4950.51 5544.69 66.61 1.00 489.42 2558.08
   13:01:46.805.25-Dec-2020 4950.51 5547.91 66.61 1.00 489.62 2558.08
   13:01:47.005.25-Dec-2020 4950.51 5546.04 66.61 1.00 489.82 2558.08
   13:01:47.205.25-Dec-2020 4950.51 5547.89 66.61 1.00 490.02 2558.08
   13:01:47.406.25-Dec-2020 4950.51 5544.72 66.61 1.00 490.22 2558.08
   13:01:47.606.25-Dec-2020 4950.51 5544.72 66.61 1.00 490.42 2558.08
   13:01:47.806.25-Dec-2020 4950.51 5554.63 66.61 1.00 490.62 2558.08
   13:01:48.006.25-Dec-2020 4950.51 5548.39 66.61 1.00 490.82 2558.08
   13:01:48.206.25-Dec-2020 4950.51 5545.32 66.61 1.00 491.02 2558.08
   13:01:48.406.25-Dec-2020 4950.51 5548.23 66.61 1.00 491.22 2558.08
   13:01:48.606.25-Dec-2020 4950.51 5548.23 66.61 1.00 491.42 2558.08
   13:01:48.806.25-Dec-2020 4950.51 5544.34 66.60 1.00 491.62 2558.08
   13:01:49.006.25-Dec-2020 4950.51 5546.20 66.60 1.00 491.82 2558.08
   13:01:49.206.25-Dec-2020 4950.51 5546.20 66.60 1.00 492.02 2558.08
   13:01:49.406.25-Dec-2020 4950.51 5545.24 66.60 1.00 492.22 2558.08
   13:01:49.607.25-Dec-2020 4950.51 5545.24 66.60 1.00 492.42 2558.08
   13:01:49.807.25-Dec-2020 4950.51 5545.04 66.60 1.00 492.62 2558.08
   13:01:50.007.25-Dec-2020 4950.51 5545.97 66.60 1.00 492.82 2558.08
   13:01:50.207.25-Dec-2020 4950.51 5555.09 66.60 1.00 493.02 2558.08
   13:01:50.407.25-Dec-2020 4950.51 5551.75 66.60 1.00 493.22 2558.08
   13:01:50.607.25-Dec-2020 4950.51 5551.75 66.60 1.00 493.42 2558.08
   13:01:50.807.25-Dec-2020 4950.51 5548.46 66.60 1.00 493.62 2558.08
   13:01:51.007.25-Dec-2020 4950.51 5548.01 66.60 1.00 493.82 2558.08
   13:01:51.207.25-Dec-2020 4950.51 5548.10 66.60 1.00 494.02 2558.08
   13:01:51.407.25-Dec-2020 4950.51 5547.79 66.60 1.00 494.22 2558.08
   13:01:51.607.25-Dec-2020 4950.51 5547.79 66.60 1.00 494.42 2558.08
   13:01:51.808.25-Dec-2020 4950.51 5547.00 66.60 1.00 494.62 2558.08
   13:01:52.008.25-Dec-2020 4950.51 5546.76 66.60 1.00 494.82 2558.08
   13:01:52.208.25-Dec-2020 4950.51 5546.28 66.60 1.00 495.02 2558.08
