~Version Information
 VERS.                  2.0:   CWLS log ASCII Standard -VERSION 2.0
 WRAP.                   NO:   One line per depth step
~Well Information Block
#MNEM.UNIT     VALUE/NAME     DESCRIPTION
#---------     -----------    ---------------------------
 STRT.S             15:24:16 25-Dec-20: START TIME 15:24:16 25-Dec-20
 STOP.S             15:32:36 25-Dec-20: STOP TIME  15:32:36 25-Dec-20
 STEP.S                   0.00: STEP TIME
 NULL.                 -999.25: NULL VALUE
 DFWT.                        :  DIST FWL TEXT
 DFST.                        :  DIST FSL TEXT
 DMF .             Drill Floor:  DRILL MEAS FROM
 STIM.      04.54.24 22-Sep-20:  START TIME
 DATE.      04.54.24 21-Nov-20:  END TIME
 SPUD.               21-Nov-20:  SPUD DATE
 NREF.                    Grid:  NORTH REFERENCE
 HPTY.       Minimum Curvature:  HOLE POS TYPE
 DMOD.             Drill Model:  DRILL MOD DESC
 SVYD.                  Survey:  SURVEY DESC
 ILTD.               Lithology:  INTERP LTH DESC
 FTOP.          Formation Tops:  FORM TOPS DESC
 SON .        AZ-XX-0906571587:  JOB NUMBER
 COMP.     BP Exploration (Caspian Sea) Ltd:  COMPANY
 UWI .                     N/A:  UNIQUE WELL IDENTIFIER
 API .                     N/A:  API NUMBER
 BASE.              Azerbaijan:  LOGGING EQUIPMENT BASE LOCATION
 REGN.                   EESSA:  REGION
 PROV.                    Baku:  PROVINCE
 STAT.                    Baku:  STATE NAME
 CTRY.              Azerbaijan:  COUNTRY NAME
 FLD .                     ACG:  FIELD NAME
 SRVC.     TURAN Drilling & Engineering:  CONTRACTOR
 WELL.                     J27:  WELL NAME
 RIG .             West Chirag:  RIG NAME
 DOE .                     N/A:  DOE NUMBER
 DCON.         Sperry Drilling:  DIRECTNL CONTR
 PDAT.          Mean Sea Level:  PERMANENT DATUM
 WTYP.                Deviated:  WELL TYPE
 MWDS.                    Baku:  MWD SHOP
 JOBN.        AZ-XX-0906571587:  JOB TICKET NUMB
 UNIT.                     N/A:  LOGGING EQUIPMENT ID
 MDS .        Operator Entered:  MAG DATA SOURCE
 CNTY.                        :  COUNTY
 LOC .                        :  LOCATION
 LMF .             Drill Floor:  LOG MEASURED FROM
 TVDS.m                  43.00:  TVDSS CORRECTN
 LATI.deg                40.13:  LATITUDE
 LONG.deg                51.22:  LONGITUDE
 WHNS.m                   7.72:  WELL HEAD N/S
 WHEW.m                 -14.24:  WELL HEAD E/W
 UTMX.m              519005.06:  UTM X
 UTMY.m             4443793.85:  UTM Y
 DFWL.m                   0.00:  DISTANCE FWL
 DFSL.m                   0.00:  DISTANCE FSL
 SDEP.m                 347.00:  START DEPTH
 TDD .m                 581.00:  TOTAL DEPTH (DRILLER)
 VSDR.deg               159.72:  VERT SEC DIRECT
 GVFD.g                   1.00:  GRAVITY FIELD
 MFLD.nT              50318.00:  MAGNETIC FIELD
 MDIP.deg                59.57:  MAGNETIC DIP
 MDEC.deg                 6.44:  MAGNETIC DECL
 GRDC.deg                 0.15:  GRID CORRECTION
 AZTC.deg                 6.29:  AZM TOTAL CORR
 EPD .m                   0.00:  ELEVATION
 EGL .m                   0.00:  GROUND ELEVATION
 WDMS.m                 169.80:  WD ELEV
 APD .m                  43.00:  DEPTH ABOVE PD
 AGAP.m                  43.00:  AIR GAP
 VSEW.m                 -14.24:  VERT SEC E/W
 VSNS.m                   7.72:  VERT SEC N/S
 DEP .m                 342.45:  DEPTH
 EKB .m                   0.00:  KB ELEVATION
 EDF .m                  43.00:  DF ELEVATION
 TDL .m                 237.00:  TOTAL DEPTH (LOGGER)
 VSC .                       0:  VS TO CLOSURE
 MAGU.                 1851428:  MAGUTM CHECKSUM
~Parameter Information Block
#MNEM.UNIT       Value        Description
#---------     -----------    ---------------------------
 AV  .mps                 1.50:  Ann Velocity 
 AVMX.mps                 2.90:  Max Ann Veloc 
 AZIF.deg               115.59:  Azm, Final 
 BHAT.        Rotary Steerable:  BHA Type 
 BROT.°/30m               0.50:  Build Rotating 
 BS  .in                  8.50:  Bit Size 
 BTPL.psig              580.00:  Bit Press Loss 
 CABU.                     Yes:  Customer Abuse 
 TCS .hr                 89.79:  Time Ciculation Ended 
 CV  .mps                 3.22:  Crit Velocity 
 CVMX.mps                 4.37:  Max Crit Veloc 
 DD1 .          Rashad Habibov:  Direct Drillr 1 
 DDSV.               Geo-Pilot:  DD Service 
 DEFF.%                  95.00:  % Det Eff 
 DLRX.°/30m               1.94:  Dogleg Rot Max 
 DLSO.°/30m               0.70:  Dogleg Oriented 
 DLSX.°/30m               1.94:  Dogleg Str Max 
 DRET.      04.45.00 25-Dec-20:  Drill End Time 
 DRST.      10.00.00 24-Dec-20:  Drill Start Tim 
 DTIM.hr                 16.64:  Time Drilling 
 EDEP.m                4999.01:  End Depth 
 ENG1.         Elchin Mammadov:  Engineer 1 
 ENG2.          Ruslan Safarov:  Engineer 2 
 ENG3.          Rustam Safarov:  Engineer 3 
 ETIM.      09.00.00 29-Dec-20:  End Time 
 FLOI.gpm               500.00:  Flow In 
 FLON.gpm               400.00:  Flow In Min 
 FLOS.cptm                0.00:  Fluid Loss 
 FLOX.gpm               500.00:  Flow In Max 
 HFLO.                      No:  High Flow 
 HPRE.                      No:  High Pressure 
 HTEM.                      No:  High Temp 
 HYDO.m                   2.00:  Hydro Offset 
 IFIN.deg                66.79:  Inc, Final 
 IMAX.deg                67.66:  Inc Max 
 IMIN.deg                66.39:  Inc Min 
 IMND.m                4949.37:  Inc Min Depth 
 IMXD.m                4778.63:  Inc Max Depth 
 JARR.                     Yes:  Jarring 
 LETM.      04.45.00 25-Dec-20:  Log End Time 
 LOST.hr                     0:  Lost Rig Time 
 LSTM.      10.00.00 24-Dec-20:  Log Start Time 
 MDCL.ppm             39000.00:  Mud Chlorides 
 MDES.     Inversion Oil/Synthetic:  Mud Desc 
 DFD .sg                  1.33:  Mud Density 
 MDMN.sg                  1.33:  Dens Mud Min 
 MDMX.sg                  1.33:  Dens Mud Max 
 MOIL.                      70:  Run Mud Oil % 
 MOWR.                   70:30:  Run Mud OWR 
 MSND.                       0:  Run Mud Sand % 
 MSOL.                    17.4:  Run Mud Solids% 
 DFV .spqt               84.00:  Mud Viscosity 
 MWOD.in                  6.75:  MWD Tool OD 
 MWSI.                     Yes:  Serv Intrp, MWD 
 OTIM.hr                168.14:  Time Operating 
 PCON.           Look Like New:  Pad Condition 
 PMAX.psia            10822.93:  Press Op, Max 
 PV  .cP                 30.00:  Mud PV 
 RUN .                     900:  Run Number 
 ROPA.m/hr               18.00:  ROP Avg 
 ROPN.m/hr               12.00:  ROP Min 
 ROPX.m/hr               25.00:  ROP Max 
 RPMA.rpm               120.00:  RPM Surface Avg 
 RPMN.rpm               100.00:  RPM Surface Min 
 RPMX.rpm               120.00:  RPM Surface Max 
 RRUN.                    0900:  Rig Run Number 
 SAZI.deg               115.08:  Azm, Start 
 SDEP.m                4762.01:  Start Depth 
 SIDD.                      No:  Serv Intrp, DD 
 SINC.deg                66.14:  Inc, Start 
 SPPA.psig             3700.00:  SPP Avg 
 SPPN.psig             3620.00:  SPP Min 
 SPPX.psig             3900.00:  SPP Max 
 STIM.      09.30.00 22-Dec-20:  Start Time 
 SVCS.                 DD, MWD:  Services 
 SVER.                    9.20:  Sperry Version 
 TDAT.m                 237.00:  Tot Depth Attmp 
 TDDF.                      No:  Trip for DD 
 TDLG.m                 237.00:  Tot Depth Loggd 
 TFF .                      No:  Trip for Fail 
 TQAA.f-kp               18.00:  Torque Abs Avg 
 TQAN.f-kp               17.00:  Torque Abs Min 
 TQAX.f-kp               20.00:  Torque Abs Max 
 TRRT.°/30m               0.60:  Turn Rotating 
 MRT .                    HCIM:  Maximum Recorded Temperature 
 TTMX.degC               94.12:  Max Tool Temp 
 VS01.                90627809:  Virtual Str1 SN 
 VS02.                90527813:  Virtual Str2 SN 
 VS03.                90545417:  Virtual Str3 SN 
 VS04.                12460870:  Virtual Str4 SN 
 VS05.                90516706:  Virtual Str5 SN 
 VS06.                90632007:  Virtual Str6 SN 
 WBMN.klb                 0.00:  WOB Min 
 WOBA.klb                14.00:  WOB Avg 
 WOBX.klb                25.00:  WOB Max 
 YP  .lhf2               32.00:  Yield Point 
~Curve Information Block
#MNEM.UNIT                 API CODE     Curve Description
#---------               -----------    ---------------------------
 TIME.HHMMSS            00 000 000 000:  GT Time & Date
 GTDEPTH.m              00 000 000 000:  GT Depth
 GTPQH.psia             00 000 000 000:  GT HR Quartz Pressure
 GTTQ.degC              00 000 000 000:  GT Quartz Temperature
 GTTN.NONE              00 000 000 000:  GT Test Number
 GTET.sec               00 000 000 000:  GT Elapsed Test Time
 GTTVD.m                00 000 000 000:  GT True Vertical Depth
#Other Information
#
#WARRANTY: Halliburton will use its best efforts to furnish customers with 
#accurate information and interpretations that are part of, and incident to, the services 
#provided.  However, Halliburton cannot and does not warrant the accuracy 
#or correctness of such information and interpretations.  Under no circumstances should any 
#such information or interpretation be relied upon as the sole basis for any drilling, 
#completion, production, or financial decision or any procedure involving any risk to the 
#safety of any drilling venture, drilling rig or its crew or any other third party.  The 
#Customer has full responsibility for all drilling, completion and production operation.  
#Halliburton makes no representations or warranties, either expressed or 
#implied, including, but not limited to, the implied warranties of merchantability or fitness 
#for a particular purpose, with respect to the services rendered.  In no event will 
#Halliburton be liable for failure to obtain any particular results or for 
#any damages, including, but not limited to, indirect, special or consequential damages, 
#resulting from the use of any information or interpretation provided by Halliburton.
#
~A           TIME           GTDEPTH  GTPQH  GTTQ  GTTN  GTET   GTTVD  
# ...
   15:25:25.770.25-Dec-2020 4892.01 2718.53 65.37 4.00  69.02 2535.10
   15:25:25.970.25-Dec-2020 4892.01 2718.53 65.37 4.00  69.22 2535.10
   15:25:26.170.25-Dec-2020 4892.01 2718.55 65.37 4.00  69.42 2535.10
   15:25:26.370.25-Dec-2020 4892.01 2718.23 65.37 4.00  69.62 2535.10
   15:25:26.570.25-Dec-2020 4892.01 2718.44 65.37 4.00  69.82 2535.10
   15:25:26.770.25-Dec-2020 4892.01 2718.59 65.37 4.00  70.02 2535.10
   15:25:26.971.25-Dec-2020 4892.01 2718.59 65.37 4.00  70.22 2535.10
   15:25:27.171.25-Dec-2020 4892.01 2718.49 65.37 4.00  70.42 2535.10
   15:25:27.371.25-Dec-2020 4892.01 2718.41 65.37 4.00  70.62 2535.10
   15:25:27.571.25-Dec-2020 4892.01 2718.44 65.37 4.00  70.82 2535.10
   15:25:27.771.25-Dec-2020 4892.01 2718.28 65.37 4.00  71.02 2535.10
   15:25:27.971.25-Dec-2020 4892.01 2718.45 65.37 4.00  71.22 2535.10
   15:25:28.171.25-Dec-2020 4892.01 2718.41 65.37 4.00  71.42 2535.10
   15:25:28.371.25-Dec-2020 4892.01 2718.35 65.37 4.00  71.62 2535.10
   15:25:28.571.25-Dec-2020 4892.01 2718.43 65.37 4.00  71.82 2535.10
   15:25:28.771.25-Dec-2020 4892.01 2718.56 65.38 4.00  72.02 2535.10
   15:25:28.971.25-Dec-2020 4892.01 2718.56 65.38 4.00  72.22 2535.10
   15:25:29.171.25-Dec-2020 4892.01 2718.22 65.38 4.00  72.42 2535.10
   15:25:29.371.25-Dec-2020 4892.01 2718.41 65.38 4.00  72.62 2535.10
   15:25:29.571.25-Dec-2020 4892.01 2718.46 65.38 4.00  72.82 2535.10
   15:25:29.771.25-Dec-2020 4892.01 2718.44 65.38 4.00  73.02 2535.10
   15:25:29.971.25-Dec-2020 4892.01 2718.44 65.38 4.00  73.22 2535.10
   15:25:30.171.25-Dec-2020 4892.01 2718.53 65.38 4.00  73.42 2535.10
   15:25:30.371.25-Dec-2020 4892.01 2718.56 65.38 4.00  73.62 2535.10
   15:25:30.571.25-Dec-2020 4892.01 2718.59 65.38 4.00  73.82 2535.10
   15:25:30.772.25-Dec-2020 4892.01 2718.61 65.38 4.00  74.02 2535.10
   15:25:30.972.25-Dec-2020 4892.01 2718.61 65.38 4.00  74.22 2535.10
   15:25:31.172.25-Dec-2020 4892.01 2718.86 65.38 4.00  74.42 2535.10
   15:25:31.372.25-Dec-2020 4892.01 2718.33 65.38 4.00  74.62 2535.10
   15:25:31.572.25-Dec-2020 4892.01 2718.53 65.38 4.00  74.82 2535.10
   15:25:31.772.25-Dec-2020 4892.01 2718.45 65.38 4.00  75.02 2535.10
   15:25:31.972.25-Dec-2020 4892.01 2718.42 65.38 4.00  75.22 2535.10
   15:25:32.172.25-Dec-2020 4892.01 2718.54 65.38 4.00  75.42 2535.10
   15:25:32.372.25-Dec-2020 4892.01 2718.53 65.38 4.00  75.62 2535.10
   15:25:32.572.25-Dec-2020 4892.01 2718.59 65.38 4.00  75.82 2535.10
   15:25:32.772.25-Dec-2020 4892.01 2718.59 65.38 4.00  76.02 2535.10
   15:25:32.972.25-Dec-2020 4892.01 2718.59 65.38 4.00  76.22 2535.10
   15:25:33.172.25-Dec-2020 4892.01 2718.63 65.38 4.00  76.42 2535.10
   15:25:33.372.25-Dec-2020 4892.01 2718.66 65.38 4.00  76.62 2535.10
   15:25:33.572.25-Dec-2020 4892.01 2718.60 65.38 4.00  76.82 2535.10
   15:25:33.772.25-Dec-2020 4892.01 2718.70 65.38 4.00  77.02 2535.10
   15:25:33.972.25-Dec-2020 4892.01 2718.70 65.38 4.00  77.22 2535.10
   15:25:34.172.25-Dec-2020 4892.01 2718.31 65.38 4.00  77.42 2535.10
   15:25:34.373.25-Dec-2020 4892.01 2718.52 65.38 4.00  77.62 2535.10
   15:25:34.573.25-Dec-2020 4892.01 2718.83 65.38 4.00  77.82 2535.10
   15:25:34.773.25-Dec-2020 4892.01 2718.29 65.38 4.00  78.02 2535.10
   15:25:34.973.25-Dec-2020 4892.01 2718.29 65.38 4.00  78.22 2535.10
   15:25:35.173.25-Dec-2020 4892.01 2718.43 65.38 4.00  78.42 2535.10
   15:25:35.373.25-Dec-2020 4892.01 2718.54 65.38 4.00  78.62 2535.10
   15:25:35.573.25-Dec-2020 4892.01 2718.33 65.38 4.00  78.82 2535.10
   15:25:35.773.25-Dec-2020 4892.01 2718.55 65.38 4.00  79.02 2535.10
   15:25:35.973.25-Dec-2020 4892.01 2718.49 65.38 4.00  79.22 2535.10
   15:25:36.173.25-Dec-2020 4892.01 2718.63 65.38 4.00  79.42 2535.10
   15:25:36.373.25-Dec-2020 4892.01 2718.39 65.38 4.00  79.62 2535.10
   15:25:36.573.25-Dec-2020 4892.01 2718.75 65.38 4.00  79.82 2535.10
   15:25:36.773.25-Dec-2020 4892.01 2718.44 65.38 4.00  80.02 2535.10
   15:25:36.973.25-Dec-2020 4892.01 2718.44 65.38 4.00  80.22 2535.10
   15:25:37.173.25-Dec-2020 4892.01 2718.51 65.38 4.00  80.42 2535.10
   15:25:37.373.25-Dec-2020 4892.01 2718.52 65.38 4.00  80.62 2535.10
   15:25:37.573.25-Dec-2020 4892.01 2718.58 65.38 4.00  80.82 2535.10
   15:25:37.773.25-Dec-2020 4892.01 2718.59 65.38 4.00  81.02 2535.10
   15:25:37.973.25-Dec-2020 4892.01 2718.59 65.38 4.00  81.22 2535.10
   15:25:38.174.25-Dec-2020 4892.01 2718.63 65.38 4.00  81.42 2535.10
   15:25:38.374.25-Dec-2020 4892.01 2718.65 65.38 4.00  81.62 2535.10
   15:25:38.574.25-Dec-2020 4892.01 2718.66 65.38 4.00  81.82 2535.10
   15:25:38.774.25-Dec-2020 4892.01 2718.73 65.38 4.00  82.02 2535.10
   15:25:38.974.25-Dec-2020 4892.01 2718.73 65.38 4.00  82.22 2535.10
   15:25:39.174.25-Dec-2020 4892.01 2718.64 65.38 4.00  82.42 2535.10
   15:25:39.374.25-Dec-2020 4892.01 2718.55 65.38 4.00  82.62 2535.10
   15:25:39.574.25-Dec-2020 4892.01 2718.50 65.38 4.00  82.82 2535.10
   15:25:39.774.25-Dec-2020 4892.01 2718.61 65.38 4.00  83.02 2535.10
   15:25:39.974.25-Dec-2020 4892.01 2718.56 65.38 4.00  83.22 2535.10
   15:25:40.174.25-Dec-2020 4892.01 2718.61 65.38 4.00  83.42 2535.10
   15:25:40.374.25-Dec-2020 4892.01 2718.64 65.38 4.00  83.62 2535.10
   15:25:40.574.25-Dec-2020 4892.01 2718.64 65.38 4.00  83.82 2535.10
   15:25:40.774.25-Dec-2020 4892.01 2718.66 65.38 4.00  84.02 2535.10
   15:25:40.974.25-Dec-2020 4892.01 2718.66 65.38 4.00  84.22 2535.10
   15:25:41.174.25-Dec-2020 4892.01 2718.90 65.38 4.00  84.42 2535.10
   15:25:41.374.25-Dec-2020 4892.01 2718.42 65.38 4.00  84.62 2535.10
   15:25:41.574.25-Dec-2020 4892.01 2718.61 65.38 4.00  84.82 2535.10
   15:25:41.775.25-Dec-2020 4892.01 2718.52 65.38 4.00  85.02 2535.10
   15:25:41.975.25-Dec-2020 4892.01 2718.52 65.38 4.00  85.22 2535.10
   15:25:42.175.25-Dec-2020 4892.01 2718.72 65.38 4.00  85.42 2535.10
   15:25:42.375.25-Dec-2020 4892.01 2718.34 65.38 4.00  85.62 2535.10
   15:25:42.575.25-Dec-2020 4892.01 2718.64 65.38 4.00  85.82 2535.10
   15:25:42.775.25-Dec-2020 4892.01 2718.55 65.38 4.00  86.02 2535.10
   15:25:42.975.25-Dec-2020 4892.01 2718.55 65.38 4.00  86.22 2535.10
   15:25:43.175.25-Dec-2020 4892.01 2718.54 65.38 4.00  86.42 2535.10
   15:25:43.375.25-Dec-2020 4892.01 2718.56 65.38 4.00  86.62 2535.10
   15:25:43.575.25-Dec-2020 4892.01 2718.61 65.38 4.00  86.82 2535.10
   15:25:43.775.25-Dec-2020 4892.01 2718.59 65.38 4.00  87.02 2535.10
   15:25:43.975.25-Dec-2020 4892.01 2718.39 65.38 4.00  87.22 2535.10
   15:25:44.175.25-Dec-2020 4892.01 2718.65 65.38 4.00  87.42 2535.10
   15:25:44.375.25-Dec-2020 4892.01 2718.52 65.38 4.00  87.62 2535.10
   15:25:44.575.25-Dec-2020 4892.01 2718.48 65.38 4.00  87.82 2535.10
   15:25:44.775.25-Dec-2020 4892.01 2718.57 65.38 4.00  88.02 2535.10
   15:25:44.975.25-Dec-2020 4892.01 2718.57 65.38 4.00  88.22 2535.10
   15:25:45.175.25-Dec-2020 4892.01 2718.58 65.38 4.00  88.42 2535.10
   15:25:45.375.25-Dec-2020 4892.01 2718.61 65.38 4.00  88.62 2535.10
   15:25:45.576.25-Dec-2020 4892.01 2718.61 65.38 4.00  88.82 2535.10
   15:25:45.776.25-Dec-2020 4892.01 2718.61 65.38 4.00  89.02 2535.10
   15:25:45.976.25-Dec-2020 4892.01 2718.61 65.38 4.00  89.22 2535.10
   15:25:46.176.25-Dec-2020 4892.01 2718.65 65.38 4.00  89.42 2535.10
   15:25:46.376.25-Dec-2020 4892.01 2718.56 65.38 4.00  89.62 2535.10
   15:25:46.576.25-Dec-2020 4892.01 2718.53 65.38 4.00  89.82 2535.10
   15:25:46.776.25-Dec-2020 4892.01 2718.64 65.38 4.00  90.02 2535.10
   15:25:46.976.25-Dec-2020 4892.01 2718.64 65.38 4.00  90.22 2535.10
   15:25:47.176.25-Dec-2020 4892.01 2718.52 65.38 4.00  90.42 2535.10
   15:25:47.376.25-Dec-2020 4892.01 2718.61 65.38 4.00  90.62 2535.10
   15:25:47.576.25-Dec-2020 4892.01 2718.60 65.38 4.00  90.82 2535.10
   15:25:47.776.25-Dec-2020 4892.01 2718.61 65.38 4.00  91.02 2535.10
   15:25:47.976.25-Dec-2020 4892.01 2718.64 65.38 4.00  91.22 2535.10
   15:25:48.176.25-Dec-2020 4892.01 2718.64 65.38 4.00  91.42 2535.10
   15:25:48.376.25-Dec-2020 4892.01 2718.64 65.38 4.00  91.62 2535.10
   15:25:48.576.25-Dec-2020 4892.01 2718.66 65.38 4.00  91.82 2535.10
