~Version Information
 VERS.                  2.0:   CWLS log ASCII Standard -VERSION 2.0
 WRAP.                   NO:   One line per depth step
~Well Information Block
#MNEM.UNIT     VALUE/NAME     DESCRIPTION
#---------     -----------    ---------------------------
 STRT.S             13:36:27 25-Dec-20: START TIME 13:36:27 25-Dec-20
 STOP.S             13:44:49 25-Dec-20: STOP TIME  13:44:49 25-Dec-20
 STEP.S                   0.00: STEP TIME
 NULL.                 -999.25: NULL VALUE
 DFWT.                        :  DIST FWL TEXT
 DFST.                        :  DIST FSL TEXT
 DMF .             Drill Floor:  DRILL MEAS FROM
 STIM.      04.54.24 22-Sep-20:  START TIME
 DATE.      04.54.24 21-Nov-20:  END TIME
 SPUD.               21-Nov-20:  SPUD DATE
 NREF.                    Grid:  NORTH REFERENCE
 HPTY.       Minimum Curvature:  HOLE POS TYPE
 DMOD.             Drill Model:  DRILL MOD DESC
 SVYD.                  Survey:  SURVEY DESC
 ILTD.               Lithology:  INTERP LTH DESC
 FTOP.          Formation Tops:  FORM TOPS DESC
 SON .        AZ-XX-0906571587:  JOB NUMBER
 COMP.     BP Exploration (Caspian Sea) Ltd:  COMPANY
 UWI .                     N/A:  UNIQUE WELL IDENTIFIER
 API .                     N/A:  API NUMBER
 BASE.              Azerbaijan:  LOGGING EQUIPMENT BASE LOCATION
 REGN.                   EESSA:  REGION
 PROV.                    Baku:  PROVINCE
 STAT.                    Baku:  STATE NAME
 CTRY.              Azerbaijan:  COUNTRY NAME
 FLD .                     ACG:  FIELD NAME
 SRVC.     TURAN Drilling & Engineering:  CONTRACTOR
 WELL.                     J27:  WELL NAME
 RIG .             West Chirag:  RIG NAME
 DOE .                     N/A:  DOE NUMBER
 DCON.         Sperry Drilling:  DIRECTNL CONTR
 PDAT.          Mean Sea Level:  PERMANENT DATUM
 WTYP.                Deviated:  WELL TYPE
 MWDS.                    Baku:  MWD SHOP
 JOBN.        AZ-XX-0906571587:  JOB TICKET NUMB
 UNIT.                     N/A:  LOGGING EQUIPMENT ID
 MDS .        Operator Entered:  MAG DATA SOURCE
 CNTY.                        :  COUNTY
 LOC .                        :  LOCATION
 LMF .             Drill Floor:  LOG MEASURED FROM
 TVDS.m                  43.00:  TVDSS CORRECTN
 LATI.deg                40.13:  LATITUDE
 LONG.deg                51.22:  LONGITUDE
 WHNS.m                   7.72:  WELL HEAD N/S
 WHEW.m                 -14.24:  WELL HEAD E/W
 UTMX.m              519005.06:  UTM X
 UTMY.m             4443793.85:  UTM Y
 DFWL.m                   0.00:  DISTANCE FWL
 DFSL.m                   0.00:  DISTANCE FSL
 SDEP.m                 347.00:  START DEPTH
 TDD .m                 581.00:  TOTAL DEPTH (DRILLER)
 VSDR.deg               159.72:  VERT SEC DIRECT
 GVFD.g                   1.00:  GRAVITY FIELD
 MFLD.nT              50318.00:  MAGNETIC FIELD
 MDIP.deg                59.57:  MAGNETIC DIP
 MDEC.deg                 6.44:  MAGNETIC DECL
 GRDC.deg                 0.15:  GRID CORRECTION
 AZTC.deg                 6.29:  AZM TOTAL CORR
 EPD .m                   0.00:  ELEVATION
 EGL .m                   0.00:  GROUND ELEVATION
 WDMS.m                 169.80:  WD ELEV
 APD .m                  43.00:  DEPTH ABOVE PD
 AGAP.m                  43.00:  AIR GAP
 VSEW.m                 -14.24:  VERT SEC E/W
 VSNS.m                   7.72:  VERT SEC N/S
 DEP .m                 342.45:  DEPTH
 EKB .m                   0.00:  KB ELEVATION
 EDF .m                  43.00:  DF ELEVATION
 TDL .m                 237.00:  TOTAL DEPTH (LOGGER)
 VSC .                       0:  VS TO CLOSURE
 MAGU.                 1851428:  MAGUTM CHECKSUM
~Parameter Information Block
#MNEM.UNIT       Value        Description
#---------     -----------    ---------------------------
 AV  .mps                 1.50:  Ann Velocity 
 AVMX.mps                 2.90:  Max Ann Veloc 
 AZIF.deg               115.59:  Azm, Final 
 BHAT.        Rotary Steerable:  BHA Type 
 BROT.°/30m               0.50:  Build Rotating 
 BS  .in                  8.50:  Bit Size 
 BTPL.psig              580.00:  Bit Press Loss 
 CABU.                     Yes:  Customer Abuse 
 COMM.                     lW:  Run Comments 1 
 TCS .hr                 89.79:  Time Ciculation Ended 
 CV  .mps                 3.22:  Crit Velocity 
 CVMX.mps                 4.37:  Max Crit Veloc 
 DD1 .          Rashad Habibov:  Direct Drillr 1 
 DDSV.               Geo-Pilot:  DD Service 
 DEFF.%                  95.00:  % Det Eff 
 DLRX.°/30m               1.94:  Dogleg Rot Max 
 DLSO.°/30m               0.70:  Dogleg Oriented 
 DLSX.°/30m               1.94:  Dogleg Str Max 
 DRET.      04.45.00 25-Dec-20:  Drill End Time 
 DRST.      10.00.00 24-Dec-20:  Drill Start Tim 
 DTIM.hr                 16.64:  Time Drilling 
 EDEP.m                4999.01:  End Depth 
 ENG1.         Elchin Mammadov:  Engineer 1 
 ENG2.          Ruslan Safarov:  Engineer 2 
 ENG3.          Rustam Safarov:  Engineer 3 
 ETIM.      09.00.00 29-Dec-20:  End Time 
 FLOI.gpm               500.00:  Flow In 
 FLON.gpm               400.00:  Flow In Min 
 FLOS.cptm                0.00:  Fluid Loss 
 FLOX.gpm               500.00:  Flow In Max 
 HFLO.                      No:  High Flow 
 HPRE.                      No:  High Pressure 
 HTEM.                      No:  High Temp 
 HYDO.m                   2.00:  Hydro Offset 
 IFIN.deg                66.79:  Inc, Final 
 IMAX.deg                67.66:  Inc Max 
 IMIN.deg                66.39:  Inc Min 
 IMND.m                4949.37:  Inc Min Depth 
 IMXD.m                4778.63:  Inc Max Depth 
 JARR.                     Yes:  Jarring 
 LETM.      04.45.00 25-Dec-20:  Log End Time 
 LOST.hr                     0:  Lost Rig Time 
 LSTM.      10.00.00 24-Dec-20:  Log Start Time 
 MDCL.ppm             39000.00:  Mud Chlorides 
 MDES.     Inversion Oil/Synthetic:  Mud Desc 
 DFD .sg                  1.33:  Mud Density 
 MDMN.sg                  1.33:  Dens Mud Min 
 MDMX.sg                  1.33:  Dens Mud Max 
 MOIL.                      70:  Run Mud Oil % 
 MOWR.                   70:30:  Run Mud OWR 
 MSND.                       0:  Run Mud Sand % 
 MSOL.                    17.4:  Run Mud Solids% 
 DFV .spqt               84.00:  Mud Viscosity 
 MWOD.in                  6.75:  MWD Tool OD 
 MWSI.                     Yes:  Serv Intrp, MWD 
 OTIM.hr                168.14:  Time Operating 
 PCON.           Look Like New:  Pad Condition 
 PMAX.psia            10822.93:  Press Op, Max 
 PV  .cP                 30.00:  Mud PV 
 RUN .                     900:  Run Number 
 ROPA.m/hr               18.00:  ROP Avg 
 ROPN.m/hr               12.00:  ROP Min 
 ROPX.m/hr               25.00:  ROP Max 
 RPMA.rpm               120.00:  RPM Surface Avg 
 RPMN.rpm               100.00:  RPM Surface Min 
 RPMX.rpm               120.00:  RPM Surface Max 
 RRUN.                    0900:  Rig Run Number 
 SAZI.deg               115.08:  Azm, Start 
 SDEP.m                4762.01:  Start Depth 
 SIDD.                      No:  Serv Intrp, DD 
 SINC.deg                66.14:  Inc, Start 
 SPPA.psig             3700.00:  SPP Avg 
 SPPN.psig             3620.00:  SPP Min 
 SPPX.psig             3900.00:  SPP Max 
 STIM.      09.30.00 22-Dec-20:  Start Time 
 SVCS.                 DD, MWD:  Services 
 SVER.                    9.20:  Sperry Version 
 TDAT.m                 237.00:  Tot Depth Attmp 
 TDDF.                      No:  Trip for DD 
 TDLG.m                 237.00:  Tot Depth Loggd 
 TFF .                      No:  Trip for Fail 
 TQAA.f-kp               18.00:  Torque Abs Avg 
 TQAN.f-kp               17.00:  Torque Abs Min 
 TQAX.f-kp               20.00:  Torque Abs Max 
 TRRT.°/30m               0.60:  Turn Rotating 
 MRT .                    HCIM:  Maximum Recorded Temperature 
 TTMX.degC               94.12:  Max Tool Temp 
 VS01.                90627809:  Virtual Str1 SN 
 VS02.                90527813:  Virtual Str2 SN 
 VS03.                90545417:  Virtual Str3 SN 
 VS04.                12460870:  Virtual Str4 SN 
 VS05.                90516706:  Virtual Str5 SN 
 VS06.                90632007:  Virtual Str6 SN 
 WBMN.klb                 0.00:  WOB Min 
 WOBA.klb                14.00:  WOB Avg 
 WOBX.klb                25.00:  WOB Max 
 YP  .lhf2               32.00:  Yield Point 
~Curve Information Block
#MNEM.UNIT                 API CODE     Curve Description
#---------               -----------    ---------------------------
 TIME.HHMMSS            00 000 000 000:  GT Time & Date
 GTDEPTH.m              00 000 000 000:  GT Depth
 GTPQH.psia             00 000 000 000:  GT HR Quartz Pressure
 GTTQ.degC              00 000 000 000:  GT Quartz Temperature
 GTTN.NONE              00 000 000 000:  GT Test Number
 GTET.sec               00 000 000 000:  GT Elapsed Test Time
 GTTVD.m                00 000 000 000:  GT True Vertical Depth
#Other Information
#
#WARRANTY: Halliburton will use its best efforts to furnish customers with 
#accurate information and interpretations that are part of, and incident to, the services 
#provided.  However, Halliburton cannot and does not warrant the accuracy 
#or correctness of such information and interpretations.  Under no circumstances should any 
#such information or interpretation be relied upon as the sole basis for any drilling, 
#completion, production, or financial decision or any procedure involving any risk to the 
#safety of any drilling venture, drilling rig or its crew or any other third party.  The 
#Customer has full responsibility for all drilling, completion and production operation.  
#Halliburton makes no representations or warranties, either expressed or 
#implied, including, but not limited to, the implied warranties of merchantability or fitness 
#for a particular purpose, with respect to the services rendered.  In no event will 
#Halliburton be liable for failure to obtain any particular results or for 
#any damages, including, but not limited to, indirect, special or consequential damages, 
#resulting from the use of any information or interpretation provided by Halliburton.
#
~A           TIME           GTDEPTH  GTPQH  GTTQ  GTTN  GTET   GTTVD  
# ...
   13:44:30.000.25-Dec-2020 4921.01 5527.16 66.32 2.00 483.00 2546.48
   13:44:30.200.25-Dec-2020 4921.01 5527.16 66.32 2.00 483.20 2546.48
   13:44:30.400.25-Dec-2020 4921.01 5528.21 66.32 2.00 483.40 2546.48
   13:44:30.600.25-Dec-2020 4921.01 5530.51 66.32 2.00 483.60 2546.48
   13:44:30.800.25-Dec-2020 4921.01 5529.13 66.32 2.00 483.80 2546.48
   13:44:31.000.25-Dec-2020 4921.01 5530.87 66.32 2.00 484.00 2546.48
   13:44:31.200.25-Dec-2020 4921.01 5530.87 66.32 2.00 484.20 2546.48
   13:44:31.400.25-Dec-2020 4921.01 5528.89 66.32 2.00 484.40 2546.48
   13:44:31.600.25-Dec-2020 4921.01 5528.24 66.32 2.00 484.60 2546.48
   13:44:31.800.25-Dec-2020 4921.01 5530.24 66.32 2.00 484.80 2546.48
   13:44:32.000.25-Dec-2020 4921.01 5529.46 66.32 2.00 485.00 2546.48
   13:44:32.200.25-Dec-2020 4921.01 5529.46 66.32 2.00 485.20 2546.48
   13:44:32.400.25-Dec-2020 4921.01 5529.44 66.32 2.00 485.40 2546.48
   13:44:32.600.25-Dec-2020 4921.01 5527.36 66.32 2.00 485.60 2546.48
   13:44:32.800.25-Dec-2020 4921.01 5528.25 66.32 2.00 485.80 2546.48
   13:44:33.000.25-Dec-2020 4921.01 5534.55 66.32 2.00 486.00 2546.48
   13:44:33.200.25-Dec-2020 4921.01 5534.55 66.32 2.00 486.20 2546.48
   13:44:33.400.25-Dec-2020 4921.01 5530.19 66.31 2.00 486.40 2546.48
   13:44:33.600.25-Dec-2020 4921.01 5530.92 66.31 2.00 486.60 2546.48
   13:44:33.800.25-Dec-2020 4921.01 5538.27 66.31 2.00 486.80 2546.48
   13:44:34.000.25-Dec-2020 4921.01 5530.53 66.31 2.00 487.00 2546.48
   13:44:34.200.25-Dec-2020 4921.01 5530.53 66.31 2.00 487.20 2546.48
   13:44:34.400.25-Dec-2020 4921.01 5530.36 66.31 2.00 487.40 2546.48
   13:44:34.600.25-Dec-2020 4921.01 5542.88 66.31 2.00 487.60 2546.48
   13:44:34.800.25-Dec-2020 4921.01 5528.84 66.31 2.00 487.80 2546.48
   13:44:35.000.25-Dec-2020 4921.01 5531.75 66.31 2.00 488.00 2546.48
   13:44:35.200.25-Dec-2020 4921.01 5531.75 66.31 2.00 488.20 2546.48
   13:44:35.400.25-Dec-2020 4921.01 5535.72 66.31 2.00 488.40 2546.48
   13:44:35.600.25-Dec-2020 4921.01 5529.17 66.31 2.00 488.60 2546.48
   13:44:35.800.25-Dec-2020 4921.01 5529.44 66.31 2.00 488.80 2546.48
   13:44:36.000.25-Dec-2020 4921.01 5532.37 66.31 2.00 489.00 2546.48
   13:44:36.200.25-Dec-2020 4921.01 5532.37 66.31 2.00 489.20 2546.48
   13:44:36.400.25-Dec-2020 4921.01 5530.98 66.31 2.00 489.40 2546.48
   13:44:36.600.25-Dec-2020 4921.01 5527.67 66.31 2.00 489.60 2546.48
   13:44:36.800.25-Dec-2020 4921.01 5529.45 66.31 2.00 489.80 2546.48
   13:44:37.000.25-Dec-2020 4921.01 5529.56 66.31 2.00 490.00 2546.48
   13:44:37.200.25-Dec-2020 4921.01 5529.56 66.31 2.00 490.20 2546.48
   13:44:37.400.25-Dec-2020 4921.01 5529.13 66.31 2.00 490.40 2546.48
   13:44:37.600.25-Dec-2020 4921.01 5527.48 66.30 2.00 490.60 2546.48
   13:44:37.800.25-Dec-2020 4921.01 5534.55 66.30 2.00 490.80 2546.48
   13:44:38.000.25-Dec-2020 4921.01 5531.99 66.30 2.00 491.00 2546.48
   13:44:38.200.25-Dec-2020 4921.01 5531.99 66.30 2.00 491.20 2546.48
   13:44:38.400.25-Dec-2020 4921.01 5534.21 66.30 2.00 491.40 2546.48
   13:44:38.600.25-Dec-2020 4921.01 5530.76 66.30 2.00 491.60 2546.48
   13:44:38.800.25-Dec-2020 4921.01 5530.11 66.30 2.00 491.80 2546.48
   13:44:39.000.25-Dec-2020 4921.01 5529.80 66.30 2.00 492.00 2546.48
   13:44:39.200.25-Dec-2020 4921.01 5529.80 66.30 2.00 492.20 2546.48
   13:44:39.400.25-Dec-2020 4921.01 5531.29 66.30 2.00 492.40 2546.48
   13:44:39.600.25-Dec-2020 4921.01 5529.67 66.30 2.00 492.60 2546.48
   13:44:39.800.25-Dec-2020 4921.01 5529.25 66.30 2.00 492.80 2546.48
   13:44:40.000.25-Dec-2020 4921.01 5529.75 66.30 2.00 493.00 2546.48
   13:44:40.200.25-Dec-2020 4921.01 5529.75 66.30 2.00 493.20 2546.48
   13:44:40.400.25-Dec-2020 4921.01 5537.75 66.30 2.00 493.40 2546.48
   13:44:40.600.25-Dec-2020 4921.01 5530.58 66.30 2.00 493.60 2546.48
   13:44:40.800.25-Dec-2020 4921.01 5529.72 66.30 2.00 493.80 2546.48
   13:44:41.000.25-Dec-2020 4921.01 5530.51 66.30 2.00 494.00 2546.48
   13:44:41.200.25-Dec-2020 4921.01 5530.51 66.30 2.00 494.20 2546.48
   13:44:41.400.25-Dec-2020 4921.01 5540.50 66.30 2.00 494.40 2546.48
   13:44:41.600.25-Dec-2020 4921.01 5530.13 66.30 2.00 494.60 2546.48
   13:44:41.800.25-Dec-2020 4921.01 5529.90 66.30 2.00 494.80 2546.48
   13:44:42.000.25-Dec-2020 4921.01 5540.01 66.30 2.00 495.00 2546.48
   13:44:42.200.25-Dec-2020 4921.01 5540.01 66.30 2.00 495.20 2546.48
   13:44:42.400.25-Dec-2020 4921.01 5530.75 66.29 2.00 495.40 2546.48
   13:44:42.600.25-Dec-2020 4921.01 5539.30 66.29 2.00 495.60 2546.48
   13:44:42.800.25-Dec-2020 4921.01 5532.35 66.29 2.00 495.80 2546.48
   13:44:43.000.25-Dec-2020 4921.01 5532.21 66.29 2.00 496.00 2546.48
   13:44:43.200.25-Dec-2020 4921.01 5532.21 66.29 2.00 496.20 2546.48
   13:44:43.400.25-Dec-2020 4921.01 5529.93 66.29 2.00 496.40 2546.48
   13:44:43.600.25-Dec-2020 4921.01 5529.07 66.29 2.00 496.60 2546.48
   13:44:43.800.25-Dec-2020 4921.01 5528.06 66.29 2.00 496.80 2546.48
   13:44:44.000.25-Dec-2020 4921.01 5528.89 66.29 2.00 497.00 2546.48
   13:44:44.200.25-Dec-2020 4921.01 5528.89 66.29 2.00 497.20 2546.48
   13:44:44.400.25-Dec-2020 4921.01 5529.12 66.29 2.00 497.40 2546.48
   13:44:44.600.25-Dec-2020 4921.01 5528.48 66.29 2.00 497.60 2546.48
   13:44:44.800.25-Dec-2020 4921.01 5527.56 66.29 2.00 497.80 2546.48
   13:44:45.000.25-Dec-2020 4921.01 5541.58 66.29 2.00 498.00 2546.48
   13:44:45.200.25-Dec-2020 4921.01 5541.58 66.29 2.00 498.20 2546.48
   13:44:45.400.25-Dec-2020 4921.01 5532.03 66.29 2.00 498.40 2546.48
   13:44:45.600.25-Dec-2020 4921.01 5528.79 66.29 2.00 498.60 2546.48
   13:44:45.800.25-Dec-2020 4921.01 5530.07 66.29 2.00 498.80 2546.48
   13:44:46.000.25-Dec-2020 4921.01 5531.20 66.29 2.00 499.00 2546.48
   13:44:46.200.25-Dec-2020 4921.01 5531.20 66.29 2.00 499.20 2546.48
   13:44:46.400.25-Dec-2020 4921.01 5529.85 66.29 2.00 499.40 2546.48
   13:44:46.600.25-Dec-2020 4921.01 5529.38 66.29 2.00 499.60 2546.48
   13:44:46.800.25-Dec-2020 4921.01 5528.63 66.29 2.00 499.80 2546.48
   13:44:47.000.25-Dec-2020 4921.01 5530.21 66.29 2.00 500.00 2546.48
   13:44:47.200.25-Dec-2020 4921.01 5530.21 66.29 2.00 500.20 2546.48
   13:44:47.400.25-Dec-2020 4921.01 5528.51 66.28 2.00 500.40 2546.48
   13:44:47.600.25-Dec-2020 4921.01 5528.50 66.28 2.00 500.60 2546.48
   13:44:47.800.25-Dec-2020 4921.01 5533.61 66.28 2.00 500.80 2546.48
   13:44:48.000.25-Dec-2020 4921.01 5531.43 66.28 2.00 501.00 2546.48
   13:44:48.200.25-Dec-2020 4921.01 5531.43 66.28 2.00 501.20 2546.48
   13:44:48.400.25-Dec-2020 4921.01 5531.44 66.28 2.00 501.40 2546.48
   13:44:48.600.25-Dec-2020 4921.01 5541.78 66.28 2.00 501.60 2546.48
   13:44:48.800.25-Dec-2020 4921.01 5527.44 66.28 2.00 501.80 2546.48
   13:44:49.000.25-Dec-2020 4921.01 5531.94 66.28 2.00 502.00 2546.48
   13:44:49.200.25-Dec-2020 4921.01 5531.94 66.28 2.00 502.20 2546.48
   13:44:49.400.25-Dec-2020 4921.01 5541.58 66.28 2.00 502.40 2546.48
   13:44:49.600.25-Dec-2020 4921.01 5529.66 66.28 2.00 502.60 2546.48
   13:44:49.800.25-Dec-2020 4921.01 5530.82 66.28 2.00 502.80 2546.48
