~Version Information
 VERS.                  2.0:   CWLS log ASCII Standard -VERSION 2.0
 WRAP.                   NO:   One line per depth step
~Well Information Block
#MNEM.UNIT     VALUE/NAME     DESCRIPTION
#---------     -----------    ---------------------------
 STRT.S             12:53:37 25-Dec-20: START TIME 12:53:37 25-Dec-20
 STOP.S             13:01:52 25-Dec-20: STOP TIME  13:01:52 25-Dec-20
 STEP.S                   0.00: STEP TIME
 NULL.                 -999.25: NULL VALUE
 DFWT.                        :  DIST FWL TEXT
 DFST.                        :  DIST FSL TEXT
 DMF .             Drill Floor:  DRILL MEAS FROM
 STIM.      04.54.24 22-Sep-20:  START TIME
 DATE.      04.54.24 21-Nov-20:  END TIME
 SPUD.               21-Nov-20:  SPUD DATE
 NREF.                    Grid:  NORTH REFERENCE
 HPTY.       Minimum Curvature:  HOLE POS TYPE
 DMOD.             Drill Model:  DRILL MOD DESC
 SVYD.                  Survey:  SURVEY DESC
 ILTD.               Lithology:  INTERP LTH DESC
 FTOP.          Formation Tops:  FORM TOPS DESC
 SON .        AZ-XX-0906571587:  JOB NUMBER
 COMP.     BP Exploration (Caspian Sea) Ltd:  COMPANY
 UWI .                     N/A:  UNIQUE WELL IDENTIFIER
 API .                     N/A:  API NUMBER
 BASE.              Azerbaijan:  LOGGING EQUIPMENT BASE LOCATION
 REGN.                   EESSA:  REGION
 PROV.                    Baku:  PROVINCE
 STAT.                    Baku:  STATE NAME
 CTRY.              Azerbaijan:  COUNTRY NAME
 FLD .                     ACG:  FIELD NAME
 SRVC.     TURAN Drilling & Engineering:  CONTRACTOR
 WELL.                     J27:  WELL NAME
 RIG .             West Chirag:  RIG NAME
 DOE .                     N/A:  DOE NUMBER
 DCON.         Sperry Drilling:  DIRECTNL CONTR
 PDAT.          Mean Sea Level:  PERMANENT DATUM
 WTYP.                Deviated:  WELL TYPE
 MWDS.                    Baku:  MWD SHOP
 JOBN.        AZ-XX-0906571587:  JOB TICKET NUMB
 UNIT.                     N/A:  LOGGING EQUIPMENT ID
 MDS .        Operator Entered:  MAG DATA SOURCE
 CNTY.                        :  COUNTY
 LOC .                        :  LOCATION
 LMF .             Drill Floor:  LOG MEASURED FROM
 TVDS.m                  43.00:  TVDSS CORRECTN
 LATI.deg                40.13:  LATITUDE
 LONG.deg                51.22:  LONGITUDE
 WHNS.m                   7.72:  WELL HEAD N/S
 WHEW.m                 -14.24:  WELL HEAD E/W
 UTMX.m              519005.06:  UTM X
 UTMY.m             4443793.85:  UTM Y
 DFWL.m                   0.00:  DISTANCE FWL
 DFSL.m                   0.00:  DISTANCE FSL
 SDEP.m                 347.00:  START DEPTH
 TDD .m                 581.00:  TOTAL DEPTH (DRILLER)
 VSDR.deg               159.72:  VERT SEC DIRECT
 GVFD.g                   1.00:  GRAVITY FIELD
 MFLD.nT              50318.00:  MAGNETIC FIELD
 MDIP.deg                59.57:  MAGNETIC DIP
 MDEC.deg                 6.44:  MAGNETIC DECL
 GRDC.deg                 0.15:  GRID CORRECTION
 AZTC.deg                 6.29:  AZM TOTAL CORR
 EPD .m                   0.00:  ELEVATION
 EGL .m                   0.00:  GROUND ELEVATION
 WDMS.m                 169.80:  WD ELEV
 APD .m                  43.00:  DEPTH ABOVE PD
 AGAP.m                  43.00:  AIR GAP
 VSEW.m                 -14.24:  VERT SEC E/W
 VSNS.m                   7.72:  VERT SEC N/S
 DEP .m                 342.45:  DEPTH
 EKB .m                   0.00:  KB ELEVATION
 EDF .m                  43.00:  DF ELEVATION
 TDL .m                 237.00:  TOTAL DEPTH (LOGGER)
 VSC .                       0:  VS TO CLOSURE
 MAGU.                 1851428:  MAGUTM CHECKSUM
~Parameter Information Block
#MNEM.UNIT       Value        Description
#---------     -----------    ---------------------------
 AV  .mps                 1.50:  Ann Velocity 
 AVMX.mps                 2.90:  Max Ann Veloc 
 AZIF.deg               115.59:  Azm, Final 
 BHAT.        Rotary Steerable:  BHA Type 
 BROT.°/30m               0.50:  Build Rotating 
 BS  .in                  8.50:  Bit Size 
 BTPL.psig              580.00:  Bit Press Loss 
 CABU.                     Yes:  Customer Abuse 
 COMM.                     LÓw:  Run Comments 1 
 TCS .hr                 89.79:  Time Ciculation Ended 
 CV  .mps                 3.22:  Crit Velocity 
 CVMX.mps                 4.37:  Max Crit Veloc 
 DD1 .          Rashad Habibov:  Direct Drillr 1 
 DDSV.               Geo-Pilot:  DD Service 
 DEFF.%                  95.00:  % Det Eff 
 DLRX.°/30m               1.94:  Dogleg Rot Max 
 DLSO.°/30m               0.70:  Dogleg Oriented 
 DLSX.°/30m               1.94:  Dogleg Str Max 
 DRET.      04.45.00 25-Dec-20:  Drill End Time 
 DRST.      10.00.00 24-Dec-20:  Drill Start Tim 
 DTIM.hr                 16.64:  Time Drilling 
 EDEP.m                4999.01:  End Depth 
 ENG1.         Elchin Mammadov:  Engineer 1 
 ENG2.          Ruslan Safarov:  Engineer 2 
 ENG3.          Rustam Safarov:  Engineer 3 
 ETIM.      09.00.00 29-Dec-20:  End Time 
 FLOI.gpm               500.00:  Flow In 
 FLON.gpm               400.00:  Flow In Min 
 FLOS.cptm                0.00:  Fluid Loss 
 FLOX.gpm               500.00:  Flow In Max 
 HFLO.                      No:  High Flow 
 HPRE.                      No:  High Pressure 
 HTEM.                      No:  High Temp 
 HYDO.m                   2.00:  Hydro Offset 
 IFIN.deg                66.79:  Inc, Final 
 IMAX.deg                67.66:  Inc Max 
 IMIN.deg                66.39:  Inc Min 
 IMND.m                4949.37:  Inc Min Depth 
 IMXD.m                4778.63:  Inc Max Depth 
 JARR.                     Yes:  Jarring 
 LETM.      04.45.00 25-Dec-20:  Log End Time 
 LOST.hr                     0:  Lost Rig Time 
 LSTM.      10.00.00 24-Dec-20:  Log Start Time 
 MDCL.ppm             39000.00:  Mud Chlorides 
 MDES.     Inversion Oil/Synthetic:  Mud Desc 
 DFD .sg                  1.33:  Mud Density 
 MDMN.sg                  1.33:  Dens Mud Min 
 MDMX.sg                  1.33:  Dens Mud Max 
 MOIL.                      70:  Run Mud Oil % 
 MOWR.                   70:30:  Run Mud OWR 
 MSND.                       0:  Run Mud Sand % 
 MSOL.                    17.4:  Run Mud Solids% 
 DFV .spqt               84.00:  Mud Viscosity 
 MWOD.in                  6.75:  MWD Tool OD 
 MWSI.                     Yes:  Serv Intrp, MWD 
 OTIM.hr                168.14:  Time Operating 
 PCON.           Look Like New:  Pad Condition 
 PMAX.psia            10822.93:  Press Op, Max 
 PV  .cP                 30.00:  Mud PV 
 RUN .                     900:  Run Number 
 ROPA.m/hr               18.00:  ROP Avg 
 ROPN.m/hr               12.00:  ROP Min 
 ROPX.m/hr               25.00:  ROP Max 
 RPMA.rpm               120.00:  RPM Surface Avg 
 RPMN.rpm               100.00:  RPM Surface Min 
 RPMX.rpm               120.00:  RPM Surface Max 
 RRUN.                    0900:  Rig Run Number 
 SAZI.deg               115.08:  Azm, Start 
 SDEP.m                4762.01:  Start Depth 
 SIDD.                      No:  Serv Intrp, DD 
 SINC.deg                66.14:  Inc, Start 
 SPPA.psig             3700.00:  SPP Avg 
 SPPN.psig             3620.00:  SPP Min 
 SPPX.psig             3900.00:  SPP Max 
 STIM.      09.30.00 22-Dec-20:  Start Time 
 SVCS.                 DD, MWD:  Services 
 SVER.                    9.20:  Sperry Version 
 TDAT.m                 237.00:  Tot Depth Attmp 
 TDDF.                      No:  Trip for DD 
 TDLG.m                 237.00:  Tot Depth Loggd 
 TFF .                      No:  Trip for Fail 
 TQAA.f-kp               18.00:  Torque Abs Avg 
 TQAN.f-kp               17.00:  Torque Abs Min 
 TQAX.f-kp               20.00:  Torque Abs Max 
 TRRT.°/30m               0.60:  Turn Rotating 
 MRT .                    HCIM:  Maximum Recorded Temperature 
 TTMX.degC               94.12:  Max Tool Temp 
 VS01.                90627809:  Virtual Str1 SN 
 VS02.                90527813:  Virtual Str2 SN 
 VS03.                90545417:  Virtual Str3 SN 
 VS04.                12460870:  Virtual Str4 SN 
 VS05.                90516706:  Virtual Str5 SN 
 VS06.                90632007:  Virtual Str6 SN 
 WBMN.klb                 0.00:  WOB Min 
 WOBA.klb                14.00:  WOB Avg 
 WOBX.klb                25.00:  WOB Max 
 YP  .lhf2               32.00:  Yield Point 
~Curve Information Block
#MNEM.UNIT                 API CODE     Curve Description
#---------               -----------    ---------------------------
 TIME.HHMMSS            00 000 000 000:  GT Time & Date
 GTDEPTH.m              00 000 000 000:  GT Depth
 GTPQH.psia             00 000 000 000:  GT HR Quartz Pressure
 GTTQ.degC              00 000 000 000:  GT Quartz Temperature
 GTTN.NONE              00 000 000 000:  GT Test Number
 GTET.sec               00 000 000 000:  GT Elapsed Test Time
 GTTVD.m                00 000 000 000:  GT True Vertical Depth
#Other Information
#
#WARRANTY: Halliburton will use its best efforts to furnish customers with 
#accurate information and interpretations that are part of, and incident to, the services 
#provided.  However, Halliburton cannot and does not warrant the accuracy 
#or correctness of such information and interpretations.  Under no circumstances should any 
#such information or interpretation be relied upon as the sole basis for any drilling, 
#completion, production, or financial decision or any procedure involving any risk to the 
#safety of any drilling venture, drilling rig or its crew or any other third party.  The 
#Customer has full responsibility for all drilling, completion and production operation.  
#Halliburton makes no representations or warranties, either expressed or 
#implied, including, but not limited to, the implied warranties of merchantability or fitness 
#for a particular purpose, with respect to the services rendered.  In no event will 
#Halliburton be liable for failure to obtain any particular results or for 
#any damages, including, but not limited to, indirect, special or consequential damages, 
#resulting from the use of any information or interpretation provided by Halliburton.
#
~A           TIME           GTDEPTH  GTPQH  GTTQ  GTTN  GTET   GTTVD  
# ...
   12:56:41.268.25-Dec-2020 4950.51 1377.45 66.61 1.00 184.08 2558.08
   12:56:41.468.25-Dec-2020 4950.51 1377.45 66.61 1.00 184.28 2558.08
   12:56:41.668.25-Dec-2020 4950.51 1758.79 66.61 1.00 184.48 2558.08
   12:56:41.868.25-Dec-2020 4950.51 1863.93 66.61 1.00 184.68 2558.08
   12:56:42.068.25-Dec-2020 4950.51 1934.15 66.61 1.00 184.88 2558.08
   12:56:42.268.25-Dec-2020 4950.51 1979.75 66.61 1.00 185.08 2558.08
   12:56:42.468.25-Dec-2020 4950.51 1979.75 66.61 1.00 185.28 2558.08
   12:56:42.668.25-Dec-2020 4950.51 2031.38 66.61 1.00 185.48 2558.08
   12:56:42.868.25-Dec-2020 4950.51 2045.99 66.60 1.00 185.68 2558.08
   12:56:43.068.25-Dec-2020 4950.51 2055.92 66.61 1.00 185.88 2558.08
   12:56:43.268.25-Dec-2020 4950.51 2062.93 66.61 1.00 186.08 2558.08
   12:56:43.469.25-Dec-2020 4950.51 2062.93 66.61 1.00 186.28 2558.08
   12:56:43.669.25-Dec-2020 4950.51 2071.78 66.61 1.00 186.48 2558.08
   12:56:43.869.25-Dec-2020 4950.51 2074.09 66.61 1.00 186.68 2558.08
   12:56:44.069.25-Dec-2020 4950.51 2077.07 66.61 1.00 186.88 2558.08
   12:56:44.269.25-Dec-2020 4950.51 2078.20 66.61 1.00 187.08 2558.08
   12:56:44.469.25-Dec-2020 4950.51 2078.20 66.61 1.00 187.28 2558.08
   12:56:44.669.25-Dec-2020 4950.51 2080.62 66.61 1.00 187.48 2558.08
   12:56:44.869.25-Dec-2020 4950.51 2081.30 66.61 1.00 187.68 2558.08
   12:56:45.069.25-Dec-2020 4950.51 2081.79 66.61 1.00 187.88 2558.08
   12:56:45.269.25-Dec-2020 4950.51 2082.36 66.61 1.00 188.08 2558.08
   12:56:45.469.25-Dec-2020 4950.51 2082.36 66.61 1.00 188.28 2558.08
   12:56:45.670.25-Dec-2020 4950.51 2083.08 66.61 1.00 188.48 2558.08
   12:56:45.870.25-Dec-2020 4950.51 2083.35 66.61 1.00 188.69 2558.08
   12:56:46.070.25-Dec-2020 4950.51 2083.65 66.61 1.00 188.89 2558.08
   12:56:46.270.25-Dec-2020 4950.51 2083.84 66.61 1.00 189.09 2558.08
   12:56:46.470.25-Dec-2020 4950.51 2083.84 66.61 1.00 189.29 2558.08
   12:56:46.670.25-Dec-2020 4950.51 2085.14 66.61 1.00 189.49 2558.08
   12:56:46.870.25-Dec-2020 4950.51 2084.83 66.61 1.00 189.69 2558.08
   12:56:47.070.25-Dec-2020 4950.51 2085.26 66.61 1.00 189.89 2558.08
   12:56:47.270.25-Dec-2020 4950.51 2085.12 66.61 1.00 190.09 2558.08
   12:56:47.470.25-Dec-2020 4950.51 2085.12 66.61 1.00 190.29 2558.08
   12:56:47.670.25-Dec-2020 4950.51 2086.11 66.62 1.00 190.49 2558.08
   12:56:47.871.25-Dec-2020 4950.51 2085.55 66.62 1.00 190.69 2558.08
   12:56:48.071.25-Dec-2020 4950.51 2085.56 66.62 1.00 190.89 2558.08
   12:56:48.271.25-Dec-2020 4950.51 2086.50 66.62 1.00 191.09 2558.08
   12:56:48.471.25-Dec-2020 4950.51 2086.50 66.62 1.00 191.29 2558.08
   12:56:48.671.25-Dec-2020 4950.51 2086.24 66.62 1.00 191.49 2558.08
   12:56:48.871.25-Dec-2020 4950.51 2086.27 66.62 1.00 191.69 2558.08
   12:56:49.071.25-Dec-2020 4950.51 2085.88 66.62 1.00 191.89 2558.08
   12:56:49.271.25-Dec-2020 4950.51 2086.69 66.62 1.00 192.09 2558.08
   12:56:49.471.25-Dec-2020 4950.51 2086.69 66.62 1.00 192.29 2558.08
   12:56:49.671.25-Dec-2020 4950.51 2086.81 66.62 1.00 192.49 2558.08
   12:56:49.871.25-Dec-2020 4950.51 2086.79 66.62 1.00 192.69 2558.08
   12:56:50.072.25-Dec-2020 4950.51 2086.77 66.62 1.00 192.89 2558.08
   12:56:50.272.25-Dec-2020 4950.51 2086.56 66.62 1.00 193.09 2558.08
   12:56:50.472.25-Dec-2020 4950.51 2086.56 66.62 1.00 193.29 2558.08
   12:56:50.672.25-Dec-2020 4950.51 2086.77 66.62 1.00 193.49 2558.08
   12:56:50.872.25-Dec-2020 4950.51 2086.80 66.62 1.00 193.69 2558.08
   12:56:51.072.25-Dec-2020 4950.51 2086.82 66.62 1.00 193.89 2558.08
   12:56:51.272.25-Dec-2020 4950.51 2086.83 66.62 1.00 194.09 2558.08
   12:56:51.472.25-Dec-2020 4950.51 2086.83 66.62 1.00 194.29 2558.08
   12:56:51.672.25-Dec-2020 4950.51 2086.35 66.62 1.00 194.49 2558.08
   12:56:51.872.25-Dec-2020 4950.51 2087.68 66.62 1.00 194.69 2558.08
   12:56:52.072.25-Dec-2020 4950.51 2087.37 66.62 1.00 194.89 2558.08
   12:56:52.273.25-Dec-2020 4950.51 2087.61 66.62 1.00 195.09 2558.08
   12:56:52.473.25-Dec-2020 4950.51 2087.61 66.62 1.00 195.29 2558.08
   12:56:52.673.25-Dec-2020 4950.51 2087.39 66.62 1.00 195.49 2558.08
   12:56:52.873.25-Dec-2020 4950.51 2087.55 66.62 1.00 195.69 2558.08
   12:56:53.073.25-Dec-2020 4950.51 2087.55 66.62 1.00 195.89 2558.08
   12:56:53.273.25-Dec-2020 4950.51 2087.50 66.63 1.00 196.09 2558.08
   12:56:53.473.25-Dec-2020 4950.51 2087.50 66.63 1.00 196.29 2558.08
   12:56:53.673.25-Dec-2020 4950.51 2087.49 66.63 1.00 196.49 2558.08
   12:56:53.873.25-Dec-2020 4950.51 2087.52 66.63 1.00 196.69 2558.08
   12:56:54.073.25-Dec-2020 4950.51 2087.04 66.63 1.00 196.89 2558.08
   12:56:54.273.25-Dec-2020 4950.51 2088.14 66.63 1.00 197.09 2558.08
   12:56:54.473.25-Dec-2020 4950.51 2088.14 66.63 1.00 197.29 2558.08
   12:56:54.674.25-Dec-2020 4950.51 2088.02 66.63 1.00 197.49 2558.08
   12:56:54.874.25-Dec-2020 4950.51 2087.71 66.63 1.00 197.69 2558.08
   12:56:55.074.25-Dec-2020 4950.51 2088.07 66.63 1.00 197.89 2558.08
   12:56:55.274.25-Dec-2020 4950.51 2087.51 66.63 1.00 198.09 2558.08
   12:56:55.474.25-Dec-2020 4950.51 2087.51 66.63 1.00 198.29 2558.08
   12:56:55.674.25-Dec-2020 4950.51 2087.93 66.63 1.00 198.49 2558.08
   12:56:55.874.25-Dec-2020 4950.51 2088.30 66.63 1.00 198.69 2558.08
   12:56:56.074.25-Dec-2020 4950.51 2088.26 66.63 1.00 198.89 2558.08
   12:56:56.274.25-Dec-2020 4950.51 2087.50 66.63 1.00 199.09 2558.08
   12:56:56.474.25-Dec-2020 4950.51 2087.50 66.63 1.00 199.29 2558.08
   12:56:56.674.25-Dec-2020 4950.51 2088.36 66.63 1.00 199.49 2558.08
   12:56:56.875.25-Dec-2020 4950.51 2088.16 66.63 1.00 199.69 2558.08
   12:56:57.075.25-Dec-2020 4950.51 2088.27 66.63 1.00 199.89 2558.08
   12:56:57.275.25-Dec-2020 4950.51 2088.23 66.63 1.00 200.09 2558.08
   12:56:57.475.25-Dec-2020 4950.51 2088.23 66.63 1.00 200.29 2558.08
   12:56:57.675.25-Dec-2020 4950.51 2088.25 66.63 1.00 200.49 2558.08
   12:56:57.875.25-Dec-2020 4950.51 2088.21 66.63 1.00 200.69 2558.08
   12:56:58.075.25-Dec-2020 4950.51 2088.32 66.63 1.00 200.89 2558.08
   12:56:58.275.25-Dec-2020 4950.51 2088.33 66.63 1.00 201.09 2558.08
   12:56:58.475.25-Dec-2020 4950.51 2088.33 66.63 1.00 201.29 2558.08
   12:56:58.675.25-Dec-2020 4950.51 2087.96 66.63 1.00 201.49 2558.08
   12:56:58.875.25-Dec-2020 4950.51 2088.67 66.63 1.00 201.69 2558.08
   12:56:59.076.25-Dec-2020 4950.51 2088.34 66.63 1.00 201.89 2558.08
   12:56:59.276.25-Dec-2020 4950.51 2088.55 66.63 1.00 202.09 2558.08
   12:56:59.476.25-Dec-2020 4950.51 2088.55 66.63 1.00 202.29 2558.08
   12:56:59.676.25-Dec-2020 4950.51 2088.65 66.63 1.00 202.49 2558.08
   12:56:59.876.25-Dec-2020 4950.51 2088.59 66.63 1.00 202.69 2558.08
   12:57:00.076.25-Dec-2020 4950.51 2088.60 66.63 1.00 202.89 2558.08
   12:57:00.276.25-Dec-2020 4950.51 2088.53 66.63 1.00 203.09 2558.08
   12:57:00.476.25-Dec-2020 4950.51 2088.53 66.63 1.00 203.29 2558.08
   12:57:00.676.25-Dec-2020 4950.51 2088.60 66.63 1.00 203.49 2558.08
   12:57:00.876.25-Dec-2020 4950.51 2088.55 66.63 1.00 203.69 2558.08
   12:57:01.076.25-Dec-2020 4950.51 2088.47 66.63 1.00 203.89 2558.08
   12:57:01.277.25-Dec-2020 4950.51 2088.37 66.63 1.00 204.09 2558.08
   12:57:01.477.25-Dec-2020 4950.51 2088.37 66.63 1.00 204.29 2558.08
   12:57:01.677.25-Dec-2020 4950.51 2088.87 66.63 1.00 204.49 2558.08
   12:57:01.877.25-Dec-2020 4950.51 2088.09 66.63 1.00 204.69 2558.08
   12:57:02.077.25-Dec-2020 4950.51 2089.32 66.63 1.00 204.89 2558.08
   12:57:02.277.25-Dec-2020 4950.51 2088.55 66.63 1.00 205.09 2558.08
   12:57:02.477.25-Dec-2020 4950.51 2088.55 66.63 1.00 205.29 2558.08
   12:57:02.677.25-Dec-2020 4950.51 2089.42 66.63 1.00 205.49 2558.08
   12:57:02.877.25-Dec-2020 4950.51 2088.49 66.63 1.00 205.69 2558.08
   12:57:03.077.25-Dec-2020 4950.51 2089.22 66.63 1.00 205.89 2558.08
   12:57:03.277.25-Dec-2020 4950.51 2089.05 66.63 1.00 206.09 2558.08
   12:57:03.478.25-Dec-2020 4950.51 2089.05 66.63 1.00 206.29 2558.08
   12:57:03.678.25-Dec-2020 4950.51 2089.34 66.63 1.00 206.49 2558.08
   12:57:03.878.25-Dec-2020 4950.51 2089.08 66.63 1.00 206.69 2558.08
   12:57:04.078.25-Dec-2020 4950.51 2088.95 66.63 1.00 206.89 2558.08
