~Version Information
 VERS.                  2.0:   CWLS log ASCII Standard -VERSION 2.0
 WRAP.                   NO:   One line per depth step
~Well Information Block
#MNEM.UNIT     VALUE/NAME     DESCRIPTION
#---------     -----------    ---------------------------
 STRT.S             17:56:34 25-Dec-20: START TIME 17:56:34 25-Dec-20
 STOP.S             18:04:57 25-Dec-20: STOP TIME  18:04:57 25-Dec-20
 STEP.S                   0.00: STEP TIME
 NULL.                 -999.25: NULL VALUE
 DFWT.                        :  DIST FWL TEXT
 DFST.                        :  DIST FSL TEXT
 DMF .             Drill Floor:  DRILL MEAS FROM
 STIM.      04.54.24 22-Sep-20:  START TIME
 DATE.      04.54.24 21-Nov-20:  END TIME
 SPUD.               21-Nov-20:  SPUD DATE
 NREF.                    Grid:  NORTH REFERENCE
 HPTY.       Minimum Curvature:  HOLE POS TYPE
 DMOD.             Drill Model:  DRILL MOD DESC
 SVYD.                  Survey:  SURVEY DESC
 ILTD.               Lithology:  INTERP LTH DESC
 FTOP.          Formation Tops:  FORM TOPS DESC
 SON .        AZ-XX-0906571587:  JOB NUMBER
 COMP.     BP Exploration (Caspian Sea) Ltd:  COMPANY
 UWI .                     N/A:  UNIQUE WELL IDENTIFIER
 API .                     N/A:  API NUMBER
 BASE.              Azerbaijan:  LOGGING EQUIPMENT BASE LOCATION
 REGN.                   EESSA:  REGION
 PROV.                    Baku:  PROVINCE
 STAT.                    Baku:  STATE NAME
 CTRY.              Azerbaijan:  COUNTRY NAME
 FLD .                     ACG:  FIELD NAME
 SRVC.     TURAN Drilling & Engineering:  CONTRACTOR
 WELL.                     J27:  WELL NAME
 RIG .             West Chirag:  RIG NAME
 DOE .                     N/A:  DOE NUMBER
 DCON.         Sperry Drilling:  DIRECTNL CONTR
 PDAT.          Mean Sea Level:  PERMANENT DATUM
 WTYP.                Deviated:  WELL TYPE
 MWDS.                    Baku:  MWD SHOP
 JOBN.        AZ-XX-0906571587:  JOB TICKET NUMB
 UNIT.                     N/A:  LOGGING EQUIPMENT ID
 MDS .        Operator Entered:  MAG DATA SOURCE
 CNTY.                        :  COUNTY
 LOC .                        :  LOCATION
 LMF .             Drill Floor:  LOG MEASURED FROM
 TVDS.m                  43.00:  TVDSS CORRECTN
 LATI.deg                40.13:  LATITUDE
 LONG.deg                51.22:  LONGITUDE
 WHNS.m                   7.72:  WELL HEAD N/S
 WHEW.m                 -14.24:  WELL HEAD E/W
 UTMX.m              519005.06:  UTM X
 UTMY.m             4443793.85:  UTM Y
 DFWL.m                   0.00:  DISTANCE FWL
 DFSL.m                   0.00:  DISTANCE FSL
 SDEP.m                 347.00:  START DEPTH
 TDD .m                 581.00:  TOTAL DEPTH (DRILLER)
 VSDR.deg               159.72:  VERT SEC DIRECT
 GVFD.g                   1.00:  GRAVITY FIELD
 MFLD.nT              50318.00:  MAGNETIC FIELD
 MDIP.deg                59.57:  MAGNETIC DIP
 MDEC.deg                 6.44:  MAGNETIC DECL
 GRDC.deg                 0.15:  GRID CORRECTION
 AZTC.deg                 6.29:  AZM TOTAL CORR
 EPD .m                   0.00:  ELEVATION
 EGL .m                   0.00:  GROUND ELEVATION
 WDMS.m                 169.80:  WD ELEV
 APD .m                  43.00:  DEPTH ABOVE PD
 AGAP.m                  43.00:  AIR GAP
 VSEW.m                 -14.24:  VERT SEC E/W
 VSNS.m                   7.72:  VERT SEC N/S
 DEP .m                 342.45:  DEPTH
 EKB .m                   0.00:  KB ELEVATION
 EDF .m                  43.00:  DF ELEVATION
 TDL .m                 237.00:  TOTAL DEPTH (LOGGER)
 VSC .                       0:  VS TO CLOSURE
 MAGU.                 1851428:  MAGUTM CHECKSUM
~Parameter Information Block
#MNEM.UNIT       Value        Description
#---------     -----------    ---------------------------
 AV  .mps                 1.50:  Ann Velocity 
 AVMX.mps                 2.90:  Max Ann Veloc 
 AZIF.deg               115.59:  Azm, Final 
 BHAT.        Rotary Steerable:  BHA Type 
 BROT.∞/30m               0.50:  Build Rotating 
 BS  .in                  8.50:  Bit Size 
 BTPL.psig              580.00:  Bit Press Loss 
 CABU.                     Yes:  Customer Abuse 
 COMM.                     ‰E:  Run Comments 1 
 TCS .hr                 89.79:  Time Ciculation Ended 
 CV  .mps                 3.22:  Crit Velocity 
 CVMX.mps                 4.37:  Max Crit Veloc 
 DD1 .          Rashad Habibov:  Direct Drillr 1 
 DDSV.               Geo-Pilot:  DD Service 
 DEFF.%                  95.00:  % Det Eff 
 DLRX.∞/30m               1.94:  Dogleg Rot Max 
 DLSO.∞/30m               0.70:  Dogleg Oriented 
 DLSX.∞/30m               1.94:  Dogleg Str Max 
 DRET.      04.45.00 25-Dec-20:  Drill End Time 
 DRST.      10.00.00 24-Dec-20:  Drill Start Tim 
 DTIM.hr                 16.64:  Time Drilling 
 EDEP.m                4999.01:  End Depth 
 ENG1.         Elchin Mammadov:  Engineer 1 
 ENG2.          Ruslan Safarov:  Engineer 2 
 ENG3.          Rustam Safarov:  Engineer 3 
 ETIM.      09.00.00 29-Dec-20:  End Time 
 FLOI.gpm               500.00:  Flow In 
 FLON.gpm               400.00:  Flow In Min 
 FLOS.cptm                0.00:  Fluid Loss 
 FLOX.gpm               500.00:  Flow In Max 
 HFLO.                      No:  High Flow 
 HPRE.                      No:  High Pressure 
 HTEM.                      No:  High Temp 
 HYDO.m                   2.00:  Hydro Offset 
 IFIN.deg                66.79:  Inc, Final 
 IMAX.deg                67.66:  Inc Max 
 IMIN.deg                66.39:  Inc Min 
 IMND.m                4949.37:  Inc Min Depth 
 IMXD.m                4778.63:  Inc Max Depth 
 JARR.                     Yes:  Jarring 
 LETM.      04.45.00 25-Dec-20:  Log End Time 
 LOST.hr                     0:  Lost Rig Time 
 LSTM.      10.00.00 24-Dec-20:  Log Start Time 
 MDCL.ppm             39000.00:  Mud Chlorides 
 MDES.     Inversion Oil/Synthetic:  Mud Desc 
 DFD .sg                  1.33:  Mud Density 
 MDMN.sg                  1.33:  Dens Mud Min 
 MDMX.sg                  1.33:  Dens Mud Max 
 MOIL.                      70:  Run Mud Oil % 
 MOWR.                   70:30:  Run Mud OWR 
 MSND.                       0:  Run Mud Sand % 
 MSOL.                    17.4:  Run Mud Solids% 
 DFV .spqt               84.00:  Mud Viscosity 
 MWOD.in                  6.75:  MWD Tool OD 
 MWSI.                     Yes:  Serv Intrp, MWD 
 OTIM.hr                168.14:  Time Operating 
 PCON.           Look Like New:  Pad Condition 
 PMAX.psia            10822.93:  Press Op, Max 
 PV  .cP                 30.00:  Mud PV 
 RUN .                     900:  Run Number 
 ROPA.m/hr               18.00:  ROP Avg 
 ROPN.m/hr               12.00:  ROP Min 
 ROPX.m/hr               25.00:  ROP Max 
 RPMA.rpm               120.00:  RPM Surface Avg 
 RPMN.rpm               100.00:  RPM Surface Min 
 RPMX.rpm               120.00:  RPM Surface Max 
 RRUN.                    0900:  Rig Run Number 
 SAZI.deg               115.08:  Azm, Start 
 SDEP.m                4762.01:  Start Depth 
 SIDD.                      No:  Serv Intrp, DD 
 SINC.deg                66.14:  Inc, Start 
 SPPA.psig             3700.00:  SPP Avg 
 SPPN.psig             3620.00:  SPP Min 
 SPPX.psig             3900.00:  SPP Max 
 STIM.      09.30.00 22-Dec-20:  Start Time 
 SVCS.                 DD, MWD:  Services 
 SVER.                    9.20:  Sperry Version 
 TDAT.m                 237.00:  Tot Depth Attmp 
 TDDF.                      No:  Trip for DD 
 TDLG.m                 237.00:  Tot Depth Loggd 
 TFF .                      No:  Trip for Fail 
 TQAA.f-kp               18.00:  Torque Abs Avg 
 TQAN.f-kp               17.00:  Torque Abs Min 
 TQAX.f-kp               20.00:  Torque Abs Max 
 TRRT.∞/30m               0.60:  Turn Rotating 
 MRT .                    HCIM:  Maximum Recorded Temperature 
 TTMX.degC               94.12:  Max Tool Temp 
 VS01.                90627809:  Virtual Str1 SN 
 VS02.                90527813:  Virtual Str2 SN 
 VS03.                90545417:  Virtual Str3 SN 
 VS04.                12460870:  Virtual Str4 SN 
 VS05.                90516706:  Virtual Str5 SN 
 VS06.                90632007:  Virtual Str6 SN 
 WBMN.klb                 0.00:  WOB Min 
 WOBA.klb                14.00:  WOB Avg 
 WOBX.klb                25.00:  WOB Max 
 YP  .lhf2               32.00:  Yield Point 
~Curve Information Block
#MNEM.UNIT                 API CODE     Curve Description
#---------               -----------    ---------------------------
 TIME.HHMMSS            00 000 000 000:  GT Time & Date
 GTDEPTH.m              00 000 000 000:  GT Depth
 GTPQH.psia             00 000 000 000:  GT HR Quartz Pressure
 GTTQ.degC              00 000 000 000:  GT Quartz Temperature
 GTTN.NONE              00 000 000 000:  GT Test Number
 GTET.sec               00 000 000 000:  GT Elapsed Test Time
 GTTVD.m                00 000 000 000:  GT True Vertical Depth
#Other Information
#
#WARRANTY: Halliburton will use its best efforts to furnish customers with 
#accurate information and interpretations that are part of, and incident to, the services 
#provided.  However, Halliburton cannot and does not warrant the accuracy 
#or correctness of such information and interpretations.  Under no circumstances should any 
#such information or interpretation be relied upon as the sole basis for any drilling, 
#completion, production, or financial decision or any procedure involving any risk to the 
#safety of any drilling venture, drilling rig or its crew or any other third party.  The 
#Customer has full responsibility for all drilling, completion and production operation.  
#Halliburton makes no representations or warranties, either expressed or 
#implied, including, but not limited to, the implied warranties of merchantability or fitness 
#for a particular purpose, with respect to the services rendered.  In no event will 
#Halliburton be liable for failure to obtain any particular results or for 
#any damages, including, but not limited to, indirect, special or consequential damages, 
#resulting from the use of any information or interpretation provided by Halliburton.
#
~A           TIME           GTDEPTH  GTPQH  GTTQ  GTTN  GTET   GTTVD  
   17:56:34.724.25-Dec-2020 4856.51 5401.06 64.27 5.00   0.00 2521.01
   17:56:34.924.25-Dec-2020 4856.51 5401.06 64.27 5.00   0.20 2521.01
   17:56:35.124.25-Dec-2020 4856.51 5394.98 64.27 5.00   0.40 2521.01
   17:56:35.324.25-Dec-2020 4856.51 5409.26 64.26 5.00   0.60 2521.01
   17:56:35.524.25-Dec-2020 4856.51 5404.67 64.26 5.00   0.80 2521.01
   17:56:35.724.25-Dec-2020 4856.51 5408.40 64.26 5.00   1.00 2521.01
   17:56:35.924.25-Dec-2020 4856.51 5397.11 64.26 5.00   1.20 2521.01
   17:56:36.124.25-Dec-2020 4856.51 5409.42 64.26 5.00   1.40 2521.01
   17:56:36.324.25-Dec-2020 4856.51 5413.97 64.26 5.00   1.60 2521.01
   17:56:36.524.25-Dec-2020 4856.51 5413.97 64.26 5.00   1.80 2521.01
   17:56:36.724.25-Dec-2020 4856.51 5409.15 64.26 5.00   2.00 2521.01
   17:56:36.923.25-Dec-2020 4856.51 5409.15 64.26 5.00   2.20 2521.01
   17:56:37.123.25-Dec-2020 4856.51 5409.15 64.26 5.00   2.40 2521.01
   17:56:37.323.25-Dec-2020 4856.51 5409.00 64.26 5.00   2.60 2521.01
   17:56:37.523.25-Dec-2020 4856.51 5403.25 64.26 5.00   2.80 2521.01
   17:56:37.723.25-Dec-2020 4856.51 5410.18 64.26 5.00   3.00 2521.01
   17:56:37.923.25-Dec-2020 4856.51 5410.18 64.26 5.00   3.20 2521.01
   17:56:38.123.25-Dec-2020 4856.51 5406.63 64.26 5.00   3.40 2521.01
   17:56:38.323.25-Dec-2020 4856.51 5409.01 64.26 5.00   3.60 2521.01
   17:56:38.523.25-Dec-2020 4856.51 5408.88 64.26 5.00   3.80 2521.01
   17:56:38.723.25-Dec-2020 4856.51 5416.06 64.26 5.00   4.00 2521.01
   17:56:38.923.25-Dec-2020 4856.51 5416.06 64.26 5.00   4.20 2521.01
   17:56:39.123.25-Dec-2020 4856.51 5408.88 64.26 5.00   4.40 2521.01
   17:56:39.322.25-Dec-2020 4856.51 5418.98 64.26 5.00   4.60 2521.01
   17:56:39.522.25-Dec-2020 4856.51 5414.79 64.26 5.00   4.80 2521.01
   17:56:39.722.25-Dec-2020 4856.51 5420.60 64.26 5.00   5.00 2521.01
   17:56:39.922.25-Dec-2020 4856.51 5417.22 64.26 5.00   5.20 2521.01
   17:56:40.122.25-Dec-2020 4856.51 5417.40 64.26 5.00   5.40 2521.01
   17:56:40.322.25-Dec-2020 4856.51 5417.76 64.26 5.00   5.60 2521.01
   17:56:40.522.25-Dec-2020 4856.51 5424.73 64.26 5.00   5.80 2521.01
   17:56:40.722.25-Dec-2020 4856.51 5417.48 64.26 5.00   6.00 2521.01
   17:56:40.922.25-Dec-2020 4856.51 5417.48 64.26 5.00   6.20 2521.01
   17:56:41.122.25-Dec-2020 4856.51 5421.22 64.26 5.00   6.40 2521.01
   17:56:41.322.25-Dec-2020 4856.51 5418.32 64.26 5.00   6.60 2521.01
   17:56:41.522.25-Dec-2020 4856.51 5426.42 64.26 5.00   6.80 2521.01
   17:56:41.722.25-Dec-2020 4856.51 5412.08 64.26 5.00   7.00 2521.01
   17:56:41.921.25-Dec-2020 4856.51 5412.08 64.26 5.00   7.20 2521.01
   17:56:42.121.25-Dec-2020 4856.51 5420.03 64.26 5.00   7.40 2521.01
   17:56:42.321.25-Dec-2020 4856.51 5416.23 64.26 5.00   7.60 2521.01
   17:56:42.521.25-Dec-2020 4856.51 5420.19 64.26 5.00   7.80 2521.01
   17:56:42.721.25-Dec-2020 4856.51 5418.45 64.26 5.00   8.00 2521.01
   17:56:42.921.25-Dec-2020 4856.51 5418.45 64.26 5.00   8.20 2521.01
   17:56:43.121.25-Dec-2020 4856.51 5419.46 64.26 5.00   8.40 2521.01
   17:56:43.321.25-Dec-2020 4856.51 5418.96 64.26 5.00   8.60 2521.01
   17:56:43.521.25-Dec-2020 4856.51 5418.99 64.26 5.00   8.80 2521.01
   17:56:43.721.25-Dec-2020 4856.51 5419.05 64.26 5.00   9.00 2521.01
   17:56:43.921.25-Dec-2020 4856.51 5419.50 64.26 5.00   9.20 2521.01
   17:56:44.121.25-Dec-2020 4856.51 5420.55 64.26 5.00   9.40 2521.01
   17:56:44.321.25-Dec-2020 4856.51 5430.43 64.26 5.00   9.60 2521.01
   17:56:44.520.25-Dec-2020 4856.51 5414.42 64.26 5.00   9.80 2521.01
   17:56:44.720.25-Dec-2020 4856.51 5427.60 64.26 5.00  10.00 2521.01
   17:56:44.920.25-Dec-2020 4856.51 5427.60 64.26 5.00  10.20 2521.01
   17:56:45.120.25-Dec-2020 4856.51 5421.19 64.26 5.00  10.40 2521.01
   17:56:45.320.25-Dec-2020 4856.51 5422.27 64.26 5.00  10.60 2521.01
   17:56:45.520.25-Dec-2020 4856.51 5422.05 64.26 5.00  10.80 2521.01
   17:56:45.720.25-Dec-2020 4856.51 5421.96 64.26 5.00  11.00 2521.01
   17:56:45.920.25-Dec-2020 4856.51 5421.96 64.26 5.00  11.20 2521.01
   17:56:46.120.25-Dec-2020 4856.51 5422.12 64.26 5.00  11.40 2521.01
   17:56:46.320.25-Dec-2020 4856.51 5421.81 64.26 5.00  11.60 2521.01
   17:56:46.520.25-Dec-2020 4856.51 5421.95 64.26 5.00  11.80 2521.01
   17:56:46.720.25-Dec-2020 4856.51 5422.69 64.26 5.00  12.00 2521.01
   17:56:46.920.25-Dec-2020 4856.51 5422.69 64.26 5.00  12.20 2521.01
   17:56:47.119.25-Dec-2020 4856.51 5424.85 64.26 5.00  12.40 2521.01
   17:56:47.319.25-Dec-2020 4856.51 5429.09 64.26 5.00  12.60 2521.01
   17:56:47.519.25-Dec-2020 4856.51 5423.50 64.26 5.00  12.79 2521.01
   17:56:47.719.25-Dec-2020 4856.51 5424.63 64.26 5.00  12.99 2521.01
   17:56:47.919.25-Dec-2020 4856.51 5432.36 64.26 5.00  13.19 2521.01
   17:56:48.119.25-Dec-2020 4856.51 5425.32 64.26 5.00  13.39 2521.01
   17:56:48.319.25-Dec-2020 4856.51 5424.62 64.26 5.00  13.59 2521.01
   17:56:48.519.25-Dec-2020 4856.51 5428.63 64.26 5.00  13.79 2521.01
   17:56:48.719.25-Dec-2020 4856.51 5434.39 64.26 5.00  13.99 2521.01
   17:56:48.919.25-Dec-2020 4856.51 5434.39 64.26 5.00  14.19 2521.01
   17:56:49.119.25-Dec-2020 4856.51 5433.87 64.26 5.00  14.39 2521.01
   17:56:49.319.25-Dec-2020 4856.51 5427.09 64.26 5.00  14.59 2521.01
   17:56:49.518.25-Dec-2020 4856.51 5426.14 64.26 5.00  14.79 2521.01
   17:56:49.718.25-Dec-2020 4856.51 5429.31 64.26 5.00  14.99 2521.01
   17:56:49.918.25-Dec-2020 4856.51 5429.31 64.26 5.00  15.19 2521.01
   17:56:50.118.25-Dec-2020 4856.51 5434.85 64.26 5.00  15.39 2521.01
   17:56:50.318.25-Dec-2020 4856.51 5419.96 64.26 5.00  15.59 2521.01
   17:56:50.518.25-Dec-2020 4856.51 5434.22 64.26 5.00  15.79 2521.01
   17:56:50.718.25-Dec-2020 4856.51 5429.36 64.26 5.00  15.99 2521.01
   17:56:50.918.25-Dec-2020 4856.51 5429.36 64.26 5.00  16.19 2521.01
   17:56:51.118.25-Dec-2020 4856.51 5431.40 64.26 5.00  16.39 2521.01
   17:56:51.318.25-Dec-2020 4856.51 5427.98 64.26 5.00  16.59 2521.01
   17:56:51.518.25-Dec-2020 4856.51 5433.40 64.26 5.00  16.79 2521.01
   17:56:51.718.25-Dec-2020 4856.51 5428.08 64.26 5.00  16.99 2521.01
   17:56:51.918.25-Dec-2020 4856.51 5427.73 64.26 5.00  17.19 2521.01
   17:56:52.117.25-Dec-2020 4856.51 5428.63 64.26 5.00  17.39 2521.01
   17:56:52.317.25-Dec-2020 4856.51 5428.45 64.26 5.00  17.59 2521.01
   17:56:52.517.25-Dec-2020 4856.51 5428.60 64.26 5.00  17.79 2521.01
   17:56:52.717.25-Dec-2020 4856.51 5429.49 64.26 5.00  17.99 2521.01
   17:56:52.917.25-Dec-2020 4856.51 5429.49 64.26 5.00  18.19 2521.01
   17:56:53.117.25-Dec-2020 4856.51 5428.90 64.26 5.00  18.39 2521.01
   17:56:53.317.25-Dec-2020 4856.51 5429.27 64.26 5.00  18.59 2521.01
   17:56:53.517.25-Dec-2020 4856.51 5429.54 64.26 5.00  18.79 2521.01
   17:56:53.717.25-Dec-2020 4856.51 5437.00 64.26 5.00  18.99 2521.01
   17:56:53.917.25-Dec-2020 4856.51 5437.00 64.26 5.00  19.19 2521.01
   17:56:54.117.25-Dec-2020 4856.51 5427.08 64.26 5.00  19.39 2521.01
   17:56:54.317.25-Dec-2020 4856.51 5434.59 64.26 5.00  19.59 2521.01
   17:56:54.517.25-Dec-2020 4856.51 5430.30 64.26 5.00  19.79 2521.01
   17:56:54.716.25-Dec-2020 4856.51 5429.85 64.26 5.00  19.99 2521.01
   17:56:54.916.25-Dec-2020 4856.51 5429.85 64.26 5.00  20.19 2521.01
   17:56:55.116.25-Dec-2020 4856.51 5430.72 64.26 5.00  20.39 2521.01
   17:56:55.316.25-Dec-2020 4856.51 5431.14 64.26 5.00  20.59 2521.01
   17:56:55.516.25-Dec-2020 4856.51 5430.98 64.26 5.00  20.79 2521.01
   17:56:55.716.25-Dec-2020 4856.51 5431.06 64.26 5.00  20.99 2521.01
   17:56:55.916.25-Dec-2020 4856.51 5431.06 64.26 5.00  21.19 2521.01
   17:56:56.116.25-Dec-2020 4856.51 5431.91 64.26 5.00  21.39 2521.01
   17:56:56.316.25-Dec-2020 4856.51 5441.44 64.26 5.00  21.59 2521.01
   17:56:56.516.25-Dec-2020 4856.51 5424.98 64.26 5.00  21.79 2521.01
   17:56:56.716.25-Dec-2020 4856.51 5440.46 64.26 5.00  21.99 2521.01
   17:56:56.916.25-Dec-2020 4856.51 5440.46 64.26 5.00  22.19 2521.01
   17:56:57.115.25-Dec-2020 4856.51 5442.10 64.26 5.00  22.39 2521.01
   17:56:57.315.25-Dec-2020 4856.51 5428.08 64.26 5.00  22.59 2521.01
   17:56:57.515.25-Dec-2020 4856.51 5439.72 64.25 5.00  22.79 2521.01
