~Version Information
 VERS.                  2.0:   CWLS log ASCII Standard -VERSION 2.0
 WRAP.                   NO:   One line per depth step
~Well Information Block
#MNEM.UNIT     VALUE/NAME     DESCRIPTION
#---------     -----------    ---------------------------
 STRT.S             17:56:34 25-Dec-20: START TIME 17:56:34 25-Dec-20
 STOP.S             18:04:57 25-Dec-20: STOP TIME  18:04:57 25-Dec-20
 STEP.S                   0.00: STEP TIME
 NULL.                 -999.25: NULL VALUE
 DFWT.                        :  DIST FWL TEXT
 DFST.                        :  DIST FSL TEXT
 DMF .             Drill Floor:  DRILL MEAS FROM
 STIM.      04.54.24 22-Sep-20:  START TIME
 DATE.      04.54.24 21-Nov-20:  END TIME
 SPUD.               21-Nov-20:  SPUD DATE
 NREF.                    Grid:  NORTH REFERENCE
 HPTY.       Minimum Curvature:  HOLE POS TYPE
 DMOD.             Drill Model:  DRILL MOD DESC
 SVYD.                  Survey:  SURVEY DESC
 ILTD.               Lithology:  INTERP LTH DESC
 FTOP.          Formation Tops:  FORM TOPS DESC
 SON .        AZ-XX-0906571587:  JOB NUMBER
 COMP.     BP Exploration (Caspian Sea) Ltd:  COMPANY
 UWI .                     N/A:  UNIQUE WELL IDENTIFIER
 API .                     N/A:  API NUMBER
 BASE.              Azerbaijan:  LOGGING EQUIPMENT BASE LOCATION
 REGN.                   EESSA:  REGION
 PROV.                    Baku:  PROVINCE
 STAT.                    Baku:  STATE NAME
 CTRY.              Azerbaijan:  COUNTRY NAME
 FLD .                     ACG:  FIELD NAME
 SRVC.     TURAN Drilling & Engineering:  CONTRACTOR
 WELL.                     J27:  WELL NAME
 RIG .             West Chirag:  RIG NAME
 DOE .                     N/A:  DOE NUMBER
 DCON.         Sperry Drilling:  DIRECTNL CONTR
 PDAT.          Mean Sea Level:  PERMANENT DATUM
 WTYP.                Deviated:  WELL TYPE
 MWDS.                    Baku:  MWD SHOP
 JOBN.        AZ-XX-0906571587:  JOB TICKET NUMB
 UNIT.                     N/A:  LOGGING EQUIPMENT ID
 MDS .        Operator Entered:  MAG DATA SOURCE
 CNTY.                        :  COUNTY
 LOC .                        :  LOCATION
 LMF .             Drill Floor:  LOG MEASURED FROM
 TVDS.m                  43.00:  TVDSS CORRECTN
 LATI.deg                40.13:  LATITUDE
 LONG.deg                51.22:  LONGITUDE
 WHNS.m                   7.72:  WELL HEAD N/S
 WHEW.m                 -14.24:  WELL HEAD E/W
 UTMX.m              519005.06:  UTM X
 UTMY.m             4443793.85:  UTM Y
 DFWL.m                   0.00:  DISTANCE FWL
 DFSL.m                   0.00:  DISTANCE FSL
 SDEP.m                 347.00:  START DEPTH
 TDD .m                 581.00:  TOTAL DEPTH (DRILLER)
 VSDR.deg               159.72:  VERT SEC DIRECT
 GVFD.g                   1.00:  GRAVITY FIELD
 MFLD.nT              50318.00:  MAGNETIC FIELD
 MDIP.deg                59.57:  MAGNETIC DIP
 MDEC.deg                 6.44:  MAGNETIC DECL
 GRDC.deg                 0.15:  GRID CORRECTION
 AZTC.deg                 6.29:  AZM TOTAL CORR
 EPD .m                   0.00:  ELEVATION
 EGL .m                   0.00:  GROUND ELEVATION
 WDMS.m                 169.80:  WD ELEV
 APD .m                  43.00:  DEPTH ABOVE PD
 AGAP.m                  43.00:  AIR GAP
 VSEW.m                 -14.24:  VERT SEC E/W
 VSNS.m                   7.72:  VERT SEC N/S
 DEP .m                 342.45:  DEPTH
 EKB .m                   0.00:  KB ELEVATION
 EDF .m                  43.00:  DF ELEVATION
 TDL .m                 237.00:  TOTAL DEPTH (LOGGER)
 VSC .                       0:  VS TO CLOSURE
 MAGU.                 1851428:  MAGUTM CHECKSUM
~Parameter Information Block
#MNEM.UNIT       Value        Description
#---------     -----------    ---------------------------
 AV  .mps                 1.50:  Ann Velocity 
 AVMX.mps                 2.90:  Max Ann Veloc 
 AZIF.deg               115.59:  Azm, Final 
 BHAT.        Rotary Steerable:  BHA Type 
 BROT.∞/30m               0.50:  Build Rotating 
 BS  .in                  8.50:  Bit Size 
 BTPL.psig              580.00:  Bit Press Loss 
 CABU.                     Yes:  Customer Abuse 
 COMM.                     ‰E:  Run Comments 1 
 TCS .hr                 89.79:  Time Ciculation Ended 
 CV  .mps                 3.22:  Crit Velocity 
 CVMX.mps                 4.37:  Max Crit Veloc 
 DD1 .          Rashad Habibov:  Direct Drillr 1 
 DDSV.               Geo-Pilot:  DD Service 
 DEFF.%                  95.00:  % Det Eff 
 DLRX.∞/30m               1.94:  Dogleg Rot Max 
 DLSO.∞/30m               0.70:  Dogleg Oriented 
 DLSX.∞/30m               1.94:  Dogleg Str Max 
 DRET.      04.45.00 25-Dec-20:  Drill End Time 
 DRST.      10.00.00 24-Dec-20:  Drill Start Tim 
 DTIM.hr                 16.64:  Time Drilling 
 EDEP.m                4999.01:  End Depth 
 ENG1.         Elchin Mammadov:  Engineer 1 
 ENG2.          Ruslan Safarov:  Engineer 2 
 ENG3.          Rustam Safarov:  Engineer 3 
 ETIM.      09.00.00 29-Dec-20:  End Time 
 FLOI.gpm               500.00:  Flow In 
 FLON.gpm               400.00:  Flow In Min 
 FLOS.cptm                0.00:  Fluid Loss 
 FLOX.gpm               500.00:  Flow In Max 
 HFLO.                      No:  High Flow 
 HPRE.                      No:  High Pressure 
 HTEM.                      No:  High Temp 
 HYDO.m                   2.00:  Hydro Offset 
 IFIN.deg                66.79:  Inc, Final 
 IMAX.deg                67.66:  Inc Max 
 IMIN.deg                66.39:  Inc Min 
 IMND.m                4949.37:  Inc Min Depth 
 IMXD.m                4778.63:  Inc Max Depth 
 JARR.                     Yes:  Jarring 
 LETM.      04.45.00 25-Dec-20:  Log End Time 
 LOST.hr                     0:  Lost Rig Time 
 LSTM.      10.00.00 24-Dec-20:  Log Start Time 
 MDCL.ppm             39000.00:  Mud Chlorides 
 MDES.     Inversion Oil/Synthetic:  Mud Desc 
 DFD .sg                  1.33:  Mud Density 
 MDMN.sg                  1.33:  Dens Mud Min 
 MDMX.sg                  1.33:  Dens Mud Max 
 MOIL.                      70:  Run Mud Oil % 
 MOWR.                   70:30:  Run Mud OWR 
 MSND.                       0:  Run Mud Sand % 
 MSOL.                    17.4:  Run Mud Solids% 
 DFV .spqt               84.00:  Mud Viscosity 
 MWOD.in                  6.75:  MWD Tool OD 
 MWSI.                     Yes:  Serv Intrp, MWD 
 OTIM.hr                168.14:  Time Operating 
 PCON.           Look Like New:  Pad Condition 
 PMAX.psia            10822.93:  Press Op, Max 
 PV  .cP                 30.00:  Mud PV 
 RUN .                     900:  Run Number 
 ROPA.m/hr               18.00:  ROP Avg 
 ROPN.m/hr               12.00:  ROP Min 
 ROPX.m/hr               25.00:  ROP Max 
 RPMA.rpm               120.00:  RPM Surface Avg 
 RPMN.rpm               100.00:  RPM Surface Min 
 RPMX.rpm               120.00:  RPM Surface Max 
 RRUN.                    0900:  Rig Run Number 
 SAZI.deg               115.08:  Azm, Start 
 SDEP.m                4762.01:  Start Depth 
 SIDD.                      No:  Serv Intrp, DD 
 SINC.deg                66.14:  Inc, Start 
 SPPA.psig             3700.00:  SPP Avg 
 SPPN.psig             3620.00:  SPP Min 
 SPPX.psig             3900.00:  SPP Max 
 STIM.      09.30.00 22-Dec-20:  Start Time 
 SVCS.                 DD, MWD:  Services 
 SVER.                    9.20:  Sperry Version 
 TDAT.m                 237.00:  Tot Depth Attmp 
 TDDF.                      No:  Trip for DD 
 TDLG.m                 237.00:  Tot Depth Loggd 
 TFF .                      No:  Trip for Fail 
 TQAA.f-kp               18.00:  Torque Abs Avg 
 TQAN.f-kp               17.00:  Torque Abs Min 
 TQAX.f-kp               20.00:  Torque Abs Max 
 TRRT.∞/30m               0.60:  Turn Rotating 
 MRT .                    HCIM:  Maximum Recorded Temperature 
 TTMX.degC               94.12:  Max Tool Temp 
 VS01.                90627809:  Virtual Str1 SN 
 VS02.                90527813:  Virtual Str2 SN 
 VS03.                90545417:  Virtual Str3 SN 
 VS04.                12460870:  Virtual Str4 SN 
 VS05.                90516706:  Virtual Str5 SN 
 VS06.                90632007:  Virtual Str6 SN 
 WBMN.klb                 0.00:  WOB Min 
 WOBA.klb                14.00:  WOB Avg 
 WOBX.klb                25.00:  WOB Max 
 YP  .lhf2               32.00:  Yield Point 
~Curve Information Block
#MNEM.UNIT                 API CODE     Curve Description
#---------               -----------    ---------------------------
 TIME.HHMMSS            00 000 000 000:  GT Time & Date
 GTDEPTH.m              00 000 000 000:  GT Depth
 GTPQH.psia             00 000 000 000:  GT HR Quartz Pressure
 GTTQ.degC              00 000 000 000:  GT Quartz Temperature
 GTTN.NONE              00 000 000 000:  GT Test Number
 GTET.sec               00 000 000 000:  GT Elapsed Test Time
 GTTVD.m                00 000 000 000:  GT True Vertical Depth
#Other Information
#
#WARRANTY: Halliburton will use its best efforts to furnish customers with 
#accurate information and interpretations that are part of, and incident to, the services 
#provided.  However, Halliburton cannot and does not warrant the accuracy 
#or correctness of such information and interpretations.  Under no circumstances should any 
#such information or interpretation be relied upon as the sole basis for any drilling, 
#completion, production, or financial decision or any procedure involving any risk to the 
#safety of any drilling venture, drilling rig or its crew or any other third party.  The 
#Customer has full responsibility for all drilling, completion and production operation.  
#Halliburton makes no representations or warranties, either expressed or 
#implied, including, but not limited to, the implied warranties of merchantability or fitness 
#for a particular purpose, with respect to the services rendered.  In no event will 
#Halliburton be liable for failure to obtain any particular results or for 
#any damages, including, but not limited to, indirect, special or consequential damages, 
#resulting from the use of any information or interpretation provided by Halliburton.
#
~A           TIME           GTDEPTH  GTPQH  GTTQ  GTTN  GTET   GTTVD  
# ...
   18:00:47.625.25-Dec-2020 4856.51 3917.70 64.22 5.00 252.90 2521.01
   18:00:47.825.25-Dec-2020 4856.51 3917.70 64.22 5.00 253.10 2521.01
   18:00:48.025.25-Dec-2020 4856.51 3917.28 64.22 5.00 253.30 2521.01
   18:00:48.224.25-Dec-2020 4856.51 3917.21 64.22 5.00 253.50 2521.01
   18:00:48.424.25-Dec-2020 4856.51 3917.35 64.22 5.00 253.70 2521.01
   18:00:48.624.25-Dec-2020 4856.51 3917.96 64.22 5.00 253.90 2521.01
   18:00:48.824.25-Dec-2020 4856.51 3917.96 64.22 5.00 254.10 2521.01
   18:00:49.024.25-Dec-2020 4856.51 3918.39 64.22 5.00 254.30 2521.01
   18:00:49.224.25-Dec-2020 4856.51 3918.78 64.22 5.00 254.50 2521.01
   18:00:49.424.25-Dec-2020 4856.51 3918.84 64.22 5.00 254.70 2521.01
   18:00:49.624.25-Dec-2020 4856.51 3918.99 64.22 5.00 254.90 2521.01
   18:00:49.824.25-Dec-2020 4856.51 3918.99 64.22 5.00 255.10 2521.01
   18:00:50.024.25-Dec-2020 4856.51 3919.25 64.22 5.00 255.30 2521.01
   18:00:50.224.25-Dec-2020 4856.51 3919.30 64.22 5.00 255.50 2521.01
   18:00:50.424.25-Dec-2020 4856.51 3919.32 64.22 5.00 255.70 2521.01
   18:00:50.624.25-Dec-2020 4856.51 3918.49 64.22 5.00 255.90 2521.01
   18:00:50.823.25-Dec-2020 4856.51 3918.49 64.22 5.00 256.10 2521.01
   18:00:51.023.25-Dec-2020 4856.51 3918.68 64.22 5.00 256.30 2521.01
   18:00:51.223.25-Dec-2020 4856.51 3918.91 64.22 5.00 256.50 2521.01
   18:00:51.423.25-Dec-2020 4856.51 3918.81 64.22 5.00 256.70 2521.01
   18:00:51.623.25-Dec-2020 4856.51 3919.13 64.22 5.00 256.90 2521.01
   18:00:51.823.25-Dec-2020 4856.51 3919.13 64.22 5.00 257.10 2521.01
   18:00:52.023.25-Dec-2020 4856.51 3919.36 64.22 5.00 257.30 2521.01
   18:00:52.223.25-Dec-2020 4856.51 3919.58 64.22 5.00 257.50 2521.01
   18:00:52.423.25-Dec-2020 4856.51 3919.55 64.22 5.00 257.70 2521.01
   18:00:52.623.25-Dec-2020 4856.51 3919.52 64.22 5.00 257.90 2521.01
   18:00:52.823.25-Dec-2020 4856.51 3919.52 64.22 5.00 258.10 2521.01
   18:00:53.023.25-Dec-2020 4856.51 3919.29 64.22 5.00 258.30 2521.01
   18:00:53.222.25-Dec-2020 4856.51 3919.03 64.22 5.00 258.50 2521.01
   18:00:53.422.25-Dec-2020 4856.51 3918.79 64.22 5.00 258.70 2521.01
   18:00:53.622.25-Dec-2020 4856.51 3919.12 64.22 5.00 258.90 2521.01
   18:00:53.822.25-Dec-2020 4856.51 3919.12 64.22 5.00 259.10 2521.01
   18:00:54.022.25-Dec-2020 4856.51 3917.97 64.22 5.00 259.30 2521.01
   18:00:54.222.25-Dec-2020 4856.51 3918.42 64.22 5.00 259.50 2521.01
   18:00:54.422.25-Dec-2020 4856.51 3918.62 64.22 5.00 259.70 2521.01
   18:00:54.622.25-Dec-2020 4856.51 3917.50 64.22 5.00 259.90 2521.01
   18:00:54.822.25-Dec-2020 4856.51 3917.50 64.22 5.00 260.10 2521.01
   18:00:55.022.25-Dec-2020 4856.51 3917.82 64.22 5.00 260.30 2521.01
   18:00:55.222.25-Dec-2020 4856.51 3917.92 64.22 5.00 260.50 2521.01
   18:00:55.422.25-Dec-2020 4856.51 3918.04 64.22 5.00 260.70 2521.01
   18:00:55.622.25-Dec-2020 4856.51 3917.39 64.22 5.00 260.90 2521.01
   18:00:55.821.25-Dec-2020 4856.51 3917.39 64.22 5.00 261.10 2521.01
   18:00:56.021.25-Dec-2020 4856.51 3917.66 64.22 5.00 261.30 2521.01
   18:00:56.221.25-Dec-2020 4856.51 3918.25 64.22 5.00 261.50 2521.01
   18:00:56.421.25-Dec-2020 4856.51 3918.37 64.22 5.00 261.70 2521.01
   18:00:56.621.25-Dec-2020 4856.51 3918.58 64.22 5.00 261.90 2521.01
   18:00:56.821.25-Dec-2020 4856.51 3918.58 64.22 5.00 262.10 2521.01
   18:00:57.021.25-Dec-2020 4856.51 3919.18 64.22 5.00 262.30 2521.01
   18:00:57.221.25-Dec-2020 4856.51 3919.39 64.22 5.00 262.50 2521.01
   18:00:57.421.25-Dec-2020 4856.51 3919.53 64.22 5.00 262.70 2521.01
   18:00:57.621.25-Dec-2020 4856.51 3919.60 64.22 5.00 262.90 2521.01
   18:00:57.821.25-Dec-2020 4856.51 3919.60 64.22 5.00 263.10 2521.01
   18:00:58.021.25-Dec-2020 4856.51 3919.79 64.22 5.00 263.30 2521.01
   18:00:58.221.25-Dec-2020 4856.51 3918.87 64.22 5.00 263.50 2521.01
   18:00:58.420.25-Dec-2020 4856.51 3918.81 64.22 5.00 263.70 2521.01
   18:00:58.620.25-Dec-2020 4856.51 3919.01 64.22 5.00 263.90 2521.01
   18:00:58.820.25-Dec-2020 4856.51 3919.01 64.22 5.00 264.10 2521.01
   18:00:59.020.25-Dec-2020 4856.51 3919.18 64.22 5.00 264.30 2521.01
   18:00:59.220.25-Dec-2020 4856.51 3919.47 64.22 5.00 264.50 2521.01
   18:00:59.420.25-Dec-2020 4856.51 3919.64 64.22 5.00 264.70 2521.01
   18:00:59.620.25-Dec-2020 4856.51 3919.64 64.22 5.00 264.90 2521.01
   18:00:59.820.25-Dec-2020 4856.51 3919.64 64.22 5.00 265.10 2521.01
   18:01:00.020.25-Dec-2020 4856.51 3919.86 64.22 5.00 265.30 2521.01
   18:01:00.220.25-Dec-2020 4856.51 3919.86 64.22 5.00 265.50 2521.01
   18:01:00.420.25-Dec-2020 4856.51 3919.89 64.22 5.00 265.70 2521.01
   18:01:00.620.25-Dec-2020 4856.51 3919.44 64.22 5.00 265.90 2521.01
   18:01:00.820.25-Dec-2020 4856.51 3919.44 64.22 5.00 266.10 2521.01
   18:01:01.019.25-Dec-2020 4856.51 3918.99 64.22 5.00 266.30 2521.01
   18:01:01.219.25-Dec-2020 4856.51 3919.21 64.22 5.00 266.50 2521.01
   18:01:01.419.25-Dec-2020 4856.51 3917.94 64.22 5.00 266.69 2521.01
   18:01:01.619.25-Dec-2020 4856.51 3918.07 64.22 5.00 266.89 2521.01
   18:01:01.819.25-Dec-2020 4856.51 3918.07 64.22 5.00 267.09 2521.01
   18:01:02.019.25-Dec-2020 4856.51 3918.81 64.22 5.00 267.29 2521.01
   18:01:02.219.25-Dec-2020 4856.51 3918.41 64.22 5.00 267.49 2521.01
   18:01:02.419.25-Dec-2020 4856.51 3918.12 64.22 5.00 267.69 2521.01
   18:01:02.619.25-Dec-2020 4856.51 3918.16 64.22 5.00 267.89 2521.01
   18:01:02.819.25-Dec-2020 4856.51 3918.16 64.22 5.00 268.09 2521.01
   18:01:03.019.25-Dec-2020 4856.51 3918.65 64.22 5.00 268.29 2521.01
   18:01:03.219.25-Dec-2020 4856.51 3917.71 64.22 5.00 268.49 2521.01
   18:01:03.418.25-Dec-2020 4856.51 3917.89 64.22 5.00 268.69 2521.01
   18:01:03.618.25-Dec-2020 4856.51 3918.30 64.22 5.00 268.89 2521.01
   18:01:03.818.25-Dec-2020 4856.51 3918.30 64.22 5.00 269.09 2521.01
   18:01:04.018.25-Dec-2020 4856.51 3918.78 64.22 5.00 269.29 2521.01
   18:01:04.218.25-Dec-2020 4856.51 3919.11 64.22 5.00 269.49 2521.01
   18:01:04.418.25-Dec-2020 4856.51 3919.55 64.22 5.00 269.69 2521.01
   18:01:04.618.25-Dec-2020 4856.51 3919.54 64.22 5.00 269.89 2521.01
   18:01:04.818.25-Dec-2020 4856.51 3919.54 64.22 5.00 270.09 2521.01
   18:01:05.018.25-Dec-2020 4856.51 3919.70 64.22 5.00 270.29 2521.01
   18:01:05.218.25-Dec-2020 4856.51 3919.76 64.22 5.00 270.49 2521.01
   18:01:05.418.25-Dec-2020 4856.51 3919.88 64.22 5.00 270.69 2521.01
   18:01:05.618.25-Dec-2020 4856.51 3919.48 64.22 5.00 270.89 2521.01
   18:01:05.818.25-Dec-2020 4856.51 3919.48 64.22 5.00 271.09 2521.01
   18:01:06.017.25-Dec-2020 4856.51 3918.85 64.22 5.00 271.29 2521.01
   18:01:06.217.25-Dec-2020 4856.51 3919.13 64.22 5.00 271.49 2521.01
   18:01:06.417.25-Dec-2020 4856.51 3919.15 64.22 5.00 271.69 2521.01
   18:01:06.617.25-Dec-2020 4856.51 3919.23 64.22 5.00 271.89 2521.01
   18:01:06.817.25-Dec-2020 4856.51 3919.23 64.22 5.00 272.09 2521.01
   18:01:07.017.25-Dec-2020 4856.51 3919.70 64.22 5.00 272.29 2521.01
   18:01:07.217.25-Dec-2020 4856.51 3919.74 64.22 5.00 272.49 2521.01
   18:01:07.417.25-Dec-2020 4856.51 3919.91 64.22 5.00 272.69 2521.01
   18:01:07.617.25-Dec-2020 4856.51 3919.94 64.22 5.00 272.89 2521.01
   18:01:07.817.25-Dec-2020 4856.51 3919.94 64.22 5.00 273.09 2521.01
   18:01:08.017.25-Dec-2020 4856.51 3920.08 64.22 5.00 273.29 2521.01
   18:01:08.217.25-Dec-2020 4856.51 3919.06 64.22 5.00 273.49 2521.01
   18:01:08.417.25-Dec-2020 4856.51 3919.88 64.22 5.00 273.69 2521.01
   18:01:08.616.25-Dec-2020 4856.51 3919.38 64.22 5.00 273.89 2521.01
   18:01:08.816.25-Dec-2020 4856.51 3919.38 64.22 5.00 274.09 2521.01
   18:01:09.016.25-Dec-2020 4856.51 3918.11 64.22 5.00 274.29 2521.01
   18:01:09.216.25-Dec-2020 4856.51 3918.26 64.22 5.00 274.49 2521.01
   18:01:09.416.25-Dec-2020 4856.51 3918.87 64.22 5.00 274.69 2521.01
   18:01:09.616.25-Dec-2020 4856.51 3918.89 64.22 5.00 274.89 2521.01
   18:01:09.816.25-Dec-2020 4856.51 3918.89 64.22 5.00 275.09 2521.01
   18:01:10.016.25-Dec-2020 4856.51 3918.49 64.22 5.00 275.29 2521.01
   18:01:10.216.25-Dec-2020 4856.51 3918.20 64.22 5.00 275.49 2521.01
   18:01:10.416.25-Dec-2020 4856.51 3918.49 64.22 5.00 275.69 2521.01
