~Version Information
 VERS.                  2.0:   CWLS log ASCII Standard -VERSION 2.0
 WRAP.                   NO:   One line per depth step
~Well Information Block
#MNEM.UNIT     VALUE/NAME     DESCRIPTION
#---------     -----------    ---------------------------
 STRT.S             15:24:16 25-Dec-20: START TIME 15:24:16 25-Dec-20
 STOP.S             15:32:36 25-Dec-20: STOP TIME  15:32:36 25-Dec-20
 STEP.S                   0.00: STEP TIME
 NULL.                 -999.25: NULL VALUE
 DFWT.                        :  DIST FWL TEXT
 DFST.                        :  DIST FSL TEXT
 DMF .             Drill Floor:  DRILL MEAS FROM
 STIM.      04.54.24 22-Sep-20:  START TIME
 DATE.      04.54.24 21-Nov-20:  END TIME
 SPUD.               21-Nov-20:  SPUD DATE
 NREF.                    Grid:  NORTH REFERENCE
 HPTY.       Minimum Curvature:  HOLE POS TYPE
 DMOD.             Drill Model:  DRILL MOD DESC
 SVYD.                  Survey:  SURVEY DESC
 ILTD.               Lithology:  INTERP LTH DESC
 FTOP.          Formation Tops:  FORM TOPS DESC
 SON .        AZ-XX-0906571587:  JOB NUMBER
 COMP.     BP Exploration (Caspian Sea) Ltd:  COMPANY
 UWI .                     N/A:  UNIQUE WELL IDENTIFIER
 API .                     N/A:  API NUMBER
 BASE.              Azerbaijan:  LOGGING EQUIPMENT BASE LOCATION
 REGN.                   EESSA:  REGION
 PROV.                    Baku:  PROVINCE
 STAT.                    Baku:  STATE NAME
 CTRY.              Azerbaijan:  COUNTRY NAME
 FLD .                     ACG:  FIELD NAME
 SRVC.     TURAN Drilling & Engineering:  CONTRACTOR
 WELL.                     J27:  WELL NAME
 RIG .             West Chirag:  RIG NAME
 DOE .                     N/A:  DOE NUMBER
 DCON.         Sperry Drilling:  DIRECTNL CONTR
 PDAT.          Mean Sea Level:  PERMANENT DATUM
 WTYP.                Deviated:  WELL TYPE
 MWDS.                    Baku:  MWD SHOP
 JOBN.        AZ-XX-0906571587:  JOB TICKET NUMB
 UNIT.                     N/A:  LOGGING EQUIPMENT ID
 MDS .        Operator Entered:  MAG DATA SOURCE
 CNTY.                        :  COUNTY
 LOC .                        :  LOCATION
 LMF .             Drill Floor:  LOG MEASURED FROM
 TVDS.m                  43.00:  TVDSS CORRECTN
 LATI.deg                40.13:  LATITUDE
 LONG.deg                51.22:  LONGITUDE
 WHNS.m                   7.72:  WELL HEAD N/S
 WHEW.m                 -14.24:  WELL HEAD E/W
 UTMX.m              519005.06:  UTM X
 UTMY.m             4443793.85:  UTM Y
 DFWL.m                   0.00:  DISTANCE FWL
 DFSL.m                   0.00:  DISTANCE FSL
 SDEP.m                 347.00:  START DEPTH
 TDD .m                 581.00:  TOTAL DEPTH (DRILLER)
 VSDR.deg               159.72:  VERT SEC DIRECT
 GVFD.g                   1.00:  GRAVITY FIELD
 MFLD.nT              50318.00:  MAGNETIC FIELD
 MDIP.deg                59.57:  MAGNETIC DIP
 MDEC.deg                 6.44:  MAGNETIC DECL
 GRDC.deg                 0.15:  GRID CORRECTION
 AZTC.deg                 6.29:  AZM TOTAL CORR
 EPD .m                   0.00:  ELEVATION
 EGL .m                   0.00:  GROUND ELEVATION
 WDMS.m                 169.80:  WD ELEV
 APD .m                  43.00:  DEPTH ABOVE PD
 AGAP.m                  43.00:  AIR GAP
 VSEW.m                 -14.24:  VERT SEC E/W
 VSNS.m                   7.72:  VERT SEC N/S
 DEP .m                 342.45:  DEPTH
 EKB .m                   0.00:  KB ELEVATION
 EDF .m                  43.00:  DF ELEVATION
 TDL .m                 237.00:  TOTAL DEPTH (LOGGER)
 VSC .                       0:  VS TO CLOSURE
 MAGU.                 1851428:  MAGUTM CHECKSUM
~Parameter Information Block
#MNEM.UNIT       Value        Description
#---------     -----------    ---------------------------
 AV  .mps                 1.50:  Ann Velocity 
 AVMX.mps                 2.90:  Max Ann Veloc 
 AZIF.deg               115.59:  Azm, Final 
 BHAT.        Rotary Steerable:  BHA Type 
 BROT.°/30m               0.50:  Build Rotating 
 BS  .in                  8.50:  Bit Size 
 BTPL.psig              580.00:  Bit Press Loss 
 CABU.                     Yes:  Customer Abuse 
 TCS .hr                 89.79:  Time Ciculation Ended 
 CV  .mps                 3.22:  Crit Velocity 
 CVMX.mps                 4.37:  Max Crit Veloc 
 DD1 .          Rashad Habibov:  Direct Drillr 1 
 DDSV.               Geo-Pilot:  DD Service 
 DEFF.%                  95.00:  % Det Eff 
 DLRX.°/30m               1.94:  Dogleg Rot Max 
 DLSO.°/30m               0.70:  Dogleg Oriented 
 DLSX.°/30m               1.94:  Dogleg Str Max 
 DRET.      04.45.00 25-Dec-20:  Drill End Time 
 DRST.      10.00.00 24-Dec-20:  Drill Start Tim 
 DTIM.hr                 16.64:  Time Drilling 
 EDEP.m                4999.01:  End Depth 
 ENG1.         Elchin Mammadov:  Engineer 1 
 ENG2.          Ruslan Safarov:  Engineer 2 
 ENG3.          Rustam Safarov:  Engineer 3 
 ETIM.      09.00.00 29-Dec-20:  End Time 
 FLOI.gpm               500.00:  Flow In 
 FLON.gpm               400.00:  Flow In Min 
 FLOS.cptm                0.00:  Fluid Loss 
 FLOX.gpm               500.00:  Flow In Max 
 HFLO.                      No:  High Flow 
 HPRE.                      No:  High Pressure 
 HTEM.                      No:  High Temp 
 HYDO.m                   2.00:  Hydro Offset 
 IFIN.deg                66.79:  Inc, Final 
 IMAX.deg                67.66:  Inc Max 
 IMIN.deg                66.39:  Inc Min 
 IMND.m                4949.37:  Inc Min Depth 
 IMXD.m                4778.63:  Inc Max Depth 
 JARR.                     Yes:  Jarring 
 LETM.      04.45.00 25-Dec-20:  Log End Time 
 LOST.hr                     0:  Lost Rig Time 
 LSTM.      10.00.00 24-Dec-20:  Log Start Time 
 MDCL.ppm             39000.00:  Mud Chlorides 
 MDES.     Inversion Oil/Synthetic:  Mud Desc 
 DFD .sg                  1.33:  Mud Density 
 MDMN.sg                  1.33:  Dens Mud Min 
 MDMX.sg                  1.33:  Dens Mud Max 
 MOIL.                      70:  Run Mud Oil % 
 MOWR.                   70:30:  Run Mud OWR 
 MSND.                       0:  Run Mud Sand % 
 MSOL.                    17.4:  Run Mud Solids% 
 DFV .spqt               84.00:  Mud Viscosity 
 MWOD.in                  6.75:  MWD Tool OD 
 MWSI.                     Yes:  Serv Intrp, MWD 
 OTIM.hr                168.14:  Time Operating 
 PCON.           Look Like New:  Pad Condition 
 PMAX.psia            10822.93:  Press Op, Max 
 PV  .cP                 30.00:  Mud PV 
 RUN .                     900:  Run Number 
 ROPA.m/hr               18.00:  ROP Avg 
 ROPN.m/hr               12.00:  ROP Min 
 ROPX.m/hr               25.00:  ROP Max 
 RPMA.rpm               120.00:  RPM Surface Avg 
 RPMN.rpm               100.00:  RPM Surface Min 
 RPMX.rpm               120.00:  RPM Surface Max 
 RRUN.                    0900:  Rig Run Number 
 SAZI.deg               115.08:  Azm, Start 
 SDEP.m                4762.01:  Start Depth 
 SIDD.                      No:  Serv Intrp, DD 
 SINC.deg                66.14:  Inc, Start 
 SPPA.psig             3700.00:  SPP Avg 
 SPPN.psig             3620.00:  SPP Min 
 SPPX.psig             3900.00:  SPP Max 
 STIM.      09.30.00 22-Dec-20:  Start Time 
 SVCS.                 DD, MWD:  Services 
 SVER.                    9.20:  Sperry Version 
 TDAT.m                 237.00:  Tot Depth Attmp 
 TDDF.                      No:  Trip for DD 
 TDLG.m                 237.00:  Tot Depth Loggd 
 TFF .                      No:  Trip for Fail 
 TQAA.f-kp               18.00:  Torque Abs Avg 
 TQAN.f-kp               17.00:  Torque Abs Min 
 TQAX.f-kp               20.00:  Torque Abs Max 
 TRRT.°/30m               0.60:  Turn Rotating 
 MRT .                    HCIM:  Maximum Recorded Temperature 
 TTMX.degC               94.12:  Max Tool Temp 
 VS01.                90627809:  Virtual Str1 SN 
 VS02.                90527813:  Virtual Str2 SN 
 VS03.                90545417:  Virtual Str3 SN 
 VS04.                12460870:  Virtual Str4 SN 
 VS05.                90516706:  Virtual Str5 SN 
 VS06.                90632007:  Virtual Str6 SN 
 WBMN.klb                 0.00:  WOB Min 
 WOBA.klb                14.00:  WOB Avg 
 WOBX.klb                25.00:  WOB Max 
 YP  .lhf2               32.00:  Yield Point 
~Curve Information Block
#MNEM.UNIT                 API CODE     Curve Description
#---------               -----------    ---------------------------
 TIME.HHMMSS            00 000 000 000:  GT Time & Date
 GTDEPTH.m              00 000 000 000:  GT Depth
 GTPQH.psia             00 000 000 000:  GT HR Quartz Pressure
 GTTQ.degC              00 000 000 000:  GT Quartz Temperature
 GTTN.NONE              00 000 000 000:  GT Test Number
 GTET.sec               00 000 000 000:  GT Elapsed Test Time
 GTTVD.m                00 000 000 000:  GT True Vertical Depth
#Other Information
#
#WARRANTY: Halliburton will use its best efforts to furnish customers with 
#accurate information and interpretations that are part of, and incident to, the services 
#provided.  However, Halliburton cannot and does not warrant the accuracy 
#or correctness of such information and interpretations.  Under no circumstances should any 
#such information or interpretation be relied upon as the sole basis for any drilling, 
#completion, production, or financial decision or any procedure involving any risk to the 
#safety of any drilling venture, drilling rig or its crew or any other third party.  The 
#Customer has full responsibility for all drilling, completion and production operation.  
#Halliburton makes no representations or warranties, either expressed or 
#implied, including, but not limited to, the implied warranties of merchantability or fitness 
#for a particular purpose, with respect to the services rendered.  In no event will 
#Halliburton be liable for failure to obtain any particular results or for 
#any damages, including, but not limited to, indirect, special or consequential damages, 
#resulting from the use of any information or interpretation provided by Halliburton.
#
~A           TIME           GTDEPTH  GTPQH  GTTQ  GTTN  GTET   GTTVD  
# ...
   15:30:47.857.25-Dec-2020 4892.01 2718.41 65.31 4.00 391.11 2535.10
   15:30:48.057.25-Dec-2020 4892.01 2718.35 65.31 4.00 391.31 2535.10
   15:30:48.257.25-Dec-2020 4892.01 2718.10 65.31 4.00 391.51 2535.10
   15:30:48.457.25-Dec-2020 4892.01 2718.36 65.31 4.00 391.71 2535.10
   15:30:48.657.25-Dec-2020 4892.01 2718.23 65.31 4.00 391.91 2535.10
   15:30:48.857.25-Dec-2020 4892.01 2718.20 65.31 4.00 392.11 2535.10
   15:30:49.057.25-Dec-2020 4892.01 2718.20 65.31 4.00 392.31 2535.10
   15:30:49.257.25-Dec-2020 4892.01 2718.25 65.31 4.00 392.51 2535.10
   15:30:49.458.25-Dec-2020 4892.01 2718.24 65.31 4.00 392.71 2535.10
   15:30:49.658.25-Dec-2020 4892.01 2718.24 65.31 4.00 392.91 2535.10
   15:30:49.858.25-Dec-2020 4892.01 2718.24 65.31 4.00 393.11 2535.10
   15:30:50.058.25-Dec-2020 4892.01 2718.24 65.31 4.00 393.31 2535.10
   15:30:50.258.25-Dec-2020 4892.01 2718.21 65.31 4.00 393.51 2535.10
   15:30:50.458.25-Dec-2020 4892.01 2718.22 65.31 4.00 393.71 2535.10
   15:30:50.658.25-Dec-2020 4892.01 2718.29 65.31 4.00 393.91 2535.10
   15:30:50.858.25-Dec-2020 4892.01 2718.33 65.31 4.00 394.11 2535.10
   15:30:51.058.25-Dec-2020 4892.01 2718.33 65.31 4.00 394.31 2535.10
   15:30:51.258.25-Dec-2020 4892.01 2718.40 65.31 4.00 394.51 2535.10
   15:30:51.458.25-Dec-2020 4892.01 2718.36 65.31 4.00 394.71 2535.10
   15:30:51.658.25-Dec-2020 4892.01 2718.07 65.31 4.00 394.91 2535.10
   15:30:51.858.25-Dec-2020 4892.01 2718.39 65.31 4.00 395.11 2535.10
   15:30:52.058.25-Dec-2020 4892.01 2718.35 65.31 4.00 395.31 2535.10
   15:30:52.258.25-Dec-2020 4892.01 2718.30 65.31 4.00 395.51 2535.10
   15:30:52.458.25-Dec-2020 4892.01 2718.08 65.31 4.00 395.71 2535.10
   15:30:52.658.25-Dec-2020 4892.01 2718.12 65.31 4.00 395.91 2535.10
   15:30:52.858.25-Dec-2020 4892.01 2718.40 65.31 4.00 396.11 2535.10
   15:30:53.059.25-Dec-2020 4892.01 2718.40 65.31 4.00 396.31 2535.10
   15:30:53.259.25-Dec-2020 4892.01 2718.08 65.31 4.00 396.51 2535.10
   15:30:53.459.25-Dec-2020 4892.01 2718.34 65.31 4.00 396.71 2535.10
   15:30:53.659.25-Dec-2020 4892.01 2718.22 65.31 4.00 396.91 2535.10
   15:30:53.859.25-Dec-2020 4892.01 2718.19 65.31 4.00 397.11 2535.10
   15:30:54.059.25-Dec-2020 4892.01 2718.19 65.31 4.00 397.31 2535.10
   15:30:54.259.25-Dec-2020 4892.01 2718.24 65.31 4.00 397.51 2535.10
   15:30:54.459.25-Dec-2020 4892.01 2718.24 65.31 4.00 397.71 2535.10
   15:30:54.659.25-Dec-2020 4892.01 2718.23 65.31 4.00 397.91 2535.10
   15:30:54.859.25-Dec-2020 4892.01 2718.24 65.31 4.00 398.11 2535.10
   15:30:55.059.25-Dec-2020 4892.01 2718.24 65.31 4.00 398.31 2535.10
   15:30:55.259.25-Dec-2020 4892.01 2718.22 65.31 4.00 398.51 2535.10
   15:30:55.459.25-Dec-2020 4892.01 2718.42 65.31 4.00 398.71 2535.10
   15:30:55.659.25-Dec-2020 4892.01 2718.38 65.31 4.00 398.91 2535.10
   15:30:55.859.25-Dec-2020 4892.01 2718.07 65.31 4.00 399.11 2535.10
   15:30:56.059.25-Dec-2020 4892.01 2718.24 65.31 4.00 399.31 2535.10
   15:30:56.259.25-Dec-2020 4892.01 2718.24 65.31 4.00 399.51 2535.10
   15:30:56.459.25-Dec-2020 4892.01 2718.21 65.31 4.00 399.71 2535.10
   15:30:56.659.25-Dec-2020 4892.01 2718.26 65.31 4.00 399.91 2535.10
   15:30:56.860.25-Dec-2020 4892.01 2718.24 65.31 4.00 400.11 2535.10
   15:30:57.060.25-Dec-2020 4892.01 2718.24 65.31 4.00 400.31 2535.10
   15:30:57.260.25-Dec-2020 4892.01 2718.23 65.31 4.00 400.51 2535.10
   15:30:57.460.25-Dec-2020 4892.01 2718.24 65.31 4.00 400.71 2535.10
   15:30:57.660.25-Dec-2020 4892.01 2718.12 65.31 4.00 400.91 2535.10
   15:30:57.860.25-Dec-2020 4892.01 2718.40 65.31 4.00 401.11 2535.10
   15:30:58.060.25-Dec-2020 4892.01 2718.40 65.31 4.00 401.31 2535.10
   15:30:58.260.25-Dec-2020 4892.01 2718.08 65.31 4.00 401.51 2535.10
   15:30:58.460.25-Dec-2020 4892.01 2718.36 65.31 4.00 401.71 2535.10
   15:30:58.660.25-Dec-2020 4892.01 2718.23 65.31 4.00 401.91 2535.10
   15:30:58.860.25-Dec-2020 4892.01 2718.33 65.31 4.00 402.11 2535.10
   15:30:59.060.25-Dec-2020 4892.01 2718.33 65.31 4.00 402.31 2535.10
   15:30:59.260.25-Dec-2020 4892.01 2718.04 65.31 4.00 402.51 2535.10
   15:30:59.460.25-Dec-2020 4892.01 2718.50 65.31 4.00 402.71 2535.10
   15:30:59.660.25-Dec-2020 4892.01 2718.09 65.31 4.00 402.91 2535.10
   15:30:59.860.25-Dec-2020 4892.01 2718.23 65.31 4.00 403.11 2535.10
   15:31:00.060.25-Dec-2020 4892.01 2718.23 65.31 4.00 403.31 2535.10
   15:31:00.260.25-Dec-2020 4892.01 2718.13 65.31 4.00 403.51 2535.10
   15:31:00.461.25-Dec-2020 4892.01 2718.41 65.31 4.00 403.71 2535.10
   15:31:00.661.25-Dec-2020 4892.01 2718.33 65.31 4.00 403.91 2535.10
   15:31:00.861.25-Dec-2020 4892.01 2718.06 65.31 4.00 404.11 2535.10
   15:31:01.061.25-Dec-2020 4892.01 2718.06 65.31 4.00 404.31 2535.10
   15:31:01.261.25-Dec-2020 4892.01 2718.22 65.31 4.00 404.51 2535.10
   15:31:01.461.25-Dec-2020 4892.01 2718.19 65.31 4.00 404.71 2535.10
   15:31:01.661.25-Dec-2020 4892.01 2718.23 65.31 4.00 404.91 2535.10
   15:31:01.861.25-Dec-2020 4892.01 2718.24 65.31 4.00 405.11 2535.10
   15:31:02.061.25-Dec-2020 4892.01 2718.24 65.31 4.00 405.31 2535.10
   15:31:02.261.25-Dec-2020 4892.01 2718.23 65.31 4.00 405.51 2535.10
   15:31:02.461.25-Dec-2020 4892.01 2718.23 65.31 4.00 405.71 2535.10
   15:31:02.661.25-Dec-2020 4892.01 2718.23 65.31 4.00 405.91 2535.10
   15:31:02.861.25-Dec-2020 4892.01 2718.48 65.31 4.00 406.11 2535.10
   15:31:03.061.25-Dec-2020 4892.01 2718.48 65.31 4.00 406.31 2535.10
   15:31:03.261.25-Dec-2020 4892.01 2718.30 65.31 4.00 406.51 2535.10
   15:31:03.461.25-Dec-2020 4892.01 2718.21 65.31 4.00 406.71 2535.10
   15:31:03.661.25-Dec-2020 4892.01 2718.19 65.31 4.00 406.91 2535.10
   15:31:03.861.25-Dec-2020 4892.01 2718.23 65.31 4.00 407.11 2535.10
   15:31:04.061.25-Dec-2020 4892.01 2718.21 65.31 4.00 407.31 2535.10
   15:31:04.262.25-Dec-2020 4892.01 2718.26 65.31 4.00 407.51 2535.10
   15:31:04.462.25-Dec-2020 4892.01 2718.25 65.31 4.00 407.71 2535.10
   15:31:04.662.25-Dec-2020 4892.01 2718.24 65.31 4.00 407.91 2535.10
   15:31:04.862.25-Dec-2020 4892.01 2718.23 65.31 4.00 408.11 2535.10
   15:31:05.062.25-Dec-2020 4892.01 2718.23 65.31 4.00 408.31 2535.10
   15:31:05.262.25-Dec-2020 4892.01 2718.22 65.31 4.00 408.51 2535.10
   15:31:05.462.25-Dec-2020 4892.01 2718.41 65.31 4.00 408.71 2535.10
   15:31:05.662.25-Dec-2020 4892.01 2718.37 65.31 4.00 408.91 2535.10
   15:31:05.862.25-Dec-2020 4892.01 2718.06 65.31 4.00 409.11 2535.10
   15:31:06.062.25-Dec-2020 4892.01 2718.06 65.31 4.00 409.31 2535.10
   15:31:06.262.25-Dec-2020 4892.01 2718.50 65.31 4.00 409.51 2535.10
   15:31:06.462.25-Dec-2020 4892.01 2718.04 65.31 4.00 409.71 2535.10
   15:31:06.662.25-Dec-2020 4892.01 2718.30 65.31 4.00 409.91 2535.10
   15:31:06.862.25-Dec-2020 4892.01 2718.19 65.31 4.00 410.11 2535.10
   15:31:07.062.25-Dec-2020 4892.01 2718.19 65.31 4.00 410.31 2535.10
   15:31:07.262.25-Dec-2020 4892.01 2718.10 65.31 4.00 410.51 2535.10
   15:31:07.462.25-Dec-2020 4892.01 2718.28 65.31 4.00 410.71 2535.10
   15:31:07.662.25-Dec-2020 4892.01 2718.24 65.31 4.00 410.91 2535.10
   15:31:07.863.25-Dec-2020 4892.01 2718.39 65.31 4.00 411.11 2535.10
   15:31:08.063.25-Dec-2020 4892.01 2718.15 65.31 4.00 411.31 2535.10
   15:31:08.263.25-Dec-2020 4892.01 2718.27 65.31 4.00 411.51 2535.10
   15:31:08.463.25-Dec-2020 4892.01 2718.18 65.31 4.00 411.71 2535.10
   15:31:08.663.25-Dec-2020 4892.01 2718.19 65.31 4.00 411.91 2535.10
   15:31:08.863.25-Dec-2020 4892.01 2718.22 65.31 4.00 412.11 2535.10
   15:31:09.063.25-Dec-2020 4892.01 2718.22 65.31 4.00 412.31 2535.10
   15:31:09.263.25-Dec-2020 4892.01 2718.24 65.31 4.00 412.51 2535.10
   15:31:09.463.25-Dec-2020 4892.01 2718.24 65.31 4.00 412.71 2535.10
   15:31:09.663.25-Dec-2020 4892.01 2718.23 65.31 4.00 412.91 2535.10
   15:31:09.863.25-Dec-2020 4892.01 2718.24 65.31 4.00 413.11 2535.10
   15:31:10.063.25-Dec-2020 4892.01 2718.24 65.31 4.00 413.31 2535.10
   15:31:10.263.25-Dec-2020 4892.01 2718.24 65.31 4.00 413.51 2535.10
   15:31:10.463.25-Dec-2020 4892.01 2718.35 65.31 4.00 413.71 2535.10
   15:31:10.663.25-Dec-2020 4892.01 2718.11 65.31 4.00 413.91 2535.10
