~Version Information
 VERS.                  2.0:   CWLS log ASCII Standard -VERSION 2.0
 WRAP.                   NO:   One line per depth step
~Well Information Block
#MNEM.UNIT     VALUE/NAME     DESCRIPTION
#---------     -----------    ---------------------------
 STRT.S             21:28:23 25-Dec-20: START TIME 21:28:23 25-Dec-20
 STOP.S             21:36:48 25-Dec-20: STOP TIME  21:36:48 25-Dec-20
 STEP.S                   0.00: STEP TIME
 NULL.                 -999.25: NULL VALUE
 DFWT.                        :  DIST FWL TEXT
 DFST.                        :  DIST FSL TEXT
 DMF .             Drill Floor:  DRILL MEAS FROM
 STIM.      04.54.24 22-Sep-20:  START TIME
 DATE.      04.54.24 21-Nov-20:  END TIME
 SPUD.               21-Nov-20:  SPUD DATE
 NREF.                    Grid:  NORTH REFERENCE
 HPTY.       Minimum Curvature:  HOLE POS TYPE
 DMOD.             Drill Model:  DRILL MOD DESC
 SVYD.                  Survey:  SURVEY DESC
 ILTD.               Lithology:  INTERP LTH DESC
 FTOP.          Formation Tops:  FORM TOPS DESC
 SON .        AZ-XX-0906571587:  JOB NUMBER
 COMP.     BP Exploration (Caspian Sea) Ltd:  COMPANY
 UWI .                     N/A:  UNIQUE WELL IDENTIFIER
 API .                     N/A:  API NUMBER
 BASE.              Azerbaijan:  LOGGING EQUIPMENT BASE LOCATION
 REGN.                   EESSA:  REGION
 PROV.                    Baku:  PROVINCE
 STAT.                    Baku:  STATE NAME
 CTRY.              Azerbaijan:  COUNTRY NAME
 FLD .                     ACG:  FIELD NAME
 SRVC.     TURAN Drilling & Engineering:  CONTRACTOR
 WELL.                     J27:  WELL NAME
 RIG .             West Chirag:  RIG NAME
 DOE .                     N/A:  DOE NUMBER
 DCON.         Sperry Drilling:  DIRECTNL CONTR
 PDAT.          Mean Sea Level:  PERMANENT DATUM
 WTYP.                Deviated:  WELL TYPE
 MWDS.                    Baku:  MWD SHOP
 JOBN.        AZ-XX-0906571587:  JOB TICKET NUMB
 UNIT.                     N/A:  LOGGING EQUIPMENT ID
 MDS .        Operator Entered:  MAG DATA SOURCE
 CNTY.                        :  COUNTY
 LOC .                        :  LOCATION
 LMF .             Drill Floor:  LOG MEASURED FROM
 TVDS.m                  43.00:  TVDSS CORRECTN
 LATI.deg                40.13:  LATITUDE
 LONG.deg                51.22:  LONGITUDE
 WHNS.m                   7.72:  WELL HEAD N/S
 WHEW.m                 -14.24:  WELL HEAD E/W
 UTMX.m              519005.06:  UTM X
 UTMY.m             4443793.85:  UTM Y
 DFWL.m                   0.00:  DISTANCE FWL
 DFSL.m                   0.00:  DISTANCE FSL
 SDEP.m                 347.00:  START DEPTH
 TDD .m                 581.00:  TOTAL DEPTH (DRILLER)
 VSDR.deg               159.72:  VERT SEC DIRECT
 GVFD.g                   1.00:  GRAVITY FIELD
 MFLD.nT              50318.00:  MAGNETIC FIELD
 MDIP.deg                59.57:  MAGNETIC DIP
 MDEC.deg                 6.44:  MAGNETIC DECL
 GRDC.deg                 0.15:  GRID CORRECTION
 AZTC.deg                 6.29:  AZM TOTAL CORR
 EPD .m                   0.00:  ELEVATION
 EGL .m                   0.00:  GROUND ELEVATION
 WDMS.m                 169.80:  WD ELEV
 APD .m                  43.00:  DEPTH ABOVE PD
 AGAP.m                  43.00:  AIR GAP
 VSEW.m                 -14.24:  VERT SEC E/W
 VSNS.m                   7.72:  VERT SEC N/S
 DEP .m                 342.45:  DEPTH
 EKB .m                   0.00:  KB ELEVATION
 EDF .m                  43.00:  DF ELEVATION
 TDL .m                 237.00:  TOTAL DEPTH (LOGGER)
 VSC .                       0:  VS TO CLOSURE
 MAGU.                 1851428:  MAGUTM CHECKSUM
~Parameter Information Block
#MNEM.UNIT       Value        Description
#---------     -----------    ---------------------------
 AV  .mps                 1.50:  Ann Velocity 
 AVMX.mps                 2.90:  Max Ann Veloc 
 AZIF.deg               115.59:  Azm, Final 
 BHAT.        Rotary Steerable:  BHA Type 
 BROT.°/30m               0.50:  Build Rotating 
 BS  .in                  8.50:  Bit Size 
 BTPL.psig              580.00:  Bit Press Loss 
 CABU.                     Yes:  Customer Abuse 
 COMM.                     Üc{:  Run Comments 1 
 TCS .hr                 89.79:  Time Ciculation Ended 
 CV  .mps                 3.22:  Crit Velocity 
 CVMX.mps                 4.37:  Max Crit Veloc 
 DD1 .          Rashad Habibov:  Direct Drillr 1 
 DDSV.               Geo-Pilot:  DD Service 
 DEFF.%                  95.00:  % Det Eff 
 DLRX.°/30m               1.94:  Dogleg Rot Max 
 DLSO.°/30m               0.70:  Dogleg Oriented 
 DLSX.°/30m               1.94:  Dogleg Str Max 
 DRET.      04.45.00 25-Dec-20:  Drill End Time 
 DRST.      10.00.00 24-Dec-20:  Drill Start Tim 
 DTIM.hr                 16.64:  Time Drilling 
 EDEP.m                4999.01:  End Depth 
 ENG1.         Elchin Mammadov:  Engineer 1 
 ENG2.          Ruslan Safarov:  Engineer 2 
 ENG3.          Rustam Safarov:  Engineer 3 
 ETIM.      09.00.00 29-Dec-20:  End Time 
 FLOI.gpm               500.00:  Flow In 
 FLON.gpm               400.00:  Flow In Min 
 FLOS.cptm                0.00:  Fluid Loss 
 FLOX.gpm               500.00:  Flow In Max 
 HFLO.                      No:  High Flow 
 HPRE.                      No:  High Pressure 
 HTEM.                      No:  High Temp 
 HYDO.m                   2.00:  Hydro Offset 
 IFIN.deg                66.79:  Inc, Final 
 IMAX.deg                67.66:  Inc Max 
 IMIN.deg                66.39:  Inc Min 
 IMND.m                4949.37:  Inc Min Depth 
 IMXD.m                4778.63:  Inc Max Depth 
 JARR.                     Yes:  Jarring 
 LETM.      04.45.00 25-Dec-20:  Log End Time 
 LOST.hr                     0:  Lost Rig Time 
 LSTM.      10.00.00 24-Dec-20:  Log Start Time 
 MDCL.ppm             39000.00:  Mud Chlorides 
 MDES.     Inversion Oil/Synthetic:  Mud Desc 
 DFD .sg                  1.33:  Mud Density 
 MDMN.sg                  1.33:  Dens Mud Min 
 MDMX.sg                  1.33:  Dens Mud Max 
 MOIL.                      70:  Run Mud Oil % 
 MOWR.                   70:30:  Run Mud OWR 
 MSND.                       0:  Run Mud Sand % 
 MSOL.                    17.4:  Run Mud Solids% 
 DFV .spqt               84.00:  Mud Viscosity 
 MWOD.in                  6.75:  MWD Tool OD 
 MWSI.                     Yes:  Serv Intrp, MWD 
 OTIM.hr                168.14:  Time Operating 
 PCON.           Look Like New:  Pad Condition 
 PMAX.psia            10822.93:  Press Op, Max 
 PV  .cP                 30.00:  Mud PV 
 RUN .                     900:  Run Number 
 ROPA.m/hr               18.00:  ROP Avg 
 ROPN.m/hr               12.00:  ROP Min 
 ROPX.m/hr               25.00:  ROP Max 
 RPMA.rpm               120.00:  RPM Surface Avg 
 RPMN.rpm               100.00:  RPM Surface Min 
 RPMX.rpm               120.00:  RPM Surface Max 
 RRUN.                    0900:  Rig Run Number 
 SAZI.deg               115.08:  Azm, Start 
 SDEP.m                4762.01:  Start Depth 
 SIDD.                      No:  Serv Intrp, DD 
 SINC.deg                66.14:  Inc, Start 
 SPPA.psig             3700.00:  SPP Avg 
 SPPN.psig             3620.00:  SPP Min 
 SPPX.psig             3900.00:  SPP Max 
 STIM.      09.30.00 22-Dec-20:  Start Time 
 SVCS.                 DD, MWD:  Services 
 SVER.                    9.20:  Sperry Version 
 TDAT.m                 237.00:  Tot Depth Attmp 
 TDDF.                      No:  Trip for DD 
 TDLG.m                 237.00:  Tot Depth Loggd 
 TFF .                      No:  Trip for Fail 
 TQAA.f-kp               18.00:  Torque Abs Avg 
 TQAN.f-kp               17.00:  Torque Abs Min 
 TQAX.f-kp               20.00:  Torque Abs Max 
 TRRT.°/30m               0.60:  Turn Rotating 
 MRT .                    HCIM:  Maximum Recorded Temperature 
 TTMX.degC               94.12:  Max Tool Temp 
 VS01.                90627809:  Virtual Str1 SN 
 VS02.                90527813:  Virtual Str2 SN 
 VS03.                90545417:  Virtual Str3 SN 
 VS04.                12460870:  Virtual Str4 SN 
 VS05.                90516706:  Virtual Str5 SN 
 VS06.                90632007:  Virtual Str6 SN 
 WBMN.klb                 0.00:  WOB Min 
 WOBA.klb                14.00:  WOB Avg 
 WOBX.klb                25.00:  WOB Max 
 YP  .lhf2               32.00:  Yield Point 
~Curve Information Block
#MNEM.UNIT                 API CODE     Curve Description
#---------               -----------    ---------------------------
 TIME.HHMMSS            00 000 000 000:  GT Time & Date
 GTDEPTH.m              00 000 000 000:  GT Depth
 GTPQH.psia             00 000 000 000:  GT HR Quartz Pressure
 GTTQ.degC              00 000 000 000:  GT Quartz Temperature
 GTTN.NONE              00 000 000 000:  GT Test Number
 GTET.sec               00 000 000 000:  GT Elapsed Test Time
 GTTVD.m                00 000 000 000:  GT True Vertical Depth
#Other Information
#
#WARRANTY: Halliburton will use its best efforts to furnish customers with 
#accurate information and interpretations that are part of, and incident to, the services 
#provided.  However, Halliburton cannot and does not warrant the accuracy 
#or correctness of such information and interpretations.  Under no circumstances should any 
#such information or interpretation be relied upon as the sole basis for any drilling, 
#completion, production, or financial decision or any procedure involving any risk to the 
#safety of any drilling venture, drilling rig or its crew or any other third party.  The 
#Customer has full responsibility for all drilling, completion and production operation.  
#Halliburton makes no representations or warranties, either expressed or 
#implied, including, but not limited to, the implied warranties of merchantability or fitness 
#for a particular purpose, with respect to the services rendered.  In no event will 
#Halliburton be liable for failure to obtain any particular results or for 
#any damages, including, but not limited to, indirect, special or consequential damages, 
#resulting from the use of any information or interpretation provided by Halliburton.
#
~A           TIME           GTDEPTH  GTPQH  GTTQ  GTTN  GTET   GTTVD  
# ...
   21:33:22.597.25-Dec-2020 4768.01 3248.57 63.81 9.00 298.98 2486.78
   21:33:22.797.25-Dec-2020 4768.01 3248.49 63.81 9.00 299.18 2486.78
   21:33:22.997.25-Dec-2020 4768.01 3247.28 63.81 9.00 299.38 2486.78
   21:33:23.197.25-Dec-2020 4768.01 3248.99 63.81 9.00 299.58 2486.78
   21:33:23.397.25-Dec-2020 4768.01 3248.27 63.81 9.00 299.78 2486.78
   21:33:23.597.25-Dec-2020 4768.01 3248.69 63.81 9.00 299.98 2486.78
   21:33:23.797.25-Dec-2020 4768.01 3248.69 63.81 9.00 300.18 2486.78
   21:33:23.997.25-Dec-2020 4768.01 3248.49 63.81 9.00 300.38 2486.78
   21:33:24.197.25-Dec-2020 4768.01 3247.68 63.81 9.00 300.58 2486.78
   21:33:24.397.25-Dec-2020 4768.01 3248.71 63.81 9.00 300.78 2486.78
   21:33:24.597.25-Dec-2020 4768.01 3248.69 63.81 9.00 300.98 2486.78
   21:33:24.797.25-Dec-2020 4768.01 3248.69 63.81 9.00 301.18 2486.78
   21:33:24.997.25-Dec-2020 4768.01 3249.13 63.81 9.00 301.38 2486.78
   21:33:25.197.25-Dec-2020 4768.01 3248.51 63.81 9.00 301.58 2486.78
   21:33:25.397.25-Dec-2020 4768.01 3247.58 63.81 9.00 301.78 2486.78
   21:33:25.597.25-Dec-2020 4768.01 3249.23 63.81 9.00 301.98 2486.78
   21:33:25.797.25-Dec-2020 4768.01 3249.23 63.81 9.00 302.18 2486.78
   21:33:25.997.25-Dec-2020 4768.01 3248.77 63.81 9.00 302.38 2486.78
   21:33:26.197.25-Dec-2020 4768.01 3248.79 63.81 9.00 302.58 2486.78
   21:33:26.397.25-Dec-2020 4768.01 3248.57 63.81 9.00 302.78 2486.78
   21:33:26.597.25-Dec-2020 4768.01 3248.72 63.81 9.00 302.98 2486.78
   21:33:26.797.25-Dec-2020 4768.01 3248.72 63.81 9.00 303.18 2486.78
   21:33:26.997.25-Dec-2020 4768.01 3248.67 63.81 9.00 303.38 2486.78
   21:33:27.197.25-Dec-2020 4768.01 3248.77 63.81 9.00 303.58 2486.78
   21:33:27.397.25-Dec-2020 4768.01 3248.65 63.81 9.00 303.78 2486.78
   21:33:27.597.25-Dec-2020 4768.01 3248.76 63.81 9.00 303.98 2486.78
   21:33:27.797.25-Dec-2020 4768.01 3248.76 63.81 9.00 304.18 2486.78
   21:33:27.997.25-Dec-2020 4768.01 3247.67 63.81 9.00 304.38 2486.78
   21:33:28.197.25-Dec-2020 4768.01 3248.93 63.81 9.00 304.58 2486.78
   21:33:28.397.25-Dec-2020 4768.01 3248.67 63.81 9.00 304.78 2486.78
   21:33:28.597.25-Dec-2020 4768.01 3248.94 63.81 9.00 304.98 2486.78
   21:33:28.797.25-Dec-2020 4768.01 3248.94 63.81 9.00 305.18 2486.78
   21:33:28.997.25-Dec-2020 4768.01 3248.71 63.81 9.00 305.38 2486.78
   21:33:29.196.25-Dec-2020 4768.01 3248.92 63.81 9.00 305.58 2486.78
   21:33:29.396.25-Dec-2020 4768.01 3248.77 63.81 9.00 305.78 2486.78
   21:33:29.596.25-Dec-2020 4768.01 3248.85 63.81 9.00 305.98 2486.78
   21:33:29.796.25-Dec-2020 4768.01 3248.85 63.81 9.00 306.18 2486.78
   21:33:29.996.25-Dec-2020 4768.01 3248.79 63.81 9.00 306.38 2486.78
   21:33:30.196.25-Dec-2020 4768.01 3248.91 63.81 9.00 306.58 2486.78
   21:33:30.396.25-Dec-2020 4768.01 3248.35 63.81 9.00 306.78 2486.78
   21:33:30.596.25-Dec-2020 4768.01 3248.32 63.81 9.00 306.98 2486.78
   21:33:30.796.25-Dec-2020 4768.01 3248.73 63.81 9.00 307.18 2486.78
   21:33:30.996.25-Dec-2020 4768.01 3249.08 63.81 9.00 307.38 2486.78
   21:33:31.196.25-Dec-2020 4768.01 3248.94 63.81 9.00 307.58 2486.78
   21:33:31.396.25-Dec-2020 4768.01 3248.32 63.81 9.00 307.78 2486.78
   21:33:31.596.25-Dec-2020 4768.01 3248.47 63.81 9.00 307.98 2486.78
   21:33:31.796.25-Dec-2020 4768.01 3248.47 63.81 9.00 308.18 2486.78
   21:33:31.996.25-Dec-2020 4768.01 3249.19 63.81 9.00 308.38 2486.78
   21:33:32.196.25-Dec-2020 4768.01 3248.13 63.81 9.00 308.58 2486.78
   21:33:32.396.25-Dec-2020 4768.01 3248.99 63.81 9.00 308.78 2486.78
   21:33:32.596.25-Dec-2020 4768.01 3248.86 63.81 9.00 308.98 2486.78
   21:33:32.796.25-Dec-2020 4768.01 3248.86 63.81 9.00 309.18 2486.78
   21:33:32.996.25-Dec-2020 4768.01 3248.86 63.80 9.00 309.38 2486.78
   21:33:33.196.25-Dec-2020 4768.01 3249.24 63.80 9.00 309.58 2486.78
   21:33:33.396.25-Dec-2020 4768.01 3249.06 63.80 9.00 309.78 2486.78
   21:33:33.596.25-Dec-2020 4768.01 3248.95 63.80 9.00 309.98 2486.78
   21:33:33.796.25-Dec-2020 4768.01 3248.95 63.80 9.00 310.18 2486.78
   21:33:33.996.25-Dec-2020 4768.01 3248.95 63.80 9.00 310.38 2486.78
   21:33:34.196.25-Dec-2020 4768.01 3249.09 63.80 9.00 310.58 2486.78
   21:33:34.396.25-Dec-2020 4768.01 3249.00 63.80 9.00 310.78 2486.78
   21:33:34.596.25-Dec-2020 4768.01 3249.03 63.80 9.00 310.98 2486.78
   21:33:34.796.25-Dec-2020 4768.01 3249.05 63.80 9.00 311.18 2486.78
   21:33:34.996.25-Dec-2020 4768.01 3248.98 63.80 9.00 311.38 2486.78
   21:33:35.196.25-Dec-2020 4768.01 3247.88 63.80 9.00 311.58 2486.78
   21:33:35.396.25-Dec-2020 4768.01 3249.38 63.80 9.00 311.78 2486.78
   21:33:35.596.25-Dec-2020 4768.01 3248.83 63.80 9.00 311.98 2486.78
   21:33:35.796.25-Dec-2020 4768.01 3248.83 63.80 9.00 312.18 2486.78
   21:33:35.996.25-Dec-2020 4768.01 3249.03 63.80 9.00 312.38 2486.78
   21:33:36.196.25-Dec-2020 4768.01 3249.12 63.80 9.00 312.58 2486.78
   21:33:36.396.25-Dec-2020 4768.01 3249.03 63.80 9.00 312.78 2486.78
   21:33:36.596.25-Dec-2020 4768.01 3249.14 63.80 9.00 312.98 2486.78
   21:33:36.796.25-Dec-2020 4768.01 3249.14 63.80 9.00 313.18 2486.78
   21:33:36.996.25-Dec-2020 4768.01 3249.09 63.80 9.00 313.38 2486.78
   21:33:37.196.25-Dec-2020 4768.01 3249.18 63.80 9.00 313.58 2486.78
   21:33:37.396.25-Dec-2020 4768.01 3249.10 63.80 9.00 313.78 2486.78
   21:33:37.596.25-Dec-2020 4768.01 3249.12 63.80 9.00 313.98 2486.78
   21:33:37.796.25-Dec-2020 4768.01 3248.20 63.80 9.00 314.18 2486.78
   21:33:37.996.25-Dec-2020 4768.01 3249.16 63.80 9.00 314.38 2486.78
   21:33:38.196.25-Dec-2020 4768.01 3249.13 63.80 9.00 314.58 2486.78
   21:33:38.396.25-Dec-2020 4768.01 3249.30 63.80 9.00 314.78 2486.78
   21:33:38.596.25-Dec-2020 4768.01 3249.15 63.80 9.00 314.98 2486.78
   21:33:38.796.25-Dec-2020 4768.01 3249.15 63.80 9.00 315.18 2486.78
   21:33:38.996.25-Dec-2020 4768.01 3248.61 63.80 9.00 315.38 2486.78
   21:33:39.196.25-Dec-2020 4768.01 3249.16 63.80 9.00 315.58 2486.78
   21:33:39.396.25-Dec-2020 4768.01 3249.55 63.80 9.00 315.78 2486.78
   21:33:39.596.25-Dec-2020 4768.01 3248.29 63.80 9.00 315.98 2486.78
   21:33:39.796.25-Dec-2020 4768.01 3248.29 63.80 9.00 316.18 2486.78
   21:33:39.996.25-Dec-2020 4768.01 3249.43 63.80 9.00 316.38 2486.78
   21:33:40.196.25-Dec-2020 4768.01 3248.52 63.80 9.00 316.58 2486.78
   21:33:40.396.25-Dec-2020 4768.01 3249.35 63.80 9.00 316.78 2486.78
   21:33:40.596.25-Dec-2020 4768.01 3249.17 63.80 9.00 316.98 2486.78
   21:33:40.796.25-Dec-2020 4768.01 3249.17 63.80 9.00 317.18 2486.78
   21:33:40.996.25-Dec-2020 4768.01 3249.17 63.80 9.00 317.38 2486.78
   21:33:41.196.25-Dec-2020 4768.01 3249.30 63.80 9.00 317.58 2486.78
   21:33:41.396.25-Dec-2020 4768.01 3249.35 63.80 9.00 317.78 2486.78
   21:33:41.596.25-Dec-2020 4768.01 3249.26 63.80 9.00 317.98 2486.78
   21:33:41.796.25-Dec-2020 4768.01 3249.26 63.80 9.00 318.18 2486.78
   21:33:41.996.25-Dec-2020 4768.01 3249.26 63.80 9.00 318.38 2486.78
   21:33:42.196.25-Dec-2020 4768.01 3249.33 63.80 9.00 318.58 2486.78
   21:33:42.396.25-Dec-2020 4768.01 3249.32 63.80 9.00 318.78 2486.78
   21:33:42.596.25-Dec-2020 4768.01 3248.85 63.80 9.00 318.98 2486.78
   21:33:42.796.25-Dec-2020 4768.01 3248.89 63.80 9.00 319.18 2486.78
   21:33:42.996.25-Dec-2020 4768.01 3249.09 63.80 9.00 319.38 2486.78
   21:33:43.196.25-Dec-2020 4768.01 3249.68 63.80 9.00 319.58 2486.78
   21:33:43.396.25-Dec-2020 4768.01 3249.40 63.80 9.00 319.78 2486.78
   21:33:43.596.25-Dec-2020 4768.01 3249.26 63.80 9.00 319.98 2486.78
   21:33:43.796.25-Dec-2020 4768.01 3249.26 63.80 9.00 320.18 2486.78
   21:33:43.996.25-Dec-2020 4768.01 3249.40 63.80 9.00 320.38 2486.78
   21:33:44.196.25-Dec-2020 4768.01 3249.43 63.80 9.00 320.58 2486.78
   21:33:44.395.25-Dec-2020 4768.01 3249.43 63.80 9.00 320.78 2486.78
   21:33:44.595.25-Dec-2020 4768.01 3249.38 63.80 9.00 320.98 2486.78
   21:33:44.795.25-Dec-2020 4768.01 3249.38 63.80 9.00 321.18 2486.78
   21:33:44.995.25-Dec-2020 4768.01 3248.95 63.80 9.00 321.38 2486.78
   21:33:45.195.25-Dec-2020 4768.01 2995.63 63.80 9.00 321.58 2486.78
   21:33:45.395.25-Dec-2020 4768.01 2768.50 63.80 9.00 321.78 2486.78
