~Version Information
 VERS.                  2.0:   CWLS log ASCII Standard -VERSION 2.0
 WRAP.                   NO:   One line per depth step
~Well Information Block
#MNEM.UNIT     VALUE/NAME     DESCRIPTION
#---------     -----------    ---------------------------
 STRT.S             19:12:01 25-Dec-20: START TIME 19:12:01 25-Dec-20
 STOP.S             19:20:19 25-Dec-20: STOP TIME  19:20:19 25-Dec-20
 STEP.S                   0.00: STEP TIME
 NULL.                 -999.25: NULL VALUE
 DFWT.                        :  DIST FWL TEXT
 DFST.                        :  DIST FSL TEXT
 DMF .             Drill Floor:  DRILL MEAS FROM
 STIM.      04.54.24 22-Sep-20:  START TIME
 DATE.      04.54.24 21-Nov-20:  END TIME
 SPUD.               21-Nov-20:  SPUD DATE
 NREF.                    Grid:  NORTH REFERENCE
 HPTY.       Minimum Curvature:  HOLE POS TYPE
 DMOD.             Drill Model:  DRILL MOD DESC
 SVYD.                  Survey:  SURVEY DESC
 ILTD.               Lithology:  INTERP LTH DESC
 FTOP.          Formation Tops:  FORM TOPS DESC
 SON .        AZ-XX-0906571587:  JOB NUMBER
 COMP.     BP Exploration (Caspian Sea) Ltd:  COMPANY
 UWI .                     N/A:  UNIQUE WELL IDENTIFIER
 API .                     N/A:  API NUMBER
 BASE.              Azerbaijan:  LOGGING EQUIPMENT BASE LOCATION
 REGN.                   EESSA:  REGION
 PROV.                    Baku:  PROVINCE
 STAT.                    Baku:  STATE NAME
 CTRY.              Azerbaijan:  COUNTRY NAME
 FLD .                     ACG:  FIELD NAME
 SRVC.     TURAN Drilling & Engineering:  CONTRACTOR
 WELL.                     J27:  WELL NAME
 RIG .             West Chirag:  RIG NAME
 DOE .                     N/A:  DOE NUMBER
 DCON.         Sperry Drilling:  DIRECTNL CONTR
 PDAT.          Mean Sea Level:  PERMANENT DATUM
 WTYP.                Deviated:  WELL TYPE
 MWDS.                    Baku:  MWD SHOP
 JOBN.        AZ-XX-0906571587:  JOB TICKET NUMB
 UNIT.                     N/A:  LOGGING EQUIPMENT ID
 MDS .        Operator Entered:  MAG DATA SOURCE
 CNTY.                        :  COUNTY
 LOC .                        :  LOCATION
 LMF .             Drill Floor:  LOG MEASURED FROM
 TVDS.m                  43.00:  TVDSS CORRECTN
 LATI.deg                40.13:  LATITUDE
 LONG.deg                51.22:  LONGITUDE
 WHNS.m                   7.72:  WELL HEAD N/S
 WHEW.m                 -14.24:  WELL HEAD E/W
 UTMX.m              519005.06:  UTM X
 UTMY.m             4443793.85:  UTM Y
 DFWL.m                   0.00:  DISTANCE FWL
 DFSL.m                   0.00:  DISTANCE FSL
 SDEP.m                 347.00:  START DEPTH
 TDD .m                 581.00:  TOTAL DEPTH (DRILLER)
 VSDR.deg               159.72:  VERT SEC DIRECT
 GVFD.g                   1.00:  GRAVITY FIELD
 MFLD.nT              50318.00:  MAGNETIC FIELD
 MDIP.deg                59.57:  MAGNETIC DIP
 MDEC.deg                 6.44:  MAGNETIC DECL
 GRDC.deg                 0.15:  GRID CORRECTION
 AZTC.deg                 6.29:  AZM TOTAL CORR
 EPD .m                   0.00:  ELEVATION
 EGL .m                   0.00:  GROUND ELEVATION
 WDMS.m                 169.80:  WD ELEV
 APD .m                  43.00:  DEPTH ABOVE PD
 AGAP.m                  43.00:  AIR GAP
 VSEW.m                 -14.24:  VERT SEC E/W
 VSNS.m                   7.72:  VERT SEC N/S
 DEP .m                 342.45:  DEPTH
 EKB .m                   0.00:  KB ELEVATION
 EDF .m                  43.00:  DF ELEVATION
 TDL .m                 237.00:  TOTAL DEPTH (LOGGER)
 VSC .                       0:  VS TO CLOSURE
 MAGU.                 1851428:  MAGUTM CHECKSUM
~Parameter Information Block
#MNEM.UNIT       Value        Description
#---------     -----------    ---------------------------
 AV  .mps                 1.50:  Ann Velocity 
 AVMX.mps                 2.90:  Max Ann Veloc 
 AZIF.deg               115.59:  Azm, Final 
 BHAT.        Rotary Steerable:  BHA Type 
 BROT.°/30m               0.50:  Build Rotating 
 BS  .in                  8.50:  Bit Size 
 BTPL.psig              580.00:  Bit Press Loss 
 CABU.                     Yes:  Customer Abuse 
 COMM.                     Ìt:  Run Comments 1 
 TCS .hr                 89.79:  Time Ciculation Ended 
 CV  .mps                 3.22:  Crit Velocity 
 CVMX.mps                 4.37:  Max Crit Veloc 
 DD1 .          Rashad Habibov:  Direct Drillr 1 
 DDSV.               Geo-Pilot:  DD Service 
 DEFF.%                  95.00:  % Det Eff 
 DLRX.°/30m               1.94:  Dogleg Rot Max 
 DLSO.°/30m               0.70:  Dogleg Oriented 
 DLSX.°/30m               1.94:  Dogleg Str Max 
 DRET.      04.45.00 25-Dec-20:  Drill End Time 
 DRST.      10.00.00 24-Dec-20:  Drill Start Tim 
 DTIM.hr                 16.64:  Time Drilling 
 EDEP.m                4999.01:  End Depth 
 ENG1.         Elchin Mammadov:  Engineer 1 
 ENG2.          Ruslan Safarov:  Engineer 2 
 ENG3.          Rustam Safarov:  Engineer 3 
 ETIM.      09.00.00 29-Dec-20:  End Time 
 FLOI.gpm               500.00:  Flow In 
 FLON.gpm               400.00:  Flow In Min 
 FLOS.cptm                0.00:  Fluid Loss 
 FLOX.gpm               500.00:  Flow In Max 
 HFLO.                      No:  High Flow 
 HPRE.                      No:  High Pressure 
 HTEM.                      No:  High Temp 
 HYDO.m                   2.00:  Hydro Offset 
 IFIN.deg                66.79:  Inc, Final 
 IMAX.deg                67.66:  Inc Max 
 IMIN.deg                66.39:  Inc Min 
 IMND.m                4949.37:  Inc Min Depth 
 IMXD.m                4778.63:  Inc Max Depth 
 JARR.                     Yes:  Jarring 
 LETM.      04.45.00 25-Dec-20:  Log End Time 
 LOST.hr                     0:  Lost Rig Time 
 LSTM.      10.00.00 24-Dec-20:  Log Start Time 
 MDCL.ppm             39000.00:  Mud Chlorides 
 MDES.     Inversion Oil/Synthetic:  Mud Desc 
 DFD .sg                  1.33:  Mud Density 
 MDMN.sg                  1.33:  Dens Mud Min 
 MDMX.sg                  1.33:  Dens Mud Max 
 MOIL.                      70:  Run Mud Oil % 
 MOWR.                   70:30:  Run Mud OWR 
 MSND.                       0:  Run Mud Sand % 
 MSOL.                    17.4:  Run Mud Solids% 
 DFV .spqt               84.00:  Mud Viscosity 
 MWOD.in                  6.75:  MWD Tool OD 
 MWSI.                     Yes:  Serv Intrp, MWD 
 OTIM.hr                168.14:  Time Operating 
 PCON.           Look Like New:  Pad Condition 
 PMAX.psia            10822.93:  Press Op, Max 
 PV  .cP                 30.00:  Mud PV 
 RUN .                     900:  Run Number 
 ROPA.m/hr               18.00:  ROP Avg 
 ROPN.m/hr               12.00:  ROP Min 
 ROPX.m/hr               25.00:  ROP Max 
 RPMA.rpm               120.00:  RPM Surface Avg 
 RPMN.rpm               100.00:  RPM Surface Min 
 RPMX.rpm               120.00:  RPM Surface Max 
 RRUN.                    0900:  Rig Run Number 
 SAZI.deg               115.08:  Azm, Start 
 SDEP.m                4762.01:  Start Depth 
 SIDD.                      No:  Serv Intrp, DD 
 SINC.deg                66.14:  Inc, Start 
 SPPA.psig             3700.00:  SPP Avg 
 SPPN.psig             3620.00:  SPP Min 
 SPPX.psig             3900.00:  SPP Max 
 STIM.      09.30.00 22-Dec-20:  Start Time 
 SVCS.                 DD, MWD:  Services 
 SVER.                    9.20:  Sperry Version 
 TDAT.m                 237.00:  Tot Depth Attmp 
 TDDF.                      No:  Trip for DD 
 TDLG.m                 237.00:  Tot Depth Loggd 
 TFF .                      No:  Trip for Fail 
 TQAA.f-kp               18.00:  Torque Abs Avg 
 TQAN.f-kp               17.00:  Torque Abs Min 
 TQAX.f-kp               20.00:  Torque Abs Max 
 TRRT.°/30m               0.60:  Turn Rotating 
 MRT .                    HCIM:  Maximum Recorded Temperature 
 TTMX.degC               94.12:  Max Tool Temp 
 VS01.                90627809:  Virtual Str1 SN 
 VS02.                90527813:  Virtual Str2 SN 
 VS03.                90545417:  Virtual Str3 SN 
 VS04.                12460870:  Virtual Str4 SN 
 VS05.                90516706:  Virtual Str5 SN 
 VS06.                90632007:  Virtual Str6 SN 
 WBMN.klb                 0.00:  WOB Min 
 WOBA.klb                14.00:  WOB Avg 
 WOBX.klb                25.00:  WOB Max 
 YP  .lhf2               32.00:  Yield Point 
~Curve Information Block
#MNEM.UNIT                 API CODE     Curve Description
#---------               -----------    ---------------------------
 TIME.HHMMSS            00 000 000 000:  GT Time & Date
 GTDEPTH.m              00 000 000 000:  GT Depth
 GTPQH.psia             00 000 000 000:  GT HR Quartz Pressure
 GTTQ.degC              00 000 000 000:  GT Quartz Temperature
 GTTN.NONE              00 000 000 000:  GT Test Number
 GTET.sec               00 000 000 000:  GT Elapsed Test Time
 GTTVD.m                00 000 000 000:  GT True Vertical Depth
#Other Information
#
#WARRANTY: Halliburton will use its best efforts to furnish customers with 
#accurate information and interpretations that are part of, and incident to, the services 
#provided.  However, Halliburton cannot and does not warrant the accuracy 
#or correctness of such information and interpretations.  Under no circumstances should any 
#such information or interpretation be relied upon as the sole basis for any drilling, 
#completion, production, or financial decision or any procedure involving any risk to the 
#safety of any drilling venture, drilling rig or its crew or any other third party.  The 
#Customer has full responsibility for all drilling, completion and production operation.  
#Halliburton makes no representations or warranties, either expressed or 
#implied, including, but not limited to, the implied warranties of merchantability or fitness 
#for a particular purpose, with respect to the services rendered.  In no event will 
#Halliburton be liable for failure to obtain any particular results or for 
#any damages, including, but not limited to, indirect, special or consequential damages, 
#resulting from the use of any information or interpretation provided by Halliburton.
#
~A           TIME           GTDEPTH  GTPQH  GTTQ  GTTN  GTET   GTTVD  
   19:12:01.121.25-Dec-2020 4808.01 5354.09 63.96 7.00   0.00 2502.07
   19:12:01.321.25-Dec-2020 4808.01 5354.09 63.96 7.00   0.20 2502.07
   19:12:01.521.25-Dec-2020 4808.01 5354.94 63.96 7.00   0.40 2502.07
   19:12:01.721.25-Dec-2020 4808.01 5360.58 63.96 7.00   0.60 2502.07
   19:12:01.921.25-Dec-2020 4808.01 5354.69 63.96 7.00   0.80 2502.07
   19:12:02.122.25-Dec-2020 4808.01 5355.28 63.95 7.00   1.00 2502.07
   19:12:02.322.25-Dec-2020 4808.01 5355.28 63.95 7.00   1.20 2502.07
   19:12:02.522.25-Dec-2020 4808.01 5357.69 63.95 7.00   1.40 2502.07
   19:12:02.722.25-Dec-2020 4808.01 5352.83 63.95 7.00   1.60 2502.07
   19:12:02.922.25-Dec-2020 4808.01 5358.56 63.95 7.00   1.80 2502.07
   19:12:03.122.25-Dec-2020 4808.01 5354.94 63.95 7.00   2.00 2502.07
   19:12:03.323.25-Dec-2020 4808.01 5361.73 63.95 7.00   2.20 2502.07
   19:12:03.523.25-Dec-2020 4808.01 5358.04 63.95 7.00   2.40 2502.07
   19:12:03.723.25-Dec-2020 4808.01 5354.02 63.95 7.00   2.60 2502.07
   19:12:03.923.25-Dec-2020 4808.01 5360.72 63.95 7.00   2.80 2502.07
   19:12:04.123.25-Dec-2020 4808.01 5356.54 63.95 7.00   3.00 2502.07
   19:12:04.323.25-Dec-2020 4808.01 5356.54 63.95 7.00   3.20 2502.07
   19:12:04.524.25-Dec-2020 4808.01 5371.18 63.95 7.00   3.40 2502.07
   19:12:04.724.25-Dec-2020 4808.01 5355.46 63.95 7.00   3.60 2502.07
   19:12:04.924.25-Dec-2020 4808.01 5361.18 63.95 7.00   3.80 2502.07
   19:12:05.124.25-Dec-2020 4808.01 5363.71 63.95 7.00   4.00 2502.07
   19:12:05.324.25-Dec-2020 4808.01 5363.71 63.95 7.00   4.20 2502.07
   19:12:05.524.25-Dec-2020 4808.01 5362.25 63.95 7.00   4.40 2502.07
   19:12:05.724.25-Dec-2020 4808.01 5363.96 63.95 7.00   4.60 2502.07
   19:12:05.925.25-Dec-2020 4808.01 5364.17 63.95 7.00   4.80 2502.07
   19:12:06.125.25-Dec-2020 4808.01 5364.28 63.95 7.00   5.00 2502.07
   19:12:06.325.25-Dec-2020 4808.01 5364.28 63.95 7.00   5.20 2502.07
   19:12:06.525.25-Dec-2020 4808.01 5364.28 63.95 7.00   5.40 2502.07
   19:12:06.725.25-Dec-2020 4808.01 5365.92 63.95 7.00   5.60 2502.07
   19:12:06.925.25-Dec-2020 4808.01 5365.92 63.95 7.00   5.80 2502.07
   19:12:07.126.25-Dec-2020 4808.01 5366.13 63.95 7.00   6.00 2502.07
   19:12:07.326.25-Dec-2020 4808.01 5366.13 63.95 7.00   6.20 2502.07
   19:12:07.526.25-Dec-2020 4808.01 5370.86 63.95 7.00   6.41 2502.07
   19:12:07.726.25-Dec-2020 4808.01 5368.23 63.95 7.00   6.61 2502.07
   19:12:07.926.25-Dec-2020 4808.01 5368.19 63.95 7.00   6.81 2502.07
   19:12:08.126.25-Dec-2020 4808.01 5368.69 63.95 7.00   7.01 2502.07
   19:12:08.327.25-Dec-2020 4808.01 5368.69 63.95 7.00   7.21 2502.07
   19:12:08.527.25-Dec-2020 4808.01 5368.26 63.95 7.00   7.41 2502.07
   19:12:08.727.25-Dec-2020 4808.01 5368.41 63.95 7.00   7.61 2502.07
   19:12:08.927.25-Dec-2020 4808.01 5368.53 63.95 7.00   7.81 2502.07
   19:12:09.127.25-Dec-2020 4808.01 5368.52 63.95 7.00   8.01 2502.07
   19:12:09.327.25-Dec-2020 4808.01 5368.52 63.95 7.00   8.21 2502.07
   19:12:09.527.25-Dec-2020 4808.01 5368.83 63.95 7.00   8.41 2502.07
   19:12:09.728.25-Dec-2020 4808.01 5369.39 63.95 7.00   8.61 2502.07
   19:12:09.928.25-Dec-2020 4808.01 5376.64 63.95 7.00   8.81 2502.07
   19:12:10.128.25-Dec-2020 4808.01 5372.69 63.95 7.00   9.01 2502.07
   19:12:10.328.25-Dec-2020 4808.01 5372.69 63.95 7.00   9.21 2502.07
   19:12:10.528.25-Dec-2020 4808.01 5374.47 63.95 7.00   9.41 2502.07
   19:12:10.728.25-Dec-2020 4808.01 5370.03 63.95 7.00   9.61 2502.07
   19:12:10.929.25-Dec-2020 4808.01 5373.97 63.95 7.00   9.81 2502.07
   19:12:11.129.25-Dec-2020 4808.01 5376.82 63.95 7.00  10.01 2502.07
   19:12:11.329.25-Dec-2020 4808.01 5370.22 63.95 7.00  10.21 2502.07
   19:12:11.529.25-Dec-2020 4808.01 5373.62 63.95 7.00  10.41 2502.07
   19:12:11.729.25-Dec-2020 4808.01 5387.49 63.95 7.00  10.61 2502.07
   19:12:11.929.25-Dec-2020 4808.01 5367.95 63.95 7.00  10.81 2502.07
   19:12:12.130.25-Dec-2020 4808.01 5373.49 63.95 7.00  11.01 2502.07
   19:12:12.330.25-Dec-2020 4808.01 5373.49 63.95 7.00  11.21 2502.07
   19:12:12.530.25-Dec-2020 4808.01 5378.71 63.95 7.00  11.41 2502.07
   19:12:12.730.25-Dec-2020 4808.01 5377.13 63.95 7.00  11.61 2502.07
   19:12:12.930.25-Dec-2020 4808.01 5373.42 63.95 7.00  11.81 2502.07
   19:12:13.130.25-Dec-2020 4808.01 5391.19 63.95 7.00  12.01 2502.07
   19:12:13.330.25-Dec-2020 4808.01 5391.19 63.95 7.00  12.21 2502.07
   19:12:13.531.25-Dec-2020 4808.01 5375.64 63.95 7.00  12.41 2502.07
   19:12:13.731.25-Dec-2020 4808.01 5378.57 63.95 7.00  12.61 2502.07
   19:12:13.931.25-Dec-2020 4808.01 5374.73 63.95 7.00  12.81 2502.07
   19:12:14.131.25-Dec-2020 4808.01 5382.41 63.95 7.00  13.01 2502.07
   19:12:14.331.25-Dec-2020 4808.01 5382.41 63.95 7.00  13.21 2502.07
   19:12:14.531.25-Dec-2020 4808.01 5373.95 63.95 7.00  13.41 2502.07
   19:12:14.732.25-Dec-2020 4808.01 5380.95 63.95 7.00  13.61 2502.07
   19:12:14.932.25-Dec-2020 4808.01 5376.80 63.95 7.00  13.81 2502.07
   19:12:15.132.25-Dec-2020 4808.01 5376.11 63.95 7.00  14.01 2502.07
   19:12:15.332.25-Dec-2020 4808.01 5377.68 63.95 7.00  14.21 2502.07
   19:12:15.532.25-Dec-2020 4808.01 5376.88 63.95 7.00  14.41 2502.07
   19:12:15.732.25-Dec-2020 4808.01 5377.41 63.95 7.00  14.61 2502.07
   19:12:15.933.25-Dec-2020 4808.01 5377.35 63.95 7.00  14.81 2502.07
   19:12:16.133.25-Dec-2020 4808.01 5377.07 63.95 7.00  15.01 2502.07
   19:12:16.333.25-Dec-2020 4808.01 5377.07 63.95 7.00  15.21 2502.07
   19:12:16.533.25-Dec-2020 4808.01 5377.54 63.95 7.00  15.41 2502.07
   19:12:16.733.25-Dec-2020 4808.01 5385.60 63.95 7.00  15.61 2502.07
   19:12:16.933.25-Dec-2020 4808.01 5379.24 63.95 7.00  15.81 2502.07
   19:12:17.133.25-Dec-2020 4808.01 5379.25 63.95 7.00  16.01 2502.07
   19:12:17.334.25-Dec-2020 4808.01 5379.25 63.95 7.00  16.21 2502.07
   19:12:17.534.25-Dec-2020 4808.01 5379.26 63.95 7.00  16.41 2502.07
   19:12:17.734.25-Dec-2020 4808.01 5377.98 63.95 7.00  16.61 2502.07
   19:12:17.934.25-Dec-2020 4808.01 5378.84 63.95 7.00  16.81 2502.07
   19:12:18.134.25-Dec-2020 4808.01 5379.07 63.94 7.00  17.01 2502.07
   19:12:18.334.25-Dec-2020 4808.01 5379.07 63.94 7.00  17.21 2502.07
   19:12:18.535.25-Dec-2020 4808.01 5378.84 63.94 7.00  17.41 2502.07
   19:12:18.735.25-Dec-2020 4808.01 5378.99 63.94 7.00  17.61 2502.07
   19:12:18.935.25-Dec-2020 4808.01 5379.61 63.94 7.00  17.81 2502.07
   19:12:19.135.25-Dec-2020 4808.01 5379.43 63.94 7.00  18.01 2502.07
   19:12:19.335.25-Dec-2020 4808.01 5386.89 63.94 7.00  18.21 2502.07
   19:12:19.535.25-Dec-2020 4808.01 5381.88 63.94 7.00  18.41 2502.07
   19:12:19.736.25-Dec-2020 4808.01 5381.67 63.94 7.00  18.61 2502.07
   19:12:19.936.25-Dec-2020 4808.01 5381.95 63.94 7.00  18.81 2502.07
   19:12:20.136.25-Dec-2020 4808.01 5381.96 63.94 7.00  19.02 2502.07
   19:12:20.336.25-Dec-2020 4808.01 5381.96 63.94 7.00  19.22 2502.07
   19:12:20.536.25-Dec-2020 4808.01 5384.86 63.94 7.00  19.42 2502.07
   19:12:20.736.25-Dec-2020 4808.01 5379.50 63.94 7.00  19.62 2502.07
   19:12:20.936.25-Dec-2020 4808.01 5386.07 63.94 7.00  19.82 2502.07
   19:12:21.137.25-Dec-2020 4808.01 5381.11 63.94 7.00  20.02 2502.07
   19:12:21.337.25-Dec-2020 4808.01 5381.11 63.94 7.00  20.22 2502.07
   19:12:21.537.25-Dec-2020 4808.01 5390.20 63.94 7.00  20.42 2502.07
   19:12:21.737.25-Dec-2020 4808.01 5381.93 63.94 7.00  20.62 2502.07
   19:12:21.937.25-Dec-2020 4808.01 5384.03 63.94 7.00  20.82 2502.07
   19:12:22.137.25-Dec-2020 4808.01 5383.95 63.94 7.00  21.02 2502.07
   19:12:22.338.25-Dec-2020 4808.01 5383.95 63.94 7.00  21.22 2502.07
   19:12:22.538.25-Dec-2020 4808.01 5379.44 63.94 7.00  21.42 2502.07
   19:12:22.738.25-Dec-2020 4808.01 5382.54 63.94 7.00  21.62 2502.07
   19:12:22.938.25-Dec-2020 4808.01 5386.25 63.94 7.00  21.82 2502.07
   19:12:23.138.25-Dec-2020 4808.01 5381.49 63.94 7.00  22.02 2502.07
   19:12:23.338.25-Dec-2020 4808.01 5382.21 63.94 7.00  22.22 2502.07
   19:12:23.539.25-Dec-2020 4808.01 5383.75 63.94 7.00  22.42 2502.07
   19:12:23.739.25-Dec-2020 4808.01 5382.52 63.94 7.00  22.62 2502.07
   19:12:23.939.25-Dec-2020 4808.01 5383.55 63.94 7.00  22.82 2502.07
