~Version Information
 VERS.                  2.0:   CWLS log ASCII Standard -VERSION 2.0
 WRAP.                   NO:   One line per depth step
~Well Information Block
#MNEM.UNIT     VALUE/NAME     DESCRIPTION
#---------     -----------    ---------------------------
 STRT.S             20:22:11 25-Dec-20: START TIME 20:22:11 25-Dec-20
 STOP.S             20:30:35 25-Dec-20: STOP TIME  20:30:35 25-Dec-20
 STEP.S                   0.00: STEP TIME
 NULL.                 -999.25: NULL VALUE
 DFWT.                        :  DIST FWL TEXT
 DFST.                        :  DIST FSL TEXT
 DMF .             Drill Floor:  DRILL MEAS FROM
 STIM.      04.54.24 22-Sep-20:  START TIME
 DATE.      04.54.24 21-Nov-20:  END TIME
 SPUD.               21-Nov-20:  SPUD DATE
 NREF.                    Grid:  NORTH REFERENCE
 HPTY.       Minimum Curvature:  HOLE POS TYPE
 DMOD.             Drill Model:  DRILL MOD DESC
 SVYD.                  Survey:  SURVEY DESC
 ILTD.               Lithology:  INTERP LTH DESC
 FTOP.          Formation Tops:  FORM TOPS DESC
 SON .        AZ-XX-0906571587:  JOB NUMBER
 COMP.     BP Exploration (Caspian Sea) Ltd:  COMPANY
 UWI .                     N/A:  UNIQUE WELL IDENTIFIER
 API .                     N/A:  API NUMBER
 BASE.              Azerbaijan:  LOGGING EQUIPMENT BASE LOCATION
 REGN.                   EESSA:  REGION
 PROV.                    Baku:  PROVINCE
 STAT.                    Baku:  STATE NAME
 CTRY.              Azerbaijan:  COUNTRY NAME
 FLD .                     ACG:  FIELD NAME
 SRVC.     TURAN Drilling & Engineering:  CONTRACTOR
 WELL.                     J27:  WELL NAME
 RIG .             West Chirag:  RIG NAME
 DOE .                     N/A:  DOE NUMBER
 DCON.         Sperry Drilling:  DIRECTNL CONTR
 PDAT.          Mean Sea Level:  PERMANENT DATUM
 WTYP.                Deviated:  WELL TYPE
 MWDS.                    Baku:  MWD SHOP
 JOBN.        AZ-XX-0906571587:  JOB TICKET NUMB
 UNIT.                     N/A:  LOGGING EQUIPMENT ID
 MDS .        Operator Entered:  MAG DATA SOURCE
 CNTY.                        :  COUNTY
 LOC .                        :  LOCATION
 LMF .             Drill Floor:  LOG MEASURED FROM
 TVDS.m                  43.00:  TVDSS CORRECTN
 LATI.deg                40.13:  LATITUDE
 LONG.deg                51.22:  LONGITUDE
 WHNS.m                   7.72:  WELL HEAD N/S
 WHEW.m                 -14.24:  WELL HEAD E/W
 UTMX.m              519005.06:  UTM X
 UTMY.m             4443793.85:  UTM Y
 DFWL.m                   0.00:  DISTANCE FWL
 DFSL.m                   0.00:  DISTANCE FSL
 SDEP.m                 347.00:  START DEPTH
 TDD .m                 581.00:  TOTAL DEPTH (DRILLER)
 VSDR.deg               159.72:  VERT SEC DIRECT
 GVFD.g                   1.00:  GRAVITY FIELD
 MFLD.nT              50318.00:  MAGNETIC FIELD
 MDIP.deg                59.57:  MAGNETIC DIP
 MDEC.deg                 6.44:  MAGNETIC DECL
 GRDC.deg                 0.15:  GRID CORRECTION
 AZTC.deg                 6.29:  AZM TOTAL CORR
 EPD .m                   0.00:  ELEVATION
 EGL .m                   0.00:  GROUND ELEVATION
 WDMS.m                 169.80:  WD ELEV
 APD .m                  43.00:  DEPTH ABOVE PD
 AGAP.m                  43.00:  AIR GAP
 VSEW.m                 -14.24:  VERT SEC E/W
 VSNS.m                   7.72:  VERT SEC N/S
 DEP .m                 342.45:  DEPTH
 EKB .m                   0.00:  KB ELEVATION
 EDF .m                  43.00:  DF ELEVATION
 TDL .m                 237.00:  TOTAL DEPTH (LOGGER)
 VSC .                       0:  VS TO CLOSURE
 MAGU.                 1851428:  MAGUTM CHECKSUM
~Parameter Information Block
#MNEM.UNIT       Value        Description
#---------     -----------    ---------------------------
 AV  .mps                 1.50:  Ann Velocity 
 AVMX.mps                 2.90:  Max Ann Veloc 
 AZIF.deg               115.59:  Azm, Final 
 BHAT.        Rotary Steerable:  BHA Type 
 BROT.°/30m               0.50:  Build Rotating 
 BS  .in                  8.50:  Bit Size 
 BTPL.psig              580.00:  Bit Press Loss 
 CABU.                     Yes:  Customer Abuse 
 COMM.                     ”Cf:  Run Comments 1 
 TCS .hr                 89.79:  Time Ciculation Ended 
 CV  .mps                 3.22:  Crit Velocity 
 CVMX.mps                 4.37:  Max Crit Veloc 
 DD1 .          Rashad Habibov:  Direct Drillr 1 
 DDSV.               Geo-Pilot:  DD Service 
 DEFF.%                  95.00:  % Det Eff 
 DLRX.°/30m               1.94:  Dogleg Rot Max 
 DLSO.°/30m               0.70:  Dogleg Oriented 
 DLSX.°/30m               1.94:  Dogleg Str Max 
 DRET.      04.45.00 25-Dec-20:  Drill End Time 
 DRST.      10.00.00 24-Dec-20:  Drill Start Tim 
 DTIM.hr                 16.64:  Time Drilling 
 EDEP.m                4999.01:  End Depth 
 ENG1.         Elchin Mammadov:  Engineer 1 
 ENG2.          Ruslan Safarov:  Engineer 2 
 ENG3.          Rustam Safarov:  Engineer 3 
 ETIM.      09.00.00 29-Dec-20:  End Time 
 FLOI.gpm               500.00:  Flow In 
 FLON.gpm               400.00:  Flow In Min 
 FLOS.cptm                0.00:  Fluid Loss 
 FLOX.gpm               500.00:  Flow In Max 
 HFLO.                      No:  High Flow 
 HPRE.                      No:  High Pressure 
 HTEM.                      No:  High Temp 
 HYDO.m                   2.00:  Hydro Offset 
 IFIN.deg                66.79:  Inc, Final 
 IMAX.deg                67.66:  Inc Max 
 IMIN.deg                66.39:  Inc Min 
 IMND.m                4949.37:  Inc Min Depth 
 IMXD.m                4778.63:  Inc Max Depth 
 JARR.                     Yes:  Jarring 
 LETM.      04.45.00 25-Dec-20:  Log End Time 
 LOST.hr                     0:  Lost Rig Time 
 LSTM.      10.00.00 24-Dec-20:  Log Start Time 
 MDCL.ppm             39000.00:  Mud Chlorides 
 MDES.     Inversion Oil/Synthetic:  Mud Desc 
 DFD .sg                  1.33:  Mud Density 
 MDMN.sg                  1.33:  Dens Mud Min 
 MDMX.sg                  1.33:  Dens Mud Max 
 MOIL.                      70:  Run Mud Oil % 
 MOWR.                   70:30:  Run Mud OWR 
 MSND.                       0:  Run Mud Sand % 
 MSOL.                    17.4:  Run Mud Solids% 
 DFV .spqt               84.00:  Mud Viscosity 
 MWOD.in                  6.75:  MWD Tool OD 
 MWSI.                     Yes:  Serv Intrp, MWD 
 OTIM.hr                168.14:  Time Operating 
 PCON.           Look Like New:  Pad Condition 
 PMAX.psia            10822.93:  Press Op, Max 
 PV  .cP                 30.00:  Mud PV 
 RUN .                     900:  Run Number 
 ROPA.m/hr               18.00:  ROP Avg 
 ROPN.m/hr               12.00:  ROP Min 
 ROPX.m/hr               25.00:  ROP Max 
 RPMA.rpm               120.00:  RPM Surface Avg 
 RPMN.rpm               100.00:  RPM Surface Min 
 RPMX.rpm               120.00:  RPM Surface Max 
 RRUN.                    0900:  Rig Run Number 
 SAZI.deg               115.08:  Azm, Start 
 SDEP.m                4762.01:  Start Depth 
 SIDD.                      No:  Serv Intrp, DD 
 SINC.deg                66.14:  Inc, Start 
 SPPA.psig             3700.00:  SPP Avg 
 SPPN.psig             3620.00:  SPP Min 
 SPPX.psig             3900.00:  SPP Max 
 STIM.      09.30.00 22-Dec-20:  Start Time 
 SVCS.                 DD, MWD:  Services 
 SVER.                    9.20:  Sperry Version 
 TDAT.m                 237.00:  Tot Depth Attmp 
 TDDF.                      No:  Trip for DD 
 TDLG.m                 237.00:  Tot Depth Loggd 
 TFF .                      No:  Trip for Fail 
 TQAA.f-kp               18.00:  Torque Abs Avg 
 TQAN.f-kp               17.00:  Torque Abs Min 
 TQAX.f-kp               20.00:  Torque Abs Max 
 TRRT.°/30m               0.60:  Turn Rotating 
 MRT .                    HCIM:  Maximum Recorded Temperature 
 TTMX.degC               94.12:  Max Tool Temp 
 VS01.                90627809:  Virtual Str1 SN 
 VS02.                90527813:  Virtual Str2 SN 
 VS03.                90545417:  Virtual Str3 SN 
 VS04.                12460870:  Virtual Str4 SN 
 VS05.                90516706:  Virtual Str5 SN 
 VS06.                90632007:  Virtual Str6 SN 
 WBMN.klb                 0.00:  WOB Min 
 WOBA.klb                14.00:  WOB Avg 
 WOBX.klb                25.00:  WOB Max 
 YP  .lhf2               32.00:  Yield Point 
~Curve Information Block
#MNEM.UNIT                 API CODE     Curve Description
#---------               -----------    ---------------------------
 TIME.HHMMSS            00 000 000 000:  GT Time & Date
 GTDEPTH.m              00 000 000 000:  GT Depth
 GTPQH.psia             00 000 000 000:  GT HR Quartz Pressure
 GTTQ.degC              00 000 000 000:  GT Quartz Temperature
 GTTN.NONE              00 000 000 000:  GT Test Number
 GTET.sec               00 000 000 000:  GT Elapsed Test Time
 GTTVD.m                00 000 000 000:  GT True Vertical Depth
#Other Information
#
#WARRANTY: Halliburton will use its best efforts to furnish customers with 
#accurate information and interpretations that are part of, and incident to, the services 
#provided.  However, Halliburton cannot and does not warrant the accuracy 
#or correctness of such information and interpretations.  Under no circumstances should any 
#such information or interpretation be relied upon as the sole basis for any drilling, 
#completion, production, or financial decision or any procedure involving any risk to the 
#safety of any drilling venture, drilling rig or its crew or any other third party.  The 
#Customer has full responsibility for all drilling, completion and production operation.  
#Halliburton makes no representations or warranties, either expressed or 
#implied, including, but not limited to, the implied warranties of merchantability or fitness 
#for a particular purpose, with respect to the services rendered.  In no event will 
#Halliburton be liable for failure to obtain any particular results or for 
#any damages, including, but not limited to, indirect, special or consequential damages, 
#resulting from the use of any information or interpretation provided by Halliburton.
#
~A           TIME           GTDEPTH  GTPQH  GTTQ  GTTN  GTET   GTTVD  
# ...
   20:29:05.851.25-Dec-2020 4794.01 2302.82 63.81 8.00 413.97 2496.73
   20:29:06.051.25-Dec-2020 4794.01 2302.82 63.81 8.00 414.17 2496.73
   20:29:06.251.25-Dec-2020 4794.01 2302.80 63.81 8.00 414.37 2496.73
   20:29:06.451.25-Dec-2020 4794.01 2302.58 63.81 8.00 414.57 2496.73
   20:29:06.651.25-Dec-2020 4794.01 2303.15 63.81 8.00 414.77 2496.73
   20:29:06.851.25-Dec-2020 4794.01 2302.69 63.81 8.00 414.97 2496.73
   20:29:07.051.25-Dec-2020 4794.01 2302.69 63.81 8.00 415.17 2496.73
   20:29:07.251.25-Dec-2020 4794.01 2302.70 63.81 8.00 415.37 2496.73
   20:29:07.451.25-Dec-2020 4794.01 2302.86 63.81 8.00 415.57 2496.73
   20:29:07.651.25-Dec-2020 4794.01 2302.79 63.81 8.00 415.77 2496.73
   20:29:07.851.25-Dec-2020 4794.01 2302.80 63.81 8.00 415.97 2496.73
   20:29:08.051.25-Dec-2020 4794.01 2302.80 63.81 8.00 416.17 2496.73
   20:29:08.251.25-Dec-2020 4794.01 2302.80 63.81 8.00 416.37 2496.73
   20:29:08.451.25-Dec-2020 4794.01 2302.84 63.81 8.00 416.57 2496.73
   20:29:08.651.25-Dec-2020 4794.01 2302.79 63.81 8.00 416.77 2496.73
   20:29:08.851.25-Dec-2020 4794.01 2302.82 63.81 8.00 416.97 2496.73
   20:29:09.051.25-Dec-2020 4794.01 2302.87 63.81 8.00 417.17 2496.73
   20:29:09.251.25-Dec-2020 4794.01 2302.60 63.81 8.00 417.37 2496.73
   20:29:09.451.25-Dec-2020 4794.01 2303.04 63.81 8.00 417.57 2496.73
   20:29:09.651.25-Dec-2020 4794.01 2302.74 63.81 8.00 417.77 2496.73
   20:29:09.851.25-Dec-2020 4794.01 2302.83 63.81 8.00 417.97 2496.73
   20:29:10.051.25-Dec-2020 4794.01 2302.83 63.81 8.00 418.17 2496.73
   20:29:10.251.25-Dec-2020 4794.01 2303.14 63.81 8.00 418.37 2496.73
   20:29:10.451.25-Dec-2020 4794.01 2302.77 63.81 8.00 418.57 2496.73
   20:29:10.651.25-Dec-2020 4794.01 2302.71 63.81 8.00 418.77 2496.73
   20:29:10.851.25-Dec-2020 4794.01 2302.85 63.81 8.00 418.97 2496.73
   20:29:11.051.25-Dec-2020 4794.01 2302.85 63.81 8.00 419.17 2496.73
   20:29:11.251.25-Dec-2020 4794.01 2302.83 63.81 8.00 419.37 2496.73
   20:29:11.451.25-Dec-2020 4794.01 2302.64 63.81 8.00 419.57 2496.73
   20:29:11.651.25-Dec-2020 4794.01 2302.99 63.81 8.00 419.77 2496.73
   20:29:11.851.25-Dec-2020 4794.01 2302.80 63.81 8.00 419.97 2496.73
   20:29:12.051.25-Dec-2020 4794.01 2302.69 63.81 8.00 420.17 2496.73
   20:29:12.251.25-Dec-2020 4794.01 2303.01 63.81 8.00 420.37 2496.73
   20:29:12.451.25-Dec-2020 4794.01 2302.75 63.81 8.00 420.57 2496.73
   20:29:12.651.25-Dec-2020 4794.01 2302.78 63.81 8.00 420.77 2496.73
   20:29:12.851.25-Dec-2020 4794.01 2302.85 63.81 8.00 420.97 2496.73
   20:29:13.051.25-Dec-2020 4794.01 2302.74 63.81 8.00 421.17 2496.73
   20:29:13.251.25-Dec-2020 4794.01 2302.84 63.81 8.00 421.37 2496.73
   20:29:13.451.25-Dec-2020 4794.01 2302.82 63.81 8.00 421.57 2496.73
   20:29:13.651.25-Dec-2020 4794.01 2302.78 63.81 8.00 421.77 2496.73
   20:29:13.851.25-Dec-2020 4794.01 2302.84 63.81 8.00 421.97 2496.73
   20:29:14.051.25-Dec-2020 4794.01 2302.84 63.81 8.00 422.17 2496.73
   20:29:14.251.25-Dec-2020 4794.01 2302.79 63.81 8.00 422.37 2496.73
   20:29:14.451.25-Dec-2020 4794.01 2302.84 63.81 8.00 422.57 2496.73
   20:29:14.651.25-Dec-2020 4794.01 2302.86 63.81 8.00 422.77 2496.73
   20:29:14.851.25-Dec-2020 4794.01 2302.63 63.81 8.00 422.97 2496.73
   20:29:15.051.25-Dec-2020 4794.01 2302.63 63.81 8.00 423.17 2496.73
   20:29:15.251.25-Dec-2020 4794.01 2302.77 63.81 8.00 423.37 2496.73
   20:29:15.451.25-Dec-2020 4794.01 2302.82 63.81 8.00 423.57 2496.73
   20:29:15.651.25-Dec-2020 4794.01 2302.81 63.81 8.00 423.77 2496.73
   20:29:15.851.25-Dec-2020 4794.01 2302.79 63.81 8.00 423.97 2496.73
   20:29:16.051.25-Dec-2020 4794.01 2302.82 63.81 8.00 424.17 2496.73
   20:29:16.251.25-Dec-2020 4794.01 2302.78 63.81 8.00 424.37 2496.73
   20:29:16.451.25-Dec-2020 4794.01 2302.80 63.81 8.00 424.57 2496.73
   20:29:16.651.25-Dec-2020 4794.01 2302.79 63.81 8.00 424.77 2496.73
   20:29:16.851.25-Dec-2020 4794.01 2302.83 63.81 8.00 424.97 2496.73
   20:29:17.051.25-Dec-2020 4794.01 2302.79 63.81 8.00 425.17 2496.73
   20:29:17.251.25-Dec-2020 4794.01 2302.80 63.81 8.00 425.37 2496.73
   20:29:17.451.25-Dec-2020 4794.01 2302.86 63.81 8.00 425.57 2496.73
   20:29:17.651.25-Dec-2020 4794.01 2302.85 63.81 8.00 425.77 2496.73
   20:29:17.851.25-Dec-2020 4794.01 2302.79 63.81 8.00 425.97 2496.73
   20:29:18.051.25-Dec-2020 4794.01 2302.79 63.81 8.00 426.17 2496.73
   20:29:18.251.25-Dec-2020 4794.01 2303.16 63.81 8.00 426.37 2496.73
   20:29:18.451.25-Dec-2020 4794.01 2302.64 63.81 8.00 426.57 2496.73
   20:29:18.651.25-Dec-2020 4794.01 2302.95 63.81 8.00 426.77 2496.73
   20:29:18.850.25-Dec-2020 4794.01 2302.71 63.81 8.00 426.97 2496.73
   20:29:19.050.25-Dec-2020 4794.01 2302.71 63.81 8.00 427.17 2496.73
   20:29:19.250.25-Dec-2020 4794.01 2302.73 63.81 8.00 427.37 2496.73
   20:29:19.450.25-Dec-2020 4794.01 2302.86 63.81 8.00 427.57 2496.73
   20:29:19.650.25-Dec-2020 4794.01 2302.85 63.81 8.00 427.77 2496.73
   20:29:19.850.25-Dec-2020 4794.01 2302.86 63.81 8.00 427.97 2496.73
   20:29:20.050.25-Dec-2020 4794.01 2302.54 63.81 8.00 428.17 2496.73
   20:29:20.250.25-Dec-2020 4794.01 2303.18 63.81 8.00 428.37 2496.73
   20:29:20.450.25-Dec-2020 4794.01 2302.75 63.81 8.00 428.57 2496.73
   20:29:20.650.25-Dec-2020 4794.01 2302.75 63.81 8.00 428.77 2496.73
   20:29:20.850.25-Dec-2020 4794.01 2302.82 63.81 8.00 428.97 2496.73
   20:29:21.050.25-Dec-2020 4794.01 2302.79 63.81 8.00 429.17 2496.73
   20:29:21.250.25-Dec-2020 4794.01 2302.77 63.81 8.00 429.37 2496.73
   20:29:21.450.25-Dec-2020 4794.01 2302.85 63.81 8.00 429.57 2496.73
   20:29:21.650.25-Dec-2020 4794.01 2302.81 63.81 8.00 429.77 2496.73
   20:29:21.850.25-Dec-2020 4794.01 2302.81 63.81 8.00 429.97 2496.73
   20:29:22.050.25-Dec-2020 4794.01 2302.81 63.81 8.00 430.17 2496.73
   20:29:22.250.25-Dec-2020 4794.01 2302.78 63.81 8.00 430.37 2496.73
   20:29:22.450.25-Dec-2020 4794.01 2302.83 63.81 8.00 430.57 2496.73
   20:29:22.650.25-Dec-2020 4794.01 2302.74 63.81 8.00 430.77 2496.73
   20:29:22.850.25-Dec-2020 4794.01 2302.84 63.81 8.00 430.97 2496.73
   20:29:23.050.25-Dec-2020 4794.01 2302.84 63.81 8.00 431.17 2496.73
   20:29:23.250.25-Dec-2020 4794.01 2302.86 63.81 8.00 431.37 2496.73
   20:29:23.450.25-Dec-2020 4794.01 2302.80 63.81 8.00 431.57 2496.73
   20:29:23.650.25-Dec-2020 4794.01 2302.80 63.81 8.00 431.77 2496.73
   20:29:23.850.25-Dec-2020 4794.01 2302.82 63.81 8.00 431.97 2496.73
   20:29:24.050.25-Dec-2020 4794.01 2302.82 63.81 8.00 432.17 2496.73
   20:29:24.250.25-Dec-2020 4794.01 2302.79 63.81 8.00 432.37 2496.73
   20:29:24.450.25-Dec-2020 4794.01 2302.83 63.81 8.00 432.57 2496.73
   20:29:24.650.25-Dec-2020 4794.01 2302.80 63.81 8.00 432.77 2496.73
   20:29:24.850.25-Dec-2020 4794.01 2302.80 63.81 8.00 432.97 2496.73
   20:29:25.050.25-Dec-2020 4794.01 2302.73 63.81 8.00 433.17 2496.73
   20:29:25.250.25-Dec-2020 4794.01 2302.98 63.81 8.00 433.37 2496.73
   20:29:25.450.25-Dec-2020 4794.01 2302.76 63.81 8.00 433.57 2496.73
   20:29:25.650.25-Dec-2020 4794.01 2302.80 63.81 8.00 433.77 2496.73
   20:29:25.850.25-Dec-2020 4794.01 2302.83 63.81 8.00 433.97 2496.73
   20:29:26.050.25-Dec-2020 4794.01 2302.83 63.81 8.00 434.17 2496.73
   20:29:26.250.25-Dec-2020 4794.01 2302.90 63.81 8.00 434.37 2496.73
   20:29:26.450.25-Dec-2020 4794.01 2302.59 63.81 8.00 434.57 2496.73
   20:29:26.650.25-Dec-2020 4794.01 2302.99 63.81 8.00 434.77 2496.73
   20:29:26.850.25-Dec-2020 4794.01 2302.78 63.81 8.00 434.97 2496.73
   20:29:27.050.25-Dec-2020 4794.01 2302.78 63.81 8.00 435.17 2496.73
   20:29:27.250.25-Dec-2020 4794.01 2302.72 63.81 8.00 435.37 2496.73
   20:29:27.450.25-Dec-2020 4794.01 2302.98 63.81 8.00 435.57 2496.73
   20:29:27.650.25-Dec-2020 4794.01 2302.76 63.81 8.00 435.77 2496.73
   20:29:27.850.25-Dec-2020 4794.01 2302.79 63.81 8.00 435.97 2496.73
   20:29:28.050.25-Dec-2020 4794.01 2302.79 63.81 8.00 436.17 2496.73
   20:29:28.250.25-Dec-2020 4794.01 2303.07 63.81 8.00 436.37 2496.73
   20:29:28.450.25-Dec-2020 4794.01 2302.67 63.81 8.00 436.57 2496.73
   20:29:28.650.25-Dec-2020 4794.01 2302.97 63.81 8.00 436.77 2496.73
