~Version Information
 VERS.                  2.0:   CWLS log ASCII Standard -VERSION 2.0
 WRAP.                   NO:   One line per depth step
~Well Information Block
#MNEM.UNIT     VALUE/NAME     DESCRIPTION
#---------     -----------    ---------------------------
 STRT.S             12:53:37 25-Dec-20: START TIME 12:53:37 25-Dec-20
 STOP.S             13:01:52 25-Dec-20: STOP TIME  13:01:52 25-Dec-20
 STEP.S                   0.00: STEP TIME
 NULL.                 -999.25: NULL VALUE
 DFWT.                        :  DIST FWL TEXT
 DFST.                        :  DIST FSL TEXT
 DMF .             Drill Floor:  DRILL MEAS FROM
 STIM.      04.54.24 22-Sep-20:  START TIME
 DATE.      04.54.24 21-Nov-20:  END TIME
 SPUD.               21-Nov-20:  SPUD DATE
 NREF.                    Grid:  NORTH REFERENCE
 HPTY.       Minimum Curvature:  HOLE POS TYPE
 DMOD.             Drill Model:  DRILL MOD DESC
 SVYD.                  Survey:  SURVEY DESC
 ILTD.               Lithology:  INTERP LTH DESC
 FTOP.          Formation Tops:  FORM TOPS DESC
 SON .        AZ-XX-0906571587:  JOB NUMBER
 COMP.     BP Exploration (Caspian Sea) Ltd:  COMPANY
 UWI .                     N/A:  UNIQUE WELL IDENTIFIER
 API .                     N/A:  API NUMBER
 BASE.              Azerbaijan:  LOGGING EQUIPMENT BASE LOCATION
 REGN.                   EESSA:  REGION
 PROV.                    Baku:  PROVINCE
 STAT.                    Baku:  STATE NAME
 CTRY.              Azerbaijan:  COUNTRY NAME
 FLD .                     ACG:  FIELD NAME
 SRVC.     TURAN Drilling & Engineering:  CONTRACTOR
 WELL.                     J27:  WELL NAME
 RIG .             West Chirag:  RIG NAME
 DOE .                     N/A:  DOE NUMBER
 DCON.         Sperry Drilling:  DIRECTNL CONTR
 PDAT.          Mean Sea Level:  PERMANENT DATUM
 WTYP.                Deviated:  WELL TYPE
 MWDS.                    Baku:  MWD SHOP
 JOBN.        AZ-XX-0906571587:  JOB TICKET NUMB
 UNIT.                     N/A:  LOGGING EQUIPMENT ID
 MDS .        Operator Entered:  MAG DATA SOURCE
 CNTY.                        :  COUNTY
 LOC .                        :  LOCATION
 LMF .             Drill Floor:  LOG MEASURED FROM
 TVDS.m                  43.00:  TVDSS CORRECTN
 LATI.deg                40.13:  LATITUDE
 LONG.deg                51.22:  LONGITUDE
 WHNS.m                   7.72:  WELL HEAD N/S
 WHEW.m                 -14.24:  WELL HEAD E/W
 UTMX.m              519005.06:  UTM X
 UTMY.m             4443793.85:  UTM Y
 DFWL.m                   0.00:  DISTANCE FWL
 DFSL.m                   0.00:  DISTANCE FSL
 SDEP.m                 347.00:  START DEPTH
 TDD .m                 581.00:  TOTAL DEPTH (DRILLER)
 VSDR.deg               159.72:  VERT SEC DIRECT
 GVFD.g                   1.00:  GRAVITY FIELD
 MFLD.nT              50318.00:  MAGNETIC FIELD
 MDIP.deg                59.57:  MAGNETIC DIP
 MDEC.deg                 6.44:  MAGNETIC DECL
 GRDC.deg                 0.15:  GRID CORRECTION
 AZTC.deg                 6.29:  AZM TOTAL CORR
 EPD .m                   0.00:  ELEVATION
 EGL .m                   0.00:  GROUND ELEVATION
 WDMS.m                 169.80:  WD ELEV
 APD .m                  43.00:  DEPTH ABOVE PD
 AGAP.m                  43.00:  AIR GAP
 VSEW.m                 -14.24:  VERT SEC E/W
 VSNS.m                   7.72:  VERT SEC N/S
 DEP .m                 342.45:  DEPTH
 EKB .m                   0.00:  KB ELEVATION
 EDF .m                  43.00:  DF ELEVATION
 TDL .m                 237.00:  TOTAL DEPTH (LOGGER)
 VSC .                       0:  VS TO CLOSURE
 MAGU.                 1851428:  MAGUTM CHECKSUM
~Parameter Information Block
#MNEM.UNIT       Value        Description
#---------     -----------    ---------------------------
 AV  .mps                 1.50:  Ann Velocity 
 AVMX.mps                 2.90:  Max Ann Veloc 
 AZIF.deg               115.59:  Azm, Final 
 BHAT.        Rotary Steerable:  BHA Type 
 BROT.°/30m               0.50:  Build Rotating 
 BS  .in                  8.50:  Bit Size 
 BTPL.psig              580.00:  Bit Press Loss 
 CABU.                     Yes:  Customer Abuse 
 COMM.                     LÓw:  Run Comments 1 
 TCS .hr                 89.79:  Time Ciculation Ended 
 CV  .mps                 3.22:  Crit Velocity 
 CVMX.mps                 4.37:  Max Crit Veloc 
 DD1 .          Rashad Habibov:  Direct Drillr 1 
 DDSV.               Geo-Pilot:  DD Service 
 DEFF.%                  95.00:  % Det Eff 
 DLRX.°/30m               1.94:  Dogleg Rot Max 
 DLSO.°/30m               0.70:  Dogleg Oriented 
 DLSX.°/30m               1.94:  Dogleg Str Max 
 DRET.      04.45.00 25-Dec-20:  Drill End Time 
 DRST.      10.00.00 24-Dec-20:  Drill Start Tim 
 DTIM.hr                 16.64:  Time Drilling 
 EDEP.m                4999.01:  End Depth 
 ENG1.         Elchin Mammadov:  Engineer 1 
 ENG2.          Ruslan Safarov:  Engineer 2 
 ENG3.          Rustam Safarov:  Engineer 3 
 ETIM.      09.00.00 29-Dec-20:  End Time 
 FLOI.gpm               500.00:  Flow In 
 FLON.gpm               400.00:  Flow In Min 
 FLOS.cptm                0.00:  Fluid Loss 
 FLOX.gpm               500.00:  Flow In Max 
 HFLO.                      No:  High Flow 
 HPRE.                      No:  High Pressure 
 HTEM.                      No:  High Temp 
 HYDO.m                   2.00:  Hydro Offset 
 IFIN.deg                66.79:  Inc, Final 
 IMAX.deg                67.66:  Inc Max 
 IMIN.deg                66.39:  Inc Min 
 IMND.m                4949.37:  Inc Min Depth 
 IMXD.m                4778.63:  Inc Max Depth 
 JARR.                     Yes:  Jarring 
 LETM.      04.45.00 25-Dec-20:  Log End Time 
 LOST.hr                     0:  Lost Rig Time 
 LSTM.      10.00.00 24-Dec-20:  Log Start Time 
 MDCL.ppm             39000.00:  Mud Chlorides 
 MDES.     Inversion Oil/Synthetic:  Mud Desc 
 DFD .sg                  1.33:  Mud Density 
 MDMN.sg                  1.33:  Dens Mud Min 
 MDMX.sg                  1.33:  Dens Mud Max 
 MOIL.                      70:  Run Mud Oil % 
 MOWR.                   70:30:  Run Mud OWR 
 MSND.                       0:  Run Mud Sand % 
 MSOL.                    17.4:  Run Mud Solids% 
 DFV .spqt               84.00:  Mud Viscosity 
 MWOD.in                  6.75:  MWD Tool OD 
 MWSI.                     Yes:  Serv Intrp, MWD 
 OTIM.hr                168.14:  Time Operating 
 PCON.           Look Like New:  Pad Condition 
 PMAX.psia            10822.93:  Press Op, Max 
 PV  .cP                 30.00:  Mud PV 
 RUN .                     900:  Run Number 
 ROPA.m/hr               18.00:  ROP Avg 
 ROPN.m/hr               12.00:  ROP Min 
 ROPX.m/hr               25.00:  ROP Max 
 RPMA.rpm               120.00:  RPM Surface Avg 
 RPMN.rpm               100.00:  RPM Surface Min 
 RPMX.rpm               120.00:  RPM Surface Max 
 RRUN.                    0900:  Rig Run Number 
 SAZI.deg               115.08:  Azm, Start 
 SDEP.m                4762.01:  Start Depth 
 SIDD.                      No:  Serv Intrp, DD 
 SINC.deg                66.14:  Inc, Start 
 SPPA.psig             3700.00:  SPP Avg 
 SPPN.psig             3620.00:  SPP Min 
 SPPX.psig             3900.00:  SPP Max 
 STIM.      09.30.00 22-Dec-20:  Start Time 
 SVCS.                 DD, MWD:  Services 
 SVER.                    9.20:  Sperry Version 
 TDAT.m                 237.00:  Tot Depth Attmp 
 TDDF.                      No:  Trip for DD 
 TDLG.m                 237.00:  Tot Depth Loggd 
 TFF .                      No:  Trip for Fail 
 TQAA.f-kp               18.00:  Torque Abs Avg 
 TQAN.f-kp               17.00:  Torque Abs Min 
 TQAX.f-kp               20.00:  Torque Abs Max 
 TRRT.°/30m               0.60:  Turn Rotating 
 MRT .                    HCIM:  Maximum Recorded Temperature 
 TTMX.degC               94.12:  Max Tool Temp 
 VS01.                90627809:  Virtual Str1 SN 
 VS02.                90527813:  Virtual Str2 SN 
 VS03.                90545417:  Virtual Str3 SN 
 VS04.                12460870:  Virtual Str4 SN 
 VS05.                90516706:  Virtual Str5 SN 
 VS06.                90632007:  Virtual Str6 SN 
 WBMN.klb                 0.00:  WOB Min 
 WOBA.klb                14.00:  WOB Avg 
 WOBX.klb                25.00:  WOB Max 
 YP  .lhf2               32.00:  Yield Point 
~Curve Information Block
#MNEM.UNIT                 API CODE     Curve Description
#---------               -----------    ---------------------------
 TIME.HHMMSS            00 000 000 000:  GT Time & Date
 GTDEPTH.m              00 000 000 000:  GT Depth
 GTPQH.psia             00 000 000 000:  GT HR Quartz Pressure
 GTTQ.degC              00 000 000 000:  GT Quartz Temperature
 GTTN.NONE              00 000 000 000:  GT Test Number
 GTET.sec               00 000 000 000:  GT Elapsed Test Time
 GTTVD.m                00 000 000 000:  GT True Vertical Depth
#Other Information
#
#WARRANTY: Halliburton will use its best efforts to furnish customers with 
#accurate information and interpretations that are part of, and incident to, the services 
#provided.  However, Halliburton cannot and does not warrant the accuracy 
#or correctness of such information and interpretations.  Under no circumstances should any 
#such information or interpretation be relied upon as the sole basis for any drilling, 
#completion, production, or financial decision or any procedure involving any risk to the 
#safety of any drilling venture, drilling rig or its crew or any other third party.  The 
#Customer has full responsibility for all drilling, completion and production operation.  
#Halliburton makes no representations or warranties, either expressed or 
#implied, including, but not limited to, the implied warranties of merchantability or fitness 
#for a particular purpose, with respect to the services rendered.  In no event will 
#Halliburton be liable for failure to obtain any particular results or for 
#any damages, including, but not limited to, indirect, special or consequential damages, 
#resulting from the use of any information or interpretation provided by Halliburton.
#
~A           TIME           GTDEPTH  GTPQH  GTTQ  GTTN  GTET   GTTVD  
# ...
   12:55:09.226.25-Dec-2020 4950.51 2088.60 66.64 1.00  92.04 2558.08
   12:55:09.426.25-Dec-2020 4950.51 2088.60 66.64 1.00  92.24 2558.08
   12:55:09.626.25-Dec-2020 4950.51 2088.68 66.64 1.00  92.44 2558.08
   12:55:09.826.25-Dec-2020 4950.51 2088.67 66.64 1.00  92.64 2558.08
   12:55:10.026.25-Dec-2020 4950.51 2088.73 66.64 1.00  92.84 2558.08
   12:55:10.226.25-Dec-2020 4950.51 2088.68 66.64 1.00  93.04 2558.08
   12:55:10.427.25-Dec-2020 4950.51 2088.68 66.64 1.00  93.24 2558.08
   12:55:10.627.25-Dec-2020 4950.51 2087.95 66.64 1.00  93.44 2558.08
   12:55:10.827.25-Dec-2020 4950.51 2089.19 66.64 1.00  93.64 2558.08
   12:55:11.027.25-Dec-2020 4950.51 2088.95 66.64 1.00  93.84 2558.08
   12:55:11.227.25-Dec-2020 4950.51 2088.63 66.64 1.00  94.04 2558.08
   12:55:11.427.25-Dec-2020 4950.51 2088.63 66.64 1.00  94.24 2558.08
   12:55:11.627.25-Dec-2020 4950.51 2088.95 66.64 1.00  94.44 2558.08
   12:55:11.827.25-Dec-2020 4950.51 2088.28 66.64 1.00  94.64 2558.08
   12:55:12.027.25-Dec-2020 4950.51 2089.40 66.64 1.00  94.84 2558.08
   12:55:12.227.25-Dec-2020 4950.51 2088.52 66.64 1.00  95.04 2558.08
   12:55:12.427.25-Dec-2020 4950.51 2088.52 66.64 1.00  95.24 2558.08
   12:55:12.628.25-Dec-2020 4950.51 2089.31 66.64 1.00  95.44 2558.08
   12:55:12.828.25-Dec-2020 4950.51 2088.44 66.64 1.00  95.64 2558.08
   12:55:13.028.25-Dec-2020 4950.51 2089.07 66.64 1.00  95.84 2558.08
   12:55:13.228.25-Dec-2020 4950.51 2088.85 66.64 1.00  96.04 2558.08
   12:55:13.428.25-Dec-2020 4950.51 2088.85 66.64 1.00  96.24 2558.08
   12:55:13.628.25-Dec-2020 4950.51 2088.70 66.64 1.00  96.44 2558.08
   12:55:13.828.25-Dec-2020 4950.51 2088.75 66.64 1.00  96.64 2558.08
   12:55:14.028.25-Dec-2020 4950.51 2088.75 66.64 1.00  96.84 2558.08
   12:55:14.228.25-Dec-2020 4950.51 2088.73 66.64 1.00  97.04 2558.08
   12:55:14.428.25-Dec-2020 4950.51 2088.73 66.64 1.00  97.24 2558.08
   12:55:14.628.25-Dec-2020 4950.51 2088.84 66.64 1.00  97.44 2558.08
   12:55:14.829.25-Dec-2020 4950.51 2088.83 66.64 1.00  97.64 2558.08
   12:55:15.029.25-Dec-2020 4950.51 2088.00 66.64 1.00  97.84 2558.08
   12:55:15.229.25-Dec-2020 4950.51 2089.20 66.64 1.00  98.04 2558.08
   12:55:15.429.25-Dec-2020 4950.51 2089.20 66.64 1.00  98.24 2558.08
   12:55:15.629.25-Dec-2020 4950.51 2088.92 66.64 1.00  98.44 2558.08
   12:55:15.829.25-Dec-2020 4950.51 2088.80 66.64 1.00  98.64 2558.08
   12:55:16.029.25-Dec-2020 4950.51 2088.92 66.64 1.00  98.84 2558.08
   12:55:16.229.25-Dec-2020 4950.51 2088.93 66.64 1.00  99.04 2558.08
   12:55:16.429.25-Dec-2020 4950.51 2088.93 66.64 1.00  99.24 2558.08
   12:55:16.629.25-Dec-2020 4950.51 2088.84 66.64 1.00  99.44 2558.08
   12:55:16.829.25-Dec-2020 4950.51 2088.88 66.64 1.00  99.64 2558.08
   12:55:17.030.25-Dec-2020 4950.51 2088.90 66.64 1.00  99.85 2558.08
   12:55:17.230.25-Dec-2020 4950.51 2088.92 66.64 1.00 100.05 2558.08
   12:55:17.430.25-Dec-2020 4950.51 2088.92 66.64 1.00 100.25 2558.08
   12:55:17.630.25-Dec-2020 4950.51 2089.39 66.64 1.00 100.45 2558.08
   12:55:17.830.25-Dec-2020 4950.51 2088.84 66.64 1.00 100.65 2558.08
   12:55:18.030.25-Dec-2020 4950.51 2089.15 66.64 1.00 100.85 2558.08
   12:55:18.230.25-Dec-2020 4950.51 2087.98 66.64 1.00 101.05 2558.08
   12:55:18.430.25-Dec-2020 4950.51 2087.98 66.64 1.00 101.25 2558.08
   12:55:18.630.25-Dec-2020 4950.51 2088.92 66.64 1.00 101.45 2558.08
   12:55:18.830.25-Dec-2020 4950.51 2089.33 66.64 1.00 101.65 2558.08
   12:55:19.030.25-Dec-2020 4950.51 2088.64 66.64 1.00 101.85 2558.08
   12:55:19.231.25-Dec-2020 4950.51 2088.45 66.64 1.00 102.05 2558.08
   12:55:19.431.25-Dec-2020 4950.51 2088.45 66.64 1.00 102.25 2558.08
   12:55:19.631.25-Dec-2020 4950.51 2088.93 66.64 1.00 102.45 2558.08
   12:55:19.831.25-Dec-2020 4950.51 2089.01 66.64 1.00 102.65 2558.08
   12:55:20.031.25-Dec-2020 4950.51 2089.09 66.64 1.00 102.85 2558.08
   12:55:20.231.25-Dec-2020 4950.51 2089.09 66.64 1.00 103.05 2558.08
   12:55:20.431.25-Dec-2020 4950.51 2089.09 66.64 1.00 103.25 2558.08
   12:55:20.631.25-Dec-2020 4950.51 2088.86 66.64 1.00 103.45 2558.08
   12:55:20.831.25-Dec-2020 4950.51 2088.88 66.64 1.00 103.65 2558.08
   12:55:21.031.25-Dec-2020 4950.51 2088.96 66.64 1.00 103.85 2558.08
   12:55:21.231.25-Dec-2020 4950.51 2088.89 66.64 1.00 104.05 2558.08
   12:55:21.432.25-Dec-2020 4950.51 2088.92 66.64 1.00 104.25 2558.08
   12:55:21.632.25-Dec-2020 4950.51 2089.00 66.64 1.00 104.45 2558.08
   12:55:21.832.25-Dec-2020 4950.51 2088.03 66.64 1.00 104.65 2558.08
   12:55:22.032.25-Dec-2020 4950.51 2089.49 66.64 1.00 104.85 2558.08
   12:55:22.232.25-Dec-2020 4950.51 2089.07 66.64 1.00 105.05 2558.08
   12:55:22.432.25-Dec-2020 4950.51 2089.07 66.64 1.00 105.25 2558.08
   12:55:22.632.25-Dec-2020 4950.51 2088.97 66.64 1.00 105.45 2558.08
   12:55:22.832.25-Dec-2020 4950.51 2088.94 66.64 1.00 105.65 2558.08
   12:55:23.032.25-Dec-2020 4950.51 2089.07 66.64 1.00 105.85 2558.08
   12:55:23.232.25-Dec-2020 4950.51 2089.08 66.64 1.00 106.05 2558.08
   12:55:23.432.25-Dec-2020 4950.51 2089.08 66.64 1.00 106.25 2558.08
   12:55:23.633.25-Dec-2020 4950.51 2089.09 66.64 1.00 106.45 2558.08
   12:55:23.833.25-Dec-2020 4950.51 2088.97 66.64 1.00 106.65 2558.08
   12:55:24.033.25-Dec-2020 4950.51 2089.06 66.64 1.00 106.85 2558.08
   12:55:24.233.25-Dec-2020 4950.51 2088.44 66.64 1.00 107.05 2558.08
   12:55:24.433.25-Dec-2020 4950.51 2088.44 66.64 1.00 107.25 2558.08
   12:55:24.633.25-Dec-2020 4950.51 2088.91 66.64 1.00 107.45 2558.08
   12:55:24.833.25-Dec-2020 4950.51 2089.40 66.64 1.00 107.65 2558.08
   12:55:25.033.25-Dec-2020 4950.51 2088.39 66.64 1.00 107.85 2558.08
   12:55:25.233.25-Dec-2020 4950.51 2089.67 66.64 1.00 108.05 2558.08
   12:55:25.433.25-Dec-2020 4950.51 2089.67 66.64 1.00 108.25 2558.08
   12:55:25.633.25-Dec-2020 4950.51 2089.26 66.64 1.00 108.45 2558.08
   12:55:25.834.25-Dec-2020 4950.51 2089.09 66.64 1.00 108.65 2558.08
   12:55:26.034.25-Dec-2020 4950.51 2089.03 66.64 1.00 108.85 2558.08
   12:55:26.234.25-Dec-2020 4950.51 2088.84 66.64 1.00 109.05 2558.08
   12:55:26.434.25-Dec-2020 4950.51 2088.84 66.64 1.00 109.25 2558.08
   12:55:26.634.25-Dec-2020 4950.51 2089.23 66.64 1.00 109.45 2558.08
   12:55:26.834.25-Dec-2020 4950.51 2089.17 66.64 1.00 109.65 2558.08
   12:55:27.034.25-Dec-2020 4950.51 2089.22 66.64 1.00 109.85 2558.08
   12:55:27.234.25-Dec-2020 4950.51 2089.07 66.64 1.00 110.05 2558.08
   12:55:27.434.25-Dec-2020 4950.51 2089.07 66.64 1.00 110.25 2558.08
   12:55:27.634.25-Dec-2020 4950.51 2089.07 66.64 1.00 110.45 2558.08
   12:55:27.834.25-Dec-2020 4950.51 2089.09 66.64 1.00 110.65 2558.08
   12:55:28.035.25-Dec-2020 4950.51 2089.00 66.64 1.00 110.85 2558.08
   12:55:28.235.25-Dec-2020 4950.51 2089.07 66.64 1.00 111.05 2558.08
   12:55:28.435.25-Dec-2020 4950.51 2089.07 66.64 1.00 111.25 2558.08
   12:55:28.635.25-Dec-2020 4950.51 2088.44 66.64 1.00 111.45 2558.08
   12:55:28.835.25-Dec-2020 4950.51 2089.60 66.64 1.00 111.65 2558.08
   12:55:29.035.25-Dec-2020 4950.51 2088.94 66.64 1.00 111.85 2558.08
   12:55:29.235.25-Dec-2020 4950.51 2089.55 66.64 1.00 112.05 2558.08
   12:55:29.435.25-Dec-2020 4950.51 2089.55 66.64 1.00 112.25 2558.08
   12:55:29.635.25-Dec-2020 4950.51 2089.25 66.64 1.00 112.45 2558.08
   12:55:29.835.25-Dec-2020 4950.51 2089.19 66.64 1.00 112.65 2558.08
   12:55:30.035.25-Dec-2020 4950.51 2089.23 66.64 1.00 112.85 2558.08
   12:55:30.236.25-Dec-2020 4950.51 2089.20 66.64 1.00 113.05 2558.08
   12:55:30.436.25-Dec-2020 4950.51 2089.20 66.64 1.00 113.25 2558.08
   12:55:30.636.25-Dec-2020 4950.51 2089.24 66.64 1.00 113.45 2558.08
   12:55:30.836.25-Dec-2020 4950.51 2089.23 66.64 1.00 113.65 2558.08
   12:55:31.036.25-Dec-2020 4950.51 2088.78 66.64 1.00 113.85 2558.08
   12:55:31.236.25-Dec-2020 4950.51 2089.53 66.64 1.00 114.05 2558.08
   12:55:31.436.25-Dec-2020 4950.51 2089.53 66.64 1.00 114.25 2558.08
   12:55:31.636.25-Dec-2020 4950.51 2089.36 66.64 1.00 114.45 2558.08
   12:55:31.836.25-Dec-2020 4950.51 2088.61 66.64 1.00 114.65 2558.08
   12:55:32.036.25-Dec-2020 4950.51 2089.82 66.64 1.00 114.85 2558.08
