~Version Information
 VERS.                  2.0:   CWLS log ASCII Standard -VERSION 2.0
 WRAP.                   NO:   One line per depth step
~Well Information Block
#MNEM.UNIT     VALUE/NAME     DESCRIPTION
#---------     -----------    ---------------------------
 STRT.S             20:22:11 25-Dec-20: START TIME 20:22:11 25-Dec-20
 STOP.S             20:30:35 25-Dec-20: STOP TIME  20:30:35 25-Dec-20
 STEP.S                   0.00: STEP TIME
 NULL.                 -999.25: NULL VALUE
 DFWT.                        :  DIST FWL TEXT
 DFST.                        :  DIST FSL TEXT
 DMF .             Drill Floor:  DRILL MEAS FROM
 STIM.      04.54.24 22-Sep-20:  START TIME
 DATE.      04.54.24 21-Nov-20:  END TIME
 SPUD.               21-Nov-20:  SPUD DATE
 NREF.                    Grid:  NORTH REFERENCE
 HPTY.       Minimum Curvature:  HOLE POS TYPE
 DMOD.             Drill Model:  DRILL MOD DESC
 SVYD.                  Survey:  SURVEY DESC
 ILTD.               Lithology:  INTERP LTH DESC
 FTOP.          Formation Tops:  FORM TOPS DESC
 SON .        AZ-XX-0906571587:  JOB NUMBER
 COMP.     BP Exploration (Caspian Sea) Ltd:  COMPANY
 UWI .                     N/A:  UNIQUE WELL IDENTIFIER
 API .                     N/A:  API NUMBER
 BASE.              Azerbaijan:  LOGGING EQUIPMENT BASE LOCATION
 REGN.                   EESSA:  REGION
 PROV.                    Baku:  PROVINCE
 STAT.                    Baku:  STATE NAME
 CTRY.              Azerbaijan:  COUNTRY NAME
 FLD .                     ACG:  FIELD NAME
 SRVC.     TURAN Drilling & Engineering:  CONTRACTOR
 WELL.                     J27:  WELL NAME
 RIG .             West Chirag:  RIG NAME
 DOE .                     N/A:  DOE NUMBER
 DCON.         Sperry Drilling:  DIRECTNL CONTR
 PDAT.          Mean Sea Level:  PERMANENT DATUM
 WTYP.                Deviated:  WELL TYPE
 MWDS.                    Baku:  MWD SHOP
 JOBN.        AZ-XX-0906571587:  JOB TICKET NUMB
 UNIT.                     N/A:  LOGGING EQUIPMENT ID
 MDS .        Operator Entered:  MAG DATA SOURCE
 CNTY.                        :  COUNTY
 LOC .                        :  LOCATION
 LMF .             Drill Floor:  LOG MEASURED FROM
 TVDS.m                  43.00:  TVDSS CORRECTN
 LATI.deg                40.13:  LATITUDE
 LONG.deg                51.22:  LONGITUDE
 WHNS.m                   7.72:  WELL HEAD N/S
 WHEW.m                 -14.24:  WELL HEAD E/W
 UTMX.m              519005.06:  UTM X
 UTMY.m             4443793.85:  UTM Y
 DFWL.m                   0.00:  DISTANCE FWL
 DFSL.m                   0.00:  DISTANCE FSL
 SDEP.m                 347.00:  START DEPTH
 TDD .m                 581.00:  TOTAL DEPTH (DRILLER)
 VSDR.deg               159.72:  VERT SEC DIRECT
 GVFD.g                   1.00:  GRAVITY FIELD
 MFLD.nT              50318.00:  MAGNETIC FIELD
 MDIP.deg                59.57:  MAGNETIC DIP
 MDEC.deg                 6.44:  MAGNETIC DECL
 GRDC.deg                 0.15:  GRID CORRECTION
 AZTC.deg                 6.29:  AZM TOTAL CORR
 EPD .m                   0.00:  ELEVATION
 EGL .m                   0.00:  GROUND ELEVATION
 WDMS.m                 169.80:  WD ELEV
 APD .m                  43.00:  DEPTH ABOVE PD
 AGAP.m                  43.00:  AIR GAP
 VSEW.m                 -14.24:  VERT SEC E/W
 VSNS.m                   7.72:  VERT SEC N/S
 DEP .m                 342.45:  DEPTH
 EKB .m                   0.00:  KB ELEVATION
 EDF .m                  43.00:  DF ELEVATION
 TDL .m                 237.00:  TOTAL DEPTH (LOGGER)
 VSC .                       0:  VS TO CLOSURE
 MAGU.                 1851428:  MAGUTM CHECKSUM
~Parameter Information Block
#MNEM.UNIT       Value        Description
#---------     -----------    ---------------------------
 AV  .mps                 1.50:  Ann Velocity 
 AVMX.mps                 2.90:  Max Ann Veloc 
 AZIF.deg               115.59:  Azm, Final 
 BHAT.        Rotary Steerable:  BHA Type 
 BROT.°/30m               0.50:  Build Rotating 
 BS  .in                  8.50:  Bit Size 
 BTPL.psig              580.00:  Bit Press Loss 
 CABU.                     Yes:  Customer Abuse 
 COMM.                     ”Cf:  Run Comments 1 
 TCS .hr                 89.79:  Time Ciculation Ended 
 CV  .mps                 3.22:  Crit Velocity 
 CVMX.mps                 4.37:  Max Crit Veloc 
 DD1 .          Rashad Habibov:  Direct Drillr 1 
 DDSV.               Geo-Pilot:  DD Service 
 DEFF.%                  95.00:  % Det Eff 
 DLRX.°/30m               1.94:  Dogleg Rot Max 
 DLSO.°/30m               0.70:  Dogleg Oriented 
 DLSX.°/30m               1.94:  Dogleg Str Max 
 DRET.      04.45.00 25-Dec-20:  Drill End Time 
 DRST.      10.00.00 24-Dec-20:  Drill Start Tim 
 DTIM.hr                 16.64:  Time Drilling 
 EDEP.m                4999.01:  End Depth 
 ENG1.         Elchin Mammadov:  Engineer 1 
 ENG2.          Ruslan Safarov:  Engineer 2 
 ENG3.          Rustam Safarov:  Engineer 3 
 ETIM.      09.00.00 29-Dec-20:  End Time 
 FLOI.gpm               500.00:  Flow In 
 FLON.gpm               400.00:  Flow In Min 
 FLOS.cptm                0.00:  Fluid Loss 
 FLOX.gpm               500.00:  Flow In Max 
 HFLO.                      No:  High Flow 
 HPRE.                      No:  High Pressure 
 HTEM.                      No:  High Temp 
 HYDO.m                   2.00:  Hydro Offset 
 IFIN.deg                66.79:  Inc, Final 
 IMAX.deg                67.66:  Inc Max 
 IMIN.deg                66.39:  Inc Min 
 IMND.m                4949.37:  Inc Min Depth 
 IMXD.m                4778.63:  Inc Max Depth 
 JARR.                     Yes:  Jarring 
 LETM.      04.45.00 25-Dec-20:  Log End Time 
 LOST.hr                     0:  Lost Rig Time 
 LSTM.      10.00.00 24-Dec-20:  Log Start Time 
 MDCL.ppm             39000.00:  Mud Chlorides 
 MDES.     Inversion Oil/Synthetic:  Mud Desc 
 DFD .sg                  1.33:  Mud Density 
 MDMN.sg                  1.33:  Dens Mud Min 
 MDMX.sg                  1.33:  Dens Mud Max 
 MOIL.                      70:  Run Mud Oil % 
 MOWR.                   70:30:  Run Mud OWR 
 MSND.                       0:  Run Mud Sand % 
 MSOL.                    17.4:  Run Mud Solids% 
 DFV .spqt               84.00:  Mud Viscosity 
 MWOD.in                  6.75:  MWD Tool OD 
 MWSI.                     Yes:  Serv Intrp, MWD 
 OTIM.hr                168.14:  Time Operating 
 PCON.           Look Like New:  Pad Condition 
 PMAX.psia            10822.93:  Press Op, Max 
 PV  .cP                 30.00:  Mud PV 
 RUN .                     900:  Run Number 
 ROPA.m/hr               18.00:  ROP Avg 
 ROPN.m/hr               12.00:  ROP Min 
 ROPX.m/hr               25.00:  ROP Max 
 RPMA.rpm               120.00:  RPM Surface Avg 
 RPMN.rpm               100.00:  RPM Surface Min 
 RPMX.rpm               120.00:  RPM Surface Max 
 RRUN.                    0900:  Rig Run Number 
 SAZI.deg               115.08:  Azm, Start 
 SDEP.m                4762.01:  Start Depth 
 SIDD.                      No:  Serv Intrp, DD 
 SINC.deg                66.14:  Inc, Start 
 SPPA.psig             3700.00:  SPP Avg 
 SPPN.psig             3620.00:  SPP Min 
 SPPX.psig             3900.00:  SPP Max 
 STIM.      09.30.00 22-Dec-20:  Start Time 
 SVCS.                 DD, MWD:  Services 
 SVER.                    9.20:  Sperry Version 
 TDAT.m                 237.00:  Tot Depth Attmp 
 TDDF.                      No:  Trip for DD 
 TDLG.m                 237.00:  Tot Depth Loggd 
 TFF .                      No:  Trip for Fail 
 TQAA.f-kp               18.00:  Torque Abs Avg 
 TQAN.f-kp               17.00:  Torque Abs Min 
 TQAX.f-kp               20.00:  Torque Abs Max 
 TRRT.°/30m               0.60:  Turn Rotating 
 MRT .                    HCIM:  Maximum Recorded Temperature 
 TTMX.degC               94.12:  Max Tool Temp 
 VS01.                90627809:  Virtual Str1 SN 
 VS02.                90527813:  Virtual Str2 SN 
 VS03.                90545417:  Virtual Str3 SN 
 VS04.                12460870:  Virtual Str4 SN 
 VS05.                90516706:  Virtual Str5 SN 
 VS06.                90632007:  Virtual Str6 SN 
 WBMN.klb                 0.00:  WOB Min 
 WOBA.klb                14.00:  WOB Avg 
 WOBX.klb                25.00:  WOB Max 
 YP  .lhf2               32.00:  Yield Point 
~Curve Information Block
#MNEM.UNIT                 API CODE     Curve Description
#---------               -----------    ---------------------------
 TIME.HHMMSS            00 000 000 000:  GT Time & Date
 GTDEPTH.m              00 000 000 000:  GT Depth
 GTPQH.psia             00 000 000 000:  GT HR Quartz Pressure
 GTTQ.degC              00 000 000 000:  GT Quartz Temperature
 GTTN.NONE              00 000 000 000:  GT Test Number
 GTET.sec               00 000 000 000:  GT Elapsed Test Time
 GTTVD.m                00 000 000 000:  GT True Vertical Depth
#Other Information
#
#WARRANTY: Halliburton will use its best efforts to furnish customers with 
#accurate information and interpretations that are part of, and incident to, the services 
#provided.  However, Halliburton cannot and does not warrant the accuracy 
#or correctness of such information and interpretations.  Under no circumstances should any 
#such information or interpretation be relied upon as the sole basis for any drilling, 
#completion, production, or financial decision or any procedure involving any risk to the 
#safety of any drilling venture, drilling rig or its crew or any other third party.  The 
#Customer has full responsibility for all drilling, completion and production operation.  
#Halliburton makes no representations or warranties, either expressed or 
#implied, including, but not limited to, the implied warranties of merchantability or fitness 
#for a particular purpose, with respect to the services rendered.  In no event will 
#Halliburton be liable for failure to obtain any particular results or for 
#any damages, including, but not limited to, indirect, special or consequential damages, 
#resulting from the use of any information or interpretation provided by Halliburton.
#
~A           TIME           GTDEPTH  GTPQH  GTTQ  GTTN  GTET   GTTVD  
# ...
   20:24:29.870.25-Dec-2020 4794.01 2303.06 63.90 8.00 137.99 2496.73
   20:24:30.070.25-Dec-2020 4794.01 2303.06 63.90 8.00 138.19 2496.73
   20:24:30.270.25-Dec-2020 4794.01 2303.17 63.90 8.00 138.39 2496.73
   20:24:30.470.25-Dec-2020 4794.01 2302.85 63.90 8.00 138.59 2496.73
   20:24:30.670.25-Dec-2020 4794.01 2303.92 63.90 8.00 138.79 2496.73
   20:24:30.869.25-Dec-2020 4794.01 2303.11 63.90 8.00 138.99 2496.73
   20:24:31.069.25-Dec-2020 4794.01 2303.11 63.90 8.00 139.19 2496.73
   20:24:31.269.25-Dec-2020 4794.01 2303.28 63.90 8.00 139.39 2496.73
   20:24:31.469.25-Dec-2020 4794.01 2303.27 63.90 8.00 139.59 2496.73
   20:24:31.669.25-Dec-2020 4794.01 2303.29 63.90 8.00 139.79 2496.73
   20:24:31.869.25-Dec-2020 4794.01 2303.27 63.90 8.00 139.99 2496.73
   20:24:32.069.25-Dec-2020 4794.01 2303.33 63.90 8.00 140.19 2496.73
   20:24:32.269.25-Dec-2020 4794.01 2303.30 63.90 8.00 140.39 2496.73
   20:24:32.469.25-Dec-2020 4794.01 2303.30 63.90 8.00 140.59 2496.73
   20:24:32.669.25-Dec-2020 4794.01 2303.36 63.90 8.00 140.79 2496.73
   20:24:32.869.25-Dec-2020 4794.01 2303.32 63.90 8.00 140.99 2496.73
   20:24:33.069.25-Dec-2020 4794.01 2303.17 63.90 8.00 141.19 2496.73
   20:24:33.269.25-Dec-2020 4794.01 2303.41 63.90 8.00 141.39 2496.73
   20:24:33.469.25-Dec-2020 4794.01 2303.35 63.90 8.00 141.59 2496.73
   20:24:33.669.25-Dec-2020 4794.01 2303.43 63.90 8.00 141.79 2496.73
   20:24:33.869.25-Dec-2020 4794.01 2303.26 63.90 8.00 141.99 2496.73
   20:24:34.069.25-Dec-2020 4794.01 2303.26 63.90 8.00 142.19 2496.73
   20:24:34.269.25-Dec-2020 4794.01 2303.29 63.90 8.00 142.39 2496.73
   20:24:34.469.25-Dec-2020 4794.01 2303.28 63.90 8.00 142.59 2496.73
   20:24:34.669.25-Dec-2020 4794.01 2303.37 63.90 8.00 142.79 2496.73
   20:24:34.869.25-Dec-2020 4794.01 2303.28 63.90 8.00 142.99 2496.73
   20:24:35.069.25-Dec-2020 4794.01 2303.28 63.90 8.00 143.19 2496.73
   20:24:35.269.25-Dec-2020 4794.01 2303.33 63.90 8.00 143.39 2496.73
   20:24:35.469.25-Dec-2020 4794.01 2303.04 63.90 8.00 143.59 2496.73
   20:24:35.669.25-Dec-2020 4794.01 2303.70 63.90 8.00 143.79 2496.73
   20:24:35.869.25-Dec-2020 4794.01 2303.20 63.90 8.00 143.99 2496.73
   20:24:36.069.25-Dec-2020 4794.01 2303.30 63.90 8.00 144.19 2496.73
   20:24:36.269.25-Dec-2020 4794.01 2303.35 63.90 8.00 144.39 2496.73
   20:24:36.469.25-Dec-2020 4794.01 2303.23 63.90 8.00 144.59 2496.73
   20:24:36.669.25-Dec-2020 4794.01 2303.35 63.90 8.00 144.79 2496.73
   20:24:36.869.25-Dec-2020 4794.01 2303.08 63.90 8.00 144.99 2496.73
   20:24:37.069.25-Dec-2020 4794.01 2303.56 63.90 8.00 145.19 2496.73
   20:24:37.269.25-Dec-2020 4794.01 2303.29 63.90 8.00 145.39 2496.73
   20:24:37.469.25-Dec-2020 4794.01 2303.25 63.90 8.00 145.59 2496.73
   20:24:37.669.25-Dec-2020 4794.01 2302.89 63.89 8.00 145.79 2496.73
   20:24:37.869.25-Dec-2020 4794.01 2303.77 63.90 8.00 145.99 2496.73
   20:24:38.069.25-Dec-2020 4794.01 2303.77 63.90 8.00 146.19 2496.73
   20:24:38.269.25-Dec-2020 4794.01 2303.30 63.89 8.00 146.39 2496.73
   20:24:38.469.25-Dec-2020 4794.01 2303.29 63.89 8.00 146.59 2496.73
   20:24:38.669.25-Dec-2020 4794.01 2303.06 63.89 8.00 146.79 2496.73
   20:24:38.869.25-Dec-2020 4794.01 2303.56 63.89 8.00 146.99 2496.73
   20:24:39.069.25-Dec-2020 4794.01 2303.56 63.89 8.00 147.19 2496.73
   20:24:39.269.25-Dec-2020 4794.01 2303.28 63.89 8.00 147.39 2496.73
   20:24:39.469.25-Dec-2020 4794.01 2303.32 63.89 8.00 147.59 2496.73
   20:24:39.669.25-Dec-2020 4794.01 2303.26 63.89 8.00 147.79 2496.73
   20:24:39.869.25-Dec-2020 4794.01 2303.28 63.89 8.00 147.99 2496.73
   20:24:40.069.25-Dec-2020 4794.01 2303.28 63.89 8.00 148.19 2496.73
   20:24:40.269.25-Dec-2020 4794.01 2303.28 63.89 8.00 148.39 2496.73
   20:24:40.469.25-Dec-2020 4794.01 2303.25 63.89 8.00 148.59 2496.73
   20:24:40.669.25-Dec-2020 4794.01 2303.30 63.89 8.00 148.79 2496.73
   20:24:40.869.25-Dec-2020 4794.01 2303.29 63.89 8.00 148.99 2496.73
   20:24:41.069.25-Dec-2020 4794.01 2303.31 63.89 8.00 149.19 2496.73
   20:24:41.269.25-Dec-2020 4794.01 2303.29 63.89 8.00 149.39 2496.73
   20:24:41.469.25-Dec-2020 4794.01 2303.07 63.89 8.00 149.59 2496.73
   20:24:41.669.25-Dec-2020 4794.01 2303.59 63.89 8.00 149.79 2496.73
   20:24:41.869.25-Dec-2020 4794.01 2303.24 63.89 8.00 149.99 2496.73
   20:24:42.069.25-Dec-2020 4794.01 2303.24 63.89 8.00 150.19 2496.73
   20:24:42.269.25-Dec-2020 4794.01 2303.30 63.89 8.00 150.39 2496.73
   20:24:42.469.25-Dec-2020 4794.01 2303.21 63.89 8.00 150.59 2496.73
   20:24:42.669.25-Dec-2020 4794.01 2303.32 63.89 8.00 150.79 2496.73
   20:24:42.869.25-Dec-2020 4794.01 2303.29 63.89 8.00 150.99 2496.73
   20:24:43.069.25-Dec-2020 4794.01 2303.29 63.89 8.00 151.19 2496.73
   20:24:43.269.25-Dec-2020 4794.01 2303.30 63.89 8.00 151.39 2496.73
   20:24:43.469.25-Dec-2020 4794.01 2303.28 63.89 8.00 151.59 2496.73
   20:24:43.669.25-Dec-2020 4794.01 2303.19 63.89 8.00 151.79 2496.73
   20:24:43.869.25-Dec-2020 4794.01 2303.35 63.89 8.00 151.99 2496.73
   20:24:44.069.25-Dec-2020 4794.01 2303.35 63.89 8.00 152.19 2496.73
   20:24:44.269.25-Dec-2020 4794.01 2303.36 63.89 8.00 152.39 2496.73
   20:24:44.469.25-Dec-2020 4794.01 2303.25 63.89 8.00 152.59 2496.73
   20:24:44.669.25-Dec-2020 4794.01 2302.97 63.89 8.00 152.79 2496.73
   20:24:44.869.25-Dec-2020 4794.01 2303.65 63.89 8.00 152.99 2496.73
   20:24:45.069.25-Dec-2020 4794.01 2303.07 63.89 8.00 153.19 2496.73
   20:24:45.269.25-Dec-2020 4794.01 2303.52 63.89 8.00 153.39 2496.73
   20:24:45.469.25-Dec-2020 4794.01 2303.12 63.89 8.00 153.59 2496.73
   20:24:45.669.25-Dec-2020 4794.01 2303.35 63.89 8.00 153.79 2496.73
   20:24:45.868.25-Dec-2020 4794.01 2303.01 63.89 8.00 153.99 2496.73
   20:24:46.068.25-Dec-2020 4794.01 2303.01 63.89 8.00 154.19 2496.73
   20:24:46.268.25-Dec-2020 4794.01 2303.25 63.89 8.00 154.39 2496.73
   20:24:46.468.25-Dec-2020 4794.01 2303.18 63.89 8.00 154.59 2496.73
   20:24:46.668.25-Dec-2020 4794.01 2303.35 63.89 8.00 154.79 2496.73
   20:24:46.868.25-Dec-2020 4794.01 2303.01 63.89 8.00 154.99 2496.73
   20:24:47.068.25-Dec-2020 4794.01 2303.01 63.89 8.00 155.19 2496.73
   20:24:47.268.25-Dec-2020 4794.01 2303.34 63.89 8.00 155.39 2496.73
   20:24:47.468.25-Dec-2020 4794.01 2303.25 63.89 8.00 155.59 2496.73
   20:24:47.668.25-Dec-2020 4794.01 2303.26 63.89 8.00 155.79 2496.73
   20:24:47.868.25-Dec-2020 4794.01 2303.21 63.89 8.00 155.99 2496.73
   20:24:48.068.25-Dec-2020 4794.01 2303.21 63.89 8.00 156.19 2496.73
   20:24:48.268.25-Dec-2020 4794.01 2303.29 63.89 8.00 156.39 2496.73
   20:24:48.468.25-Dec-2020 4794.01 2303.22 63.89 8.00 156.59 2496.73
   20:24:48.668.25-Dec-2020 4794.01 2303.29 63.89 8.00 156.79 2496.73
   20:24:48.868.25-Dec-2020 4794.01 2303.25 63.89 8.00 156.99 2496.73
   20:24:49.068.25-Dec-2020 4794.01 2303.25 63.89 8.00 157.19 2496.73
   20:24:49.268.25-Dec-2020 4794.01 2302.98 63.89 8.00 157.39 2496.73
   20:24:49.468.25-Dec-2020 4794.01 2303.63 63.89 8.00 157.59 2496.73
   20:24:49.668.25-Dec-2020 4794.01 2303.13 63.89 8.00 157.79 2496.73
   20:24:49.868.25-Dec-2020 4794.01 2303.48 63.89 8.00 157.99 2496.73
   20:24:50.068.25-Dec-2020 4794.01 2303.48 63.89 8.00 158.19 2496.73
   20:24:50.268.25-Dec-2020 4794.01 2303.32 63.89 8.00 158.39 2496.73
   20:24:50.468.25-Dec-2020 4794.01 2303.23 63.89 8.00 158.59 2496.73
   20:24:50.668.25-Dec-2020 4794.01 2303.25 63.89 8.00 158.79 2496.73
   20:24:50.868.25-Dec-2020 4794.01 2303.25 63.89 8.00 158.99 2496.73
   20:24:51.068.25-Dec-2020 4794.01 2303.25 63.89 8.00 159.19 2496.73
   20:24:51.268.25-Dec-2020 4794.01 2303.30 63.89 8.00 159.39 2496.73
   20:24:51.468.25-Dec-2020 4794.01 2303.26 63.89 8.00 159.59 2496.73
   20:24:51.668.25-Dec-2020 4794.01 2303.30 63.89 8.00 159.79 2496.73
   20:24:51.868.25-Dec-2020 4794.01 2303.25 63.89 8.00 159.99 2496.73
   20:24:52.068.25-Dec-2020 4794.01 2303.07 63.89 8.00 160.19 2496.73
   20:24:52.268.25-Dec-2020 4794.01 2303.57 63.89 8.00 160.39 2496.73
   20:24:52.468.25-Dec-2020 4794.01 2303.20 63.89 8.00 160.59 2496.73
   20:24:52.668.25-Dec-2020 4794.01 2303.26 63.89 8.00 160.79 2496.73
