~Version Information
 VERS.                  2.0:   CWLS log ASCII Standard -VERSION 2.0
 WRAP.                   NO:   One line per depth step
~Well Information Block
#MNEM.UNIT     VALUE/NAME     DESCRIPTION
#---------     -----------    ---------------------------
 STRT.S             13:59:04 25-Dec-20: START TIME 13:59:04 25-Dec-20
 STOP.S             14:07:22 25-Dec-20: STOP TIME  14:07:22 25-Dec-20
 STEP.S                   0.00: STEP TIME
 NULL.                 -999.25: NULL VALUE
 DFWT.                        :  DIST FWL TEXT
 DFST.                        :  DIST FSL TEXT
 DMF .             Drill Floor:  DRILL MEAS FROM
 STIM.      04.54.24 22-Sep-20:  START TIME
 DATE.      04.54.24 21-Nov-20:  END TIME
 SPUD.               21-Nov-20:  SPUD DATE
 NREF.                    Grid:  NORTH REFERENCE
 HPTY.       Minimum Curvature:  HOLE POS TYPE
 DMOD.             Drill Model:  DRILL MOD DESC
 SVYD.                  Survey:  SURVEY DESC
 ILTD.               Lithology:  INTERP LTH DESC
 FTOP.          Formation Tops:  FORM TOPS DESC
 SON .        AZ-XX-0906571587:  JOB NUMBER
 COMP.     BP Exploration (Caspian Sea) Ltd:  COMPANY
 UWI .                     N/A:  UNIQUE WELL IDENTIFIER
 API .                     N/A:  API NUMBER
 BASE.              Azerbaijan:  LOGGING EQUIPMENT BASE LOCATION
 REGN.                   EESSA:  REGION
 PROV.                    Baku:  PROVINCE
 STAT.                    Baku:  STATE NAME
 CTRY.              Azerbaijan:  COUNTRY NAME
 FLD .                     ACG:  FIELD NAME
 SRVC.     TURAN Drilling & Engineering:  CONTRACTOR
 WELL.                     J27:  WELL NAME
 RIG .             West Chirag:  RIG NAME
 DOE .                     N/A:  DOE NUMBER
 DCON.         Sperry Drilling:  DIRECTNL CONTR
 PDAT.          Mean Sea Level:  PERMANENT DATUM
 WTYP.                Deviated:  WELL TYPE
 MWDS.                    Baku:  MWD SHOP
 JOBN.        AZ-XX-0906571587:  JOB TICKET NUMB
 UNIT.                     N/A:  LOGGING EQUIPMENT ID
 MDS .        Operator Entered:  MAG DATA SOURCE
 CNTY.                        :  COUNTY
 LOC .                        :  LOCATION
 LMF .             Drill Floor:  LOG MEASURED FROM
 TVDS.m                  43.00:  TVDSS CORRECTN
 LATI.deg                40.13:  LATITUDE
 LONG.deg                51.22:  LONGITUDE
 WHNS.m                   7.72:  WELL HEAD N/S
 WHEW.m                 -14.24:  WELL HEAD E/W
 UTMX.m              519005.06:  UTM X
 UTMY.m             4443793.85:  UTM Y
 DFWL.m                   0.00:  DISTANCE FWL
 DFSL.m                   0.00:  DISTANCE FSL
 SDEP.m                 347.00:  START DEPTH
 TDD .m                 581.00:  TOTAL DEPTH (DRILLER)
 VSDR.deg               159.72:  VERT SEC DIRECT
 GVFD.g                   1.00:  GRAVITY FIELD
 MFLD.nT              50318.00:  MAGNETIC FIELD
 MDIP.deg                59.57:  MAGNETIC DIP
 MDEC.deg                 6.44:  MAGNETIC DECL
 GRDC.deg                 0.15:  GRID CORRECTION
 AZTC.deg                 6.29:  AZM TOTAL CORR
 EPD .m                   0.00:  ELEVATION
 EGL .m                   0.00:  GROUND ELEVATION
 WDMS.m                 169.80:  WD ELEV
 APD .m                  43.00:  DEPTH ABOVE PD
 AGAP.m                  43.00:  AIR GAP
 VSEW.m                 -14.24:  VERT SEC E/W
 VSNS.m                   7.72:  VERT SEC N/S
 DEP .m                 342.45:  DEPTH
 EKB .m                   0.00:  KB ELEVATION
 EDF .m                  43.00:  DF ELEVATION
 TDL .m                 237.00:  TOTAL DEPTH (LOGGER)
 VSC .                       0:  VS TO CLOSURE
 MAGU.                 1851428:  MAGUTM CHECKSUM
~Parameter Information Block
#MNEM.UNIT       Value        Description
#---------     -----------    ---------------------------
 AV  .mps                 1.50:  Ann Velocity 
 AVMX.mps                 2.90:  Max Ann Veloc 
 AZIF.deg               115.59:  Azm, Final 
 BHAT.        Rotary Steerable:  BHA Type 
 BROT.°/30m               0.50:  Build Rotating 
 BS  .in                  8.50:  Bit Size 
 BTPL.psig              580.00:  Bit Press Loss 
 CABU.                     Yes:  Customer Abuse 
 COMM.                     ì©q:  Run Comments 1 
 TCS .hr                 89.79:  Time Ciculation Ended 
 CV  .mps                 3.22:  Crit Velocity 
 CVMX.mps                 4.37:  Max Crit Veloc 
 DD1 .          Rashad Habibov:  Direct Drillr 1 
 DDSV.               Geo-Pilot:  DD Service 
 DEFF.%                  95.00:  % Det Eff 
 DLRX.°/30m               1.94:  Dogleg Rot Max 
 DLSO.°/30m               0.70:  Dogleg Oriented 
 DLSX.°/30m               1.94:  Dogleg Str Max 
 DRET.      04.45.00 25-Dec-20:  Drill End Time 
 DRST.      10.00.00 24-Dec-20:  Drill Start Tim 
 DTIM.hr                 16.64:  Time Drilling 
 EDEP.m                4999.01:  End Depth 
 ENG1.         Elchin Mammadov:  Engineer 1 
 ENG2.          Ruslan Safarov:  Engineer 2 
 ENG3.          Rustam Safarov:  Engineer 3 
 ETIM.      09.00.00 29-Dec-20:  End Time 
 FLOI.gpm               500.00:  Flow In 
 FLON.gpm               400.00:  Flow In Min 
 FLOS.cptm                0.00:  Fluid Loss 
 FLOX.gpm               500.00:  Flow In Max 
 HFLO.                      No:  High Flow 
 HPRE.                      No:  High Pressure 
 HTEM.                      No:  High Temp 
 HYDO.m                   2.00:  Hydro Offset 
 IFIN.deg                66.79:  Inc, Final 
 IMAX.deg                67.66:  Inc Max 
 IMIN.deg                66.39:  Inc Min 
 IMND.m                4949.37:  Inc Min Depth 
 IMXD.m                4778.63:  Inc Max Depth 
 JARR.                     Yes:  Jarring 
 LETM.      04.45.00 25-Dec-20:  Log End Time 
 LOST.hr                     0:  Lost Rig Time 
 LSTM.      10.00.00 24-Dec-20:  Log Start Time 
 MDCL.ppm             39000.00:  Mud Chlorides 
 MDES.     Inversion Oil/Synthetic:  Mud Desc 
 DFD .sg                  1.33:  Mud Density 
 MDMN.sg                  1.33:  Dens Mud Min 
 MDMX.sg                  1.33:  Dens Mud Max 
 MOIL.                      70:  Run Mud Oil % 
 MOWR.                   70:30:  Run Mud OWR 
 MSND.                       0:  Run Mud Sand % 
 MSOL.                    17.4:  Run Mud Solids% 
 DFV .spqt               84.00:  Mud Viscosity 
 MWOD.in                  6.75:  MWD Tool OD 
 MWSI.                     Yes:  Serv Intrp, MWD 
 OTIM.hr                168.14:  Time Operating 
 PCON.           Look Like New:  Pad Condition 
 PMAX.psia            10822.93:  Press Op, Max 
 PV  .cP                 30.00:  Mud PV 
 RUN .                     900:  Run Number 
 ROPA.m/hr               18.00:  ROP Avg 
 ROPN.m/hr               12.00:  ROP Min 
 ROPX.m/hr               25.00:  ROP Max 
 RPMA.rpm               120.00:  RPM Surface Avg 
 RPMN.rpm               100.00:  RPM Surface Min 
 RPMX.rpm               120.00:  RPM Surface Max 
 RRUN.                    0900:  Rig Run Number 
 SAZI.deg               115.08:  Azm, Start 
 SDEP.m                4762.01:  Start Depth 
 SIDD.                      No:  Serv Intrp, DD 
 SINC.deg                66.14:  Inc, Start 
 SPPA.psig             3700.00:  SPP Avg 
 SPPN.psig             3620.00:  SPP Min 
 SPPX.psig             3900.00:  SPP Max 
 STIM.      09.30.00 22-Dec-20:  Start Time 
 SVCS.                 DD, MWD:  Services 
 SVER.                    9.20:  Sperry Version 
 TDAT.m                 237.00:  Tot Depth Attmp 
 TDDF.                      No:  Trip for DD 
 TDLG.m                 237.00:  Tot Depth Loggd 
 TFF .                      No:  Trip for Fail 
 TQAA.f-kp               18.00:  Torque Abs Avg 
 TQAN.f-kp               17.00:  Torque Abs Min 
 TQAX.f-kp               20.00:  Torque Abs Max 
 TRRT.°/30m               0.60:  Turn Rotating 
 MRT .                    HCIM:  Maximum Recorded Temperature 
 TTMX.degC               94.12:  Max Tool Temp 
 VS01.                90627809:  Virtual Str1 SN 
 VS02.                90527813:  Virtual Str2 SN 
 VS03.                90545417:  Virtual Str3 SN 
 VS04.                12460870:  Virtual Str4 SN 
 VS05.                90516706:  Virtual Str5 SN 
 VS06.                90632007:  Virtual Str6 SN 
 WBMN.klb                 0.00:  WOB Min 
 WOBA.klb                14.00:  WOB Avg 
 WOBX.klb                25.00:  WOB Max 
 YP  .lhf2               32.00:  Yield Point 
~Curve Information Block
#MNEM.UNIT                 API CODE     Curve Description
#---------               -----------    ---------------------------
 TIME.HHMMSS            00 000 000 000:  GT Time & Date
 GTDEPTH.m              00 000 000 000:  GT Depth
 GTPQH.psia             00 000 000 000:  GT HR Quartz Pressure
 GTTQ.degC              00 000 000 000:  GT Quartz Temperature
 GTTN.NONE              00 000 000 000:  GT Test Number
 GTET.sec               00 000 000 000:  GT Elapsed Test Time
 GTTVD.m                00 000 000 000:  GT True Vertical Depth
#Other Information
#
#WARRANTY: Halliburton will use its best efforts to furnish customers with 
#accurate information and interpretations that are part of, and incident to, the services 
#provided.  However, Halliburton cannot and does not warrant the accuracy 
#or correctness of such information and interpretations.  Under no circumstances should any 
#such information or interpretation be relied upon as the sole basis for any drilling, 
#completion, production, or financial decision or any procedure involving any risk to the 
#safety of any drilling venture, drilling rig or its crew or any other third party.  The 
#Customer has full responsibility for all drilling, completion and production operation.  
#Halliburton makes no representations or warranties, either expressed or 
#implied, including, but not limited to, the implied warranties of merchantability or fitness 
#for a particular purpose, with respect to the services rendered.  In no event will 
#Halliburton be liable for failure to obtain any particular results or for 
#any damages, including, but not limited to, indirect, special or consequential damages, 
#resulting from the use of any information or interpretation provided by Halliburton.
#
~A           TIME           GTDEPTH  GTPQH  GTTQ  GTTN  GTET   GTTVD  
# ...
   14:05:35.000.25-Dec-2020 4920.01 2664.75 65.67 3.00 391.00 2546.09
   14:05:35.200.25-Dec-2020 4920.01 2664.75 65.67 3.00 391.20 2546.09
   14:05:35.400.25-Dec-2020 4920.01 2664.72 65.67 3.00 391.40 2546.09
   14:05:35.600.25-Dec-2020 4920.01 2664.73 65.67 3.00 391.60 2546.09
   14:05:35.800.25-Dec-2020 4920.01 2664.65 65.67 3.00 391.80 2546.09
   14:05:36.000.25-Dec-2020 4920.01 2664.70 65.67 3.00 392.00 2546.09
   14:05:36.200.25-Dec-2020 4920.01 2664.93 65.67 3.00 392.20 2546.09
   14:05:36.400.25-Dec-2020 4920.01 2664.50 65.67 3.00 392.40 2546.09
   14:05:36.600.25-Dec-2020 4920.01 2665.00 65.67 3.00 392.60 2546.09
   14:05:36.800.25-Dec-2020 4920.01 2664.66 65.67 3.00 392.80 2546.09
   14:05:37.000.25-Dec-2020 4920.01 2664.79 65.67 3.00 393.00 2546.09
   14:05:37.200.25-Dec-2020 4920.01 2664.79 65.67 3.00 393.20 2546.09
   14:05:37.400.25-Dec-2020 4920.01 2664.60 65.67 3.00 393.40 2546.09
   14:05:37.600.25-Dec-2020 4920.01 2664.72 65.67 3.00 393.60 2546.09
   14:05:37.800.25-Dec-2020 4920.01 2664.91 65.67 3.00 393.80 2546.09
   14:05:38.000.25-Dec-2020 4920.01 2664.64 65.67 3.00 394.00 2546.09
   14:05:38.200.25-Dec-2020 4920.01 2664.64 65.67 3.00 394.20 2546.09
   14:05:38.400.25-Dec-2020 4920.01 2664.91 65.67 3.00 394.40 2546.09
   14:05:38.600.25-Dec-2020 4920.01 2664.76 65.67 3.00 394.60 2546.09
   14:05:38.800.25-Dec-2020 4920.01 2664.67 65.67 3.00 394.80 2546.09
   14:05:39.000.25-Dec-2020 4920.01 2664.73 65.67 3.00 395.00 2546.09
   14:05:39.200.25-Dec-2020 4920.01 2664.76 65.67 3.00 395.20 2546.09
   14:05:39.400.25-Dec-2020 4920.01 2664.69 65.67 3.00 395.40 2546.09
   14:05:39.600.25-Dec-2020 4920.01 2664.72 65.67 3.00 395.60 2546.09
   14:05:39.800.25-Dec-2020 4920.01 2664.73 65.67 3.00 395.80 2546.09
   14:05:40.000.25-Dec-2020 4920.01 2664.72 65.67 3.00 396.00 2546.09
   14:05:40.200.25-Dec-2020 4920.01 2664.72 65.67 3.00 396.20 2546.09
   14:05:40.400.25-Dec-2020 4920.01 2664.50 65.67 3.00 396.40 2546.09
   14:05:40.600.25-Dec-2020 4920.01 2665.01 65.67 3.00 396.60 2546.09
   14:05:40.800.25-Dec-2020 4920.01 2664.67 65.67 3.00 396.80 2546.09
   14:05:41.000.25-Dec-2020 4920.01 2664.81 65.67 3.00 397.00 2546.09
   14:05:41.200.25-Dec-2020 4920.01 2664.81 65.67 3.00 397.20 2546.09
   14:05:41.400.25-Dec-2020 4920.01 2664.70 65.67 3.00 397.40 2546.09
   14:05:41.600.25-Dec-2020 4920.01 2664.74 65.67 3.00 397.60 2546.09
   14:05:41.800.25-Dec-2020 4920.01 2664.73 65.67 3.00 397.80 2546.09
   14:05:42.000.25-Dec-2020 4920.01 2664.72 65.67 3.00 398.00 2546.09
   14:05:42.200.25-Dec-2020 4920.01 2664.72 65.67 3.00 398.20 2546.09
   14:05:42.400.25-Dec-2020 4920.01 2664.75 65.67 3.00 398.40 2546.09
   14:05:42.600.25-Dec-2020 4920.01 2664.72 65.67 3.00 398.60 2546.09
   14:05:42.800.25-Dec-2020 4920.01 2664.72 65.67 3.00 398.80 2546.09
   14:05:43.000.25-Dec-2020 4920.01 2664.64 65.67 3.00 399.00 2546.09
   14:05:43.200.25-Dec-2020 4920.01 2664.64 65.67 3.00 399.20 2546.09
   14:05:43.400.25-Dec-2020 4920.01 2664.91 65.67 3.00 399.40 2546.09
   14:05:43.600.25-Dec-2020 4920.01 2664.50 65.67 3.00 399.60 2546.09
   14:05:43.800.25-Dec-2020 4920.01 2665.01 65.67 3.00 399.80 2546.09
   14:05:44.000.25-Dec-2020 4920.01 2664.65 65.67 3.00 400.00 2546.09
   14:05:44.200.25-Dec-2020 4920.01 2664.80 65.67 3.00 400.20 2546.09
   14:05:44.400.25-Dec-2020 4920.01 2664.70 65.67 3.00 400.40 2546.09
   14:05:44.600.25-Dec-2020 4920.01 2664.60 65.67 3.00 400.60 2546.09
   14:05:44.800.25-Dec-2020 4920.01 2664.73 65.67 3.00 400.80 2546.09
   14:05:45.000.25-Dec-2020 4920.01 2664.88 65.67 3.00 401.00 2546.09
   14:05:45.200.25-Dec-2020 4920.01 2664.88 65.67 3.00 401.20 2546.09
   14:05:45.400.25-Dec-2020 4920.01 2664.72 65.67 3.00 401.40 2546.09
   14:05:45.600.25-Dec-2020 4920.01 2664.93 65.67 3.00 401.60 2546.09
   14:05:45.800.25-Dec-2020 4920.01 2664.73 65.67 3.00 401.80 2546.09
   14:05:46.000.25-Dec-2020 4920.01 2664.66 65.67 3.00 402.00 2546.09
   14:05:46.200.25-Dec-2020 4920.01 2664.66 65.67 3.00 402.20 2546.09
   14:05:46.400.25-Dec-2020 4920.01 2664.74 65.67 3.00 402.40 2546.09
   14:05:46.600.25-Dec-2020 4920.01 2664.69 65.67 3.00 402.60 2546.09
   14:05:46.800.25-Dec-2020 4920.01 2664.73 65.67 3.00 402.80 2546.09
   14:05:47.000.25-Dec-2020 4920.01 2664.72 65.67 3.00 403.00 2546.09
   14:05:47.200.25-Dec-2020 4920.01 2664.72 65.67 3.00 403.20 2546.09
   14:05:47.400.25-Dec-2020 4920.01 2664.71 65.67 3.00 403.40 2546.09
   14:05:47.600.25-Dec-2020 4920.01 2664.51 65.67 3.00 403.60 2546.09
   14:05:47.800.25-Dec-2020 4920.01 2665.02 65.67 3.00 403.80 2546.09
   14:05:48.000.25-Dec-2020 4920.01 2664.67 65.67 3.00 404.00 2546.09
   14:05:48.200.25-Dec-2020 4920.01 2664.81 65.67 3.00 404.20 2546.09
   14:05:48.400.25-Dec-2020 4920.01 2664.74 65.67 3.00 404.40 2546.09
   14:05:48.600.25-Dec-2020 4920.01 2664.70 65.67 3.00 404.60 2546.09
   14:05:48.800.25-Dec-2020 4920.01 2664.73 65.67 3.00 404.80 2546.09
   14:05:49.000.25-Dec-2020 4920.01 2664.74 65.67 3.00 405.00 2546.09
   14:05:49.200.25-Dec-2020 4920.01 2664.74 65.67 3.00 405.20 2546.09
   14:05:49.400.25-Dec-2020 4920.01 2664.76 65.67 3.00 405.40 2546.09
   14:05:49.600.25-Dec-2020 4920.01 2664.74 65.67 3.00 405.60 2546.09
   14:05:49.800.25-Dec-2020 4920.01 2664.74 65.67 3.00 405.80 2546.09
   14:05:50.000.25-Dec-2020 4920.01 2664.72 65.67 3.00 406.00 2546.09
   14:05:50.200.25-Dec-2020 4920.01 2664.72 65.67 3.00 406.20 2546.09
   14:05:50.400.25-Dec-2020 4920.01 2664.71 65.67 3.00 406.40 2546.09
   14:05:50.600.25-Dec-2020 4920.01 2664.90 65.67 3.00 406.60 2546.09
   14:05:50.800.25-Dec-2020 4920.01 2664.52 65.67 3.00 406.80 2546.09
   14:05:51.000.25-Dec-2020 4920.01 2665.00 65.67 3.00 407.00 2546.09
   14:05:51.200.25-Dec-2020 4920.01 2664.66 65.67 3.00 407.20 2546.09
   14:05:51.400.25-Dec-2020 4920.01 2664.81 65.67 3.00 407.40 2546.09
   14:05:51.600.25-Dec-2020 4920.01 2664.68 65.67 3.00 407.60 2546.09
   14:05:51.800.25-Dec-2020 4920.01 2664.59 65.67 3.00 407.80 2546.09
   14:05:52.000.25-Dec-2020 4920.01 2664.72 65.67 3.00 408.00 2546.09
   14:05:52.200.25-Dec-2020 4920.01 2664.89 65.67 3.00 408.20 2546.09
   14:05:52.400.25-Dec-2020 4920.01 2664.65 65.67 3.00 408.40 2546.09
   14:05:52.600.25-Dec-2020 4920.01 2664.69 65.67 3.00 408.60 2546.09
   14:05:52.800.25-Dec-2020 4920.01 2664.92 65.67 3.00 408.80 2546.09
   14:05:53.000.25-Dec-2020 4920.01 2664.74 65.67 3.00 409.00 2546.09
   14:05:53.200.25-Dec-2020 4920.01 2664.74 65.67 3.00 409.20 2546.09
   14:05:53.400.25-Dec-2020 4920.01 2664.74 65.67 3.00 409.40 2546.09
   14:05:53.600.25-Dec-2020 4920.01 2664.74 65.67 3.00 409.60 2546.09
   14:05:53.800.25-Dec-2020 4920.01 2664.70 65.66 3.00 409.80 2546.09
   14:05:54.000.25-Dec-2020 4920.01 2664.74 65.67 3.00 410.00 2546.09
   14:05:54.200.25-Dec-2020 4920.01 2664.74 65.67 3.00 410.20 2546.09
   14:05:54.400.25-Dec-2020 4920.01 2664.73 65.66 3.00 410.40 2546.09
   14:05:54.600.25-Dec-2020 4920.01 2664.71 65.66 3.00 410.60 2546.09
   14:05:54.800.25-Dec-2020 4920.01 2664.51 65.66 3.00 410.80 2546.09
   14:05:55.000.25-Dec-2020 4920.01 2664.99 65.66 3.00 411.00 2546.09
   14:05:55.200.25-Dec-2020 4920.01 2664.65 65.66 3.00 411.20 2546.09
   14:05:55.400.25-Dec-2020 4920.01 2664.82 65.66 3.00 411.40 2546.09
   14:05:55.600.25-Dec-2020 4920.01 2664.73 65.66 3.00 411.60 2546.09
   14:05:55.800.25-Dec-2020 4920.01 2664.70 65.66 3.00 411.80 2546.09
   14:05:56.000.25-Dec-2020 4920.01 2664.74 65.66 3.00 412.00 2546.09
   14:05:56.200.25-Dec-2020 4920.01 2664.73 65.66 3.00 412.20 2546.09
   14:05:56.400.25-Dec-2020 4920.01 2664.72 65.66 3.00 412.40 2546.09
   14:05:56.600.25-Dec-2020 4920.01 2664.75 65.66 3.00 412.60 2546.09
   14:05:56.800.25-Dec-2020 4920.01 2664.74 65.66 3.00 412.80 2546.09
   14:05:57.000.25-Dec-2020 4920.01 2664.73 65.66 3.00 413.00 2546.09
   14:05:57.200.25-Dec-2020 4920.01 2664.73 65.66 3.00 413.20 2546.09
   14:05:57.400.25-Dec-2020 4920.01 2664.64 65.66 3.00 413.40 2546.09
   14:05:57.600.25-Dec-2020 4920.01 2664.70 65.66 3.00 413.60 2546.09
   14:05:57.800.25-Dec-2020 4920.01 2664.90 65.66 3.00 413.80 2546.09
