~Version Information
 VERS.                  2.0:   CWLS log ASCII Standard -VERSION 2.0
 WRAP.                   NO:   One line per depth step
~Well Information Block
#MNEM.UNIT     VALUE/NAME     DESCRIPTION
#---------     -----------    ---------------------------
 STRT.S             21:28:23 25-Dec-20: START TIME 21:28:23 25-Dec-20
 STOP.S             21:36:48 25-Dec-20: STOP TIME  21:36:48 25-Dec-20
 STEP.S                   0.00: STEP TIME
 NULL.                 -999.25: NULL VALUE
 DFWT.                        :  DIST FWL TEXT
 DFST.                        :  DIST FSL TEXT
 DMF .             Drill Floor:  DRILL MEAS FROM
 STIM.      04.54.24 22-Sep-20:  START TIME
 DATE.      04.54.24 21-Nov-20:  END TIME
 SPUD.               21-Nov-20:  SPUD DATE
 NREF.                    Grid:  NORTH REFERENCE
 HPTY.       Minimum Curvature:  HOLE POS TYPE
 DMOD.             Drill Model:  DRILL MOD DESC
 SVYD.                  Survey:  SURVEY DESC
 ILTD.               Lithology:  INTERP LTH DESC
 FTOP.          Formation Tops:  FORM TOPS DESC
 SON .        AZ-XX-0906571587:  JOB NUMBER
 COMP.     BP Exploration (Caspian Sea) Ltd:  COMPANY
 UWI .                     N/A:  UNIQUE WELL IDENTIFIER
 API .                     N/A:  API NUMBER
 BASE.              Azerbaijan:  LOGGING EQUIPMENT BASE LOCATION
 REGN.                   EESSA:  REGION
 PROV.                    Baku:  PROVINCE
 STAT.                    Baku:  STATE NAME
 CTRY.              Azerbaijan:  COUNTRY NAME
 FLD .                     ACG:  FIELD NAME
 SRVC.     TURAN Drilling & Engineering:  CONTRACTOR
 WELL.                     J27:  WELL NAME
 RIG .             West Chirag:  RIG NAME
 DOE .                     N/A:  DOE NUMBER
 DCON.         Sperry Drilling:  DIRECTNL CONTR
 PDAT.          Mean Sea Level:  PERMANENT DATUM
 WTYP.                Deviated:  WELL TYPE
 MWDS.                    Baku:  MWD SHOP
 JOBN.        AZ-XX-0906571587:  JOB TICKET NUMB
 UNIT.                     N/A:  LOGGING EQUIPMENT ID
 MDS .        Operator Entered:  MAG DATA SOURCE
 CNTY.                        :  COUNTY
 LOC .                        :  LOCATION
 LMF .             Drill Floor:  LOG MEASURED FROM
 TVDS.m                  43.00:  TVDSS CORRECTN
 LATI.deg                40.13:  LATITUDE
 LONG.deg                51.22:  LONGITUDE
 WHNS.m                   7.72:  WELL HEAD N/S
 WHEW.m                 -14.24:  WELL HEAD E/W
 UTMX.m              519005.06:  UTM X
 UTMY.m             4443793.85:  UTM Y
 DFWL.m                   0.00:  DISTANCE FWL
 DFSL.m                   0.00:  DISTANCE FSL
 SDEP.m                 347.00:  START DEPTH
 TDD .m                 581.00:  TOTAL DEPTH (DRILLER)
 VSDR.deg               159.72:  VERT SEC DIRECT
 GVFD.g                   1.00:  GRAVITY FIELD
 MFLD.nT              50318.00:  MAGNETIC FIELD
 MDIP.deg                59.57:  MAGNETIC DIP
 MDEC.deg                 6.44:  MAGNETIC DECL
 GRDC.deg                 0.15:  GRID CORRECTION
 AZTC.deg                 6.29:  AZM TOTAL CORR
 EPD .m                   0.00:  ELEVATION
 EGL .m                   0.00:  GROUND ELEVATION
 WDMS.m                 169.80:  WD ELEV
 APD .m                  43.00:  DEPTH ABOVE PD
 AGAP.m                  43.00:  AIR GAP
 VSEW.m                 -14.24:  VERT SEC E/W
 VSNS.m                   7.72:  VERT SEC N/S
 DEP .m                 342.45:  DEPTH
 EKB .m                   0.00:  KB ELEVATION
 EDF .m                  43.00:  DF ELEVATION
 TDL .m                 237.00:  TOTAL DEPTH (LOGGER)
 VSC .                       0:  VS TO CLOSURE
 MAGU.                 1851428:  MAGUTM CHECKSUM
~Parameter Information Block
#MNEM.UNIT       Value        Description
#---------     -----------    ---------------------------
 AV  .mps                 1.50:  Ann Velocity 
 AVMX.mps                 2.90:  Max Ann Veloc 
 AZIF.deg               115.59:  Azm, Final 
 BHAT.        Rotary Steerable:  BHA Type 
 BROT.°/30m               0.50:  Build Rotating 
 BS  .in                  8.50:  Bit Size 
 BTPL.psig              580.00:  Bit Press Loss 
 CABU.                     Yes:  Customer Abuse 
 COMM.                     Üc{:  Run Comments 1 
 TCS .hr                 89.79:  Time Ciculation Ended 
 CV  .mps                 3.22:  Crit Velocity 
 CVMX.mps                 4.37:  Max Crit Veloc 
 DD1 .          Rashad Habibov:  Direct Drillr 1 
 DDSV.               Geo-Pilot:  DD Service 
 DEFF.%                  95.00:  % Det Eff 
 DLRX.°/30m               1.94:  Dogleg Rot Max 
 DLSO.°/30m               0.70:  Dogleg Oriented 
 DLSX.°/30m               1.94:  Dogleg Str Max 
 DRET.      04.45.00 25-Dec-20:  Drill End Time 
 DRST.      10.00.00 24-Dec-20:  Drill Start Tim 
 DTIM.hr                 16.64:  Time Drilling 
 EDEP.m                4999.01:  End Depth 
 ENG1.         Elchin Mammadov:  Engineer 1 
 ENG2.          Ruslan Safarov:  Engineer 2 
 ENG3.          Rustam Safarov:  Engineer 3 
 ETIM.      09.00.00 29-Dec-20:  End Time 
 FLOI.gpm               500.00:  Flow In 
 FLON.gpm               400.00:  Flow In Min 
 FLOS.cptm                0.00:  Fluid Loss 
 FLOX.gpm               500.00:  Flow In Max 
 HFLO.                      No:  High Flow 
 HPRE.                      No:  High Pressure 
 HTEM.                      No:  High Temp 
 HYDO.m                   2.00:  Hydro Offset 
 IFIN.deg                66.79:  Inc, Final 
 IMAX.deg                67.66:  Inc Max 
 IMIN.deg                66.39:  Inc Min 
 IMND.m                4949.37:  Inc Min Depth 
 IMXD.m                4778.63:  Inc Max Depth 
 JARR.                     Yes:  Jarring 
 LETM.      04.45.00 25-Dec-20:  Log End Time 
 LOST.hr                     0:  Lost Rig Time 
 LSTM.      10.00.00 24-Dec-20:  Log Start Time 
 MDCL.ppm             39000.00:  Mud Chlorides 
 MDES.     Inversion Oil/Synthetic:  Mud Desc 
 DFD .sg                  1.33:  Mud Density 
 MDMN.sg                  1.33:  Dens Mud Min 
 MDMX.sg                  1.33:  Dens Mud Max 
 MOIL.                      70:  Run Mud Oil % 
 MOWR.                   70:30:  Run Mud OWR 
 MSND.                       0:  Run Mud Sand % 
 MSOL.                    17.4:  Run Mud Solids% 
 DFV .spqt               84.00:  Mud Viscosity 
 MWOD.in                  6.75:  MWD Tool OD 
 MWSI.                     Yes:  Serv Intrp, MWD 
 OTIM.hr                168.14:  Time Operating 
 PCON.           Look Like New:  Pad Condition 
 PMAX.psia            10822.93:  Press Op, Max 
 PV  .cP                 30.00:  Mud PV 
 RUN .                     900:  Run Number 
 ROPA.m/hr               18.00:  ROP Avg 
 ROPN.m/hr               12.00:  ROP Min 
 ROPX.m/hr               25.00:  ROP Max 
 RPMA.rpm               120.00:  RPM Surface Avg 
 RPMN.rpm               100.00:  RPM Surface Min 
 RPMX.rpm               120.00:  RPM Surface Max 
 RRUN.                    0900:  Rig Run Number 
 SAZI.deg               115.08:  Azm, Start 
 SDEP.m                4762.01:  Start Depth 
 SIDD.                      No:  Serv Intrp, DD 
 SINC.deg                66.14:  Inc, Start 
 SPPA.psig             3700.00:  SPP Avg 
 SPPN.psig             3620.00:  SPP Min 
 SPPX.psig             3900.00:  SPP Max 
 STIM.      09.30.00 22-Dec-20:  Start Time 
 SVCS.                 DD, MWD:  Services 
 SVER.                    9.20:  Sperry Version 
 TDAT.m                 237.00:  Tot Depth Attmp 
 TDDF.                      No:  Trip for DD 
 TDLG.m                 237.00:  Tot Depth Loggd 
 TFF .                      No:  Trip for Fail 
 TQAA.f-kp               18.00:  Torque Abs Avg 
 TQAN.f-kp               17.00:  Torque Abs Min 
 TQAX.f-kp               20.00:  Torque Abs Max 
 TRRT.°/30m               0.60:  Turn Rotating 
 MRT .                    HCIM:  Maximum Recorded Temperature 
 TTMX.degC               94.12:  Max Tool Temp 
 VS01.                90627809:  Virtual Str1 SN 
 VS02.                90527813:  Virtual Str2 SN 
 VS03.                90545417:  Virtual Str3 SN 
 VS04.                12460870:  Virtual Str4 SN 
 VS05.                90516706:  Virtual Str5 SN 
 VS06.                90632007:  Virtual Str6 SN 
 WBMN.klb                 0.00:  WOB Min 
 WOBA.klb                14.00:  WOB Avg 
 WOBX.klb                25.00:  WOB Max 
 YP  .lhf2               32.00:  Yield Point 
~Curve Information Block
#MNEM.UNIT                 API CODE     Curve Description
#---------               -----------    ---------------------------
 TIME.HHMMSS            00 000 000 000:  GT Time & Date
 GTDEPTH.m              00 000 000 000:  GT Depth
 GTPQH.psia             00 000 000 000:  GT HR Quartz Pressure
 GTTQ.degC              00 000 000 000:  GT Quartz Temperature
 GTTN.NONE              00 000 000 000:  GT Test Number
 GTET.sec               00 000 000 000:  GT Elapsed Test Time
 GTTVD.m                00 000 000 000:  GT True Vertical Depth
#Other Information
#
#WARRANTY: Halliburton will use its best efforts to furnish customers with 
#accurate information and interpretations that are part of, and incident to, the services 
#provided.  However, Halliburton cannot and does not warrant the accuracy 
#or correctness of such information and interpretations.  Under no circumstances should any 
#such information or interpretation be relied upon as the sole basis for any drilling, 
#completion, production, or financial decision or any procedure involving any risk to the 
#safety of any drilling venture, drilling rig or its crew or any other third party.  The 
#Customer has full responsibility for all drilling, completion and production operation.  
#Halliburton makes no representations or warranties, either expressed or 
#implied, including, but not limited to, the implied warranties of merchantability or fitness 
#for a particular purpose, with respect to the services rendered.  In no event will 
#Halliburton be liable for failure to obtain any particular results or for 
#any damages, including, but not limited to, indirect, special or consequential damages, 
#resulting from the use of any information or interpretation provided by Halliburton.
#
~A           TIME           GTDEPTH  GTPQH  GTTQ  GTTN  GTET   GTTVD  
# ...
   21:35:17.589.25-Dec-2020 4768.01 3248.50 63.78 9.00 413.97 2486.78
   21:35:17.789.25-Dec-2020 4768.01 3248.26 63.78 9.00 414.17 2486.78
   21:35:17.989.25-Dec-2020 4768.01 3248.31 63.78 9.00 414.37 2486.78
   21:35:18.189.25-Dec-2020 4768.01 3248.33 63.78 9.00 414.57 2486.78
   21:35:18.389.25-Dec-2020 4768.01 3248.40 63.78 9.00 414.77 2486.78
   21:35:18.589.25-Dec-2020 4768.01 3248.32 63.78 9.00 414.97 2486.78
   21:35:18.789.25-Dec-2020 4768.01 3248.32 63.78 9.00 415.17 2486.78
   21:35:18.989.25-Dec-2020 4768.01 3248.39 63.78 9.00 415.37 2486.78
   21:35:19.189.25-Dec-2020 4768.01 3248.33 63.78 9.00 415.57 2486.78
   21:35:19.389.25-Dec-2020 4768.01 3248.00 63.78 9.00 415.77 2486.78
   21:35:19.589.25-Dec-2020 4768.01 3247.85 63.78 9.00 415.97 2486.78
   21:35:19.789.25-Dec-2020 4768.01 3247.85 63.78 9.00 416.17 2486.78
   21:35:19.989.25-Dec-2020 4768.01 3248.73 63.78 9.00 416.37 2486.78
   21:35:20.189.25-Dec-2020 4768.01 3248.40 63.78 9.00 416.57 2486.78
   21:35:20.389.25-Dec-2020 4768.01 3248.45 63.78 9.00 416.77 2486.78
   21:35:20.589.25-Dec-2020 4768.01 3248.46 63.78 9.00 416.97 2486.78
   21:35:20.789.25-Dec-2020 4768.01 3248.46 63.78 9.00 417.17 2486.78
   21:35:20.989.25-Dec-2020 4768.01 3248.55 63.78 9.00 417.37 2486.78
   21:35:21.189.25-Dec-2020 4768.01 3248.48 63.78 9.00 417.57 2486.78
   21:35:21.389.25-Dec-2020 4768.01 3248.55 63.78 9.00 417.77 2486.78
   21:35:21.589.25-Dec-2020 4768.01 3248.51 63.78 9.00 417.97 2486.78
   21:35:21.789.25-Dec-2020 4768.01 3248.51 63.78 9.00 418.17 2486.78
   21:35:21.989.25-Dec-2020 4768.01 3247.49 63.78 9.00 418.37 2486.78
   21:35:22.189.25-Dec-2020 4768.01 3248.85 63.78 9.00 418.57 2486.78
   21:35:22.389.25-Dec-2020 4768.01 3248.40 63.78 9.00 418.77 2486.78
   21:35:22.589.25-Dec-2020 4768.01 3248.68 63.78 9.00 418.97 2486.78
   21:35:22.789.25-Dec-2020 4768.01 3248.57 63.78 9.00 419.17 2486.78
   21:35:22.989.25-Dec-2020 4768.01 3248.60 63.78 9.00 419.37 2486.78
   21:35:23.189.25-Dec-2020 4768.01 3247.66 63.78 9.00 419.57 2486.78
   21:35:23.389.25-Dec-2020 4768.01 3248.69 63.78 9.00 419.77 2486.78
   21:35:23.589.25-Dec-2020 4768.01 3248.92 63.78 9.00 419.97 2486.78
   21:35:23.789.25-Dec-2020 4768.01 3248.92 63.78 9.00 420.17 2486.78
   21:35:23.989.25-Dec-2020 4768.01 3248.78 63.78 9.00 420.37 2486.78
   21:35:24.189.25-Dec-2020 4768.01 3248.62 63.78 9.00 420.57 2486.78
   21:35:24.389.25-Dec-2020 4768.01 3248.00 63.78 9.00 420.77 2486.78
   21:35:24.589.25-Dec-2020 4768.01 3249.18 63.78 9.00 420.97 2486.78
   21:35:24.789.25-Dec-2020 4768.01 3249.18 63.78 9.00 421.17 2486.78
   21:35:24.989.25-Dec-2020 4768.01 3249.03 63.78 9.00 421.37 2486.78
   21:35:25.189.25-Dec-2020 4768.01 3248.71 63.78 9.00 421.57 2486.78
   21:35:25.389.25-Dec-2020 4768.01 3248.77 63.78 9.00 421.77 2486.78
   21:35:25.589.25-Dec-2020 4768.01 3248.81 63.78 9.00 421.97 2486.78
   21:35:25.789.25-Dec-2020 4768.01 3248.78 63.78 9.00 422.17 2486.78
   21:35:25.989.25-Dec-2020 4768.01 3248.86 63.78 9.00 422.37 2486.78
   21:35:26.189.25-Dec-2020 4768.01 3248.75 63.78 9.00 422.57 2486.78
   21:35:26.389.25-Dec-2020 4768.01 3248.83 63.78 9.00 422.77 2486.78
   21:35:26.589.25-Dec-2020 4768.01 3248.83 63.78 9.00 422.97 2486.78
   21:35:26.789.25-Dec-2020 4768.01 3248.80 63.78 9.00 423.17 2486.78
   21:35:26.989.25-Dec-2020 4768.01 3247.94 63.78 9.00 423.37 2486.78
   21:35:27.189.25-Dec-2020 4768.01 3248.65 63.78 9.00 423.57 2486.78
   21:35:27.389.25-Dec-2020 4768.01 3249.10 63.78 9.00 423.77 2486.78
   21:35:27.589.25-Dec-2020 4768.01 3248.90 63.78 9.00 423.97 2486.78
   21:35:27.789.25-Dec-2020 4768.01 3248.90 63.78 9.00 424.17 2486.78
   21:35:27.989.25-Dec-2020 4768.01 3248.96 63.78 9.00 424.37 2486.78
   21:35:28.189.25-Dec-2020 4768.01 3248.91 63.78 9.00 424.57 2486.78
   21:35:28.389.25-Dec-2020 4768.01 3248.96 63.78 9.00 424.77 2486.78
   21:35:28.589.25-Dec-2020 4768.01 3248.96 63.78 9.00 424.97 2486.78
   21:35:28.789.25-Dec-2020 4768.01 3248.96 63.78 9.00 425.17 2486.78
   21:35:28.989.25-Dec-2020 4768.01 3249.00 63.78 9.00 425.37 2486.78
   21:35:29.189.25-Dec-2020 4768.01 3248.93 63.78 9.00 425.57 2486.78
   21:35:29.389.25-Dec-2020 4768.01 3247.86 63.78 9.00 425.77 2486.78
   21:35:29.589.25-Dec-2020 4768.01 3249.37 63.78 9.00 425.97 2486.78
   21:35:29.789.25-Dec-2020 4768.01 3249.37 63.78 9.00 426.17 2486.78
   21:35:29.989.25-Dec-2020 4768.01 3249.17 63.78 9.00 426.37 2486.78
   21:35:30.189.25-Dec-2020 4768.01 3248.99 63.78 9.00 426.57 2486.78
   21:35:30.388.25-Dec-2020 4768.01 3247.89 63.78 9.00 426.77 2486.78
   21:35:30.588.25-Dec-2020 4768.01 3249.58 63.78 9.00 426.97 2486.78
   21:35:30.788.25-Dec-2020 4768.01 3248.93 63.78 9.00 427.17 2486.78
   21:35:30.988.25-Dec-2020 4768.01 3249.33 63.78 9.00 427.37 2486.78
   21:35:31.188.25-Dec-2020 4768.01 3248.21 63.78 9.00 427.57 2486.78
   21:35:31.388.25-Dec-2020 4768.01 3249.02 63.78 9.00 427.77 2486.78
   21:35:31.588.25-Dec-2020 4768.01 3248.89 63.78 9.00 427.97 2486.78
   21:35:31.788.25-Dec-2020 4768.01 3248.89 63.78 9.00 428.17 2486.78
   21:35:31.988.25-Dec-2020 4768.01 3249.04 63.78 9.00 428.37 2486.78
   21:35:32.188.25-Dec-2020 4768.01 3249.34 63.78 9.00 428.57 2486.78
   21:35:32.388.25-Dec-2020 4768.01 3249.26 63.78 9.00 428.77 2486.78
   21:35:32.588.25-Dec-2020 4768.01 3249.14 63.78 9.00 428.97 2486.78
   21:35:32.788.25-Dec-2020 4768.01 3249.14 63.78 9.00 429.17 2486.78
   21:35:32.988.25-Dec-2020 4768.01 3249.24 63.78 9.00 429.37 2486.78
   21:35:33.188.25-Dec-2020 4768.01 3249.16 63.78 9.00 429.57 2486.78
   21:35:33.388.25-Dec-2020 4768.01 3249.20 63.78 9.00 429.77 2486.78
   21:35:33.588.25-Dec-2020 4768.01 3249.22 63.78 9.00 429.97 2486.78
   21:35:33.788.25-Dec-2020 4768.01 3249.22 63.78 9.00 430.17 2486.78
   21:35:33.988.25-Dec-2020 4768.01 3249.24 63.78 9.00 430.37 2486.78
   21:35:34.188.25-Dec-2020 4768.01 3248.03 63.78 9.00 430.57 2486.78
   21:35:34.388.25-Dec-2020 4768.01 3249.58 63.78 9.00 430.77 2486.78
   21:35:34.588.25-Dec-2020 4768.01 3249.02 63.78 9.00 430.97 2486.78
   21:35:34.788.25-Dec-2020 4768.01 3249.02 63.78 9.00 431.17 2486.78
   21:35:34.988.25-Dec-2020 4768.01 3249.31 63.77 9.00 431.37 2486.78
   21:35:35.188.25-Dec-2020 4768.01 3249.19 63.77 9.00 431.57 2486.78
   21:35:35.388.25-Dec-2020 4768.01 3249.23 63.77 9.00 431.77 2486.78
   21:35:35.588.25-Dec-2020 4768.01 3249.36 63.77 9.00 431.97 2486.78
   21:35:35.788.25-Dec-2020 4768.01 3249.36 63.77 9.00 432.17 2486.78
   21:35:35.988.25-Dec-2020 4768.01 3249.35 63.77 9.00 432.37 2486.78
   21:35:36.188.25-Dec-2020 4768.01 3249.27 63.77 9.00 432.57 2486.78
   21:35:36.388.25-Dec-2020 4768.01 3249.31 63.77 9.00 432.77 2486.78
   21:35:36.588.25-Dec-2020 4768.01 3249.34 63.77 9.00 432.97 2486.78
   21:35:36.788.25-Dec-2020 4768.01 3249.34 63.77 9.00 433.17 2486.78
   21:35:36.988.25-Dec-2020 4768.01 3249.27 63.77 9.00 433.37 2486.78
   21:35:37.188.25-Dec-2020 4768.01 3249.51 63.77 9.00 433.57 2486.78
   21:35:37.388.25-Dec-2020 4768.01 3249.37 63.77 9.00 433.77 2486.78
   21:35:37.588.25-Dec-2020 4768.01 3249.35 63.77 9.00 433.97 2486.78
   21:35:37.788.25-Dec-2020 4768.01 3248.41 63.77 9.00 434.17 2486.78
   21:35:37.988.25-Dec-2020 4768.01 3249.45 63.77 9.00 434.37 2486.78
   21:35:38.188.25-Dec-2020 4768.01 3249.67 63.77 9.00 434.57 2486.78
   21:35:38.388.25-Dec-2020 4768.01 3248.47 63.77 9.00 434.77 2486.78
   21:35:38.588.25-Dec-2020 4768.01 3249.94 63.77 9.00 434.97 2486.78
   21:35:38.788.25-Dec-2020 4768.01 3249.94 63.77 9.00 435.17 2486.78
   21:35:38.988.25-Dec-2020 4768.01 3248.92 63.77 9.00 435.37 2486.78
   21:35:39.188.25-Dec-2020 4768.01 3249.64 63.77 9.00 435.57 2486.78
   21:35:39.388.25-Dec-2020 4768.01 3249.41 63.77 9.00 435.77 2486.78
   21:35:39.588.25-Dec-2020 4768.01 3249.73 63.77 9.00 435.97 2486.78
   21:35:39.788.25-Dec-2020 4768.01 3249.73 63.77 9.00 436.17 2486.78
   21:35:39.988.25-Dec-2020 4768.01 3249.53 63.77 9.00 436.37 2486.78
   21:35:40.188.25-Dec-2020 4768.01 3249.52 63.77 9.00 436.57 2486.78
   21:35:40.388.25-Dec-2020 4768.01 3249.51 63.77 9.00 436.77 2486.78
