~Version Information
 VERS.                  2.0:   CWLS log ASCII Standard -VERSION 2.0
 WRAP.                   NO:   One line per depth step
~Well Information Block
#MNEM.UNIT     VALUE/NAME     DESCRIPTION
#---------     -----------    ---------------------------
 STRT.S             19:12:01 25-Dec-20: START TIME 19:12:01 25-Dec-20
 STOP.S             19:20:19 25-Dec-20: STOP TIME  19:20:19 25-Dec-20
 STEP.S                   0.00: STEP TIME
 NULL.                 -999.25: NULL VALUE
 DFWT.                        :  DIST FWL TEXT
 DFST.                        :  DIST FSL TEXT
 DMF .             Drill Floor:  DRILL MEAS FROM
 STIM.      04.54.24 22-Sep-20:  START TIME
 DATE.      04.54.24 21-Nov-20:  END TIME
 SPUD.               21-Nov-20:  SPUD DATE
 NREF.                    Grid:  NORTH REFERENCE
 HPTY.       Minimum Curvature:  HOLE POS TYPE
 DMOD.             Drill Model:  DRILL MOD DESC
 SVYD.                  Survey:  SURVEY DESC
 ILTD.               Lithology:  INTERP LTH DESC
 FTOP.          Formation Tops:  FORM TOPS DESC
 SON .        AZ-XX-0906571587:  JOB NUMBER
 COMP.     BP Exploration (Caspian Sea) Ltd:  COMPANY
 UWI .                     N/A:  UNIQUE WELL IDENTIFIER
 API .                     N/A:  API NUMBER
 BASE.              Azerbaijan:  LOGGING EQUIPMENT BASE LOCATION
 REGN.                   EESSA:  REGION
 PROV.                    Baku:  PROVINCE
 STAT.                    Baku:  STATE NAME
 CTRY.              Azerbaijan:  COUNTRY NAME
 FLD .                     ACG:  FIELD NAME
 SRVC.     TURAN Drilling & Engineering:  CONTRACTOR
 WELL.                     J27:  WELL NAME
 RIG .             West Chirag:  RIG NAME
 DOE .                     N/A:  DOE NUMBER
 DCON.         Sperry Drilling:  DIRECTNL CONTR
 PDAT.          Mean Sea Level:  PERMANENT DATUM
 WTYP.                Deviated:  WELL TYPE
 MWDS.                    Baku:  MWD SHOP
 JOBN.        AZ-XX-0906571587:  JOB TICKET NUMB
 UNIT.                     N/A:  LOGGING EQUIPMENT ID
 MDS .        Operator Entered:  MAG DATA SOURCE
 CNTY.                        :  COUNTY
 LOC .                        :  LOCATION
 LMF .             Drill Floor:  LOG MEASURED FROM
 TVDS.m                  43.00:  TVDSS CORRECTN
 LATI.deg                40.13:  LATITUDE
 LONG.deg                51.22:  LONGITUDE
 WHNS.m                   7.72:  WELL HEAD N/S
 WHEW.m                 -14.24:  WELL HEAD E/W
 UTMX.m              519005.06:  UTM X
 UTMY.m             4443793.85:  UTM Y
 DFWL.m                   0.00:  DISTANCE FWL
 DFSL.m                   0.00:  DISTANCE FSL
 SDEP.m                 347.00:  START DEPTH
 TDD .m                 581.00:  TOTAL DEPTH (DRILLER)
 VSDR.deg               159.72:  VERT SEC DIRECT
 GVFD.g                   1.00:  GRAVITY FIELD
 MFLD.nT              50318.00:  MAGNETIC FIELD
 MDIP.deg                59.57:  MAGNETIC DIP
 MDEC.deg                 6.44:  MAGNETIC DECL
 GRDC.deg                 0.15:  GRID CORRECTION
 AZTC.deg                 6.29:  AZM TOTAL CORR
 EPD .m                   0.00:  ELEVATION
 EGL .m                   0.00:  GROUND ELEVATION
 WDMS.m                 169.80:  WD ELEV
 APD .m                  43.00:  DEPTH ABOVE PD
 AGAP.m                  43.00:  AIR GAP
 VSEW.m                 -14.24:  VERT SEC E/W
 VSNS.m                   7.72:  VERT SEC N/S
 DEP .m                 342.45:  DEPTH
 EKB .m                   0.00:  KB ELEVATION
 EDF .m                  43.00:  DF ELEVATION
 TDL .m                 237.00:  TOTAL DEPTH (LOGGER)
 VSC .                       0:  VS TO CLOSURE
 MAGU.                 1851428:  MAGUTM CHECKSUM
~Parameter Information Block
#MNEM.UNIT       Value        Description
#---------     -----------    ---------------------------
 AV  .mps                 1.50:  Ann Velocity 
 AVMX.mps                 2.90:  Max Ann Veloc 
 AZIF.deg               115.59:  Azm, Final 
 BHAT.        Rotary Steerable:  BHA Type 
 BROT.°/30m               0.50:  Build Rotating 
 BS  .in                  8.50:  Bit Size 
 BTPL.psig              580.00:  Bit Press Loss 
 CABU.                     Yes:  Customer Abuse 
 COMM.                     Ìt:  Run Comments 1 
 TCS .hr                 89.79:  Time Ciculation Ended 
 CV  .mps                 3.22:  Crit Velocity 
 CVMX.mps                 4.37:  Max Crit Veloc 
 DD1 .          Rashad Habibov:  Direct Drillr 1 
 DDSV.               Geo-Pilot:  DD Service 
 DEFF.%                  95.00:  % Det Eff 
 DLRX.°/30m               1.94:  Dogleg Rot Max 
 DLSO.°/30m               0.70:  Dogleg Oriented 
 DLSX.°/30m               1.94:  Dogleg Str Max 
 DRET.      04.45.00 25-Dec-20:  Drill End Time 
 DRST.      10.00.00 24-Dec-20:  Drill Start Tim 
 DTIM.hr                 16.64:  Time Drilling 
 EDEP.m                4999.01:  End Depth 
 ENG1.         Elchin Mammadov:  Engineer 1 
 ENG2.          Ruslan Safarov:  Engineer 2 
 ENG3.          Rustam Safarov:  Engineer 3 
 ETIM.      09.00.00 29-Dec-20:  End Time 
 FLOI.gpm               500.00:  Flow In 
 FLON.gpm               400.00:  Flow In Min 
 FLOS.cptm                0.00:  Fluid Loss 
 FLOX.gpm               500.00:  Flow In Max 
 HFLO.                      No:  High Flow 
 HPRE.                      No:  High Pressure 
 HTEM.                      No:  High Temp 
 HYDO.m                   2.00:  Hydro Offset 
 IFIN.deg                66.79:  Inc, Final 
 IMAX.deg                67.66:  Inc Max 
 IMIN.deg                66.39:  Inc Min 
 IMND.m                4949.37:  Inc Min Depth 
 IMXD.m                4778.63:  Inc Max Depth 
 JARR.                     Yes:  Jarring 
 LETM.      04.45.00 25-Dec-20:  Log End Time 
 LOST.hr                     0:  Lost Rig Time 
 LSTM.      10.00.00 24-Dec-20:  Log Start Time 
 MDCL.ppm             39000.00:  Mud Chlorides 
 MDES.     Inversion Oil/Synthetic:  Mud Desc 
 DFD .sg                  1.33:  Mud Density 
 MDMN.sg                  1.33:  Dens Mud Min 
 MDMX.sg                  1.33:  Dens Mud Max 
 MOIL.                      70:  Run Mud Oil % 
 MOWR.                   70:30:  Run Mud OWR 
 MSND.                       0:  Run Mud Sand % 
 MSOL.                    17.4:  Run Mud Solids% 
 DFV .spqt               84.00:  Mud Viscosity 
 MWOD.in                  6.75:  MWD Tool OD 
 MWSI.                     Yes:  Serv Intrp, MWD 
 OTIM.hr                168.14:  Time Operating 
 PCON.           Look Like New:  Pad Condition 
 PMAX.psia            10822.93:  Press Op, Max 
 PV  .cP                 30.00:  Mud PV 
 RUN .                     900:  Run Number 
 ROPA.m/hr               18.00:  ROP Avg 
 ROPN.m/hr               12.00:  ROP Min 
 ROPX.m/hr               25.00:  ROP Max 
 RPMA.rpm               120.00:  RPM Surface Avg 
 RPMN.rpm               100.00:  RPM Surface Min 
 RPMX.rpm               120.00:  RPM Surface Max 
 RRUN.                    0900:  Rig Run Number 
 SAZI.deg               115.08:  Azm, Start 
 SDEP.m                4762.01:  Start Depth 
 SIDD.                      No:  Serv Intrp, DD 
 SINC.deg                66.14:  Inc, Start 
 SPPA.psig             3700.00:  SPP Avg 
 SPPN.psig             3620.00:  SPP Min 
 SPPX.psig             3900.00:  SPP Max 
 STIM.      09.30.00 22-Dec-20:  Start Time 
 SVCS.                 DD, MWD:  Services 
 SVER.                    9.20:  Sperry Version 
 TDAT.m                 237.00:  Tot Depth Attmp 
 TDDF.                      No:  Trip for DD 
 TDLG.m                 237.00:  Tot Depth Loggd 
 TFF .                      No:  Trip for Fail 
 TQAA.f-kp               18.00:  Torque Abs Avg 
 TQAN.f-kp               17.00:  Torque Abs Min 
 TQAX.f-kp               20.00:  Torque Abs Max 
 TRRT.°/30m               0.60:  Turn Rotating 
 MRT .                    HCIM:  Maximum Recorded Temperature 
 TTMX.degC               94.12:  Max Tool Temp 
 VS01.                90627809:  Virtual Str1 SN 
 VS02.                90527813:  Virtual Str2 SN 
 VS03.                90545417:  Virtual Str3 SN 
 VS04.                12460870:  Virtual Str4 SN 
 VS05.                90516706:  Virtual Str5 SN 
 VS06.                90632007:  Virtual Str6 SN 
 WBMN.klb                 0.00:  WOB Min 
 WOBA.klb                14.00:  WOB Avg 
 WOBX.klb                25.00:  WOB Max 
 YP  .lhf2               32.00:  Yield Point 
~Curve Information Block
#MNEM.UNIT                 API CODE     Curve Description
#---------               -----------    ---------------------------
 TIME.HHMMSS            00 000 000 000:  GT Time & Date
 GTDEPTH.m              00 000 000 000:  GT Depth
 GTPQH.psia             00 000 000 000:  GT HR Quartz Pressure
 GTTQ.degC              00 000 000 000:  GT Quartz Temperature
 GTTN.NONE              00 000 000 000:  GT Test Number
 GTET.sec               00 000 000 000:  GT Elapsed Test Time
 GTTVD.m                00 000 000 000:  GT True Vertical Depth
#Other Information
#
#WARRANTY: Halliburton will use its best efforts to furnish customers with 
#accurate information and interpretations that are part of, and incident to, the services 
#provided.  However, Halliburton cannot and does not warrant the accuracy 
#or correctness of such information and interpretations.  Under no circumstances should any 
#such information or interpretation be relied upon as the sole basis for any drilling, 
#completion, production, or financial decision or any procedure involving any risk to the 
#safety of any drilling venture, drilling rig or its crew or any other third party.  The 
#Customer has full responsibility for all drilling, completion and production operation.  
#Halliburton makes no representations or warranties, either expressed or 
#implied, including, but not limited to, the implied warranties of merchantability or fitness 
#for a particular purpose, with respect to the services rendered.  In no event will 
#Halliburton be liable for failure to obtain any particular results or for 
#any damages, including, but not limited to, indirect, special or consequential damages, 
#resulting from the use of any information or interpretation provided by Halliburton.
#
~A           TIME           GTDEPTH  GTPQH  GTTQ  GTTN  GTET   GTTVD  
# ...
   19:12:24.139.25-Dec-2020 4808.01 5383.41 63.94 7.00  23.02 2502.07
   19:12:24.339.25-Dec-2020 4808.01 5383.41 63.94 7.00  23.22 2502.07
   19:12:24.539.25-Dec-2020 4808.01 5383.96 63.94 7.00  23.42 2502.07
   19:12:24.739.25-Dec-2020 4808.01 5391.40 63.94 7.00  23.62 2502.07
   19:12:24.940.25-Dec-2020 4808.01 5388.80 63.94 7.00  23.82 2502.07
   19:12:25.140.25-Dec-2020 4808.01 5383.74 63.94 7.00  24.02 2502.07
   19:12:25.340.25-Dec-2020 4808.01 5383.74 63.94 7.00  24.22 2502.07
   19:12:25.540.25-Dec-2020 4808.01 5386.03 63.94 7.00  24.42 2502.07
   19:12:25.740.25-Dec-2020 4808.01 5385.85 63.94 7.00  24.62 2502.07
   19:12:25.940.25-Dec-2020 4808.01 5387.17 63.94 7.00  24.82 2502.07
   19:12:26.141.25-Dec-2020 4808.01 5385.97 63.94 7.00  25.02 2502.07
   19:12:26.341.25-Dec-2020 4808.01 5385.97 63.94 7.00  25.22 2502.07
   19:12:26.541.25-Dec-2020 4808.01 5386.54 63.94 7.00  25.42 2502.07
   19:12:26.741.25-Dec-2020 4808.01 5385.94 63.94 7.00  25.62 2502.07
   19:12:26.941.25-Dec-2020 4808.01 5386.62 63.94 7.00  25.82 2502.07
   19:12:27.141.25-Dec-2020 4808.01 5386.60 63.94 7.00  26.02 2502.07
   19:12:27.342.25-Dec-2020 4808.01 5386.60 63.94 7.00  26.22 2502.07
   19:12:27.542.25-Dec-2020 4808.01 5394.75 63.94 7.00  26.42 2502.07
   19:12:27.742.25-Dec-2020 4808.01 5389.61 63.94 7.00  26.62 2502.07
   19:12:27.942.25-Dec-2020 4808.01 5389.33 63.94 7.00  26.82 2502.07
   19:12:28.142.25-Dec-2020 4808.01 5397.95 63.94 7.00  27.02 2502.07
   19:12:28.342.25-Dec-2020 4808.01 5397.95 63.94 7.00  27.22 2502.07
   19:12:28.542.25-Dec-2020 4808.01 5398.51 63.94 7.00  27.42 2502.07
   19:12:28.743.25-Dec-2020 4808.01 5395.98 63.94 7.00  27.62 2502.07
   19:12:28.943.25-Dec-2020 4808.01 5389.89 63.94 7.00  27.82 2502.07
   19:12:29.143.25-Dec-2020 4808.01 5402.08 63.94 7.00  28.02 2502.07
   19:12:29.343.25-Dec-2020 4808.01 5402.08 63.94 7.00  28.22 2502.07
   19:12:29.543.25-Dec-2020 4808.01 5393.22 63.94 7.00  28.42 2502.07
   19:12:29.743.25-Dec-2020 4808.01 5392.51 63.94 7.00  28.62 2502.07
   19:12:29.944.25-Dec-2020 4808.01 5392.19 63.94 7.00  28.82 2502.07
   19:12:30.144.25-Dec-2020 4808.01 5390.85 63.94 7.00  29.02 2502.07
   19:12:30.344.25-Dec-2020 4808.01 5390.85 63.94 7.00  29.22 2502.07
   19:12:30.544.25-Dec-2020 4808.01 5391.48 63.94 7.00  29.42 2502.07
   19:12:30.744.25-Dec-2020 4808.01 5390.86 63.94 7.00  29.62 2502.07
   19:12:30.944.25-Dec-2020 4808.01 5390.71 63.94 7.00  29.82 2502.07
   19:12:31.145.25-Dec-2020 4808.01 5391.00 63.94 7.00  30.02 2502.07
   19:12:31.345.25-Dec-2020 4808.01 5390.45 63.94 7.00  30.22 2502.07
   19:12:31.545.25-Dec-2020 4808.01 5404.92 63.94 7.00  30.42 2502.07
   19:12:31.745.25-Dec-2020 4808.01 5387.67 63.94 7.00  30.62 2502.07
   19:12:31.945.25-Dec-2020 4808.01 5392.56 63.94 7.00  30.82 2502.07
   19:12:32.145.25-Dec-2020 4808.01 5395.38 63.94 7.00  31.02 2502.07
   19:12:32.345.25-Dec-2020 4808.01 5395.38 63.94 7.00  31.22 2502.07
   19:12:32.546.25-Dec-2020 4808.01 5392.37 63.94 7.00  31.42 2502.07
   19:12:32.746.25-Dec-2020 4808.01 5392.97 63.94 7.00  31.62 2502.07
   19:12:32.946.25-Dec-2020 4808.01 5392.72 63.94 7.00  31.83 2502.07
   19:12:33.146.25-Dec-2020 4808.01 5393.32 63.94 7.00  32.03 2502.07
   19:12:33.346.25-Dec-2020 4808.01 5393.32 63.94 7.00  32.23 2502.07
   19:12:33.546.25-Dec-2020 4808.01 5393.42 63.94 7.00  32.43 2502.07
   19:12:33.747.25-Dec-2020 4808.01 5393.10 63.94 7.00  32.63 2502.07
   19:12:33.947.25-Dec-2020 4808.01 5393.59 63.93 7.00  32.83 2502.07
   19:12:34.147.25-Dec-2020 4808.01 5394.06 63.93 7.00  33.03 2502.07
   19:12:34.347.25-Dec-2020 4808.01 5394.06 63.93 7.00  33.23 2502.07
   19:12:34.547.25-Dec-2020 4808.01 5400.66 63.93 7.00  33.43 2502.07
   19:12:34.747.25-Dec-2020 4808.01 5393.86 63.93 7.00  33.63 2502.07
   19:12:34.948.25-Dec-2020 4808.01 5404.97 63.93 7.00  33.83 2502.07
   19:12:35.148.25-Dec-2020 4808.01 5398.87 63.93 7.00  34.03 2502.07
   19:12:35.348.25-Dec-2020 4808.01 5396.02 63.93 7.00  34.23 2502.07
   19:12:35.548.25-Dec-2020 4808.01 5402.53 63.93 7.00  34.43 2502.07
   19:12:35.748.25-Dec-2020 4808.01 5403.93 63.93 7.00  34.63 2502.07
   19:12:35.948.25-Dec-2020 4808.01 5403.14 63.93 7.00  34.83 2502.07
   19:12:36.148.25-Dec-2020 4808.01 5402.48 63.93 7.00  35.03 2502.07
   19:12:36.349.25-Dec-2020 4808.01 5402.48 63.93 7.00  35.23 2502.07
   19:12:36.549.25-Dec-2020 4808.01 5401.01 63.93 7.00  35.43 2502.07
   19:12:36.749.25-Dec-2020 4808.01 5401.01 63.93 7.00  35.63 2502.07
   19:12:36.949.25-Dec-2020 4808.01 5525.17 63.93 7.00  35.83 2502.07
   19:12:37.149.25-Dec-2020 4808.01 5688.43 63.93 7.00  36.03 2502.07
   19:12:37.349.25-Dec-2020 4808.01 5688.43 63.93 7.00  36.23 2502.07
   19:12:37.550.25-Dec-2020 4808.01 5697.86 63.93 7.00  36.43 2502.07
   19:12:37.750.25-Dec-2020 4808.01 5698.21 63.93 7.00  36.63 2502.07
   19:12:37.950.25-Dec-2020 4808.01 5701.69 63.93 7.00  36.83 2502.07
   19:12:38.150.25-Dec-2020 4808.01 5713.68 63.93 7.00  37.03 2502.07
   19:12:38.350.25-Dec-2020 4808.01 5713.68 63.93 7.00  37.23 2502.07
   19:12:38.550.25-Dec-2020 4808.01 5741.27 63.93 7.00  37.43 2502.07
   19:12:38.751.25-Dec-2020 4808.01 5760.04 63.93 7.00  37.63 2502.07
   19:12:38.951.25-Dec-2020 4808.01 5749.15 63.93 7.00  37.83 2502.07
   19:12:39.151.25-Dec-2020 4808.01 5755.74 63.93 7.00  38.03 2502.07
   19:12:39.351.25-Dec-2020 4808.01 5729.25 63.93 7.00  38.23 2502.07
   19:12:39.551.25-Dec-2020 4808.01 5664.36 63.93 7.00  38.43 2502.07
   19:12:39.751.25-Dec-2020 4808.01 5594.27 63.93 7.00  38.63 2502.07
   19:12:39.951.25-Dec-2020 4808.01 5536.53 63.93 7.00  38.83 2502.07
   19:12:40.152.25-Dec-2020 4808.01 5488.63 63.93 7.00  39.03 2502.07
   19:12:40.352.25-Dec-2020 4808.01 5488.63 63.93 7.00  39.23 2502.07
   19:12:40.552.25-Dec-2020 4808.01 5421.41 63.93 7.00  39.43 2502.07
   19:12:40.752.25-Dec-2020 4808.01 5396.31 63.93 7.00  39.63 2502.07
   19:12:40.952.25-Dec-2020 4808.01 5412.42 63.93 7.00  39.83 2502.07
   19:12:41.152.25-Dec-2020 4808.01 5434.86 63.93 7.00  40.03 2502.07
   19:12:41.353.25-Dec-2020 4808.01 5434.86 63.93 7.00  40.23 2502.07
   19:12:41.553.25-Dec-2020 4808.01 5466.02 63.93 7.00  40.43 2502.07
   19:12:41.753.25-Dec-2020 4808.01 5474.79 63.93 7.00  40.63 2502.07
   19:12:41.953.25-Dec-2020 4808.01 5482.69 63.93 7.00  40.83 2502.07
   19:12:42.153.25-Dec-2020 4808.01 5489.68 63.93 7.00  41.03 2502.07
   19:12:42.353.25-Dec-2020 4808.01 5489.68 63.93 7.00  41.23 2502.07
   19:12:42.554.25-Dec-2020 4808.01 5498.73 63.93 7.00  41.43 2502.07
   19:12:42.754.25-Dec-2020 4808.01 5501.76 63.93 7.00  41.63 2502.07
   19:12:42.954.25-Dec-2020 4808.01 5402.42 63.93 7.00  41.83 2502.07
   19:12:43.154.25-Dec-2020 4808.01 5218.23 63.93 7.00  42.03 2502.07
   19:12:43.354.25-Dec-2020 4808.01 4822.02 63.93 7.00  42.23 2502.07
   19:12:43.554.25-Dec-2020 4808.01 4278.65 63.93 7.00  42.43 2502.07
   19:12:43.754.25-Dec-2020 4808.01 3762.75 63.93 7.00  42.63 2502.07
   19:12:43.955.25-Dec-2020 4808.01 3462.91 63.93 7.00  42.83 2502.07
   19:12:44.155.25-Dec-2020 4808.01 3327.25 63.93 7.00  43.03 2502.07
   19:12:44.355.25-Dec-2020 4808.01 3327.25 63.93 7.00  43.23 2502.07
   19:12:44.555.25-Dec-2020 4808.01 3077.09 63.93 7.00  43.43 2502.07
   19:12:44.755.25-Dec-2020 4808.01 2993.68 63.93 7.00  43.63 2502.07
   19:12:44.955.25-Dec-2020 4808.01 2538.17 63.93 7.00  43.83 2502.07
   19:12:45.156.25-Dec-2020 4808.01 2222.57 63.93 7.00  44.03 2502.07
   19:12:45.356.25-Dec-2020 4808.01 2222.57 63.93 7.00  44.23 2502.07
   19:12:45.556.25-Dec-2020 4808.01 2175.86 63.92 7.00  44.44 2502.07
   19:12:45.756.25-Dec-2020 4808.01 2164.06 63.92 7.00  44.64 2502.07
   19:12:45.956.25-Dec-2020 4808.01 2175.23 63.92 7.00  44.84 2502.07
   19:12:46.156.25-Dec-2020 4808.01 2172.84 63.92 7.00  45.04 2502.07
   19:12:46.357.25-Dec-2020 4808.01 2172.84 63.92 7.00  45.24 2502.07
   19:12:46.557.25-Dec-2020 4808.01 2175.43 63.92 7.00  45.44 2502.07
   19:12:46.757.25-Dec-2020 4808.01 2169.54 63.91 7.00  45.64 2502.07
   19:12:46.957.25-Dec-2020 4808.01 2176.74 63.91 7.00  45.84 2502.07
