~Version Information
 VERS.                  2.0:   CWLS log ASCII Standard -VERSION 2.0
 WRAP.                   NO:   One line per depth step
~Well Information Block
#MNEM.UNIT     VALUE/NAME     DESCRIPTION
#---------     -----------    ---------------------------
 STRT.S             12:53:37 25-Dec-20: START TIME 12:53:37 25-Dec-20
 STOP.S             13:01:52 25-Dec-20: STOP TIME  13:01:52 25-Dec-20
 STEP.S                   0.00: STEP TIME
 NULL.                 -999.25: NULL VALUE
 DFWT.                        :  DIST FWL TEXT
 DFST.                        :  DIST FSL TEXT
 DMF .             Drill Floor:  DRILL MEAS FROM
 STIM.      04.54.24 22-Sep-20:  START TIME
 DATE.      04.54.24 21-Nov-20:  END TIME
 SPUD.               21-Nov-20:  SPUD DATE
 NREF.                    Grid:  NORTH REFERENCE
 HPTY.       Minimum Curvature:  HOLE POS TYPE
 DMOD.             Drill Model:  DRILL MOD DESC
 SVYD.                  Survey:  SURVEY DESC
 ILTD.               Lithology:  INTERP LTH DESC
 FTOP.          Formation Tops:  FORM TOPS DESC
 SON .        AZ-XX-0906571587:  JOB NUMBER
 COMP.     BP Exploration (Caspian Sea) Ltd:  COMPANY
 UWI .                     N/A:  UNIQUE WELL IDENTIFIER
 API .                     N/A:  API NUMBER
 BASE.              Azerbaijan:  LOGGING EQUIPMENT BASE LOCATION
 REGN.                   EESSA:  REGION
 PROV.                    Baku:  PROVINCE
 STAT.                    Baku:  STATE NAME
 CTRY.              Azerbaijan:  COUNTRY NAME
 FLD .                     ACG:  FIELD NAME
 SRVC.     TURAN Drilling & Engineering:  CONTRACTOR
 WELL.                     J27:  WELL NAME
 RIG .             West Chirag:  RIG NAME
 DOE .                     N/A:  DOE NUMBER
 DCON.         Sperry Drilling:  DIRECTNL CONTR
 PDAT.          Mean Sea Level:  PERMANENT DATUM
 WTYP.                Deviated:  WELL TYPE
 MWDS.                    Baku:  MWD SHOP
 JOBN.        AZ-XX-0906571587:  JOB TICKET NUMB
 UNIT.                     N/A:  LOGGING EQUIPMENT ID
 MDS .        Operator Entered:  MAG DATA SOURCE
 CNTY.                        :  COUNTY
 LOC .                        :  LOCATION
 LMF .             Drill Floor:  LOG MEASURED FROM
 TVDS.m                  43.00:  TVDSS CORRECTN
 LATI.deg                40.13:  LATITUDE
 LONG.deg                51.22:  LONGITUDE
 WHNS.m                   7.72:  WELL HEAD N/S
 WHEW.m                 -14.24:  WELL HEAD E/W
 UTMX.m              519005.06:  UTM X
 UTMY.m             4443793.85:  UTM Y
 DFWL.m                   0.00:  DISTANCE FWL
 DFSL.m                   0.00:  DISTANCE FSL
 SDEP.m                 347.00:  START DEPTH
 TDD .m                 581.00:  TOTAL DEPTH (DRILLER)
 VSDR.deg               159.72:  VERT SEC DIRECT
 GVFD.g                   1.00:  GRAVITY FIELD
 MFLD.nT              50318.00:  MAGNETIC FIELD
 MDIP.deg                59.57:  MAGNETIC DIP
 MDEC.deg                 6.44:  MAGNETIC DECL
 GRDC.deg                 0.15:  GRID CORRECTION
 AZTC.deg                 6.29:  AZM TOTAL CORR
 EPD .m                   0.00:  ELEVATION
 EGL .m                   0.00:  GROUND ELEVATION
 WDMS.m                 169.80:  WD ELEV
 APD .m                  43.00:  DEPTH ABOVE PD
 AGAP.m                  43.00:  AIR GAP
 VSEW.m                 -14.24:  VERT SEC E/W
 VSNS.m                   7.72:  VERT SEC N/S
 DEP .m                 342.45:  DEPTH
 EKB .m                   0.00:  KB ELEVATION
 EDF .m                  43.00:  DF ELEVATION
 TDL .m                 237.00:  TOTAL DEPTH (LOGGER)
 VSC .                       0:  VS TO CLOSURE
 MAGU.                 1851428:  MAGUTM CHECKSUM
~Parameter Information Block
#MNEM.UNIT       Value        Description
#---------     -----------    ---------------------------
 AV  .mps                 1.50:  Ann Velocity 
 AVMX.mps                 2.90:  Max Ann Veloc 
 AZIF.deg               115.59:  Azm, Final 
 BHAT.        Rotary Steerable:  BHA Type 
 BROT.°/30m               0.50:  Build Rotating 
 BS  .in                  8.50:  Bit Size 
 BTPL.psig              580.00:  Bit Press Loss 
 CABU.                     Yes:  Customer Abuse 
 COMM.                     LÓw:  Run Comments 1 
 TCS .hr                 89.79:  Time Ciculation Ended 
 CV  .mps                 3.22:  Crit Velocity 
 CVMX.mps                 4.37:  Max Crit Veloc 
 DD1 .          Rashad Habibov:  Direct Drillr 1 
 DDSV.               Geo-Pilot:  DD Service 
 DEFF.%                  95.00:  % Det Eff 
 DLRX.°/30m               1.94:  Dogleg Rot Max 
 DLSO.°/30m               0.70:  Dogleg Oriented 
 DLSX.°/30m               1.94:  Dogleg Str Max 
 DRET.      04.45.00 25-Dec-20:  Drill End Time 
 DRST.      10.00.00 24-Dec-20:  Drill Start Tim 
 DTIM.hr                 16.64:  Time Drilling 
 EDEP.m                4999.01:  End Depth 
 ENG1.         Elchin Mammadov:  Engineer 1 
 ENG2.          Ruslan Safarov:  Engineer 2 
 ENG3.          Rustam Safarov:  Engineer 3 
 ETIM.      09.00.00 29-Dec-20:  End Time 
 FLOI.gpm               500.00:  Flow In 
 FLON.gpm               400.00:  Flow In Min 
 FLOS.cptm                0.00:  Fluid Loss 
 FLOX.gpm               500.00:  Flow In Max 
 HFLO.                      No:  High Flow 
 HPRE.                      No:  High Pressure 
 HTEM.                      No:  High Temp 
 HYDO.m                   2.00:  Hydro Offset 
 IFIN.deg                66.79:  Inc, Final 
 IMAX.deg                67.66:  Inc Max 
 IMIN.deg                66.39:  Inc Min 
 IMND.m                4949.37:  Inc Min Depth 
 IMXD.m                4778.63:  Inc Max Depth 
 JARR.                     Yes:  Jarring 
 LETM.      04.45.00 25-Dec-20:  Log End Time 
 LOST.hr                     0:  Lost Rig Time 
 LSTM.      10.00.00 24-Dec-20:  Log Start Time 
 MDCL.ppm             39000.00:  Mud Chlorides 
 MDES.     Inversion Oil/Synthetic:  Mud Desc 
 DFD .sg                  1.33:  Mud Density 
 MDMN.sg                  1.33:  Dens Mud Min 
 MDMX.sg                  1.33:  Dens Mud Max 
 MOIL.                      70:  Run Mud Oil % 
 MOWR.                   70:30:  Run Mud OWR 
 MSND.                       0:  Run Mud Sand % 
 MSOL.                    17.4:  Run Mud Solids% 
 DFV .spqt               84.00:  Mud Viscosity 
 MWOD.in                  6.75:  MWD Tool OD 
 MWSI.                     Yes:  Serv Intrp, MWD 
 OTIM.hr                168.14:  Time Operating 
 PCON.           Look Like New:  Pad Condition 
 PMAX.psia            10822.93:  Press Op, Max 
 PV  .cP                 30.00:  Mud PV 
 RUN .                     900:  Run Number 
 ROPA.m/hr               18.00:  ROP Avg 
 ROPN.m/hr               12.00:  ROP Min 
 ROPX.m/hr               25.00:  ROP Max 
 RPMA.rpm               120.00:  RPM Surface Avg 
 RPMN.rpm               100.00:  RPM Surface Min 
 RPMX.rpm               120.00:  RPM Surface Max 
 RRUN.                    0900:  Rig Run Number 
 SAZI.deg               115.08:  Azm, Start 
 SDEP.m                4762.01:  Start Depth 
 SIDD.                      No:  Serv Intrp, DD 
 SINC.deg                66.14:  Inc, Start 
 SPPA.psig             3700.00:  SPP Avg 
 SPPN.psig             3620.00:  SPP Min 
 SPPX.psig             3900.00:  SPP Max 
 STIM.      09.30.00 22-Dec-20:  Start Time 
 SVCS.                 DD, MWD:  Services 
 SVER.                    9.20:  Sperry Version 
 TDAT.m                 237.00:  Tot Depth Attmp 
 TDDF.                      No:  Trip for DD 
 TDLG.m                 237.00:  Tot Depth Loggd 
 TFF .                      No:  Trip for Fail 
 TQAA.f-kp               18.00:  Torque Abs Avg 
 TQAN.f-kp               17.00:  Torque Abs Min 
 TQAX.f-kp               20.00:  Torque Abs Max 
 TRRT.°/30m               0.60:  Turn Rotating 
 MRT .                    HCIM:  Maximum Recorded Temperature 
 TTMX.degC               94.12:  Max Tool Temp 
 VS01.                90627809:  Virtual Str1 SN 
 VS02.                90527813:  Virtual Str2 SN 
 VS03.                90545417:  Virtual Str3 SN 
 VS04.                12460870:  Virtual Str4 SN 
 VS05.                90516706:  Virtual Str5 SN 
 VS06.                90632007:  Virtual Str6 SN 
 WBMN.klb                 0.00:  WOB Min 
 WOBA.klb                14.00:  WOB Avg 
 WOBX.klb                25.00:  WOB Max 
 YP  .lhf2               32.00:  Yield Point 
~Curve Information Block
#MNEM.UNIT                 API CODE     Curve Description
#---------               -----------    ---------------------------
 TIME.HHMMSS            00 000 000 000:  GT Time & Date
 GTDEPTH.m              00 000 000 000:  GT Depth
 GTPQH.psia             00 000 000 000:  GT HR Quartz Pressure
 GTTQ.degC              00 000 000 000:  GT Quartz Temperature
 GTTN.NONE              00 000 000 000:  GT Test Number
 GTET.sec               00 000 000 000:  GT Elapsed Test Time
 GTTVD.m                00 000 000 000:  GT True Vertical Depth
#Other Information
#
#WARRANTY: Halliburton will use its best efforts to furnish customers with 
#accurate information and interpretations that are part of, and incident to, the services 
#provided.  However, Halliburton cannot and does not warrant the accuracy 
#or correctness of such information and interpretations.  Under no circumstances should any 
#such information or interpretation be relied upon as the sole basis for any drilling, 
#completion, production, or financial decision or any procedure involving any risk to the 
#safety of any drilling venture, drilling rig or its crew or any other third party.  The 
#Customer has full responsibility for all drilling, completion and production operation.  
#Halliburton makes no representations or warranties, either expressed or 
#implied, including, but not limited to, the implied warranties of merchantability or fitness 
#for a particular purpose, with respect to the services rendered.  In no event will 
#Halliburton be liable for failure to obtain any particular results or for 
#any damages, including, but not limited to, indirect, special or consequential damages, 
#resulting from the use of any information or interpretation provided by Halliburton.
#
~A           TIME           GTDEPTH  GTPQH  GTTQ  GTTN  GTET   GTTVD  
# ...
   12:54:46.216.25-Dec-2020 4950.51 2087.77 66.64 1.00  69.03 2558.08
   12:54:46.416.25-Dec-2020 4950.51 2087.77 66.64 1.00  69.23 2558.08
   12:54:46.616.25-Dec-2020 4950.51 2087.72 66.64 1.00  69.43 2558.08
   12:54:46.816.25-Dec-2020 4950.51 2087.72 66.64 1.00  69.63 2558.08
   12:54:47.016.25-Dec-2020 4950.51 2087.05 66.64 1.00  69.83 2558.08
   12:54:47.216.25-Dec-2020 4950.51 2087.87 66.64 1.00  70.03 2558.08
   12:54:47.416.25-Dec-2020 4950.51 2087.87 66.64 1.00  70.23 2558.08
   12:54:47.616.25-Dec-2020 4950.51 2087.59 66.64 1.00  70.43 2558.08
   12:54:47.816.25-Dec-2020 4950.51 2087.90 66.64 1.00  70.63 2558.08
   12:54:48.016.25-Dec-2020 4950.51 2087.74 66.64 1.00  70.83 2558.08
   12:54:48.217.25-Dec-2020 4950.51 2087.81 66.64 1.00  71.03 2558.08
   12:54:48.417.25-Dec-2020 4950.51 2087.81 66.64 1.00  71.23 2558.08
   12:54:48.617.25-Dec-2020 4950.51 2087.77 66.64 1.00  71.43 2558.08
   12:54:48.817.25-Dec-2020 4950.51 2087.94 66.64 1.00  71.63 2558.08
   12:54:49.017.25-Dec-2020 4950.51 2087.84 66.64 1.00  71.83 2558.08
   12:54:49.217.25-Dec-2020 4950.51 2087.94 66.64 1.00  72.03 2558.08
   12:54:49.417.25-Dec-2020 4950.51 2087.94 66.64 1.00  72.23 2558.08
   12:54:49.617.25-Dec-2020 4950.51 2088.18 66.64 1.00  72.43 2558.08
   12:54:49.817.25-Dec-2020 4950.51 2088.07 66.64 1.00  72.63 2558.08
   12:54:50.017.25-Dec-2020 4950.51 2087.25 66.64 1.00  72.83 2558.08
   12:54:50.217.25-Dec-2020 4950.51 2087.96 66.64 1.00  73.03 2558.08
   12:54:50.418.25-Dec-2020 4950.51 2087.96 66.64 1.00  73.23 2558.08
   12:54:50.618.25-Dec-2020 4950.51 2087.52 66.64 1.00  73.43 2558.08
   12:54:50.818.25-Dec-2020 4950.51 2088.14 66.64 1.00  73.63 2558.08
   12:54:51.018.25-Dec-2020 4950.51 2087.64 66.64 1.00  73.83 2558.08
   12:54:51.218.25-Dec-2020 4950.51 2087.98 66.64 1.00  74.03 2558.08
   12:54:51.418.25-Dec-2020 4950.51 2087.98 66.64 1.00  74.23 2558.08
   12:54:51.618.25-Dec-2020 4950.51 2087.20 66.64 1.00  74.43 2558.08
   12:54:51.818.25-Dec-2020 4950.51 2088.31 66.64 1.00  74.63 2558.08
   12:54:52.018.25-Dec-2020 4950.51 2087.85 66.64 1.00  74.83 2558.08
   12:54:52.218.25-Dec-2020 4950.51 2088.05 66.64 1.00  75.03 2558.08
   12:54:52.418.25-Dec-2020 4950.51 2088.05 66.64 1.00  75.23 2558.08
   12:54:52.619.25-Dec-2020 4950.51 2087.90 66.64 1.00  75.43 2558.08
   12:54:52.819.25-Dec-2020 4950.51 2088.04 66.64 1.00  75.63 2558.08
   12:54:53.019.25-Dec-2020 4950.51 2088.00 66.64 1.00  75.83 2558.08
   12:54:53.219.25-Dec-2020 4950.51 2087.91 66.64 1.00  76.03 2558.08
   12:54:53.419.25-Dec-2020 4950.51 2087.91 66.64 1.00  76.23 2558.08
   12:54:53.619.25-Dec-2020 4950.51 2088.02 66.64 1.00  76.43 2558.08
   12:54:53.819.25-Dec-2020 4950.51 2088.09 66.64 1.00  76.63 2558.08
   12:54:54.019.25-Dec-2020 4950.51 2088.05 66.64 1.00  76.83 2558.08
   12:54:54.219.25-Dec-2020 4950.51 2087.48 66.64 1.00  77.03 2558.08
   12:54:54.419.25-Dec-2020 4950.51 2087.48 66.64 1.00  77.23 2558.08
   12:54:54.619.25-Dec-2020 4950.51 2088.19 66.64 1.00  77.43 2558.08
   12:54:54.820.25-Dec-2020 4950.51 2088.10 66.64 1.00  77.63 2558.08
   12:54:55.020.25-Dec-2020 4950.51 2088.26 66.64 1.00  77.84 2558.08
   12:54:55.220.25-Dec-2020 4950.51 2088.09 66.64 1.00  78.04 2558.08
   12:54:55.420.25-Dec-2020 4950.51 2088.09 66.64 1.00  78.24 2558.08
   12:54:55.620.25-Dec-2020 4950.51 2088.02 66.64 1.00  78.44 2558.08
   12:54:55.820.25-Dec-2020 4950.51 2088.20 66.64 1.00  78.64 2558.08
   12:54:56.020.25-Dec-2020 4950.51 2088.31 66.64 1.00  78.84 2558.08
   12:54:56.220.25-Dec-2020 4950.51 2088.24 66.64 1.00  79.04 2558.08
   12:54:56.420.25-Dec-2020 4950.51 2088.24 66.64 1.00  79.24 2558.08
   12:54:56.620.25-Dec-2020 4950.51 2087.33 66.64 1.00  79.44 2558.08
   12:54:56.820.25-Dec-2020 4950.51 2088.62 66.64 1.00  79.64 2558.08
   12:54:57.021.25-Dec-2020 4950.51 2088.42 66.64 1.00  79.84 2558.08
   12:54:57.221.25-Dec-2020 4950.51 2087.67 66.64 1.00  80.04 2558.08
   12:54:57.421.25-Dec-2020 4950.51 2087.67 66.64 1.00  80.24 2558.08
   12:54:57.621.25-Dec-2020 4950.51 2088.08 66.64 1.00  80.44 2558.08
   12:54:57.821.25-Dec-2020 4950.51 2088.36 66.64 1.00  80.64 2558.08
   12:54:58.021.25-Dec-2020 4950.51 2087.94 66.64 1.00  80.84 2558.08
   12:54:58.221.25-Dec-2020 4950.51 2088.33 66.64 1.00  81.04 2558.08
   12:54:58.421.25-Dec-2020 4950.51 2088.33 66.64 1.00  81.24 2558.08
   12:54:58.621.25-Dec-2020 4950.51 2088.22 66.64 1.00  81.44 2558.08
   12:54:58.821.25-Dec-2020 4950.51 2087.41 66.64 1.00  81.64 2558.08
   12:54:59.021.25-Dec-2020 4950.51 2088.69 66.64 1.00  81.84 2558.08
   12:54:59.222.25-Dec-2020 4950.51 2088.46 66.64 1.00  82.04 2558.08
   12:54:59.422.25-Dec-2020 4950.51 2088.46 66.64 1.00  82.24 2558.08
   12:54:59.622.25-Dec-2020 4950.51 2088.18 66.64 1.00  82.44 2558.08
   12:54:59.822.25-Dec-2020 4950.51 2088.29 66.64 1.00  82.64 2558.08
   12:55:00.022.25-Dec-2020 4950.51 2088.28 66.64 1.00  82.84 2558.08
   12:55:00.222.25-Dec-2020 4950.51 2088.23 66.64 1.00  83.04 2558.08
   12:55:00.422.25-Dec-2020 4950.51 2088.23 66.64 1.00  83.24 2558.08
   12:55:00.622.25-Dec-2020 4950.51 2088.33 66.64 1.00  83.44 2558.08
   12:55:00.822.25-Dec-2020 4950.51 2088.36 66.64 1.00  83.64 2558.08
   12:55:01.022.25-Dec-2020 4950.51 2088.42 66.64 1.00  83.84 2558.08
   12:55:01.222.25-Dec-2020 4950.51 2087.95 66.64 1.00  84.04 2558.08
   12:55:01.423.25-Dec-2020 4950.51 2087.95 66.64 1.00  84.24 2558.08
   12:55:01.623.25-Dec-2020 4950.51 2088.24 66.64 1.00  84.44 2558.08
   12:55:01.823.25-Dec-2020 4950.51 2088.55 66.64 1.00  84.64 2558.08
   12:55:02.023.25-Dec-2020 4950.51 2088.49 66.64 1.00  84.84 2558.08
   12:55:02.223.25-Dec-2020 4950.51 2088.58 66.64 1.00  85.04 2558.08
   12:55:02.423.25-Dec-2020 4950.51 2088.58 66.64 1.00  85.24 2558.08
   12:55:02.623.25-Dec-2020 4950.51 2088.51 66.64 1.00  85.44 2558.08
   12:55:02.823.25-Dec-2020 4950.51 2088.35 66.64 1.00  85.64 2558.08
   12:55:03.023.25-Dec-2020 4950.51 2088.40 66.64 1.00  85.84 2558.08
   12:55:03.223.25-Dec-2020 4950.51 2088.48 66.64 1.00  86.04 2558.08
   12:55:03.423.25-Dec-2020 4950.51 2088.48 66.64 1.00  86.24 2558.08
   12:55:03.624.25-Dec-2020 4950.51 2088.50 66.64 1.00  86.44 2558.08
   12:55:03.824.25-Dec-2020 4950.51 2087.99 66.64 1.00  86.64 2558.08
   12:55:04.024.25-Dec-2020 4950.51 2088.69 66.64 1.00  86.84 2558.08
   12:55:04.224.25-Dec-2020 4950.51 2088.61 66.64 1.00  87.04 2558.08
   12:55:04.424.25-Dec-2020 4950.51 2088.61 66.64 1.00  87.24 2558.08
   12:55:04.624.25-Dec-2020 4950.51 2088.88 66.64 1.00  87.44 2558.08
   12:55:04.824.25-Dec-2020 4950.51 2088.44 66.64 1.00  87.64 2558.08
   12:55:05.024.25-Dec-2020 4950.51 2087.96 66.64 1.00  87.84 2558.08
   12:55:05.224.25-Dec-2020 4950.51 2088.96 66.64 1.00  88.04 2558.08
   12:55:05.424.25-Dec-2020 4950.51 2088.96 66.64 1.00  88.24 2558.08
   12:55:05.624.25-Dec-2020 4950.51 2087.97 66.64 1.00  88.44 2558.08
   12:55:05.825.25-Dec-2020 4950.51 2088.91 66.64 1.00  88.64 2558.08
   12:55:06.025.25-Dec-2020 4950.51 2088.48 66.64 1.00  88.84 2558.08
   12:55:06.225.25-Dec-2020 4950.51 2088.93 66.64 1.00  89.04 2558.08
   12:55:06.425.25-Dec-2020 4950.51 2088.93 66.64 1.00  89.24 2558.08
   12:55:06.625.25-Dec-2020 4950.51 2088.37 66.64 1.00  89.44 2558.08
   12:55:06.825.25-Dec-2020 4950.51 2088.47 66.64 1.00  89.64 2558.08
   12:55:07.025.25-Dec-2020 4950.51 2088.54 66.64 1.00  89.84 2558.08
   12:55:07.225.25-Dec-2020 4950.51 2088.46 66.64 1.00  90.04 2558.08
   12:55:07.425.25-Dec-2020 4950.51 2088.46 66.64 1.00  90.24 2558.08
   12:55:07.625.25-Dec-2020 4950.51 2088.53 66.64 1.00  90.44 2558.08
   12:55:07.825.25-Dec-2020 4950.51 2088.60 66.64 1.00  90.64 2558.08
   12:55:08.026.25-Dec-2020 4950.51 2088.47 66.64 1.00  90.84 2558.08
   12:55:08.226.25-Dec-2020 4950.51 2088.06 66.64 1.00  91.04 2558.08
   12:55:08.426.25-Dec-2020 4950.51 2088.06 66.64 1.00  91.24 2558.08
   12:55:08.626.25-Dec-2020 4950.51 2088.83 66.64 1.00  91.44 2558.08
   12:55:08.826.25-Dec-2020 4950.51 2088.64 66.64 1.00  91.64 2558.08
   12:55:09.026.25-Dec-2020 4950.51 2088.82 66.64 1.00  91.84 2558.08
