~Version Information
 VERS.                  2.0:   CWLS log ASCII Standard -VERSION 2.0
 WRAP.                   NO:   One line per depth step
~Well Information Block
#MNEM.UNIT     VALUE/NAME     DESCRIPTION
#---------     -----------    ---------------------------
 STRT.S             18:45:29 25-Dec-20: START TIME 18:45:29 25-Dec-20
 STOP.S             18:53:50 25-Dec-20: STOP TIME  18:53:50 25-Dec-20
 STEP.S                   0.00: STEP TIME
 NULL.                 -999.25: NULL VALUE
 DFWT.                        :  DIST FWL TEXT
 DFST.                        :  DIST FSL TEXT
 DMF .             Drill Floor:  DRILL MEAS FROM
 STIM.      04.54.24 22-Sep-20:  START TIME
 DATE.      04.54.24 21-Nov-20:  END TIME
 SPUD.               21-Nov-20:  SPUD DATE
 NREF.                    Grid:  NORTH REFERENCE
 HPTY.       Minimum Curvature:  HOLE POS TYPE
 DMOD.             Drill Model:  DRILL MOD DESC
 SVYD.                  Survey:  SURVEY DESC
 ILTD.               Lithology:  INTERP LTH DESC
 FTOP.          Formation Tops:  FORM TOPS DESC
 SON .        AZ-XX-0906571587:  JOB NUMBER
 COMP.     BP Exploration (Caspian Sea) Ltd:  COMPANY
 UWI .                     N/A:  UNIQUE WELL IDENTIFIER
 API .                     N/A:  API NUMBER
 BASE.              Azerbaijan:  LOGGING EQUIPMENT BASE LOCATION
 REGN.                   EESSA:  REGION
 PROV.                    Baku:  PROVINCE
 STAT.                    Baku:  STATE NAME
 CTRY.              Azerbaijan:  COUNTRY NAME
 FLD .                     ACG:  FIELD NAME
 SRVC.     TURAN Drilling & Engineering:  CONTRACTOR
 WELL.                     J27:  WELL NAME
 RIG .             West Chirag:  RIG NAME
 DOE .                     N/A:  DOE NUMBER
 DCON.         Sperry Drilling:  DIRECTNL CONTR
 PDAT.          Mean Sea Level:  PERMANENT DATUM
 WTYP.                Deviated:  WELL TYPE
 MWDS.                    Baku:  MWD SHOP
 JOBN.        AZ-XX-0906571587:  JOB TICKET NUMB
 UNIT.                     N/A:  LOGGING EQUIPMENT ID
 MDS .        Operator Entered:  MAG DATA SOURCE
 CNTY.                        :  COUNTY
 LOC .                        :  LOCATION
 LMF .             Drill Floor:  LOG MEASURED FROM
 TVDS.m                  43.00:  TVDSS CORRECTN
 LATI.deg                40.13:  LATITUDE
 LONG.deg                51.22:  LONGITUDE
 WHNS.m                   7.72:  WELL HEAD N/S
 WHEW.m                 -14.24:  WELL HEAD E/W
 UTMX.m              519005.06:  UTM X
 UTMY.m             4443793.85:  UTM Y
 DFWL.m                   0.00:  DISTANCE FWL
 DFSL.m                   0.00:  DISTANCE FSL
 SDEP.m                 347.00:  START DEPTH
 TDD .m                 581.00:  TOTAL DEPTH (DRILLER)
 VSDR.deg               159.72:  VERT SEC DIRECT
 GVFD.g                   1.00:  GRAVITY FIELD
 MFLD.nT              50318.00:  MAGNETIC FIELD
 MDIP.deg                59.57:  MAGNETIC DIP
 MDEC.deg                 6.44:  MAGNETIC DECL
 GRDC.deg                 0.15:  GRID CORRECTION
 AZTC.deg                 6.29:  AZM TOTAL CORR
 EPD .m                   0.00:  ELEVATION
 EGL .m                   0.00:  GROUND ELEVATION
 WDMS.m                 169.80:  WD ELEV
 APD .m                  43.00:  DEPTH ABOVE PD
 AGAP.m                  43.00:  AIR GAP
 VSEW.m                 -14.24:  VERT SEC E/W
 VSNS.m                   7.72:  VERT SEC N/S
 DEP .m                 342.45:  DEPTH
 EKB .m                   0.00:  KB ELEVATION
 EDF .m                  43.00:  DF ELEVATION
 TDL .m                 237.00:  TOTAL DEPTH (LOGGER)
 VSC .                       0:  VS TO CLOSURE
 MAGU.                 1851428:  MAGUTM CHECKSUM
~Parameter Information Block
#MNEM.UNIT       Value        Description
#---------     -----------    ---------------------------
 AV  .mps                 1.50:  Ann Velocity 
 AVMX.mps                 2.90:  Max Ann Veloc 
 AZIF.deg               115.59:  Azm, Final 
 BHAT.        Rotary Steerable:  BHA Type 
 BROT.°/30m               0.50:  Build Rotating 
 BS  .in                  8.50:  Bit Size 
 BTPL.psig              580.00:  Bit Press Loss 
 CABU.                     Yes:  Customer Abuse 
 TCS .hr                 89.79:  Time Ciculation Ended 
 CV  .mps                 3.22:  Crit Velocity 
 CVMX.mps                 4.37:  Max Crit Veloc 
 DD1 .          Rashad Habibov:  Direct Drillr 1 
 DDSV.               Geo-Pilot:  DD Service 
 DEFF.%                  95.00:  % Det Eff 
 DLRX.°/30m               1.94:  Dogleg Rot Max 
 DLSO.°/30m               0.70:  Dogleg Oriented 
 DLSX.°/30m               1.94:  Dogleg Str Max 
 DRET.      04.45.00 25-Dec-20:  Drill End Time 
 DRST.      10.00.00 24-Dec-20:  Drill Start Tim 
 DTIM.hr                 16.64:  Time Drilling 
 EDEP.m                4999.01:  End Depth 
 ENG1.         Elchin Mammadov:  Engineer 1 
 ENG2.          Ruslan Safarov:  Engineer 2 
 ENG3.          Rustam Safarov:  Engineer 3 
 ETIM.      09.00.00 29-Dec-20:  End Time 
 FLOI.gpm               500.00:  Flow In 
 FLON.gpm               400.00:  Flow In Min 
 FLOS.cptm                0.00:  Fluid Loss 
 FLOX.gpm               500.00:  Flow In Max 
 HFLO.                      No:  High Flow 
 HPRE.                      No:  High Pressure 
 HTEM.                      No:  High Temp 
 HYDO.m                   2.00:  Hydro Offset 
 IFIN.deg                66.79:  Inc, Final 
 IMAX.deg                67.66:  Inc Max 
 IMIN.deg                66.39:  Inc Min 
 IMND.m                4949.37:  Inc Min Depth 
 IMXD.m                4778.63:  Inc Max Depth 
 JARR.                     Yes:  Jarring 
 LETM.      04.45.00 25-Dec-20:  Log End Time 
 LOST.hr                     0:  Lost Rig Time 
 LSTM.      10.00.00 24-Dec-20:  Log Start Time 
 MDCL.ppm             39000.00:  Mud Chlorides 
 MDES.     Inversion Oil/Synthetic:  Mud Desc 
 DFD .sg                  1.33:  Mud Density 
 MDMN.sg                  1.33:  Dens Mud Min 
 MDMX.sg                  1.33:  Dens Mud Max 
 MOIL.                      70:  Run Mud Oil % 
 MOWR.                   70:30:  Run Mud OWR 
 MSND.                       0:  Run Mud Sand % 
 MSOL.                    17.4:  Run Mud Solids% 
 DFV .spqt               84.00:  Mud Viscosity 
 MWOD.in                  6.75:  MWD Tool OD 
 MWSI.                     Yes:  Serv Intrp, MWD 
 OTIM.hr                168.14:  Time Operating 
 PCON.           Look Like New:  Pad Condition 
 PMAX.psia            10822.93:  Press Op, Max 
 PV  .cP                 30.00:  Mud PV 
 RUN .                     900:  Run Number 
 ROPA.m/hr               18.00:  ROP Avg 
 ROPN.m/hr               12.00:  ROP Min 
 ROPX.m/hr               25.00:  ROP Max 
 RPMA.rpm               120.00:  RPM Surface Avg 
 RPMN.rpm               100.00:  RPM Surface Min 
 RPMX.rpm               120.00:  RPM Surface Max 
 RRUN.                    0900:  Rig Run Number 
 SAZI.deg               115.08:  Azm, Start 
 SDEP.m                4762.01:  Start Depth 
 SIDD.                      No:  Serv Intrp, DD 
 SINC.deg                66.14:  Inc, Start 
 SPPA.psig             3700.00:  SPP Avg 
 SPPN.psig             3620.00:  SPP Min 
 SPPX.psig             3900.00:  SPP Max 
 STIM.      09.30.00 22-Dec-20:  Start Time 
 SVCS.                 DD, MWD:  Services 
 SVER.                    9.20:  Sperry Version 
 TDAT.m                 237.00:  Tot Depth Attmp 
 TDDF.                      No:  Trip for DD 
 TDLG.m                 237.00:  Tot Depth Loggd 
 TFF .                      No:  Trip for Fail 
 TQAA.f-kp               18.00:  Torque Abs Avg 
 TQAN.f-kp               17.00:  Torque Abs Min 
 TQAX.f-kp               20.00:  Torque Abs Max 
 TRRT.°/30m               0.60:  Turn Rotating 
 MRT .                    HCIM:  Maximum Recorded Temperature 
 TTMX.degC               94.12:  Max Tool Temp 
 VS01.                90627809:  Virtual Str1 SN 
 VS02.                90527813:  Virtual Str2 SN 
 VS03.                90545417:  Virtual Str3 SN 
 VS04.                12460870:  Virtual Str4 SN 
 VS05.                90516706:  Virtual Str5 SN 
 VS06.                90632007:  Virtual Str6 SN 
 WBMN.klb                 0.00:  WOB Min 
 WOBA.klb                14.00:  WOB Avg 
 WOBX.klb                25.00:  WOB Max 
 YP  .lhf2               32.00:  Yield Point 
~Curve Information Block
#MNEM.UNIT                 API CODE     Curve Description
#---------               -----------    ---------------------------
 TIME.HHMMSS            00 000 000 000:  GT Time & Date
 GTDEPTH.m              00 000 000 000:  GT Depth
 GTPQH.psia             00 000 000 000:  GT HR Quartz Pressure
 GTTQ.degC              00 000 000 000:  GT Quartz Temperature
 GTTN.NONE              00 000 000 000:  GT Test Number
 GTET.sec               00 000 000 000:  GT Elapsed Test Time
 GTTVD.m                00 000 000 000:  GT True Vertical Depth
#Other Information
#
#WARRANTY: Halliburton will use its best efforts to furnish customers with 
#accurate information and interpretations that are part of, and incident to, the services 
#provided.  However, Halliburton cannot and does not warrant the accuracy 
#or correctness of such information and interpretations.  Under no circumstances should any 
#such information or interpretation be relied upon as the sole basis for any drilling, 
#completion, production, or financial decision or any procedure involving any risk to the 
#safety of any drilling venture, drilling rig or its crew or any other third party.  The 
#Customer has full responsibility for all drilling, completion and production operation.  
#Halliburton makes no representations or warranties, either expressed or 
#implied, including, but not limited to, the implied warranties of merchantability or fitness 
#for a particular purpose, with respect to the services rendered.  In no event will 
#Halliburton be liable for failure to obtain any particular results or for 
#any damages, including, but not limited to, indirect, special or consequential damages, 
#resulting from the use of any information or interpretation provided by Halliburton.
#
~A           TIME           GTDEPTH  GTPQH  GTTQ  GTTN  GTET   GTTVD  
# ...
   18:45:52.882.25-Dec-2020 4831.01 5403.57 64.30 6.00  23.02 2510.98
   18:45:53.082.25-Dec-2020 4831.01 5403.57 64.30 6.00  23.22 2510.98
   18:45:53.283.25-Dec-2020 4831.01 5407.51 64.30 6.00  23.42 2510.98
   18:45:53.483.25-Dec-2020 4831.01 5403.38 64.30 6.00  23.62 2510.98
   18:45:53.683.25-Dec-2020 4831.01 5410.70 64.30 6.00  23.82 2510.98
   18:45:53.883.25-Dec-2020 4831.01 5407.04 64.30 6.00  24.02 2510.98
   18:45:54.083.25-Dec-2020 4831.01 5405.00 64.30 6.00  24.22 2510.98
   18:45:54.283.25-Dec-2020 4831.01 5407.18 64.30 6.00  24.42 2510.98
   18:45:54.484.25-Dec-2020 4831.01 5406.96 64.30 6.00  24.62 2510.98
   18:45:54.684.25-Dec-2020 4831.01 5405.23 64.30 6.00  24.82 2510.98
   18:45:54.884.25-Dec-2020 4831.01 5406.67 64.30 6.00  25.02 2510.98
   18:45:55.084.25-Dec-2020 4831.01 5406.67 64.30 6.00  25.22 2510.98
   18:45:55.284.25-Dec-2020 4831.01 5406.89 64.30 6.00  25.42 2510.98
   18:45:55.484.25-Dec-2020 4831.01 5407.61 64.30 6.00  25.62 2510.98
   18:45:55.685.25-Dec-2020 4831.01 5407.21 64.30 6.00  25.82 2510.98
   18:45:55.885.25-Dec-2020 4831.01 5407.75 64.30 6.00  26.02 2510.98
   18:45:56.085.25-Dec-2020 4831.01 5407.75 64.30 6.00  26.22 2510.98
   18:45:56.285.25-Dec-2020 4831.01 5406.30 64.30 6.00  26.42 2510.98
   18:45:56.485.25-Dec-2020 4831.01 5409.09 64.30 6.00  26.62 2510.98
   18:45:56.685.25-Dec-2020 4831.01 5415.70 64.30 6.00  26.82 2510.98
   18:45:56.885.25-Dec-2020 4831.01 5415.12 64.30 6.00  27.02 2510.98
   18:45:57.086.25-Dec-2020 4831.01 5415.12 64.30 6.00  27.22 2510.98
   18:45:57.286.25-Dec-2020 4831.01 5412.48 64.30 6.00  27.42 2510.98
   18:45:57.486.25-Dec-2020 4831.01 5415.84 64.30 6.00  27.62 2510.98
   18:45:57.686.25-Dec-2020 4831.01 5414.33 64.30 6.00  27.82 2510.98
   18:45:57.886.25-Dec-2020 4831.01 5412.03 64.30 6.00  28.02 2510.98
   18:45:58.086.25-Dec-2020 4831.01 5412.03 64.30 6.00  28.22 2510.98
   18:45:58.287.25-Dec-2020 4831.01 5412.44 64.30 6.00  28.42 2510.98
   18:45:58.487.25-Dec-2020 4831.01 5414.32 64.30 6.00  28.62 2510.98
   18:45:58.687.25-Dec-2020 4831.01 5415.11 64.30 6.00  28.82 2510.98
   18:45:58.887.25-Dec-2020 4831.01 5412.62 64.30 6.00  29.02 2510.98
   18:45:59.087.25-Dec-2020 4831.01 5412.62 64.30 6.00  29.22 2510.98
   18:45:59.287.25-Dec-2020 4831.01 5412.71 64.30 6.00  29.42 2510.98
   18:45:59.488.25-Dec-2020 4831.01 5410.87 64.30 6.00  29.62 2510.98
   18:45:59.688.25-Dec-2020 4831.01 5410.34 64.30 6.00  29.82 2510.98
   18:45:59.888.25-Dec-2020 4831.01 5410.91 64.30 6.00  30.02 2510.98
   18:46:00.088.25-Dec-2020 4831.01 5410.91 64.30 6.00  30.22 2510.98
   18:46:00.288.25-Dec-2020 4831.01 5410.55 64.30 6.00  30.42 2510.98
   18:46:00.488.25-Dec-2020 4831.01 5411.10 64.30 6.00  30.62 2510.98
   18:46:00.688.25-Dec-2020 4831.01 5410.74 64.30 6.00  30.82 2510.98
   18:46:00.889.25-Dec-2020 4831.01 5418.45 64.30 6.00  31.02 2510.98
   18:46:01.089.25-Dec-2020 4831.01 5418.45 64.30 6.00  31.22 2510.98
   18:46:01.289.25-Dec-2020 4831.01 5411.89 64.30 6.00  31.42 2510.98
   18:46:01.489.25-Dec-2020 4831.01 5415.85 64.30 6.00  31.62 2510.98
   18:46:01.689.25-Dec-2020 4831.01 5414.77 64.30 6.00  31.83 2510.98
   18:46:01.889.25-Dec-2020 4831.01 5412.06 64.30 6.00  32.03 2510.98
   18:46:02.090.25-Dec-2020 4831.01 5412.06 64.30 6.00  32.23 2510.98
   18:46:02.290.25-Dec-2020 4831.01 5413.31 64.30 6.00  32.43 2510.98
   18:46:02.490.25-Dec-2020 4831.01 5413.35 64.30 6.00  32.63 2510.98
   18:46:02.690.25-Dec-2020 4831.01 5413.52 64.30 6.00  32.83 2510.98
   18:46:02.890.25-Dec-2020 4831.01 5413.91 64.30 6.00  33.03 2510.98
   18:46:03.090.25-Dec-2020 4831.01 5413.91 64.30 6.00  33.23 2510.98
   18:46:03.291.25-Dec-2020 4831.01 5413.38 64.30 6.00  33.43 2510.98
   18:46:03.491.25-Dec-2020 4831.01 5417.52 64.30 6.00  33.63 2510.98
   18:46:03.691.25-Dec-2020 4831.01 5413.17 64.30 6.00  33.83 2510.98
   18:46:03.891.25-Dec-2020 4831.01 5421.30 64.30 6.00  34.03 2510.98
   18:46:04.091.25-Dec-2020 4831.01 5421.30 64.30 6.00  34.23 2510.98
   18:46:04.291.25-Dec-2020 4831.01 5418.32 64.30 6.00  34.43 2510.98
   18:46:04.491.25-Dec-2020 4831.01 5422.05 64.30 6.00  34.63 2510.98
   18:46:04.692.25-Dec-2020 4831.01 5417.24 64.30 6.00  34.83 2510.98
   18:46:04.892.25-Dec-2020 4831.01 5417.79 64.30 6.00  35.03 2510.98
   18:46:05.092.25-Dec-2020 4831.01 5417.79 64.30 6.00  35.23 2510.98
   18:46:05.292.25-Dec-2020 4831.01 5421.50 64.30 6.00  35.43 2510.98
   18:46:05.492.25-Dec-2020 4831.01 5428.44 64.30 6.00  35.63 2510.98
   18:46:05.692.25-Dec-2020 4831.01 5416.09 64.30 6.00  35.83 2510.98
   18:46:05.893.25-Dec-2020 4831.01 5423.57 64.30 6.00  36.03 2510.98
   18:46:06.093.25-Dec-2020 4831.01 5423.57 64.30 6.00  36.23 2510.98
   18:46:06.293.25-Dec-2020 4831.01 5415.88 64.29 6.00  36.43 2510.98
   18:46:06.493.25-Dec-2020 4831.01 5417.18 64.29 6.00  36.63 2510.98
   18:46:06.693.25-Dec-2020 4831.01 5417.27 64.29 6.00  36.83 2510.98
   18:46:06.893.25-Dec-2020 4831.01 5415.59 64.29 6.00  37.03 2510.98
   18:46:07.094.25-Dec-2020 4831.01 5415.59 64.29 6.00  37.23 2510.98
   18:46:07.294.25-Dec-2020 4831.01 5421.10 64.29 6.00  37.43 2510.98
   18:46:07.494.25-Dec-2020 4831.01 5707.94 64.29 6.00  37.63 2510.98
   18:46:07.694.25-Dec-2020 4831.01 5749.56 64.29 6.00  37.83 2510.98
   18:46:07.894.25-Dec-2020 4831.01 5754.42 64.29 6.00  38.03 2510.98
   18:46:08.094.25-Dec-2020 4831.01 5754.42 64.29 6.00  38.23 2510.98
   18:46:08.295.25-Dec-2020 4831.01 5780.89 64.29 6.00  38.43 2510.98
   18:46:08.495.25-Dec-2020 4831.01 5780.15 64.29 6.00  38.63 2510.98
   18:46:08.695.25-Dec-2020 4831.01 5788.50 64.29 6.00  38.83 2510.98
   18:46:08.895.25-Dec-2020 4831.01 5758.00 64.29 6.00  39.03 2510.98
   18:46:09.095.25-Dec-2020 4831.01 5758.00 64.29 6.00  39.23 2510.98
   18:46:09.295.25-Dec-2020 4831.01 5596.56 64.29 6.00  39.43 2510.98
   18:46:09.495.25-Dec-2020 4831.01 5524.02 64.29 6.00  39.63 2510.98
   18:46:09.696.25-Dec-2020 4831.01 5461.32 64.29 6.00  39.83 2510.98
   18:46:09.896.25-Dec-2020 4831.01 5413.49 64.29 6.00  40.03 2510.98
   18:46:10.096.25-Dec-2020 4831.01 5375.86 64.29 6.00  40.23 2510.98
   18:46:10.296.25-Dec-2020 4831.01 5342.68 64.29 6.00  40.43 2510.98
   18:46:10.496.25-Dec-2020 4831.01 5359.15 64.29 6.00  40.63 2510.98
   18:46:10.696.25-Dec-2020 4831.01 5381.15 64.29 6.00  40.83 2510.98
   18:46:10.897.25-Dec-2020 4831.01 5396.13 64.29 6.00  41.03 2510.98
   18:46:11.097.25-Dec-2020 4831.01 5396.13 64.29 6.00  41.23 2510.98
   18:46:11.297.25-Dec-2020 4831.01 5420.87 64.29 6.00  41.43 2510.98
   18:46:11.497.25-Dec-2020 4831.01 5426.43 64.29 6.00  41.63 2510.98
   18:46:11.697.25-Dec-2020 4831.01 5432.16 64.29 6.00  41.83 2510.98
   18:46:11.897.25-Dec-2020 4831.01 5441.86 64.29 6.00  42.03 2510.98
   18:46:12.098.25-Dec-2020 4831.01 5441.86 64.29 6.00  42.23 2510.98
   18:46:12.298.25-Dec-2020 4831.01 5449.46 64.29 6.00  42.43 2510.98
   18:46:12.498.25-Dec-2020 4831.01 5456.33 64.29 6.00  42.63 2510.98
   18:46:12.698.25-Dec-2020 4831.01 5463.03 64.29 6.00  42.83 2510.98
   18:46:12.898.25-Dec-2020 4831.01 5411.55 64.29 6.00  43.03 2510.98
   18:46:13.098.25-Dec-2020 4831.01 5411.55 64.29 6.00  43.23 2510.98
   18:46:13.298.25-Dec-2020 4831.01 4736.31 64.29 6.00  43.43 2510.98
   18:46:13.499.25-Dec-2020 4831.01 4181.80 64.29 6.00  43.63 2510.98
   18:46:13.699.25-Dec-2020 4831.01 3705.79 64.29 6.00  43.83 2510.98
   18:46:13.899.25-Dec-2020 4831.01 3540.12 64.29 6.00  44.03 2510.98
   18:46:14.099.25-Dec-2020 4831.01 3451.08 64.29 6.00  44.23 2510.98
   18:46:14.299.25-Dec-2020 4831.01 3406.11 64.29 6.00  44.44 2510.98
   18:46:14.499.25-Dec-2020 4831.01 3384.57 64.29 6.00  44.64 2510.98
   18:46:14.700.25-Dec-2020 4831.01 3339.27 64.29 6.00  44.84 2510.98
   18:46:14.900.25-Dec-2020 4831.01 3267.78 64.29 6.00  45.04 2510.98
   18:46:15.100.25-Dec-2020 4831.01 3267.78 64.29 6.00  45.24 2510.98
   18:46:15.300.25-Dec-2020 4831.01 3249.79 64.29 6.00  45.44 2510.98
   18:46:15.500.25-Dec-2020 4831.01 3249.20 64.28 6.00  45.64 2510.98
   18:46:15.700.25-Dec-2020 4831.01 3244.55 64.28 6.00  45.84 2510.98
