~Version Information
 VERS.                  2.0:   CWLS log ASCII Standard -VERSION 2.0
 WRAP.                   NO:   One line per depth step
~Well Information Block
#MNEM.UNIT     VALUE/NAME     DESCRIPTION
#---------     -----------    ---------------------------
 STRT.S             13:36:27 25-Dec-20: START TIME 13:36:27 25-Dec-20
 STOP.S             13:44:49 25-Dec-20: STOP TIME  13:44:49 25-Dec-20
 STEP.S                   0.00: STEP TIME
 NULL.                 -999.25: NULL VALUE
 DFWT.                        :  DIST FWL TEXT
 DFST.                        :  DIST FSL TEXT
 DMF .             Drill Floor:  DRILL MEAS FROM
 STIM.      04.54.24 22-Sep-20:  START TIME
 DATE.      04.54.24 21-Nov-20:  END TIME
 SPUD.               21-Nov-20:  SPUD DATE
 NREF.                    Grid:  NORTH REFERENCE
 HPTY.       Minimum Curvature:  HOLE POS TYPE
 DMOD.             Drill Model:  DRILL MOD DESC
 SVYD.                  Survey:  SURVEY DESC
 ILTD.               Lithology:  INTERP LTH DESC
 FTOP.          Formation Tops:  FORM TOPS DESC
 SON .        AZ-XX-0906571587:  JOB NUMBER
 COMP.     BP Exploration (Caspian Sea) Ltd:  COMPANY
 UWI .                     N/A:  UNIQUE WELL IDENTIFIER
 API .                     N/A:  API NUMBER
 BASE.              Azerbaijan:  LOGGING EQUIPMENT BASE LOCATION
 REGN.                   EESSA:  REGION
 PROV.                    Baku:  PROVINCE
 STAT.                    Baku:  STATE NAME
 CTRY.              Azerbaijan:  COUNTRY NAME
 FLD .                     ACG:  FIELD NAME
 SRVC.     TURAN Drilling & Engineering:  CONTRACTOR
 WELL.                     J27:  WELL NAME
 RIG .             West Chirag:  RIG NAME
 DOE .                     N/A:  DOE NUMBER
 DCON.         Sperry Drilling:  DIRECTNL CONTR
 PDAT.          Mean Sea Level:  PERMANENT DATUM
 WTYP.                Deviated:  WELL TYPE
 MWDS.                    Baku:  MWD SHOP
 JOBN.        AZ-XX-0906571587:  JOB TICKET NUMB
 UNIT.                     N/A:  LOGGING EQUIPMENT ID
 MDS .        Operator Entered:  MAG DATA SOURCE
 CNTY.                        :  COUNTY
 LOC .                        :  LOCATION
 LMF .             Drill Floor:  LOG MEASURED FROM
 TVDS.m                  43.00:  TVDSS CORRECTN
 LATI.deg                40.13:  LATITUDE
 LONG.deg                51.22:  LONGITUDE
 WHNS.m                   7.72:  WELL HEAD N/S
 WHEW.m                 -14.24:  WELL HEAD E/W
 UTMX.m              519005.06:  UTM X
 UTMY.m             4443793.85:  UTM Y
 DFWL.m                   0.00:  DISTANCE FWL
 DFSL.m                   0.00:  DISTANCE FSL
 SDEP.m                 347.00:  START DEPTH
 TDD .m                 581.00:  TOTAL DEPTH (DRILLER)
 VSDR.deg               159.72:  VERT SEC DIRECT
 GVFD.g                   1.00:  GRAVITY FIELD
 MFLD.nT              50318.00:  MAGNETIC FIELD
 MDIP.deg                59.57:  MAGNETIC DIP
 MDEC.deg                 6.44:  MAGNETIC DECL
 GRDC.deg                 0.15:  GRID CORRECTION
 AZTC.deg                 6.29:  AZM TOTAL CORR
 EPD .m                   0.00:  ELEVATION
 EGL .m                   0.00:  GROUND ELEVATION
 WDMS.m                 169.80:  WD ELEV
 APD .m                  43.00:  DEPTH ABOVE PD
 AGAP.m                  43.00:  AIR GAP
 VSEW.m                 -14.24:  VERT SEC E/W
 VSNS.m                   7.72:  VERT SEC N/S
 DEP .m                 342.45:  DEPTH
 EKB .m                   0.00:  KB ELEVATION
 EDF .m                  43.00:  DF ELEVATION
 TDL .m                 237.00:  TOTAL DEPTH (LOGGER)
 VSC .                       0:  VS TO CLOSURE
 MAGU.                 1851428:  MAGUTM CHECKSUM
~Parameter Information Block
#MNEM.UNIT       Value        Description
#---------     -----------    ---------------------------
 AV  .mps                 1.50:  Ann Velocity 
 AVMX.mps                 2.90:  Max Ann Veloc 
 AZIF.deg               115.59:  Azm, Final 
 BHAT.        Rotary Steerable:  BHA Type 
 BROT.°/30m               0.50:  Build Rotating 
 BS  .in                  8.50:  Bit Size 
 BTPL.psig              580.00:  Bit Press Loss 
 CABU.                     Yes:  Customer Abuse 
 COMM.                     lW:  Run Comments 1 
 TCS .hr                 89.79:  Time Ciculation Ended 
 CV  .mps                 3.22:  Crit Velocity 
 CVMX.mps                 4.37:  Max Crit Veloc 
 DD1 .          Rashad Habibov:  Direct Drillr 1 
 DDSV.               Geo-Pilot:  DD Service 
 DEFF.%                  95.00:  % Det Eff 
 DLRX.°/30m               1.94:  Dogleg Rot Max 
 DLSO.°/30m               0.70:  Dogleg Oriented 
 DLSX.°/30m               1.94:  Dogleg Str Max 
 DRET.      04.45.00 25-Dec-20:  Drill End Time 
 DRST.      10.00.00 24-Dec-20:  Drill Start Tim 
 DTIM.hr                 16.64:  Time Drilling 
 EDEP.m                4999.01:  End Depth 
 ENG1.         Elchin Mammadov:  Engineer 1 
 ENG2.          Ruslan Safarov:  Engineer 2 
 ENG3.          Rustam Safarov:  Engineer 3 
 ETIM.      09.00.00 29-Dec-20:  End Time 
 FLOI.gpm               500.00:  Flow In 
 FLON.gpm               400.00:  Flow In Min 
 FLOS.cptm                0.00:  Fluid Loss 
 FLOX.gpm               500.00:  Flow In Max 
 HFLO.                      No:  High Flow 
 HPRE.                      No:  High Pressure 
 HTEM.                      No:  High Temp 
 HYDO.m                   2.00:  Hydro Offset 
 IFIN.deg                66.79:  Inc, Final 
 IMAX.deg                67.66:  Inc Max 
 IMIN.deg                66.39:  Inc Min 
 IMND.m                4949.37:  Inc Min Depth 
 IMXD.m                4778.63:  Inc Max Depth 
 JARR.                     Yes:  Jarring 
 LETM.      04.45.00 25-Dec-20:  Log End Time 
 LOST.hr                     0:  Lost Rig Time 
 LSTM.      10.00.00 24-Dec-20:  Log Start Time 
 MDCL.ppm             39000.00:  Mud Chlorides 
 MDES.     Inversion Oil/Synthetic:  Mud Desc 
 DFD .sg                  1.33:  Mud Density 
 MDMN.sg                  1.33:  Dens Mud Min 
 MDMX.sg                  1.33:  Dens Mud Max 
 MOIL.                      70:  Run Mud Oil % 
 MOWR.                   70:30:  Run Mud OWR 
 MSND.                       0:  Run Mud Sand % 
 MSOL.                    17.4:  Run Mud Solids% 
 DFV .spqt               84.00:  Mud Viscosity 
 MWOD.in                  6.75:  MWD Tool OD 
 MWSI.                     Yes:  Serv Intrp, MWD 
 OTIM.hr                168.14:  Time Operating 
 PCON.           Look Like New:  Pad Condition 
 PMAX.psia            10822.93:  Press Op, Max 
 PV  .cP                 30.00:  Mud PV 
 RUN .                     900:  Run Number 
 ROPA.m/hr               18.00:  ROP Avg 
 ROPN.m/hr               12.00:  ROP Min 
 ROPX.m/hr               25.00:  ROP Max 
 RPMA.rpm               120.00:  RPM Surface Avg 
 RPMN.rpm               100.00:  RPM Surface Min 
 RPMX.rpm               120.00:  RPM Surface Max 
 RRUN.                    0900:  Rig Run Number 
 SAZI.deg               115.08:  Azm, Start 
 SDEP.m                4762.01:  Start Depth 
 SIDD.                      No:  Serv Intrp, DD 
 SINC.deg                66.14:  Inc, Start 
 SPPA.psig             3700.00:  SPP Avg 
 SPPN.psig             3620.00:  SPP Min 
 SPPX.psig             3900.00:  SPP Max 
 STIM.      09.30.00 22-Dec-20:  Start Time 
 SVCS.                 DD, MWD:  Services 
 SVER.                    9.20:  Sperry Version 
 TDAT.m                 237.00:  Tot Depth Attmp 
 TDDF.                      No:  Trip for DD 
 TDLG.m                 237.00:  Tot Depth Loggd 
 TFF .                      No:  Trip for Fail 
 TQAA.f-kp               18.00:  Torque Abs Avg 
 TQAN.f-kp               17.00:  Torque Abs Min 
 TQAX.f-kp               20.00:  Torque Abs Max 
 TRRT.°/30m               0.60:  Turn Rotating 
 MRT .                    HCIM:  Maximum Recorded Temperature 
 TTMX.degC               94.12:  Max Tool Temp 
 VS01.                90627809:  Virtual Str1 SN 
 VS02.                90527813:  Virtual Str2 SN 
 VS03.                90545417:  Virtual Str3 SN 
 VS04.                12460870:  Virtual Str4 SN 
 VS05.                90516706:  Virtual Str5 SN 
 VS06.                90632007:  Virtual Str6 SN 
 WBMN.klb                 0.00:  WOB Min 
 WOBA.klb                14.00:  WOB Avg 
 WOBX.klb                25.00:  WOB Max 
 YP  .lhf2               32.00:  Yield Point 
~Curve Information Block
#MNEM.UNIT                 API CODE     Curve Description
#---------               -----------    ---------------------------
 TIME.HHMMSS            00 000 000 000:  GT Time & Date
 GTDEPTH.m              00 000 000 000:  GT Depth
 GTPQH.psia             00 000 000 000:  GT HR Quartz Pressure
 GTTQ.degC              00 000 000 000:  GT Quartz Temperature
 GTTN.NONE              00 000 000 000:  GT Test Number
 GTET.sec               00 000 000 000:  GT Elapsed Test Time
 GTTVD.m                00 000 000 000:  GT True Vertical Depth
#Other Information
#
#WARRANTY: Halliburton will use its best efforts to furnish customers with 
#accurate information and interpretations that are part of, and incident to, the services 
#provided.  However, Halliburton cannot and does not warrant the accuracy 
#or correctness of such information and interpretations.  Under no circumstances should any 
#such information or interpretation be relied upon as the sole basis for any drilling, 
#completion, production, or financial decision or any procedure involving any risk to the 
#safety of any drilling venture, drilling rig or its crew or any other third party.  The 
#Customer has full responsibility for all drilling, completion and production operation.  
#Halliburton makes no representations or warranties, either expressed or 
#implied, including, but not limited to, the implied warranties of merchantability or fitness 
#for a particular purpose, with respect to the services rendered.  In no event will 
#Halliburton be liable for failure to obtain any particular results or for 
#any damages, including, but not limited to, indirect, special or consequential damages, 
#resulting from the use of any information or interpretation provided by Halliburton.
#
~A           TIME           GTDEPTH  GTPQH  GTTQ  GTTN  GTET   GTTVD  
# ...
   13:37:59.000.25-Dec-2020 4921.01  110.65 66.23 2.00  92.00 2546.48
   13:37:59.200.25-Dec-2020 4921.01  110.65 66.23 2.00  92.20 2546.48
   13:37:59.400.25-Dec-2020 4921.01  111.06 66.23 2.00  92.40 2546.48
   13:37:59.600.25-Dec-2020 4921.01  111.25 66.23 2.00  92.60 2546.48
   13:37:59.800.25-Dec-2020 4921.01  111.45 66.23 2.00  92.80 2546.48
   13:38:00.000.25-Dec-2020 4921.01  111.65 66.23 2.00  93.00 2546.48
   13:38:00.200.25-Dec-2020 4921.01  111.65 66.23 2.00  93.20 2546.48
   13:38:00.400.25-Dec-2020 4921.01  112.21 66.23 2.00  93.40 2546.48
   13:38:00.600.25-Dec-2020 4921.01  112.43 66.23 2.00  93.60 2546.48
   13:38:00.800.25-Dec-2020 4921.01  112.64 66.24 2.00  93.80 2546.48
   13:38:01.000.25-Dec-2020 4921.01  112.83 66.24 2.00  94.00 2546.48
   13:38:01.200.25-Dec-2020 4921.01  113.34 66.24 2.00  94.20 2546.48
   13:38:01.400.25-Dec-2020 4921.01  113.64 66.24 2.00  94.40 2546.48
   13:38:01.600.25-Dec-2020 4921.01  113.86 66.24 2.00  94.60 2546.48
   13:38:01.800.25-Dec-2020 4921.01  114.04 66.24 2.00  94.80 2546.48
   13:38:02.000.25-Dec-2020 4921.01  114.38 66.24 2.00  95.00 2546.48
   13:38:02.200.25-Dec-2020 4921.01  114.38 66.24 2.00  95.20 2546.48
   13:38:02.400.25-Dec-2020 4921.01  114.58 66.24 2.00  95.40 2546.48
   13:38:02.600.25-Dec-2020 4921.01  115.05 66.24 2.00  95.60 2546.48
   13:38:02.800.25-Dec-2020 4921.01  115.28 66.24 2.00  95.80 2546.48
   13:38:03.000.25-Dec-2020 4921.01  115.54 66.24 2.00  96.00 2546.48
   13:38:03.200.25-Dec-2020 4921.01  115.54 66.24 2.00  96.20 2546.48
   13:38:03.400.25-Dec-2020 4921.01  116.07 66.24 2.00  96.40 2546.48
   13:38:03.600.25-Dec-2020 4921.01  116.29 66.24 2.00  96.60 2546.48
   13:38:03.800.25-Dec-2020 4921.01  116.52 66.24 2.00  96.80 2546.48
   13:38:04.000.25-Dec-2020 4921.01  116.73 66.24 2.00  97.00 2546.48
   13:38:04.200.25-Dec-2020 4921.01  116.73 66.24 2.00  97.20 2546.48
   13:38:04.400.25-Dec-2020 4921.01  117.12 66.24 2.00  97.40 2546.48
   13:38:04.600.25-Dec-2020 4921.01  117.32 66.24 2.00  97.60 2546.48
   13:38:04.800.25-Dec-2020 4921.01  117.49 66.24 2.00  97.80 2546.48
   13:38:05.000.25-Dec-2020 4921.01  117.68 66.24 2.00  98.00 2546.48
   13:38:05.200.25-Dec-2020 4921.01  117.86 66.24 2.00  98.20 2546.48
   13:38:05.400.25-Dec-2020 4921.01  118.03 66.24 2.00  98.40 2546.48
   13:38:05.600.25-Dec-2020 4921.01  118.30 66.24 2.00  98.60 2546.48
   13:38:05.800.25-Dec-2020 4921.01  118.50 66.24 2.00  98.80 2546.48
   13:38:06.000.25-Dec-2020 4921.01  118.74 66.24 2.00  99.00 2546.48
   13:38:06.200.25-Dec-2020 4921.01  118.97 66.24 2.00  99.20 2546.48
   13:38:06.400.25-Dec-2020 4921.01  119.19 66.24 2.00  99.40 2546.48
   13:38:06.600.25-Dec-2020 4921.01  119.42 66.24 2.00  99.60 2546.48
   13:38:06.800.25-Dec-2020 4921.01  119.67 66.24 2.00  99.80 2546.48
   13:38:07.000.25-Dec-2020 4921.01  119.95 66.24 2.00 100.00 2546.48
   13:38:07.200.25-Dec-2020 4921.01  119.95 66.24 2.00 100.20 2546.48
   13:38:07.400.25-Dec-2020 4921.01  120.40 66.24 2.00 100.40 2546.48
   13:38:07.600.25-Dec-2020 4921.01  120.63 66.24 2.00 100.60 2546.48
   13:38:07.800.25-Dec-2020 4921.01  120.80 66.24 2.00 100.80 2546.48
   13:38:08.000.25-Dec-2020 4921.01  121.10 66.24 2.00 101.00 2546.48
   13:38:08.200.25-Dec-2020 4921.01  121.10 66.24 2.00 101.20 2546.48
   13:38:08.400.25-Dec-2020 4921.01  121.46 66.24 2.00 101.40 2546.48
   13:38:08.600.25-Dec-2020 4921.01  121.66 66.24 2.00 101.60 2546.48
   13:38:08.800.25-Dec-2020 4921.01  121.91 66.24 2.00 101.80 2546.48
   13:38:09.000.25-Dec-2020 4921.01  122.09 66.24 2.00 102.00 2546.48
   13:38:09.200.25-Dec-2020 4921.01  122.29 66.24 2.00 102.20 2546.48
   13:38:09.400.25-Dec-2020 4921.01  122.48 66.24 2.00 102.40 2546.48
   13:38:09.600.25-Dec-2020 4921.01  122.67 66.24 2.00 102.60 2546.48
   13:38:09.800.25-Dec-2020 4921.01  122.90 66.24 2.00 102.80 2546.48
   13:38:10.000.25-Dec-2020 4921.01  123.09 66.24 2.00 103.00 2546.48
   13:38:10.200.25-Dec-2020 4921.01  123.09 66.24 2.00 103.20 2546.48
   13:38:10.400.25-Dec-2020 4921.01  123.43 66.24 2.00 103.40 2546.48
   13:38:10.600.25-Dec-2020 4921.01  123.66 66.24 2.00 103.60 2546.48
   13:38:10.800.25-Dec-2020 4921.01  123.86 66.24 2.00 103.80 2546.48
   13:38:11.000.25-Dec-2020 4921.01  124.03 66.24 2.00 104.00 2546.48
   13:38:11.200.25-Dec-2020 4921.01  124.03 66.24 2.00 104.20 2546.48
   13:38:11.400.25-Dec-2020 4921.01  124.36 66.24 2.00 104.40 2546.48
   13:38:11.600.25-Dec-2020 4921.01  124.53 66.24 2.00 104.60 2546.48
   13:38:11.800.25-Dec-2020 4921.01  124.69 66.24 2.00 104.80 2546.48
   13:38:12.000.25-Dec-2020 4921.01  124.86 66.24 2.00 105.00 2546.48
   13:38:12.200.25-Dec-2020 4921.01  124.86 66.24 2.00 105.20 2546.48
   13:38:12.400.25-Dec-2020 4921.01  125.18 66.24 2.00 105.40 2546.48
   13:38:12.600.25-Dec-2020 4921.01  125.36 66.24 2.00 105.60 2546.48
   13:38:12.800.25-Dec-2020 4921.01  125.51 66.24 2.00 105.80 2546.48
   13:38:13.000.25-Dec-2020 4921.01  125.74 66.24 2.00 106.00 2546.48
   13:38:13.200.25-Dec-2020 4921.01  125.89 66.24 2.00 106.20 2546.48
   13:38:13.400.25-Dec-2020 4921.01  126.05 66.24 2.00 106.40 2546.48
   13:38:13.600.25-Dec-2020 4921.01  126.22 66.24 2.00 106.60 2546.48
   13:38:13.800.25-Dec-2020 4921.01  126.38 66.24 2.00 106.80 2546.48
   13:38:14.000.25-Dec-2020 4921.01  126.53 66.24 2.00 107.00 2546.48
   13:38:14.200.25-Dec-2020 4921.01  126.69 66.24 2.00 107.20 2546.48
   13:38:14.400.25-Dec-2020 4921.01  126.87 66.24 2.00 107.40 2546.48
   13:38:14.600.25-Dec-2020 4921.01  127.02 66.24 2.00 107.60 2546.48
   13:38:14.800.25-Dec-2020 4921.01  127.18 66.24 2.00 107.80 2546.48
   13:38:15.000.25-Dec-2020 4921.01  127.34 66.24 2.00 108.00 2546.48
   13:38:15.200.25-Dec-2020 4921.01  127.34 66.24 2.00 108.20 2546.48
   13:38:15.400.25-Dec-2020 4921.01  127.73 66.25 2.00 108.40 2546.48
   13:38:15.600.25-Dec-2020 4921.01  127.87 66.25 2.00 108.60 2546.48
   13:38:15.800.25-Dec-2020 4921.01  128.03 66.25 2.00 108.80 2546.48
   13:38:16.000.25-Dec-2020 4921.01  128.20 66.25 2.00 109.00 2546.48
   13:38:16.200.25-Dec-2020 4921.01  128.20 66.25 2.00 109.20 2546.48
   13:38:16.400.25-Dec-2020 4921.01  128.58 66.25 2.00 109.40 2546.48
   13:38:16.600.25-Dec-2020 4921.01  128.73 66.25 2.00 109.60 2546.48
   13:38:16.800.25-Dec-2020 4921.01  128.90 66.25 2.00 109.80 2546.48
   13:38:17.000.25-Dec-2020 4921.01  129.03 66.25 2.00 110.00 2546.48
   13:38:17.200.25-Dec-2020 4921.01  129.31 66.25 2.00 110.20 2546.48
   13:38:17.400.25-Dec-2020 4921.01  129.53 66.25 2.00 110.40 2546.48
   13:38:17.600.25-Dec-2020 4921.01  130.02 66.25 2.00 110.60 2546.48
   13:38:17.800.25-Dec-2020 4921.01  130.32 66.25 2.00 110.80 2546.48
   13:38:18.000.25-Dec-2020 4921.01  130.72 66.25 2.00 111.00 2546.48
   13:38:18.200.25-Dec-2020 4921.01  131.23 66.25 2.00 111.20 2546.48
   13:38:18.400.25-Dec-2020 4921.01  131.44 66.25 2.00 111.40 2546.48
   13:38:18.600.25-Dec-2020 4921.01  131.64 66.25 2.00 111.60 2546.48
   13:38:18.800.25-Dec-2020 4921.01  131.82 66.25 2.00 111.80 2546.48
   13:38:19.000.25-Dec-2020 4921.01  132.00 66.25 2.00 112.00 2546.48
   13:38:19.200.25-Dec-2020 4921.01  132.00 66.25 2.00 112.20 2546.48
   13:38:19.400.25-Dec-2020 4921.01  132.36 66.25 2.00 112.40 2546.48
   13:38:19.600.25-Dec-2020 4921.01  132.52 66.25 2.00 112.60 2546.48
   13:38:19.800.25-Dec-2020 4921.01  132.69 66.25 2.00 112.80 2546.48
   13:38:20.000.25-Dec-2020 4921.01  132.85 66.25 2.00 113.00 2546.48
   13:38:20.200.25-Dec-2020 4921.01  132.85 66.25 2.00 113.20 2546.48
   13:38:20.400.25-Dec-2020 4921.01  133.25 66.25 2.00 113.40 2546.48
   13:38:20.600.25-Dec-2020 4921.01  133.41 66.25 2.00 113.60 2546.48
   13:38:20.800.25-Dec-2020 4921.01  133.57 66.25 2.00 113.80 2546.48
   13:38:21.000.25-Dec-2020 4921.01  133.72 66.25 2.00 114.00 2546.48
   13:38:21.200.25-Dec-2020 4921.01  133.89 66.25 2.00 114.20 2546.48
   13:38:21.400.25-Dec-2020 4921.01  134.05 66.25 2.00 114.40 2546.48
   13:38:21.600.25-Dec-2020 4921.01  134.22 66.25 2.00 114.60 2546.48
   13:38:21.800.25-Dec-2020 4921.01  134.38 66.25 2.00 114.80 2546.48
