~Version Information
 VERS.                  2.0:   CWLS log ASCII Standard -VERSION 2.0
 WRAP.                   NO:   One line per depth step
~Well Information Block
#MNEM.UNIT     VALUE/NAME     DESCRIPTION
#---------     -----------    ---------------------------
 STRT.S             12:53:37 25-Dec-20: START TIME 12:53:37 25-Dec-20
 STOP.S             13:01:52 25-Dec-20: STOP TIME  13:01:52 25-Dec-20
 STEP.S                   0.00: STEP TIME
 NULL.                 -999.25: NULL VALUE
 DFWT.                        :  DIST FWL TEXT
 DFST.                        :  DIST FSL TEXT
 DMF .             Drill Floor:  DRILL MEAS FROM
 STIM.      04.54.24 22-Sep-20:  START TIME
 DATE.      04.54.24 21-Nov-20:  END TIME
 SPUD.               21-Nov-20:  SPUD DATE
 NREF.                    Grid:  NORTH REFERENCE
 HPTY.       Minimum Curvature:  HOLE POS TYPE
 DMOD.             Drill Model:  DRILL MOD DESC
 SVYD.                  Survey:  SURVEY DESC
 ILTD.               Lithology:  INTERP LTH DESC
 FTOP.          Formation Tops:  FORM TOPS DESC
 SON .        AZ-XX-0906571587:  JOB NUMBER
 COMP.     BP Exploration (Caspian Sea) Ltd:  COMPANY
 UWI .                     N/A:  UNIQUE WELL IDENTIFIER
 API .                     N/A:  API NUMBER
 BASE.              Azerbaijan:  LOGGING EQUIPMENT BASE LOCATION
 REGN.                   EESSA:  REGION
 PROV.                    Baku:  PROVINCE
 STAT.                    Baku:  STATE NAME
 CTRY.              Azerbaijan:  COUNTRY NAME
 FLD .                     ACG:  FIELD NAME
 SRVC.     TURAN Drilling & Engineering:  CONTRACTOR
 WELL.                     J27:  WELL NAME
 RIG .             West Chirag:  RIG NAME
 DOE .                     N/A:  DOE NUMBER
 DCON.         Sperry Drilling:  DIRECTNL CONTR
 PDAT.          Mean Sea Level:  PERMANENT DATUM
 WTYP.                Deviated:  WELL TYPE
 MWDS.                    Baku:  MWD SHOP
 JOBN.        AZ-XX-0906571587:  JOB TICKET NUMB
 UNIT.                     N/A:  LOGGING EQUIPMENT ID
 MDS .        Operator Entered:  MAG DATA SOURCE
 CNTY.                        :  COUNTY
 LOC .                        :  LOCATION
 LMF .             Drill Floor:  LOG MEASURED FROM
 TVDS.m                  43.00:  TVDSS CORRECTN
 LATI.deg                40.13:  LATITUDE
 LONG.deg                51.22:  LONGITUDE
 WHNS.m                   7.72:  WELL HEAD N/S
 WHEW.m                 -14.24:  WELL HEAD E/W
 UTMX.m              519005.06:  UTM X
 UTMY.m             4443793.85:  UTM Y
 DFWL.m                   0.00:  DISTANCE FWL
 DFSL.m                   0.00:  DISTANCE FSL
 SDEP.m                 347.00:  START DEPTH
 TDD .m                 581.00:  TOTAL DEPTH (DRILLER)
 VSDR.deg               159.72:  VERT SEC DIRECT
 GVFD.g                   1.00:  GRAVITY FIELD
 MFLD.nT              50318.00:  MAGNETIC FIELD
 MDIP.deg                59.57:  MAGNETIC DIP
 MDEC.deg                 6.44:  MAGNETIC DECL
 GRDC.deg                 0.15:  GRID CORRECTION
 AZTC.deg                 6.29:  AZM TOTAL CORR
 EPD .m                   0.00:  ELEVATION
 EGL .m                   0.00:  GROUND ELEVATION
 WDMS.m                 169.80:  WD ELEV
 APD .m                  43.00:  DEPTH ABOVE PD
 AGAP.m                  43.00:  AIR GAP
 VSEW.m                 -14.24:  VERT SEC E/W
 VSNS.m                   7.72:  VERT SEC N/S
 DEP .m                 342.45:  DEPTH
 EKB .m                   0.00:  KB ELEVATION
 EDF .m                  43.00:  DF ELEVATION
 TDL .m                 237.00:  TOTAL DEPTH (LOGGER)
 VSC .                       0:  VS TO CLOSURE
 MAGU.                 1851428:  MAGUTM CHECKSUM
~Parameter Information Block
#MNEM.UNIT       Value        Description
#---------     -----------    ---------------------------
 AV  .mps                 1.50:  Ann Velocity 
 AVMX.mps                 2.90:  Max Ann Veloc 
 AZIF.deg               115.59:  Azm, Final 
 BHAT.        Rotary Steerable:  BHA Type 
 BROT.°/30m               0.50:  Build Rotating 
 BS  .in                  8.50:  Bit Size 
 BTPL.psig              580.00:  Bit Press Loss 
 CABU.                     Yes:  Customer Abuse 
 COMM.                     LÓw:  Run Comments 1 
 TCS .hr                 89.79:  Time Ciculation Ended 
 CV  .mps                 3.22:  Crit Velocity 
 CVMX.mps                 4.37:  Max Crit Veloc 
 DD1 .          Rashad Habibov:  Direct Drillr 1 
 DDSV.               Geo-Pilot:  DD Service 
 DEFF.%                  95.00:  % Det Eff 
 DLRX.°/30m               1.94:  Dogleg Rot Max 
 DLSO.°/30m               0.70:  Dogleg Oriented 
 DLSX.°/30m               1.94:  Dogleg Str Max 
 DRET.      04.45.00 25-Dec-20:  Drill End Time 
 DRST.      10.00.00 24-Dec-20:  Drill Start Tim 
 DTIM.hr                 16.64:  Time Drilling 
 EDEP.m                4999.01:  End Depth 
 ENG1.         Elchin Mammadov:  Engineer 1 
 ENG2.          Ruslan Safarov:  Engineer 2 
 ENG3.          Rustam Safarov:  Engineer 3 
 ETIM.      09.00.00 29-Dec-20:  End Time 
 FLOI.gpm               500.00:  Flow In 
 FLON.gpm               400.00:  Flow In Min 
 FLOS.cptm                0.00:  Fluid Loss 
 FLOX.gpm               500.00:  Flow In Max 
 HFLO.                      No:  High Flow 
 HPRE.                      No:  High Pressure 
 HTEM.                      No:  High Temp 
 HYDO.m                   2.00:  Hydro Offset 
 IFIN.deg                66.79:  Inc, Final 
 IMAX.deg                67.66:  Inc Max 
 IMIN.deg                66.39:  Inc Min 
 IMND.m                4949.37:  Inc Min Depth 
 IMXD.m                4778.63:  Inc Max Depth 
 JARR.                     Yes:  Jarring 
 LETM.      04.45.00 25-Dec-20:  Log End Time 
 LOST.hr                     0:  Lost Rig Time 
 LSTM.      10.00.00 24-Dec-20:  Log Start Time 
 MDCL.ppm             39000.00:  Mud Chlorides 
 MDES.     Inversion Oil/Synthetic:  Mud Desc 
 DFD .sg                  1.33:  Mud Density 
 MDMN.sg                  1.33:  Dens Mud Min 
 MDMX.sg                  1.33:  Dens Mud Max 
 MOIL.                      70:  Run Mud Oil % 
 MOWR.                   70:30:  Run Mud OWR 
 MSND.                       0:  Run Mud Sand % 
 MSOL.                    17.4:  Run Mud Solids% 
 DFV .spqt               84.00:  Mud Viscosity 
 MWOD.in                  6.75:  MWD Tool OD 
 MWSI.                     Yes:  Serv Intrp, MWD 
 OTIM.hr                168.14:  Time Operating 
 PCON.           Look Like New:  Pad Condition 
 PMAX.psia            10822.93:  Press Op, Max 
 PV  .cP                 30.00:  Mud PV 
 RUN .                     900:  Run Number 
 ROPA.m/hr               18.00:  ROP Avg 
 ROPN.m/hr               12.00:  ROP Min 
 ROPX.m/hr               25.00:  ROP Max 
 RPMA.rpm               120.00:  RPM Surface Avg 
 RPMN.rpm               100.00:  RPM Surface Min 
 RPMX.rpm               120.00:  RPM Surface Max 
 RRUN.                    0900:  Rig Run Number 
 SAZI.deg               115.08:  Azm, Start 
 SDEP.m                4762.01:  Start Depth 
 SIDD.                      No:  Serv Intrp, DD 
 SINC.deg                66.14:  Inc, Start 
 SPPA.psig             3700.00:  SPP Avg 
 SPPN.psig             3620.00:  SPP Min 
 SPPX.psig             3900.00:  SPP Max 
 STIM.      09.30.00 22-Dec-20:  Start Time 
 SVCS.                 DD, MWD:  Services 
 SVER.                    9.20:  Sperry Version 
 TDAT.m                 237.00:  Tot Depth Attmp 
 TDDF.                      No:  Trip for DD 
 TDLG.m                 237.00:  Tot Depth Loggd 
 TFF .                      No:  Trip for Fail 
 TQAA.f-kp               18.00:  Torque Abs Avg 
 TQAN.f-kp               17.00:  Torque Abs Min 
 TQAX.f-kp               20.00:  Torque Abs Max 
 TRRT.°/30m               0.60:  Turn Rotating 
 MRT .                    HCIM:  Maximum Recorded Temperature 
 TTMX.degC               94.12:  Max Tool Temp 
 VS01.                90627809:  Virtual Str1 SN 
 VS02.                90527813:  Virtual Str2 SN 
 VS03.                90545417:  Virtual Str3 SN 
 VS04.                12460870:  Virtual Str4 SN 
 VS05.                90516706:  Virtual Str5 SN 
 VS06.                90632007:  Virtual Str6 SN 
 WBMN.klb                 0.00:  WOB Min 
 WOBA.klb                14.00:  WOB Avg 
 WOBX.klb                25.00:  WOB Max 
 YP  .lhf2               32.00:  Yield Point 
~Curve Information Block
#MNEM.UNIT                 API CODE     Curve Description
#---------               -----------    ---------------------------
 TIME.HHMMSS            00 000 000 000:  GT Time & Date
 GTDEPTH.m              00 000 000 000:  GT Depth
 GTPQH.psia             00 000 000 000:  GT HR Quartz Pressure
 GTTQ.degC              00 000 000 000:  GT Quartz Temperature
 GTTN.NONE              00 000 000 000:  GT Test Number
 GTET.sec               00 000 000 000:  GT Elapsed Test Time
 GTTVD.m                00 000 000 000:  GT True Vertical Depth
#Other Information
#
#WARRANTY: Halliburton will use its best efforts to furnish customers with 
#accurate information and interpretations that are part of, and incident to, the services 
#provided.  However, Halliburton cannot and does not warrant the accuracy 
#or correctness of such information and interpretations.  Under no circumstances should any 
#such information or interpretation be relied upon as the sole basis for any drilling, 
#completion, production, or financial decision or any procedure involving any risk to the 
#safety of any drilling venture, drilling rig or its crew or any other third party.  The 
#Customer has full responsibility for all drilling, completion and production operation.  
#Halliburton makes no representations or warranties, either expressed or 
#implied, including, but not limited to, the implied warranties of merchantability or fitness 
#for a particular purpose, with respect to the services rendered.  In no event will 
#Halliburton be liable for failure to obtain any particular results or for 
#any damages, including, but not limited to, indirect, special or consequential damages, 
#resulting from the use of any information or interpretation provided by Halliburton.
#
~A           TIME           GTDEPTH  GTPQH  GTTQ  GTTN  GTET   GTTVD  
# ...
   12:55:55.247.25-Dec-2020 4950.51 2089.61 66.64 1.00 138.06 2558.08
   12:55:55.447.25-Dec-2020 4950.51 2089.61 66.64 1.00 138.26 2558.08
   12:55:55.647.25-Dec-2020 4950.51 2089.56 66.64 1.00 138.46 2558.08
   12:55:55.847.25-Dec-2020 4950.51 2089.15 66.64 1.00 138.66 2558.08
   12:55:56.047.25-Dec-2020 4950.51 2089.93 66.64 1.00 138.86 2558.08
   12:55:56.247.25-Dec-2020 4950.51 2089.50 66.64 1.00 139.06 2558.08
   12:55:56.447.25-Dec-2020 4950.51 2089.50 66.64 1.00 139.26 2558.08
   12:55:56.647.25-Dec-2020 4950.51 2089.73 66.64 1.00 139.46 2558.08
   12:55:56.848.25-Dec-2020 4950.51 2089.79 66.64 1.00 139.66 2558.08
   12:55:57.048.25-Dec-2020 4950.51 2089.60 66.64 1.00 139.86 2558.08
   12:55:57.248.25-Dec-2020 4950.51 2089.68 66.64 1.00 140.06 2558.08
   12:55:57.448.25-Dec-2020 4950.51 2089.68 66.64 1.00 140.26 2558.08
   12:55:57.648.25-Dec-2020 4950.51 2089.66 66.64 1.00 140.46 2558.08
   12:55:57.848.25-Dec-2020 4950.51 2089.65 66.64 1.00 140.66 2558.08
   12:55:58.048.25-Dec-2020 4950.51 2089.72 66.64 1.00 140.86 2558.08
   12:55:58.248.25-Dec-2020 4950.51 2089.71 66.64 1.00 141.06 2558.08
   12:55:58.448.25-Dec-2020 4950.51 2089.71 66.64 1.00 141.26 2558.08
   12:55:58.648.25-Dec-2020 4950.51 2089.91 66.64 1.00 141.46 2558.08
   12:55:58.848.25-Dec-2020 4950.51 2089.86 66.64 1.00 141.66 2558.08
   12:55:59.049.25-Dec-2020 4950.51 2089.20 66.64 1.00 141.86 2558.08
   12:55:59.249.25-Dec-2020 4950.51 2090.20 66.64 1.00 142.06 2558.08
   12:55:59.449.25-Dec-2020 4950.51 2089.71 66.64 1.00 142.26 2558.08
   12:55:59.649.25-Dec-2020 4950.51 2089.21 66.64 1.00 142.46 2558.08
   12:55:59.849.25-Dec-2020 4950.51 2090.38 66.64 1.00 142.66 2558.08
   12:56:00.049.25-Dec-2020 4950.51 2089.51 66.64 1.00 142.86 2558.08
   12:56:00.249.25-Dec-2020 4950.51 2089.15 66.64 1.00 143.06 2558.08
   12:56:00.449.25-Dec-2020 4950.51 2089.15 66.64 1.00 143.26 2558.08
   12:56:00.649.25-Dec-2020 4950.51 2090.03 66.64 1.00 143.46 2558.08
   12:56:00.849.25-Dec-2020 4950.51 2089.74 66.64 1.00 143.66 2558.08
   12:56:01.049.25-Dec-2020 4950.51 2089.75 66.64 1.00 143.86 2558.08
   12:56:01.250.25-Dec-2020 4950.51 2089.76 66.64 1.00 144.06 2558.08
   12:56:01.450.25-Dec-2020 4950.51 2089.76 66.64 1.00 144.27 2558.08
   12:56:01.650.25-Dec-2020 4950.51 2089.64 66.64 1.00 144.47 2558.08
   12:56:01.850.25-Dec-2020 4950.51 2089.68 66.64 1.00 144.67 2558.08
   12:56:02.050.25-Dec-2020 4950.51 2089.72 66.64 1.00 144.87 2558.08
   12:56:02.250.25-Dec-2020 4950.51 2089.62 66.64 1.00 145.07 2558.08
   12:56:02.450.25-Dec-2020 4950.51 2089.62 66.64 1.00 145.27 2558.08
   12:56:02.650.25-Dec-2020 4950.51 2089.24 66.64 1.00 145.47 2558.08
   12:56:02.850.25-Dec-2020 4950.51 2090.02 66.64 1.00 145.67 2558.08
   12:56:03.050.25-Dec-2020 4950.51 2089.69 66.64 1.00 145.87 2558.08
   12:56:03.250.25-Dec-2020 4950.51 2089.83 66.64 1.00 146.07 2558.08
   12:56:03.450.25-Dec-2020 4950.51 2089.83 66.64 1.00 146.27 2558.08
   12:56:03.651.25-Dec-2020 4950.51 2089.95 66.64 1.00 146.47 2558.08
   12:56:03.851.25-Dec-2020 4950.51 2089.74 66.64 1.00 146.67 2558.08
   12:56:04.051.25-Dec-2020 4950.51 2089.84 66.64 1.00 146.87 2558.08
   12:56:04.251.25-Dec-2020 4950.51 2089.81 66.64 1.00 147.07 2558.08
   12:56:04.451.25-Dec-2020 4950.51 2089.81 66.64 1.00 147.27 2558.08
   12:56:04.651.25-Dec-2020 4950.51 2089.72 66.64 1.00 147.47 2558.08
   12:56:04.851.25-Dec-2020 4950.51 2089.70 66.64 1.00 147.67 2558.08
   12:56:05.051.25-Dec-2020 4950.51 2089.73 66.64 1.00 147.87 2558.08
   12:56:05.251.25-Dec-2020 4950.51 2089.42 66.64 1.00 148.07 2558.08
   12:56:05.451.25-Dec-2020 4950.51 2089.42 66.64 1.00 148.27 2558.08
   12:56:05.651.25-Dec-2020 4950.51 2090.00 66.64 1.00 148.47 2558.08
   12:56:05.852.25-Dec-2020 4950.51 2089.17 66.64 1.00 148.67 2558.08
   12:56:06.052.25-Dec-2020 4950.51 2090.24 66.64 1.00 148.87 2558.08
   12:56:06.252.25-Dec-2020 4950.51 2089.72 66.64 1.00 149.07 2558.08
   12:56:06.452.25-Dec-2020 4950.51 2089.72 66.64 1.00 149.27 2558.08
   12:56:06.652.25-Dec-2020 4950.51 2090.54 66.64 1.00 149.47 2558.08
   12:56:06.852.25-Dec-2020 4950.51 2089.62 66.64 1.00 149.67 2558.08
   12:56:07.052.25-Dec-2020 4950.51 2089.38 66.64 1.00 149.87 2558.08
   12:56:07.252.25-Dec-2020 4950.51 2090.55 66.64 1.00 150.07 2558.08
   12:56:07.452.25-Dec-2020 4950.51 2090.55 66.64 1.00 150.27 2558.08
   12:56:07.652.25-Dec-2020 4950.51 2090.04 66.64 1.00 150.47 2558.08
   12:56:07.852.25-Dec-2020 4950.51 2089.79 66.64 1.00 150.67 2558.08
   12:56:08.053.25-Dec-2020 4950.51 2089.79 66.64 1.00 150.87 2558.08
   12:56:08.253.25-Dec-2020 4950.51 2089.87 66.64 1.00 151.07 2558.08
   12:56:08.453.25-Dec-2020 4950.51 2089.87 66.64 1.00 151.27 2558.08
   12:56:08.653.25-Dec-2020 4950.51 2089.85 66.64 1.00 151.47 2558.08
   12:56:08.853.25-Dec-2020 4950.51 2089.76 66.64 1.00 151.67 2558.08
   12:56:09.053.25-Dec-2020 4950.51 2089.76 66.64 1.00 151.87 2558.08
   12:56:09.253.25-Dec-2020 4950.51 2089.77 66.64 1.00 152.07 2558.08
   12:56:09.453.25-Dec-2020 4950.51 2089.77 66.64 1.00 152.27 2558.08
   12:56:09.653.25-Dec-2020 4950.51 2090.06 66.64 1.00 152.47 2558.08
   12:56:09.853.25-Dec-2020 4950.51 2089.64 66.64 1.00 152.67 2558.08
   12:56:10.053.25-Dec-2020 4950.51 2090.06 66.64 1.00 152.87 2558.08
   12:56:10.254.25-Dec-2020 4950.51 2089.93 66.64 1.00 153.07 2558.08
   12:56:10.454.25-Dec-2020 4950.51 2089.93 66.64 1.00 153.27 2558.08
   12:56:10.654.25-Dec-2020 4950.51 2089.85 66.64 1.00 153.47 2558.08
   12:56:10.854.25-Dec-2020 4950.51 2089.92 66.64 1.00 153.67 2558.08
   12:56:11.054.25-Dec-2020 4950.51 2089.91 66.64 1.00 153.87 2558.08
   12:56:11.254.25-Dec-2020 4950.51 2089.87 66.64 1.00 154.07 2558.08
   12:56:11.454.25-Dec-2020 4950.51 2089.87 66.64 1.00 154.27 2558.08
   12:56:11.654.25-Dec-2020 4950.51 2089.96 66.64 1.00 154.47 2558.08
   12:56:11.854.25-Dec-2020 4950.51 2089.84 66.64 1.00 154.67 2558.08
   12:56:12.054.25-Dec-2020 4950.51 2089.56 66.64 1.00 154.87 2558.08
   12:56:12.254.25-Dec-2020 4950.51 2090.10 66.64 1.00 155.07 2558.08
   12:56:12.455.25-Dec-2020 4950.51 2090.10 66.64 1.00 155.27 2558.08
   12:56:12.655.25-Dec-2020 4950.51 2089.40 66.64 1.00 155.47 2558.08
   12:56:12.855.25-Dec-2020 4950.51 2090.35 66.64 1.00 155.67 2558.08
   12:56:13.055.25-Dec-2020 4950.51 2089.81 66.64 1.00 155.87 2558.08
   12:56:13.255.25-Dec-2020 4950.51 2089.39 66.64 1.00 156.07 2558.08
   12:56:13.455.25-Dec-2020 4950.51 2089.39 66.64 1.00 156.27 2558.08
   12:56:13.655.25-Dec-2020 4950.51 2089.68 66.64 1.00 156.47 2558.08
   12:56:13.855.25-Dec-2020 4950.51 2089.37 66.64 1.00 156.67 2558.08
   12:56:14.055.25-Dec-2020 4950.51 2090.61 66.64 1.00 156.87 2558.08
   12:56:14.255.25-Dec-2020 4950.51 2090.29 66.64 1.00 157.07 2558.08
   12:56:14.455.25-Dec-2020 4950.51 2090.29 66.64 1.00 157.27 2558.08
   12:56:14.656.25-Dec-2020 4950.51 2089.91 66.64 1.00 157.47 2558.08
   12:56:14.856.25-Dec-2020 4950.51 2089.90 66.64 1.00 157.67 2558.08
   12:56:15.056.25-Dec-2020 4950.51 2089.97 66.63 1.00 157.87 2558.08
   12:56:15.256.25-Dec-2020 4950.51 2089.87 66.64 1.00 158.07 2558.08
   12:56:15.456.25-Dec-2020 4950.51 2089.87 66.64 1.00 158.27 2558.08
   12:56:15.656.25-Dec-2020 4950.51 2089.91 66.63 1.00 158.47 2558.08
   12:56:15.856.25-Dec-2020 4950.51 2089.78 66.63 1.00 158.67 2558.08
   12:56:16.056.25-Dec-2020 4950.51 2089.93 66.63 1.00 158.87 2558.08
   12:56:16.256.25-Dec-2020 4950.51 2089.38 66.63 1.00 159.07 2558.08
   12:56:16.456.25-Dec-2020 4950.51 2089.38 66.63 1.00 159.27 2558.08
   12:56:16.656.25-Dec-2020 4950.51 2089.84 66.63 1.00 159.47 2558.08
   12:56:16.857.25-Dec-2020 4950.51 2090.09 66.63 1.00 159.67 2558.08
   12:56:17.057.25-Dec-2020 4950.51 2090.11 66.63 1.00 159.87 2558.08
   12:56:17.257.25-Dec-2020 4950.51 2090.13 66.63 1.00 160.07 2558.08
   12:56:17.457.25-Dec-2020 4950.51 2090.13 66.63 1.00 160.27 2558.08
   12:56:17.657.25-Dec-2020 4950.51 2089.99 66.63 1.00 160.47 2558.08
   12:56:17.857.25-Dec-2020 4950.51 2089.93 66.63 1.00 160.67 2558.08
   12:56:18.057.25-Dec-2020 4950.51 2089.94 66.63 1.00 160.87 2558.08
