~Version Information
 VERS.                  2.0:   CWLS log ASCII Standard -VERSION 2.0
 WRAP.                   NO:   One line per depth step
~Well Information Block
#MNEM.UNIT     VALUE/NAME     DESCRIPTION
#---------     -----------    ---------------------------
 STRT.S             12:53:37 25-Dec-20: START TIME 12:53:37 25-Dec-20
 STOP.S             13:01:52 25-Dec-20: STOP TIME  13:01:52 25-Dec-20
 STEP.S                   0.00: STEP TIME
 NULL.                 -999.25: NULL VALUE
 DFWT.                        :  DIST FWL TEXT
 DFST.                        :  DIST FSL TEXT
 DMF .             Drill Floor:  DRILL MEAS FROM
 STIM.      04.54.24 22-Sep-20:  START TIME
 DATE.      04.54.24 21-Nov-20:  END TIME
 SPUD.               21-Nov-20:  SPUD DATE
 NREF.                    Grid:  NORTH REFERENCE
 HPTY.       Minimum Curvature:  HOLE POS TYPE
 DMOD.             Drill Model:  DRILL MOD DESC
 SVYD.                  Survey:  SURVEY DESC
 ILTD.               Lithology:  INTERP LTH DESC
 FTOP.          Formation Tops:  FORM TOPS DESC
 SON .        AZ-XX-0906571587:  JOB NUMBER
 COMP.     BP Exploration (Caspian Sea) Ltd:  COMPANY
 UWI .                     N/A:  UNIQUE WELL IDENTIFIER
 API .                     N/A:  API NUMBER
 BASE.              Azerbaijan:  LOGGING EQUIPMENT BASE LOCATION
 REGN.                   EESSA:  REGION
 PROV.                    Baku:  PROVINCE
 STAT.                    Baku:  STATE NAME
 CTRY.              Azerbaijan:  COUNTRY NAME
 FLD .                     ACG:  FIELD NAME
 SRVC.     TURAN Drilling & Engineering:  CONTRACTOR
 WELL.                     J27:  WELL NAME
 RIG .             West Chirag:  RIG NAME
 DOE .                     N/A:  DOE NUMBER
 DCON.         Sperry Drilling:  DIRECTNL CONTR
 PDAT.          Mean Sea Level:  PERMANENT DATUM
 WTYP.                Deviated:  WELL TYPE
 MWDS.                    Baku:  MWD SHOP
 JOBN.        AZ-XX-0906571587:  JOB TICKET NUMB
 UNIT.                     N/A:  LOGGING EQUIPMENT ID
 MDS .        Operator Entered:  MAG DATA SOURCE
 CNTY.                        :  COUNTY
 LOC .                        :  LOCATION
 LMF .             Drill Floor:  LOG MEASURED FROM
 TVDS.m                  43.00:  TVDSS CORRECTN
 LATI.deg                40.13:  LATITUDE
 LONG.deg                51.22:  LONGITUDE
 WHNS.m                   7.72:  WELL HEAD N/S
 WHEW.m                 -14.24:  WELL HEAD E/W
 UTMX.m              519005.06:  UTM X
 UTMY.m             4443793.85:  UTM Y
 DFWL.m                   0.00:  DISTANCE FWL
 DFSL.m                   0.00:  DISTANCE FSL
 SDEP.m                 347.00:  START DEPTH
 TDD .m                 581.00:  TOTAL DEPTH (DRILLER)
 VSDR.deg               159.72:  VERT SEC DIRECT
 GVFD.g                   1.00:  GRAVITY FIELD
 MFLD.nT              50318.00:  MAGNETIC FIELD
 MDIP.deg                59.57:  MAGNETIC DIP
 MDEC.deg                 6.44:  MAGNETIC DECL
 GRDC.deg                 0.15:  GRID CORRECTION
 AZTC.deg                 6.29:  AZM TOTAL CORR
 EPD .m                   0.00:  ELEVATION
 EGL .m                   0.00:  GROUND ELEVATION
 WDMS.m                 169.80:  WD ELEV
 APD .m                  43.00:  DEPTH ABOVE PD
 AGAP.m                  43.00:  AIR GAP
 VSEW.m                 -14.24:  VERT SEC E/W
 VSNS.m                   7.72:  VERT SEC N/S
 DEP .m                 342.45:  DEPTH
 EKB .m                   0.00:  KB ELEVATION
 EDF .m                  43.00:  DF ELEVATION
 TDL .m                 237.00:  TOTAL DEPTH (LOGGER)
 VSC .                       0:  VS TO CLOSURE
 MAGU.                 1851428:  MAGUTM CHECKSUM
~Parameter Information Block
#MNEM.UNIT       Value        Description
#---------     -----------    ---------------------------
 AV  .mps                 1.50:  Ann Velocity 
 AVMX.mps                 2.90:  Max Ann Veloc 
 AZIF.deg               115.59:  Azm, Final 
 BHAT.        Rotary Steerable:  BHA Type 
 BROT.°/30m               0.50:  Build Rotating 
 BS  .in                  8.50:  Bit Size 
 BTPL.psig              580.00:  Bit Press Loss 
 CABU.                     Yes:  Customer Abuse 
 COMM.                     LÓw:  Run Comments 1 
 TCS .hr                 89.79:  Time Ciculation Ended 
 CV  .mps                 3.22:  Crit Velocity 
 CVMX.mps                 4.37:  Max Crit Veloc 
 DD1 .          Rashad Habibov:  Direct Drillr 1 
 DDSV.               Geo-Pilot:  DD Service 
 DEFF.%                  95.00:  % Det Eff 
 DLRX.°/30m               1.94:  Dogleg Rot Max 
 DLSO.°/30m               0.70:  Dogleg Oriented 
 DLSX.°/30m               1.94:  Dogleg Str Max 
 DRET.      04.45.00 25-Dec-20:  Drill End Time 
 DRST.      10.00.00 24-Dec-20:  Drill Start Tim 
 DTIM.hr                 16.64:  Time Drilling 
 EDEP.m                4999.01:  End Depth 
 ENG1.         Elchin Mammadov:  Engineer 1 
 ENG2.          Ruslan Safarov:  Engineer 2 
 ENG3.          Rustam Safarov:  Engineer 3 
 ETIM.      09.00.00 29-Dec-20:  End Time 
 FLOI.gpm               500.00:  Flow In 
 FLON.gpm               400.00:  Flow In Min 
 FLOS.cptm                0.00:  Fluid Loss 
 FLOX.gpm               500.00:  Flow In Max 
 HFLO.                      No:  High Flow 
 HPRE.                      No:  High Pressure 
 HTEM.                      No:  High Temp 
 HYDO.m                   2.00:  Hydro Offset 
 IFIN.deg                66.79:  Inc, Final 
 IMAX.deg                67.66:  Inc Max 
 IMIN.deg                66.39:  Inc Min 
 IMND.m                4949.37:  Inc Min Depth 
 IMXD.m                4778.63:  Inc Max Depth 
 JARR.                     Yes:  Jarring 
 LETM.      04.45.00 25-Dec-20:  Log End Time 
 LOST.hr                     0:  Lost Rig Time 
 LSTM.      10.00.00 24-Dec-20:  Log Start Time 
 MDCL.ppm             39000.00:  Mud Chlorides 
 MDES.     Inversion Oil/Synthetic:  Mud Desc 
 DFD .sg                  1.33:  Mud Density 
 MDMN.sg                  1.33:  Dens Mud Min 
 MDMX.sg                  1.33:  Dens Mud Max 
 MOIL.                      70:  Run Mud Oil % 
 MOWR.                   70:30:  Run Mud OWR 
 MSND.                       0:  Run Mud Sand % 
 MSOL.                    17.4:  Run Mud Solids% 
 DFV .spqt               84.00:  Mud Viscosity 
 MWOD.in                  6.75:  MWD Tool OD 
 MWSI.                     Yes:  Serv Intrp, MWD 
 OTIM.hr                168.14:  Time Operating 
 PCON.           Look Like New:  Pad Condition 
 PMAX.psia            10822.93:  Press Op, Max 
 PV  .cP                 30.00:  Mud PV 
 RUN .                     900:  Run Number 
 ROPA.m/hr               18.00:  ROP Avg 
 ROPN.m/hr               12.00:  ROP Min 
 ROPX.m/hr               25.00:  ROP Max 
 RPMA.rpm               120.00:  RPM Surface Avg 
 RPMN.rpm               100.00:  RPM Surface Min 
 RPMX.rpm               120.00:  RPM Surface Max 
 RRUN.                    0900:  Rig Run Number 
 SAZI.deg               115.08:  Azm, Start 
 SDEP.m                4762.01:  Start Depth 
 SIDD.                      No:  Serv Intrp, DD 
 SINC.deg                66.14:  Inc, Start 
 SPPA.psig             3700.00:  SPP Avg 
 SPPN.psig             3620.00:  SPP Min 
 SPPX.psig             3900.00:  SPP Max 
 STIM.      09.30.00 22-Dec-20:  Start Time 
 SVCS.                 DD, MWD:  Services 
 SVER.                    9.20:  Sperry Version 
 TDAT.m                 237.00:  Tot Depth Attmp 
 TDDF.                      No:  Trip for DD 
 TDLG.m                 237.00:  Tot Depth Loggd 
 TFF .                      No:  Trip for Fail 
 TQAA.f-kp               18.00:  Torque Abs Avg 
 TQAN.f-kp               17.00:  Torque Abs Min 
 TQAX.f-kp               20.00:  Torque Abs Max 
 TRRT.°/30m               0.60:  Turn Rotating 
 MRT .                    HCIM:  Maximum Recorded Temperature 
 TTMX.degC               94.12:  Max Tool Temp 
 VS01.                90627809:  Virtual Str1 SN 
 VS02.                90527813:  Virtual Str2 SN 
 VS03.                90545417:  Virtual Str3 SN 
 VS04.                12460870:  Virtual Str4 SN 
 VS05.                90516706:  Virtual Str5 SN 
 VS06.                90632007:  Virtual Str6 SN 
 WBMN.klb                 0.00:  WOB Min 
 WOBA.klb                14.00:  WOB Avg 
 WOBX.klb                25.00:  WOB Max 
 YP  .lhf2               32.00:  Yield Point 
~Curve Information Block
#MNEM.UNIT                 API CODE     Curve Description
#---------               -----------    ---------------------------
 TIME.HHMMSS            00 000 000 000:  GT Time & Date
 GTDEPTH.m              00 000 000 000:  GT Depth
 GTPQH.psia             00 000 000 000:  GT HR Quartz Pressure
 GTTQ.degC              00 000 000 000:  GT Quartz Temperature
 GTTN.NONE              00 000 000 000:  GT Test Number
 GTET.sec               00 000 000 000:  GT Elapsed Test Time
 GTTVD.m                00 000 000 000:  GT True Vertical Depth
#Other Information
#
#WARRANTY: Halliburton will use its best efforts to furnish customers with 
#accurate information and interpretations that are part of, and incident to, the services 
#provided.  However, Halliburton cannot and does not warrant the accuracy 
#or correctness of such information and interpretations.  Under no circumstances should any 
#such information or interpretation be relied upon as the sole basis for any drilling, 
#completion, production, or financial decision or any procedure involving any risk to the 
#safety of any drilling venture, drilling rig or its crew or any other third party.  The 
#Customer has full responsibility for all drilling, completion and production operation.  
#Halliburton makes no representations or warranties, either expressed or 
#implied, including, but not limited to, the implied warranties of merchantability or fitness 
#for a particular purpose, with respect to the services rendered.  In no event will 
#Halliburton be liable for failure to obtain any particular results or for 
#any damages, including, but not limited to, indirect, special or consequential damages, 
#resulting from the use of any information or interpretation provided by Halliburton.
#
~A           TIME           GTDEPTH  GTPQH  GTTQ  GTTN  GTET   GTTVD  
# ...
   13:01:17.392.25-Dec-2020 4950.51 5546.77 66.63 1.00 460.21 2558.08
   13:01:17.592.25-Dec-2020 4950.51 5546.77 66.63 1.00 460.41 2558.08
   13:01:17.792.25-Dec-2020 4950.51 5546.97 66.63 1.00 460.61 2558.08
   13:01:17.992.25-Dec-2020 4950.51 5544.42 66.63 1.00 460.81 2558.08
   13:01:18.192.25-Dec-2020 4950.51 5546.90 66.64 1.00 461.01 2558.08
   13:01:18.392.25-Dec-2020 4950.51 5546.34 66.64 1.00 461.21 2558.08
   13:01:18.593.25-Dec-2020 4950.51 5546.34 66.64 1.00 461.41 2558.08
   13:01:18.793.25-Dec-2020 4950.51 5543.48 66.64 1.00 461.61 2558.08
   13:01:18.993.25-Dec-2020 4950.51 5543.61 66.64 1.00 461.81 2558.08
   13:01:19.193.25-Dec-2020 4950.51 5552.84 66.64 1.00 462.01 2558.08
   13:01:19.393.25-Dec-2020 4950.51 5547.62 66.64 1.00 462.21 2558.08
   13:01:19.593.25-Dec-2020 4950.51 5547.62 66.64 1.00 462.41 2558.08
   13:01:19.793.25-Dec-2020 4950.51 5549.21 66.64 1.00 462.61 2558.08
   13:01:19.993.25-Dec-2020 4950.51 5548.31 66.64 1.00 462.81 2558.08
   13:01:20.193.25-Dec-2020 4950.51 5548.43 66.64 1.00 463.01 2558.08
   13:01:20.393.25-Dec-2020 4950.51 5547.57 66.64 1.00 463.21 2558.08
   13:01:20.593.25-Dec-2020 4950.51 5547.57 66.64 1.00 463.41 2558.08
   13:01:20.794.25-Dec-2020 4950.51 5549.44 66.64 1.00 463.61 2558.08
   13:01:20.994.25-Dec-2020 4950.51 5547.75 66.64 1.00 463.81 2558.08
   13:01:21.194.25-Dec-2020 4950.51 5548.05 66.64 1.00 464.01 2558.08
   13:01:21.394.25-Dec-2020 4950.51 5556.65 66.64 1.00 464.21 2558.08
   13:01:21.594.25-Dec-2020 4950.51 5556.65 66.64 1.00 464.41 2558.08
   13:01:21.794.25-Dec-2020 4950.51 5546.44 66.64 1.00 464.61 2558.08
   13:01:21.994.25-Dec-2020 4950.51 5548.26 66.64 1.00 464.81 2558.08
   13:01:22.194.25-Dec-2020 4950.51 5548.22 66.64 1.00 465.01 2558.08
   13:01:22.394.25-Dec-2020 4950.51 5557.04 66.64 1.00 465.21 2558.08
   13:01:22.594.25-Dec-2020 4950.51 5557.04 66.64 1.00 465.41 2558.08
   13:01:22.794.25-Dec-2020 4950.51 5544.17 66.64 1.00 465.61 2558.08
   13:01:22.995.25-Dec-2020 4950.51 5562.18 66.64 1.00 465.81 2558.08
   13:01:23.195.25-Dec-2020 4950.51 5552.82 66.64 1.00 466.01 2558.08
   13:01:23.395.25-Dec-2020 4950.51 5548.49 66.64 1.00 466.21 2558.08
   13:01:23.595.25-Dec-2020 4950.51 5548.49 66.64 1.00 466.41 2558.08
   13:01:23.795.25-Dec-2020 4950.51 5547.67 66.64 1.00 466.61 2558.08
   13:01:23.995.25-Dec-2020 4950.51 5562.45 66.64 1.00 466.81 2558.08
   13:01:24.195.25-Dec-2020 4950.51 5542.43 66.64 1.00 467.01 2558.08
   13:01:24.395.25-Dec-2020 4950.51 5543.40 66.64 1.00 467.21 2558.08
   13:01:24.595.25-Dec-2020 4950.51 5543.40 66.64 1.00 467.41 2558.08
   13:01:24.795.25-Dec-2020 4950.51 5547.28 66.64 1.00 467.61 2558.08
   13:01:24.995.25-Dec-2020 4950.51 5543.62 66.64 1.00 467.81 2558.08
   13:01:25.196.25-Dec-2020 4950.51 5547.59 66.64 1.00 468.01 2558.08
   13:01:25.396.25-Dec-2020 4950.51 5546.80 66.64 1.00 468.21 2558.08
   13:01:25.596.25-Dec-2020 4950.51 5546.80 66.64 1.00 468.41 2558.08
   13:01:25.796.25-Dec-2020 4950.51 5546.20 66.64 1.00 468.61 2558.08
   13:01:25.996.25-Dec-2020 4950.51 5545.47 66.64 1.00 468.81 2558.08
   13:01:26.196.25-Dec-2020 4950.51 5545.13 66.64 1.00 469.01 2558.08
   13:01:26.396.25-Dec-2020 4950.51 5555.97 66.64 1.00 469.21 2558.08
   13:01:26.596.25-Dec-2020 4950.51 5555.97 66.64 1.00 469.41 2558.08
   13:01:26.796.25-Dec-2020 4950.51 5544.64 66.64 1.00 469.61 2558.08
   13:01:26.996.25-Dec-2020 4950.51 5553.19 66.64 1.00 469.81 2558.08
   13:01:27.196.25-Dec-2020 4950.51 5550.55 66.64 1.00 470.01 2558.08
   13:01:27.397.25-Dec-2020 4950.51 5546.77 66.64 1.00 470.21 2558.08
   13:01:27.597.25-Dec-2020 4950.51 5546.77 66.64 1.00 470.41 2558.08
   13:01:27.797.25-Dec-2020 4950.51 5550.25 66.64 1.00 470.61 2558.08
   13:01:27.997.25-Dec-2020 4950.51 5548.16 66.64 1.00 470.81 2558.08
   13:01:28.197.25-Dec-2020 4950.51 5547.73 66.64 1.00 471.01 2558.08
   13:01:28.397.25-Dec-2020 4950.51 5548.66 66.64 1.00 471.21 2558.08
   13:01:28.597.25-Dec-2020 4950.51 5548.66 66.64 1.00 471.41 2558.08
   13:01:28.797.25-Dec-2020 4950.51 5547.45 66.63 1.00 471.61 2558.08
   13:01:28.997.25-Dec-2020 4950.51 5547.16 66.63 1.00 471.81 2558.08
   13:01:29.197.25-Dec-2020 4950.51 5557.71 66.63 1.00 472.01 2558.08
   13:01:29.397.25-Dec-2020 4950.51 5548.87 66.63 1.00 472.21 2558.08
   13:01:29.598.25-Dec-2020 4950.51 5548.87 66.63 1.00 472.41 2558.08
   13:01:29.798.25-Dec-2020 4950.51 5549.53 66.63 1.00 472.61 2558.08
   13:01:29.998.25-Dec-2020 4950.51 5545.92 66.63 1.00 472.81 2558.08
   13:01:30.198.25-Dec-2020 4950.51 5547.41 66.63 1.00 473.01 2558.08
   13:01:30.398.25-Dec-2020 4950.51 5556.29 66.63 1.00 473.21 2558.08
   13:01:30.598.25-Dec-2020 4950.51 5556.29 66.63 1.00 473.41 2558.08
   13:01:30.798.25-Dec-2020 4950.51 5562.20 66.63 1.00 473.61 2558.08
   13:01:30.998.25-Dec-2020 4950.51 5546.69 66.63 1.00 473.81 2558.08
   13:01:31.198.25-Dec-2020 4950.51 5543.60 66.63 1.00 474.01 2558.08
   13:01:31.398.25-Dec-2020 4950.51 5550.93 66.63 1.00 474.21 2558.08
   13:01:31.598.25-Dec-2020 4950.51 5550.93 66.63 1.00 474.41 2558.08
   13:01:31.799.25-Dec-2020 4950.51 5554.35 66.63 1.00 474.61 2558.08
   13:01:31.999.25-Dec-2020 4950.51 5547.79 66.63 1.00 474.81 2558.08
   13:01:32.199.25-Dec-2020 4950.51 5543.25 66.63 1.00 475.01 2558.08
   13:01:32.399.25-Dec-2020 4950.51 5551.47 66.63 1.00 475.21 2558.08
   13:01:32.599.25-Dec-2020 4950.51 5551.47 66.63 1.00 475.41 2558.08
   13:01:32.799.25-Dec-2020 4950.51 5543.49 66.63 1.00 475.61 2558.08
   13:01:32.999.25-Dec-2020 4950.51 5545.37 66.63 1.00 475.81 2558.08
   13:01:33.199.25-Dec-2020 4950.51 5546.45 66.63 1.00 476.01 2558.08
   13:01:33.399.25-Dec-2020 4950.51 5545.82 66.63 1.00 476.21 2558.08
   13:01:33.599.25-Dec-2020 4950.51 5545.82 66.63 1.00 476.41 2558.08
   13:01:33.799.25-Dec-2020 4950.51 5545.74 66.63 1.00 476.61 2558.08
   13:01:34.000.25-Dec-2020 4950.51 5545.73 66.63 1.00 476.81 2558.08
   13:01:34.200.25-Dec-2020 4950.51 5546.92 66.63 1.00 477.02 2558.08
   13:01:34.400.25-Dec-2020 4950.51 5554.77 66.63 1.00 477.22 2558.08
   13:01:34.600.25-Dec-2020 4950.51 5554.77 66.63 1.00 477.42 2558.08
   13:01:34.800.25-Dec-2020 4950.51 5547.67 66.62 1.00 477.62 2558.08
   13:01:35.000.25-Dec-2020 4950.51 5551.71 66.62 1.00 477.82 2558.08
   13:01:35.200.25-Dec-2020 4950.51 5548.24 66.62 1.00 478.02 2558.08
   13:01:35.400.25-Dec-2020 4950.51 5546.91 66.62 1.00 478.22 2558.08
   13:01:35.600.25-Dec-2020 4950.51 5546.91 66.62 1.00 478.42 2558.08
   13:01:35.800.25-Dec-2020 4950.51 5548.27 66.62 1.00 478.62 2558.08
   13:01:36.000.25-Dec-2020 4950.51 5547.74 66.62 1.00 478.82 2558.08
   13:01:36.200.25-Dec-2020 4950.51 5546.49 66.62 1.00 479.02 2558.08
   13:01:36.401.25-Dec-2020 4950.51 5546.82 66.62 1.00 479.22 2558.08
   13:01:36.601.25-Dec-2020 4950.51 5546.82 66.62 1.00 479.42 2558.08
   13:01:36.801.25-Dec-2020 4950.51 5545.75 66.62 1.00 479.62 2558.08
   13:01:37.001.25-Dec-2020 4950.51 5561.12 66.62 1.00 479.82 2558.08
   13:01:37.201.25-Dec-2020 4950.51 5541.63 66.62 1.00 480.02 2558.08
   13:01:37.401.25-Dec-2020 4950.51 5543.90 66.62 1.00 480.22 2558.08
   13:01:37.601.25-Dec-2020 4950.51 5543.90 66.62 1.00 480.42 2558.08
   13:01:37.801.25-Dec-2020 4950.51 5546.34 66.62 1.00 480.62 2558.08
   13:01:38.001.25-Dec-2020 4950.51 5544.43 66.62 1.00 480.82 2558.08
   13:01:38.201.25-Dec-2020 4950.51 5556.26 66.62 1.00 481.02 2558.08
   13:01:38.401.25-Dec-2020 4950.51 5552.70 66.62 1.00 481.22 2558.08
   13:01:38.602.25-Dec-2020 4950.51 5552.70 66.62 1.00 481.42 2558.08
   13:01:38.802.25-Dec-2020 4950.51 5549.75 66.62 1.00 481.62 2558.08
   13:01:39.002.25-Dec-2020 4950.51 5545.20 66.62 1.00 481.82 2558.08
   13:01:39.202.25-Dec-2020 4950.51 5550.76 66.62 1.00 482.02 2558.08
   13:01:39.402.25-Dec-2020 4950.51 5550.00 66.62 1.00 482.22 2558.08
   13:01:39.602.25-Dec-2020 4950.51 5550.00 66.62 1.00 482.42 2558.08
   13:01:39.802.25-Dec-2020 4950.51 5553.73 66.62 1.00 482.62 2558.08
   13:01:40.002.25-Dec-2020 4950.51 5550.42 66.62 1.00 482.82 2558.08
   13:01:40.202.25-Dec-2020 4950.51 5544.50 66.62 1.00 483.02 2558.08
