~Version Information
 VERS.                  2.0:   CWLS log ASCII Standard -VERSION 2.0
 WRAP.                   NO:   One line per depth step
~Well Information Block
#MNEM.UNIT     VALUE/NAME     DESCRIPTION
#---------     -----------    ---------------------------
 STRT.S             17:56:34 25-Dec-20: START TIME 17:56:34 25-Dec-20
 STOP.S             18:04:57 25-Dec-20: STOP TIME  18:04:57 25-Dec-20
 STEP.S                   0.00: STEP TIME
 NULL.                 -999.25: NULL VALUE
 DFWT.                        :  DIST FWL TEXT
 DFST.                        :  DIST FSL TEXT
 DMF .             Drill Floor:  DRILL MEAS FROM
 STIM.      04.54.24 22-Sep-20:  START TIME
 DATE.      04.54.24 21-Nov-20:  END TIME
 SPUD.               21-Nov-20:  SPUD DATE
 NREF.                    Grid:  NORTH REFERENCE
 HPTY.       Minimum Curvature:  HOLE POS TYPE
 DMOD.             Drill Model:  DRILL MOD DESC
 SVYD.                  Survey:  SURVEY DESC
 ILTD.               Lithology:  INTERP LTH DESC
 FTOP.          Formation Tops:  FORM TOPS DESC
 SON .        AZ-XX-0906571587:  JOB NUMBER
 COMP.     BP Exploration (Caspian Sea) Ltd:  COMPANY
 UWI .                     N/A:  UNIQUE WELL IDENTIFIER
 API .                     N/A:  API NUMBER
 BASE.              Azerbaijan:  LOGGING EQUIPMENT BASE LOCATION
 REGN.                   EESSA:  REGION
 PROV.                    Baku:  PROVINCE
 STAT.                    Baku:  STATE NAME
 CTRY.              Azerbaijan:  COUNTRY NAME
 FLD .                     ACG:  FIELD NAME
 SRVC.     TURAN Drilling & Engineering:  CONTRACTOR
 WELL.                     J27:  WELL NAME
 RIG .             West Chirag:  RIG NAME
 DOE .                     N/A:  DOE NUMBER
 DCON.         Sperry Drilling:  DIRECTNL CONTR
 PDAT.          Mean Sea Level:  PERMANENT DATUM
 WTYP.                Deviated:  WELL TYPE
 MWDS.                    Baku:  MWD SHOP
 JOBN.        AZ-XX-0906571587:  JOB TICKET NUMB
 UNIT.                     N/A:  LOGGING EQUIPMENT ID
 MDS .        Operator Entered:  MAG DATA SOURCE
 CNTY.                        :  COUNTY
 LOC .                        :  LOCATION
 LMF .             Drill Floor:  LOG MEASURED FROM
 TVDS.m                  43.00:  TVDSS CORRECTN
 LATI.deg                40.13:  LATITUDE
 LONG.deg                51.22:  LONGITUDE
 WHNS.m                   7.72:  WELL HEAD N/S
 WHEW.m                 -14.24:  WELL HEAD E/W
 UTMX.m              519005.06:  UTM X
 UTMY.m             4443793.85:  UTM Y
 DFWL.m                   0.00:  DISTANCE FWL
 DFSL.m                   0.00:  DISTANCE FSL
 SDEP.m                 347.00:  START DEPTH
 TDD .m                 581.00:  TOTAL DEPTH (DRILLER)
 VSDR.deg               159.72:  VERT SEC DIRECT
 GVFD.g                   1.00:  GRAVITY FIELD
 MFLD.nT              50318.00:  MAGNETIC FIELD
 MDIP.deg                59.57:  MAGNETIC DIP
 MDEC.deg                 6.44:  MAGNETIC DECL
 GRDC.deg                 0.15:  GRID CORRECTION
 AZTC.deg                 6.29:  AZM TOTAL CORR
 EPD .m                   0.00:  ELEVATION
 EGL .m                   0.00:  GROUND ELEVATION
 WDMS.m                 169.80:  WD ELEV
 APD .m                  43.00:  DEPTH ABOVE PD
 AGAP.m                  43.00:  AIR GAP
 VSEW.m                 -14.24:  VERT SEC E/W
 VSNS.m                   7.72:  VERT SEC N/S
 DEP .m                 342.45:  DEPTH
 EKB .m                   0.00:  KB ELEVATION
 EDF .m                  43.00:  DF ELEVATION
 TDL .m                 237.00:  TOTAL DEPTH (LOGGER)
 VSC .                       0:  VS TO CLOSURE
 MAGU.                 1851428:  MAGUTM CHECKSUM
~Parameter Information Block
#MNEM.UNIT       Value        Description
#---------     -----------    ---------------------------
 AV  .mps                 1.50:  Ann Velocity 
 AVMX.mps                 2.90:  Max Ann Veloc 
 AZIF.deg               115.59:  Azm, Final 
 BHAT.        Rotary Steerable:  BHA Type 
 BROT.∞/30m               0.50:  Build Rotating 
 BS  .in                  8.50:  Bit Size 
 BTPL.psig              580.00:  Bit Press Loss 
 CABU.                     Yes:  Customer Abuse 
 COMM.                     ‰E:  Run Comments 1 
 TCS .hr                 89.79:  Time Ciculation Ended 
 CV  .mps                 3.22:  Crit Velocity 
 CVMX.mps                 4.37:  Max Crit Veloc 
 DD1 .          Rashad Habibov:  Direct Drillr 1 
 DDSV.               Geo-Pilot:  DD Service 
 DEFF.%                  95.00:  % Det Eff 
 DLRX.∞/30m               1.94:  Dogleg Rot Max 
 DLSO.∞/30m               0.70:  Dogleg Oriented 
 DLSX.∞/30m               1.94:  Dogleg Str Max 
 DRET.      04.45.00 25-Dec-20:  Drill End Time 
 DRST.      10.00.00 24-Dec-20:  Drill Start Tim 
 DTIM.hr                 16.64:  Time Drilling 
 EDEP.m                4999.01:  End Depth 
 ENG1.         Elchin Mammadov:  Engineer 1 
 ENG2.          Ruslan Safarov:  Engineer 2 
 ENG3.          Rustam Safarov:  Engineer 3 
 ETIM.      09.00.00 29-Dec-20:  End Time 
 FLOI.gpm               500.00:  Flow In 
 FLON.gpm               400.00:  Flow In Min 
 FLOS.cptm                0.00:  Fluid Loss 
 FLOX.gpm               500.00:  Flow In Max 
 HFLO.                      No:  High Flow 
 HPRE.                      No:  High Pressure 
 HTEM.                      No:  High Temp 
 HYDO.m                   2.00:  Hydro Offset 
 IFIN.deg                66.79:  Inc, Final 
 IMAX.deg                67.66:  Inc Max 
 IMIN.deg                66.39:  Inc Min 
 IMND.m                4949.37:  Inc Min Depth 
 IMXD.m                4778.63:  Inc Max Depth 
 JARR.                     Yes:  Jarring 
 LETM.      04.45.00 25-Dec-20:  Log End Time 
 LOST.hr                     0:  Lost Rig Time 
 LSTM.      10.00.00 24-Dec-20:  Log Start Time 
 MDCL.ppm             39000.00:  Mud Chlorides 
 MDES.     Inversion Oil/Synthetic:  Mud Desc 
 DFD .sg                  1.33:  Mud Density 
 MDMN.sg                  1.33:  Dens Mud Min 
 MDMX.sg                  1.33:  Dens Mud Max 
 MOIL.                      70:  Run Mud Oil % 
 MOWR.                   70:30:  Run Mud OWR 
 MSND.                       0:  Run Mud Sand % 
 MSOL.                    17.4:  Run Mud Solids% 
 DFV .spqt               84.00:  Mud Viscosity 
 MWOD.in                  6.75:  MWD Tool OD 
 MWSI.                     Yes:  Serv Intrp, MWD 
 OTIM.hr                168.14:  Time Operating 
 PCON.           Look Like New:  Pad Condition 
 PMAX.psia            10822.93:  Press Op, Max 
 PV  .cP                 30.00:  Mud PV 
 RUN .                     900:  Run Number 
 ROPA.m/hr               18.00:  ROP Avg 
 ROPN.m/hr               12.00:  ROP Min 
 ROPX.m/hr               25.00:  ROP Max 
 RPMA.rpm               120.00:  RPM Surface Avg 
 RPMN.rpm               100.00:  RPM Surface Min 
 RPMX.rpm               120.00:  RPM Surface Max 
 RRUN.                    0900:  Rig Run Number 
 SAZI.deg               115.08:  Azm, Start 
 SDEP.m                4762.01:  Start Depth 
 SIDD.                      No:  Serv Intrp, DD 
 SINC.deg                66.14:  Inc, Start 
 SPPA.psig             3700.00:  SPP Avg 
 SPPN.psig             3620.00:  SPP Min 
 SPPX.psig             3900.00:  SPP Max 
 STIM.      09.30.00 22-Dec-20:  Start Time 
 SVCS.                 DD, MWD:  Services 
 SVER.                    9.20:  Sperry Version 
 TDAT.m                 237.00:  Tot Depth Attmp 
 TDDF.                      No:  Trip for DD 
 TDLG.m                 237.00:  Tot Depth Loggd 
 TFF .                      No:  Trip for Fail 
 TQAA.f-kp               18.00:  Torque Abs Avg 
 TQAN.f-kp               17.00:  Torque Abs Min 
 TQAX.f-kp               20.00:  Torque Abs Max 
 TRRT.∞/30m               0.60:  Turn Rotating 
 MRT .                    HCIM:  Maximum Recorded Temperature 
 TTMX.degC               94.12:  Max Tool Temp 
 VS01.                90627809:  Virtual Str1 SN 
 VS02.                90527813:  Virtual Str2 SN 
 VS03.                90545417:  Virtual Str3 SN 
 VS04.                12460870:  Virtual Str4 SN 
 VS05.                90516706:  Virtual Str5 SN 
 VS06.                90632007:  Virtual Str6 SN 
 WBMN.klb                 0.00:  WOB Min 
 WOBA.klb                14.00:  WOB Avg 
 WOBX.klb                25.00:  WOB Max 
 YP  .lhf2               32.00:  Yield Point 
~Curve Information Block
#MNEM.UNIT                 API CODE     Curve Description
#---------               -----------    ---------------------------
 TIME.HHMMSS            00 000 000 000:  GT Time & Date
 GTDEPTH.m              00 000 000 000:  GT Depth
 GTPQH.psia             00 000 000 000:  GT HR Quartz Pressure
 GTTQ.degC              00 000 000 000:  GT Quartz Temperature
 GTTN.NONE              00 000 000 000:  GT Test Number
 GTET.sec               00 000 000 000:  GT Elapsed Test Time
 GTTVD.m                00 000 000 000:  GT True Vertical Depth
#Other Information
#
#WARRANTY: Halliburton will use its best efforts to furnish customers with 
#accurate information and interpretations that are part of, and incident to, the services 
#provided.  However, Halliburton cannot and does not warrant the accuracy 
#or correctness of such information and interpretations.  Under no circumstances should any 
#such information or interpretation be relied upon as the sole basis for any drilling, 
#completion, production, or financial decision or any procedure involving any risk to the 
#safety of any drilling venture, drilling rig or its crew or any other third party.  The 
#Customer has full responsibility for all drilling, completion and production operation.  
#Halliburton makes no representations or warranties, either expressed or 
#implied, including, but not limited to, the implied warranties of merchantability or fitness 
#for a particular purpose, with respect to the services rendered.  In no event will 
#Halliburton be liable for failure to obtain any particular results or for 
#any damages, including, but not limited to, indirect, special or consequential damages, 
#resulting from the use of any information or interpretation provided by Halliburton.
#
~A           TIME           GTDEPTH  GTPQH  GTTQ  GTTN  GTET   GTTVD  
# ...
   17:58:06.688.25-Dec-2020 4856.51 3918.38 64.21 5.00  91.96 2521.01
   17:58:06.888.25-Dec-2020 4856.51 3918.38 64.21 5.00  92.16 2521.01
   17:58:07.088.25-Dec-2020 4856.51 3918.79 64.21 5.00  92.36 2521.01
   17:58:07.288.25-Dec-2020 4856.51 3918.79 64.21 5.00  92.56 2521.01
   17:58:07.488.25-Dec-2020 4856.51 3917.87 64.21 5.00  92.76 2521.01
   17:58:07.688.25-Dec-2020 4856.51 3918.64 64.21 5.00  92.96 2521.01
   17:58:07.888.25-Dec-2020 4856.51 3918.33 64.21 5.00  93.16 2521.01
   17:58:08.088.25-Dec-2020 4856.51 3918.41 64.21 5.00  93.36 2521.01
   17:58:08.287.25-Dec-2020 4856.51 3918.72 64.21 5.00  93.56 2521.01
   17:58:08.487.25-Dec-2020 4856.51 3917.76 64.21 5.00  93.76 2521.01
   17:58:08.687.25-Dec-2020 4856.51 3918.21 64.21 5.00  93.96 2521.01
   17:58:08.887.25-Dec-2020 4856.51 3918.21 64.21 5.00  94.16 2521.01
   17:58:09.087.25-Dec-2020 4856.51 3918.49 64.21 5.00  94.36 2521.01
   17:58:09.287.25-Dec-2020 4856.51 3918.69 64.21 5.00  94.56 2521.01
   17:58:09.487.25-Dec-2020 4856.51 3918.89 64.21 5.00  94.76 2521.01
   17:58:09.687.25-Dec-2020 4856.51 3919.13 64.21 5.00  94.96 2521.01
   17:58:09.887.25-Dec-2020 4856.51 3919.13 64.21 5.00  95.16 2521.01
   17:58:10.087.25-Dec-2020 4856.51 3919.18 64.21 5.00  95.36 2521.01
   17:58:10.287.25-Dec-2020 4856.51 3919.39 64.21 5.00  95.56 2521.01
   17:58:10.487.25-Dec-2020 4856.51 3919.43 64.21 5.00  95.76 2521.01
   17:58:10.687.25-Dec-2020 4856.51 3919.53 64.21 5.00  95.96 2521.01
   17:58:10.886.25-Dec-2020 4856.51 3919.53 64.21 5.00  96.16 2521.01
   17:58:11.086.25-Dec-2020 4856.51 3919.18 64.21 5.00  96.36 2521.01
   17:58:11.286.25-Dec-2020 4856.51 3919.16 64.21 5.00  96.56 2521.01
   17:58:11.486.25-Dec-2020 4856.51 3919.38 64.21 5.00  96.76 2521.01
   17:58:11.686.25-Dec-2020 4856.51 3919.27 64.21 5.00  96.96 2521.01
   17:58:11.886.25-Dec-2020 4856.51 3919.43 64.21 5.00  97.16 2521.01
   17:58:12.086.25-Dec-2020 4856.51 3919.51 64.21 5.00  97.36 2521.01
   17:58:12.286.25-Dec-2020 4856.51 3919.62 64.21 5.00  97.56 2521.01
   17:58:12.486.25-Dec-2020 4856.51 3919.62 64.21 5.00  97.76 2521.01
   17:58:12.686.25-Dec-2020 4856.51 3919.69 64.21 5.00  97.96 2521.01
   17:58:12.886.25-Dec-2020 4856.51 3919.69 64.21 5.00  98.16 2521.01
   17:58:13.086.25-Dec-2020 4856.51 3919.75 64.21 5.00  98.36 2521.01
   17:58:13.285.25-Dec-2020 4856.51 3919.89 64.21 5.00  98.56 2521.01
   17:58:13.485.25-Dec-2020 4856.51 3918.84 64.21 5.00  98.76 2521.01
   17:58:13.685.25-Dec-2020 4856.51 3920.01 64.21 5.00  98.96 2521.01
   17:58:13.885.25-Dec-2020 4856.51 3920.01 64.21 5.00  99.16 2521.01
   17:58:14.085.25-Dec-2020 4856.51 3918.81 64.21 5.00  99.36 2521.01
   17:58:14.285.25-Dec-2020 4856.51 3918.64 64.21 5.00  99.56 2521.01
   17:58:14.485.25-Dec-2020 4856.51 3918.57 64.21 5.00  99.76 2521.01
   17:58:14.685.25-Dec-2020 4856.51 3919.03 64.21 5.00  99.96 2521.01
   17:58:14.885.25-Dec-2020 4856.51 3919.03 64.21 5.00 100.16 2521.01
   17:58:15.085.25-Dec-2020 4856.51 3917.89 64.21 5.00 100.36 2521.01
   17:58:15.285.25-Dec-2020 4856.51 3918.49 64.21 5.00 100.56 2521.01
   17:58:15.485.25-Dec-2020 4856.51 3918.13 64.21 5.00 100.76 2521.01
   17:58:15.685.25-Dec-2020 4856.51 3918.31 64.21 5.00 100.96 2521.01
   17:58:15.884.25-Dec-2020 4856.51 3918.31 64.21 5.00 101.16 2521.01
   17:58:16.084.25-Dec-2020 4856.51 3917.36 64.21 5.00 101.36 2521.01
   17:58:16.284.25-Dec-2020 4856.51 3917.74 64.21 5.00 101.56 2521.01
   17:58:16.484.25-Dec-2020 4856.51 3917.97 64.21 5.00 101.76 2521.01
   17:58:16.684.25-Dec-2020 4856.51 3918.12 64.21 5.00 101.96 2521.01
   17:58:16.884.25-Dec-2020 4856.51 3918.12 64.21 5.00 102.16 2521.01
   17:58:17.084.25-Dec-2020 4856.51 3918.54 64.21 5.00 102.36 2521.01
   17:58:17.284.25-Dec-2020 4856.51 3918.85 64.21 5.00 102.56 2521.01
   17:58:17.484.25-Dec-2020 4856.51 3918.91 64.21 5.00 102.76 2521.01
   17:58:17.684.25-Dec-2020 4856.51 3919.03 64.21 5.00 102.96 2521.01
   17:58:17.884.25-Dec-2020 4856.51 3919.03 64.21 5.00 103.16 2521.01
   17:58:18.084.25-Dec-2020 4856.51 3919.35 64.21 5.00 103.36 2521.01
   17:58:18.284.25-Dec-2020 4856.51 3919.46 64.21 5.00 103.56 2521.01
   17:58:18.483.25-Dec-2020 4856.51 3919.07 64.21 5.00 103.76 2521.01
   17:58:18.683.25-Dec-2020 4856.51 3919.05 64.21 5.00 103.96 2521.01
   17:58:18.883.25-Dec-2020 4856.51 3919.05 64.21 5.00 104.16 2521.01
   17:58:19.083.25-Dec-2020 4856.51 3919.21 64.21 5.00 104.36 2521.01
   17:58:19.283.25-Dec-2020 4856.51 3919.08 64.21 5.00 104.56 2521.01
   17:58:19.483.25-Dec-2020 4856.51 3919.12 64.21 5.00 104.76 2521.01
   17:58:19.683.25-Dec-2020 4856.51 3919.34 64.21 5.00 104.96 2521.01
   17:58:19.883.25-Dec-2020 4856.51 3919.53 64.21 5.00 105.16 2521.01
   17:58:20.083.25-Dec-2020 4856.51 3919.55 64.21 5.00 105.36 2521.01
   17:58:20.283.25-Dec-2020 4856.51 3919.70 64.21 5.00 105.56 2521.01
   17:58:20.483.25-Dec-2020 4856.51 3919.73 64.21 5.00 105.76 2521.01
   17:58:20.683.25-Dec-2020 4856.51 3919.74 64.21 5.00 105.96 2521.01
   17:58:20.882.25-Dec-2020 4856.51 3919.74 64.21 5.00 106.16 2521.01
   17:58:21.082.25-Dec-2020 4856.51 3918.84 64.21 5.00 106.36 2521.01
   17:58:21.282.25-Dec-2020 4856.51 3919.97 64.21 5.00 106.56 2521.01
   17:58:21.482.25-Dec-2020 4856.51 3919.28 64.21 5.00 106.76 2521.01
   17:58:21.682.25-Dec-2020 4856.51 3918.68 64.21 5.00 106.96 2521.01
   17:58:21.882.25-Dec-2020 4856.51 3918.68 64.21 5.00 107.16 2521.01
   17:58:22.082.25-Dec-2020 4856.51 3918.43 64.21 5.00 107.36 2521.01
   17:58:22.282.25-Dec-2020 4856.51 3918.81 64.21 5.00 107.56 2521.01
   17:58:22.482.25-Dec-2020 4856.51 3918.69 64.21 5.00 107.76 2521.01
   17:58:22.682.25-Dec-2020 4856.51 3917.55 64.21 5.00 107.96 2521.01
   17:58:22.882.25-Dec-2020 4856.51 3917.55 64.21 5.00 108.16 2521.01
   17:58:23.082.25-Dec-2020 4856.51 3918.14 64.21 5.00 108.36 2521.01
   17:58:23.282.25-Dec-2020 4856.51 3918.31 64.21 5.00 108.56 2521.01
   17:58:23.481.25-Dec-2020 4856.51 3917.99 64.21 5.00 108.76 2521.01
   17:58:23.681.25-Dec-2020 4856.51 3917.77 64.21 5.00 108.96 2521.01
   17:58:23.881.25-Dec-2020 4856.51 3917.66 64.21 5.00 109.16 2521.01
   17:58:24.081.25-Dec-2020 4856.51 3918.13 64.21 5.00 109.36 2521.01
   17:58:24.281.25-Dec-2020 4856.51 3918.16 64.21 5.00 109.56 2521.01
   17:58:24.481.25-Dec-2020 4856.51 3918.39 64.21 5.00 109.76 2521.01
   17:58:24.681.25-Dec-2020 4856.51 3918.61 64.21 5.00 109.96 2521.01
   17:58:24.881.25-Dec-2020 4856.51 3918.61 64.21 5.00 110.16 2521.01
   17:58:25.081.25-Dec-2020 4856.51 3918.95 64.21 5.00 110.36 2521.01
   17:58:25.281.25-Dec-2020 4856.51 3919.09 64.21 5.00 110.56 2521.01
   17:58:25.481.25-Dec-2020 4856.51 3919.27 64.21 5.00 110.76 2521.01
   17:58:25.681.25-Dec-2020 4856.51 3919.28 64.21 5.00 110.96 2521.01
   17:58:25.881.25-Dec-2020 4856.51 3919.28 64.21 5.00 111.16 2521.01
   17:58:26.080.25-Dec-2020 4856.51 3918.44 64.21 5.00 111.36 2521.01
   17:58:26.280.25-Dec-2020 4856.51 3919.56 64.21 5.00 111.56 2521.01
   17:58:26.480.25-Dec-2020 4856.51 3918.97 64.21 5.00 111.76 2521.01
   17:58:26.680.25-Dec-2020 4856.51 3918.91 64.21 5.00 111.96 2521.01
   17:58:26.880.25-Dec-2020 4856.51 3918.91 64.21 5.00 112.16 2521.01
   17:58:27.080.25-Dec-2020 4856.51 3919.22 64.21 5.00 112.36 2521.01
   17:58:27.280.25-Dec-2020 4856.51 3919.38 64.21 5.00 112.56 2521.01
   17:58:27.480.25-Dec-2020 4856.51 3919.58 64.21 5.00 112.76 2521.01
   17:58:27.680.25-Dec-2020 4856.51 3919.58 64.21 5.00 112.96 2521.01
   17:58:27.880.25-Dec-2020 4856.51 3919.72 64.21 5.00 113.16 2521.01
   17:58:28.080.25-Dec-2020 4856.51 3919.72 64.21 5.00 113.36 2521.01
   17:58:28.280.25-Dec-2020 4856.51 3919.64 64.21 5.00 113.56 2521.01
   17:58:28.480.25-Dec-2020 4856.51 3919.76 64.21 5.00 113.76 2521.01
   17:58:28.679.25-Dec-2020 4856.51 3918.87 64.21 5.00 113.96 2521.01
   17:58:28.879.25-Dec-2020 4856.51 3918.87 64.21 5.00 114.16 2521.01
   17:58:29.079.25-Dec-2020 4856.51 3919.11 64.21 5.00 114.35 2521.01
   17:58:29.279.25-Dec-2020 4856.51 3917.85 64.21 5.00 114.55 2521.01
   17:58:29.479.25-Dec-2020 4856.51 3918.80 64.21 5.00 114.75 2521.01
