~Version Information
 VERS.                  2.0:   CWLS log ASCII Standard -VERSION 2.0
 WRAP.                   NO:   One line per depth step
~Well Information Block
#MNEM.UNIT     VALUE/NAME     DESCRIPTION
#---------     -----------    ---------------------------
 STRT.S             12:53:37 25-Dec-20: START TIME 12:53:37 25-Dec-20
 STOP.S             13:01:52 25-Dec-20: STOP TIME  13:01:52 25-Dec-20
 STEP.S                   0.00: STEP TIME
 NULL.                 -999.25: NULL VALUE
 DFWT.                        :  DIST FWL TEXT
 DFST.                        :  DIST FSL TEXT
 DMF .             Drill Floor:  DRILL MEAS FROM
 STIM.      04.54.24 22-Sep-20:  START TIME
 DATE.      04.54.24 21-Nov-20:  END TIME
 SPUD.               21-Nov-20:  SPUD DATE
 NREF.                    Grid:  NORTH REFERENCE
 HPTY.       Minimum Curvature:  HOLE POS TYPE
 DMOD.             Drill Model:  DRILL MOD DESC
 SVYD.                  Survey:  SURVEY DESC
 ILTD.               Lithology:  INTERP LTH DESC
 FTOP.          Formation Tops:  FORM TOPS DESC
 SON .        AZ-XX-0906571587:  JOB NUMBER
 COMP.     BP Exploration (Caspian Sea) Ltd:  COMPANY
 UWI .                     N/A:  UNIQUE WELL IDENTIFIER
 API .                     N/A:  API NUMBER
 BASE.              Azerbaijan:  LOGGING EQUIPMENT BASE LOCATION
 REGN.                   EESSA:  REGION
 PROV.                    Baku:  PROVINCE
 STAT.                    Baku:  STATE NAME
 CTRY.              Azerbaijan:  COUNTRY NAME
 FLD .                     ACG:  FIELD NAME
 SRVC.     TURAN Drilling & Engineering:  CONTRACTOR
 WELL.                     J27:  WELL NAME
 RIG .             West Chirag:  RIG NAME
 DOE .                     N/A:  DOE NUMBER
 DCON.         Sperry Drilling:  DIRECTNL CONTR
 PDAT.          Mean Sea Level:  PERMANENT DATUM
 WTYP.                Deviated:  WELL TYPE
 MWDS.                    Baku:  MWD SHOP
 JOBN.        AZ-XX-0906571587:  JOB TICKET NUMB
 UNIT.                     N/A:  LOGGING EQUIPMENT ID
 MDS .        Operator Entered:  MAG DATA SOURCE
 CNTY.                        :  COUNTY
 LOC .                        :  LOCATION
 LMF .             Drill Floor:  LOG MEASURED FROM
 TVDS.m                  43.00:  TVDSS CORRECTN
 LATI.deg                40.13:  LATITUDE
 LONG.deg                51.22:  LONGITUDE
 WHNS.m                   7.72:  WELL HEAD N/S
 WHEW.m                 -14.24:  WELL HEAD E/W
 UTMX.m              519005.06:  UTM X
 UTMY.m             4443793.85:  UTM Y
 DFWL.m                   0.00:  DISTANCE FWL
 DFSL.m                   0.00:  DISTANCE FSL
 SDEP.m                 347.00:  START DEPTH
 TDD .m                 581.00:  TOTAL DEPTH (DRILLER)
 VSDR.deg               159.72:  VERT SEC DIRECT
 GVFD.g                   1.00:  GRAVITY FIELD
 MFLD.nT              50318.00:  MAGNETIC FIELD
 MDIP.deg                59.57:  MAGNETIC DIP
 MDEC.deg                 6.44:  MAGNETIC DECL
 GRDC.deg                 0.15:  GRID CORRECTION
 AZTC.deg                 6.29:  AZM TOTAL CORR
 EPD .m                   0.00:  ELEVATION
 EGL .m                   0.00:  GROUND ELEVATION
 WDMS.m                 169.80:  WD ELEV
 APD .m                  43.00:  DEPTH ABOVE PD
 AGAP.m                  43.00:  AIR GAP
 VSEW.m                 -14.24:  VERT SEC E/W
 VSNS.m                   7.72:  VERT SEC N/S
 DEP .m                 342.45:  DEPTH
 EKB .m                   0.00:  KB ELEVATION
 EDF .m                  43.00:  DF ELEVATION
 TDL .m                 237.00:  TOTAL DEPTH (LOGGER)
 VSC .                       0:  VS TO CLOSURE
 MAGU.                 1851428:  MAGUTM CHECKSUM
~Parameter Information Block
#MNEM.UNIT       Value        Description
#---------     -----------    ---------------------------
 AV  .mps                 1.50:  Ann Velocity 
 AVMX.mps                 2.90:  Max Ann Veloc 
 AZIF.deg               115.59:  Azm, Final 
 BHAT.        Rotary Steerable:  BHA Type 
 BROT.°/30m               0.50:  Build Rotating 
 BS  .in                  8.50:  Bit Size 
 BTPL.psig              580.00:  Bit Press Loss 
 CABU.                     Yes:  Customer Abuse 
 COMM.                     LÓw:  Run Comments 1 
 TCS .hr                 89.79:  Time Ciculation Ended 
 CV  .mps                 3.22:  Crit Velocity 
 CVMX.mps                 4.37:  Max Crit Veloc 
 DD1 .          Rashad Habibov:  Direct Drillr 1 
 DDSV.               Geo-Pilot:  DD Service 
 DEFF.%                  95.00:  % Det Eff 
 DLRX.°/30m               1.94:  Dogleg Rot Max 
 DLSO.°/30m               0.70:  Dogleg Oriented 
 DLSX.°/30m               1.94:  Dogleg Str Max 
 DRET.      04.45.00 25-Dec-20:  Drill End Time 
 DRST.      10.00.00 24-Dec-20:  Drill Start Tim 
 DTIM.hr                 16.64:  Time Drilling 
 EDEP.m                4999.01:  End Depth 
 ENG1.         Elchin Mammadov:  Engineer 1 
 ENG2.          Ruslan Safarov:  Engineer 2 
 ENG3.          Rustam Safarov:  Engineer 3 
 ETIM.      09.00.00 29-Dec-20:  End Time 
 FLOI.gpm               500.00:  Flow In 
 FLON.gpm               400.00:  Flow In Min 
 FLOS.cptm                0.00:  Fluid Loss 
 FLOX.gpm               500.00:  Flow In Max 
 HFLO.                      No:  High Flow 
 HPRE.                      No:  High Pressure 
 HTEM.                      No:  High Temp 
 HYDO.m                   2.00:  Hydro Offset 
 IFIN.deg                66.79:  Inc, Final 
 IMAX.deg                67.66:  Inc Max 
 IMIN.deg                66.39:  Inc Min 
 IMND.m                4949.37:  Inc Min Depth 
 IMXD.m                4778.63:  Inc Max Depth 
 JARR.                     Yes:  Jarring 
 LETM.      04.45.00 25-Dec-20:  Log End Time 
 LOST.hr                     0:  Lost Rig Time 
 LSTM.      10.00.00 24-Dec-20:  Log Start Time 
 MDCL.ppm             39000.00:  Mud Chlorides 
 MDES.     Inversion Oil/Synthetic:  Mud Desc 
 DFD .sg                  1.33:  Mud Density 
 MDMN.sg                  1.33:  Dens Mud Min 
 MDMX.sg                  1.33:  Dens Mud Max 
 MOIL.                      70:  Run Mud Oil % 
 MOWR.                   70:30:  Run Mud OWR 
 MSND.                       0:  Run Mud Sand % 
 MSOL.                    17.4:  Run Mud Solids% 
 DFV .spqt               84.00:  Mud Viscosity 
 MWOD.in                  6.75:  MWD Tool OD 
 MWSI.                     Yes:  Serv Intrp, MWD 
 OTIM.hr                168.14:  Time Operating 
 PCON.           Look Like New:  Pad Condition 
 PMAX.psia            10822.93:  Press Op, Max 
 PV  .cP                 30.00:  Mud PV 
 RUN .                     900:  Run Number 
 ROPA.m/hr               18.00:  ROP Avg 
 ROPN.m/hr               12.00:  ROP Min 
 ROPX.m/hr               25.00:  ROP Max 
 RPMA.rpm               120.00:  RPM Surface Avg 
 RPMN.rpm               100.00:  RPM Surface Min 
 RPMX.rpm               120.00:  RPM Surface Max 
 RRUN.                    0900:  Rig Run Number 
 SAZI.deg               115.08:  Azm, Start 
 SDEP.m                4762.01:  Start Depth 
 SIDD.                      No:  Serv Intrp, DD 
 SINC.deg                66.14:  Inc, Start 
 SPPA.psig             3700.00:  SPP Avg 
 SPPN.psig             3620.00:  SPP Min 
 SPPX.psig             3900.00:  SPP Max 
 STIM.      09.30.00 22-Dec-20:  Start Time 
 SVCS.                 DD, MWD:  Services 
 SVER.                    9.20:  Sperry Version 
 TDAT.m                 237.00:  Tot Depth Attmp 
 TDDF.                      No:  Trip for DD 
 TDLG.m                 237.00:  Tot Depth Loggd 
 TFF .                      No:  Trip for Fail 
 TQAA.f-kp               18.00:  Torque Abs Avg 
 TQAN.f-kp               17.00:  Torque Abs Min 
 TQAX.f-kp               20.00:  Torque Abs Max 
 TRRT.°/30m               0.60:  Turn Rotating 
 MRT .                    HCIM:  Maximum Recorded Temperature 
 TTMX.degC               94.12:  Max Tool Temp 
 VS01.                90627809:  Virtual Str1 SN 
 VS02.                90527813:  Virtual Str2 SN 
 VS03.                90545417:  Virtual Str3 SN 
 VS04.                12460870:  Virtual Str4 SN 
 VS05.                90516706:  Virtual Str5 SN 
 VS06.                90632007:  Virtual Str6 SN 
 WBMN.klb                 0.00:  WOB Min 
 WOBA.klb                14.00:  WOB Avg 
 WOBX.klb                25.00:  WOB Max 
 YP  .lhf2               32.00:  Yield Point 
~Curve Information Block
#MNEM.UNIT                 API CODE     Curve Description
#---------               -----------    ---------------------------
 TIME.HHMMSS            00 000 000 000:  GT Time & Date
 GTDEPTH.m              00 000 000 000:  GT Depth
 GTPQH.psia             00 000 000 000:  GT HR Quartz Pressure
 GTTQ.degC              00 000 000 000:  GT Quartz Temperature
 GTTN.NONE              00 000 000 000:  GT Test Number
 GTET.sec               00 000 000 000:  GT Elapsed Test Time
 GTTVD.m                00 000 000 000:  GT True Vertical Depth
#Other Information
#
#WARRANTY: Halliburton will use its best efforts to furnish customers with 
#accurate information and interpretations that are part of, and incident to, the services 
#provided.  However, Halliburton cannot and does not warrant the accuracy 
#or correctness of such information and interpretations.  Under no circumstances should any 
#such information or interpretation be relied upon as the sole basis for any drilling, 
#completion, production, or financial decision or any procedure involving any risk to the 
#safety of any drilling venture, drilling rig or its crew or any other third party.  The 
#Customer has full responsibility for all drilling, completion and production operation.  
#Halliburton makes no representations or warranties, either expressed or 
#implied, including, but not limited to, the implied warranties of merchantability or fitness 
#for a particular purpose, with respect to the services rendered.  In no event will 
#Halliburton be liable for failure to obtain any particular results or for 
#any damages, including, but not limited to, indirect, special or consequential damages, 
#resulting from the use of any information or interpretation provided by Halliburton.
#
~A           TIME           GTDEPTH  GTPQH  GTTQ  GTTN  GTET   GTTVD  
# ...
   12:57:50.299.25-Dec-2020 4950.51 2090.67 66.61 1.00 253.11 2558.08
   12:57:50.499.25-Dec-2020 4950.51 2090.67 66.61 1.00 253.31 2558.08
   12:57:50.699.25-Dec-2020 4950.51 2090.52 66.61 1.00 253.51 2558.08
   12:57:50.899.25-Dec-2020 4950.51 2090.38 66.61 1.00 253.71 2558.08
   12:57:51.099.25-Dec-2020 4950.51 2090.37 66.61 1.00 253.91 2558.08
   12:57:51.299.25-Dec-2020 4950.51 2089.86 66.61 1.00 254.11 2558.08
   12:57:51.499.25-Dec-2020 4950.51 2089.86 66.61 1.00 254.31 2558.08
   12:57:51.699.25-Dec-2020 4950.51 2090.29 66.61 1.00 254.51 2558.08
   12:57:51.899.25-Dec-2020 4950.51 2090.43 66.61 1.00 254.71 2558.08
   12:57:52.099.25-Dec-2020 4950.51 2090.32 66.61 1.00 254.91 2558.08
   12:57:52.300.25-Dec-2020 4950.51 2090.38 66.61 1.00 255.12 2558.08
   12:57:52.500.25-Dec-2020 4950.51 2090.38 66.61 1.00 255.32 2558.08
   12:57:52.700.25-Dec-2020 4950.51 2090.28 66.61 1.00 255.52 2558.08
   12:57:52.900.25-Dec-2020 4950.51 2090.23 66.61 1.00 255.72 2558.08
   12:57:53.100.25-Dec-2020 4950.51 2090.28 66.61 1.00 255.92 2558.08
   12:57:53.300.25-Dec-2020 4950.51 2090.26 66.61 1.00 256.12 2558.08
   12:57:53.500.25-Dec-2020 4950.51 2090.30 66.61 1.00 256.32 2558.08
   12:57:53.700.25-Dec-2020 4950.51 2090.28 66.61 1.00 256.52 2558.08
   12:57:53.900.25-Dec-2020 4950.51 2089.59 66.61 1.00 256.72 2558.08
   12:57:54.100.25-Dec-2020 4950.51 2090.78 66.61 1.00 256.92 2558.08
   12:57:54.300.25-Dec-2020 4950.51 2090.38 66.61 1.00 257.12 2558.08
   12:57:54.501.25-Dec-2020 4950.51 2090.38 66.61 1.00 257.32 2558.08
   12:57:54.701.25-Dec-2020 4950.51 2090.39 66.61 1.00 257.52 2558.08
   12:57:54.901.25-Dec-2020 4950.51 2090.26 66.61 1.00 257.72 2558.08
   12:57:55.101.25-Dec-2020 4950.51 2090.43 66.61 1.00 257.92 2558.08
   12:57:55.301.25-Dec-2020 4950.51 2090.37 66.61 1.00 258.12 2558.08
   12:57:55.501.25-Dec-2020 4950.51 2090.37 66.61 1.00 258.32 2558.08
   12:57:55.701.25-Dec-2020 4950.51 2090.43 66.61 1.00 258.52 2558.08
   12:57:55.901.25-Dec-2020 4950.51 2090.36 66.61 1.00 258.72 2558.08
   12:57:56.101.25-Dec-2020 4950.51 2090.40 66.61 1.00 258.92 2558.08
   12:57:56.301.25-Dec-2020 4950.51 2089.80 66.61 1.00 259.12 2558.08
   12:57:56.501.25-Dec-2020 4950.51 2089.80 66.61 1.00 259.32 2558.08
   12:57:56.702.25-Dec-2020 4950.51 2090.15 66.61 1.00 259.52 2558.08
   12:57:56.902.25-Dec-2020 4950.51 2090.65 66.61 1.00 259.72 2558.08
   12:57:57.102.25-Dec-2020 4950.51 2089.92 66.61 1.00 259.92 2558.08
   12:57:57.302.25-Dec-2020 4950.51 2090.77 66.61 1.00 260.12 2558.08
   12:57:57.502.25-Dec-2020 4950.51 2090.77 66.61 1.00 260.32 2558.08
   12:57:57.702.25-Dec-2020 4950.51 2090.23 66.61 1.00 260.52 2558.08
   12:57:57.902.25-Dec-2020 4950.51 2090.91 66.61 1.00 260.72 2558.08
   12:57:58.102.25-Dec-2020 4950.51 2090.49 66.61 1.00 260.92 2558.08
   12:57:58.302.25-Dec-2020 4950.51 2090.35 66.61 1.00 261.12 2558.08
   12:57:58.502.25-Dec-2020 4950.51 2090.35 66.61 1.00 261.32 2558.08
   12:57:58.702.25-Dec-2020 4950.51 2090.66 66.61 1.00 261.52 2558.08
   12:57:58.903.25-Dec-2020 4950.51 2090.61 66.61 1.00 261.72 2558.08
   12:57:59.103.25-Dec-2020 4950.51 2090.38 66.61 1.00 261.92 2558.08
   12:57:59.303.25-Dec-2020 4950.51 2090.42 66.61 1.00 262.12 2558.08
   12:57:59.503.25-Dec-2020 4950.51 2090.42 66.61 1.00 262.32 2558.08
   12:57:59.703.25-Dec-2020 4950.51 2090.45 66.61 1.00 262.52 2558.08
   12:57:59.903.25-Dec-2020 4950.51 2090.31 66.61 1.00 262.72 2558.08
   12:58:00.103.25-Dec-2020 4950.51 2090.39 66.61 1.00 262.92 2558.08
   12:58:00.303.25-Dec-2020 4950.51 2090.42 66.61 1.00 263.12 2558.08
   12:58:00.503.25-Dec-2020 4950.51 2090.42 66.61 1.00 263.32 2558.08
   12:58:00.703.25-Dec-2020 4950.51 2090.43 66.61 1.00 263.52 2558.08
   12:58:00.903.25-Dec-2020 4950.51 2089.85 66.61 1.00 263.72 2558.08
   12:58:01.104.25-Dec-2020 4950.51 2090.88 66.61 1.00 263.92 2558.08
   12:58:01.304.25-Dec-2020 4950.51 2090.19 66.61 1.00 264.12 2558.08
   12:58:01.504.25-Dec-2020 4950.51 2090.19 66.61 1.00 264.32 2558.08
   12:58:01.704.25-Dec-2020 4950.51 2090.53 66.61 1.00 264.52 2558.08
   12:58:01.904.25-Dec-2020 4950.51 2090.43 66.61 1.00 264.72 2558.08
   12:58:02.104.25-Dec-2020 4950.51 2090.51 66.61 1.00 264.92 2558.08
   12:58:02.304.25-Dec-2020 4950.51 2090.57 66.61 1.00 265.12 2558.08
   12:58:02.504.25-Dec-2020 4950.51 2090.57 66.61 1.00 265.32 2558.08
   12:58:02.704.25-Dec-2020 4950.51 2090.47 66.61 1.00 265.52 2558.08
   12:58:02.904.25-Dec-2020 4950.51 2090.41 66.61 1.00 265.72 2558.08
   12:58:03.104.25-Dec-2020 4950.51 2090.43 66.61 1.00 265.92 2558.08
   12:58:03.305.25-Dec-2020 4950.51 2090.11 66.61 1.00 266.12 2558.08
   12:58:03.505.25-Dec-2020 4950.51 2090.11 66.61 1.00 266.32 2558.08
   12:58:03.705.25-Dec-2020 4950.51 2090.42 66.61 1.00 266.52 2558.08
   12:58:03.905.25-Dec-2020 4950.51 2090.58 66.61 1.00 266.72 2558.08
   12:58:04.105.25-Dec-2020 4950.51 2090.13 66.61 1.00 266.92 2558.08
   12:58:04.305.25-Dec-2020 4950.51 2090.89 66.61 1.00 267.12 2558.08
   12:58:04.505.25-Dec-2020 4950.51 2090.89 66.61 1.00 267.32 2558.08
   12:58:04.705.25-Dec-2020 4950.51 2090.03 66.61 1.00 267.52 2558.08
   12:58:04.905.25-Dec-2020 4950.51 2091.08 66.61 1.00 267.72 2558.08
   12:58:05.105.25-Dec-2020 4950.51 2090.49 66.61 1.00 267.92 2558.08
   12:58:05.305.25-Dec-2020 4950.51 2090.73 66.61 1.00 268.12 2558.08
   12:58:05.506.25-Dec-2020 4950.51 2090.73 66.61 1.00 268.32 2558.08
   12:58:05.706.25-Dec-2020 4950.51 2090.89 66.61 1.00 268.52 2558.08
   12:58:05.906.25-Dec-2020 4950.51 2090.71 66.60 1.00 268.72 2558.08
   12:58:06.106.25-Dec-2020 4950.51 2090.55 66.60 1.00 268.92 2558.08
   12:58:06.306.25-Dec-2020 4950.51 2090.38 66.60 1.00 269.12 2558.08
   12:58:06.506.25-Dec-2020 4950.51 2090.38 66.60 1.00 269.32 2558.08
   12:58:06.706.25-Dec-2020 4950.51 2090.61 66.60 1.00 269.52 2558.08
   12:58:06.906.25-Dec-2020 4950.51 2090.49 66.60 1.00 269.72 2558.08
   12:58:07.106.25-Dec-2020 4950.51 2090.44 66.60 1.00 269.92 2558.08
   12:58:07.306.25-Dec-2020 4950.51 2090.44 66.60 1.00 270.12 2558.08
   12:58:07.506.25-Dec-2020 4950.51 2090.44 66.60 1.00 270.32 2558.08
   12:58:07.707.25-Dec-2020 4950.51 2090.54 66.60 1.00 270.52 2558.08
   12:58:07.907.25-Dec-2020 4950.51 2090.06 66.60 1.00 270.72 2558.08
   12:58:08.107.25-Dec-2020 4950.51 2090.72 66.60 1.00 270.92 2558.08
   12:58:08.307.25-Dec-2020 4950.51 2090.42 66.60 1.00 271.12 2558.08
   12:58:08.507.25-Dec-2020 4950.51 2090.42 66.60 1.00 271.32 2558.08
   12:58:08.707.25-Dec-2020 4950.51 2090.63 66.60 1.00 271.52 2558.08
   12:58:08.907.25-Dec-2020 4950.51 2090.65 66.60 1.00 271.72 2558.08
   12:58:09.107.25-Dec-2020 4950.51 2090.58 66.60 1.00 271.92 2558.08
   12:58:09.307.25-Dec-2020 4950.51 2090.61 66.60 1.00 272.12 2558.08
   12:58:09.507.25-Dec-2020 4950.51 2090.61 66.60 1.00 272.32 2558.08
   12:58:09.707.25-Dec-2020 4950.51 2090.58 66.60 1.00 272.52 2558.08
   12:58:09.907.25-Dec-2020 4950.51 2090.61 66.60 1.00 272.72 2558.08
   12:58:10.108.25-Dec-2020 4950.51 2090.56 66.60 1.00 272.92 2558.08
   12:58:10.308.25-Dec-2020 4950.51 2090.51 66.60 1.00 273.12 2558.08
   12:58:10.508.25-Dec-2020 4950.51 2090.51 66.60 1.00 273.32 2558.08
   12:58:10.708.25-Dec-2020 4950.51 2090.73 66.60 1.00 273.52 2558.08
   12:58:10.908.25-Dec-2020 4950.51 2090.73 66.60 1.00 273.72 2558.08
   12:58:11.108.25-Dec-2020 4950.51 2090.01 66.60 1.00 273.92 2558.08
   12:58:11.308.25-Dec-2020 4950.51 2090.99 66.60 1.00 274.12 2558.08
   12:58:11.508.25-Dec-2020 4950.51 2090.99 66.60 1.00 274.32 2558.08
   12:58:11.708.25-Dec-2020 4950.51 2090.22 66.60 1.00 274.52 2558.08
   12:58:11.908.25-Dec-2020 4950.51 2091.11 66.60 1.00 274.72 2558.08
   12:58:12.108.25-Dec-2020 4950.51 2090.28 66.60 1.00 274.92 2558.08
   12:58:12.309.25-Dec-2020 4950.51 2090.27 66.60 1.00 275.12 2558.08
   12:58:12.509.25-Dec-2020 4950.51 2090.27 66.60 1.00 275.32 2558.08
   12:58:12.709.25-Dec-2020 4950.51 2090.76 66.60 1.00 275.52 2558.08
   12:58:12.909.25-Dec-2020 4950.51 2090.59 66.60 1.00 275.72 2558.08
   12:58:13.109.25-Dec-2020 4950.51 2090.49 66.60 1.00 275.92 2558.08
