~Version Information
 VERS.                  2.0:   CWLS log ASCII Standard -VERSION 2.0
 WRAP.                   NO:   One line per depth step
~Well Information Block
#MNEM.UNIT     VALUE/NAME     DESCRIPTION
#---------     -----------    ---------------------------
 STRT.S             19:12:01 25-Dec-20: START TIME 19:12:01 25-Dec-20
 STOP.S             19:20:19 25-Dec-20: STOP TIME  19:20:19 25-Dec-20
 STEP.S                   0.00: STEP TIME
 NULL.                 -999.25: NULL VALUE
 DFWT.                        :  DIST FWL TEXT
 DFST.                        :  DIST FSL TEXT
 DMF .             Drill Floor:  DRILL MEAS FROM
 STIM.      04.54.24 22-Sep-20:  START TIME
 DATE.      04.54.24 21-Nov-20:  END TIME
 SPUD.               21-Nov-20:  SPUD DATE
 NREF.                    Grid:  NORTH REFERENCE
 HPTY.       Minimum Curvature:  HOLE POS TYPE
 DMOD.             Drill Model:  DRILL MOD DESC
 SVYD.                  Survey:  SURVEY DESC
 ILTD.               Lithology:  INTERP LTH DESC
 FTOP.          Formation Tops:  FORM TOPS DESC
 SON .        AZ-XX-0906571587:  JOB NUMBER
 COMP.     BP Exploration (Caspian Sea) Ltd:  COMPANY
 UWI .                     N/A:  UNIQUE WELL IDENTIFIER
 API .                     N/A:  API NUMBER
 BASE.              Azerbaijan:  LOGGING EQUIPMENT BASE LOCATION
 REGN.                   EESSA:  REGION
 PROV.                    Baku:  PROVINCE
 STAT.                    Baku:  STATE NAME
 CTRY.              Azerbaijan:  COUNTRY NAME
 FLD .                     ACG:  FIELD NAME
 SRVC.     TURAN Drilling & Engineering:  CONTRACTOR
 WELL.                     J27:  WELL NAME
 RIG .             West Chirag:  RIG NAME
 DOE .                     N/A:  DOE NUMBER
 DCON.         Sperry Drilling:  DIRECTNL CONTR
 PDAT.          Mean Sea Level:  PERMANENT DATUM
 WTYP.                Deviated:  WELL TYPE
 MWDS.                    Baku:  MWD SHOP
 JOBN.        AZ-XX-0906571587:  JOB TICKET NUMB
 UNIT.                     N/A:  LOGGING EQUIPMENT ID
 MDS .        Operator Entered:  MAG DATA SOURCE
 CNTY.                        :  COUNTY
 LOC .                        :  LOCATION
 LMF .             Drill Floor:  LOG MEASURED FROM
 TVDS.m                  43.00:  TVDSS CORRECTN
 LATI.deg                40.13:  LATITUDE
 LONG.deg                51.22:  LONGITUDE
 WHNS.m                   7.72:  WELL HEAD N/S
 WHEW.m                 -14.24:  WELL HEAD E/W
 UTMX.m              519005.06:  UTM X
 UTMY.m             4443793.85:  UTM Y
 DFWL.m                   0.00:  DISTANCE FWL
 DFSL.m                   0.00:  DISTANCE FSL
 SDEP.m                 347.00:  START DEPTH
 TDD .m                 581.00:  TOTAL DEPTH (DRILLER)
 VSDR.deg               159.72:  VERT SEC DIRECT
 GVFD.g                   1.00:  GRAVITY FIELD
 MFLD.nT              50318.00:  MAGNETIC FIELD
 MDIP.deg                59.57:  MAGNETIC DIP
 MDEC.deg                 6.44:  MAGNETIC DECL
 GRDC.deg                 0.15:  GRID CORRECTION
 AZTC.deg                 6.29:  AZM TOTAL CORR
 EPD .m                   0.00:  ELEVATION
 EGL .m                   0.00:  GROUND ELEVATION
 WDMS.m                 169.80:  WD ELEV
 APD .m                  43.00:  DEPTH ABOVE PD
 AGAP.m                  43.00:  AIR GAP
 VSEW.m                 -14.24:  VERT SEC E/W
 VSNS.m                   7.72:  VERT SEC N/S
 DEP .m                 342.45:  DEPTH
 EKB .m                   0.00:  KB ELEVATION
 EDF .m                  43.00:  DF ELEVATION
 TDL .m                 237.00:  TOTAL DEPTH (LOGGER)
 VSC .                       0:  VS TO CLOSURE
 MAGU.                 1851428:  MAGUTM CHECKSUM
~Parameter Information Block
#MNEM.UNIT       Value        Description
#---------     -----------    ---------------------------
 AV  .mps                 1.50:  Ann Velocity 
 AVMX.mps                 2.90:  Max Ann Veloc 
 AZIF.deg               115.59:  Azm, Final 
 BHAT.        Rotary Steerable:  BHA Type 
 BROT.°/30m               0.50:  Build Rotating 
 BS  .in                  8.50:  Bit Size 
 BTPL.psig              580.00:  Bit Press Loss 
 CABU.                     Yes:  Customer Abuse 
 COMM.                     Ìt:  Run Comments 1 
 TCS .hr                 89.79:  Time Ciculation Ended 
 CV  .mps                 3.22:  Crit Velocity 
 CVMX.mps                 4.37:  Max Crit Veloc 
 DD1 .          Rashad Habibov:  Direct Drillr 1 
 DDSV.               Geo-Pilot:  DD Service 
 DEFF.%                  95.00:  % Det Eff 
 DLRX.°/30m               1.94:  Dogleg Rot Max 
 DLSO.°/30m               0.70:  Dogleg Oriented 
 DLSX.°/30m               1.94:  Dogleg Str Max 
 DRET.      04.45.00 25-Dec-20:  Drill End Time 
 DRST.      10.00.00 24-Dec-20:  Drill Start Tim 
 DTIM.hr                 16.64:  Time Drilling 
 EDEP.m                4999.01:  End Depth 
 ENG1.         Elchin Mammadov:  Engineer 1 
 ENG2.          Ruslan Safarov:  Engineer 2 
 ENG3.          Rustam Safarov:  Engineer 3 
 ETIM.      09.00.00 29-Dec-20:  End Time 
 FLOI.gpm               500.00:  Flow In 
 FLON.gpm               400.00:  Flow In Min 
 FLOS.cptm                0.00:  Fluid Loss 
 FLOX.gpm               500.00:  Flow In Max 
 HFLO.                      No:  High Flow 
 HPRE.                      No:  High Pressure 
 HTEM.                      No:  High Temp 
 HYDO.m                   2.00:  Hydro Offset 
 IFIN.deg                66.79:  Inc, Final 
 IMAX.deg                67.66:  Inc Max 
 IMIN.deg                66.39:  Inc Min 
 IMND.m                4949.37:  Inc Min Depth 
 IMXD.m                4778.63:  Inc Max Depth 
 JARR.                     Yes:  Jarring 
 LETM.      04.45.00 25-Dec-20:  Log End Time 
 LOST.hr                     0:  Lost Rig Time 
 LSTM.      10.00.00 24-Dec-20:  Log Start Time 
 MDCL.ppm             39000.00:  Mud Chlorides 
 MDES.     Inversion Oil/Synthetic:  Mud Desc 
 DFD .sg                  1.33:  Mud Density 
 MDMN.sg                  1.33:  Dens Mud Min 
 MDMX.sg                  1.33:  Dens Mud Max 
 MOIL.                      70:  Run Mud Oil % 
 MOWR.                   70:30:  Run Mud OWR 
 MSND.                       0:  Run Mud Sand % 
 MSOL.                    17.4:  Run Mud Solids% 
 DFV .spqt               84.00:  Mud Viscosity 
 MWOD.in                  6.75:  MWD Tool OD 
 MWSI.                     Yes:  Serv Intrp, MWD 
 OTIM.hr                168.14:  Time Operating 
 PCON.           Look Like New:  Pad Condition 
 PMAX.psia            10822.93:  Press Op, Max 
 PV  .cP                 30.00:  Mud PV 
 RUN .                     900:  Run Number 
 ROPA.m/hr               18.00:  ROP Avg 
 ROPN.m/hr               12.00:  ROP Min 
 ROPX.m/hr               25.00:  ROP Max 
 RPMA.rpm               120.00:  RPM Surface Avg 
 RPMN.rpm               100.00:  RPM Surface Min 
 RPMX.rpm               120.00:  RPM Surface Max 
 RRUN.                    0900:  Rig Run Number 
 SAZI.deg               115.08:  Azm, Start 
 SDEP.m                4762.01:  Start Depth 
 SIDD.                      No:  Serv Intrp, DD 
 SINC.deg                66.14:  Inc, Start 
 SPPA.psig             3700.00:  SPP Avg 
 SPPN.psig             3620.00:  SPP Min 
 SPPX.psig             3900.00:  SPP Max 
 STIM.      09.30.00 22-Dec-20:  Start Time 
 SVCS.                 DD, MWD:  Services 
 SVER.                    9.20:  Sperry Version 
 TDAT.m                 237.00:  Tot Depth Attmp 
 TDDF.                      No:  Trip for DD 
 TDLG.m                 237.00:  Tot Depth Loggd 
 TFF .                      No:  Trip for Fail 
 TQAA.f-kp               18.00:  Torque Abs Avg 
 TQAN.f-kp               17.00:  Torque Abs Min 
 TQAX.f-kp               20.00:  Torque Abs Max 
 TRRT.°/30m               0.60:  Turn Rotating 
 MRT .                    HCIM:  Maximum Recorded Temperature 
 TTMX.degC               94.12:  Max Tool Temp 
 VS01.                90627809:  Virtual Str1 SN 
 VS02.                90527813:  Virtual Str2 SN 
 VS03.                90545417:  Virtual Str3 SN 
 VS04.                12460870:  Virtual Str4 SN 
 VS05.                90516706:  Virtual Str5 SN 
 VS06.                90632007:  Virtual Str6 SN 
 WBMN.klb                 0.00:  WOB Min 
 WOBA.klb                14.00:  WOB Avg 
 WOBX.klb                25.00:  WOB Max 
 YP  .lhf2               32.00:  Yield Point 
~Curve Information Block
#MNEM.UNIT                 API CODE     Curve Description
#---------               -----------    ---------------------------
 TIME.HHMMSS            00 000 000 000:  GT Time & Date
 GTDEPTH.m              00 000 000 000:  GT Depth
 GTPQH.psia             00 000 000 000:  GT HR Quartz Pressure
 GTTQ.degC              00 000 000 000:  GT Quartz Temperature
 GTTN.NONE              00 000 000 000:  GT Test Number
 GTET.sec               00 000 000 000:  GT Elapsed Test Time
 GTTVD.m                00 000 000 000:  GT True Vertical Depth
#Other Information
#
#WARRANTY: Halliburton will use its best efforts to furnish customers with 
#accurate information and interpretations that are part of, and incident to, the services 
#provided.  However, Halliburton cannot and does not warrant the accuracy 
#or correctness of such information and interpretations.  Under no circumstances should any 
#such information or interpretation be relied upon as the sole basis for any drilling, 
#completion, production, or financial decision or any procedure involving any risk to the 
#safety of any drilling venture, drilling rig or its crew or any other third party.  The 
#Customer has full responsibility for all drilling, completion and production operation.  
#Halliburton makes no representations or warranties, either expressed or 
#implied, including, but not limited to, the implied warranties of merchantability or fitness 
#for a particular purpose, with respect to the services rendered.  In no event will 
#Halliburton be liable for failure to obtain any particular results or for 
#any damages, including, but not limited to, indirect, special or consequential damages, 
#resulting from the use of any information or interpretation provided by Halliburton.
#
~A           TIME           GTDEPTH  GTPQH  GTTQ  GTTN  GTET   GTTVD  
# ...
   19:15:05.266.25-Dec-2020 4808.01  211.92 63.85 7.00 184.15 2502.07
   19:15:05.466.25-Dec-2020 4808.01  211.92 63.85 7.00 184.35 2502.07
   19:15:05.667.25-Dec-2020 4808.01  163.34 63.85 7.00 184.55 2502.07
   19:15:05.867.25-Dec-2020 4808.01  149.67 63.85 7.00 184.75 2502.07
   19:15:06.067.25-Dec-2020 4808.01  135.75 63.84 7.00 184.95 2502.07
   19:15:06.267.25-Dec-2020 4808.01  118.42 63.84 7.00 185.15 2502.07
   19:15:06.467.25-Dec-2020 4808.01  118.42 63.84 7.00 185.35 2502.07
   19:15:06.667.25-Dec-2020 4808.01   98.14 63.84 7.00 185.55 2502.07
   19:15:06.868.25-Dec-2020 4808.01   88.81 63.84 7.00 185.75 2502.07
   19:15:07.068.25-Dec-2020 4808.01   81.09 63.84 7.00 185.95 2502.07
   19:15:07.268.25-Dec-2020 4808.01   70.54 63.84 7.00 186.15 2502.07
   19:15:07.468.25-Dec-2020 4808.01   70.54 63.84 7.00 186.35 2502.07
   19:15:07.668.25-Dec-2020 4808.01   60.76 63.83 7.00 186.55 2502.07
   19:15:07.868.25-Dec-2020 4808.01   55.92 63.83 7.00 186.75 2502.07
   19:15:08.068.25-Dec-2020 4808.01   51.70 63.83 7.00 186.95 2502.07
   19:15:08.269.25-Dec-2020 4808.01   47.44 63.83 7.00 187.15 2502.07
   19:15:08.469.25-Dec-2020 4808.01   47.44 63.83 7.00 187.35 2502.07
   19:15:08.669.25-Dec-2020 4808.01   40.40 63.83 7.00 187.55 2502.07
   19:15:08.869.25-Dec-2020 4808.01   37.72 63.83 7.00 187.75 2502.07
   19:15:09.069.25-Dec-2020 4808.01   35.89 63.83 7.00 187.95 2502.07
   19:15:09.269.25-Dec-2020 4808.01   43.87 63.82 7.00 188.15 2502.07
   19:15:09.470.25-Dec-2020 4808.01   43.87 63.82 7.00 188.35 2502.07
   19:15:09.670.25-Dec-2020 4808.01   97.93 63.82 7.00 188.55 2502.07
   19:15:09.870.25-Dec-2020 4808.01  165.91 63.82 7.00 188.75 2502.07
   19:15:10.070.25-Dec-2020 4808.01  280.12 63.82 7.00 188.95 2502.07
   19:15:10.270.25-Dec-2020 4808.01  424.86 63.82 7.00 189.15 2502.07
   19:15:10.470.25-Dec-2020 4808.01  424.86 63.82 7.00 189.35 2502.07
   19:15:10.671.25-Dec-2020 4808.01  734.55 63.82 7.00 189.55 2502.07
   19:15:10.871.25-Dec-2020 4808.01  880.03 63.82 7.00 189.75 2502.07
   19:15:11.071.25-Dec-2020 4808.01 1015.55 63.82 7.00 189.95 2502.07
   19:15:11.271.25-Dec-2020 4808.01 1139.63 63.82 7.00 190.15 2502.07
   19:15:11.471.25-Dec-2020 4808.01 1139.63 63.82 7.00 190.35 2502.07
   19:15:11.671.25-Dec-2020 4808.01 1354.81 63.82 7.00 190.55 2502.07
   19:15:11.871.25-Dec-2020 4808.01 1447.83 63.81 7.00 190.75 2502.07
   19:15:12.072.25-Dec-2020 4808.01 1531.90 63.81 7.00 190.95 2502.07
   19:15:12.272.25-Dec-2020 4808.01 1607.26 63.81 7.00 191.15 2502.07
   19:15:12.472.25-Dec-2020 4808.01 1607.26 63.81 7.00 191.35 2502.07
   19:15:12.672.25-Dec-2020 4808.01 1737.11 63.81 7.00 191.55 2502.07
   19:15:12.872.25-Dec-2020 4808.01 1793.31 63.81 7.00 191.75 2502.07
   19:15:13.072.25-Dec-2020 4808.01 1844.75 63.82 7.00 191.95 2502.07
   19:15:13.273.25-Dec-2020 4808.01 1888.34 63.82 7.00 192.15 2502.07
   19:15:13.473.25-Dec-2020 4808.01 1888.34 63.82 7.00 192.35 2502.07
   19:15:13.673.25-Dec-2020 4808.01 1969.95 63.82 7.00 192.55 2502.07
   19:15:13.873.25-Dec-2020 4808.01 2004.34 63.82 7.00 192.75 2502.07
   19:15:14.073.25-Dec-2020 4808.01 2035.10 63.82 7.00 192.95 2502.07
   19:15:14.273.25-Dec-2020 4808.01 2061.45 63.82 7.00 193.15 2502.07
   19:15:14.474.25-Dec-2020 4808.01 2061.45 63.82 7.00 193.35 2502.07
   19:15:14.674.25-Dec-2020 4808.01 2108.55 63.82 7.00 193.55 2502.07
   19:15:14.874.25-Dec-2020 4808.01 2128.82 63.82 7.00 193.75 2502.07
   19:15:15.074.25-Dec-2020 4808.01 2147.20 63.82 7.00 193.95 2502.07
   19:15:15.274.25-Dec-2020 4808.01 2164.28 63.82 7.00 194.15 2502.07
   19:15:15.474.25-Dec-2020 4808.01 2164.28 63.82 7.00 194.35 2502.07
   19:15:15.674.25-Dec-2020 4808.01 2193.95 63.83 7.00 194.55 2502.07
   19:15:15.875.25-Dec-2020 4808.01 2205.75 63.83 7.00 194.75 2502.07
   19:15:16.075.25-Dec-2020 4808.01 2216.35 63.83 7.00 194.95 2502.07
   19:15:16.275.25-Dec-2020 4808.01 2225.65 63.83 7.00 195.15 2502.07
   19:15:16.475.25-Dec-2020 4808.01 2225.65 63.83 7.00 195.35 2502.07
   19:15:16.675.25-Dec-2020 4808.01 2241.19 63.83 7.00 195.55 2502.07
   19:15:16.875.25-Dec-2020 4808.01 2247.62 63.83 7.00 195.75 2502.07
   19:15:17.076.25-Dec-2020 4808.01 2253.41 63.84 7.00 195.95 2502.07
   19:15:17.276.25-Dec-2020 4808.01 2258.51 63.84 7.00 196.15 2502.07
   19:15:17.476.25-Dec-2020 4808.01 2258.51 63.84 7.00 196.36 2502.07
   19:15:17.676.25-Dec-2020 4808.01 2266.74 63.84 7.00 196.56 2502.07
   19:15:17.876.25-Dec-2020 4808.01 2270.63 63.84 7.00 196.76 2502.07
   19:15:18.076.25-Dec-2020 4808.01 2273.74 63.84 7.00 196.96 2502.07
   19:15:18.277.25-Dec-2020 4808.01 2276.78 63.84 7.00 197.16 2502.07
   19:15:18.477.25-Dec-2020 4808.01 2276.78 63.84 7.00 197.36 2502.07
   19:15:18.677.25-Dec-2020 4808.01 2281.83 63.85 7.00 197.56 2502.07
   19:15:18.877.25-Dec-2020 4808.01 2283.86 63.85 7.00 197.76 2502.07
   19:15:19.077.25-Dec-2020 4808.01 2285.39 63.85 7.00 197.96 2502.07
   19:15:19.277.25-Dec-2020 4808.01 2286.85 63.85 7.00 198.16 2502.07
   19:15:19.477.25-Dec-2020 4808.01 2286.85 63.85 7.00 198.36 2502.07
   19:15:19.678.25-Dec-2020 4808.01 2289.69 63.85 7.00 198.56 2502.07
   19:15:19.878.25-Dec-2020 4808.01 2290.00 63.85 7.00 198.76 2502.07
   19:15:20.078.25-Dec-2020 4808.01 2292.32 63.85 7.00 198.96 2502.07
   19:15:20.278.25-Dec-2020 4808.01 2293.35 63.86 7.00 199.16 2502.07
   19:15:20.478.25-Dec-2020 4808.01 2293.35 63.86 7.00 199.36 2502.07
   19:15:20.678.25-Dec-2020 4808.01 2295.70 63.86 7.00 199.56 2502.07
   19:15:20.879.25-Dec-2020 4808.01 2295.39 63.86 7.00 199.76 2502.07
   19:15:21.079.25-Dec-2020 4808.01 2296.34 63.86 7.00 199.96 2502.07
   19:15:21.279.25-Dec-2020 4808.01 2296.97 63.86 7.00 200.16 2502.07
   19:15:21.479.25-Dec-2020 4808.01 2296.97 63.86 7.00 200.36 2502.07
   19:15:21.679.25-Dec-2020 4808.01 2298.30 63.86 7.00 200.56 2502.07
   19:15:21.879.25-Dec-2020 4808.01 2298.66 63.86 7.00 200.76 2502.07
   19:15:22.080.25-Dec-2020 4808.01 2298.86 63.86 7.00 200.96 2502.07
   19:15:22.280.25-Dec-2020 4808.01 2298.84 63.86 7.00 201.16 2502.07
   19:15:22.480.25-Dec-2020 4808.01 2298.84 63.86 7.00 201.36 2502.07
   19:15:22.680.25-Dec-2020 4808.01 2300.42 63.87 7.00 201.56 2502.07
   19:15:22.880.25-Dec-2020 4808.01 2301.00 63.87 7.00 201.76 2502.07
   19:15:23.080.25-Dec-2020 4808.01 2301.15 63.87 7.00 201.96 2502.07
   19:15:23.280.25-Dec-2020 4808.01 2301.43 63.87 7.00 202.16 2502.07
   19:15:23.481.25-Dec-2020 4808.01 2301.43 63.87 7.00 202.36 2502.07
   19:15:23.681.25-Dec-2020 4808.01 2301.80 63.87 7.00 202.56 2502.07
   19:15:23.881.25-Dec-2020 4808.01 2301.94 63.87 7.00 202.76 2502.07
   19:15:24.081.25-Dec-2020 4808.01 2302.02 63.87 7.00 202.96 2502.07
   19:15:24.281.25-Dec-2020 4808.01 2302.16 63.87 7.00 203.16 2502.07
   19:15:24.481.25-Dec-2020 4808.01 2302.16 63.87 7.00 203.36 2502.07
   19:15:24.682.25-Dec-2020 4808.01 2302.31 63.87 7.00 203.56 2502.07
   19:15:24.882.25-Dec-2020 4808.01 2301.57 63.87 7.00 203.76 2502.07
   19:15:25.082.25-Dec-2020 4808.01 2302.75 63.87 7.00 203.96 2502.07
   19:15:25.282.25-Dec-2020 4808.01 2302.62 63.87 7.00 204.16 2502.07
   19:15:25.482.25-Dec-2020 4808.01 2302.62 63.87 7.00 204.36 2502.07
   19:15:25.682.25-Dec-2020 4808.01 2302.95 63.87 7.00 204.56 2502.07
   19:15:25.883.25-Dec-2020 4808.01 2302.92 63.87 7.00 204.76 2502.07
   19:15:26.083.25-Dec-2020 4808.01 2303.04 63.87 7.00 204.96 2502.07
   19:15:26.283.25-Dec-2020 4808.01 2303.14 63.87 7.00 205.16 2502.07
   19:15:26.483.25-Dec-2020 4808.01 2303.14 63.87 7.00 205.36 2502.07
   19:15:26.683.25-Dec-2020 4808.01 2303.20 63.87 7.00 205.56 2502.07
   19:15:26.883.25-Dec-2020 4808.01 2303.22 63.87 7.00 205.76 2502.07
   19:15:27.083.25-Dec-2020 4808.01 2303.20 63.87 7.00 205.96 2502.07
   19:15:27.284.25-Dec-2020 4808.01 2302.43 63.87 7.00 206.16 2502.07
   19:15:27.484.25-Dec-2020 4808.01 2302.43 63.87 7.00 206.36 2502.07
   19:15:27.684.25-Dec-2020 4808.01 2303.40 63.88 7.00 206.56 2502.07
   19:15:27.884.25-Dec-2020 4808.01 2303.65 63.88 7.00 206.76 2502.07
   19:15:28.084.25-Dec-2020 4808.01 2303.67 63.88 7.00 206.96 2502.07
