~Version Information
 VERS.                  2.0:   CWLS log ASCII Standard -VERSION 2.0
 WRAP.                   NO:   One line per depth step
~Well Information Block
#MNEM.UNIT     VALUE/NAME     DESCRIPTION
#---------     -----------    ---------------------------
 STRT.S             17:56:34 25-Dec-20: START TIME 17:56:34 25-Dec-20
 STOP.S             18:04:57 25-Dec-20: STOP TIME  18:04:57 25-Dec-20
 STEP.S                   0.00: STEP TIME
 NULL.                 -999.25: NULL VALUE
 DFWT.                        :  DIST FWL TEXT
 DFST.                        :  DIST FSL TEXT
 DMF .             Drill Floor:  DRILL MEAS FROM
 STIM.      04.54.24 22-Sep-20:  START TIME
 DATE.      04.54.24 21-Nov-20:  END TIME
 SPUD.               21-Nov-20:  SPUD DATE
 NREF.                    Grid:  NORTH REFERENCE
 HPTY.       Minimum Curvature:  HOLE POS TYPE
 DMOD.             Drill Model:  DRILL MOD DESC
 SVYD.                  Survey:  SURVEY DESC
 ILTD.               Lithology:  INTERP LTH DESC
 FTOP.          Formation Tops:  FORM TOPS DESC
 SON .        AZ-XX-0906571587:  JOB NUMBER
 COMP.     BP Exploration (Caspian Sea) Ltd:  COMPANY
 UWI .                     N/A:  UNIQUE WELL IDENTIFIER
 API .                     N/A:  API NUMBER
 BASE.              Azerbaijan:  LOGGING EQUIPMENT BASE LOCATION
 REGN.                   EESSA:  REGION
 PROV.                    Baku:  PROVINCE
 STAT.                    Baku:  STATE NAME
 CTRY.              Azerbaijan:  COUNTRY NAME
 FLD .                     ACG:  FIELD NAME
 SRVC.     TURAN Drilling & Engineering:  CONTRACTOR
 WELL.                     J27:  WELL NAME
 RIG .             West Chirag:  RIG NAME
 DOE .                     N/A:  DOE NUMBER
 DCON.         Sperry Drilling:  DIRECTNL CONTR
 PDAT.          Mean Sea Level:  PERMANENT DATUM
 WTYP.                Deviated:  WELL TYPE
 MWDS.                    Baku:  MWD SHOP
 JOBN.        AZ-XX-0906571587:  JOB TICKET NUMB
 UNIT.                     N/A:  LOGGING EQUIPMENT ID
 MDS .        Operator Entered:  MAG DATA SOURCE
 CNTY.                        :  COUNTY
 LOC .                        :  LOCATION
 LMF .             Drill Floor:  LOG MEASURED FROM
 TVDS.m                  43.00:  TVDSS CORRECTN
 LATI.deg                40.13:  LATITUDE
 LONG.deg                51.22:  LONGITUDE
 WHNS.m                   7.72:  WELL HEAD N/S
 WHEW.m                 -14.24:  WELL HEAD E/W
 UTMX.m              519005.06:  UTM X
 UTMY.m             4443793.85:  UTM Y
 DFWL.m                   0.00:  DISTANCE FWL
 DFSL.m                   0.00:  DISTANCE FSL
 SDEP.m                 347.00:  START DEPTH
 TDD .m                 581.00:  TOTAL DEPTH (DRILLER)
 VSDR.deg               159.72:  VERT SEC DIRECT
 GVFD.g                   1.00:  GRAVITY FIELD
 MFLD.nT              50318.00:  MAGNETIC FIELD
 MDIP.deg                59.57:  MAGNETIC DIP
 MDEC.deg                 6.44:  MAGNETIC DECL
 GRDC.deg                 0.15:  GRID CORRECTION
 AZTC.deg                 6.29:  AZM TOTAL CORR
 EPD .m                   0.00:  ELEVATION
 EGL .m                   0.00:  GROUND ELEVATION
 WDMS.m                 169.80:  WD ELEV
 APD .m                  43.00:  DEPTH ABOVE PD
 AGAP.m                  43.00:  AIR GAP
 VSEW.m                 -14.24:  VERT SEC E/W
 VSNS.m                   7.72:  VERT SEC N/S
 DEP .m                 342.45:  DEPTH
 EKB .m                   0.00:  KB ELEVATION
 EDF .m                  43.00:  DF ELEVATION
 TDL .m                 237.00:  TOTAL DEPTH (LOGGER)
 VSC .                       0:  VS TO CLOSURE
 MAGU.                 1851428:  MAGUTM CHECKSUM
~Parameter Information Block
#MNEM.UNIT       Value        Description
#---------     -----------    ---------------------------
 AV  .mps                 1.50:  Ann Velocity 
 AVMX.mps                 2.90:  Max Ann Veloc 
 AZIF.deg               115.59:  Azm, Final 
 BHAT.        Rotary Steerable:  BHA Type 
 BROT.∞/30m               0.50:  Build Rotating 
 BS  .in                  8.50:  Bit Size 
 BTPL.psig              580.00:  Bit Press Loss 
 CABU.                     Yes:  Customer Abuse 
 COMM.                     ‰E:  Run Comments 1 
 TCS .hr                 89.79:  Time Ciculation Ended 
 CV  .mps                 3.22:  Crit Velocity 
 CVMX.mps                 4.37:  Max Crit Veloc 
 DD1 .          Rashad Habibov:  Direct Drillr 1 
 DDSV.               Geo-Pilot:  DD Service 
 DEFF.%                  95.00:  % Det Eff 
 DLRX.∞/30m               1.94:  Dogleg Rot Max 
 DLSO.∞/30m               0.70:  Dogleg Oriented 
 DLSX.∞/30m               1.94:  Dogleg Str Max 
 DRET.      04.45.00 25-Dec-20:  Drill End Time 
 DRST.      10.00.00 24-Dec-20:  Drill Start Tim 
 DTIM.hr                 16.64:  Time Drilling 
 EDEP.m                4999.01:  End Depth 
 ENG1.         Elchin Mammadov:  Engineer 1 
 ENG2.          Ruslan Safarov:  Engineer 2 
 ENG3.          Rustam Safarov:  Engineer 3 
 ETIM.      09.00.00 29-Dec-20:  End Time 
 FLOI.gpm               500.00:  Flow In 
 FLON.gpm               400.00:  Flow In Min 
 FLOS.cptm                0.00:  Fluid Loss 
 FLOX.gpm               500.00:  Flow In Max 
 HFLO.                      No:  High Flow 
 HPRE.                      No:  High Pressure 
 HTEM.                      No:  High Temp 
 HYDO.m                   2.00:  Hydro Offset 
 IFIN.deg                66.79:  Inc, Final 
 IMAX.deg                67.66:  Inc Max 
 IMIN.deg                66.39:  Inc Min 
 IMND.m                4949.37:  Inc Min Depth 
 IMXD.m                4778.63:  Inc Max Depth 
 JARR.                     Yes:  Jarring 
 LETM.      04.45.00 25-Dec-20:  Log End Time 
 LOST.hr                     0:  Lost Rig Time 
 LSTM.      10.00.00 24-Dec-20:  Log Start Time 
 MDCL.ppm             39000.00:  Mud Chlorides 
 MDES.     Inversion Oil/Synthetic:  Mud Desc 
 DFD .sg                  1.33:  Mud Density 
 MDMN.sg                  1.33:  Dens Mud Min 
 MDMX.sg                  1.33:  Dens Mud Max 
 MOIL.                      70:  Run Mud Oil % 
 MOWR.                   70:30:  Run Mud OWR 
 MSND.                       0:  Run Mud Sand % 
 MSOL.                    17.4:  Run Mud Solids% 
 DFV .spqt               84.00:  Mud Viscosity 
 MWOD.in                  6.75:  MWD Tool OD 
 MWSI.                     Yes:  Serv Intrp, MWD 
 OTIM.hr                168.14:  Time Operating 
 PCON.           Look Like New:  Pad Condition 
 PMAX.psia            10822.93:  Press Op, Max 
 PV  .cP                 30.00:  Mud PV 
 RUN .                     900:  Run Number 
 ROPA.m/hr               18.00:  ROP Avg 
 ROPN.m/hr               12.00:  ROP Min 
 ROPX.m/hr               25.00:  ROP Max 
 RPMA.rpm               120.00:  RPM Surface Avg 
 RPMN.rpm               100.00:  RPM Surface Min 
 RPMX.rpm               120.00:  RPM Surface Max 
 RRUN.                    0900:  Rig Run Number 
 SAZI.deg               115.08:  Azm, Start 
 SDEP.m                4762.01:  Start Depth 
 SIDD.                      No:  Serv Intrp, DD 
 SINC.deg                66.14:  Inc, Start 
 SPPA.psig             3700.00:  SPP Avg 
 SPPN.psig             3620.00:  SPP Min 
 SPPX.psig             3900.00:  SPP Max 
 STIM.      09.30.00 22-Dec-20:  Start Time 
 SVCS.                 DD, MWD:  Services 
 SVER.                    9.20:  Sperry Version 
 TDAT.m                 237.00:  Tot Depth Attmp 
 TDDF.                      No:  Trip for DD 
 TDLG.m                 237.00:  Tot Depth Loggd 
 TFF .                      No:  Trip for Fail 
 TQAA.f-kp               18.00:  Torque Abs Avg 
 TQAN.f-kp               17.00:  Torque Abs Min 
 TQAX.f-kp               20.00:  Torque Abs Max 
 TRRT.∞/30m               0.60:  Turn Rotating 
 MRT .                    HCIM:  Maximum Recorded Temperature 
 TTMX.degC               94.12:  Max Tool Temp 
 VS01.                90627809:  Virtual Str1 SN 
 VS02.                90527813:  Virtual Str2 SN 
 VS03.                90545417:  Virtual Str3 SN 
 VS04.                12460870:  Virtual Str4 SN 
 VS05.                90516706:  Virtual Str5 SN 
 VS06.                90632007:  Virtual Str6 SN 
 WBMN.klb                 0.00:  WOB Min 
 WOBA.klb                14.00:  WOB Avg 
 WOBX.klb                25.00:  WOB Max 
 YP  .lhf2               32.00:  Yield Point 
~Curve Information Block
#MNEM.UNIT                 API CODE     Curve Description
#---------               -----------    ---------------------------
 TIME.HHMMSS            00 000 000 000:  GT Time & Date
 GTDEPTH.m              00 000 000 000:  GT Depth
 GTPQH.psia             00 000 000 000:  GT HR Quartz Pressure
 GTTQ.degC              00 000 000 000:  GT Quartz Temperature
 GTTN.NONE              00 000 000 000:  GT Test Number
 GTET.sec               00 000 000 000:  GT Elapsed Test Time
 GTTVD.m                00 000 000 000:  GT True Vertical Depth
#Other Information
#
#WARRANTY: Halliburton will use its best efforts to furnish customers with 
#accurate information and interpretations that are part of, and incident to, the services 
#provided.  However, Halliburton cannot and does not warrant the accuracy 
#or correctness of such information and interpretations.  Under no circumstances should any 
#such information or interpretation be relied upon as the sole basis for any drilling, 
#completion, production, or financial decision or any procedure involving any risk to the 
#safety of any drilling venture, drilling rig or its crew or any other third party.  The 
#Customer has full responsibility for all drilling, completion and production operation.  
#Halliburton makes no representations or warranties, either expressed or 
#implied, including, but not limited to, the implied warranties of merchantability or fitness 
#for a particular purpose, with respect to the services rendered.  In no event will 
#Halliburton be liable for failure to obtain any particular results or for 
#any damages, including, but not limited to, indirect, special or consequential damages, 
#resulting from the use of any information or interpretation provided by Halliburton.
#
~A           TIME           GTDEPTH  GTPQH  GTTQ  GTTN  GTET   GTTVD  
# ...
   18:01:56.598.25-Dec-2020 4856.51 1495.22 64.21 5.00 321.87 2521.01
   18:01:56.797.25-Dec-2020 4856.51 1495.22 64.21 5.00 322.07 2521.01
   18:01:56.997.25-Dec-2020 4856.51 1334.95 64.21 5.00 322.27 2521.01
   18:01:57.197.25-Dec-2020 4856.51 1277.08 64.21 5.00 322.47 2521.01
   18:01:57.397.25-Dec-2020 4856.51 1223.41 64.21 5.00 322.67 2521.01
   18:01:57.597.25-Dec-2020 4856.51 1173.96 64.21 5.00 322.87 2521.01
   18:01:57.797.25-Dec-2020 4856.51 1173.96 64.21 5.00 323.07 2521.01
   18:01:57.997.25-Dec-2020 4856.51 1094.78 64.21 5.00 323.27 2521.01
   18:01:58.197.25-Dec-2020 4856.51 1060.38 64.20 5.00 323.47 2521.01
   18:01:58.397.25-Dec-2020 4856.51 1042.49 64.20 5.00 323.67 2521.01
   18:01:58.597.25-Dec-2020 4856.51 1025.96 64.20 5.00 323.87 2521.01
   18:01:58.797.25-Dec-2020 4856.51 1025.96 64.20 5.00 324.07 2521.01
   18:01:58.997.25-Dec-2020 4856.51  980.68 64.20 5.00 324.27 2521.01
   18:01:59.197.25-Dec-2020 4856.51  962.19 64.19 5.00 324.47 2521.01
   18:01:59.396.25-Dec-2020 4856.51  950.53 64.19 5.00 324.67 2521.01
   18:01:59.596.25-Dec-2020 4856.51  945.98 64.19 5.00 324.87 2521.01
   18:01:59.796.25-Dec-2020 4856.51  945.98 64.19 5.00 325.07 2521.01
   18:01:59.996.25-Dec-2020 4856.51  924.64 64.19 5.00 325.27 2521.01
   18:02:00.196.25-Dec-2020 4856.51  919.92 64.18 5.00 325.47 2521.01
   18:02:00.396.25-Dec-2020 4856.51  915.40 64.18 5.00 325.67 2521.01
   18:02:00.596.25-Dec-2020 4856.51  905.94 64.18 5.00 325.87 2521.01
   18:02:00.796.25-Dec-2020 4856.51  905.94 64.18 5.00 326.07 2521.01
   18:02:00.996.25-Dec-2020 4856.51  902.68 64.18 5.00 326.27 2521.01
   18:02:01.196.25-Dec-2020 4856.51  895.57 64.18 5.00 326.47 2521.01
   18:02:01.396.25-Dec-2020 4856.51  894.75 64.17 5.00 326.67 2521.01
   18:02:01.596.25-Dec-2020 4856.51  905.86 64.17 5.00 326.87 2521.01
   18:02:01.795.25-Dec-2020 4856.51  905.86 64.17 5.00 327.07 2521.01
   18:02:01.995.25-Dec-2020 4856.51  936.64 64.17 5.00 327.27 2521.01
   18:02:02.195.25-Dec-2020 4856.51  948.29 64.17 5.00 327.47 2521.01
   18:02:02.395.25-Dec-2020 4856.51  966.88 64.16 5.00 327.67 2521.01
   18:02:02.595.25-Dec-2020 4856.51  975.09 64.16 5.00 327.87 2521.01
   18:02:02.795.25-Dec-2020 4856.51  975.09 64.16 5.00 328.07 2521.01
   18:02:02.995.25-Dec-2020 4856.51  991.50 64.16 5.00 328.27 2521.01
   18:02:03.195.25-Dec-2020 4856.51 1004.27 64.16 5.00 328.47 2521.01
   18:02:03.395.25-Dec-2020 4856.51 1014.15 64.16 5.00 328.67 2521.01
   18:02:03.595.25-Dec-2020 4856.51 1020.01 64.16 5.00 328.87 2521.01
   18:02:03.795.25-Dec-2020 4856.51 1020.01 64.16 5.00 329.07 2521.01
   18:02:03.995.25-Dec-2020 4856.51 1030.61 64.15 5.00 329.27 2521.01
   18:02:04.195.25-Dec-2020 4856.51 1041.66 64.15 5.00 329.47 2521.01
   18:02:04.394.25-Dec-2020 4856.51 1056.70 64.15 5.00 329.67 2521.01
   18:02:04.594.25-Dec-2020 4856.51 1258.43 64.15 5.00 329.87 2521.01
   18:02:04.794.25-Dec-2020 4856.51 1258.43 64.15 5.00 330.07 2521.01
   18:02:04.994.25-Dec-2020 4856.51 1809.12 64.15 5.00 330.27 2521.01
   18:02:05.194.25-Dec-2020 4856.51 2049.71 64.15 5.00 330.47 2521.01
   18:02:05.394.25-Dec-2020 4856.51 2265.69 64.15 5.00 330.67 2521.01
   18:02:05.594.25-Dec-2020 4856.51 2458.78 64.15 5.00 330.87 2521.01
   18:02:05.794.25-Dec-2020 4856.51 2458.78 64.15 5.00 331.07 2521.01
   18:02:05.994.25-Dec-2020 4856.51 2784.61 64.15 5.00 331.27 2521.01
   18:02:06.194.25-Dec-2020 4856.51 2919.42 64.15 5.00 331.47 2521.01
   18:02:06.394.25-Dec-2020 4856.51 3039.17 64.15 5.00 331.67 2521.01
   18:02:06.594.25-Dec-2020 4856.51 3146.11 64.15 5.00 331.87 2521.01
   18:02:06.794.25-Dec-2020 4856.51 3146.11 64.15 5.00 332.07 2521.01
   18:02:06.993.25-Dec-2020 4856.51 3323.82 64.15 5.00 332.27 2521.01
   18:02:07.193.25-Dec-2020 4856.51 3396.81 64.15 5.00 332.47 2521.01
   18:02:07.393.25-Dec-2020 4856.51 3461.42 64.15 5.00 332.67 2521.01
   18:02:07.593.25-Dec-2020 4856.51 3517.71 64.15 5.00 332.87 2521.01
   18:02:07.793.25-Dec-2020 4856.51 3517.71 64.15 5.00 333.07 2521.01
   18:02:07.993.25-Dec-2020 4856.51 3610.29 64.15 5.00 333.27 2521.01
   18:02:08.193.25-Dec-2020 4856.51 3647.87 64.15 5.00 333.47 2521.01
   18:02:08.393.25-Dec-2020 4856.51 3681.03 64.15 5.00 333.67 2521.01
   18:02:08.593.25-Dec-2020 4856.51 3708.82 64.15 5.00 333.87 2521.01
   18:02:08.793.25-Dec-2020 4856.51 3708.82 64.15 5.00 334.07 2521.01
   18:02:08.993.25-Dec-2020 4856.51 3755.03 64.16 5.00 334.27 2521.01
   18:02:09.193.25-Dec-2020 4856.51 3774.13 64.16 5.00 334.47 2521.01
   18:02:09.392.25-Dec-2020 4856.51 3790.93 64.16 5.00 334.67 2521.01
   18:02:09.592.25-Dec-2020 4856.51 3805.20 64.16 5.00 334.87 2521.01
   18:02:09.792.25-Dec-2020 4856.51 3805.20 64.16 5.00 335.07 2521.01
   18:02:09.992.25-Dec-2020 4856.51 3829.38 64.17 5.00 335.27 2521.01
   18:02:10.192.25-Dec-2020 4856.51 3839.23 64.17 5.00 335.47 2521.01
   18:02:10.392.25-Dec-2020 4856.51 3848.22 64.17 5.00 335.67 2521.01
   18:02:10.592.25-Dec-2020 4856.51 3855.39 64.17 5.00 335.87 2521.01
   18:02:10.792.25-Dec-2020 4856.51 3855.39 64.17 5.00 336.07 2521.01
   18:02:10.992.25-Dec-2020 4856.51 3867.54 64.17 5.00 336.27 2521.01
   18:02:11.192.25-Dec-2020 4856.51 3873.38 64.18 5.00 336.47 2521.01
   18:02:11.392.25-Dec-2020 4856.51 3878.00 64.18 5.00 336.67 2521.01
   18:02:11.592.25-Dec-2020 4856.51 3881.78 64.18 5.00 336.87 2521.01
   18:02:11.792.25-Dec-2020 4856.51 3881.78 64.18 5.00 337.07 2521.01
   18:02:11.991.25-Dec-2020 4856.51 3887.74 64.18 5.00 337.27 2521.01
   18:02:12.191.25-Dec-2020 4856.51 3890.65 64.19 5.00 337.47 2521.01
   18:02:12.391.25-Dec-2020 4856.51 3893.23 64.19 5.00 337.67 2521.01
   18:02:12.591.25-Dec-2020 4856.51 3895.57 64.19 5.00 337.87 2521.01
   18:02:12.791.25-Dec-2020 4856.51 3895.57 64.19 5.00 338.07 2521.01
   18:02:12.991.25-Dec-2020 4856.51 3899.58 64.19 5.00 338.27 2521.01
   18:02:13.191.25-Dec-2020 4856.51 3901.15 64.19 5.00 338.47 2521.01
   18:02:13.391.25-Dec-2020 4856.51 3902.60 64.20 5.00 338.67 2521.01
   18:02:13.591.25-Dec-2020 4856.51 3903.83 64.20 5.00 338.87 2521.01
   18:02:13.791.25-Dec-2020 4856.51 3903.83 64.20 5.00 339.07 2521.01
   18:02:13.991.25-Dec-2020 4856.51 3906.01 64.20 5.00 339.27 2521.01
   18:02:14.191.25-Dec-2020 4856.51 3906.08 64.20 5.00 339.47 2521.01
   18:02:14.391.25-Dec-2020 4856.51 3907.21 64.20 5.00 339.67 2521.01
   18:02:14.590.25-Dec-2020 4856.51 3907.51 64.20 5.00 339.87 2521.01
   18:02:14.790.25-Dec-2020 4856.51 3907.51 64.20 5.00 340.07 2521.01
   18:02:14.990.25-Dec-2020 4856.51 3908.84 64.21 5.00 340.27 2521.01
   18:02:15.190.25-Dec-2020 4856.51 3909.52 64.21 5.00 340.47 2521.01
   18:02:15.390.25-Dec-2020 4856.51 3910.10 64.21 5.00 340.67 2521.01
   18:02:15.590.25-Dec-2020 4856.51 3910.64 64.21 5.00 340.87 2521.01
   18:02:15.790.25-Dec-2020 4856.51 3910.64 64.21 5.00 341.07 2521.01
   18:02:15.990.25-Dec-2020 4856.51 3911.45 64.21 5.00 341.27 2521.01
   18:02:16.190.25-Dec-2020 4856.51 3911.81 64.21 5.00 341.47 2521.01
   18:02:16.390.25-Dec-2020 4856.51 3912.14 64.21 5.00 341.67 2521.01
   18:02:16.590.25-Dec-2020 4856.51 3912.51 64.21 5.00 341.87 2521.01
   18:02:16.790.25-Dec-2020 4856.51 3912.51 64.21 5.00 342.07 2521.01
   18:02:16.990.25-Dec-2020 4856.51 3912.28 64.22 5.00 342.27 2521.01
   18:02:17.189.25-Dec-2020 4856.51 3912.36 64.22 5.00 342.47 2521.01
   18:02:17.389.25-Dec-2020 4856.51 3912.79 64.22 5.00 342.67 2521.01
   18:02:17.589.25-Dec-2020 4856.51 3913.06 64.22 5.00 342.86 2521.01
   18:02:17.789.25-Dec-2020 4856.51 3913.06 64.22 5.00 343.06 2521.01
   18:02:17.989.25-Dec-2020 4856.51 3913.18 64.22 5.00 343.26 2521.01
   18:02:18.189.25-Dec-2020 4856.51 3912.91 64.22 5.00 343.46 2521.01
   18:02:18.389.25-Dec-2020 4856.51 3913.10 64.22 5.00 343.66 2521.01
   18:02:18.589.25-Dec-2020 4856.51 3913.44 64.22 5.00 343.86 2521.01
   18:02:18.789.25-Dec-2020 4856.51 3913.44 64.22 5.00 344.06 2521.01
   18:02:18.989.25-Dec-2020 4856.51 3913.03 64.22 5.00 344.26 2521.01
   18:02:19.189.25-Dec-2020 4856.51 3913.12 64.22 5.00 344.46 2521.01
   18:02:19.389.25-Dec-2020 4856.51 3913.64 64.22 5.00 344.66 2521.01
