~Version Information
 VERS.                  2.0:   CWLS log ASCII Standard -VERSION 2.0
 WRAP.                   NO:   One line per depth step
~Well Information Block
#MNEM.UNIT     VALUE/NAME     DESCRIPTION
#---------     -----------    ---------------------------
 STRT.S             19:12:01 25-Dec-20: START TIME 19:12:01 25-Dec-20
 STOP.S             19:20:19 25-Dec-20: STOP TIME  19:20:19 25-Dec-20
 STEP.S                   0.00: STEP TIME
 NULL.                 -999.25: NULL VALUE
 DFWT.                        :  DIST FWL TEXT
 DFST.                        :  DIST FSL TEXT
 DMF .             Drill Floor:  DRILL MEAS FROM
 STIM.      04.54.24 22-Sep-20:  START TIME
 DATE.      04.54.24 21-Nov-20:  END TIME
 SPUD.               21-Nov-20:  SPUD DATE
 NREF.                    Grid:  NORTH REFERENCE
 HPTY.       Minimum Curvature:  HOLE POS TYPE
 DMOD.             Drill Model:  DRILL MOD DESC
 SVYD.                  Survey:  SURVEY DESC
 ILTD.               Lithology:  INTERP LTH DESC
 FTOP.          Formation Tops:  FORM TOPS DESC
 SON .        AZ-XX-0906571587:  JOB NUMBER
 COMP.     BP Exploration (Caspian Sea) Ltd:  COMPANY
 UWI .                     N/A:  UNIQUE WELL IDENTIFIER
 API .                     N/A:  API NUMBER
 BASE.              Azerbaijan:  LOGGING EQUIPMENT BASE LOCATION
 REGN.                   EESSA:  REGION
 PROV.                    Baku:  PROVINCE
 STAT.                    Baku:  STATE NAME
 CTRY.              Azerbaijan:  COUNTRY NAME
 FLD .                     ACG:  FIELD NAME
 SRVC.     TURAN Drilling & Engineering:  CONTRACTOR
 WELL.                     J27:  WELL NAME
 RIG .             West Chirag:  RIG NAME
 DOE .                     N/A:  DOE NUMBER
 DCON.         Sperry Drilling:  DIRECTNL CONTR
 PDAT.          Mean Sea Level:  PERMANENT DATUM
 WTYP.                Deviated:  WELL TYPE
 MWDS.                    Baku:  MWD SHOP
 JOBN.        AZ-XX-0906571587:  JOB TICKET NUMB
 UNIT.                     N/A:  LOGGING EQUIPMENT ID
 MDS .        Operator Entered:  MAG DATA SOURCE
 CNTY.                        :  COUNTY
 LOC .                        :  LOCATION
 LMF .             Drill Floor:  LOG MEASURED FROM
 TVDS.m                  43.00:  TVDSS CORRECTN
 LATI.deg                40.13:  LATITUDE
 LONG.deg                51.22:  LONGITUDE
 WHNS.m                   7.72:  WELL HEAD N/S
 WHEW.m                 -14.24:  WELL HEAD E/W
 UTMX.m              519005.06:  UTM X
 UTMY.m             4443793.85:  UTM Y
 DFWL.m                   0.00:  DISTANCE FWL
 DFSL.m                   0.00:  DISTANCE FSL
 SDEP.m                 347.00:  START DEPTH
 TDD .m                 581.00:  TOTAL DEPTH (DRILLER)
 VSDR.deg               159.72:  VERT SEC DIRECT
 GVFD.g                   1.00:  GRAVITY FIELD
 MFLD.nT              50318.00:  MAGNETIC FIELD
 MDIP.deg                59.57:  MAGNETIC DIP
 MDEC.deg                 6.44:  MAGNETIC DECL
 GRDC.deg                 0.15:  GRID CORRECTION
 AZTC.deg                 6.29:  AZM TOTAL CORR
 EPD .m                   0.00:  ELEVATION
 EGL .m                   0.00:  GROUND ELEVATION
 WDMS.m                 169.80:  WD ELEV
 APD .m                  43.00:  DEPTH ABOVE PD
 AGAP.m                  43.00:  AIR GAP
 VSEW.m                 -14.24:  VERT SEC E/W
 VSNS.m                   7.72:  VERT SEC N/S
 DEP .m                 342.45:  DEPTH
 EKB .m                   0.00:  KB ELEVATION
 EDF .m                  43.00:  DF ELEVATION
 TDL .m                 237.00:  TOTAL DEPTH (LOGGER)
 VSC .                       0:  VS TO CLOSURE
 MAGU.                 1851428:  MAGUTM CHECKSUM
~Parameter Information Block
#MNEM.UNIT       Value        Description
#---------     -----------    ---------------------------
 AV  .mps                 1.50:  Ann Velocity 
 AVMX.mps                 2.90:  Max Ann Veloc 
 AZIF.deg               115.59:  Azm, Final 
 BHAT.        Rotary Steerable:  BHA Type 
 BROT.°/30m               0.50:  Build Rotating 
 BS  .in                  8.50:  Bit Size 
 BTPL.psig              580.00:  Bit Press Loss 
 CABU.                     Yes:  Customer Abuse 
 COMM.                     Ìt:  Run Comments 1 
 TCS .hr                 89.79:  Time Ciculation Ended 
 CV  .mps                 3.22:  Crit Velocity 
 CVMX.mps                 4.37:  Max Crit Veloc 
 DD1 .          Rashad Habibov:  Direct Drillr 1 
 DDSV.               Geo-Pilot:  DD Service 
 DEFF.%                  95.00:  % Det Eff 
 DLRX.°/30m               1.94:  Dogleg Rot Max 
 DLSO.°/30m               0.70:  Dogleg Oriented 
 DLSX.°/30m               1.94:  Dogleg Str Max 
 DRET.      04.45.00 25-Dec-20:  Drill End Time 
 DRST.      10.00.00 24-Dec-20:  Drill Start Tim 
 DTIM.hr                 16.64:  Time Drilling 
 EDEP.m                4999.01:  End Depth 
 ENG1.         Elchin Mammadov:  Engineer 1 
 ENG2.          Ruslan Safarov:  Engineer 2 
 ENG3.          Rustam Safarov:  Engineer 3 
 ETIM.      09.00.00 29-Dec-20:  End Time 
 FLOI.gpm               500.00:  Flow In 
 FLON.gpm               400.00:  Flow In Min 
 FLOS.cptm                0.00:  Fluid Loss 
 FLOX.gpm               500.00:  Flow In Max 
 HFLO.                      No:  High Flow 
 HPRE.                      No:  High Pressure 
 HTEM.                      No:  High Temp 
 HYDO.m                   2.00:  Hydro Offset 
 IFIN.deg                66.79:  Inc, Final 
 IMAX.deg                67.66:  Inc Max 
 IMIN.deg                66.39:  Inc Min 
 IMND.m                4949.37:  Inc Min Depth 
 IMXD.m                4778.63:  Inc Max Depth 
 JARR.                     Yes:  Jarring 
 LETM.      04.45.00 25-Dec-20:  Log End Time 
 LOST.hr                     0:  Lost Rig Time 
 LSTM.      10.00.00 24-Dec-20:  Log Start Time 
 MDCL.ppm             39000.00:  Mud Chlorides 
 MDES.     Inversion Oil/Synthetic:  Mud Desc 
 DFD .sg                  1.33:  Mud Density 
 MDMN.sg                  1.33:  Dens Mud Min 
 MDMX.sg                  1.33:  Dens Mud Max 
 MOIL.                      70:  Run Mud Oil % 
 MOWR.                   70:30:  Run Mud OWR 
 MSND.                       0:  Run Mud Sand % 
 MSOL.                    17.4:  Run Mud Solids% 
 DFV .spqt               84.00:  Mud Viscosity 
 MWOD.in                  6.75:  MWD Tool OD 
 MWSI.                     Yes:  Serv Intrp, MWD 
 OTIM.hr                168.14:  Time Operating 
 PCON.           Look Like New:  Pad Condition 
 PMAX.psia            10822.93:  Press Op, Max 
 PV  .cP                 30.00:  Mud PV 
 RUN .                     900:  Run Number 
 ROPA.m/hr               18.00:  ROP Avg 
 ROPN.m/hr               12.00:  ROP Min 
 ROPX.m/hr               25.00:  ROP Max 
 RPMA.rpm               120.00:  RPM Surface Avg 
 RPMN.rpm               100.00:  RPM Surface Min 
 RPMX.rpm               120.00:  RPM Surface Max 
 RRUN.                    0900:  Rig Run Number 
 SAZI.deg               115.08:  Azm, Start 
 SDEP.m                4762.01:  Start Depth 
 SIDD.                      No:  Serv Intrp, DD 
 SINC.deg                66.14:  Inc, Start 
 SPPA.psig             3700.00:  SPP Avg 
 SPPN.psig             3620.00:  SPP Min 
 SPPX.psig             3900.00:  SPP Max 
 STIM.      09.30.00 22-Dec-20:  Start Time 
 SVCS.                 DD, MWD:  Services 
 SVER.                    9.20:  Sperry Version 
 TDAT.m                 237.00:  Tot Depth Attmp 
 TDDF.                      No:  Trip for DD 
 TDLG.m                 237.00:  Tot Depth Loggd 
 TFF .                      No:  Trip for Fail 
 TQAA.f-kp               18.00:  Torque Abs Avg 
 TQAN.f-kp               17.00:  Torque Abs Min 
 TQAX.f-kp               20.00:  Torque Abs Max 
 TRRT.°/30m               0.60:  Turn Rotating 
 MRT .                    HCIM:  Maximum Recorded Temperature 
 TTMX.degC               94.12:  Max Tool Temp 
 VS01.                90627809:  Virtual Str1 SN 
 VS02.                90527813:  Virtual Str2 SN 
 VS03.                90545417:  Virtual Str3 SN 
 VS04.                12460870:  Virtual Str4 SN 
 VS05.                90516706:  Virtual Str5 SN 
 VS06.                90632007:  Virtual Str6 SN 
 WBMN.klb                 0.00:  WOB Min 
 WOBA.klb                14.00:  WOB Avg 
 WOBX.klb                25.00:  WOB Max 
 YP  .lhf2               32.00:  Yield Point 
~Curve Information Block
#MNEM.UNIT                 API CODE     Curve Description
#---------               -----------    ---------------------------
 TIME.HHMMSS            00 000 000 000:  GT Time & Date
 GTDEPTH.m              00 000 000 000:  GT Depth
 GTPQH.psia             00 000 000 000:  GT HR Quartz Pressure
 GTTQ.degC              00 000 000 000:  GT Quartz Temperature
 GTTN.NONE              00 000 000 000:  GT Test Number
 GTET.sec               00 000 000 000:  GT Elapsed Test Time
 GTTVD.m                00 000 000 000:  GT True Vertical Depth
#Other Information
#
#WARRANTY: Halliburton will use its best efforts to furnish customers with 
#accurate information and interpretations that are part of, and incident to, the services 
#provided.  However, Halliburton cannot and does not warrant the accuracy 
#or correctness of such information and interpretations.  Under no circumstances should any 
#such information or interpretation be relied upon as the sole basis for any drilling, 
#completion, production, or financial decision or any procedure involving any risk to the 
#safety of any drilling venture, drilling rig or its crew or any other third party.  The 
#Customer has full responsibility for all drilling, completion and production operation.  
#Halliburton makes no representations or warranties, either expressed or 
#implied, including, but not limited to, the implied warranties of merchantability or fitness 
#for a particular purpose, with respect to the services rendered.  In no event will 
#Halliburton be liable for failure to obtain any particular results or for 
#any damages, including, but not limited to, indirect, special or consequential damages, 
#resulting from the use of any information or interpretation provided by Halliburton.
#
~A           TIME           GTDEPTH  GTPQH  GTTQ  GTTN  GTET   GTTVD  
# ...
   19:18:55.448.25-Dec-2020 4808.01 2305.64 63.88 7.00 414.33 2502.07
   19:18:55.648.25-Dec-2020 4808.01 2305.64 63.88 7.00 414.53 2502.07
   19:18:55.848.25-Dec-2020 4808.01 2304.93 63.88 7.00 414.73 2502.07
   19:18:56.049.25-Dec-2020 4808.01 2305.60 63.88 7.00 414.93 2502.07
   19:18:56.249.25-Dec-2020 4808.01 2304.88 63.88 7.00 415.13 2502.07
   19:18:56.449.25-Dec-2020 4808.01 2305.99 63.88 7.00 415.33 2502.07
   19:18:56.649.25-Dec-2020 4808.01 2305.99 63.88 7.00 415.53 2502.07
   19:18:56.849.25-Dec-2020 4808.01 2304.76 63.88 7.00 415.73 2502.07
   19:18:57.049.25-Dec-2020 4808.01 2305.83 63.88 7.00 415.93 2502.07
   19:18:57.249.25-Dec-2020 4808.01 2305.35 63.88 7.00 416.13 2502.07
   19:18:57.450.25-Dec-2020 4808.01 2304.74 63.88 7.00 416.33 2502.07
   19:18:57.650.25-Dec-2020 4808.01 2304.74 63.88 7.00 416.53 2502.07
   19:18:57.850.25-Dec-2020 4808.01 2305.12 63.88 7.00 416.73 2502.07
   19:18:58.050.25-Dec-2020 4808.01 2305.15 63.88 7.00 416.93 2502.07
   19:18:58.250.25-Dec-2020 4808.01 2305.21 63.88 7.00 417.13 2502.07
   19:18:58.450.25-Dec-2020 4808.01 2305.30 63.88 7.00 417.33 2502.07
   19:18:58.651.25-Dec-2020 4808.01 2305.30 63.88 7.00 417.53 2502.07
   19:18:58.851.25-Dec-2020 4808.01 2305.39 63.88 7.00 417.73 2502.07
   19:18:59.051.25-Dec-2020 4808.01 2305.40 63.88 7.00 417.93 2502.07
   19:18:59.251.25-Dec-2020 4808.01 2305.35 63.88 7.00 418.13 2502.07
   19:18:59.451.25-Dec-2020 4808.01 2305.49 63.88 7.00 418.33 2502.07
   19:18:59.651.25-Dec-2020 4808.01 2305.49 63.88 7.00 418.53 2502.07
   19:18:59.852.25-Dec-2020 4808.01 2304.99 63.88 7.00 418.73 2502.07
   19:19:00.052.25-Dec-2020 4808.01 2305.40 63.88 7.00 418.93 2502.07
   19:19:00.252.25-Dec-2020 4808.01 2305.36 63.88 7.00 419.13 2502.07
   19:19:00.452.25-Dec-2020 4808.01 2305.62 63.88 7.00 419.33 2502.07
   19:19:00.652.25-Dec-2020 4808.01 2305.62 63.88 7.00 419.53 2502.07
   19:19:00.852.25-Dec-2020 4808.01 2305.55 63.88 7.00 419.73 2502.07
   19:19:01.052.25-Dec-2020 4808.01 2305.59 63.88 7.00 419.93 2502.07
   19:19:01.253.25-Dec-2020 4808.01 2305.58 63.88 7.00 420.13 2502.07
   19:19:01.453.25-Dec-2020 4808.01 2305.63 63.88 7.00 420.33 2502.07
   19:19:01.653.25-Dec-2020 4808.01 2305.63 63.88 7.00 420.53 2502.07
   19:19:01.853.25-Dec-2020 4808.01 2305.60 63.88 7.00 420.73 2502.07
   19:19:02.053.25-Dec-2020 4808.01 2305.66 63.88 7.00 420.93 2502.07
   19:19:02.253.25-Dec-2020 4808.01 2305.63 63.88 7.00 421.13 2502.07
   19:19:02.454.25-Dec-2020 4808.01 2304.84 63.88 7.00 421.33 2502.07
   19:19:02.654.25-Dec-2020 4808.01 2304.84 63.88 7.00 421.53 2502.07
   19:19:02.854.25-Dec-2020 4808.01 2305.06 63.88 7.00 421.73 2502.07
   19:19:03.054.25-Dec-2020 4808.01 2305.52 63.88 7.00 421.93 2502.07
   19:19:03.254.25-Dec-2020 4808.01 2305.48 63.88 7.00 422.13 2502.07
   19:19:03.454.25-Dec-2020 4808.01 2304.81 63.88 7.00 422.33 2502.07
   19:19:03.655.25-Dec-2020 4808.01 2304.81 63.88 7.00 422.53 2502.07
   19:19:03.855.25-Dec-2020 4808.01 2305.38 63.88 7.00 422.73 2502.07
   19:19:04.055.25-Dec-2020 4808.01 2304.70 63.88 7.00 422.93 2502.07
   19:19:04.255.25-Dec-2020 4808.01 2305.72 63.88 7.00 423.13 2502.07
   19:19:04.455.25-Dec-2020 4808.01 2305.40 63.88 7.00 423.33 2502.07
   19:19:04.655.25-Dec-2020 4808.01 2305.40 63.88 7.00 423.53 2502.07
   19:19:04.855.25-Dec-2020 4808.01 2305.52 63.88 7.00 423.73 2502.07
   19:19:05.056.25-Dec-2020 4808.01 2305.57 63.88 7.00 423.93 2502.07
   19:19:05.256.25-Dec-2020 4808.01 2305.53 63.88 7.00 424.13 2502.07
   19:19:05.456.25-Dec-2020 4808.01 2305.62 63.88 7.00 424.34 2502.07
   19:19:05.656.25-Dec-2020 4808.01 2305.62 63.88 7.00 424.54 2502.07
   19:19:05.856.25-Dec-2020 4808.01 2305.55 63.88 7.00 424.74 2502.07
   19:19:06.056.25-Dec-2020 4808.01 2305.63 63.88 7.00 424.94 2502.07
   19:19:06.257.25-Dec-2020 4808.01 2305.60 63.88 7.00 425.14 2502.07
   19:19:06.457.25-Dec-2020 4808.01 2305.58 63.88 7.00 425.34 2502.07
   19:19:06.657.25-Dec-2020 4808.01 2305.58 63.88 7.00 425.54 2502.07
   19:19:06.857.25-Dec-2020 4808.01 2305.52 63.88 7.00 425.74 2502.07
   19:19:07.057.25-Dec-2020 4808.01 2305.78 63.88 7.00 425.94 2502.07
   19:19:07.257.25-Dec-2020 4808.01 2305.52 63.88 7.00 426.14 2502.07
   19:19:07.458.25-Dec-2020 4808.01 2305.62 63.88 7.00 426.34 2502.07
   19:19:07.658.25-Dec-2020 4808.01 2305.62 63.88 7.00 426.54 2502.07
   19:19:07.858.25-Dec-2020 4808.01 2305.62 63.88 7.00 426.74 2502.07
   19:19:08.058.25-Dec-2020 4808.01 2305.69 63.88 7.00 426.94 2502.07
   19:19:08.258.25-Dec-2020 4808.01 2305.63 63.88 7.00 427.14 2502.07
   19:19:08.458.25-Dec-2020 4808.01 2305.65 63.88 7.00 427.34 2502.07
   19:19:08.658.25-Dec-2020 4808.01 2305.65 63.88 7.00 427.54 2502.07
   19:19:08.859.25-Dec-2020 4808.01 2305.67 63.88 7.00 427.74 2502.07
   19:19:09.059.25-Dec-2020 4808.01 2304.90 63.88 7.00 427.94 2502.07
   19:19:09.259.25-Dec-2020 4808.01 2305.88 63.88 7.00 428.14 2502.07
   19:19:09.459.25-Dec-2020 4808.01 2305.42 63.88 7.00 428.34 2502.07
   19:19:09.659.25-Dec-2020 4808.01 2305.42 63.88 7.00 428.54 2502.07
   19:19:09.859.25-Dec-2020 4808.01 2305.62 63.88 7.00 428.74 2502.07
   19:19:10.060.25-Dec-2020 4808.01 2305.26 63.88 7.00 428.94 2502.07
   19:19:10.260.25-Dec-2020 4808.01 2305.41 63.88 7.00 429.14 2502.07
   19:19:10.460.25-Dec-2020 4808.01 2305.51 63.88 7.00 429.34 2502.07
   19:19:10.660.25-Dec-2020 4808.01 2305.51 63.88 7.00 429.54 2502.07
   19:19:10.860.25-Dec-2020 4808.01 2305.77 63.88 7.00 429.74 2502.07
   19:19:11.060.25-Dec-2020 4808.01 2305.39 63.88 7.00 429.94 2502.07
   19:19:11.261.25-Dec-2020 4808.01 2305.45 63.88 7.00 430.14 2502.07
   19:19:11.461.25-Dec-2020 4808.01 2305.49 63.88 7.00 430.34 2502.07
   19:19:11.661.25-Dec-2020 4808.01 2305.49 63.88 7.00 430.54 2502.07
   19:19:11.861.25-Dec-2020 4808.01 2305.54 63.88 7.00 430.74 2502.07
   19:19:12.061.25-Dec-2020 4808.01 2305.60 63.88 7.00 430.94 2502.07
   19:19:12.261.25-Dec-2020 4808.01 2305.60 63.88 7.00 431.14 2502.07
   19:19:12.461.25-Dec-2020 4808.01 2305.58 63.88 7.00 431.34 2502.07
   19:19:12.662.25-Dec-2020 4808.01 2305.58 63.88 7.00 431.54 2502.07
   19:19:12.862.25-Dec-2020 4808.01 2305.62 63.88 7.00 431.74 2502.07
   19:19:13.062.25-Dec-2020 4808.01 2305.65 63.88 7.00 431.94 2502.07
   19:19:13.262.25-Dec-2020 4808.01 2304.76 63.88 7.00 432.14 2502.07
   19:19:13.462.25-Dec-2020 4808.01 2305.68 63.88 7.00 432.34 2502.07
   19:19:13.662.25-Dec-2020 4808.01 2305.68 63.88 7.00 432.54 2502.07
   19:19:13.863.25-Dec-2020 4808.01 2305.54 63.88 7.00 432.74 2502.07
   19:19:14.063.25-Dec-2020 4808.01 2305.62 63.88 7.00 432.94 2502.07
   19:19:14.263.25-Dec-2020 4808.01 2305.61 63.88 7.00 433.14 2502.07
   19:19:14.463.25-Dec-2020 4808.01 2305.66 63.88 7.00 433.34 2502.07
   19:19:14.663.25-Dec-2020 4808.01 2305.66 63.88 7.00 433.54 2502.07
   19:19:14.863.25-Dec-2020 4808.01 2305.65 63.88 7.00 433.74 2502.07
   19:19:15.064.25-Dec-2020 4808.01 2305.66 63.88 7.00 433.94 2502.07
   19:19:15.264.25-Dec-2020 4808.01 2305.69 63.88 7.00 434.14 2502.07
   19:19:15.464.25-Dec-2020 4808.01 2305.71 63.88 7.00 434.34 2502.07
   19:19:15.664.25-Dec-2020 4808.01 2305.71 63.88 7.00 434.54 2502.07
   19:19:15.864.25-Dec-2020 4808.01 2306.03 63.88 7.00 434.74 2502.07
   19:19:16.064.25-Dec-2020 4808.01 2305.52 63.88 7.00 434.94 2502.07
   19:19:16.264.25-Dec-2020 4808.01 2304.76 63.88 7.00 435.14 2502.07
   19:19:16.465.25-Dec-2020 4808.01 2305.75 63.88 7.00 435.34 2502.07
   19:19:16.665.25-Dec-2020 4808.01 2305.75 63.88 7.00 435.54 2502.07
   19:19:16.865.25-Dec-2020 4808.01 2304.85 63.88 7.00 435.74 2502.07
   19:19:17.065.25-Dec-2020 4808.01 2305.61 63.88 7.00 435.94 2502.07
   19:19:17.265.25-Dec-2020 4808.01 2305.19 63.88 7.00 436.14 2502.07
   19:19:17.465.25-Dec-2020 4808.01 2305.40 63.88 7.00 436.34 2502.07
   19:19:17.666.25-Dec-2020 4808.01 2305.40 63.88 7.00 436.54 2502.07
   19:19:17.866.25-Dec-2020 4808.01 2305.63 63.88 7.00 436.74 2502.07
   19:19:18.066.25-Dec-2020 4808.01 2305.53 63.88 7.00 436.95 2502.07
   19:19:18.266.25-Dec-2020 4808.01 2305.64 63.88 7.00 437.15 2502.07
