~Version Information
 VERS.                  2.0:   CWLS log ASCII Standard -VERSION 2.0
 WRAP.                   NO:   One line per depth step
~Well Information Block
#MNEM.UNIT     VALUE/NAME     DESCRIPTION
#---------     -----------    ---------------------------
 STRT.S             18:45:29 25-Dec-20: START TIME 18:45:29 25-Dec-20
 STOP.S             18:53:50 25-Dec-20: STOP TIME  18:53:50 25-Dec-20
 STEP.S                   0.00: STEP TIME
 NULL.                 -999.25: NULL VALUE
 DFWT.                        :  DIST FWL TEXT
 DFST.                        :  DIST FSL TEXT
 DMF .             Drill Floor:  DRILL MEAS FROM
 STIM.      04.54.24 22-Sep-20:  START TIME
 DATE.      04.54.24 21-Nov-20:  END TIME
 SPUD.               21-Nov-20:  SPUD DATE
 NREF.                    Grid:  NORTH REFERENCE
 HPTY.       Minimum Curvature:  HOLE POS TYPE
 DMOD.             Drill Model:  DRILL MOD DESC
 SVYD.                  Survey:  SURVEY DESC
 ILTD.               Lithology:  INTERP LTH DESC
 FTOP.          Formation Tops:  FORM TOPS DESC
 SON .        AZ-XX-0906571587:  JOB NUMBER
 COMP.     BP Exploration (Caspian Sea) Ltd:  COMPANY
 UWI .                     N/A:  UNIQUE WELL IDENTIFIER
 API .                     N/A:  API NUMBER
 BASE.              Azerbaijan:  LOGGING EQUIPMENT BASE LOCATION
 REGN.                   EESSA:  REGION
 PROV.                    Baku:  PROVINCE
 STAT.                    Baku:  STATE NAME
 CTRY.              Azerbaijan:  COUNTRY NAME
 FLD .                     ACG:  FIELD NAME
 SRVC.     TURAN Drilling & Engineering:  CONTRACTOR
 WELL.                     J27:  WELL NAME
 RIG .             West Chirag:  RIG NAME
 DOE .                     N/A:  DOE NUMBER
 DCON.         Sperry Drilling:  DIRECTNL CONTR
 PDAT.          Mean Sea Level:  PERMANENT DATUM
 WTYP.                Deviated:  WELL TYPE
 MWDS.                    Baku:  MWD SHOP
 JOBN.        AZ-XX-0906571587:  JOB TICKET NUMB
 UNIT.                     N/A:  LOGGING EQUIPMENT ID
 MDS .        Operator Entered:  MAG DATA SOURCE
 CNTY.                        :  COUNTY
 LOC .                        :  LOCATION
 LMF .             Drill Floor:  LOG MEASURED FROM
 TVDS.m                  43.00:  TVDSS CORRECTN
 LATI.deg                40.13:  LATITUDE
 LONG.deg                51.22:  LONGITUDE
 WHNS.m                   7.72:  WELL HEAD N/S
 WHEW.m                 -14.24:  WELL HEAD E/W
 UTMX.m              519005.06:  UTM X
 UTMY.m             4443793.85:  UTM Y
 DFWL.m                   0.00:  DISTANCE FWL
 DFSL.m                   0.00:  DISTANCE FSL
 SDEP.m                 347.00:  START DEPTH
 TDD .m                 581.00:  TOTAL DEPTH (DRILLER)
 VSDR.deg               159.72:  VERT SEC DIRECT
 GVFD.g                   1.00:  GRAVITY FIELD
 MFLD.nT              50318.00:  MAGNETIC FIELD
 MDIP.deg                59.57:  MAGNETIC DIP
 MDEC.deg                 6.44:  MAGNETIC DECL
 GRDC.deg                 0.15:  GRID CORRECTION
 AZTC.deg                 6.29:  AZM TOTAL CORR
 EPD .m                   0.00:  ELEVATION
 EGL .m                   0.00:  GROUND ELEVATION
 WDMS.m                 169.80:  WD ELEV
 APD .m                  43.00:  DEPTH ABOVE PD
 AGAP.m                  43.00:  AIR GAP
 VSEW.m                 -14.24:  VERT SEC E/W
 VSNS.m                   7.72:  VERT SEC N/S
 DEP .m                 342.45:  DEPTH
 EKB .m                   0.00:  KB ELEVATION
 EDF .m                  43.00:  DF ELEVATION
 TDL .m                 237.00:  TOTAL DEPTH (LOGGER)
 VSC .                       0:  VS TO CLOSURE
 MAGU.                 1851428:  MAGUTM CHECKSUM
~Parameter Information Block
#MNEM.UNIT       Value        Description
#---------     -----------    ---------------------------
 AV  .mps                 1.50:  Ann Velocity 
 AVMX.mps                 2.90:  Max Ann Veloc 
 AZIF.deg               115.59:  Azm, Final 
 BHAT.        Rotary Steerable:  BHA Type 
 BROT.°/30m               0.50:  Build Rotating 
 BS  .in                  8.50:  Bit Size 
 BTPL.psig              580.00:  Bit Press Loss 
 CABU.                     Yes:  Customer Abuse 
 TCS .hr                 89.79:  Time Ciculation Ended 
 CV  .mps                 3.22:  Crit Velocity 
 CVMX.mps                 4.37:  Max Crit Veloc 
 DD1 .          Rashad Habibov:  Direct Drillr 1 
 DDSV.               Geo-Pilot:  DD Service 
 DEFF.%                  95.00:  % Det Eff 
 DLRX.°/30m               1.94:  Dogleg Rot Max 
 DLSO.°/30m               0.70:  Dogleg Oriented 
 DLSX.°/30m               1.94:  Dogleg Str Max 
 DRET.      04.45.00 25-Dec-20:  Drill End Time 
 DRST.      10.00.00 24-Dec-20:  Drill Start Tim 
 DTIM.hr                 16.64:  Time Drilling 
 EDEP.m                4999.01:  End Depth 
 ENG1.         Elchin Mammadov:  Engineer 1 
 ENG2.          Ruslan Safarov:  Engineer 2 
 ENG3.          Rustam Safarov:  Engineer 3 
 ETIM.      09.00.00 29-Dec-20:  End Time 
 FLOI.gpm               500.00:  Flow In 
 FLON.gpm               400.00:  Flow In Min 
 FLOS.cptm                0.00:  Fluid Loss 
 FLOX.gpm               500.00:  Flow In Max 
 HFLO.                      No:  High Flow 
 HPRE.                      No:  High Pressure 
 HTEM.                      No:  High Temp 
 HYDO.m                   2.00:  Hydro Offset 
 IFIN.deg                66.79:  Inc, Final 
 IMAX.deg                67.66:  Inc Max 
 IMIN.deg                66.39:  Inc Min 
 IMND.m                4949.37:  Inc Min Depth 
 IMXD.m                4778.63:  Inc Max Depth 
 JARR.                     Yes:  Jarring 
 LETM.      04.45.00 25-Dec-20:  Log End Time 
 LOST.hr                     0:  Lost Rig Time 
 LSTM.      10.00.00 24-Dec-20:  Log Start Time 
 MDCL.ppm             39000.00:  Mud Chlorides 
 MDES.     Inversion Oil/Synthetic:  Mud Desc 
 DFD .sg                  1.33:  Mud Density 
 MDMN.sg                  1.33:  Dens Mud Min 
 MDMX.sg                  1.33:  Dens Mud Max 
 MOIL.                      70:  Run Mud Oil % 
 MOWR.                   70:30:  Run Mud OWR 
 MSND.                       0:  Run Mud Sand % 
 MSOL.                    17.4:  Run Mud Solids% 
 DFV .spqt               84.00:  Mud Viscosity 
 MWOD.in                  6.75:  MWD Tool OD 
 MWSI.                     Yes:  Serv Intrp, MWD 
 OTIM.hr                168.14:  Time Operating 
 PCON.           Look Like New:  Pad Condition 
 PMAX.psia            10822.93:  Press Op, Max 
 PV  .cP                 30.00:  Mud PV 
 RUN .                     900:  Run Number 
 ROPA.m/hr               18.00:  ROP Avg 
 ROPN.m/hr               12.00:  ROP Min 
 ROPX.m/hr               25.00:  ROP Max 
 RPMA.rpm               120.00:  RPM Surface Avg 
 RPMN.rpm               100.00:  RPM Surface Min 
 RPMX.rpm               120.00:  RPM Surface Max 
 RRUN.                    0900:  Rig Run Number 
 SAZI.deg               115.08:  Azm, Start 
 SDEP.m                4762.01:  Start Depth 
 SIDD.                      No:  Serv Intrp, DD 
 SINC.deg                66.14:  Inc, Start 
 SPPA.psig             3700.00:  SPP Avg 
 SPPN.psig             3620.00:  SPP Min 
 SPPX.psig             3900.00:  SPP Max 
 STIM.      09.30.00 22-Dec-20:  Start Time 
 SVCS.                 DD, MWD:  Services 
 SVER.                    9.20:  Sperry Version 
 TDAT.m                 237.00:  Tot Depth Attmp 
 TDDF.                      No:  Trip for DD 
 TDLG.m                 237.00:  Tot Depth Loggd 
 TFF .                      No:  Trip for Fail 
 TQAA.f-kp               18.00:  Torque Abs Avg 
 TQAN.f-kp               17.00:  Torque Abs Min 
 TQAX.f-kp               20.00:  Torque Abs Max 
 TRRT.°/30m               0.60:  Turn Rotating 
 MRT .                    HCIM:  Maximum Recorded Temperature 
 TTMX.degC               94.12:  Max Tool Temp 
 VS01.                90627809:  Virtual Str1 SN 
 VS02.                90527813:  Virtual Str2 SN 
 VS03.                90545417:  Virtual Str3 SN 
 VS04.                12460870:  Virtual Str4 SN 
 VS05.                90516706:  Virtual Str5 SN 
 VS06.                90632007:  Virtual Str6 SN 
 WBMN.klb                 0.00:  WOB Min 
 WOBA.klb                14.00:  WOB Avg 
 WOBX.klb                25.00:  WOB Max 
 YP  .lhf2               32.00:  Yield Point 
~Curve Information Block
#MNEM.UNIT                 API CODE     Curve Description
#---------               -----------    ---------------------------
 TIME.HHMMSS            00 000 000 000:  GT Time & Date
 GTDEPTH.m              00 000 000 000:  GT Depth
 GTPQH.psia             00 000 000 000:  GT HR Quartz Pressure
 GTTQ.degC              00 000 000 000:  GT Quartz Temperature
 GTTN.NONE              00 000 000 000:  GT Test Number
 GTET.sec               00 000 000 000:  GT Elapsed Test Time
 GTTVD.m                00 000 000 000:  GT True Vertical Depth
#Other Information
#
#WARRANTY: Halliburton will use its best efforts to furnish customers with 
#accurate information and interpretations that are part of, and incident to, the services 
#provided.  However, Halliburton cannot and does not warrant the accuracy 
#or correctness of such information and interpretations.  Under no circumstances should any 
#such information or interpretation be relied upon as the sole basis for any drilling, 
#completion, production, or financial decision or any procedure involving any risk to the 
#safety of any drilling venture, drilling rig or its crew or any other third party.  The 
#Customer has full responsibility for all drilling, completion and production operation.  
#Halliburton makes no representations or warranties, either expressed or 
#implied, including, but not limited to, the implied warranties of merchantability or fitness 
#for a particular purpose, with respect to the services rendered.  In no event will 
#Halliburton be liable for failure to obtain any particular results or for 
#any damages, including, but not limited to, indirect, special or consequential damages, 
#resulting from the use of any information or interpretation provided by Halliburton.
#
~A           TIME           GTDEPTH  GTPQH  GTTQ  GTTN  GTET   GTTVD  
# ...
   18:53:10.228.25-Dec-2020 4831.01 5441.85 64.21 6.00 460.36 2510.98
   18:53:10.428.25-Dec-2020 4831.01 5441.93 64.21 6.00 460.56 2510.98
   18:53:10.628.25-Dec-2020 4831.01 5441.81 64.21 6.00 460.76 2510.98
   18:53:10.828.25-Dec-2020 4831.01 5453.42 64.21 6.00 460.96 2510.98
   18:53:11.028.25-Dec-2020 4831.01 5438.36 64.22 6.00 461.16 2510.98
   18:53:11.229.25-Dec-2020 4831.01 5447.47 64.22 6.00 461.36 2510.98
   18:53:11.429.25-Dec-2020 4831.01 5447.47 64.22 6.00 461.56 2510.98
   18:53:11.629.25-Dec-2020 4831.01 5442.90 64.22 6.00 461.76 2510.98
   18:53:11.829.25-Dec-2020 4831.01 5443.73 64.22 6.00 461.96 2510.98
   18:53:12.029.25-Dec-2020 4831.01 5444.74 64.22 6.00 462.16 2510.98
   18:53:12.229.25-Dec-2020 4831.01 5444.16 64.22 6.00 462.37 2510.98
   18:53:12.429.25-Dec-2020 4831.01 5444.16 64.22 6.00 462.57 2510.98
   18:53:12.630.25-Dec-2020 4831.01 5444.32 64.22 6.00 462.77 2510.98
   18:53:12.830.25-Dec-2020 4831.01 5444.15 64.23 6.00 462.97 2510.98
   18:53:13.030.25-Dec-2020 4831.01 5443.53 64.23 6.00 463.17 2510.98
   18:53:13.230.25-Dec-2020 4831.01 5443.68 64.23 6.00 463.37 2510.98
   18:53:13.430.25-Dec-2020 4831.01 5443.68 64.23 6.00 463.57 2510.98
   18:53:13.630.25-Dec-2020 4831.01 5442.27 64.23 6.00 463.77 2510.98
   18:53:13.831.25-Dec-2020 4831.01 5445.17 64.23 6.00 463.97 2510.98
   18:53:14.031.25-Dec-2020 4831.01 5459.20 64.23 6.00 464.17 2510.98
   18:53:14.231.25-Dec-2020 4831.01 5443.81 64.23 6.00 464.37 2510.98
   18:53:14.431.25-Dec-2020 4831.01 5443.91 64.23 6.00 464.57 2510.98
   18:53:14.631.25-Dec-2020 4831.01 5448.62 64.23 6.00 464.77 2510.98
   18:53:14.831.25-Dec-2020 4831.01 5445.36 64.23 6.00 464.97 2510.98
   18:53:15.032.25-Dec-2020 4831.01 5453.84 64.23 6.00 465.17 2510.98
   18:53:15.232.25-Dec-2020 4831.01 5443.29 64.23 6.00 465.37 2510.98
   18:53:15.432.25-Dec-2020 4831.01 5443.29 64.23 6.00 465.57 2510.98
   18:53:15.632.25-Dec-2020 4831.01 5458.18 64.23 6.00 465.77 2510.98
   18:53:15.832.25-Dec-2020 4831.01 5440.82 64.24 6.00 465.97 2510.98
   18:53:16.032.25-Dec-2020 4831.01 5445.82 64.24 6.00 466.17 2510.98
   18:53:16.232.25-Dec-2020 4831.01 5448.19 64.24 6.00 466.37 2510.98
   18:53:16.433.25-Dec-2020 4831.01 5448.19 64.24 6.00 466.57 2510.98
   18:53:16.633.25-Dec-2020 4831.01 5442.77 64.24 6.00 466.77 2510.98
   18:53:16.833.25-Dec-2020 4831.01 5444.50 64.24 6.00 466.97 2510.98
   18:53:17.033.25-Dec-2020 4831.01 5442.73 64.24 6.00 467.17 2510.98
   18:53:17.233.25-Dec-2020 4831.01 5442.24 64.24 6.00 467.37 2510.98
   18:53:17.433.25-Dec-2020 4831.01 5442.24 64.24 6.00 467.57 2510.98
   18:53:17.634.25-Dec-2020 4831.01 5442.86 64.24 6.00 467.77 2510.98
   18:53:17.834.25-Dec-2020 4831.01 5443.05 64.24 6.00 467.97 2510.98
   18:53:18.034.25-Dec-2020 4831.01 5447.38 64.24 6.00 468.17 2510.98
   18:53:18.234.25-Dec-2020 4831.01 5441.90 64.24 6.00 468.37 2510.98
   18:53:18.434.25-Dec-2020 4831.01 5450.43 64.24 6.00 468.57 2510.98
   18:53:18.634.25-Dec-2020 4831.01 5445.91 64.24 6.00 468.77 2510.98
   18:53:18.835.25-Dec-2020 4831.01 5444.10 64.24 6.00 468.97 2510.98
   18:53:19.035.25-Dec-2020 4831.01 5445.78 64.24 6.00 469.17 2510.98
   18:53:19.235.25-Dec-2020 4831.01 5445.22 64.24 6.00 469.37 2510.98
   18:53:19.435.25-Dec-2020 4831.01 5445.22 64.24 6.00 469.57 2510.98
   18:53:19.635.25-Dec-2020 4831.01 5444.38 64.24 6.00 469.77 2510.98
   18:53:19.835.25-Dec-2020 4831.01 5444.88 64.24 6.00 469.97 2510.98
   18:53:20.035.25-Dec-2020 4831.01 5444.39 64.24 6.00 470.17 2510.98
   18:53:20.236.25-Dec-2020 4831.01 5444.35 64.24 6.00 470.37 2510.98
   18:53:20.436.25-Dec-2020 4831.01 5444.35 64.24 6.00 470.57 2510.98
   18:53:20.636.25-Dec-2020 4831.01 5443.41 64.24 6.00 470.77 2510.98
   18:53:20.836.25-Dec-2020 4831.01 5454.87 64.24 6.00 470.97 2510.98
   18:53:21.036.25-Dec-2020 4831.01 5442.00 64.24 6.00 471.17 2510.98
   18:53:21.236.25-Dec-2020 4831.01 5444.07 64.24 6.00 471.37 2510.98
   18:53:21.437.25-Dec-2020 4831.01 5444.07 64.24 6.00 471.57 2510.98
   18:53:21.637.25-Dec-2020 4831.01 5449.98 64.24 6.00 471.77 2510.98
   18:53:21.837.25-Dec-2020 4831.01 5444.90 64.24 6.00 471.97 2510.98
   18:53:22.037.25-Dec-2020 4831.01 5446.72 64.24 6.00 472.17 2510.98
   18:53:22.237.25-Dec-2020 4831.01 5457.51 64.24 6.00 472.37 2510.98
   18:53:22.437.25-Dec-2020 4831.01 5457.51 64.24 6.00 472.57 2510.98
   18:53:22.638.25-Dec-2020 4831.01 5444.67 64.24 6.00 472.77 2510.98
   18:53:22.838.25-Dec-2020 4831.01 5455.44 64.24 6.00 472.97 2510.98
   18:53:23.038.25-Dec-2020 4831.01 5447.01 64.24 6.00 473.17 2510.98
   18:53:23.238.25-Dec-2020 4831.01 5443.17 64.24 6.00 473.37 2510.98
   18:53:23.438.25-Dec-2020 4831.01 5443.17 64.24 6.00 473.57 2510.98
   18:53:23.638.25-Dec-2020 4831.01 5445.54 64.24 6.00 473.77 2510.98
   18:53:23.838.25-Dec-2020 4831.01 5442.18 64.24 6.00 473.97 2510.98
   18:53:24.039.25-Dec-2020 4831.01 5443.48 64.24 6.00 474.17 2510.98
   18:53:24.239.25-Dec-2020 4831.01 5443.35 64.24 6.00 474.37 2510.98
   18:53:24.439.25-Dec-2020 4831.01 5443.35 64.24 6.00 474.57 2510.98
   18:53:24.639.25-Dec-2020 4831.01 5442.57 64.24 6.00 474.77 2510.98
   18:53:24.839.25-Dec-2020 4831.01 5443.18 64.24 6.00 474.98 2510.98
   18:53:25.039.25-Dec-2020 4831.01 5443.05 64.24 6.00 475.18 2510.98
   18:53:25.240.25-Dec-2020 4831.01 5453.77 64.24 6.00 475.38 2510.98
   18:53:25.440.25-Dec-2020 4831.01 5453.77 64.24 6.00 475.58 2510.98
   18:53:25.640.25-Dec-2020 4831.01 5443.69 64.23 6.00 475.78 2510.98
   18:53:25.840.25-Dec-2020 4831.01 5447.32 64.23 6.00 475.98 2510.98
   18:53:26.040.25-Dec-2020 4831.01 5444.49 64.23 6.00 476.18 2510.98
   18:53:26.240.25-Dec-2020 4831.01 5442.66 64.23 6.00 476.38 2510.98
   18:53:26.441.25-Dec-2020 4831.01 5442.66 64.23 6.00 476.58 2510.98
   18:53:26.641.25-Dec-2020 4831.01 5443.57 64.23 6.00 476.78 2510.98
   18:53:26.841.25-Dec-2020 4831.01 5443.46 64.23 6.00 476.98 2510.98
   18:53:27.041.25-Dec-2020 4831.01 5444.11 64.23 6.00 477.18 2510.98
   18:53:27.241.25-Dec-2020 4831.01 5444.10 64.23 6.00 477.38 2510.98
   18:53:27.441.25-Dec-2020 4831.01 5444.10 64.23 6.00 477.58 2510.98
   18:53:27.641.25-Dec-2020 4831.01 5443.72 64.23 6.00 477.78 2510.98
   18:53:27.842.25-Dec-2020 4831.01 5443.43 64.23 6.00 477.98 2510.98
   18:53:28.042.25-Dec-2020 4831.01 5446.83 64.23 6.00 478.18 2510.98
   18:53:28.242.25-Dec-2020 4831.01 5448.42 64.23 6.00 478.38 2510.98
   18:53:28.442.25-Dec-2020 4831.01 5448.42 64.23 6.00 478.58 2510.98
   18:53:28.642.25-Dec-2020 4831.01 5444.52 64.23 6.00 478.78 2510.98
   18:53:28.842.25-Dec-2020 4831.01 5453.01 64.23 6.00 478.98 2510.98
   18:53:29.043.25-Dec-2020 4831.01 5447.27 64.23 6.00 479.18 2510.98
   18:53:29.243.25-Dec-2020 4831.01 5443.89 64.23 6.00 479.38 2510.98
   18:53:29.443.25-Dec-2020 4831.01 5443.89 64.23 6.00 479.58 2510.98
   18:53:29.643.25-Dec-2020 4831.01 5447.28 64.23 6.00 479.78 2510.98
   18:53:29.843.25-Dec-2020 4831.01 5443.88 64.23 6.00 479.98 2510.98
   18:53:30.043.25-Dec-2020 4831.01 5452.77 64.23 6.00 480.18 2510.98
   18:53:30.244.25-Dec-2020 4831.01 5445.83 64.23 6.00 480.38 2510.98
   18:53:30.444.25-Dec-2020 4831.01 5450.57 64.23 6.00 480.58 2510.98
   18:53:30.644.25-Dec-2020 4831.01 5447.02 64.23 6.00 480.78 2510.98
   18:53:30.844.25-Dec-2020 4831.01 5444.09 64.23 6.00 480.98 2510.98
   18:53:31.044.25-Dec-2020 4831.01 5444.47 64.23 6.00 481.18 2510.98
   18:53:31.244.25-Dec-2020 4831.01 5443.56 64.23 6.00 481.38 2510.98
   18:53:31.444.25-Dec-2020 4831.01 5443.56 64.23 6.00 481.58 2510.98
   18:53:31.645.25-Dec-2020 4831.01 5442.80 64.23 6.00 481.78 2510.98
   18:53:31.845.25-Dec-2020 4831.01 5442.88 64.23 6.00 481.98 2510.98
   18:53:32.045.25-Dec-2020 4831.01 5443.18 64.23 6.00 482.18 2510.98
   18:53:32.245.25-Dec-2020 4831.01 5442.49 64.23 6.00 482.38 2510.98
   18:53:32.445.25-Dec-2020 4831.01 5442.49 64.23 6.00 482.58 2510.98
   18:53:32.645.25-Dec-2020 4831.01 5446.00 64.23 6.00 482.78 2510.98
   18:53:32.846.25-Dec-2020 4831.01 5448.05 64.23 6.00 482.98 2510.98
   18:53:33.046.25-Dec-2020 4831.01 5445.22 64.23 6.00 483.18 2510.98
