~Version Information
 VERS.                  2.0:   CWLS log ASCII Standard -VERSION 2.0
 WRAP.                   NO:   One line per depth step
~Well Information Block
#MNEM.UNIT     VALUE/NAME     DESCRIPTION
#---------     -----------    ---------------------------
 STRT.S             17:56:34 25-Dec-20: START TIME 17:56:34 25-Dec-20
 STOP.S             18:04:57 25-Dec-20: STOP TIME  18:04:57 25-Dec-20
 STEP.S                   0.00: STEP TIME
 NULL.                 -999.25: NULL VALUE
 DFWT.                        :  DIST FWL TEXT
 DFST.                        :  DIST FSL TEXT
 DMF .             Drill Floor:  DRILL MEAS FROM
 STIM.      04.54.24 22-Sep-20:  START TIME
 DATE.      04.54.24 21-Nov-20:  END TIME
 SPUD.               21-Nov-20:  SPUD DATE
 NREF.                    Grid:  NORTH REFERENCE
 HPTY.       Minimum Curvature:  HOLE POS TYPE
 DMOD.             Drill Model:  DRILL MOD DESC
 SVYD.                  Survey:  SURVEY DESC
 ILTD.               Lithology:  INTERP LTH DESC
 FTOP.          Formation Tops:  FORM TOPS DESC
 SON .        AZ-XX-0906571587:  JOB NUMBER
 COMP.     BP Exploration (Caspian Sea) Ltd:  COMPANY
 UWI .                     N/A:  UNIQUE WELL IDENTIFIER
 API .                     N/A:  API NUMBER
 BASE.              Azerbaijan:  LOGGING EQUIPMENT BASE LOCATION
 REGN.                   EESSA:  REGION
 PROV.                    Baku:  PROVINCE
 STAT.                    Baku:  STATE NAME
 CTRY.              Azerbaijan:  COUNTRY NAME
 FLD .                     ACG:  FIELD NAME
 SRVC.     TURAN Drilling & Engineering:  CONTRACTOR
 WELL.                     J27:  WELL NAME
 RIG .             West Chirag:  RIG NAME
 DOE .                     N/A:  DOE NUMBER
 DCON.         Sperry Drilling:  DIRECTNL CONTR
 PDAT.          Mean Sea Level:  PERMANENT DATUM
 WTYP.                Deviated:  WELL TYPE
 MWDS.                    Baku:  MWD SHOP
 JOBN.        AZ-XX-0906571587:  JOB TICKET NUMB
 UNIT.                     N/A:  LOGGING EQUIPMENT ID
 MDS .        Operator Entered:  MAG DATA SOURCE
 CNTY.                        :  COUNTY
 LOC .                        :  LOCATION
 LMF .             Drill Floor:  LOG MEASURED FROM
 TVDS.m                  43.00:  TVDSS CORRECTN
 LATI.deg                40.13:  LATITUDE
 LONG.deg                51.22:  LONGITUDE
 WHNS.m                   7.72:  WELL HEAD N/S
 WHEW.m                 -14.24:  WELL HEAD E/W
 UTMX.m              519005.06:  UTM X
 UTMY.m             4443793.85:  UTM Y
 DFWL.m                   0.00:  DISTANCE FWL
 DFSL.m                   0.00:  DISTANCE FSL
 SDEP.m                 347.00:  START DEPTH
 TDD .m                 581.00:  TOTAL DEPTH (DRILLER)
 VSDR.deg               159.72:  VERT SEC DIRECT
 GVFD.g                   1.00:  GRAVITY FIELD
 MFLD.nT              50318.00:  MAGNETIC FIELD
 MDIP.deg                59.57:  MAGNETIC DIP
 MDEC.deg                 6.44:  MAGNETIC DECL
 GRDC.deg                 0.15:  GRID CORRECTION
 AZTC.deg                 6.29:  AZM TOTAL CORR
 EPD .m                   0.00:  ELEVATION
 EGL .m                   0.00:  GROUND ELEVATION
 WDMS.m                 169.80:  WD ELEV
 APD .m                  43.00:  DEPTH ABOVE PD
 AGAP.m                  43.00:  AIR GAP
 VSEW.m                 -14.24:  VERT SEC E/W
 VSNS.m                   7.72:  VERT SEC N/S
 DEP .m                 342.45:  DEPTH
 EKB .m                   0.00:  KB ELEVATION
 EDF .m                  43.00:  DF ELEVATION
 TDL .m                 237.00:  TOTAL DEPTH (LOGGER)
 VSC .                       0:  VS TO CLOSURE
 MAGU.                 1851428:  MAGUTM CHECKSUM
~Parameter Information Block
#MNEM.UNIT       Value        Description
#---------     -----------    ---------------------------
 AV  .mps                 1.50:  Ann Velocity 
 AVMX.mps                 2.90:  Max Ann Veloc 
 AZIF.deg               115.59:  Azm, Final 
 BHAT.        Rotary Steerable:  BHA Type 
 BROT.∞/30m               0.50:  Build Rotating 
 BS  .in                  8.50:  Bit Size 
 BTPL.psig              580.00:  Bit Press Loss 
 CABU.                     Yes:  Customer Abuse 
 COMM.                     ‰E:  Run Comments 1 
 TCS .hr                 89.79:  Time Ciculation Ended 
 CV  .mps                 3.22:  Crit Velocity 
 CVMX.mps                 4.37:  Max Crit Veloc 
 DD1 .          Rashad Habibov:  Direct Drillr 1 
 DDSV.               Geo-Pilot:  DD Service 
 DEFF.%                  95.00:  % Det Eff 
 DLRX.∞/30m               1.94:  Dogleg Rot Max 
 DLSO.∞/30m               0.70:  Dogleg Oriented 
 DLSX.∞/30m               1.94:  Dogleg Str Max 
 DRET.      04.45.00 25-Dec-20:  Drill End Time 
 DRST.      10.00.00 24-Dec-20:  Drill Start Tim 
 DTIM.hr                 16.64:  Time Drilling 
 EDEP.m                4999.01:  End Depth 
 ENG1.         Elchin Mammadov:  Engineer 1 
 ENG2.          Ruslan Safarov:  Engineer 2 
 ENG3.          Rustam Safarov:  Engineer 3 
 ETIM.      09.00.00 29-Dec-20:  End Time 
 FLOI.gpm               500.00:  Flow In 
 FLON.gpm               400.00:  Flow In Min 
 FLOS.cptm                0.00:  Fluid Loss 
 FLOX.gpm               500.00:  Flow In Max 
 HFLO.                      No:  High Flow 
 HPRE.                      No:  High Pressure 
 HTEM.                      No:  High Temp 
 HYDO.m                   2.00:  Hydro Offset 
 IFIN.deg                66.79:  Inc, Final 
 IMAX.deg                67.66:  Inc Max 
 IMIN.deg                66.39:  Inc Min 
 IMND.m                4949.37:  Inc Min Depth 
 IMXD.m                4778.63:  Inc Max Depth 
 JARR.                     Yes:  Jarring 
 LETM.      04.45.00 25-Dec-20:  Log End Time 
 LOST.hr                     0:  Lost Rig Time 
 LSTM.      10.00.00 24-Dec-20:  Log Start Time 
 MDCL.ppm             39000.00:  Mud Chlorides 
 MDES.     Inversion Oil/Synthetic:  Mud Desc 
 DFD .sg                  1.33:  Mud Density 
 MDMN.sg                  1.33:  Dens Mud Min 
 MDMX.sg                  1.33:  Dens Mud Max 
 MOIL.                      70:  Run Mud Oil % 
 MOWR.                   70:30:  Run Mud OWR 
 MSND.                       0:  Run Mud Sand % 
 MSOL.                    17.4:  Run Mud Solids% 
 DFV .spqt               84.00:  Mud Viscosity 
 MWOD.in                  6.75:  MWD Tool OD 
 MWSI.                     Yes:  Serv Intrp, MWD 
 OTIM.hr                168.14:  Time Operating 
 PCON.           Look Like New:  Pad Condition 
 PMAX.psia            10822.93:  Press Op, Max 
 PV  .cP                 30.00:  Mud PV 
 RUN .                     900:  Run Number 
 ROPA.m/hr               18.00:  ROP Avg 
 ROPN.m/hr               12.00:  ROP Min 
 ROPX.m/hr               25.00:  ROP Max 
 RPMA.rpm               120.00:  RPM Surface Avg 
 RPMN.rpm               100.00:  RPM Surface Min 
 RPMX.rpm               120.00:  RPM Surface Max 
 RRUN.                    0900:  Rig Run Number 
 SAZI.deg               115.08:  Azm, Start 
 SDEP.m                4762.01:  Start Depth 
 SIDD.                      No:  Serv Intrp, DD 
 SINC.deg                66.14:  Inc, Start 
 SPPA.psig             3700.00:  SPP Avg 
 SPPN.psig             3620.00:  SPP Min 
 SPPX.psig             3900.00:  SPP Max 
 STIM.      09.30.00 22-Dec-20:  Start Time 
 SVCS.                 DD, MWD:  Services 
 SVER.                    9.20:  Sperry Version 
 TDAT.m                 237.00:  Tot Depth Attmp 
 TDDF.                      No:  Trip for DD 
 TDLG.m                 237.00:  Tot Depth Loggd 
 TFF .                      No:  Trip for Fail 
 TQAA.f-kp               18.00:  Torque Abs Avg 
 TQAN.f-kp               17.00:  Torque Abs Min 
 TQAX.f-kp               20.00:  Torque Abs Max 
 TRRT.∞/30m               0.60:  Turn Rotating 
 MRT .                    HCIM:  Maximum Recorded Temperature 
 TTMX.degC               94.12:  Max Tool Temp 
 VS01.                90627809:  Virtual Str1 SN 
 VS02.                90527813:  Virtual Str2 SN 
 VS03.                90545417:  Virtual Str3 SN 
 VS04.                12460870:  Virtual Str4 SN 
 VS05.                90516706:  Virtual Str5 SN 
 VS06.                90632007:  Virtual Str6 SN 
 WBMN.klb                 0.00:  WOB Min 
 WOBA.klb                14.00:  WOB Avg 
 WOBX.klb                25.00:  WOB Max 
 YP  .lhf2               32.00:  Yield Point 
~Curve Information Block
#MNEM.UNIT                 API CODE     Curve Description
#---------               -----------    ---------------------------
 TIME.HHMMSS            00 000 000 000:  GT Time & Date
 GTDEPTH.m              00 000 000 000:  GT Depth
 GTPQH.psia             00 000 000 000:  GT HR Quartz Pressure
 GTTQ.degC              00 000 000 000:  GT Quartz Temperature
 GTTN.NONE              00 000 000 000:  GT Test Number
 GTET.sec               00 000 000 000:  GT Elapsed Test Time
 GTTVD.m                00 000 000 000:  GT True Vertical Depth
#Other Information
#
#WARRANTY: Halliburton will use its best efforts to furnish customers with 
#accurate information and interpretations that are part of, and incident to, the services 
#provided.  However, Halliburton cannot and does not warrant the accuracy 
#or correctness of such information and interpretations.  Under no circumstances should any 
#such information or interpretation be relied upon as the sole basis for any drilling, 
#completion, production, or financial decision or any procedure involving any risk to the 
#safety of any drilling venture, drilling rig or its crew or any other third party.  The 
#Customer has full responsibility for all drilling, completion and production operation.  
#Halliburton makes no representations or warranties, either expressed or 
#implied, including, but not limited to, the implied warranties of merchantability or fitness 
#for a particular purpose, with respect to the services rendered.  In no event will 
#Halliburton be liable for failure to obtain any particular results or for 
#any damages, including, but not limited to, indirect, special or consequential damages, 
#resulting from the use of any information or interpretation provided by Halliburton.
#
~A           TIME           GTDEPTH  GTPQH  GTTQ  GTTN  GTET   GTTVD  
# ...
   18:04:37.534.25-Dec-2020 4856.51 5467.31 64.25 5.00 482.81 2521.01
   18:04:37.734.25-Dec-2020 4856.51 5467.31 64.25 5.00 483.01 2521.01
   18:04:37.934.25-Dec-2020 4856.51 5467.42 64.25 5.00 483.21 2521.01
   18:04:38.134.25-Dec-2020 4856.51 5466.90 64.25 5.00 483.41 2521.01
   18:04:38.334.25-Dec-2020 4856.51 5467.16 64.25 5.00 483.61 2521.01
   18:04:38.534.25-Dec-2020 4856.51 5477.80 64.25 5.00 483.81 2521.01
   18:04:38.734.25-Dec-2020 4856.51 5477.80 64.25 5.00 484.01 2521.01
   18:04:38.934.25-Dec-2020 4856.51 5474.26 64.25 5.00 484.21 2521.01
   18:04:39.134.25-Dec-2020 4856.51 5470.42 64.25 5.00 484.41 2521.01
   18:04:39.333.25-Dec-2020 4856.51 5468.60 64.25 5.00 484.61 2521.01
   18:04:39.533.25-Dec-2020 4856.51 5468.30 64.25 5.00 484.81 2521.01
   18:04:39.733.25-Dec-2020 4856.51 5468.30 64.25 5.00 485.01 2521.01
   18:04:39.933.25-Dec-2020 4856.51 5468.26 64.25 5.00 485.21 2521.01
   18:04:40.133.25-Dec-2020 4856.51 5468.15 64.25 5.00 485.41 2521.01
   18:04:40.333.25-Dec-2020 4856.51 5468.43 64.25 5.00 485.61 2521.01
   18:04:40.533.25-Dec-2020 4856.51 5467.81 64.25 5.00 485.81 2521.01
   18:04:40.733.25-Dec-2020 4856.51 5467.81 64.25 5.00 486.01 2521.01
   18:04:40.933.25-Dec-2020 4856.51 5467.48 64.25 5.00 486.21 2521.01
   18:04:41.133.25-Dec-2020 4856.51 5467.16 64.25 5.00 486.41 2521.01
   18:04:41.333.25-Dec-2020 4856.51 5475.14 64.25 5.00 486.61 2521.01
   18:04:41.533.25-Dec-2020 4856.51 5473.26 64.25 5.00 486.81 2521.01
   18:04:41.732.25-Dec-2020 4856.51 5473.26 64.25 5.00 487.01 2521.01
   18:04:41.932.25-Dec-2020 4856.51 5484.20 64.25 5.00 487.21 2521.01
   18:04:42.132.25-Dec-2020 4856.51 5462.36 64.25 5.00 487.41 2521.01
   18:04:42.332.25-Dec-2020 4856.51 5474.68 64.25 5.00 487.61 2521.01
   18:04:42.532.25-Dec-2020 4856.51 5471.22 64.25 5.00 487.81 2521.01
   18:04:42.732.25-Dec-2020 4856.51 5471.22 64.25 5.00 488.01 2521.01
   18:04:42.932.25-Dec-2020 4856.51 5476.99 64.25 5.00 488.21 2521.01
   18:04:43.132.25-Dec-2020 4856.51 5469.67 64.25 5.00 488.41 2521.01
   18:04:43.332.25-Dec-2020 4856.51 5468.34 64.25 5.00 488.61 2521.01
   18:04:43.532.25-Dec-2020 4856.51 5482.28 64.25 5.00 488.81 2521.01
   18:04:43.732.25-Dec-2020 4856.51 5482.28 64.25 5.00 489.01 2521.01
   18:04:43.932.25-Dec-2020 4856.51 5475.82 64.25 5.00 489.21 2521.01
   18:04:44.132.25-Dec-2020 4856.51 5471.52 64.25 5.00 489.41 2521.01
   18:04:44.331.25-Dec-2020 4856.51 5465.82 64.25 5.00 489.61 2521.01
   18:04:44.531.25-Dec-2020 4856.51 5469.20 64.25 5.00 489.81 2521.01
   18:04:44.731.25-Dec-2020 4856.51 5469.20 64.25 5.00 490.01 2521.01
   18:04:44.931.25-Dec-2020 4856.51 5466.47 64.25 5.00 490.21 2521.01
   18:04:45.131.25-Dec-2020 4856.51 5467.28 64.25 5.00 490.41 2521.01
   18:04:45.331.25-Dec-2020 4856.51 5466.95 64.25 5.00 490.61 2521.01
   18:04:45.531.25-Dec-2020 4856.51 5466.66 64.25 5.00 490.81 2521.01
   18:04:45.731.25-Dec-2020 4856.51 5466.66 64.25 5.00 491.01 2521.01
   18:04:45.931.25-Dec-2020 4856.51 5470.33 64.25 5.00 491.21 2521.01
   18:04:46.131.25-Dec-2020 4856.51 5467.17 64.25 5.00 491.41 2521.01
   18:04:46.331.25-Dec-2020 4856.51 5474.60 64.25 5.00 491.61 2521.01
   18:04:46.531.25-Dec-2020 4856.51 5468.37 64.25 5.00 491.81 2521.01
   18:04:46.731.25-Dec-2020 4856.51 5468.37 64.25 5.00 492.01 2521.01
   18:04:46.930.25-Dec-2020 4856.51 5469.23 64.25 5.00 492.21 2521.01
   18:04:47.130.25-Dec-2020 4856.51 5467.51 64.25 5.00 492.41 2521.01
   18:04:47.330.25-Dec-2020 4856.51 5467.41 64.25 5.00 492.61 2521.01
   18:04:47.530.25-Dec-2020 4856.51 5468.13 64.25 5.00 492.81 2521.01
   18:04:47.730.25-Dec-2020 4856.51 5468.13 64.25 5.00 493.01 2521.01
   18:04:47.930.25-Dec-2020 4856.51 5467.77 64.25 5.00 493.21 2521.01
   18:04:48.130.25-Dec-2020 4856.51 5467.58 64.25 5.00 493.41 2521.01
   18:04:48.330.25-Dec-2020 4856.51 5467.01 64.25 5.00 493.61 2521.01
   18:04:48.530.25-Dec-2020 4856.51 5466.93 64.25 5.00 493.81 2521.01
   18:04:48.730.25-Dec-2020 4856.51 5466.93 64.25 5.00 494.01 2521.01
   18:04:48.930.25-Dec-2020 4856.51 5461.27 64.25 5.00 494.21 2521.01
   18:04:49.130.25-Dec-2020 4856.51 5473.70 64.25 5.00 494.41 2521.01
   18:04:49.330.25-Dec-2020 4856.51 5469.85 64.25 5.00 494.61 2521.01
   18:04:49.529.25-Dec-2020 4856.51 5475.14 64.25 5.00 494.81 2521.01
   18:04:49.729.25-Dec-2020 4856.51 5475.14 64.25 5.00 495.01 2521.01
   18:04:49.929.25-Dec-2020 4856.51 5464.93 64.25 5.00 495.20 2521.01
   18:04:50.129.25-Dec-2020 4856.51 5471.99 64.25 5.00 495.40 2521.01
   18:04:50.329.25-Dec-2020 4856.51 5476.29 64.25 5.00 495.60 2521.01
   18:04:50.529.25-Dec-2020 4856.51 5469.17 64.25 5.00 495.80 2521.01
   18:04:50.729.25-Dec-2020 4856.51 5469.17 64.25 5.00 496.00 2521.01
   18:04:50.929.25-Dec-2020 4856.51 5471.44 64.25 5.00 496.20 2521.01
   18:04:51.129.25-Dec-2020 4856.51 5475.20 64.25 5.00 496.40 2521.01
   18:04:51.329.25-Dec-2020 4856.51 5471.52 64.25 5.00 496.60 2521.01
   18:04:51.529.25-Dec-2020 4856.51 5464.60 64.25 5.00 496.80 2521.01
   18:04:51.729.25-Dec-2020 4856.51 5464.60 64.25 5.00 497.00 2521.01
   18:04:51.928.25-Dec-2020 4856.51 5466.81 64.25 5.00 497.20 2521.01
   18:04:52.128.25-Dec-2020 4856.51 5465.81 64.25 5.00 497.40 2521.01
   18:04:52.328.25-Dec-2020 4856.51 5466.40 64.25 5.00 497.60 2521.01
   18:04:52.528.25-Dec-2020 4856.51 5465.57 64.25 5.00 497.80 2521.01
   18:04:52.728.25-Dec-2020 4856.51 5465.57 64.25 5.00 498.00 2521.01
   18:04:52.928.25-Dec-2020 4856.51 5465.53 64.25 5.00 498.20 2521.01
   18:04:53.128.25-Dec-2020 4856.51 5465.28 64.25 5.00 498.40 2521.01
   18:04:53.328.25-Dec-2020 4856.51 5465.08 64.25 5.00 498.60 2521.01
   18:04:53.528.25-Dec-2020 4856.51 5473.72 64.25 5.00 498.80 2521.01
   18:04:53.728.25-Dec-2020 4856.51 5473.72 64.25 5.00 499.00 2521.01
   18:04:53.928.25-Dec-2020 4856.51 5466.09 64.25 5.00 499.20 2521.01
   18:04:54.128.25-Dec-2020 4856.51 5470.71 64.25 5.00 499.40 2521.01
   18:04:54.328.25-Dec-2020 4856.51 5467.31 64.25 5.00 499.60 2521.01
   18:04:54.527.25-Dec-2020 4856.51 5465.82 64.25 5.00 499.80 2521.01
   18:04:54.727.25-Dec-2020 4856.51 5465.82 64.25 5.00 500.00 2521.01
   18:04:54.927.25-Dec-2020 4856.51 5466.22 64.25 5.00 500.20 2521.01
   18:04:55.127.25-Dec-2020 4856.51 5466.69 64.25 5.00 500.40 2521.01
   18:04:55.327.25-Dec-2020 4856.51 5466.99 64.25 5.00 500.60 2521.01
   18:04:55.527.25-Dec-2020 4856.51 5466.48 64.25 5.00 500.80 2521.01
   18:04:55.727.25-Dec-2020 4856.51 5466.48 64.25 5.00 501.00 2521.01
   18:04:55.927.25-Dec-2020 4856.51 5465.86 64.24 5.00 501.20 2521.01
   18:04:56.127.25-Dec-2020 4856.51 5469.46 64.25 5.00 501.40 2521.01
   18:04:56.327.25-Dec-2020 4856.51 5466.29 64.25 5.00 501.60 2521.01
   18:04:56.527.25-Dec-2020 4856.51 5473.73 64.25 5.00 501.80 2521.01
   18:04:56.727.25-Dec-2020 4856.51 5473.73 64.25 5.00 502.00 2521.01
   18:04:56.927.25-Dec-2020 4856.51 5474.30 64.24 5.00 502.20 2521.01
   18:04:57.126.25-Dec-2020 4856.51 5473.30 64.24 5.00 502.40 2521.01
   18:04:57.326.25-Dec-2020 4856.51 5463.27 64.24 5.00 502.60 2521.01
