~Version Information
 VERS.                  2.0:   CWLS log ASCII Standard -VERSION 2.0
 WRAP.                   NO:   One line per depth step
~Well Information Block
#MNEM.UNIT     VALUE/NAME     DESCRIPTION
#---------     -----------    ---------------------------
 STRT.S             12:53:37 25-Dec-20: START TIME 12:53:37 25-Dec-20
 STOP.S             13:01:52 25-Dec-20: STOP TIME  13:01:52 25-Dec-20
 STEP.S                   0.00: STEP TIME
 NULL.                 -999.25: NULL VALUE
 DFWT.                        :  DIST FWL TEXT
 DFST.                        :  DIST FSL TEXT
 DMF .             Drill Floor:  DRILL MEAS FROM
 STIM.      04.54.24 22-Sep-20:  START TIME
 DATE.      04.54.24 21-Nov-20:  END TIME
 SPUD.               21-Nov-20:  SPUD DATE
 NREF.                    Grid:  NORTH REFERENCE
 HPTY.       Minimum Curvature:  HOLE POS TYPE
 DMOD.             Drill Model:  DRILL MOD DESC
 SVYD.                  Survey:  SURVEY DESC
 ILTD.               Lithology:  INTERP LTH DESC
 FTOP.          Formation Tops:  FORM TOPS DESC
 SON .        AZ-XX-0906571587:  JOB NUMBER
 COMP.     BP Exploration (Caspian Sea) Ltd:  COMPANY
 UWI .                     N/A:  UNIQUE WELL IDENTIFIER
 API .                     N/A:  API NUMBER
 BASE.              Azerbaijan:  LOGGING EQUIPMENT BASE LOCATION
 REGN.                   EESSA:  REGION
 PROV.                    Baku:  PROVINCE
 STAT.                    Baku:  STATE NAME
 CTRY.              Azerbaijan:  COUNTRY NAME
 FLD .                     ACG:  FIELD NAME
 SRVC.     TURAN Drilling & Engineering:  CONTRACTOR
 WELL.                     J27:  WELL NAME
 RIG .             West Chirag:  RIG NAME
 DOE .                     N/A:  DOE NUMBER
 DCON.         Sperry Drilling:  DIRECTNL CONTR
 PDAT.          Mean Sea Level:  PERMANENT DATUM
 WTYP.                Deviated:  WELL TYPE
 MWDS.                    Baku:  MWD SHOP
 JOBN.        AZ-XX-0906571587:  JOB TICKET NUMB
 UNIT.                     N/A:  LOGGING EQUIPMENT ID
 MDS .        Operator Entered:  MAG DATA SOURCE
 CNTY.                        :  COUNTY
 LOC .                        :  LOCATION
 LMF .             Drill Floor:  LOG MEASURED FROM
 TVDS.m                  43.00:  TVDSS CORRECTN
 LATI.deg                40.13:  LATITUDE
 LONG.deg                51.22:  LONGITUDE
 WHNS.m                   7.72:  WELL HEAD N/S
 WHEW.m                 -14.24:  WELL HEAD E/W
 UTMX.m              519005.06:  UTM X
 UTMY.m             4443793.85:  UTM Y
 DFWL.m                   0.00:  DISTANCE FWL
 DFSL.m                   0.00:  DISTANCE FSL
 SDEP.m                 347.00:  START DEPTH
 TDD .m                 581.00:  TOTAL DEPTH (DRILLER)
 VSDR.deg               159.72:  VERT SEC DIRECT
 GVFD.g                   1.00:  GRAVITY FIELD
 MFLD.nT              50318.00:  MAGNETIC FIELD
 MDIP.deg                59.57:  MAGNETIC DIP
 MDEC.deg                 6.44:  MAGNETIC DECL
 GRDC.deg                 0.15:  GRID CORRECTION
 AZTC.deg                 6.29:  AZM TOTAL CORR
 EPD .m                   0.00:  ELEVATION
 EGL .m                   0.00:  GROUND ELEVATION
 WDMS.m                 169.80:  WD ELEV
 APD .m                  43.00:  DEPTH ABOVE PD
 AGAP.m                  43.00:  AIR GAP
 VSEW.m                 -14.24:  VERT SEC E/W
 VSNS.m                   7.72:  VERT SEC N/S
 DEP .m                 342.45:  DEPTH
 EKB .m                   0.00:  KB ELEVATION
 EDF .m                  43.00:  DF ELEVATION
 TDL .m                 237.00:  TOTAL DEPTH (LOGGER)
 VSC .                       0:  VS TO CLOSURE
 MAGU.                 1851428:  MAGUTM CHECKSUM
~Parameter Information Block
#MNEM.UNIT       Value        Description
#---------     -----------    ---------------------------
 AV  .mps                 1.50:  Ann Velocity 
 AVMX.mps                 2.90:  Max Ann Veloc 
 AZIF.deg               115.59:  Azm, Final 
 BHAT.        Rotary Steerable:  BHA Type 
 BROT.°/30m               0.50:  Build Rotating 
 BS  .in                  8.50:  Bit Size 
 BTPL.psig              580.00:  Bit Press Loss 
 CABU.                     Yes:  Customer Abuse 
 COMM.                     LÓw:  Run Comments 1 
 TCS .hr                 89.79:  Time Ciculation Ended 
 CV  .mps                 3.22:  Crit Velocity 
 CVMX.mps                 4.37:  Max Crit Veloc 
 DD1 .          Rashad Habibov:  Direct Drillr 1 
 DDSV.               Geo-Pilot:  DD Service 
 DEFF.%                  95.00:  % Det Eff 
 DLRX.°/30m               1.94:  Dogleg Rot Max 
 DLSO.°/30m               0.70:  Dogleg Oriented 
 DLSX.°/30m               1.94:  Dogleg Str Max 
 DRET.      04.45.00 25-Dec-20:  Drill End Time 
 DRST.      10.00.00 24-Dec-20:  Drill Start Tim 
 DTIM.hr                 16.64:  Time Drilling 
 EDEP.m                4999.01:  End Depth 
 ENG1.         Elchin Mammadov:  Engineer 1 
 ENG2.          Ruslan Safarov:  Engineer 2 
 ENG3.          Rustam Safarov:  Engineer 3 
 ETIM.      09.00.00 29-Dec-20:  End Time 
 FLOI.gpm               500.00:  Flow In 
 FLON.gpm               400.00:  Flow In Min 
 FLOS.cptm                0.00:  Fluid Loss 
 FLOX.gpm               500.00:  Flow In Max 
 HFLO.                      No:  High Flow 
 HPRE.                      No:  High Pressure 
 HTEM.                      No:  High Temp 
 HYDO.m                   2.00:  Hydro Offset 
 IFIN.deg                66.79:  Inc, Final 
 IMAX.deg                67.66:  Inc Max 
 IMIN.deg                66.39:  Inc Min 
 IMND.m                4949.37:  Inc Min Depth 
 IMXD.m                4778.63:  Inc Max Depth 
 JARR.                     Yes:  Jarring 
 LETM.      04.45.00 25-Dec-20:  Log End Time 
 LOST.hr                     0:  Lost Rig Time 
 LSTM.      10.00.00 24-Dec-20:  Log Start Time 
 MDCL.ppm             39000.00:  Mud Chlorides 
 MDES.     Inversion Oil/Synthetic:  Mud Desc 
 DFD .sg                  1.33:  Mud Density 
 MDMN.sg                  1.33:  Dens Mud Min 
 MDMX.sg                  1.33:  Dens Mud Max 
 MOIL.                      70:  Run Mud Oil % 
 MOWR.                   70:30:  Run Mud OWR 
 MSND.                       0:  Run Mud Sand % 
 MSOL.                    17.4:  Run Mud Solids% 
 DFV .spqt               84.00:  Mud Viscosity 
 MWOD.in                  6.75:  MWD Tool OD 
 MWSI.                     Yes:  Serv Intrp, MWD 
 OTIM.hr                168.14:  Time Operating 
 PCON.           Look Like New:  Pad Condition 
 PMAX.psia            10822.93:  Press Op, Max 
 PV  .cP                 30.00:  Mud PV 
 RUN .                     900:  Run Number 
 ROPA.m/hr               18.00:  ROP Avg 
 ROPN.m/hr               12.00:  ROP Min 
 ROPX.m/hr               25.00:  ROP Max 
 RPMA.rpm               120.00:  RPM Surface Avg 
 RPMN.rpm               100.00:  RPM Surface Min 
 RPMX.rpm               120.00:  RPM Surface Max 
 RRUN.                    0900:  Rig Run Number 
 SAZI.deg               115.08:  Azm, Start 
 SDEP.m                4762.01:  Start Depth 
 SIDD.                      No:  Serv Intrp, DD 
 SINC.deg                66.14:  Inc, Start 
 SPPA.psig             3700.00:  SPP Avg 
 SPPN.psig             3620.00:  SPP Min 
 SPPX.psig             3900.00:  SPP Max 
 STIM.      09.30.00 22-Dec-20:  Start Time 
 SVCS.                 DD, MWD:  Services 
 SVER.                    9.20:  Sperry Version 
 TDAT.m                 237.00:  Tot Depth Attmp 
 TDDF.                      No:  Trip for DD 
 TDLG.m                 237.00:  Tot Depth Loggd 
 TFF .                      No:  Trip for Fail 
 TQAA.f-kp               18.00:  Torque Abs Avg 
 TQAN.f-kp               17.00:  Torque Abs Min 
 TQAX.f-kp               20.00:  Torque Abs Max 
 TRRT.°/30m               0.60:  Turn Rotating 
 MRT .                    HCIM:  Maximum Recorded Temperature 
 TTMX.degC               94.12:  Max Tool Temp 
 VS01.                90627809:  Virtual Str1 SN 
 VS02.                90527813:  Virtual Str2 SN 
 VS03.                90545417:  Virtual Str3 SN 
 VS04.                12460870:  Virtual Str4 SN 
 VS05.                90516706:  Virtual Str5 SN 
 VS06.                90632007:  Virtual Str6 SN 
 WBMN.klb                 0.00:  WOB Min 
 WOBA.klb                14.00:  WOB Avg 
 WOBX.klb                25.00:  WOB Max 
 YP  .lhf2               32.00:  Yield Point 
~Curve Information Block
#MNEM.UNIT                 API CODE     Curve Description
#---------               -----------    ---------------------------
 TIME.HHMMSS            00 000 000 000:  GT Time & Date
 GTDEPTH.m              00 000 000 000:  GT Depth
 GTPQH.psia             00 000 000 000:  GT HR Quartz Pressure
 GTTQ.degC              00 000 000 000:  GT Quartz Temperature
 GTTN.NONE              00 000 000 000:  GT Test Number
 GTET.sec               00 000 000 000:  GT Elapsed Test Time
 GTTVD.m                00 000 000 000:  GT True Vertical Depth
#Other Information
#
#WARRANTY: Halliburton will use its best efforts to furnish customers with 
#accurate information and interpretations that are part of, and incident to, the services 
#provided.  However, Halliburton cannot and does not warrant the accuracy 
#or correctness of such information and interpretations.  Under no circumstances should any 
#such information or interpretation be relied upon as the sole basis for any drilling, 
#completion, production, or financial decision or any procedure involving any risk to the 
#safety of any drilling venture, drilling rig or its crew or any other third party.  The 
#Customer has full responsibility for all drilling, completion and production operation.  
#Halliburton makes no representations or warranties, either expressed or 
#implied, including, but not limited to, the implied warranties of merchantability or fitness 
#for a particular purpose, with respect to the services rendered.  In no event will 
#Halliburton be liable for failure to obtain any particular results or for 
#any damages, including, but not limited to, indirect, special or consequential damages, 
#resulting from the use of any information or interpretation provided by Halliburton.
#
~A           TIME           GTDEPTH  GTPQH  GTTQ  GTTN  GTET   GTTVD  
# ...
   12:57:27.288.25-Dec-2020 4950.51 2089.75 66.62 1.00 230.10 2558.08
   12:57:27.488.25-Dec-2020 4950.51 2089.75 66.62 1.00 230.30 2558.08
   12:57:27.688.25-Dec-2020 4950.51 2089.94 66.62 1.00 230.50 2558.08
   12:57:27.889.25-Dec-2020 4950.51 2089.82 66.62 1.00 230.70 2558.08
   12:57:28.089.25-Dec-2020 4950.51 2089.85 66.62 1.00 230.90 2558.08
   12:57:28.289.25-Dec-2020 4950.51 2089.85 66.62 1.00 231.10 2558.08
   12:57:28.489.25-Dec-2020 4950.51 2089.85 66.62 1.00 231.30 2558.08
   12:57:28.689.25-Dec-2020 4950.51 2089.79 66.62 1.00 231.50 2558.08
   12:57:28.889.25-Dec-2020 4950.51 2089.29 66.62 1.00 231.70 2558.08
   12:57:29.089.25-Dec-2020 4950.51 2090.27 66.62 1.00 231.90 2558.08
   12:57:29.289.25-Dec-2020 4950.51 2089.89 66.62 1.00 232.10 2558.08
   12:57:29.489.25-Dec-2020 4950.51 2089.89 66.62 1.00 232.30 2558.08
   12:57:29.689.25-Dec-2020 4950.51 2089.05 66.62 1.00 232.50 2558.08
   12:57:29.889.25-Dec-2020 4950.51 2090.18 66.62 1.00 232.70 2558.08
   12:57:30.090.25-Dec-2020 4950.51 2090.01 66.62 1.00 232.90 2558.08
   12:57:30.290.25-Dec-2020 4950.51 2089.69 66.62 1.00 233.11 2558.08
   12:57:30.490.25-Dec-2020 4950.51 2089.69 66.62 1.00 233.31 2558.08
   12:57:30.690.25-Dec-2020 4950.51 2089.43 66.62 1.00 233.51 2558.08
   12:57:30.890.25-Dec-2020 4950.51 2090.40 66.62 1.00 233.71 2558.08
   12:57:31.090.25-Dec-2020 4950.51 2089.84 66.62 1.00 233.91 2558.08
   12:57:31.290.25-Dec-2020 4950.51 2090.27 66.62 1.00 234.11 2558.08
   12:57:31.490.25-Dec-2020 4950.51 2090.01 66.62 1.00 234.31 2558.08
   12:57:31.690.25-Dec-2020 4950.51 2089.79 66.62 1.00 234.51 2558.08
   12:57:31.890.25-Dec-2020 4950.51 2089.93 66.62 1.00 234.71 2558.08
   12:57:32.090.25-Dec-2020 4950.51 2089.89 66.62 1.00 234.91 2558.08
   12:57:32.291.25-Dec-2020 4950.51 2089.90 66.62 1.00 235.11 2558.08
   12:57:32.491.25-Dec-2020 4950.51 2089.89 66.62 1.00 235.31 2558.08
   12:57:32.691.25-Dec-2020 4950.51 2089.79 66.62 1.00 235.51 2558.08
   12:57:32.891.25-Dec-2020 4950.51 2089.92 66.62 1.00 235.71 2558.08
   12:57:33.091.25-Dec-2020 4950.51 2089.90 66.62 1.00 235.91 2558.08
   12:57:33.291.25-Dec-2020 4950.51 2089.16 66.62 1.00 236.11 2558.08
   12:57:33.491.25-Dec-2020 4950.51 2089.16 66.62 1.00 236.31 2558.08
   12:57:33.691.25-Dec-2020 4950.51 2090.08 66.62 1.00 236.51 2558.08
   12:57:33.891.25-Dec-2020 4950.51 2090.08 66.62 1.00 236.71 2558.08
   12:57:34.091.25-Dec-2020 4950.51 2089.97 66.62 1.00 236.91 2558.08
   12:57:34.291.25-Dec-2020 4950.51 2089.99 66.62 1.00 237.11 2558.08
   12:57:34.492.25-Dec-2020 4950.51 2089.99 66.62 1.00 237.31 2558.08
   12:57:34.692.25-Dec-2020 4950.51 2089.93 66.61 1.00 237.51 2558.08
   12:57:34.892.25-Dec-2020 4950.51 2089.98 66.61 1.00 237.71 2558.08
   12:57:35.092.25-Dec-2020 4950.51 2089.99 66.61 1.00 237.91 2558.08
   12:57:35.292.25-Dec-2020 4950.51 2089.94 66.61 1.00 238.11 2558.08
   12:57:35.492.25-Dec-2020 4950.51 2089.94 66.61 1.00 238.31 2558.08
   12:57:35.692.25-Dec-2020 4950.51 2089.30 66.61 1.00 238.51 2558.08
   12:57:35.892.25-Dec-2020 4950.51 2090.39 66.61 1.00 238.71 2558.08
   12:57:36.092.25-Dec-2020 4950.51 2089.95 66.61 1.00 238.91 2558.08
   12:57:36.292.25-Dec-2020 4950.51 2090.20 66.61 1.00 239.11 2558.08
   12:57:36.492.25-Dec-2020 4950.51 2090.20 66.61 1.00 239.31 2558.08
   12:57:36.693.25-Dec-2020 4950.51 2090.35 66.61 1.00 239.51 2558.08
   12:57:36.893.25-Dec-2020 4950.51 2090.21 66.61 1.00 239.71 2558.08
   12:57:37.093.25-Dec-2020 4950.51 2089.95 66.61 1.00 239.91 2558.08
   12:57:37.293.25-Dec-2020 4950.51 2090.66 66.61 1.00 240.11 2558.08
   12:57:37.493.25-Dec-2020 4950.51 2090.66 66.61 1.00 240.31 2558.08
   12:57:37.693.25-Dec-2020 4950.51 2090.73 66.61 1.00 240.51 2558.08
   12:57:37.893.25-Dec-2020 4950.51 2090.10 66.61 1.00 240.71 2558.08
   12:57:38.093.25-Dec-2020 4950.51 2090.43 66.61 1.00 240.91 2558.08
   12:57:38.293.25-Dec-2020 4950.51 2090.17 66.61 1.00 241.11 2558.08
   12:57:38.493.25-Dec-2020 4950.51 2090.17 66.61 1.00 241.31 2558.08
   12:57:38.693.25-Dec-2020 4950.51 2090.09 66.61 1.00 241.51 2558.08
   12:57:38.894.25-Dec-2020 4950.51 2090.04 66.61 1.00 241.71 2558.08
   12:57:39.094.25-Dec-2020 4950.51 2090.07 66.61 1.00 241.91 2558.08
   12:57:39.294.25-Dec-2020 4950.51 2090.06 66.61 1.00 242.11 2558.08
   12:57:39.494.25-Dec-2020 4950.51 2090.06 66.61 1.00 242.31 2558.08
   12:57:39.694.25-Dec-2020 4950.51 2090.08 66.61 1.00 242.51 2558.08
   12:57:39.894.25-Dec-2020 4950.51 2090.11 66.61 1.00 242.71 2558.08
   12:57:40.094.25-Dec-2020 4950.51 2089.36 66.61 1.00 242.91 2558.08
   12:57:40.294.25-Dec-2020 4950.51 2090.52 66.61 1.00 243.11 2558.08
   12:57:40.494.25-Dec-2020 4950.51 2090.52 66.61 1.00 243.31 2558.08
   12:57:40.694.25-Dec-2020 4950.51 2090.15 66.61 1.00 243.51 2558.08
   12:57:40.894.25-Dec-2020 4950.51 2090.06 66.61 1.00 243.71 2558.08
   12:57:41.095.25-Dec-2020 4950.51 2090.15 66.61 1.00 243.91 2558.08
   12:57:41.295.25-Dec-2020 4950.51 2090.24 66.61 1.00 244.11 2558.08
   12:57:41.495.25-Dec-2020 4950.51 2090.21 66.61 1.00 244.31 2558.08
   12:57:41.695.25-Dec-2020 4950.51 2090.20 66.61 1.00 244.51 2558.08
   12:57:41.895.25-Dec-2020 4950.51 2090.14 66.61 1.00 244.71 2558.08
   12:57:42.095.25-Dec-2020 4950.51 2090.11 66.61 1.00 244.91 2558.08
   12:57:42.295.25-Dec-2020 4950.51 2090.10 66.61 1.00 245.11 2558.08
   12:57:42.495.25-Dec-2020 4950.51 2089.52 66.61 1.00 245.31 2558.08
   12:57:42.695.25-Dec-2020 4950.51 2090.59 66.61 1.00 245.51 2558.08
   12:57:42.895.25-Dec-2020 4950.51 2090.14 66.61 1.00 245.71 2558.08
   12:57:43.095.25-Dec-2020 4950.51 2090.38 66.61 1.00 245.91 2558.08
   12:57:43.296.25-Dec-2020 4950.51 2089.38 66.61 1.00 246.11 2558.08
   12:57:43.496.25-Dec-2020 4950.51 2090.58 66.61 1.00 246.31 2558.08
   12:57:43.696.25-Dec-2020 4950.51 2090.36 66.61 1.00 246.51 2558.08
   12:57:43.896.25-Dec-2020 4950.51 2089.98 66.61 1.00 246.71 2558.08
   12:57:44.096.25-Dec-2020 4950.51 2090.39 66.61 1.00 246.91 2558.08
   12:57:44.296.25-Dec-2020 4950.51 2089.70 66.61 1.00 247.11 2558.08
   12:57:44.496.25-Dec-2020 4950.51 2089.70 66.61 1.00 247.31 2558.08
   12:57:44.696.25-Dec-2020 4950.51 2090.12 66.61 1.00 247.51 2558.08
   12:57:44.896.25-Dec-2020 4950.51 2090.50 66.61 1.00 247.71 2558.08
   12:57:45.096.25-Dec-2020 4950.51 2090.34 66.61 1.00 247.91 2558.08
   12:57:45.296.25-Dec-2020 4950.51 2090.13 66.61 1.00 248.11 2558.08
   12:57:45.496.25-Dec-2020 4950.51 2090.13 66.61 1.00 248.31 2558.08
   12:57:45.697.25-Dec-2020 4950.51 2090.18 66.61 1.00 248.51 2558.08
   12:57:45.897.25-Dec-2020 4950.51 2090.12 66.61 1.00 248.71 2558.08
   12:57:46.097.25-Dec-2020 4950.51 2090.16 66.61 1.00 248.91 2558.08
   12:57:46.297.25-Dec-2020 4950.51 2090.08 66.61 1.00 249.11 2558.08
   12:57:46.497.25-Dec-2020 4950.51 2090.08 66.61 1.00 249.31 2558.08
   12:57:46.697.25-Dec-2020 4950.51 2090.20 66.61 1.00 249.51 2558.08
   12:57:46.897.25-Dec-2020 4950.51 2089.45 66.61 1.00 249.71 2558.08
   12:57:47.097.25-Dec-2020 4950.51 2090.70 66.61 1.00 249.91 2558.08
   12:57:47.297.25-Dec-2020 4950.51 2090.45 66.61 1.00 250.11 2558.08
   12:57:47.497.25-Dec-2020 4950.51 2090.45 66.61 1.00 250.31 2558.08
   12:57:47.697.25-Dec-2020 4950.51 2090.21 66.61 1.00 250.51 2558.08
   12:57:47.898.25-Dec-2020 4950.51 2090.19 66.61 1.00 250.71 2558.08
   12:57:48.098.25-Dec-2020 4950.51 2090.37 66.61 1.00 250.91 2558.08
   12:57:48.298.25-Dec-2020 4950.51 2090.22 66.61 1.00 251.11 2558.08
   12:57:48.498.25-Dec-2020 4950.51 2090.22 66.61 1.00 251.31 2558.08
   12:57:48.698.25-Dec-2020 4950.51 2090.23 66.61 1.00 251.51 2558.08
   12:57:48.898.25-Dec-2020 4950.51 2090.25 66.61 1.00 251.71 2558.08
   12:57:49.098.25-Dec-2020 4950.51 2090.30 66.61 1.00 251.91 2558.08
   12:57:49.298.25-Dec-2020 4950.51 2089.64 66.61 1.00 252.11 2558.08
   12:57:49.498.25-Dec-2020 4950.51 2089.64 66.61 1.00 252.31 2558.08
   12:57:49.698.25-Dec-2020 4950.51 2090.36 66.61 1.00 252.51 2558.08
   12:57:49.898.25-Dec-2020 4950.51 2090.55 66.61 1.00 252.71 2558.08
   12:57:50.099.25-Dec-2020 4950.51 2089.62 66.61 1.00 252.91 2558.08
