~Version Information
 VERS.                  2.0:   CWLS log ASCII Standard -VERSION 2.0
 WRAP.                   NO:   One line per depth step
~Well Information Block
#MNEM.UNIT     VALUE/NAME     DESCRIPTION
#---------     -----------    ---------------------------
 STRT.S             18:45:29 25-Dec-20: START TIME 18:45:29 25-Dec-20
 STOP.S             18:53:50 25-Dec-20: STOP TIME  18:53:50 25-Dec-20
 STEP.S                   0.00: STEP TIME
 NULL.                 -999.25: NULL VALUE
 DFWT.                        :  DIST FWL TEXT
 DFST.                        :  DIST FSL TEXT
 DMF .             Drill Floor:  DRILL MEAS FROM
 STIM.      04.54.24 22-Sep-20:  START TIME
 DATE.      04.54.24 21-Nov-20:  END TIME
 SPUD.               21-Nov-20:  SPUD DATE
 NREF.                    Grid:  NORTH REFERENCE
 HPTY.       Minimum Curvature:  HOLE POS TYPE
 DMOD.             Drill Model:  DRILL MOD DESC
 SVYD.                  Survey:  SURVEY DESC
 ILTD.               Lithology:  INTERP LTH DESC
 FTOP.          Formation Tops:  FORM TOPS DESC
 SON .        AZ-XX-0906571587:  JOB NUMBER
 COMP.     BP Exploration (Caspian Sea) Ltd:  COMPANY
 UWI .                     N/A:  UNIQUE WELL IDENTIFIER
 API .                     N/A:  API NUMBER
 BASE.              Azerbaijan:  LOGGING EQUIPMENT BASE LOCATION
 REGN.                   EESSA:  REGION
 PROV.                    Baku:  PROVINCE
 STAT.                    Baku:  STATE NAME
 CTRY.              Azerbaijan:  COUNTRY NAME
 FLD .                     ACG:  FIELD NAME
 SRVC.     TURAN Drilling & Engineering:  CONTRACTOR
 WELL.                     J27:  WELL NAME
 RIG .             West Chirag:  RIG NAME
 DOE .                     N/A:  DOE NUMBER
 DCON.         Sperry Drilling:  DIRECTNL CONTR
 PDAT.          Mean Sea Level:  PERMANENT DATUM
 WTYP.                Deviated:  WELL TYPE
 MWDS.                    Baku:  MWD SHOP
 JOBN.        AZ-XX-0906571587:  JOB TICKET NUMB
 UNIT.                     N/A:  LOGGING EQUIPMENT ID
 MDS .        Operator Entered:  MAG DATA SOURCE
 CNTY.                        :  COUNTY
 LOC .                        :  LOCATION
 LMF .             Drill Floor:  LOG MEASURED FROM
 TVDS.m                  43.00:  TVDSS CORRECTN
 LATI.deg                40.13:  LATITUDE
 LONG.deg                51.22:  LONGITUDE
 WHNS.m                   7.72:  WELL HEAD N/S
 WHEW.m                 -14.24:  WELL HEAD E/W
 UTMX.m              519005.06:  UTM X
 UTMY.m             4443793.85:  UTM Y
 DFWL.m                   0.00:  DISTANCE FWL
 DFSL.m                   0.00:  DISTANCE FSL
 SDEP.m                 347.00:  START DEPTH
 TDD .m                 581.00:  TOTAL DEPTH (DRILLER)
 VSDR.deg               159.72:  VERT SEC DIRECT
 GVFD.g                   1.00:  GRAVITY FIELD
 MFLD.nT              50318.00:  MAGNETIC FIELD
 MDIP.deg                59.57:  MAGNETIC DIP
 MDEC.deg                 6.44:  MAGNETIC DECL
 GRDC.deg                 0.15:  GRID CORRECTION
 AZTC.deg                 6.29:  AZM TOTAL CORR
 EPD .m                   0.00:  ELEVATION
 EGL .m                   0.00:  GROUND ELEVATION
 WDMS.m                 169.80:  WD ELEV
 APD .m                  43.00:  DEPTH ABOVE PD
 AGAP.m                  43.00:  AIR GAP
 VSEW.m                 -14.24:  VERT SEC E/W
 VSNS.m                   7.72:  VERT SEC N/S
 DEP .m                 342.45:  DEPTH
 EKB .m                   0.00:  KB ELEVATION
 EDF .m                  43.00:  DF ELEVATION
 TDL .m                 237.00:  TOTAL DEPTH (LOGGER)
 VSC .                       0:  VS TO CLOSURE
 MAGU.                 1851428:  MAGUTM CHECKSUM
~Parameter Information Block
#MNEM.UNIT       Value        Description
#---------     -----------    ---------------------------
 AV  .mps                 1.50:  Ann Velocity 
 AVMX.mps                 2.90:  Max Ann Veloc 
 AZIF.deg               115.59:  Azm, Final 
 BHAT.        Rotary Steerable:  BHA Type 
 BROT.°/30m               0.50:  Build Rotating 
 BS  .in                  8.50:  Bit Size 
 BTPL.psig              580.00:  Bit Press Loss 
 CABU.                     Yes:  Customer Abuse 
 TCS .hr                 89.79:  Time Ciculation Ended 
 CV  .mps                 3.22:  Crit Velocity 
 CVMX.mps                 4.37:  Max Crit Veloc 
 DD1 .          Rashad Habibov:  Direct Drillr 1 
 DDSV.               Geo-Pilot:  DD Service 
 DEFF.%                  95.00:  % Det Eff 
 DLRX.°/30m               1.94:  Dogleg Rot Max 
 DLSO.°/30m               0.70:  Dogleg Oriented 
 DLSX.°/30m               1.94:  Dogleg Str Max 
 DRET.      04.45.00 25-Dec-20:  Drill End Time 
 DRST.      10.00.00 24-Dec-20:  Drill Start Tim 
 DTIM.hr                 16.64:  Time Drilling 
 EDEP.m                4999.01:  End Depth 
 ENG1.         Elchin Mammadov:  Engineer 1 
 ENG2.          Ruslan Safarov:  Engineer 2 
 ENG3.          Rustam Safarov:  Engineer 3 
 ETIM.      09.00.00 29-Dec-20:  End Time 
 FLOI.gpm               500.00:  Flow In 
 FLON.gpm               400.00:  Flow In Min 
 FLOS.cptm                0.00:  Fluid Loss 
 FLOX.gpm               500.00:  Flow In Max 
 HFLO.                      No:  High Flow 
 HPRE.                      No:  High Pressure 
 HTEM.                      No:  High Temp 
 HYDO.m                   2.00:  Hydro Offset 
 IFIN.deg                66.79:  Inc, Final 
 IMAX.deg                67.66:  Inc Max 
 IMIN.deg                66.39:  Inc Min 
 IMND.m                4949.37:  Inc Min Depth 
 IMXD.m                4778.63:  Inc Max Depth 
 JARR.                     Yes:  Jarring 
 LETM.      04.45.00 25-Dec-20:  Log End Time 
 LOST.hr                     0:  Lost Rig Time 
 LSTM.      10.00.00 24-Dec-20:  Log Start Time 
 MDCL.ppm             39000.00:  Mud Chlorides 
 MDES.     Inversion Oil/Synthetic:  Mud Desc 
 DFD .sg                  1.33:  Mud Density 
 MDMN.sg                  1.33:  Dens Mud Min 
 MDMX.sg                  1.33:  Dens Mud Max 
 MOIL.                      70:  Run Mud Oil % 
 MOWR.                   70:30:  Run Mud OWR 
 MSND.                       0:  Run Mud Sand % 
 MSOL.                    17.4:  Run Mud Solids% 
 DFV .spqt               84.00:  Mud Viscosity 
 MWOD.in                  6.75:  MWD Tool OD 
 MWSI.                     Yes:  Serv Intrp, MWD 
 OTIM.hr                168.14:  Time Operating 
 PCON.           Look Like New:  Pad Condition 
 PMAX.psia            10822.93:  Press Op, Max 
 PV  .cP                 30.00:  Mud PV 
 RUN .                     900:  Run Number 
 ROPA.m/hr               18.00:  ROP Avg 
 ROPN.m/hr               12.00:  ROP Min 
 ROPX.m/hr               25.00:  ROP Max 
 RPMA.rpm               120.00:  RPM Surface Avg 
 RPMN.rpm               100.00:  RPM Surface Min 
 RPMX.rpm               120.00:  RPM Surface Max 
 RRUN.                    0900:  Rig Run Number 
 SAZI.deg               115.08:  Azm, Start 
 SDEP.m                4762.01:  Start Depth 
 SIDD.                      No:  Serv Intrp, DD 
 SINC.deg                66.14:  Inc, Start 
 SPPA.psig             3700.00:  SPP Avg 
 SPPN.psig             3620.00:  SPP Min 
 SPPX.psig             3900.00:  SPP Max 
 STIM.      09.30.00 22-Dec-20:  Start Time 
 SVCS.                 DD, MWD:  Services 
 SVER.                    9.20:  Sperry Version 
 TDAT.m                 237.00:  Tot Depth Attmp 
 TDDF.                      No:  Trip for DD 
 TDLG.m                 237.00:  Tot Depth Loggd 
 TFF .                      No:  Trip for Fail 
 TQAA.f-kp               18.00:  Torque Abs Avg 
 TQAN.f-kp               17.00:  Torque Abs Min 
 TQAX.f-kp               20.00:  Torque Abs Max 
 TRRT.°/30m               0.60:  Turn Rotating 
 MRT .                    HCIM:  Maximum Recorded Temperature 
 TTMX.degC               94.12:  Max Tool Temp 
 VS01.                90627809:  Virtual Str1 SN 
 VS02.                90527813:  Virtual Str2 SN 
 VS03.                90545417:  Virtual Str3 SN 
 VS04.                12460870:  Virtual Str4 SN 
 VS05.                90516706:  Virtual Str5 SN 
 VS06.                90632007:  Virtual Str6 SN 
 WBMN.klb                 0.00:  WOB Min 
 WOBA.klb                14.00:  WOB Avg 
 WOBX.klb                25.00:  WOB Max 
 YP  .lhf2               32.00:  Yield Point 
~Curve Information Block
#MNEM.UNIT                 API CODE     Curve Description
#---------               -----------    ---------------------------
 TIME.HHMMSS            00 000 000 000:  GT Time & Date
 GTDEPTH.m              00 000 000 000:  GT Depth
 GTPQH.psia             00 000 000 000:  GT HR Quartz Pressure
 GTTQ.degC              00 000 000 000:  GT Quartz Temperature
 GTTN.NONE              00 000 000 000:  GT Test Number
 GTET.sec               00 000 000 000:  GT Elapsed Test Time
 GTTVD.m                00 000 000 000:  GT True Vertical Depth
#Other Information
#
#WARRANTY: Halliburton will use its best efforts to furnish customers with 
#accurate information and interpretations that are part of, and incident to, the services 
#provided.  However, Halliburton cannot and does not warrant the accuracy 
#or correctness of such information and interpretations.  Under no circumstances should any 
#such information or interpretation be relied upon as the sole basis for any drilling, 
#completion, production, or financial decision or any procedure involving any risk to the 
#safety of any drilling venture, drilling rig or its crew or any other third party.  The 
#Customer has full responsibility for all drilling, completion and production operation.  
#Halliburton makes no representations or warranties, either expressed or 
#implied, including, but not limited to, the implied warranties of merchantability or fitness 
#for a particular purpose, with respect to the services rendered.  In no event will 
#Halliburton be liable for failure to obtain any particular results or for 
#any damages, including, but not limited to, indirect, special or consequential damages, 
#resulting from the use of any information or interpretation provided by Halliburton.
#
~A           TIME           GTDEPTH  GTPQH  GTTQ  GTTN  GTET   GTTVD  
# ...
   18:50:52.119.25-Dec-2020 4831.01 1770.33 64.19 6.00 322.25 2510.98
   18:50:52.319.25-Dec-2020 4831.01 1770.33 64.19 6.00 322.45 2510.98
   18:50:52.519.25-Dec-2020 4831.01 1768.50 64.19 6.00 322.65 2510.98
   18:50:52.719.25-Dec-2020 4831.01 1763.13 64.19 6.00 322.85 2510.98
   18:50:52.919.25-Dec-2020 4831.01 1754.93 64.18 6.00 323.06 2510.98
   18:50:53.119.25-Dec-2020 4831.01 1756.65 64.18 6.00 323.26 2510.98
   18:50:53.320.25-Dec-2020 4831.01 1756.65 64.18 6.00 323.46 2510.98
   18:50:53.520.25-Dec-2020 4831.01 1748.30 64.18 6.00 323.66 2510.98
   18:50:53.720.25-Dec-2020 4831.01 1741.72 64.18 6.00 323.86 2510.98
   18:50:53.920.25-Dec-2020 4831.01 1737.26 64.18 6.00 324.06 2510.98
   18:50:54.120.25-Dec-2020 4831.01 1732.28 64.18 6.00 324.26 2510.98
   18:50:54.320.25-Dec-2020 4831.01 1727.82 64.18 6.00 324.46 2510.98
   18:50:54.521.25-Dec-2020 4831.01 1729.95 64.18 6.00 324.66 2510.98
   18:50:54.721.25-Dec-2020 4831.01 1728.94 64.17 6.00 324.86 2510.98
   18:50:54.921.25-Dec-2020 4831.01 1730.50 64.17 6.00 325.06 2510.98
   18:50:55.121.25-Dec-2020 4831.01 1730.51 64.17 6.00 325.26 2510.98
   18:50:55.321.25-Dec-2020 4831.01 1730.51 64.17 6.00 325.46 2510.98
   18:50:55.521.25-Dec-2020 4831.01 1718.82 64.17 6.00 325.66 2510.98
   18:50:55.721.25-Dec-2020 4831.01 1718.60 64.17 6.00 325.86 2510.98
   18:50:55.922.25-Dec-2020 4831.01 1714.55 64.17 6.00 326.06 2510.98
   18:50:56.122.25-Dec-2020 4831.01 1713.80 64.17 6.00 326.26 2510.98
   18:50:56.322.25-Dec-2020 4831.01 1713.80 64.17 6.00 326.46 2510.98
   18:50:56.522.25-Dec-2020 4831.01 1709.47 64.17 6.00 326.66 2510.98
   18:50:56.722.25-Dec-2020 4831.01 1709.91 64.17 6.00 326.86 2510.98
   18:50:56.922.25-Dec-2020 4831.01 1748.80 64.17 6.00 327.06 2510.98
   18:50:57.123.25-Dec-2020 4831.01 1986.88 64.17 6.00 327.26 2510.98
   18:50:57.323.25-Dec-2020 4831.01 1986.88 64.17 6.00 327.46 2510.98
   18:50:57.523.25-Dec-2020 4831.01 2446.62 64.17 6.00 327.66 2510.98
   18:50:57.723.25-Dec-2020 4831.01 2626.97 64.16 6.00 327.86 2510.98
   18:50:57.923.25-Dec-2020 4831.01 2775.28 64.16 6.00 328.06 2510.98
   18:50:58.123.25-Dec-2020 4831.01 2896.71 64.16 6.00 328.26 2510.98
   18:50:58.324.25-Dec-2020 4831.01 2996.23 64.16 6.00 328.46 2510.98
   18:50:58.524.25-Dec-2020 4831.01 3078.31 64.16 6.00 328.66 2510.98
   18:50:58.724.25-Dec-2020 4831.01 3143.89 64.16 6.00 328.86 2510.98
   18:50:58.924.25-Dec-2020 4831.01 3198.73 64.16 6.00 329.06 2510.98
   18:50:59.124.25-Dec-2020 4831.01 3242.06 64.16 6.00 329.26 2510.98
   18:50:59.324.25-Dec-2020 4831.01 3242.06 64.16 6.00 329.46 2510.98
   18:50:59.524.25-Dec-2020 4831.01 3305.35 64.17 6.00 329.66 2510.98
   18:50:59.725.25-Dec-2020 4831.01 3327.40 64.17 6.00 329.86 2510.98
   18:50:59.925.25-Dec-2020 4831.01 3345.13 64.17 6.00 330.06 2510.98
   18:51:00.125.25-Dec-2020 4831.01 3359.60 64.17 6.00 330.26 2510.98
   18:51:00.325.25-Dec-2020 4831.01 3359.60 64.17 6.00 330.46 2510.98
   18:51:00.525.25-Dec-2020 4831.01 3379.78 64.17 6.00 330.66 2510.98
   18:51:00.725.25-Dec-2020 4831.01 3386.66 64.17 6.00 330.86 2510.98
   18:51:00.926.25-Dec-2020 4831.01 3392.03 64.17 6.00 331.06 2510.98
   18:51:01.126.25-Dec-2020 4831.01 3396.22 64.17 6.00 331.26 2510.98
   18:51:01.326.25-Dec-2020 4831.01 3396.22 64.17 6.00 331.46 2510.98
   18:51:01.526.25-Dec-2020 4831.01 3402.15 64.17 6.00 331.66 2510.98
   18:51:01.726.25-Dec-2020 4831.01 3404.11 64.17 6.00 331.86 2510.98
   18:51:01.926.25-Dec-2020 4831.01 3405.76 64.18 6.00 332.06 2510.98
   18:51:02.127.25-Dec-2020 4831.01 3406.99 64.18 6.00 332.26 2510.98
   18:51:02.327.25-Dec-2020 4831.01 3406.99 64.18 6.00 332.46 2510.98
   18:51:02.527.25-Dec-2020 4831.01 3409.79 64.18 6.00 332.66 2510.98
   18:51:02.727.25-Dec-2020 4831.01 3410.18 64.18 6.00 332.86 2510.98
   18:51:02.927.25-Dec-2020 4831.01 3410.67 64.18 6.00 333.06 2510.98
   18:51:03.127.25-Dec-2020 4831.01 3410.93 64.18 6.00 333.26 2510.98
   18:51:03.327.25-Dec-2020 4831.01 3410.93 64.18 6.00 333.46 2510.98
   18:51:03.528.25-Dec-2020 4831.01 3411.42 64.18 6.00 333.66 2510.98
   18:51:03.728.25-Dec-2020 4831.01 3411.65 64.19 6.00 333.86 2510.98
   18:51:03.928.25-Dec-2020 4831.01 3411.87 64.19 6.00 334.06 2510.98
   18:51:04.128.25-Dec-2020 4831.01 3412.03 64.19 6.00 334.26 2510.98
   18:51:04.328.25-Dec-2020 4831.01 3412.03 64.19 6.00 334.46 2510.98
   18:51:04.528.25-Dec-2020 4831.01 3412.32 64.19 6.00 334.66 2510.98
   18:51:04.729.25-Dec-2020 4831.01 3412.04 64.19 6.00 334.86 2510.98
   18:51:04.929.25-Dec-2020 4831.01 3412.58 64.19 6.00 335.06 2510.98
   18:51:05.129.25-Dec-2020 4831.01 3414.71 64.19 6.00 335.26 2510.98
   18:51:05.329.25-Dec-2020 4831.01 3414.71 64.19 6.00 335.46 2510.98
   18:51:05.529.25-Dec-2020 4831.01 3414.92 64.19 6.00 335.67 2510.98
   18:51:05.729.25-Dec-2020 4831.01 3413.70 64.19 6.00 335.87 2510.98
   18:51:05.930.25-Dec-2020 4831.01 3415.16 64.20 6.00 336.07 2510.98
   18:51:06.130.25-Dec-2020 4831.01 3415.30 64.20 6.00 336.27 2510.98
   18:51:06.330.25-Dec-2020 4831.01 3415.30 64.20 6.00 336.47 2510.98
   18:51:06.530.25-Dec-2020 4831.01 3415.37 64.20 6.00 336.67 2510.98
   18:51:06.730.25-Dec-2020 4831.01 3415.27 64.20 6.00 336.87 2510.98
   18:51:06.930.25-Dec-2020 4831.01 3415.50 64.20 6.00 337.07 2510.98
   18:51:07.131.25-Dec-2020 4831.01 3415.48 64.20 6.00 337.27 2510.98
   18:51:07.331.25-Dec-2020 4831.01 3415.48 64.20 6.00 337.47 2510.98
   18:51:07.531.25-Dec-2020 4831.01 3415.64 64.20 6.00 337.67 2510.98
   18:51:07.731.25-Dec-2020 4831.01 3415.67 64.20 6.00 337.87 2510.98
   18:51:07.931.25-Dec-2020 4831.01 3415.61 64.20 6.00 338.07 2510.98
   18:51:08.131.25-Dec-2020 4831.01 3415.47 64.20 6.00 338.27 2510.98
   18:51:08.331.25-Dec-2020 4831.01 3415.47 64.20 6.00 338.47 2510.98
   18:51:08.532.25-Dec-2020 4831.01 3415.48 64.20 6.00 338.67 2510.98
   18:51:08.732.25-Dec-2020 4831.01 3415.38 64.20 6.00 338.87 2510.98
   18:51:08.932.25-Dec-2020 4831.01 3415.42 64.20 6.00 339.07 2510.98
   18:51:09.132.25-Dec-2020 4831.01 3415.38 64.20 6.00 339.27 2510.98
   18:51:09.332.25-Dec-2020 4831.01 3415.38 64.20 6.00 339.47 2510.98
   18:51:09.532.25-Dec-2020 4831.01 3415.37 64.21 6.00 339.67 2510.98
   18:51:09.733.25-Dec-2020 4831.01 3415.32 64.21 6.00 339.87 2510.98
   18:51:09.933.25-Dec-2020 4831.01 3415.53 64.21 6.00 340.07 2510.98
   18:51:10.133.25-Dec-2020 4831.01 3415.65 64.21 6.00 340.27 2510.98
   18:51:10.333.25-Dec-2020 4831.01 3415.65 64.21 6.00 340.47 2510.98
   18:51:10.533.25-Dec-2020 4831.01 3415.76 64.21 6.00 340.67 2510.98
   18:51:10.733.25-Dec-2020 4831.01 3415.57 64.21 6.00 340.87 2510.98
   18:51:10.934.25-Dec-2020 4831.01 3415.60 64.21 6.00 341.07 2510.98
   18:51:11.134.25-Dec-2020 4831.01 3415.59 64.21 6.00 341.27 2510.98
   18:51:11.334.25-Dec-2020 4831.01 3415.59 64.21 6.00 341.47 2510.98
   18:51:11.534.25-Dec-2020 4831.01 3415.54 64.21 6.00 341.67 2510.98
   18:51:11.734.25-Dec-2020 4831.01 3415.50 64.21 6.00 341.87 2510.98
   18:51:11.934.25-Dec-2020 4831.01 3415.49 64.21 6.00 342.07 2510.98
   18:51:12.134.25-Dec-2020 4831.01 3415.47 64.21 6.00 342.27 2510.98
   18:51:12.335.25-Dec-2020 4831.01 3415.47 64.21 6.00 342.47 2510.98
   18:51:12.535.25-Dec-2020 4831.01 3415.71 64.21 6.00 342.67 2510.98
   18:51:12.735.25-Dec-2020 4831.01 3415.62 64.21 6.00 342.87 2510.98
   18:51:12.935.25-Dec-2020 4831.01 3415.47 64.21 6.00 343.07 2510.98
   18:51:13.135.25-Dec-2020 4831.01 3416.14 64.21 6.00 343.27 2510.98
   18:51:13.335.25-Dec-2020 4831.01 3416.14 64.21 6.00 343.47 2510.98
   18:51:13.536.25-Dec-2020 4831.01 3415.81 64.21 6.00 343.67 2510.98
   18:51:13.736.25-Dec-2020 4831.01 3415.75 64.21 6.00 343.87 2510.98
   18:51:13.936.25-Dec-2020 4831.01 3415.81 64.21 6.00 344.07 2510.98
   18:51:14.136.25-Dec-2020 4831.01 3415.60 64.21 6.00 344.27 2510.98
   18:51:14.336.25-Dec-2020 4831.01 3415.85 64.21 6.00 344.47 2510.98
   18:51:14.536.25-Dec-2020 4831.01 3415.96 64.21 6.00 344.67 2510.98
   18:51:14.737.25-Dec-2020 4831.01 3415.80 64.21 6.00 344.87 2510.98
   18:51:14.937.25-Dec-2020 4831.01 3415.83 64.21 6.00 345.07 2510.98
