~Version Information
 VERS.                  2.0:   CWLS log ASCII Standard -VERSION 2.0
 WRAP.                   NO:   One line per depth step
~Well Information Block
#MNEM.UNIT     VALUE/NAME     DESCRIPTION
#---------     -----------    ---------------------------
 STRT.S             15:24:16 25-Dec-20: START TIME 15:24:16 25-Dec-20
 STOP.S             15:32:36 25-Dec-20: STOP TIME  15:32:36 25-Dec-20
 STEP.S                   0.00: STEP TIME
 NULL.                 -999.25: NULL VALUE
 DFWT.                        :  DIST FWL TEXT
 DFST.                        :  DIST FSL TEXT
 DMF .             Drill Floor:  DRILL MEAS FROM
 STIM.      04.54.24 22-Sep-20:  START TIME
 DATE.      04.54.24 21-Nov-20:  END TIME
 SPUD.               21-Nov-20:  SPUD DATE
 NREF.                    Grid:  NORTH REFERENCE
 HPTY.       Minimum Curvature:  HOLE POS TYPE
 DMOD.             Drill Model:  DRILL MOD DESC
 SVYD.                  Survey:  SURVEY DESC
 ILTD.               Lithology:  INTERP LTH DESC
 FTOP.          Formation Tops:  FORM TOPS DESC
 SON .        AZ-XX-0906571587:  JOB NUMBER
 COMP.     BP Exploration (Caspian Sea) Ltd:  COMPANY
 UWI .                     N/A:  UNIQUE WELL IDENTIFIER
 API .                     N/A:  API NUMBER
 BASE.              Azerbaijan:  LOGGING EQUIPMENT BASE LOCATION
 REGN.                   EESSA:  REGION
 PROV.                    Baku:  PROVINCE
 STAT.                    Baku:  STATE NAME
 CTRY.              Azerbaijan:  COUNTRY NAME
 FLD .                     ACG:  FIELD NAME
 SRVC.     TURAN Drilling & Engineering:  CONTRACTOR
 WELL.                     J27:  WELL NAME
 RIG .             West Chirag:  RIG NAME
 DOE .                     N/A:  DOE NUMBER
 DCON.         Sperry Drilling:  DIRECTNL CONTR
 PDAT.          Mean Sea Level:  PERMANENT DATUM
 WTYP.                Deviated:  WELL TYPE
 MWDS.                    Baku:  MWD SHOP
 JOBN.        AZ-XX-0906571587:  JOB TICKET NUMB
 UNIT.                     N/A:  LOGGING EQUIPMENT ID
 MDS .        Operator Entered:  MAG DATA SOURCE
 CNTY.                        :  COUNTY
 LOC .                        :  LOCATION
 LMF .             Drill Floor:  LOG MEASURED FROM
 TVDS.m                  43.00:  TVDSS CORRECTN
 LATI.deg                40.13:  LATITUDE
 LONG.deg                51.22:  LONGITUDE
 WHNS.m                   7.72:  WELL HEAD N/S
 WHEW.m                 -14.24:  WELL HEAD E/W
 UTMX.m              519005.06:  UTM X
 UTMY.m             4443793.85:  UTM Y
 DFWL.m                   0.00:  DISTANCE FWL
 DFSL.m                   0.00:  DISTANCE FSL
 SDEP.m                 347.00:  START DEPTH
 TDD .m                 581.00:  TOTAL DEPTH (DRILLER)
 VSDR.deg               159.72:  VERT SEC DIRECT
 GVFD.g                   1.00:  GRAVITY FIELD
 MFLD.nT              50318.00:  MAGNETIC FIELD
 MDIP.deg                59.57:  MAGNETIC DIP
 MDEC.deg                 6.44:  MAGNETIC DECL
 GRDC.deg                 0.15:  GRID CORRECTION
 AZTC.deg                 6.29:  AZM TOTAL CORR
 EPD .m                   0.00:  ELEVATION
 EGL .m                   0.00:  GROUND ELEVATION
 WDMS.m                 169.80:  WD ELEV
 APD .m                  43.00:  DEPTH ABOVE PD
 AGAP.m                  43.00:  AIR GAP
 VSEW.m                 -14.24:  VERT SEC E/W
 VSNS.m                   7.72:  VERT SEC N/S
 DEP .m                 342.45:  DEPTH
 EKB .m                   0.00:  KB ELEVATION
 EDF .m                  43.00:  DF ELEVATION
 TDL .m                 237.00:  TOTAL DEPTH (LOGGER)
 VSC .                       0:  VS TO CLOSURE
 MAGU.                 1851428:  MAGUTM CHECKSUM
~Parameter Information Block
#MNEM.UNIT       Value        Description
#---------     -----------    ---------------------------
 AV  .mps                 1.50:  Ann Velocity 
 AVMX.mps                 2.90:  Max Ann Veloc 
 AZIF.deg               115.59:  Azm, Final 
 BHAT.        Rotary Steerable:  BHA Type 
 BROT.°/30m               0.50:  Build Rotating 
 BS  .in                  8.50:  Bit Size 
 BTPL.psig              580.00:  Bit Press Loss 
 CABU.                     Yes:  Customer Abuse 
 TCS .hr                 89.79:  Time Ciculation Ended 
 CV  .mps                 3.22:  Crit Velocity 
 CVMX.mps                 4.37:  Max Crit Veloc 
 DD1 .          Rashad Habibov:  Direct Drillr 1 
 DDSV.               Geo-Pilot:  DD Service 
 DEFF.%                  95.00:  % Det Eff 
 DLRX.°/30m               1.94:  Dogleg Rot Max 
 DLSO.°/30m               0.70:  Dogleg Oriented 
 DLSX.°/30m               1.94:  Dogleg Str Max 
 DRET.      04.45.00 25-Dec-20:  Drill End Time 
 DRST.      10.00.00 24-Dec-20:  Drill Start Tim 
 DTIM.hr                 16.64:  Time Drilling 
 EDEP.m                4999.01:  End Depth 
 ENG1.         Elchin Mammadov:  Engineer 1 
 ENG2.          Ruslan Safarov:  Engineer 2 
 ENG3.          Rustam Safarov:  Engineer 3 
 ETIM.      09.00.00 29-Dec-20:  End Time 
 FLOI.gpm               500.00:  Flow In 
 FLON.gpm               400.00:  Flow In Min 
 FLOS.cptm                0.00:  Fluid Loss 
 FLOX.gpm               500.00:  Flow In Max 
 HFLO.                      No:  High Flow 
 HPRE.                      No:  High Pressure 
 HTEM.                      No:  High Temp 
 HYDO.m                   2.00:  Hydro Offset 
 IFIN.deg                66.79:  Inc, Final 
 IMAX.deg                67.66:  Inc Max 
 IMIN.deg                66.39:  Inc Min 
 IMND.m                4949.37:  Inc Min Depth 
 IMXD.m                4778.63:  Inc Max Depth 
 JARR.                     Yes:  Jarring 
 LETM.      04.45.00 25-Dec-20:  Log End Time 
 LOST.hr                     0:  Lost Rig Time 
 LSTM.      10.00.00 24-Dec-20:  Log Start Time 
 MDCL.ppm             39000.00:  Mud Chlorides 
 MDES.     Inversion Oil/Synthetic:  Mud Desc 
 DFD .sg                  1.33:  Mud Density 
 MDMN.sg                  1.33:  Dens Mud Min 
 MDMX.sg                  1.33:  Dens Mud Max 
 MOIL.                      70:  Run Mud Oil % 
 MOWR.                   70:30:  Run Mud OWR 
 MSND.                       0:  Run Mud Sand % 
 MSOL.                    17.4:  Run Mud Solids% 
 DFV .spqt               84.00:  Mud Viscosity 
 MWOD.in                  6.75:  MWD Tool OD 
 MWSI.                     Yes:  Serv Intrp, MWD 
 OTIM.hr                168.14:  Time Operating 
 PCON.           Look Like New:  Pad Condition 
 PMAX.psia            10822.93:  Press Op, Max 
 PV  .cP                 30.00:  Mud PV 
 RUN .                     900:  Run Number 
 ROPA.m/hr               18.00:  ROP Avg 
 ROPN.m/hr               12.00:  ROP Min 
 ROPX.m/hr               25.00:  ROP Max 
 RPMA.rpm               120.00:  RPM Surface Avg 
 RPMN.rpm               100.00:  RPM Surface Min 
 RPMX.rpm               120.00:  RPM Surface Max 
 RRUN.                    0900:  Rig Run Number 
 SAZI.deg               115.08:  Azm, Start 
 SDEP.m                4762.01:  Start Depth 
 SIDD.                      No:  Serv Intrp, DD 
 SINC.deg                66.14:  Inc, Start 
 SPPA.psig             3700.00:  SPP Avg 
 SPPN.psig             3620.00:  SPP Min 
 SPPX.psig             3900.00:  SPP Max 
 STIM.      09.30.00 22-Dec-20:  Start Time 
 SVCS.                 DD, MWD:  Services 
 SVER.                    9.20:  Sperry Version 
 TDAT.m                 237.00:  Tot Depth Attmp 
 TDDF.                      No:  Trip for DD 
 TDLG.m                 237.00:  Tot Depth Loggd 
 TFF .                      No:  Trip for Fail 
 TQAA.f-kp               18.00:  Torque Abs Avg 
 TQAN.f-kp               17.00:  Torque Abs Min 
 TQAX.f-kp               20.00:  Torque Abs Max 
 TRRT.°/30m               0.60:  Turn Rotating 
 MRT .                    HCIM:  Maximum Recorded Temperature 
 TTMX.degC               94.12:  Max Tool Temp 
 VS01.                90627809:  Virtual Str1 SN 
 VS02.                90527813:  Virtual Str2 SN 
 VS03.                90545417:  Virtual Str3 SN 
 VS04.                12460870:  Virtual Str4 SN 
 VS05.                90516706:  Virtual Str5 SN 
 VS06.                90632007:  Virtual Str6 SN 
 WBMN.klb                 0.00:  WOB Min 
 WOBA.klb                14.00:  WOB Avg 
 WOBX.klb                25.00:  WOB Max 
 YP  .lhf2               32.00:  Yield Point 
~Curve Information Block
#MNEM.UNIT                 API CODE     Curve Description
#---------               -----------    ---------------------------
 TIME.HHMMSS            00 000 000 000:  GT Time & Date
 GTDEPTH.m              00 000 000 000:  GT Depth
 GTPQH.psia             00 000 000 000:  GT HR Quartz Pressure
 GTTQ.degC              00 000 000 000:  GT Quartz Temperature
 GTTN.NONE              00 000 000 000:  GT Test Number
 GTET.sec               00 000 000 000:  GT Elapsed Test Time
 GTTVD.m                00 000 000 000:  GT True Vertical Depth
#Other Information
#
#WARRANTY: Halliburton will use its best efforts to furnish customers with 
#accurate information and interpretations that are part of, and incident to, the services 
#provided.  However, Halliburton cannot and does not warrant the accuracy 
#or correctness of such information and interpretations.  Under no circumstances should any 
#such information or interpretation be relied upon as the sole basis for any drilling, 
#completion, production, or financial decision or any procedure involving any risk to the 
#safety of any drilling venture, drilling rig or its crew or any other third party.  The 
#Customer has full responsibility for all drilling, completion and production operation.  
#Halliburton makes no representations or warranties, either expressed or 
#implied, including, but not limited to, the implied warranties of merchantability or fitness 
#for a particular purpose, with respect to the services rendered.  In no event will 
#Halliburton be liable for failure to obtain any particular results or for 
#any damages, including, but not limited to, indirect, special or consequential damages, 
#resulting from the use of any information or interpretation provided by Halliburton.
#
~A           TIME           GTDEPTH  GTPQH  GTTQ  GTTN  GTET   GTTVD  
# ...
   15:29:15.832.25-Dec-2020 4892.01 2718.28 65.34 4.00 299.08 2535.10
   15:29:16.032.25-Dec-2020 4892.01 2718.32 65.34 4.00 299.28 2535.10
   15:29:16.232.25-Dec-2020 4892.01 2718.31 65.34 4.00 299.48 2535.10
   15:29:16.432.25-Dec-2020 4892.01 2718.32 65.34 4.00 299.68 2535.10
   15:29:16.632.25-Dec-2020 4892.01 2718.32 65.34 4.00 299.88 2535.10
   15:29:16.833.25-Dec-2020 4892.01 2718.31 65.34 4.00 300.08 2535.10
   15:29:17.033.25-Dec-2020 4892.01 2718.31 65.34 4.00 300.28 2535.10
   15:29:17.233.25-Dec-2020 4892.01 2718.45 65.34 4.00 300.48 2535.10
   15:29:17.433.25-Dec-2020 4892.01 2718.19 65.34 4.00 300.68 2535.10
   15:29:17.633.25-Dec-2020 4892.01 2718.42 65.34 4.00 300.88 2535.10
   15:29:17.833.25-Dec-2020 4892.01 2718.33 65.34 4.00 301.08 2535.10
   15:29:18.033.25-Dec-2020 4892.01 2718.33 65.34 4.00 301.28 2535.10
   15:29:18.233.25-Dec-2020 4892.01 2718.36 65.34 4.00 301.48 2535.10
   15:29:18.433.25-Dec-2020 4892.01 2718.31 65.34 4.00 301.68 2535.10
   15:29:18.633.25-Dec-2020 4892.01 2718.33 65.34 4.00 301.88 2535.10
   15:29:18.833.25-Dec-2020 4892.01 2718.34 65.34 4.00 302.08 2535.10
   15:29:19.033.25-Dec-2020 4892.01 2718.34 65.34 4.00 302.28 2535.10
   15:29:19.233.25-Dec-2020 4892.01 2718.32 65.34 4.00 302.48 2535.10
   15:29:19.433.25-Dec-2020 4892.01 2718.31 65.34 4.00 302.68 2535.10
   15:29:19.633.25-Dec-2020 4892.01 2718.57 65.34 4.00 302.88 2535.10
   15:29:19.833.25-Dec-2020 4892.01 2718.19 65.34 4.00 303.08 2535.10
   15:29:20.033.25-Dec-2020 4892.01 2718.19 65.34 4.00 303.28 2535.10
   15:29:20.233.25-Dec-2020 4892.01 2718.27 65.34 4.00 303.48 2535.10
   15:29:20.434.25-Dec-2020 4892.01 2718.27 65.34 4.00 303.68 2535.10
   15:29:20.634.25-Dec-2020 4892.01 2718.45 65.34 4.00 303.88 2535.10
   15:29:20.834.25-Dec-2020 4892.01 2718.15 65.34 4.00 304.08 2535.10
   15:29:21.034.25-Dec-2020 4892.01 2718.15 65.34 4.00 304.28 2535.10
   15:29:21.234.25-Dec-2020 4892.01 2718.33 65.34 4.00 304.48 2535.10
   15:29:21.434.25-Dec-2020 4892.01 2718.21 65.34 4.00 304.68 2535.10
   15:29:21.634.25-Dec-2020 4892.01 2718.34 65.34 4.00 304.88 2535.10
   15:29:21.834.25-Dec-2020 4892.01 2718.31 65.34 4.00 305.08 2535.10
   15:29:22.034.25-Dec-2020 4892.01 2718.31 65.34 4.00 305.28 2535.10
   15:29:22.234.25-Dec-2020 4892.01 2718.37 65.34 4.00 305.48 2535.10
   15:29:22.434.25-Dec-2020 4892.01 2718.19 65.34 4.00 305.68 2535.10
   15:29:22.634.25-Dec-2020 4892.01 2718.44 65.34 4.00 305.88 2535.10
   15:29:22.834.25-Dec-2020 4892.01 2718.30 65.34 4.00 306.08 2535.10
   15:29:23.034.25-Dec-2020 4892.01 2718.30 65.34 4.00 306.28 2535.10
   15:29:23.234.25-Dec-2020 4892.01 2718.34 65.34 4.00 306.48 2535.10
   15:29:23.434.25-Dec-2020 4892.01 2718.28 65.34 4.00 306.68 2535.10
   15:29:23.634.25-Dec-2020 4892.01 2718.31 65.34 4.00 306.88 2535.10
   15:29:23.834.25-Dec-2020 4892.01 2718.33 65.34 4.00 307.08 2535.10
   15:29:24.034.25-Dec-2020 4892.01 2718.31 65.34 4.00 307.28 2535.10
   15:29:24.235.25-Dec-2020 4892.01 2718.31 65.34 4.00 307.48 2535.10
   15:29:24.435.25-Dec-2020 4892.01 2718.31 65.34 4.00 307.68 2535.10
   15:29:24.635.25-Dec-2020 4892.01 2718.31 65.34 4.00 307.88 2535.10
   15:29:24.835.25-Dec-2020 4892.01 2718.30 65.34 4.00 308.08 2535.10
   15:29:25.035.25-Dec-2020 4892.01 2718.30 65.34 4.00 308.28 2535.10
   15:29:25.235.25-Dec-2020 4892.01 2718.37 65.34 4.00 308.48 2535.10
   15:29:25.435.25-Dec-2020 4892.01 2718.42 65.34 4.00 308.68 2535.10
   15:29:25.635.25-Dec-2020 4892.01 2718.25 65.34 4.00 308.88 2535.10
   15:29:25.835.25-Dec-2020 4892.01 2718.34 65.34 4.00 309.08 2535.10
   15:29:26.035.25-Dec-2020 4892.01 2718.34 65.34 4.00 309.28 2535.10
   15:29:26.235.25-Dec-2020 4892.01 2718.32 65.34 4.00 309.48 2535.10
   15:29:26.435.25-Dec-2020 4892.01 2718.34 65.34 4.00 309.68 2535.10
   15:29:26.635.25-Dec-2020 4892.01 2718.32 65.34 4.00 309.88 2535.10
   15:29:26.835.25-Dec-2020 4892.01 2718.31 65.33 4.00 310.08 2535.10
   15:29:27.035.25-Dec-2020 4892.01 2718.31 65.33 4.00 310.28 2535.10
   15:29:27.235.25-Dec-2020 4892.01 2718.44 65.33 4.00 310.48 2535.10
   15:29:27.435.25-Dec-2020 4892.01 2718.18 65.33 4.00 310.68 2535.10
   15:29:27.635.25-Dec-2020 4892.01 2718.42 65.33 4.00 310.88 2535.10
   15:29:27.836.25-Dec-2020 4892.01 2718.32 65.33 4.00 311.08 2535.10
   15:29:28.036.25-Dec-2020 4892.01 2718.25 65.33 4.00 311.28 2535.10
   15:29:28.236.25-Dec-2020 4892.01 2718.32 65.33 4.00 311.48 2535.10
   15:29:28.436.25-Dec-2020 4892.01 2718.27 65.33 4.00 311.68 2535.10
   15:29:28.636.25-Dec-2020 4892.01 2718.37 65.33 4.00 311.88 2535.10
   15:29:28.836.25-Dec-2020 4892.01 2718.31 65.33 4.00 312.08 2535.10
   15:29:29.036.25-Dec-2020 4892.01 2718.31 65.33 4.00 312.28 2535.10
   15:29:29.236.25-Dec-2020 4892.01 2718.43 65.33 4.00 312.48 2535.10
   15:29:29.436.25-Dec-2020 4892.01 2718.15 65.33 4.00 312.68 2535.10
   15:29:29.636.25-Dec-2020 4892.01 2718.42 65.33 4.00 312.88 2535.10
   15:29:29.836.25-Dec-2020 4892.01 2718.27 65.33 4.00 313.08 2535.10
   15:29:30.036.25-Dec-2020 4892.01 2718.27 65.33 4.00 313.28 2535.10
   15:29:30.236.25-Dec-2020 4892.01 2718.37 65.33 4.00 313.48 2535.10
   15:29:30.436.25-Dec-2020 4892.01 2718.38 65.33 4.00 313.68 2535.10
   15:29:30.636.25-Dec-2020 4892.01 2718.23 65.33 4.00 313.88 2535.10
   15:29:30.836.25-Dec-2020 4892.01 2718.32 65.33 4.00 314.08 2535.10
   15:29:31.036.25-Dec-2020 4892.01 2718.32 65.33 4.00 314.28 2535.10
   15:29:31.236.25-Dec-2020 4892.01 2718.29 65.33 4.00 314.48 2535.10
   15:29:31.436.25-Dec-2020 4892.01 2718.32 65.33 4.00 314.68 2535.10
   15:29:31.637.25-Dec-2020 4892.01 2718.31 65.33 4.00 314.88 2535.10
   15:29:31.837.25-Dec-2020 4892.01 2718.30 65.33 4.00 315.09 2535.10
   15:29:32.037.25-Dec-2020 4892.01 2718.31 65.33 4.00 315.29 2535.10
   15:29:32.237.25-Dec-2020 4892.01 2718.19 65.33 4.00 315.49 2535.10
   15:29:32.437.25-Dec-2020 4892.01 2718.49 65.33 4.00 315.69 2535.10
   15:29:32.637.25-Dec-2020 4892.01 2718.42 65.33 4.00 315.89 2535.10
   15:29:32.837.25-Dec-2020 4892.01 2718.15 65.33 4.00 316.09 2535.10
   15:29:33.037.25-Dec-2020 4892.01 2718.15 65.33 4.00 316.29 2535.10
   15:29:33.237.25-Dec-2020 4892.01 2718.29 65.33 4.00 316.49 2535.10
   15:29:33.437.25-Dec-2020 4892.01 2718.26 65.33 4.00 316.69 2535.10
   15:29:33.637.25-Dec-2020 4892.01 2718.34 65.33 4.00 316.89 2535.10
   15:29:33.837.25-Dec-2020 4892.01 2718.32 65.33 4.00 317.09 2535.10
   15:29:34.037.25-Dec-2020 4892.01 2718.31 65.33 4.00 317.29 2535.10
   15:29:34.237.25-Dec-2020 4892.01 2676.77 65.33 4.00 317.49 2535.10
   15:29:34.437.25-Dec-2020 4892.01 2642.08 65.33 4.00 317.69 2535.10
   15:29:34.637.25-Dec-2020 4892.01 2631.11 65.33 4.00 317.89 2535.10
   15:29:34.837.25-Dec-2020 4892.01 2629.41 65.33 4.00 318.09 2535.10
   15:29:35.037.25-Dec-2020 4892.01 2629.41 65.33 4.00 318.29 2535.10
   15:29:35.238.25-Dec-2020 4892.01 2625.76 65.33 4.00 318.49 2535.10
   15:29:35.438.25-Dec-2020 4892.01 2626.68 65.33 4.00 318.69 2535.10
   15:29:35.638.25-Dec-2020 4892.01 2625.64 65.33 4.00 318.89 2535.10
   15:29:35.838.25-Dec-2020 4892.01 2625.82 65.33 4.00 319.09 2535.10
   15:29:36.038.25-Dec-2020 4892.01 2625.82 65.33 4.00 319.29 2535.10
   15:29:36.238.25-Dec-2020 4892.01 2618.67 65.33 4.00 319.49 2535.10
   15:29:36.438.25-Dec-2020 4892.01 2625.10 65.33 4.00 319.69 2535.10
   15:29:36.638.25-Dec-2020 4892.01 2618.00 65.33 4.00 319.89 2535.10
   15:29:36.838.25-Dec-2020 4892.01 2617.04 65.33 4.00 320.09 2535.10
   15:29:37.038.25-Dec-2020 4892.01 2617.04 65.33 4.00 320.29 2535.10
   15:29:37.238.25-Dec-2020 4892.01 2615.36 65.33 4.00 320.49 2535.10
   15:29:37.438.25-Dec-2020 4892.01 2615.41 65.33 4.00 320.69 2535.10
   15:29:37.638.25-Dec-2020 4892.01 2613.53 65.33 4.00 320.89 2535.10
   15:29:37.838.25-Dec-2020 4892.01 2611.64 65.33 4.00 321.09 2535.10
   15:29:38.038.25-Dec-2020 4892.01 2611.64 65.33 4.00 321.29 2535.10
   15:29:38.238.25-Dec-2020 4892.01 2608.13 65.33 4.00 321.49 2535.10
   15:29:38.438.25-Dec-2020 4892.01 2607.94 65.33 4.00 321.69 2535.10
   15:29:38.638.25-Dec-2020 4892.01 2603.63 65.33 4.00 321.89 2535.10
