~Version Information
 VERS.                  2.0:   CWLS log ASCII Standard -VERSION 2.0
 WRAP.                   NO:   One line per depth step
~Well Information Block
#MNEM.UNIT     VALUE/NAME     DESCRIPTION
#---------     -----------    ---------------------------
 STRT.S             20:22:11 25-Dec-20: START TIME 20:22:11 25-Dec-20
 STOP.S             20:30:35 25-Dec-20: STOP TIME  20:30:35 25-Dec-20
 STEP.S                   0.00: STEP TIME
 NULL.                 -999.25: NULL VALUE
 DFWT.                        :  DIST FWL TEXT
 DFST.                        :  DIST FSL TEXT
 DMF .             Drill Floor:  DRILL MEAS FROM
 STIM.      04.54.24 22-Sep-20:  START TIME
 DATE.      04.54.24 21-Nov-20:  END TIME
 SPUD.               21-Nov-20:  SPUD DATE
 NREF.                    Grid:  NORTH REFERENCE
 HPTY.       Minimum Curvature:  HOLE POS TYPE
 DMOD.             Drill Model:  DRILL MOD DESC
 SVYD.                  Survey:  SURVEY DESC
 ILTD.               Lithology:  INTERP LTH DESC
 FTOP.          Formation Tops:  FORM TOPS DESC
 SON .        AZ-XX-0906571587:  JOB NUMBER
 COMP.     BP Exploration (Caspian Sea) Ltd:  COMPANY
 UWI .                     N/A:  UNIQUE WELL IDENTIFIER
 API .                     N/A:  API NUMBER
 BASE.              Azerbaijan:  LOGGING EQUIPMENT BASE LOCATION
 REGN.                   EESSA:  REGION
 PROV.                    Baku:  PROVINCE
 STAT.                    Baku:  STATE NAME
 CTRY.              Azerbaijan:  COUNTRY NAME
 FLD .                     ACG:  FIELD NAME
 SRVC.     TURAN Drilling & Engineering:  CONTRACTOR
 WELL.                     J27:  WELL NAME
 RIG .             West Chirag:  RIG NAME
 DOE .                     N/A:  DOE NUMBER
 DCON.         Sperry Drilling:  DIRECTNL CONTR
 PDAT.          Mean Sea Level:  PERMANENT DATUM
 WTYP.                Deviated:  WELL TYPE
 MWDS.                    Baku:  MWD SHOP
 JOBN.        AZ-XX-0906571587:  JOB TICKET NUMB
 UNIT.                     N/A:  LOGGING EQUIPMENT ID
 MDS .        Operator Entered:  MAG DATA SOURCE
 CNTY.                        :  COUNTY
 LOC .                        :  LOCATION
 LMF .             Drill Floor:  LOG MEASURED FROM
 TVDS.m                  43.00:  TVDSS CORRECTN
 LATI.deg                40.13:  LATITUDE
 LONG.deg                51.22:  LONGITUDE
 WHNS.m                   7.72:  WELL HEAD N/S
 WHEW.m                 -14.24:  WELL HEAD E/W
 UTMX.m              519005.06:  UTM X
 UTMY.m             4443793.85:  UTM Y
 DFWL.m                   0.00:  DISTANCE FWL
 DFSL.m                   0.00:  DISTANCE FSL
 SDEP.m                 347.00:  START DEPTH
 TDD .m                 581.00:  TOTAL DEPTH (DRILLER)
 VSDR.deg               159.72:  VERT SEC DIRECT
 GVFD.g                   1.00:  GRAVITY FIELD
 MFLD.nT              50318.00:  MAGNETIC FIELD
 MDIP.deg                59.57:  MAGNETIC DIP
 MDEC.deg                 6.44:  MAGNETIC DECL
 GRDC.deg                 0.15:  GRID CORRECTION
 AZTC.deg                 6.29:  AZM TOTAL CORR
 EPD .m                   0.00:  ELEVATION
 EGL .m                   0.00:  GROUND ELEVATION
 WDMS.m                 169.80:  WD ELEV
 APD .m                  43.00:  DEPTH ABOVE PD
 AGAP.m                  43.00:  AIR GAP
 VSEW.m                 -14.24:  VERT SEC E/W
 VSNS.m                   7.72:  VERT SEC N/S
 DEP .m                 342.45:  DEPTH
 EKB .m                   0.00:  KB ELEVATION
 EDF .m                  43.00:  DF ELEVATION
 TDL .m                 237.00:  TOTAL DEPTH (LOGGER)
 VSC .                       0:  VS TO CLOSURE
 MAGU.                 1851428:  MAGUTM CHECKSUM
~Parameter Information Block
#MNEM.UNIT       Value        Description
#---------     -----------    ---------------------------
 AV  .mps                 1.50:  Ann Velocity 
 AVMX.mps                 2.90:  Max Ann Veloc 
 AZIF.deg               115.59:  Azm, Final 
 BHAT.        Rotary Steerable:  BHA Type 
 BROT.°/30m               0.50:  Build Rotating 
 BS  .in                  8.50:  Bit Size 
 BTPL.psig              580.00:  Bit Press Loss 
 CABU.                     Yes:  Customer Abuse 
 COMM.                     ”Cf:  Run Comments 1 
 TCS .hr                 89.79:  Time Ciculation Ended 
 CV  .mps                 3.22:  Crit Velocity 
 CVMX.mps                 4.37:  Max Crit Veloc 
 DD1 .          Rashad Habibov:  Direct Drillr 1 
 DDSV.               Geo-Pilot:  DD Service 
 DEFF.%                  95.00:  % Det Eff 
 DLRX.°/30m               1.94:  Dogleg Rot Max 
 DLSO.°/30m               0.70:  Dogleg Oriented 
 DLSX.°/30m               1.94:  Dogleg Str Max 
 DRET.      04.45.00 25-Dec-20:  Drill End Time 
 DRST.      10.00.00 24-Dec-20:  Drill Start Tim 
 DTIM.hr                 16.64:  Time Drilling 
 EDEP.m                4999.01:  End Depth 
 ENG1.         Elchin Mammadov:  Engineer 1 
 ENG2.          Ruslan Safarov:  Engineer 2 
 ENG3.          Rustam Safarov:  Engineer 3 
 ETIM.      09.00.00 29-Dec-20:  End Time 
 FLOI.gpm               500.00:  Flow In 
 FLON.gpm               400.00:  Flow In Min 
 FLOS.cptm                0.00:  Fluid Loss 
 FLOX.gpm               500.00:  Flow In Max 
 HFLO.                      No:  High Flow 
 HPRE.                      No:  High Pressure 
 HTEM.                      No:  High Temp 
 HYDO.m                   2.00:  Hydro Offset 
 IFIN.deg                66.79:  Inc, Final 
 IMAX.deg                67.66:  Inc Max 
 IMIN.deg                66.39:  Inc Min 
 IMND.m                4949.37:  Inc Min Depth 
 IMXD.m                4778.63:  Inc Max Depth 
 JARR.                     Yes:  Jarring 
 LETM.      04.45.00 25-Dec-20:  Log End Time 
 LOST.hr                     0:  Lost Rig Time 
 LSTM.      10.00.00 24-Dec-20:  Log Start Time 
 MDCL.ppm             39000.00:  Mud Chlorides 
 MDES.     Inversion Oil/Synthetic:  Mud Desc 
 DFD .sg                  1.33:  Mud Density 
 MDMN.sg                  1.33:  Dens Mud Min 
 MDMX.sg                  1.33:  Dens Mud Max 
 MOIL.                      70:  Run Mud Oil % 
 MOWR.                   70:30:  Run Mud OWR 
 MSND.                       0:  Run Mud Sand % 
 MSOL.                    17.4:  Run Mud Solids% 
 DFV .spqt               84.00:  Mud Viscosity 
 MWOD.in                  6.75:  MWD Tool OD 
 MWSI.                     Yes:  Serv Intrp, MWD 
 OTIM.hr                168.14:  Time Operating 
 PCON.           Look Like New:  Pad Condition 
 PMAX.psia            10822.93:  Press Op, Max 
 PV  .cP                 30.00:  Mud PV 
 RUN .                     900:  Run Number 
 ROPA.m/hr               18.00:  ROP Avg 
 ROPN.m/hr               12.00:  ROP Min 
 ROPX.m/hr               25.00:  ROP Max 
 RPMA.rpm               120.00:  RPM Surface Avg 
 RPMN.rpm               100.00:  RPM Surface Min 
 RPMX.rpm               120.00:  RPM Surface Max 
 RRUN.                    0900:  Rig Run Number 
 SAZI.deg               115.08:  Azm, Start 
 SDEP.m                4762.01:  Start Depth 
 SIDD.                      No:  Serv Intrp, DD 
 SINC.deg                66.14:  Inc, Start 
 SPPA.psig             3700.00:  SPP Avg 
 SPPN.psig             3620.00:  SPP Min 
 SPPX.psig             3900.00:  SPP Max 
 STIM.      09.30.00 22-Dec-20:  Start Time 
 SVCS.                 DD, MWD:  Services 
 SVER.                    9.20:  Sperry Version 
 TDAT.m                 237.00:  Tot Depth Attmp 
 TDDF.                      No:  Trip for DD 
 TDLG.m                 237.00:  Tot Depth Loggd 
 TFF .                      No:  Trip for Fail 
 TQAA.f-kp               18.00:  Torque Abs Avg 
 TQAN.f-kp               17.00:  Torque Abs Min 
 TQAX.f-kp               20.00:  Torque Abs Max 
 TRRT.°/30m               0.60:  Turn Rotating 
 MRT .                    HCIM:  Maximum Recorded Temperature 
 TTMX.degC               94.12:  Max Tool Temp 
 VS01.                90627809:  Virtual Str1 SN 
 VS02.                90527813:  Virtual Str2 SN 
 VS03.                90545417:  Virtual Str3 SN 
 VS04.                12460870:  Virtual Str4 SN 
 VS05.                90516706:  Virtual Str5 SN 
 VS06.                90632007:  Virtual Str6 SN 
 WBMN.klb                 0.00:  WOB Min 
 WOBA.klb                14.00:  WOB Avg 
 WOBX.klb                25.00:  WOB Max 
 YP  .lhf2               32.00:  Yield Point 
~Curve Information Block
#MNEM.UNIT                 API CODE     Curve Description
#---------               -----------    ---------------------------
 TIME.HHMMSS            00 000 000 000:  GT Time & Date
 GTDEPTH.m              00 000 000 000:  GT Depth
 GTPQH.psia             00 000 000 000:  GT HR Quartz Pressure
 GTTQ.degC              00 000 000 000:  GT Quartz Temperature
 GTTN.NONE              00 000 000 000:  GT Test Number
 GTET.sec               00 000 000 000:  GT Elapsed Test Time
 GTTVD.m                00 000 000 000:  GT True Vertical Depth
#Other Information
#
#WARRANTY: Halliburton will use its best efforts to furnish customers with 
#accurate information and interpretations that are part of, and incident to, the services 
#provided.  However, Halliburton cannot and does not warrant the accuracy 
#or correctness of such information and interpretations.  Under no circumstances should any 
#such information or interpretation be relied upon as the sole basis for any drilling, 
#completion, production, or financial decision or any procedure involving any risk to the 
#safety of any drilling venture, drilling rig or its crew or any other third party.  The 
#Customer has full responsibility for all drilling, completion and production operation.  
#Halliburton makes no representations or warranties, either expressed or 
#implied, including, but not limited to, the implied warranties of merchantability or fitness 
#for a particular purpose, with respect to the services rendered.  In no event will 
#Halliburton be liable for failure to obtain any particular results or for 
#any damages, including, but not limited to, indirect, special or consequential damages, 
#resulting from the use of any information or interpretation provided by Halliburton.
#
~A           TIME           GTDEPTH  GTPQH  GTTQ  GTTN  GTET   GTTVD  
# ...
   20:23:20.874.25-Dec-2020 4794.01 2303.32 63.89 8.00  69.00 2496.73
   20:23:21.074.25-Dec-2020 4794.01 2303.43 63.89 8.00  69.20 2496.73
   20:23:21.274.25-Dec-2020 4794.01 2303.43 63.89 8.00  69.40 2496.73
   20:23:21.474.25-Dec-2020 4794.01 2303.44 63.89 8.00  69.60 2496.73
   20:23:21.674.25-Dec-2020 4794.01 2303.53 63.89 8.00  69.80 2496.73
   20:23:21.874.25-Dec-2020 4794.01 2303.47 63.89 8.00  70.00 2496.73
   20:23:22.074.25-Dec-2020 4794.01 2303.47 63.89 8.00  70.20 2496.73
   20:23:22.274.25-Dec-2020 4794.01 2303.28 63.89 8.00  70.40 2496.73
   20:23:22.474.25-Dec-2020 4794.01 2303.19 63.89 8.00  70.60 2496.73
   20:23:22.674.25-Dec-2020 4794.01 2303.30 63.89 8.00  70.80 2496.73
   20:23:22.874.25-Dec-2020 4794.01 2303.25 63.89 8.00  71.00 2496.73
   20:23:23.074.25-Dec-2020 4794.01 2303.25 63.89 8.00  71.20 2496.73
   20:23:23.274.25-Dec-2020 4794.01 2303.53 63.89 8.00  71.40 2496.73
   20:23:23.474.25-Dec-2020 4794.01 2302.89 63.90 8.00  71.60 2496.73
   20:23:23.674.25-Dec-2020 4794.01 2303.41 63.90 8.00  71.80 2496.73
   20:23:23.874.25-Dec-2020 4794.01 2303.18 63.90 8.00  72.00 2496.73
   20:23:24.074.25-Dec-2020 4794.01 2303.18 63.90 8.00  72.20 2496.73
   20:23:24.274.25-Dec-2020 4794.01 2302.98 63.90 8.00  72.40 2496.73
   20:23:24.474.25-Dec-2020 4794.01 2303.39 63.90 8.00  72.60 2496.73
   20:23:24.674.25-Dec-2020 4794.01 2303.18 63.90 8.00  72.80 2496.73
   20:23:24.874.25-Dec-2020 4794.01 2303.13 63.90 8.00  73.00 2496.73
   20:23:25.074.25-Dec-2020 4794.01 2303.37 63.90 8.00  73.20 2496.73
   20:23:25.274.25-Dec-2020 4794.01 2302.96 63.90 8.00  73.40 2496.73
   20:23:25.474.25-Dec-2020 4794.01 2303.21 63.90 8.00  73.60 2496.73
   20:23:25.674.25-Dec-2020 4794.01 2303.27 63.90 8.00  73.80 2496.73
   20:23:25.874.25-Dec-2020 4794.01 2303.22 63.90 8.00  74.00 2496.73
   20:23:26.074.25-Dec-2020 4794.01 2303.22 63.90 8.00  74.20 2496.73
   20:23:26.274.25-Dec-2020 4794.01 2303.30 63.90 8.00  74.40 2496.73
   20:23:26.474.25-Dec-2020 4794.01 2303.34 63.90 8.00  74.60 2496.73
   20:23:26.674.25-Dec-2020 4794.01 2303.42 63.90 8.00  74.80 2496.73
   20:23:26.874.25-Dec-2020 4794.01 2303.42 63.90 8.00  75.00 2496.73
   20:23:27.074.25-Dec-2020 4794.01 2303.42 63.90 8.00  75.20 2496.73
   20:23:27.274.25-Dec-2020 4794.01 2303.51 63.90 8.00  75.40 2496.73
   20:23:27.474.25-Dec-2020 4794.01 2303.51 63.90 8.00  75.60 2496.73
   20:23:27.674.25-Dec-2020 4794.01 2303.21 63.90 8.00  75.80 2496.73
   20:23:27.874.25-Dec-2020 4794.01 2303.55 63.90 8.00  75.99 2496.73
   20:23:28.074.25-Dec-2020 4794.01 2303.55 63.90 8.00  76.19 2496.73
   20:23:28.274.25-Dec-2020 4794.01 2303.54 63.90 8.00  76.39 2496.73
   20:23:28.474.25-Dec-2020 4794.01 2303.20 63.90 8.00  76.59 2496.73
   20:23:28.674.25-Dec-2020 4794.01 2303.37 63.90 8.00  76.79 2496.73
   20:23:28.874.25-Dec-2020 4794.01 2303.37 63.90 8.00  76.99 2496.73
   20:23:29.074.25-Dec-2020 4794.01 2303.37 63.90 8.00  77.19 2496.73
   20:23:29.274.25-Dec-2020 4794.01 2303.52 63.90 8.00  77.39 2496.73
   20:23:29.474.25-Dec-2020 4794.01 2303.48 63.90 8.00  77.59 2496.73
   20:23:29.674.25-Dec-2020 4794.01 2303.55 63.90 8.00  77.79 2496.73
   20:23:29.874.25-Dec-2020 4794.01 2303.55 63.90 8.00  77.99 2496.73
   20:23:30.073.25-Dec-2020 4794.01 2303.55 63.90 8.00  78.19 2496.73
   20:23:30.273.25-Dec-2020 4794.01 2303.29 63.90 8.00  78.39 2496.73
   20:23:30.473.25-Dec-2020 4794.01 2303.09 63.90 8.00  78.59 2496.73
   20:23:30.673.25-Dec-2020 4794.01 2303.54 63.90 8.00  78.79 2496.73
   20:23:30.873.25-Dec-2020 4794.01 2303.28 63.90 8.00  78.99 2496.73
   20:23:31.073.25-Dec-2020 4794.01 2303.28 63.90 8.00  79.19 2496.73
   20:23:31.273.25-Dec-2020 4794.01 2302.99 63.90 8.00  79.39 2496.73
   20:23:31.473.25-Dec-2020 4794.01 2303.71 63.90 8.00  79.59 2496.73
   20:23:31.673.25-Dec-2020 4794.01 2303.22 63.90 8.00  79.79 2496.73
   20:23:31.873.25-Dec-2020 4794.01 2303.26 63.90 8.00  79.99 2496.73
   20:23:32.073.25-Dec-2020 4794.01 2303.29 63.90 8.00  80.19 2496.73
   20:23:32.273.25-Dec-2020 4794.01 2303.40 63.90 8.00  80.39 2496.73
   20:23:32.473.25-Dec-2020 4794.01 2303.05 63.90 8.00  80.59 2496.73
   20:23:32.673.25-Dec-2020 4794.01 2303.37 63.90 8.00  80.79 2496.73
   20:23:32.873.25-Dec-2020 4794.01 2303.28 63.90 8.00  80.99 2496.73
   20:23:33.073.25-Dec-2020 4794.01 2303.34 63.90 8.00  81.19 2496.73
   20:23:33.273.25-Dec-2020 4794.01 2303.34 63.90 8.00  81.39 2496.73
   20:23:33.473.25-Dec-2020 4794.01 2303.15 63.90 8.00  81.59 2496.73
   20:23:33.673.25-Dec-2020 4794.01 2303.13 63.90 8.00  81.79 2496.73
   20:23:33.873.25-Dec-2020 4794.01 2303.48 63.90 8.00  81.99 2496.73
   20:23:34.073.25-Dec-2020 4794.01 2303.48 63.90 8.00  82.19 2496.73
   20:23:34.273.25-Dec-2020 4794.01 2303.34 63.90 8.00  82.39 2496.73
   20:23:34.473.25-Dec-2020 4794.01 2303.36 63.90 8.00  82.59 2496.73
   20:23:34.673.25-Dec-2020 4794.01 2303.37 63.90 8.00  82.79 2496.73
   20:23:34.873.25-Dec-2020 4794.01 2303.42 63.90 8.00  82.99 2496.73
   20:23:35.073.25-Dec-2020 4794.01 2303.42 63.90 8.00  83.19 2496.73
   20:23:35.273.25-Dec-2020 4794.01 2303.51 63.90 8.00  83.39 2496.73
   20:23:35.473.25-Dec-2020 4794.01 2303.48 63.90 8.00  83.59 2496.73
   20:23:35.673.25-Dec-2020 4794.01 2303.52 63.90 8.00  83.79 2496.73
   20:23:35.873.25-Dec-2020 4794.01 2303.01 63.90 8.00  83.99 2496.73
   20:23:36.073.25-Dec-2020 4794.01 2303.84 63.90 8.00  84.19 2496.73
   20:23:36.273.25-Dec-2020 4794.01 2303.28 63.90 8.00  84.39 2496.73
   20:23:36.473.25-Dec-2020 4794.01 2303.32 63.90 8.00  84.59 2496.73
   20:23:36.673.25-Dec-2020 4794.01 2303.37 63.90 8.00  84.79 2496.73
   20:23:36.873.25-Dec-2020 4794.01 2303.40 63.90 8.00  84.99 2496.73
   20:23:37.073.25-Dec-2020 4794.01 2303.38 63.90 8.00  85.19 2496.73
   20:23:37.273.25-Dec-2020 4794.01 2303.47 63.90 8.00  85.39 2496.73
   20:23:37.473.25-Dec-2020 4794.01 2303.44 63.90 8.00  85.59 2496.73
   20:23:37.673.25-Dec-2020 4794.01 2303.53 63.90 8.00  85.79 2496.73
   20:23:37.873.25-Dec-2020 4794.01 2303.55 63.90 8.00  85.99 2496.73
   20:23:38.073.25-Dec-2020 4794.01 2303.55 63.90 8.00  86.19 2496.73
   20:23:38.273.25-Dec-2020 4794.01 2303.24 63.90 8.00  86.39 2496.73
   20:23:38.473.25-Dec-2020 4794.01 2303.68 63.90 8.00  86.59 2496.73
   20:23:38.673.25-Dec-2020 4794.01 2303.18 63.90 8.00  86.79 2496.73
   20:23:38.873.25-Dec-2020 4794.01 2303.60 63.90 8.00  86.99 2496.73
   20:23:39.073.25-Dec-2020 4794.01 2303.60 63.90 8.00  87.19 2496.73
   20:23:39.273.25-Dec-2020 4794.01 2303.45 63.90 8.00  87.39 2496.73
   20:23:39.473.25-Dec-2020 4794.01 2303.09 63.90 8.00  87.59 2496.73
   20:23:39.673.25-Dec-2020 4794.01 2303.61 63.90 8.00  87.79 2496.73
   20:23:39.873.25-Dec-2020 4794.01 2303.31 63.90 8.00  87.99 2496.73
   20:23:40.073.25-Dec-2020 4794.01 2303.31 63.90 8.00  88.19 2496.73
   20:23:40.273.25-Dec-2020 4794.01 2303.45 63.90 8.00  88.39 2496.73
   20:23:40.473.25-Dec-2020 4794.01 2303.31 63.90 8.00  88.59 2496.73
   20:23:40.673.25-Dec-2020 4794.01 2303.31 63.90 8.00  88.79 2496.73
   20:23:40.873.25-Dec-2020 4794.01 2303.16 63.90 8.00  88.99 2496.73
   20:23:41.073.25-Dec-2020 4794.01 2303.51 63.90 8.00  89.19 2496.73
   20:23:41.273.25-Dec-2020 4794.01 2303.36 63.90 8.00  89.39 2496.73
   20:23:41.473.25-Dec-2020 4794.01 2302.96 63.90 8.00  89.59 2496.73
   20:23:41.673.25-Dec-2020 4794.01 2303.72 63.90 8.00  89.79 2496.73
   20:23:41.873.25-Dec-2020 4794.01 2303.11 63.90 8.00  89.99 2496.73
   20:23:42.073.25-Dec-2020 4794.01 2303.11 63.90 8.00  90.19 2496.73
   20:23:42.273.25-Dec-2020 4794.01 2303.24 63.90 8.00  90.39 2496.73
   20:23:42.473.25-Dec-2020 4794.01 2303.33 63.90 8.00  90.59 2496.73
   20:23:42.673.25-Dec-2020 4794.01 2303.37 63.90 8.00  90.79 2496.73
   20:23:42.873.25-Dec-2020 4794.01 2303.38 63.90 8.00  90.99 2496.73
   20:23:43.073.25-Dec-2020 4794.01 2303.38 63.90 8.00  91.19 2496.73
   20:23:43.273.25-Dec-2020 4794.01 2303.45 63.90 8.00  91.39 2496.73
   20:23:43.473.25-Dec-2020 4794.01 2303.45 63.90 8.00  91.59 2496.73
   20:23:43.673.25-Dec-2020 4794.01 2303.47 63.90 8.00  91.79 2496.73
