~Version Information
 VERS.                  2.0:   CWLS log ASCII Standard -VERSION 2.0
 WRAP.                   NO:   One line per depth step
~Well Information Block
#MNEM.UNIT     VALUE/NAME     DESCRIPTION
#---------     -----------    ---------------------------
 STRT.S             15:24:16 25-Dec-20: START TIME 15:24:16 25-Dec-20
 STOP.S             15:32:36 25-Dec-20: STOP TIME  15:32:36 25-Dec-20
 STEP.S                   0.00: STEP TIME
 NULL.                 -999.25: NULL VALUE
 DFWT.                        :  DIST FWL TEXT
 DFST.                        :  DIST FSL TEXT
 DMF .             Drill Floor:  DRILL MEAS FROM
 STIM.      04.54.24 22-Sep-20:  START TIME
 DATE.      04.54.24 21-Nov-20:  END TIME
 SPUD.               21-Nov-20:  SPUD DATE
 NREF.                    Grid:  NORTH REFERENCE
 HPTY.       Minimum Curvature:  HOLE POS TYPE
 DMOD.             Drill Model:  DRILL MOD DESC
 SVYD.                  Survey:  SURVEY DESC
 ILTD.               Lithology:  INTERP LTH DESC
 FTOP.          Formation Tops:  FORM TOPS DESC
 SON .        AZ-XX-0906571587:  JOB NUMBER
 COMP.     BP Exploration (Caspian Sea) Ltd:  COMPANY
 UWI .                     N/A:  UNIQUE WELL IDENTIFIER
 API .                     N/A:  API NUMBER
 BASE.              Azerbaijan:  LOGGING EQUIPMENT BASE LOCATION
 REGN.                   EESSA:  REGION
 PROV.                    Baku:  PROVINCE
 STAT.                    Baku:  STATE NAME
 CTRY.              Azerbaijan:  COUNTRY NAME
 FLD .                     ACG:  FIELD NAME
 SRVC.     TURAN Drilling & Engineering:  CONTRACTOR
 WELL.                     J27:  WELL NAME
 RIG .             West Chirag:  RIG NAME
 DOE .                     N/A:  DOE NUMBER
 DCON.         Sperry Drilling:  DIRECTNL CONTR
 PDAT.          Mean Sea Level:  PERMANENT DATUM
 WTYP.                Deviated:  WELL TYPE
 MWDS.                    Baku:  MWD SHOP
 JOBN.        AZ-XX-0906571587:  JOB TICKET NUMB
 UNIT.                     N/A:  LOGGING EQUIPMENT ID
 MDS .        Operator Entered:  MAG DATA SOURCE
 CNTY.                        :  COUNTY
 LOC .                        :  LOCATION
 LMF .             Drill Floor:  LOG MEASURED FROM
 TVDS.m                  43.00:  TVDSS CORRECTN
 LATI.deg                40.13:  LATITUDE
 LONG.deg                51.22:  LONGITUDE
 WHNS.m                   7.72:  WELL HEAD N/S
 WHEW.m                 -14.24:  WELL HEAD E/W
 UTMX.m              519005.06:  UTM X
 UTMY.m             4443793.85:  UTM Y
 DFWL.m                   0.00:  DISTANCE FWL
 DFSL.m                   0.00:  DISTANCE FSL
 SDEP.m                 347.00:  START DEPTH
 TDD .m                 581.00:  TOTAL DEPTH (DRILLER)
 VSDR.deg               159.72:  VERT SEC DIRECT
 GVFD.g                   1.00:  GRAVITY FIELD
 MFLD.nT              50318.00:  MAGNETIC FIELD
 MDIP.deg                59.57:  MAGNETIC DIP
 MDEC.deg                 6.44:  MAGNETIC DECL
 GRDC.deg                 0.15:  GRID CORRECTION
 AZTC.deg                 6.29:  AZM TOTAL CORR
 EPD .m                   0.00:  ELEVATION
 EGL .m                   0.00:  GROUND ELEVATION
 WDMS.m                 169.80:  WD ELEV
 APD .m                  43.00:  DEPTH ABOVE PD
 AGAP.m                  43.00:  AIR GAP
 VSEW.m                 -14.24:  VERT SEC E/W
 VSNS.m                   7.72:  VERT SEC N/S
 DEP .m                 342.45:  DEPTH
 EKB .m                   0.00:  KB ELEVATION
 EDF .m                  43.00:  DF ELEVATION
 TDL .m                 237.00:  TOTAL DEPTH (LOGGER)
 VSC .                       0:  VS TO CLOSURE
 MAGU.                 1851428:  MAGUTM CHECKSUM
~Parameter Information Block
#MNEM.UNIT       Value        Description
#---------     -----------    ---------------------------
 AV  .mps                 1.50:  Ann Velocity 
 AVMX.mps                 2.90:  Max Ann Veloc 
 AZIF.deg               115.59:  Azm, Final 
 BHAT.        Rotary Steerable:  BHA Type 
 BROT.°/30m               0.50:  Build Rotating 
 BS  .in                  8.50:  Bit Size 
 BTPL.psig              580.00:  Bit Press Loss 
 CABU.                     Yes:  Customer Abuse 
 TCS .hr                 89.79:  Time Ciculation Ended 
 CV  .mps                 3.22:  Crit Velocity 
 CVMX.mps                 4.37:  Max Crit Veloc 
 DD1 .          Rashad Habibov:  Direct Drillr 1 
 DDSV.               Geo-Pilot:  DD Service 
 DEFF.%                  95.00:  % Det Eff 
 DLRX.°/30m               1.94:  Dogleg Rot Max 
 DLSO.°/30m               0.70:  Dogleg Oriented 
 DLSX.°/30m               1.94:  Dogleg Str Max 
 DRET.      04.45.00 25-Dec-20:  Drill End Time 
 DRST.      10.00.00 24-Dec-20:  Drill Start Tim 
 DTIM.hr                 16.64:  Time Drilling 
 EDEP.m                4999.01:  End Depth 
 ENG1.         Elchin Mammadov:  Engineer 1 
 ENG2.          Ruslan Safarov:  Engineer 2 
 ENG3.          Rustam Safarov:  Engineer 3 
 ETIM.      09.00.00 29-Dec-20:  End Time 
 FLOI.gpm               500.00:  Flow In 
 FLON.gpm               400.00:  Flow In Min 
 FLOS.cptm                0.00:  Fluid Loss 
 FLOX.gpm               500.00:  Flow In Max 
 HFLO.                      No:  High Flow 
 HPRE.                      No:  High Pressure 
 HTEM.                      No:  High Temp 
 HYDO.m                   2.00:  Hydro Offset 
 IFIN.deg                66.79:  Inc, Final 
 IMAX.deg                67.66:  Inc Max 
 IMIN.deg                66.39:  Inc Min 
 IMND.m                4949.37:  Inc Min Depth 
 IMXD.m                4778.63:  Inc Max Depth 
 JARR.                     Yes:  Jarring 
 LETM.      04.45.00 25-Dec-20:  Log End Time 
 LOST.hr                     0:  Lost Rig Time 
 LSTM.      10.00.00 24-Dec-20:  Log Start Time 
 MDCL.ppm             39000.00:  Mud Chlorides 
 MDES.     Inversion Oil/Synthetic:  Mud Desc 
 DFD .sg                  1.33:  Mud Density 
 MDMN.sg                  1.33:  Dens Mud Min 
 MDMX.sg                  1.33:  Dens Mud Max 
 MOIL.                      70:  Run Mud Oil % 
 MOWR.                   70:30:  Run Mud OWR 
 MSND.                       0:  Run Mud Sand % 
 MSOL.                    17.4:  Run Mud Solids% 
 DFV .spqt               84.00:  Mud Viscosity 
 MWOD.in                  6.75:  MWD Tool OD 
 MWSI.                     Yes:  Serv Intrp, MWD 
 OTIM.hr                168.14:  Time Operating 
 PCON.           Look Like New:  Pad Condition 
 PMAX.psia            10822.93:  Press Op, Max 
 PV  .cP                 30.00:  Mud PV 
 RUN .                     900:  Run Number 
 ROPA.m/hr               18.00:  ROP Avg 
 ROPN.m/hr               12.00:  ROP Min 
 ROPX.m/hr               25.00:  ROP Max 
 RPMA.rpm               120.00:  RPM Surface Avg 
 RPMN.rpm               100.00:  RPM Surface Min 
 RPMX.rpm               120.00:  RPM Surface Max 
 RRUN.                    0900:  Rig Run Number 
 SAZI.deg               115.08:  Azm, Start 
 SDEP.m                4762.01:  Start Depth 
 SIDD.                      No:  Serv Intrp, DD 
 SINC.deg                66.14:  Inc, Start 
 SPPA.psig             3700.00:  SPP Avg 
 SPPN.psig             3620.00:  SPP Min 
 SPPX.psig             3900.00:  SPP Max 
 STIM.      09.30.00 22-Dec-20:  Start Time 
 SVCS.                 DD, MWD:  Services 
 SVER.                    9.20:  Sperry Version 
 TDAT.m                 237.00:  Tot Depth Attmp 
 TDDF.                      No:  Trip for DD 
 TDLG.m                 237.00:  Tot Depth Loggd 
 TFF .                      No:  Trip for Fail 
 TQAA.f-kp               18.00:  Torque Abs Avg 
 TQAN.f-kp               17.00:  Torque Abs Min 
 TQAX.f-kp               20.00:  Torque Abs Max 
 TRRT.°/30m               0.60:  Turn Rotating 
 MRT .                    HCIM:  Maximum Recorded Temperature 
 TTMX.degC               94.12:  Max Tool Temp 
 VS01.                90627809:  Virtual Str1 SN 
 VS02.                90527813:  Virtual Str2 SN 
 VS03.                90545417:  Virtual Str3 SN 
 VS04.                12460870:  Virtual Str4 SN 
 VS05.                90516706:  Virtual Str5 SN 
 VS06.                90632007:  Virtual Str6 SN 
 WBMN.klb                 0.00:  WOB Min 
 WOBA.klb                14.00:  WOB Avg 
 WOBX.klb                25.00:  WOB Max 
 YP  .lhf2               32.00:  Yield Point 
~Curve Information Block
#MNEM.UNIT                 API CODE     Curve Description
#---------               -----------    ---------------------------
 TIME.HHMMSS            00 000 000 000:  GT Time & Date
 GTDEPTH.m              00 000 000 000:  GT Depth
 GTPQH.psia             00 000 000 000:  GT HR Quartz Pressure
 GTTQ.degC              00 000 000 000:  GT Quartz Temperature
 GTTN.NONE              00 000 000 000:  GT Test Number
 GTET.sec               00 000 000 000:  GT Elapsed Test Time
 GTTVD.m                00 000 000 000:  GT True Vertical Depth
#Other Information
#
#WARRANTY: Halliburton will use its best efforts to furnish customers with 
#accurate information and interpretations that are part of, and incident to, the services 
#provided.  However, Halliburton cannot and does not warrant the accuracy 
#or correctness of such information and interpretations.  Under no circumstances should any 
#such information or interpretation be relied upon as the sole basis for any drilling, 
#completion, production, or financial decision or any procedure involving any risk to the 
#safety of any drilling venture, drilling rig or its crew or any other third party.  The 
#Customer has full responsibility for all drilling, completion and production operation.  
#Halliburton makes no representations or warranties, either expressed or 
#implied, including, but not limited to, the implied warranties of merchantability or fitness 
#for a particular purpose, with respect to the services rendered.  In no event will 
#Halliburton be liable for failure to obtain any particular results or for 
#any damages, including, but not limited to, indirect, special or consequential damages, 
#resulting from the use of any information or interpretation provided by Halliburton.
#
~A           TIME           GTDEPTH  GTPQH  GTTQ  GTTN  GTET   GTTVD  
# ...
   15:32:19.882.25-Dec-2020 4892.01 5496.55 65.35 4.00 483.13 2535.10
   15:32:20.082.25-Dec-2020 4892.01 5496.75 65.35 4.00 483.33 2535.10
   15:32:20.282.25-Dec-2020 4892.01 5496.11 65.35 4.00 483.53 2535.10
   15:32:20.482.25-Dec-2020 4892.01 5496.03 65.35 4.00 483.73 2535.10
   15:32:20.682.25-Dec-2020 4892.01 5495.37 65.35 4.00 483.93 2535.10
   15:32:20.882.25-Dec-2020 4892.01 5495.41 65.35 4.00 484.13 2535.10
   15:32:21.082.25-Dec-2020 4892.01 5495.41 65.35 4.00 484.33 2535.10
   15:32:21.282.25-Dec-2020 4892.01 5492.65 65.35 4.00 484.53 2535.10
   15:32:21.482.25-Dec-2020 4892.01 5502.49 65.35 4.00 484.73 2535.10
   15:32:21.682.25-Dec-2020 4892.01 5495.10 65.35 4.00 484.93 2535.10
   15:32:21.882.25-Dec-2020 4892.01 5508.53 65.35 4.00 485.13 2535.10
   15:32:22.083.25-Dec-2020 4892.01 5508.53 65.35 4.00 485.33 2535.10
   15:32:22.283.25-Dec-2020 4892.01 5500.82 65.35 4.00 485.53 2535.10
   15:32:22.483.25-Dec-2020 4892.01 5496.29 65.35 4.00 485.73 2535.10
   15:32:22.683.25-Dec-2020 4892.01 5495.40 65.35 4.00 485.93 2535.10
   15:32:22.883.25-Dec-2020 4892.01 5496.84 65.35 4.00 486.13 2535.10
   15:32:23.083.25-Dec-2020 4892.01 5496.84 65.35 4.00 486.33 2535.10
   15:32:23.283.25-Dec-2020 4892.01 5498.23 65.35 4.00 486.53 2535.10
   15:32:23.483.25-Dec-2020 4892.01 5496.93 65.35 4.00 486.73 2535.10
   15:32:23.683.25-Dec-2020 4892.01 5512.04 65.35 4.00 486.93 2535.10
   15:32:23.883.25-Dec-2020 4892.01 5492.08 65.35 4.00 487.13 2535.10
   15:32:24.083.25-Dec-2020 4892.01 5502.02 65.35 4.00 487.33 2535.10
   15:32:24.283.25-Dec-2020 4892.01 5495.67 65.35 4.00 487.53 2535.10
   15:32:24.483.25-Dec-2020 4892.01 5495.44 65.35 4.00 487.73 2535.10
   15:32:24.683.25-Dec-2020 4892.01 5496.23 65.35 4.00 487.93 2535.10
   15:32:24.883.25-Dec-2020 4892.01 5494.39 65.35 4.00 488.13 2535.10
   15:32:25.083.25-Dec-2020 4892.01 5494.39 65.35 4.00 488.33 2535.10
   15:32:25.283.25-Dec-2020 4892.01 5494.66 65.35 4.00 488.53 2535.10
   15:32:25.483.25-Dec-2020 4892.01 5494.60 65.35 4.00 488.73 2535.10
   15:32:25.684.25-Dec-2020 4892.01 5494.26 65.35 4.00 488.93 2535.10
   15:32:25.884.25-Dec-2020 4892.01 5494.31 65.35 4.00 489.13 2535.10
   15:32:26.084.25-Dec-2020 4892.01 5494.31 65.35 4.00 489.33 2535.10
   15:32:26.284.25-Dec-2020 4892.01 5492.01 65.35 4.00 489.53 2535.10
   15:32:26.484.25-Dec-2020 4892.01 5502.33 65.35 4.00 489.73 2535.10
   15:32:26.684.25-Dec-2020 4892.01 5495.19 65.35 4.00 489.93 2535.10
   15:32:26.884.25-Dec-2020 4892.01 5497.38 65.35 4.00 490.13 2535.10
   15:32:27.084.25-Dec-2020 4892.01 5497.38 65.35 4.00 490.33 2535.10
   15:32:27.284.25-Dec-2020 4892.01 5495.38 65.35 4.00 490.53 2535.10
   15:32:27.484.25-Dec-2020 4892.01 5496.93 65.35 4.00 490.73 2535.10
   15:32:27.684.25-Dec-2020 4892.01 5495.82 65.34 4.00 490.93 2535.10
   15:32:27.884.25-Dec-2020 4892.01 5496.49 65.34 4.00 491.13 2535.10
   15:32:28.084.25-Dec-2020 4892.01 5496.00 65.34 4.00 491.33 2535.10
   15:32:28.284.25-Dec-2020 4892.01 5495.45 65.34 4.00 491.53 2535.10
   15:32:28.484.25-Dec-2020 4892.01 5495.50 65.34 4.00 491.73 2535.10
   15:32:28.684.25-Dec-2020 4892.01 5495.05 65.34 4.00 491.93 2535.10
   15:32:28.884.25-Dec-2020 4892.01 5502.81 65.34 4.00 492.13 2535.10
   15:32:29.084.25-Dec-2020 4892.01 5502.81 65.34 4.00 492.33 2535.10
   15:32:29.284.25-Dec-2020 4892.01 5501.99 65.34 4.00 492.53 2535.10
   15:32:29.485.25-Dec-2020 4892.01 5497.20 65.34 4.00 492.73 2535.10
   15:32:29.685.25-Dec-2020 4892.01 5501.46 65.34 4.00 492.93 2535.10
   15:32:29.885.25-Dec-2020 4892.01 5501.20 65.34 4.00 493.13 2535.10
   15:32:30.085.25-Dec-2020 4892.01 5501.20 65.34 4.00 493.33 2535.10
   15:32:30.285.25-Dec-2020 4892.01 5502.03 65.34 4.00 493.53 2535.10
   15:32:30.485.25-Dec-2020 4892.01 5495.78 65.34 4.00 493.73 2535.10
   15:32:30.685.25-Dec-2020 4892.01 5507.65 65.34 4.00 493.93 2535.10
   15:32:30.885.25-Dec-2020 4892.01 5493.33 65.34 4.00 494.13 2535.10
   15:32:31.085.25-Dec-2020 4892.01 5493.33 65.34 4.00 494.33 2535.10
   15:32:31.285.25-Dec-2020 4892.01 5495.84 65.34 4.00 494.53 2535.10
   15:32:31.485.25-Dec-2020 4892.01 5502.42 65.34 4.00 494.73 2535.10
   15:32:31.685.25-Dec-2020 4892.01 5495.80 65.34 4.00 494.93 2535.10
   15:32:31.885.25-Dec-2020 4892.01 5500.33 65.34 4.00 495.13 2535.10
   15:32:32.085.25-Dec-2020 4892.01 5497.41 65.34 4.00 495.33 2535.10
   15:32:32.285.25-Dec-2020 4892.01 5494.88 65.34 4.00 495.53 2535.10
   15:32:32.485.25-Dec-2020 4892.01 5497.53 65.34 4.00 495.73 2535.10
   15:32:32.685.25-Dec-2020 4892.01 5494.94 65.34 4.00 495.93 2535.10
   15:32:32.885.25-Dec-2020 4892.01 5495.95 65.34 4.00 496.13 2535.10
   15:32:33.086.25-Dec-2020 4892.01 5495.95 65.34 4.00 496.33 2535.10
   15:32:33.286.25-Dec-2020 4892.01 5494.64 65.34 4.00 496.53 2535.10
   15:32:33.486.25-Dec-2020 4892.01 5495.51 65.34 4.00 496.73 2535.10
   15:32:33.686.25-Dec-2020 4892.01 5495.28 65.34 4.00 496.93 2535.10
   15:32:33.886.25-Dec-2020 4892.01 5507.16 65.34 4.00 497.13 2535.10
   15:32:34.086.25-Dec-2020 4892.01 5507.16 65.34 4.00 497.33 2535.10
   15:32:34.286.25-Dec-2020 4892.01 5502.89 65.34 4.00 497.53 2535.10
   15:32:34.486.25-Dec-2020 4892.01 5497.05 65.34 4.00 497.73 2535.10
   15:32:34.686.25-Dec-2020 4892.01 5496.65 65.34 4.00 497.93 2535.10
   15:32:34.886.25-Dec-2020 4892.01 5497.58 65.34 4.00 498.13 2535.10
   15:32:35.086.25-Dec-2020 4892.01 5497.58 65.34 4.00 498.33 2535.10
   15:32:35.286.25-Dec-2020 4892.01 5497.75 65.34 4.00 498.53 2535.10
   15:32:35.486.25-Dec-2020 4892.01 5497.10 65.34 4.00 498.73 2535.10
   15:32:35.686.25-Dec-2020 4892.01 5496.61 65.34 4.00 498.93 2535.10
   15:32:35.886.25-Dec-2020 4892.01 5496.46 65.34 4.00 499.13 2535.10
   15:32:36.086.25-Dec-2020 4892.01 5496.19 65.34 4.00 499.33 2535.10
   15:32:36.286.25-Dec-2020 4892.01 5495.82 65.34 4.00 499.53 2535.10
   15:32:36.486.25-Dec-2020 4892.01 5495.91 65.34 4.00 499.73 2535.10
   15:32:36.686.25-Dec-2020 4892.01 5502.06 65.34 4.00 499.93 2535.10
