~Version Information
 VERS.                  2.0:   CWLS log ASCII Standard -VERSION 2.0
 WRAP.                   NO:   One line per depth step
~Well Information Block
#MNEM.UNIT     VALUE/NAME     DESCRIPTION
#---------     -----------    ---------------------------
 STRT.S             19:12:01 25-Dec-20: START TIME 19:12:01 25-Dec-20
 STOP.S             19:20:19 25-Dec-20: STOP TIME  19:20:19 25-Dec-20
 STEP.S                   0.00: STEP TIME
 NULL.                 -999.25: NULL VALUE
 DFWT.                        :  DIST FWL TEXT
 DFST.                        :  DIST FSL TEXT
 DMF .             Drill Floor:  DRILL MEAS FROM
 STIM.      04.54.24 22-Sep-20:  START TIME
 DATE.      04.54.24 21-Nov-20:  END TIME
 SPUD.               21-Nov-20:  SPUD DATE
 NREF.                    Grid:  NORTH REFERENCE
 HPTY.       Minimum Curvature:  HOLE POS TYPE
 DMOD.             Drill Model:  DRILL MOD DESC
 SVYD.                  Survey:  SURVEY DESC
 ILTD.               Lithology:  INTERP LTH DESC
 FTOP.          Formation Tops:  FORM TOPS DESC
 SON .        AZ-XX-0906571587:  JOB NUMBER
 COMP.     BP Exploration (Caspian Sea) Ltd:  COMPANY
 UWI .                     N/A:  UNIQUE WELL IDENTIFIER
 API .                     N/A:  API NUMBER
 BASE.              Azerbaijan:  LOGGING EQUIPMENT BASE LOCATION
 REGN.                   EESSA:  REGION
 PROV.                    Baku:  PROVINCE
 STAT.                    Baku:  STATE NAME
 CTRY.              Azerbaijan:  COUNTRY NAME
 FLD .                     ACG:  FIELD NAME
 SRVC.     TURAN Drilling & Engineering:  CONTRACTOR
 WELL.                     J27:  WELL NAME
 RIG .             West Chirag:  RIG NAME
 DOE .                     N/A:  DOE NUMBER
 DCON.         Sperry Drilling:  DIRECTNL CONTR
 PDAT.          Mean Sea Level:  PERMANENT DATUM
 WTYP.                Deviated:  WELL TYPE
 MWDS.                    Baku:  MWD SHOP
 JOBN.        AZ-XX-0906571587:  JOB TICKET NUMB
 UNIT.                     N/A:  LOGGING EQUIPMENT ID
 MDS .        Operator Entered:  MAG DATA SOURCE
 CNTY.                        :  COUNTY
 LOC .                        :  LOCATION
 LMF .             Drill Floor:  LOG MEASURED FROM
 TVDS.m                  43.00:  TVDSS CORRECTN
 LATI.deg                40.13:  LATITUDE
 LONG.deg                51.22:  LONGITUDE
 WHNS.m                   7.72:  WELL HEAD N/S
 WHEW.m                 -14.24:  WELL HEAD E/W
 UTMX.m              519005.06:  UTM X
 UTMY.m             4443793.85:  UTM Y
 DFWL.m                   0.00:  DISTANCE FWL
 DFSL.m                   0.00:  DISTANCE FSL
 SDEP.m                 347.00:  START DEPTH
 TDD .m                 581.00:  TOTAL DEPTH (DRILLER)
 VSDR.deg               159.72:  VERT SEC DIRECT
 GVFD.g                   1.00:  GRAVITY FIELD
 MFLD.nT              50318.00:  MAGNETIC FIELD
 MDIP.deg                59.57:  MAGNETIC DIP
 MDEC.deg                 6.44:  MAGNETIC DECL
 GRDC.deg                 0.15:  GRID CORRECTION
 AZTC.deg                 6.29:  AZM TOTAL CORR
 EPD .m                   0.00:  ELEVATION
 EGL .m                   0.00:  GROUND ELEVATION
 WDMS.m                 169.80:  WD ELEV
 APD .m                  43.00:  DEPTH ABOVE PD
 AGAP.m                  43.00:  AIR GAP
 VSEW.m                 -14.24:  VERT SEC E/W
 VSNS.m                   7.72:  VERT SEC N/S
 DEP .m                 342.45:  DEPTH
 EKB .m                   0.00:  KB ELEVATION
 EDF .m                  43.00:  DF ELEVATION
 TDL .m                 237.00:  TOTAL DEPTH (LOGGER)
 VSC .                       0:  VS TO CLOSURE
 MAGU.                 1851428:  MAGUTM CHECKSUM
~Parameter Information Block
#MNEM.UNIT       Value        Description
#---------     -----------    ---------------------------
 AV  .mps                 1.50:  Ann Velocity 
 AVMX.mps                 2.90:  Max Ann Veloc 
 AZIF.deg               115.59:  Azm, Final 
 BHAT.        Rotary Steerable:  BHA Type 
 BROT.°/30m               0.50:  Build Rotating 
 BS  .in                  8.50:  Bit Size 
 BTPL.psig              580.00:  Bit Press Loss 
 CABU.                     Yes:  Customer Abuse 
 COMM.                     Ìt:  Run Comments 1 
 TCS .hr                 89.79:  Time Ciculation Ended 
 CV  .mps                 3.22:  Crit Velocity 
 CVMX.mps                 4.37:  Max Crit Veloc 
 DD1 .          Rashad Habibov:  Direct Drillr 1 
 DDSV.               Geo-Pilot:  DD Service 
 DEFF.%                  95.00:  % Det Eff 
 DLRX.°/30m               1.94:  Dogleg Rot Max 
 DLSO.°/30m               0.70:  Dogleg Oriented 
 DLSX.°/30m               1.94:  Dogleg Str Max 
 DRET.      04.45.00 25-Dec-20:  Drill End Time 
 DRST.      10.00.00 24-Dec-20:  Drill Start Tim 
 DTIM.hr                 16.64:  Time Drilling 
 EDEP.m                4999.01:  End Depth 
 ENG1.         Elchin Mammadov:  Engineer 1 
 ENG2.          Ruslan Safarov:  Engineer 2 
 ENG3.          Rustam Safarov:  Engineer 3 
 ETIM.      09.00.00 29-Dec-20:  End Time 
 FLOI.gpm               500.00:  Flow In 
 FLON.gpm               400.00:  Flow In Min 
 FLOS.cptm                0.00:  Fluid Loss 
 FLOX.gpm               500.00:  Flow In Max 
 HFLO.                      No:  High Flow 
 HPRE.                      No:  High Pressure 
 HTEM.                      No:  High Temp 
 HYDO.m                   2.00:  Hydro Offset 
 IFIN.deg                66.79:  Inc, Final 
 IMAX.deg                67.66:  Inc Max 
 IMIN.deg                66.39:  Inc Min 
 IMND.m                4949.37:  Inc Min Depth 
 IMXD.m                4778.63:  Inc Max Depth 
 JARR.                     Yes:  Jarring 
 LETM.      04.45.00 25-Dec-20:  Log End Time 
 LOST.hr                     0:  Lost Rig Time 
 LSTM.      10.00.00 24-Dec-20:  Log Start Time 
 MDCL.ppm             39000.00:  Mud Chlorides 
 MDES.     Inversion Oil/Synthetic:  Mud Desc 
 DFD .sg                  1.33:  Mud Density 
 MDMN.sg                  1.33:  Dens Mud Min 
 MDMX.sg                  1.33:  Dens Mud Max 
 MOIL.                      70:  Run Mud Oil % 
 MOWR.                   70:30:  Run Mud OWR 
 MSND.                       0:  Run Mud Sand % 
 MSOL.                    17.4:  Run Mud Solids% 
 DFV .spqt               84.00:  Mud Viscosity 
 MWOD.in                  6.75:  MWD Tool OD 
 MWSI.                     Yes:  Serv Intrp, MWD 
 OTIM.hr                168.14:  Time Operating 
 PCON.           Look Like New:  Pad Condition 
 PMAX.psia            10822.93:  Press Op, Max 
 PV  .cP                 30.00:  Mud PV 
 RUN .                     900:  Run Number 
 ROPA.m/hr               18.00:  ROP Avg 
 ROPN.m/hr               12.00:  ROP Min 
 ROPX.m/hr               25.00:  ROP Max 
 RPMA.rpm               120.00:  RPM Surface Avg 
 RPMN.rpm               100.00:  RPM Surface Min 
 RPMX.rpm               120.00:  RPM Surface Max 
 RRUN.                    0900:  Rig Run Number 
 SAZI.deg               115.08:  Azm, Start 
 SDEP.m                4762.01:  Start Depth 
 SIDD.                      No:  Serv Intrp, DD 
 SINC.deg                66.14:  Inc, Start 
 SPPA.psig             3700.00:  SPP Avg 
 SPPN.psig             3620.00:  SPP Min 
 SPPX.psig             3900.00:  SPP Max 
 STIM.      09.30.00 22-Dec-20:  Start Time 
 SVCS.                 DD, MWD:  Services 
 SVER.                    9.20:  Sperry Version 
 TDAT.m                 237.00:  Tot Depth Attmp 
 TDDF.                      No:  Trip for DD 
 TDLG.m                 237.00:  Tot Depth Loggd 
 TFF .                      No:  Trip for Fail 
 TQAA.f-kp               18.00:  Torque Abs Avg 
 TQAN.f-kp               17.00:  Torque Abs Min 
 TQAX.f-kp               20.00:  Torque Abs Max 
 TRRT.°/30m               0.60:  Turn Rotating 
 MRT .                    HCIM:  Maximum Recorded Temperature 
 TTMX.degC               94.12:  Max Tool Temp 
 VS01.                90627809:  Virtual Str1 SN 
 VS02.                90527813:  Virtual Str2 SN 
 VS03.                90545417:  Virtual Str3 SN 
 VS04.                12460870:  Virtual Str4 SN 
 VS05.                90516706:  Virtual Str5 SN 
 VS06.                90632007:  Virtual Str6 SN 
 WBMN.klb                 0.00:  WOB Min 
 WOBA.klb                14.00:  WOB Avg 
 WOBX.klb                25.00:  WOB Max 
 YP  .lhf2               32.00:  Yield Point 
~Curve Information Block
#MNEM.UNIT                 API CODE     Curve Description
#---------               -----------    ---------------------------
 TIME.HHMMSS            00 000 000 000:  GT Time & Date
 GTDEPTH.m              00 000 000 000:  GT Depth
 GTPQH.psia             00 000 000 000:  GT HR Quartz Pressure
 GTTQ.degC              00 000 000 000:  GT Quartz Temperature
 GTTN.NONE              00 000 000 000:  GT Test Number
 GTET.sec               00 000 000 000:  GT Elapsed Test Time
 GTTVD.m                00 000 000 000:  GT True Vertical Depth
#Other Information
#
#WARRANTY: Halliburton will use its best efforts to furnish customers with 
#accurate information and interpretations that are part of, and incident to, the services 
#provided.  However, Halliburton cannot and does not warrant the accuracy 
#or correctness of such information and interpretations.  Under no circumstances should any 
#such information or interpretation be relied upon as the sole basis for any drilling, 
#completion, production, or financial decision or any procedure involving any risk to the 
#safety of any drilling venture, drilling rig or its crew or any other third party.  The 
#Customer has full responsibility for all drilling, completion and production operation.  
#Halliburton makes no representations or warranties, either expressed or 
#implied, including, but not limited to, the implied warranties of merchantability or fitness 
#for a particular purpose, with respect to the services rendered.  In no event will 
#Halliburton be liable for failure to obtain any particular results or for 
#any damages, including, but not limited to, indirect, special or consequential damages, 
#resulting from the use of any information or interpretation provided by Halliburton.
#
~A           TIME           GTDEPTH  GTPQH  GTTQ  GTTN  GTET   GTTVD  
# ...
   19:17:00.357.25-Dec-2020 4808.01 2305.03 63.87 7.00 299.24 2502.07
   19:17:00.557.25-Dec-2020 4808.01 2305.03 63.87 7.00 299.44 2502.07
   19:17:00.757.25-Dec-2020 4808.01 2304.43 63.87 7.00 299.64 2502.07
   19:17:00.958.25-Dec-2020 4808.01 2304.98 63.87 7.00 299.84 2502.07
   19:17:01.158.25-Dec-2020 4808.01 2304.98 63.87 7.00 300.04 2502.07
   19:17:01.358.25-Dec-2020 4808.01 2305.09 63.87 7.00 300.24 2502.07
   19:17:01.558.25-Dec-2020 4808.01 2305.09 63.87 7.00 300.44 2502.07
   19:17:01.758.25-Dec-2020 4808.01 2305.03 63.87 7.00 300.64 2502.07
   19:17:01.958.25-Dec-2020 4808.01 2305.00 63.87 7.00 300.84 2502.07
   19:17:02.159.25-Dec-2020 4808.01 2305.04 63.87 7.00 301.04 2502.07
   19:17:02.359.25-Dec-2020 4808.01 2305.03 63.87 7.00 301.24 2502.07
   19:17:02.559.25-Dec-2020 4808.01 2305.03 63.87 7.00 301.44 2502.07
   19:17:02.759.25-Dec-2020 4808.01 2305.05 63.87 7.00 301.64 2502.07
   19:17:02.959.25-Dec-2020 4808.01 2305.03 63.87 7.00 301.84 2502.07
   19:17:03.159.25-Dec-2020 4808.01 2305.03 63.87 7.00 302.04 2502.07
   19:17:03.360.25-Dec-2020 4808.01 2304.26 63.87 7.00 302.24 2502.07
   19:17:03.560.25-Dec-2020 4808.01 2304.26 63.87 7.00 302.44 2502.07
   19:17:03.760.25-Dec-2020 4808.01 2304.54 63.87 7.00 302.64 2502.07
   19:17:03.960.25-Dec-2020 4808.01 2305.07 63.87 7.00 302.84 2502.07
   19:17:04.160.25-Dec-2020 4808.01 2305.05 63.87 7.00 303.04 2502.07
   19:17:04.360.25-Dec-2020 4808.01 2304.32 63.87 7.00 303.24 2502.07
   19:17:04.560.25-Dec-2020 4808.01 2304.32 63.87 7.00 303.44 2502.07
   19:17:04.761.25-Dec-2020 4808.01 2305.03 63.87 7.00 303.64 2502.07
   19:17:04.961.25-Dec-2020 4808.01 2304.11 63.87 7.00 303.84 2502.07
   19:17:05.161.25-Dec-2020 4808.01 2305.56 63.87 7.00 304.04 2502.07
   19:17:05.361.25-Dec-2020 4808.01 2304.88 63.87 7.00 304.24 2502.07
   19:17:05.561.25-Dec-2020 4808.01 2304.88 63.87 7.00 304.44 2502.07
   19:17:05.761.25-Dec-2020 4808.01 2305.05 63.87 7.00 304.64 2502.07
   19:17:05.962.25-Dec-2020 4808.01 2304.99 63.87 7.00 304.84 2502.07
   19:17:06.162.25-Dec-2020 4808.01 2304.97 63.87 7.00 305.04 2502.07
   19:17:06.362.25-Dec-2020 4808.01 2305.05 63.87 7.00 305.24 2502.07
   19:17:06.562.25-Dec-2020 4808.01 2305.05 63.87 7.00 305.44 2502.07
   19:17:06.762.25-Dec-2020 4808.01 2304.98 63.87 7.00 305.64 2502.07
   19:17:06.962.25-Dec-2020 4808.01 2305.00 63.87 7.00 305.84 2502.07
   19:17:07.163.25-Dec-2020 4808.01 2305.03 63.87 7.00 306.04 2502.07
   19:17:07.363.25-Dec-2020 4808.01 2305.03 63.87 7.00 306.24 2502.07
   19:17:07.563.25-Dec-2020 4808.01 2305.03 63.87 7.00 306.44 2502.07
   19:17:07.763.25-Dec-2020 4808.01 2305.22 63.87 7.00 306.64 2502.07
   19:17:07.963.25-Dec-2020 4808.01 2305.05 63.87 7.00 306.84 2502.07
   19:17:08.163.25-Dec-2020 4808.01 2304.99 63.87 7.00 307.04 2502.07
   19:17:08.363.25-Dec-2020 4808.01 2305.04 63.87 7.00 307.24 2502.07
   19:17:08.564.25-Dec-2020 4808.01 2305.04 63.87 7.00 307.44 2502.07
   19:17:08.764.25-Dec-2020 4808.01 2305.06 63.87 7.00 307.64 2502.07
   19:17:08.964.25-Dec-2020 4808.01 2305.03 63.87 7.00 307.84 2502.07
   19:17:09.164.25-Dec-2020 4808.01 2305.00 63.87 7.00 308.04 2502.07
   19:17:09.364.25-Dec-2020 4808.01 2305.00 63.87 7.00 308.24 2502.07
   19:17:09.564.25-Dec-2020 4808.01 2305.00 63.87 7.00 308.44 2502.07
   19:17:09.765.25-Dec-2020 4808.01 2305.05 63.87 7.00 308.64 2502.07
   19:17:09.965.25-Dec-2020 4808.01 2304.11 63.87 7.00 308.84 2502.07
   19:17:10.165.25-Dec-2020 4808.01 2305.59 63.87 7.00 309.04 2502.07
   19:17:10.365.25-Dec-2020 4808.01 2304.96 63.87 7.00 309.24 2502.07
   19:17:10.565.25-Dec-2020 4808.01 2304.96 63.87 7.00 309.44 2502.07
   19:17:10.765.25-Dec-2020 4808.01 2305.29 63.87 7.00 309.64 2502.07
   19:17:10.966.25-Dec-2020 4808.01 2304.48 63.87 7.00 309.84 2502.07
   19:17:11.166.25-Dec-2020 4808.01 2305.09 63.87 7.00 310.04 2502.07
   19:17:11.366.25-Dec-2020 4808.01 2305.10 63.87 7.00 310.25 2502.07
   19:17:11.566.25-Dec-2020 4808.01 2305.10 63.87 7.00 310.45 2502.07
   19:17:11.766.25-Dec-2020 4808.01 2304.29 63.87 7.00 310.65 2502.07
   19:17:11.966.25-Dec-2020 4808.01 2305.11 63.87 7.00 310.85 2502.07
   19:17:12.166.25-Dec-2020 4808.01 2305.22 63.87 7.00 311.05 2502.07
   19:17:12.367.25-Dec-2020 4808.01 2304.96 63.87 7.00 311.25 2502.07
   19:17:12.567.25-Dec-2020 4808.01 2304.96 63.87 7.00 311.45 2502.07
   19:17:12.767.25-Dec-2020 4808.01 2304.99 63.87 7.00 311.65 2502.07
   19:17:12.967.25-Dec-2020 4808.01 2305.01 63.87 7.00 311.85 2502.07
   19:17:13.167.25-Dec-2020 4808.01 2305.01 63.87 7.00 312.05 2502.07
   19:17:13.367.25-Dec-2020 4808.01 2305.01 63.87 7.00 312.25 2502.07
   19:17:13.568.25-Dec-2020 4808.01 2305.01 63.87 7.00 312.45 2502.07
   19:17:13.768.25-Dec-2020 4808.01 2305.04 63.87 7.00 312.65 2502.07
   19:17:13.968.25-Dec-2020 4808.01 2305.03 63.87 7.00 312.85 2502.07
   19:17:14.168.25-Dec-2020 4808.01 2304.04 63.87 7.00 313.05 2502.07
   19:17:14.368.25-Dec-2020 4808.01 2305.59 63.87 7.00 313.25 2502.07
   19:17:14.568.25-Dec-2020 4808.01 2305.59 63.87 7.00 313.45 2502.07
   19:17:14.769.25-Dec-2020 4808.01 2304.97 63.87 7.00 313.65 2502.07
   19:17:14.969.25-Dec-2020 4808.01 2305.02 63.87 7.00 313.85 2502.07
   19:17:15.169.25-Dec-2020 4808.01 2304.97 63.87 7.00 314.05 2502.07
   19:17:15.369.25-Dec-2020 4808.01 2305.05 63.87 7.00 314.25 2502.07
   19:17:15.569.25-Dec-2020 4808.01 2305.05 63.87 7.00 314.45 2502.07
   19:17:15.769.25-Dec-2020 4808.01 2305.04 63.87 7.00 314.65 2502.07
   19:17:15.969.25-Dec-2020 4808.01 2305.01 63.87 7.00 314.85 2502.07
   19:17:16.170.25-Dec-2020 4808.01 2305.00 63.87 7.00 315.05 2502.07
   19:17:16.370.25-Dec-2020 4808.01 2305.05 63.87 7.00 315.25 2502.07
   19:17:16.570.25-Dec-2020 4808.01 2305.05 63.87 7.00 315.45 2502.07
   19:17:16.770.25-Dec-2020 4808.01 2304.37 63.87 7.00 315.65 2502.07
   19:17:16.970.25-Dec-2020 4808.01 2302.71 63.87 7.00 315.85 2502.07
   19:17:17.170.25-Dec-2020 4808.01 2076.95 63.87 7.00 316.05 2502.07
   19:17:17.371.25-Dec-2020 4808.01 1748.45 63.87 7.00 316.25 2502.07
   19:17:17.571.25-Dec-2020 4808.01 1748.45 63.87 7.00 316.45 2502.07
   19:17:17.771.25-Dec-2020 4808.01 1210.68 63.87 7.00 316.65 2502.07
   19:17:17.971.25-Dec-2020 4808.01 1017.51 63.87 7.00 316.85 2502.07
   19:17:18.171.25-Dec-2020 4808.01  879.26 63.87 7.00 317.05 2502.07
   19:17:18.371.25-Dec-2020 4808.01  776.18 63.87 7.00 317.25 2502.07
   19:17:18.572.25-Dec-2020 4808.01  776.18 63.87 7.00 317.45 2502.07
   19:17:18.772.25-Dec-2020 4808.01  566.00 63.87 7.00 317.65 2502.07
   19:17:18.972.25-Dec-2020 4808.01  471.77 63.87 7.00 317.85 2502.07
   19:17:19.172.25-Dec-2020 4808.01  384.21 63.87 7.00 318.05 2502.07
   19:17:19.372.25-Dec-2020 4808.01  304.23 63.87 7.00 318.25 2502.07
   19:17:19.572.25-Dec-2020 4808.01  304.23 63.87 7.00 318.45 2502.07
   19:17:19.772.25-Dec-2020 4808.01  170.48 63.87 7.00 318.65 2502.07
   19:17:19.973.25-Dec-2020 4808.01  119.97 63.86 7.00 318.85 2502.07
   19:17:20.173.25-Dec-2020 4808.01   84.69 63.86 7.00 319.05 2502.07
   19:17:20.373.25-Dec-2020 4808.01   65.56 63.86 7.00 319.25 2502.07
   19:17:20.573.25-Dec-2020 4808.01   65.56 63.86 7.00 319.45 2502.07
   19:17:20.773.25-Dec-2020 4808.01   44.70 63.86 7.00 319.65 2502.07
   19:17:20.973.25-Dec-2020 4808.01   40.68 63.86 7.00 319.85 2502.07
   19:17:21.174.25-Dec-2020 4808.01   35.76 63.86 7.00 320.05 2502.07
   19:17:21.374.25-Dec-2020 4808.01   31.88 63.86 7.00 320.25 2502.07
   19:17:21.574.25-Dec-2020 4808.01   31.88 63.86 7.00 320.45 2502.07
   19:17:21.774.25-Dec-2020 4808.01   26.16 63.85 7.00 320.65 2502.07
   19:17:21.974.25-Dec-2020 4808.01   24.27 63.85 7.00 320.85 2502.07
   19:17:22.174.25-Dec-2020 4808.01   22.79 63.85 7.00 321.05 2502.07
   19:17:22.375.25-Dec-2020 4808.01   21.53 63.85 7.00 321.25 2502.07
   19:17:22.575.25-Dec-2020 4808.01   21.53 63.85 7.00 321.45 2502.07
   19:17:22.775.25-Dec-2020 4808.01   20.28 63.84 7.00 321.65 2502.07
   19:17:22.975.25-Dec-2020 4808.01   19.53 63.84 7.00 321.85 2502.07
   19:17:23.175.25-Dec-2020 4808.01   18.87 63.84 7.00 322.05 2502.07
