~Version Information
 VERS.                  2.0:   CWLS log ASCII Standard -VERSION 2.0
 WRAP.                   NO:   One line per depth step
~Well Information Block
#MNEM.UNIT     VALUE/NAME     DESCRIPTION
#---------     -----------    ---------------------------
 STRT.S             13:59:04 25-Dec-20: START TIME 13:59:04 25-Dec-20
 STOP.S             14:07:22 25-Dec-20: STOP TIME  14:07:22 25-Dec-20
 STEP.S                   0.00: STEP TIME
 NULL.                 -999.25: NULL VALUE
 DFWT.                        :  DIST FWL TEXT
 DFST.                        :  DIST FSL TEXT
 DMF .             Drill Floor:  DRILL MEAS FROM
 STIM.      04.54.24 22-Sep-20:  START TIME
 DATE.      04.54.24 21-Nov-20:  END TIME
 SPUD.               21-Nov-20:  SPUD DATE
 NREF.                    Grid:  NORTH REFERENCE
 HPTY.       Minimum Curvature:  HOLE POS TYPE
 DMOD.             Drill Model:  DRILL MOD DESC
 SVYD.                  Survey:  SURVEY DESC
 ILTD.               Lithology:  INTERP LTH DESC
 FTOP.          Formation Tops:  FORM TOPS DESC
 SON .        AZ-XX-0906571587:  JOB NUMBER
 COMP.     BP Exploration (Caspian Sea) Ltd:  COMPANY
 UWI .                     N/A:  UNIQUE WELL IDENTIFIER
 API .                     N/A:  API NUMBER
 BASE.              Azerbaijan:  LOGGING EQUIPMENT BASE LOCATION
 REGN.                   EESSA:  REGION
 PROV.                    Baku:  PROVINCE
 STAT.                    Baku:  STATE NAME
 CTRY.              Azerbaijan:  COUNTRY NAME
 FLD .                     ACG:  FIELD NAME
 SRVC.     TURAN Drilling & Engineering:  CONTRACTOR
 WELL.                     J27:  WELL NAME
 RIG .             West Chirag:  RIG NAME
 DOE .                     N/A:  DOE NUMBER
 DCON.         Sperry Drilling:  DIRECTNL CONTR
 PDAT.          Mean Sea Level:  PERMANENT DATUM
 WTYP.                Deviated:  WELL TYPE
 MWDS.                    Baku:  MWD SHOP
 JOBN.        AZ-XX-0906571587:  JOB TICKET NUMB
 UNIT.                     N/A:  LOGGING EQUIPMENT ID
 MDS .        Operator Entered:  MAG DATA SOURCE
 CNTY.                        :  COUNTY
 LOC .                        :  LOCATION
 LMF .             Drill Floor:  LOG MEASURED FROM
 TVDS.m                  43.00:  TVDSS CORRECTN
 LATI.deg                40.13:  LATITUDE
 LONG.deg                51.22:  LONGITUDE
 WHNS.m                   7.72:  WELL HEAD N/S
 WHEW.m                 -14.24:  WELL HEAD E/W
 UTMX.m              519005.06:  UTM X
 UTMY.m             4443793.85:  UTM Y
 DFWL.m                   0.00:  DISTANCE FWL
 DFSL.m                   0.00:  DISTANCE FSL
 SDEP.m                 347.00:  START DEPTH
 TDD .m                 581.00:  TOTAL DEPTH (DRILLER)
 VSDR.deg               159.72:  VERT SEC DIRECT
 GVFD.g                   1.00:  GRAVITY FIELD
 MFLD.nT              50318.00:  MAGNETIC FIELD
 MDIP.deg                59.57:  MAGNETIC DIP
 MDEC.deg                 6.44:  MAGNETIC DECL
 GRDC.deg                 0.15:  GRID CORRECTION
 AZTC.deg                 6.29:  AZM TOTAL CORR
 EPD .m                   0.00:  ELEVATION
 EGL .m                   0.00:  GROUND ELEVATION
 WDMS.m                 169.80:  WD ELEV
 APD .m                  43.00:  DEPTH ABOVE PD
 AGAP.m                  43.00:  AIR GAP
 VSEW.m                 -14.24:  VERT SEC E/W
 VSNS.m                   7.72:  VERT SEC N/S
 DEP .m                 342.45:  DEPTH
 EKB .m                   0.00:  KB ELEVATION
 EDF .m                  43.00:  DF ELEVATION
 TDL .m                 237.00:  TOTAL DEPTH (LOGGER)
 VSC .                       0:  VS TO CLOSURE
 MAGU.                 1851428:  MAGUTM CHECKSUM
~Parameter Information Block
#MNEM.UNIT       Value        Description
#---------     -----------    ---------------------------
 AV  .mps                 1.50:  Ann Velocity 
 AVMX.mps                 2.90:  Max Ann Veloc 
 AZIF.deg               115.59:  Azm, Final 
 BHAT.        Rotary Steerable:  BHA Type 
 BROT.°/30m               0.50:  Build Rotating 
 BS  .in                  8.50:  Bit Size 
 BTPL.psig              580.00:  Bit Press Loss 
 CABU.                     Yes:  Customer Abuse 
 COMM.                     ì©q:  Run Comments 1 
 TCS .hr                 89.79:  Time Ciculation Ended 
 CV  .mps                 3.22:  Crit Velocity 
 CVMX.mps                 4.37:  Max Crit Veloc 
 DD1 .          Rashad Habibov:  Direct Drillr 1 
 DDSV.               Geo-Pilot:  DD Service 
 DEFF.%                  95.00:  % Det Eff 
 DLRX.°/30m               1.94:  Dogleg Rot Max 
 DLSO.°/30m               0.70:  Dogleg Oriented 
 DLSX.°/30m               1.94:  Dogleg Str Max 
 DRET.      04.45.00 25-Dec-20:  Drill End Time 
 DRST.      10.00.00 24-Dec-20:  Drill Start Tim 
 DTIM.hr                 16.64:  Time Drilling 
 EDEP.m                4999.01:  End Depth 
 ENG1.         Elchin Mammadov:  Engineer 1 
 ENG2.          Ruslan Safarov:  Engineer 2 
 ENG3.          Rustam Safarov:  Engineer 3 
 ETIM.      09.00.00 29-Dec-20:  End Time 
 FLOI.gpm               500.00:  Flow In 
 FLON.gpm               400.00:  Flow In Min 
 FLOS.cptm                0.00:  Fluid Loss 
 FLOX.gpm               500.00:  Flow In Max 
 HFLO.                      No:  High Flow 
 HPRE.                      No:  High Pressure 
 HTEM.                      No:  High Temp 
 HYDO.m                   2.00:  Hydro Offset 
 IFIN.deg                66.79:  Inc, Final 
 IMAX.deg                67.66:  Inc Max 
 IMIN.deg                66.39:  Inc Min 
 IMND.m                4949.37:  Inc Min Depth 
 IMXD.m                4778.63:  Inc Max Depth 
 JARR.                     Yes:  Jarring 
 LETM.      04.45.00 25-Dec-20:  Log End Time 
 LOST.hr                     0:  Lost Rig Time 
 LSTM.      10.00.00 24-Dec-20:  Log Start Time 
 MDCL.ppm             39000.00:  Mud Chlorides 
 MDES.     Inversion Oil/Synthetic:  Mud Desc 
 DFD .sg                  1.33:  Mud Density 
 MDMN.sg                  1.33:  Dens Mud Min 
 MDMX.sg                  1.33:  Dens Mud Max 
 MOIL.                      70:  Run Mud Oil % 
 MOWR.                   70:30:  Run Mud OWR 
 MSND.                       0:  Run Mud Sand % 
 MSOL.                    17.4:  Run Mud Solids% 
 DFV .spqt               84.00:  Mud Viscosity 
 MWOD.in                  6.75:  MWD Tool OD 
 MWSI.                     Yes:  Serv Intrp, MWD 
 OTIM.hr                168.14:  Time Operating 
 PCON.           Look Like New:  Pad Condition 
 PMAX.psia            10822.93:  Press Op, Max 
 PV  .cP                 30.00:  Mud PV 
 RUN .                     900:  Run Number 
 ROPA.m/hr               18.00:  ROP Avg 
 ROPN.m/hr               12.00:  ROP Min 
 ROPX.m/hr               25.00:  ROP Max 
 RPMA.rpm               120.00:  RPM Surface Avg 
 RPMN.rpm               100.00:  RPM Surface Min 
 RPMX.rpm               120.00:  RPM Surface Max 
 RRUN.                    0900:  Rig Run Number 
 SAZI.deg               115.08:  Azm, Start 
 SDEP.m                4762.01:  Start Depth 
 SIDD.                      No:  Serv Intrp, DD 
 SINC.deg                66.14:  Inc, Start 
 SPPA.psig             3700.00:  SPP Avg 
 SPPN.psig             3620.00:  SPP Min 
 SPPX.psig             3900.00:  SPP Max 
 STIM.      09.30.00 22-Dec-20:  Start Time 
 SVCS.                 DD, MWD:  Services 
 SVER.                    9.20:  Sperry Version 
 TDAT.m                 237.00:  Tot Depth Attmp 
 TDDF.                      No:  Trip for DD 
 TDLG.m                 237.00:  Tot Depth Loggd 
 TFF .                      No:  Trip for Fail 
 TQAA.f-kp               18.00:  Torque Abs Avg 
 TQAN.f-kp               17.00:  Torque Abs Min 
 TQAX.f-kp               20.00:  Torque Abs Max 
 TRRT.°/30m               0.60:  Turn Rotating 
 MRT .                    HCIM:  Maximum Recorded Temperature 
 TTMX.degC               94.12:  Max Tool Temp 
 VS01.                90627809:  Virtual Str1 SN 
 VS02.                90527813:  Virtual Str2 SN 
 VS03.                90545417:  Virtual Str3 SN 
 VS04.                12460870:  Virtual Str4 SN 
 VS05.                90516706:  Virtual Str5 SN 
 VS06.                90632007:  Virtual Str6 SN 
 WBMN.klb                 0.00:  WOB Min 
 WOBA.klb                14.00:  WOB Avg 
 WOBX.klb                25.00:  WOB Max 
 YP  .lhf2               32.00:  Yield Point 
~Curve Information Block
#MNEM.UNIT                 API CODE     Curve Description
#---------               -----------    ---------------------------
 TIME.HHMMSS            00 000 000 000:  GT Time & Date
 GTDEPTH.m              00 000 000 000:  GT Depth
 GTPQH.psia             00 000 000 000:  GT HR Quartz Pressure
 GTTQ.degC              00 000 000 000:  GT Quartz Temperature
 GTTN.NONE              00 000 000 000:  GT Test Number
 GTET.sec               00 000 000 000:  GT Elapsed Test Time
 GTTVD.m                00 000 000 000:  GT True Vertical Depth
#Other Information
#
#WARRANTY: Halliburton will use its best efforts to furnish customers with 
#accurate information and interpretations that are part of, and incident to, the services 
#provided.  However, Halliburton cannot and does not warrant the accuracy 
#or correctness of such information and interpretations.  Under no circumstances should any 
#such information or interpretation be relied upon as the sole basis for any drilling, 
#completion, production, or financial decision or any procedure involving any risk to the 
#safety of any drilling venture, drilling rig or its crew or any other third party.  The 
#Customer has full responsibility for all drilling, completion and production operation.  
#Halliburton makes no representations or warranties, either expressed or 
#implied, including, but not limited to, the implied warranties of merchantability or fitness 
#for a particular purpose, with respect to the services rendered.  In no event will 
#Halliburton be liable for failure to obtain any particular results or for 
#any damages, including, but not limited to, indirect, special or consequential damages, 
#resulting from the use of any information or interpretation provided by Halliburton.
#
~A           TIME           GTDEPTH  GTPQH  GTTQ  GTTN  GTET   GTTVD  
# ...
   14:04:03.000.25-Dec-2020 4920.01 2664.73 65.70 3.00 299.00 2546.09
   14:04:03.200.25-Dec-2020 4920.01 2664.73 65.70 3.00 299.20 2546.09
   14:04:03.400.25-Dec-2020 4920.01 2664.56 65.70 3.00 299.40 2546.09
   14:04:03.600.25-Dec-2020 4920.01 2665.24 65.70 3.00 299.60 2546.09
   14:04:03.800.25-Dec-2020 4920.01 2664.68 65.70 3.00 299.80 2546.09
   14:04:04.000.25-Dec-2020 4920.01 2664.52 65.70 3.00 300.00 2546.09
   14:04:04.200.25-Dec-2020 4920.01 2665.28 65.70 3.00 300.20 2546.09
   14:04:04.400.25-Dec-2020 4920.01 2664.65 65.70 3.00 300.40 2546.09
   14:04:04.600.25-Dec-2020 4920.01 2664.72 65.70 3.00 300.60 2546.09
   14:04:04.800.25-Dec-2020 4920.01 2664.76 65.70 3.00 300.80 2546.09
   14:04:05.000.25-Dec-2020 4920.01 2664.76 65.70 3.00 301.00 2546.09
   14:04:05.200.25-Dec-2020 4920.01 2664.76 65.70 3.00 301.20 2546.09
   14:04:05.400.25-Dec-2020 4920.01 2664.76 65.70 3.00 301.40 2546.09
   14:04:05.600.25-Dec-2020 4920.01 2664.75 65.70 3.00 301.60 2546.09
   14:04:05.800.25-Dec-2020 4920.01 2664.77 65.70 3.00 301.80 2546.09
   14:04:06.000.25-Dec-2020 4920.01 2664.77 65.70 3.00 302.00 2546.09
   14:04:06.200.25-Dec-2020 4920.01 2664.77 65.70 3.00 302.20 2546.09
   14:04:06.400.25-Dec-2020 4920.01 2664.78 65.70 3.00 302.40 2546.09
   14:04:06.600.25-Dec-2020 4920.01 2664.73 65.70 3.00 302.60 2546.09
   14:04:06.800.25-Dec-2020 4920.01 2664.90 65.70 3.00 302.80 2546.09
   14:04:07.000.25-Dec-2020 4920.01 2664.77 65.70 3.00 303.00 2546.09
   14:04:07.200.25-Dec-2020 4920.01 2664.82 65.70 3.00 303.20 2546.09
   14:04:07.400.25-Dec-2020 4920.01 2664.77 65.70 3.00 303.40 2546.09
   14:04:07.600.25-Dec-2020 4920.01 2664.75 65.70 3.00 303.60 2546.09
   14:04:07.800.25-Dec-2020 4920.01 2664.79 65.70 3.00 303.80 2546.09
   14:04:08.000.25-Dec-2020 4920.01 2664.77 65.70 3.00 304.00 2546.09
   14:04:08.200.25-Dec-2020 4920.01 2664.77 65.70 3.00 304.20 2546.09
   14:04:08.400.25-Dec-2020 4920.01 2664.80 65.69 3.00 304.40 2546.09
   14:04:08.600.25-Dec-2020 4920.01 2664.79 65.69 3.00 304.60 2546.09
   14:04:08.800.25-Dec-2020 4920.01 2664.77 65.69 3.00 304.80 2546.09
   14:04:09.000.25-Dec-2020 4920.01 2664.55 65.69 3.00 305.00 2546.09
   14:04:09.200.25-Dec-2020 4920.01 2664.55 65.69 3.00 305.20 2546.09
   14:04:09.400.25-Dec-2020 4920.01 2664.69 65.69 3.00 305.40 2546.09
   14:04:09.600.25-Dec-2020 4920.01 2664.73 65.69 3.00 305.60 2546.09
   14:04:09.800.25-Dec-2020 4920.01 2664.78 65.69 3.00 305.80 2546.09
   14:04:10.000.25-Dec-2020 4920.01 2664.88 65.69 3.00 306.00 2546.09
   14:04:10.200.25-Dec-2020 4920.01 2664.88 65.69 3.00 306.20 2546.09
   14:04:10.400.25-Dec-2020 4920.01 2664.76 65.69 3.00 306.40 2546.09
   14:04:10.600.25-Dec-2020 4920.01 2664.53 65.69 3.00 306.60 2546.09
   14:04:10.800.25-Dec-2020 4920.01 2665.26 65.69 3.00 306.80 2546.09
   14:04:11.000.25-Dec-2020 4920.01 2664.68 65.69 3.00 307.00 2546.09
   14:04:11.200.25-Dec-2020 4920.01 2664.53 65.69 3.00 307.20 2546.09
   14:04:11.400.25-Dec-2020 4920.01 2665.26 65.69 3.00 307.40 2546.09
   14:04:11.600.25-Dec-2020 4920.01 2664.64 65.69 3.00 307.60 2546.09
   14:04:11.800.25-Dec-2020 4920.01 2664.72 65.69 3.00 307.80 2546.09
   14:04:12.000.25-Dec-2020 4920.01 2664.74 65.69 3.00 308.00 2546.09
   14:04:12.200.25-Dec-2020 4920.01 2664.75 65.69 3.00 308.20 2546.09
   14:04:12.400.25-Dec-2020 4920.01 2664.77 65.69 3.00 308.40 2546.09
   14:04:12.600.25-Dec-2020 4920.01 2664.76 65.69 3.00 308.60 2546.09
   14:04:12.800.25-Dec-2020 4920.01 2664.77 65.69 3.00 308.80 2546.09
   14:04:13.000.25-Dec-2020 4920.01 2664.76 65.69 3.00 309.00 2546.09
   14:04:13.200.25-Dec-2020 4920.01 2664.76 65.69 3.00 309.20 2546.09
   14:04:13.400.25-Dec-2020 4920.01 2664.78 65.69 3.00 309.40 2546.09
   14:04:13.600.25-Dec-2020 4920.01 2664.77 65.69 3.00 309.60 2546.09
   14:04:13.800.25-Dec-2020 4920.01 2664.74 65.69 3.00 309.80 2546.09
   14:04:14.000.25-Dec-2020 4920.01 2664.91 65.69 3.00 310.00 2546.09
   14:04:14.200.25-Dec-2020 4920.01 2664.91 65.69 3.00 310.20 2546.09
   14:04:14.400.25-Dec-2020 4920.01 2664.81 65.69 3.00 310.40 2546.09
   14:04:14.600.25-Dec-2020 4920.01 2664.75 65.69 3.00 310.60 2546.09
   14:04:14.800.25-Dec-2020 4920.01 2664.77 65.69 3.00 310.80 2546.09
   14:04:15.000.25-Dec-2020 4920.01 2664.79 65.69 3.00 311.00 2546.09
   14:04:15.200.25-Dec-2020 4920.01 2664.76 65.69 3.00 311.20 2546.09
   14:04:15.400.25-Dec-2020 4920.01 2664.79 65.69 3.00 311.40 2546.09
   14:04:15.600.25-Dec-2020 4920.01 2664.80 65.69 3.00 311.60 2546.09
   14:04:15.800.25-Dec-2020 4920.01 2664.78 65.69 3.00 311.80 2546.09
   14:04:16.000.25-Dec-2020 4920.01 2664.77 65.69 3.00 312.00 2546.09
   14:04:16.200.25-Dec-2020 4920.01 2664.56 65.69 3.00 312.20 2546.09
   14:04:16.400.25-Dec-2020 4920.01 2665.27 65.69 3.00 312.40 2546.09
   14:04:16.600.25-Dec-2020 4920.01 2664.67 65.69 3.00 312.60 2546.09
   14:04:16.800.25-Dec-2020 4920.01 2664.75 65.69 3.00 312.80 2546.09
   14:04:17.000.25-Dec-2020 4920.01 2664.78 65.69 3.00 313.00 2546.09
   14:04:17.200.25-Dec-2020 4920.01 2664.78 65.69 3.00 313.20 2546.09
   14:04:17.400.25-Dec-2020 4920.01 2664.76 65.69 3.00 313.40 2546.09
   14:04:17.600.25-Dec-2020 4920.01 2664.75 65.69 3.00 313.60 2546.09
   14:04:17.800.25-Dec-2020 4920.01 2664.56 65.69 3.00 313.80 2546.09
   14:04:18.000.25-Dec-2020 4920.01 2665.27 65.69 3.00 314.00 2546.09
   14:04:18.200.25-Dec-2020 4920.01 2665.27 65.69 3.00 314.20 2546.09
   14:04:18.400.25-Dec-2020 4920.01 2664.56 65.69 3.00 314.40 2546.09
   14:04:18.600.25-Dec-2020 4920.01 2665.25 65.69 3.00 314.60 2546.09
   14:04:18.800.25-Dec-2020 4920.01 2664.65 65.69 3.00 314.80 2546.09
   14:04:19.000.25-Dec-2020 4920.01 2664.73 65.69 3.00 315.00 2546.09
   14:04:19.200.25-Dec-2020 4920.01 2664.68 65.69 3.00 315.20 2546.09
   14:04:19.400.25-Dec-2020 4920.01 2629.69 65.69 3.00 315.40 2546.09
   14:04:19.600.25-Dec-2020 4920.01 2503.34 65.69 3.00 315.60 2546.09
   14:04:19.800.25-Dec-2020 4920.01 2460.28 65.69 3.00 315.80 2546.09
   14:04:20.000.25-Dec-2020 4920.01 2461.64 65.69 3.00 316.00 2546.09
   14:04:20.200.25-Dec-2020 4920.01 2461.64 65.69 3.00 316.20 2546.09
   14:04:20.400.25-Dec-2020 4920.01 2471.89 65.69 3.00 316.40 2546.09
   14:04:20.600.25-Dec-2020 4920.01 2470.35 65.69 3.00 316.60 2546.09
   14:04:20.800.25-Dec-2020 4920.01 2476.24 65.69 3.00 316.80 2546.09
   14:04:21.000.25-Dec-2020 4920.01 2477.36 65.69 3.00 317.00 2546.09
   14:04:21.200.25-Dec-2020 4920.01 2477.36 65.69 3.00 317.20 2546.09
   14:04:21.400.25-Dec-2020 4920.01 2488.54 65.69 3.00 317.40 2546.09
   14:04:21.600.25-Dec-2020 4920.01 2487.22 65.69 3.00 317.60 2546.09
   14:04:21.800.25-Dec-2020 4920.01 2485.57 65.69 3.00 317.80 2546.09
   14:04:22.000.25-Dec-2020 4920.01 2496.97 65.69 3.00 318.00 2546.09
   14:04:22.200.25-Dec-2020 4920.01 2496.97 65.69 3.00 318.20 2546.09
   14:04:22.400.25-Dec-2020 4920.01 2500.26 65.69 3.00 318.40 2546.09
   14:04:22.600.25-Dec-2020 4920.01 2499.22 65.69 3.00 318.60 2546.09
   14:04:22.800.25-Dec-2020 4920.01 2497.72 65.69 3.00 318.80 2546.09
   14:04:23.000.25-Dec-2020 4920.01 2498.47 65.69 3.00 319.00 2546.09
   14:04:23.200.25-Dec-2020 4920.01 2494.15 65.69 3.00 319.20 2546.09
   14:04:23.400.25-Dec-2020 4920.01 2494.21 65.69 3.00 319.40 2546.09
   14:04:23.600.25-Dec-2020 4920.01 2497.42 65.69 3.00 319.60 2546.09
   14:04:23.800.25-Dec-2020 4920.01 2495.86 65.69 3.00 319.80 2546.09
   14:04:24.000.25-Dec-2020 4920.01 2496.71 65.69 3.00 320.00 2546.09
   14:04:24.200.25-Dec-2020 4920.01 2497.67 65.69 3.00 320.20 2546.09
   14:04:24.400.25-Dec-2020 4920.01 2495.15 65.69 3.00 320.40 2546.09
   14:04:24.600.25-Dec-2020 4920.01 2498.48 65.69 3.00 320.60 2546.09
   14:04:24.800.25-Dec-2020 4920.01 2496.59 65.69 3.00 320.80 2546.09
   14:04:25.000.25-Dec-2020 4920.01 2497.47 65.69 3.00 321.00 2546.09
   14:04:25.200.25-Dec-2020 4920.01 2497.47 65.69 3.00 321.20 2546.09
   14:04:25.400.25-Dec-2020 4920.01 2504.06 65.69 3.00 321.40 2546.09
   14:04:25.600.25-Dec-2020 4920.01 2501.22 65.69 3.00 321.60 2546.09
   14:04:25.800.25-Dec-2020 4920.01 2499.74 65.69 3.00 321.80 2546.09
