~Version Information
 VERS.                  2.0:   CWLS log ASCII Standard -VERSION 2.0
 WRAP.                   NO:   One line per depth step
~Well Information Block
#MNEM.UNIT     VALUE/NAME     DESCRIPTION
#---------     -----------    ---------------------------
 STRT.S             21:28:23 25-Dec-20: START TIME 21:28:23 25-Dec-20
 STOP.S             21:36:48 25-Dec-20: STOP TIME  21:36:48 25-Dec-20
 STEP.S                   0.00: STEP TIME
 NULL.                 -999.25: NULL VALUE
 DFWT.                        :  DIST FWL TEXT
 DFST.                        :  DIST FSL TEXT
 DMF .             Drill Floor:  DRILL MEAS FROM
 STIM.      04.54.24 22-Sep-20:  START TIME
 DATE.      04.54.24 21-Nov-20:  END TIME
 SPUD.               21-Nov-20:  SPUD DATE
 NREF.                    Grid:  NORTH REFERENCE
 HPTY.       Minimum Curvature:  HOLE POS TYPE
 DMOD.             Drill Model:  DRILL MOD DESC
 SVYD.                  Survey:  SURVEY DESC
 ILTD.               Lithology:  INTERP LTH DESC
 FTOP.          Formation Tops:  FORM TOPS DESC
 SON .        AZ-XX-0906571587:  JOB NUMBER
 COMP.     BP Exploration (Caspian Sea) Ltd:  COMPANY
 UWI .                     N/A:  UNIQUE WELL IDENTIFIER
 API .                     N/A:  API NUMBER
 BASE.              Azerbaijan:  LOGGING EQUIPMENT BASE LOCATION
 REGN.                   EESSA:  REGION
 PROV.                    Baku:  PROVINCE
 STAT.                    Baku:  STATE NAME
 CTRY.              Azerbaijan:  COUNTRY NAME
 FLD .                     ACG:  FIELD NAME
 SRVC.     TURAN Drilling & Engineering:  CONTRACTOR
 WELL.                     J27:  WELL NAME
 RIG .             West Chirag:  RIG NAME
 DOE .                     N/A:  DOE NUMBER
 DCON.         Sperry Drilling:  DIRECTNL CONTR
 PDAT.          Mean Sea Level:  PERMANENT DATUM
 WTYP.                Deviated:  WELL TYPE
 MWDS.                    Baku:  MWD SHOP
 JOBN.        AZ-XX-0906571587:  JOB TICKET NUMB
 UNIT.                     N/A:  LOGGING EQUIPMENT ID
 MDS .        Operator Entered:  MAG DATA SOURCE
 CNTY.                        :  COUNTY
 LOC .                        :  LOCATION
 LMF .             Drill Floor:  LOG MEASURED FROM
 TVDS.m                  43.00:  TVDSS CORRECTN
 LATI.deg                40.13:  LATITUDE
 LONG.deg                51.22:  LONGITUDE
 WHNS.m                   7.72:  WELL HEAD N/S
 WHEW.m                 -14.24:  WELL HEAD E/W
 UTMX.m              519005.06:  UTM X
 UTMY.m             4443793.85:  UTM Y
 DFWL.m                   0.00:  DISTANCE FWL
 DFSL.m                   0.00:  DISTANCE FSL
 SDEP.m                 347.00:  START DEPTH
 TDD .m                 581.00:  TOTAL DEPTH (DRILLER)
 VSDR.deg               159.72:  VERT SEC DIRECT
 GVFD.g                   1.00:  GRAVITY FIELD
 MFLD.nT              50318.00:  MAGNETIC FIELD
 MDIP.deg                59.57:  MAGNETIC DIP
 MDEC.deg                 6.44:  MAGNETIC DECL
 GRDC.deg                 0.15:  GRID CORRECTION
 AZTC.deg                 6.29:  AZM TOTAL CORR
 EPD .m                   0.00:  ELEVATION
 EGL .m                   0.00:  GROUND ELEVATION
 WDMS.m                 169.80:  WD ELEV
 APD .m                  43.00:  DEPTH ABOVE PD
 AGAP.m                  43.00:  AIR GAP
 VSEW.m                 -14.24:  VERT SEC E/W
 VSNS.m                   7.72:  VERT SEC N/S
 DEP .m                 342.45:  DEPTH
 EKB .m                   0.00:  KB ELEVATION
 EDF .m                  43.00:  DF ELEVATION
 TDL .m                 237.00:  TOTAL DEPTH (LOGGER)
 VSC .                       0:  VS TO CLOSURE
 MAGU.                 1851428:  MAGUTM CHECKSUM
~Parameter Information Block
#MNEM.UNIT       Value        Description
#---------     -----------    ---------------------------
 AV  .mps                 1.50:  Ann Velocity 
 AVMX.mps                 2.90:  Max Ann Veloc 
 AZIF.deg               115.59:  Azm, Final 
 BHAT.        Rotary Steerable:  BHA Type 
 BROT.°/30m               0.50:  Build Rotating 
 BS  .in                  8.50:  Bit Size 
 BTPL.psig              580.00:  Bit Press Loss 
 CABU.                     Yes:  Customer Abuse 
 COMM.                     Üc{:  Run Comments 1 
 TCS .hr                 89.79:  Time Ciculation Ended 
 CV  .mps                 3.22:  Crit Velocity 
 CVMX.mps                 4.37:  Max Crit Veloc 
 DD1 .          Rashad Habibov:  Direct Drillr 1 
 DDSV.               Geo-Pilot:  DD Service 
 DEFF.%                  95.00:  % Det Eff 
 DLRX.°/30m               1.94:  Dogleg Rot Max 
 DLSO.°/30m               0.70:  Dogleg Oriented 
 DLSX.°/30m               1.94:  Dogleg Str Max 
 DRET.      04.45.00 25-Dec-20:  Drill End Time 
 DRST.      10.00.00 24-Dec-20:  Drill Start Tim 
 DTIM.hr                 16.64:  Time Drilling 
 EDEP.m                4999.01:  End Depth 
 ENG1.         Elchin Mammadov:  Engineer 1 
 ENG2.          Ruslan Safarov:  Engineer 2 
 ENG3.          Rustam Safarov:  Engineer 3 
 ETIM.      09.00.00 29-Dec-20:  End Time 
 FLOI.gpm               500.00:  Flow In 
 FLON.gpm               400.00:  Flow In Min 
 FLOS.cptm                0.00:  Fluid Loss 
 FLOX.gpm               500.00:  Flow In Max 
 HFLO.                      No:  High Flow 
 HPRE.                      No:  High Pressure 
 HTEM.                      No:  High Temp 
 HYDO.m                   2.00:  Hydro Offset 
 IFIN.deg                66.79:  Inc, Final 
 IMAX.deg                67.66:  Inc Max 
 IMIN.deg                66.39:  Inc Min 
 IMND.m                4949.37:  Inc Min Depth 
 IMXD.m                4778.63:  Inc Max Depth 
 JARR.                     Yes:  Jarring 
 LETM.      04.45.00 25-Dec-20:  Log End Time 
 LOST.hr                     0:  Lost Rig Time 
 LSTM.      10.00.00 24-Dec-20:  Log Start Time 
 MDCL.ppm             39000.00:  Mud Chlorides 
 MDES.     Inversion Oil/Synthetic:  Mud Desc 
 DFD .sg                  1.33:  Mud Density 
 MDMN.sg                  1.33:  Dens Mud Min 
 MDMX.sg                  1.33:  Dens Mud Max 
 MOIL.                      70:  Run Mud Oil % 
 MOWR.                   70:30:  Run Mud OWR 
 MSND.                       0:  Run Mud Sand % 
 MSOL.                    17.4:  Run Mud Solids% 
 DFV .spqt               84.00:  Mud Viscosity 
 MWOD.in                  6.75:  MWD Tool OD 
 MWSI.                     Yes:  Serv Intrp, MWD 
 OTIM.hr                168.14:  Time Operating 
 PCON.           Look Like New:  Pad Condition 
 PMAX.psia            10822.93:  Press Op, Max 
 PV  .cP                 30.00:  Mud PV 
 RUN .                     900:  Run Number 
 ROPA.m/hr               18.00:  ROP Avg 
 ROPN.m/hr               12.00:  ROP Min 
 ROPX.m/hr               25.00:  ROP Max 
 RPMA.rpm               120.00:  RPM Surface Avg 
 RPMN.rpm               100.00:  RPM Surface Min 
 RPMX.rpm               120.00:  RPM Surface Max 
 RRUN.                    0900:  Rig Run Number 
 SAZI.deg               115.08:  Azm, Start 
 SDEP.m                4762.01:  Start Depth 
 SIDD.                      No:  Serv Intrp, DD 
 SINC.deg                66.14:  Inc, Start 
 SPPA.psig             3700.00:  SPP Avg 
 SPPN.psig             3620.00:  SPP Min 
 SPPX.psig             3900.00:  SPP Max 
 STIM.      09.30.00 22-Dec-20:  Start Time 
 SVCS.                 DD, MWD:  Services 
 SVER.                    9.20:  Sperry Version 
 TDAT.m                 237.00:  Tot Depth Attmp 
 TDDF.                      No:  Trip for DD 
 TDLG.m                 237.00:  Tot Depth Loggd 
 TFF .                      No:  Trip for Fail 
 TQAA.f-kp               18.00:  Torque Abs Avg 
 TQAN.f-kp               17.00:  Torque Abs Min 
 TQAX.f-kp               20.00:  Torque Abs Max 
 TRRT.°/30m               0.60:  Turn Rotating 
 MRT .                    HCIM:  Maximum Recorded Temperature 
 TTMX.degC               94.12:  Max Tool Temp 
 VS01.                90627809:  Virtual Str1 SN 
 VS02.                90527813:  Virtual Str2 SN 
 VS03.                90545417:  Virtual Str3 SN 
 VS04.                12460870:  Virtual Str4 SN 
 VS05.                90516706:  Virtual Str5 SN 
 VS06.                90632007:  Virtual Str6 SN 
 WBMN.klb                 0.00:  WOB Min 
 WOBA.klb                14.00:  WOB Avg 
 WOBX.klb                25.00:  WOB Max 
 YP  .lhf2               32.00:  Yield Point 
~Curve Information Block
#MNEM.UNIT                 API CODE     Curve Description
#---------               -----------    ---------------------------
 TIME.HHMMSS            00 000 000 000:  GT Time & Date
 GTDEPTH.m              00 000 000 000:  GT Depth
 GTPQH.psia             00 000 000 000:  GT HR Quartz Pressure
 GTTQ.degC              00 000 000 000:  GT Quartz Temperature
 GTTN.NONE              00 000 000 000:  GT Test Number
 GTET.sec               00 000 000 000:  GT Elapsed Test Time
 GTTVD.m                00 000 000 000:  GT True Vertical Depth
#Other Information
#
#WARRANTY: Halliburton will use its best efforts to furnish customers with 
#accurate information and interpretations that are part of, and incident to, the services 
#provided.  However, Halliburton cannot and does not warrant the accuracy 
#or correctness of such information and interpretations.  Under no circumstances should any 
#such information or interpretation be relied upon as the sole basis for any drilling, 
#completion, production, or financial decision or any procedure involving any risk to the 
#safety of any drilling venture, drilling rig or its crew or any other third party.  The 
#Customer has full responsibility for all drilling, completion and production operation.  
#Halliburton makes no representations or warranties, either expressed or 
#implied, including, but not limited to, the implied warranties of merchantability or fitness 
#for a particular purpose, with respect to the services rendered.  In no event will 
#Halliburton be liable for failure to obtain any particular results or for 
#any damages, including, but not limited to, indirect, special or consequential damages, 
#resulting from the use of any information or interpretation provided by Halliburton.
#
~A           TIME           GTDEPTH  GTPQH  GTTQ  GTTN  GTET   GTTVD  
# ...
   21:34:08.594.25-Dec-2020 4768.01 3233.70 63.80 9.00 344.98 2486.78
   21:34:08.794.25-Dec-2020 4768.01 3233.70 63.80 9.00 345.18 2486.78
   21:34:08.994.25-Dec-2020 4768.01 3233.80 63.80 9.00 345.38 2486.78
   21:34:09.194.25-Dec-2020 4768.01 3234.05 63.80 9.00 345.58 2486.78
   21:34:09.394.25-Dec-2020 4768.01 3234.23 63.80 9.00 345.78 2486.78
   21:34:09.594.25-Dec-2020 4768.01 3234.31 63.80 9.00 345.98 2486.78
   21:34:09.794.25-Dec-2020 4768.01 3234.31 63.80 9.00 346.18 2486.78
   21:34:09.994.25-Dec-2020 4768.01 3234.06 63.80 9.00 346.38 2486.78
   21:34:10.194.25-Dec-2020 4768.01 3235.45 63.80 9.00 346.58 2486.78
   21:34:10.394.25-Dec-2020 4768.01 3234.90 63.80 9.00 346.78 2486.78
   21:34:10.594.25-Dec-2020 4768.01 3235.42 63.80 9.00 346.98 2486.78
   21:34:10.794.25-Dec-2020 4768.01 3235.44 63.80 9.00 347.18 2486.78
   21:34:10.994.25-Dec-2020 4768.01 3235.57 63.80 9.00 347.38 2486.78
   21:34:11.194.25-Dec-2020 4768.01 3235.54 63.80 9.00 347.58 2486.78
   21:34:11.394.25-Dec-2020 4768.01 3235.70 63.80 9.00 347.78 2486.78
   21:34:11.594.25-Dec-2020 4768.01 3235.82 63.80 9.00 347.98 2486.78
   21:34:11.794.25-Dec-2020 4768.01 3235.82 63.80 9.00 348.18 2486.78
   21:34:11.994.25-Dec-2020 4768.01 3236.05 63.80 9.00 348.38 2486.78
   21:34:12.194.25-Dec-2020 4768.01 3236.05 63.80 9.00 348.58 2486.78
   21:34:12.394.25-Dec-2020 4768.01 3236.22 63.80 9.00 348.78 2486.78
   21:34:12.594.25-Dec-2020 4768.01 3235.49 63.80 9.00 348.98 2486.78
   21:34:12.794.25-Dec-2020 4768.01 3235.49 63.80 9.00 349.18 2486.78
   21:34:12.994.25-Dec-2020 4768.01 3236.94 63.80 9.00 349.38 2486.78
   21:34:13.194.25-Dec-2020 4768.01 3236.80 63.80 9.00 349.58 2486.78
   21:34:13.394.25-Dec-2020 4768.01 3236.90 63.80 9.00 349.78 2486.78
   21:34:13.594.25-Dec-2020 4768.01 3237.02 63.80 9.00 349.98 2486.78
   21:34:13.794.25-Dec-2020 4768.01 3237.02 63.80 9.00 350.18 2486.78
   21:34:13.994.25-Dec-2020 4768.01 3237.23 63.80 9.00 350.38 2486.78
   21:34:14.194.25-Dec-2020 4768.01 3237.24 63.80 9.00 350.58 2486.78
   21:34:14.394.25-Dec-2020 4768.01 3237.35 63.80 9.00 350.78 2486.78
   21:34:14.593.25-Dec-2020 4768.01 3237.43 63.80 9.00 350.98 2486.78
   21:34:14.793.25-Dec-2020 4768.01 3237.46 63.80 9.00 351.18 2486.78
   21:34:14.993.25-Dec-2020 4768.01 3236.58 63.80 9.00 351.38 2486.78
   21:34:15.193.25-Dec-2020 4768.01 3238.13 63.80 9.00 351.58 2486.78
   21:34:15.393.25-Dec-2020 4768.01 3237.77 63.80 9.00 351.78 2486.78
   21:34:15.593.25-Dec-2020 4768.01 3238.18 63.80 9.00 351.98 2486.78
   21:34:15.793.25-Dec-2020 4768.01 3238.18 63.80 9.00 352.18 2486.78
   21:34:15.993.25-Dec-2020 4768.01 3237.29 63.80 9.00 352.38 2486.78
   21:34:16.193.25-Dec-2020 4768.01 3238.86 63.80 9.00 352.58 2486.78
   21:34:16.393.25-Dec-2020 4768.01 3238.33 63.80 9.00 352.78 2486.78
   21:34:16.593.25-Dec-2020 4768.01 3238.81 63.80 9.00 352.98 2486.78
   21:34:16.793.25-Dec-2020 4768.01 3238.81 63.80 9.00 353.18 2486.78
   21:34:16.993.25-Dec-2020 4768.01 3239.34 63.80 9.00 353.38 2486.78
   21:34:17.193.25-Dec-2020 4768.01 3238.60 63.80 9.00 353.58 2486.78
   21:34:17.393.25-Dec-2020 4768.01 3239.03 63.80 9.00 353.78 2486.78
   21:34:17.593.25-Dec-2020 4768.01 3239.11 63.80 9.00 353.98 2486.78
   21:34:17.793.25-Dec-2020 4768.01 3239.11 63.80 9.00 354.18 2486.78
   21:34:17.993.25-Dec-2020 4768.01 3239.17 63.80 9.00 354.38 2486.78
   21:34:18.193.25-Dec-2020 4768.01 3239.43 63.80 9.00 354.58 2486.78
   21:34:18.393.25-Dec-2020 4768.01 3239.31 63.80 9.00 354.78 2486.78
   21:34:18.593.25-Dec-2020 4768.01 3239.44 63.80 9.00 354.98 2486.78
   21:34:18.793.25-Dec-2020 4768.01 3239.44 63.80 9.00 355.18 2486.78
   21:34:18.993.25-Dec-2020 4768.01 3239.60 63.80 9.00 355.38 2486.78
   21:34:19.193.25-Dec-2020 4768.01 3239.56 63.80 9.00 355.58 2486.78
   21:34:19.393.25-Dec-2020 4768.01 3239.64 63.80 9.00 355.78 2486.78
   21:34:19.593.25-Dec-2020 4768.01 3239.72 63.80 9.00 355.98 2486.78
   21:34:19.793.25-Dec-2020 4768.01 3239.72 63.80 9.00 356.18 2486.78
   21:34:19.993.25-Dec-2020 4768.01 3239.86 63.80 9.00 356.38 2486.78
   21:34:20.193.25-Dec-2020 4768.01 3238.75 63.80 9.00 356.58 2486.78
   21:34:20.393.25-Dec-2020 4768.01 3240.40 63.80 9.00 356.78 2486.78
   21:34:20.593.25-Dec-2020 4768.01 3239.99 63.80 9.00 356.98 2486.78
   21:34:20.793.25-Dec-2020 4768.01 3239.99 63.80 9.00 357.18 2486.78
   21:34:20.993.25-Dec-2020 4768.01 3240.30 63.80 9.00 357.38 2486.78
   21:34:21.193.25-Dec-2020 4768.01 3240.33 63.80 9.00 357.58 2486.78
   21:34:21.393.25-Dec-2020 4768.01 3240.38 63.80 9.00 357.78 2486.78
   21:34:21.593.25-Dec-2020 4768.01 3240.49 63.80 9.00 357.98 2486.78
   21:34:21.793.25-Dec-2020 4768.01 3240.49 63.80 9.00 358.18 2486.78
   21:34:21.993.25-Dec-2020 4768.01 3240.44 63.80 9.00 358.38 2486.78
   21:34:22.193.25-Dec-2020 4768.01 3240.56 63.80 9.00 358.58 2486.78
   21:34:22.393.25-Dec-2020 4768.01 3240.61 63.80 9.00 358.78 2486.78
   21:34:22.593.25-Dec-2020 4768.01 3240.73 63.80 9.00 358.98 2486.78
   21:34:22.793.25-Dec-2020 4768.01 3239.82 63.80 9.00 359.18 2486.78
   21:34:22.993.25-Dec-2020 4768.01 3241.05 63.80 9.00 359.38 2486.78
   21:34:23.193.25-Dec-2020 4768.01 3240.88 63.80 9.00 359.58 2486.78
   21:34:23.393.25-Dec-2020 4768.01 3241.05 63.80 9.00 359.78 2486.78
   21:34:23.593.25-Dec-2020 4768.01 3241.10 63.80 9.00 359.98 2486.78
   21:34:23.793.25-Dec-2020 4768.01 3241.10 63.80 9.00 360.18 2486.78
   21:34:23.993.25-Dec-2020 4768.01 3241.53 63.80 9.00 360.38 2486.78
   21:34:24.193.25-Dec-2020 4768.01 3241.32 63.80 9.00 360.58 2486.78
   21:34:24.393.25-Dec-2020 4768.01 3240.63 63.80 9.00 360.78 2486.78
   21:34:24.593.25-Dec-2020 4768.01 3241.68 63.80 9.00 360.98 2486.78
   21:34:24.793.25-Dec-2020 4768.01 3241.68 63.80 9.00 361.18 2486.78
   21:34:24.993.25-Dec-2020 4768.01 3241.78 63.79 9.00 361.38 2486.78
   21:34:25.193.25-Dec-2020 4768.01 3241.57 63.79 9.00 361.58 2486.78
   21:34:25.393.25-Dec-2020 4768.01 3240.55 63.79 9.00 361.78 2486.78
   21:34:25.593.25-Dec-2020 4768.01 3242.29 63.79 9.00 361.98 2486.78
   21:34:25.793.25-Dec-2020 4768.01 3241.48 63.79 9.00 362.18 2486.78
   21:34:25.993.25-Dec-2020 4768.01 3241.94 63.79 9.00 362.38 2486.78
   21:34:26.193.25-Dec-2020 4768.01 3241.86 63.79 9.00 362.58 2486.78
   21:34:26.393.25-Dec-2020 4768.01 3241.91 63.79 9.00 362.78 2486.78
   21:34:26.593.25-Dec-2020 4768.01 3242.02 63.79 9.00 362.98 2486.78
   21:34:26.793.25-Dec-2020 4768.01 3241.94 63.79 9.00 363.18 2486.78
   21:34:26.993.25-Dec-2020 4768.01 3242.05 63.79 9.00 363.38 2486.78
   21:34:27.193.25-Dec-2020 4768.01 3242.07 63.79 9.00 363.58 2486.78
   21:34:27.393.25-Dec-2020 4768.01 3242.10 63.79 9.00 363.78 2486.78
   21:34:27.593.25-Dec-2020 4768.01 3242.20 63.79 9.00 363.98 2486.78
   21:34:27.793.25-Dec-2020 4768.01 3242.20 63.79 9.00 364.18 2486.78
   21:34:27.993.25-Dec-2020 4768.01 3241.36 63.79 9.00 364.38 2486.78
   21:34:28.193.25-Dec-2020 4768.01 3242.26 63.79 9.00 364.58 2486.78
   21:34:28.393.25-Dec-2020 4768.01 3242.54 63.79 9.00 364.78 2486.78
   21:34:28.593.25-Dec-2020 4768.01 3242.50 63.79 9.00 364.98 2486.78
   21:34:28.793.25-Dec-2020 4768.01 3242.50 63.79 9.00 365.18 2486.78
   21:34:28.993.25-Dec-2020 4768.01 3242.57 63.79 9.00 365.38 2486.78
   21:34:29.193.25-Dec-2020 4768.01 3242.60 63.79 9.00 365.58 2486.78
   21:34:29.393.25-Dec-2020 4768.01 3242.58 63.79 9.00 365.78 2486.78
   21:34:29.593.25-Dec-2020 4768.01 3242.70 63.79 9.00 365.98 2486.78
   21:34:29.792.25-Dec-2020 4768.01 3242.70 63.79 9.00 366.18 2486.78
   21:34:29.992.25-Dec-2020 4768.01 3242.73 63.79 9.00 366.38 2486.78
   21:34:30.192.25-Dec-2020 4768.01 3242.76 63.79 9.00 366.58 2486.78
   21:34:30.392.25-Dec-2020 4768.01 3241.63 63.79 9.00 366.78 2486.78
   21:34:30.592.25-Dec-2020 4768.01 3243.35 63.79 9.00 366.98 2486.78
   21:34:30.792.25-Dec-2020 4768.01 3242.71 63.79 9.00 367.18 2486.78
   21:34:30.992.25-Dec-2020 4768.01 3243.03 63.79 9.00 367.38 2486.78
   21:34:31.192.25-Dec-2020 4768.01 3243.04 63.79 9.00 367.58 2486.78
   21:34:31.392.25-Dec-2020 4768.01 3243.06 63.79 9.00 367.78 2486.78
