~Version Information
 VERS.                  2.0:   CWLS log ASCII Standard -VERSION 2.0
 WRAP.                   NO:   One line per depth step
~Well Information Block
#MNEM.UNIT     VALUE/NAME     DESCRIPTION
#---------     -----------    ---------------------------
 STRT.S             18:45:29 25-Dec-20: START TIME 18:45:29 25-Dec-20
 STOP.S             18:53:50 25-Dec-20: STOP TIME  18:53:50 25-Dec-20
 STEP.S                   0.00: STEP TIME
 NULL.                 -999.25: NULL VALUE
 DFWT.                        :  DIST FWL TEXT
 DFST.                        :  DIST FSL TEXT
 DMF .             Drill Floor:  DRILL MEAS FROM
 STIM.      04.54.24 22-Sep-20:  START TIME
 DATE.      04.54.24 21-Nov-20:  END TIME
 SPUD.               21-Nov-20:  SPUD DATE
 NREF.                    Grid:  NORTH REFERENCE
 HPTY.       Minimum Curvature:  HOLE POS TYPE
 DMOD.             Drill Model:  DRILL MOD DESC
 SVYD.                  Survey:  SURVEY DESC
 ILTD.               Lithology:  INTERP LTH DESC
 FTOP.          Formation Tops:  FORM TOPS DESC
 SON .        AZ-XX-0906571587:  JOB NUMBER
 COMP.     BP Exploration (Caspian Sea) Ltd:  COMPANY
 UWI .                     N/A:  UNIQUE WELL IDENTIFIER
 API .                     N/A:  API NUMBER
 BASE.              Azerbaijan:  LOGGING EQUIPMENT BASE LOCATION
 REGN.                   EESSA:  REGION
 PROV.                    Baku:  PROVINCE
 STAT.                    Baku:  STATE NAME
 CTRY.              Azerbaijan:  COUNTRY NAME
 FLD .                     ACG:  FIELD NAME
 SRVC.     TURAN Drilling & Engineering:  CONTRACTOR
 WELL.                     J27:  WELL NAME
 RIG .             West Chirag:  RIG NAME
 DOE .                     N/A:  DOE NUMBER
 DCON.         Sperry Drilling:  DIRECTNL CONTR
 PDAT.          Mean Sea Level:  PERMANENT DATUM
 WTYP.                Deviated:  WELL TYPE
 MWDS.                    Baku:  MWD SHOP
 JOBN.        AZ-XX-0906571587:  JOB TICKET NUMB
 UNIT.                     N/A:  LOGGING EQUIPMENT ID
 MDS .        Operator Entered:  MAG DATA SOURCE
 CNTY.                        :  COUNTY
 LOC .                        :  LOCATION
 LMF .             Drill Floor:  LOG MEASURED FROM
 TVDS.m                  43.00:  TVDSS CORRECTN
 LATI.deg                40.13:  LATITUDE
 LONG.deg                51.22:  LONGITUDE
 WHNS.m                   7.72:  WELL HEAD N/S
 WHEW.m                 -14.24:  WELL HEAD E/W
 UTMX.m              519005.06:  UTM X
 UTMY.m             4443793.85:  UTM Y
 DFWL.m                   0.00:  DISTANCE FWL
 DFSL.m                   0.00:  DISTANCE FSL
 SDEP.m                 347.00:  START DEPTH
 TDD .m                 581.00:  TOTAL DEPTH (DRILLER)
 VSDR.deg               159.72:  VERT SEC DIRECT
 GVFD.g                   1.00:  GRAVITY FIELD
 MFLD.nT              50318.00:  MAGNETIC FIELD
 MDIP.deg                59.57:  MAGNETIC DIP
 MDEC.deg                 6.44:  MAGNETIC DECL
 GRDC.deg                 0.15:  GRID CORRECTION
 AZTC.deg                 6.29:  AZM TOTAL CORR
 EPD .m                   0.00:  ELEVATION
 EGL .m                   0.00:  GROUND ELEVATION
 WDMS.m                 169.80:  WD ELEV
 APD .m                  43.00:  DEPTH ABOVE PD
 AGAP.m                  43.00:  AIR GAP
 VSEW.m                 -14.24:  VERT SEC E/W
 VSNS.m                   7.72:  VERT SEC N/S
 DEP .m                 342.45:  DEPTH
 EKB .m                   0.00:  KB ELEVATION
 EDF .m                  43.00:  DF ELEVATION
 TDL .m                 237.00:  TOTAL DEPTH (LOGGER)
 VSC .                       0:  VS TO CLOSURE
 MAGU.                 1851428:  MAGUTM CHECKSUM
~Parameter Information Block
#MNEM.UNIT       Value        Description
#---------     -----------    ---------------------------
 AV  .mps                 1.50:  Ann Velocity 
 AVMX.mps                 2.90:  Max Ann Veloc 
 AZIF.deg               115.59:  Azm, Final 
 BHAT.        Rotary Steerable:  BHA Type 
 BROT.°/30m               0.50:  Build Rotating 
 BS  .in                  8.50:  Bit Size 
 BTPL.psig              580.00:  Bit Press Loss 
 CABU.                     Yes:  Customer Abuse 
 TCS .hr                 89.79:  Time Ciculation Ended 
 CV  .mps                 3.22:  Crit Velocity 
 CVMX.mps                 4.37:  Max Crit Veloc 
 DD1 .          Rashad Habibov:  Direct Drillr 1 
 DDSV.               Geo-Pilot:  DD Service 
 DEFF.%                  95.00:  % Det Eff 
 DLRX.°/30m               1.94:  Dogleg Rot Max 
 DLSO.°/30m               0.70:  Dogleg Oriented 
 DLSX.°/30m               1.94:  Dogleg Str Max 
 DRET.      04.45.00 25-Dec-20:  Drill End Time 
 DRST.      10.00.00 24-Dec-20:  Drill Start Tim 
 DTIM.hr                 16.64:  Time Drilling 
 EDEP.m                4999.01:  End Depth 
 ENG1.         Elchin Mammadov:  Engineer 1 
 ENG2.          Ruslan Safarov:  Engineer 2 
 ENG3.          Rustam Safarov:  Engineer 3 
 ETIM.      09.00.00 29-Dec-20:  End Time 
 FLOI.gpm               500.00:  Flow In 
 FLON.gpm               400.00:  Flow In Min 
 FLOS.cptm                0.00:  Fluid Loss 
 FLOX.gpm               500.00:  Flow In Max 
 HFLO.                      No:  High Flow 
 HPRE.                      No:  High Pressure 
 HTEM.                      No:  High Temp 
 HYDO.m                   2.00:  Hydro Offset 
 IFIN.deg                66.79:  Inc, Final 
 IMAX.deg                67.66:  Inc Max 
 IMIN.deg                66.39:  Inc Min 
 IMND.m                4949.37:  Inc Min Depth 
 IMXD.m                4778.63:  Inc Max Depth 
 JARR.                     Yes:  Jarring 
 LETM.      04.45.00 25-Dec-20:  Log End Time 
 LOST.hr                     0:  Lost Rig Time 
 LSTM.      10.00.00 24-Dec-20:  Log Start Time 
 MDCL.ppm             39000.00:  Mud Chlorides 
 MDES.     Inversion Oil/Synthetic:  Mud Desc 
 DFD .sg                  1.33:  Mud Density 
 MDMN.sg                  1.33:  Dens Mud Min 
 MDMX.sg                  1.33:  Dens Mud Max 
 MOIL.                      70:  Run Mud Oil % 
 MOWR.                   70:30:  Run Mud OWR 
 MSND.                       0:  Run Mud Sand % 
 MSOL.                    17.4:  Run Mud Solids% 
 DFV .spqt               84.00:  Mud Viscosity 
 MWOD.in                  6.75:  MWD Tool OD 
 MWSI.                     Yes:  Serv Intrp, MWD 
 OTIM.hr                168.14:  Time Operating 
 PCON.           Look Like New:  Pad Condition 
 PMAX.psia            10822.93:  Press Op, Max 
 PV  .cP                 30.00:  Mud PV 
 RUN .                     900:  Run Number 
 ROPA.m/hr               18.00:  ROP Avg 
 ROPN.m/hr               12.00:  ROP Min 
 ROPX.m/hr               25.00:  ROP Max 
 RPMA.rpm               120.00:  RPM Surface Avg 
 RPMN.rpm               100.00:  RPM Surface Min 
 RPMX.rpm               120.00:  RPM Surface Max 
 RRUN.                    0900:  Rig Run Number 
 SAZI.deg               115.08:  Azm, Start 
 SDEP.m                4762.01:  Start Depth 
 SIDD.                      No:  Serv Intrp, DD 
 SINC.deg                66.14:  Inc, Start 
 SPPA.psig             3700.00:  SPP Avg 
 SPPN.psig             3620.00:  SPP Min 
 SPPX.psig             3900.00:  SPP Max 
 STIM.      09.30.00 22-Dec-20:  Start Time 
 SVCS.                 DD, MWD:  Services 
 SVER.                    9.20:  Sperry Version 
 TDAT.m                 237.00:  Tot Depth Attmp 
 TDDF.                      No:  Trip for DD 
 TDLG.m                 237.00:  Tot Depth Loggd 
 TFF .                      No:  Trip for Fail 
 TQAA.f-kp               18.00:  Torque Abs Avg 
 TQAN.f-kp               17.00:  Torque Abs Min 
 TQAX.f-kp               20.00:  Torque Abs Max 
 TRRT.°/30m               0.60:  Turn Rotating 
 MRT .                    HCIM:  Maximum Recorded Temperature 
 TTMX.degC               94.12:  Max Tool Temp 
 VS01.                90627809:  Virtual Str1 SN 
 VS02.                90527813:  Virtual Str2 SN 
 VS03.                90545417:  Virtual Str3 SN 
 VS04.                12460870:  Virtual Str4 SN 
 VS05.                90516706:  Virtual Str5 SN 
 VS06.                90632007:  Virtual Str6 SN 
 WBMN.klb                 0.00:  WOB Min 
 WOBA.klb                14.00:  WOB Avg 
 WOBX.klb                25.00:  WOB Max 
 YP  .lhf2               32.00:  Yield Point 
~Curve Information Block
#MNEM.UNIT                 API CODE     Curve Description
#---------               -----------    ---------------------------
 TIME.HHMMSS            00 000 000 000:  GT Time & Date
 GTDEPTH.m              00 000 000 000:  GT Depth
 GTPQH.psia             00 000 000 000:  GT HR Quartz Pressure
 GTTQ.degC              00 000 000 000:  GT Quartz Temperature
 GTTN.NONE              00 000 000 000:  GT Test Number
 GTET.sec               00 000 000 000:  GT Elapsed Test Time
 GTTVD.m                00 000 000 000:  GT True Vertical Depth
#Other Information
#
#WARRANTY: Halliburton will use its best efforts to furnish customers with 
#accurate information and interpretations that are part of, and incident to, the services 
#provided.  However, Halliburton cannot and does not warrant the accuracy 
#or correctness of such information and interpretations.  Under no circumstances should any 
#such information or interpretation be relied upon as the sole basis for any drilling, 
#completion, production, or financial decision or any procedure involving any risk to the 
#safety of any drilling venture, drilling rig or its crew or any other third party.  The 
#Customer has full responsibility for all drilling, completion and production operation.  
#Halliburton makes no representations or warranties, either expressed or 
#implied, including, but not limited to, the implied warranties of merchantability or fitness 
#for a particular purpose, with respect to the services rendered.  In no event will 
#Halliburton be liable for failure to obtain any particular results or for 
#any damages, including, but not limited to, indirect, special or consequential damages, 
#resulting from the use of any information or interpretation provided by Halliburton.
#
~A           TIME           GTDEPTH  GTPQH  GTTQ  GTTN  GTET   GTTVD  
# ...
   18:47:47.973.25-Dec-2020 4831.01 3416.24 64.23 6.00 138.11 2510.98
   18:47:48.173.25-Dec-2020 4831.01 3416.24 64.23 6.00 138.31 2510.98
   18:47:48.374.25-Dec-2020 4831.01 3416.13 64.23 6.00 138.51 2510.98
   18:47:48.574.25-Dec-2020 4831.01 3416.19 64.23 6.00 138.71 2510.98
   18:47:48.774.25-Dec-2020 4831.01 3416.18 64.23 6.00 138.91 2510.98
   18:47:48.974.25-Dec-2020 4831.01 3416.19 64.23 6.00 139.11 2510.98
   18:47:49.174.25-Dec-2020 4831.01 3416.19 64.23 6.00 139.31 2510.98
   18:47:49.374.25-Dec-2020 4831.01 3416.18 64.23 6.00 139.51 2510.98
   18:47:49.574.25-Dec-2020 4831.01 3416.19 64.23 6.00 139.71 2510.98
   18:47:49.775.25-Dec-2020 4831.01 3416.15 64.23 6.00 139.91 2510.98
   18:47:49.975.25-Dec-2020 4831.01 3415.63 64.23 6.00 140.11 2510.98
   18:47:50.175.25-Dec-2020 4831.01 3415.92 64.23 6.00 140.31 2510.98
   18:47:50.375.25-Dec-2020 4831.01 3416.30 64.23 6.00 140.51 2510.98
   18:47:50.575.25-Dec-2020 4831.01 3415.55 64.23 6.00 140.71 2510.98
   18:47:50.775.25-Dec-2020 4831.01 3415.75 64.23 6.00 140.91 2510.98
   18:47:50.976.25-Dec-2020 4831.01 3416.21 64.23 6.00 141.11 2510.98
   18:47:51.176.25-Dec-2020 4831.01 3416.21 64.23 6.00 141.31 2510.98
   18:47:51.376.25-Dec-2020 4831.01 3416.17 64.23 6.00 141.51 2510.98
   18:47:51.576.25-Dec-2020 4831.01 3415.40 64.23 6.00 141.71 2510.98
   18:47:51.776.25-Dec-2020 4831.01 3415.77 64.23 6.00 141.91 2510.98
   18:47:51.976.25-Dec-2020 4831.01 3416.33 64.23 6.00 142.11 2510.98
   18:47:52.177.25-Dec-2020 4831.01 3416.33 64.23 6.00 142.31 2510.98
   18:47:52.377.25-Dec-2020 4831.01 3415.73 64.23 6.00 142.51 2510.98
   18:47:52.577.25-Dec-2020 4831.01 3416.11 64.23 6.00 142.71 2510.98
   18:47:52.777.25-Dec-2020 4831.01 3416.19 64.23 6.00 142.91 2510.98
   18:47:52.977.25-Dec-2020 4831.01 3416.20 64.23 6.00 143.11 2510.98
   18:47:53.177.25-Dec-2020 4831.01 3416.20 64.23 6.00 143.31 2510.98
   18:47:53.377.25-Dec-2020 4831.01 3416.16 64.23 6.00 143.51 2510.98
   18:47:53.578.25-Dec-2020 4831.01 3416.20 64.23 6.00 143.71 2510.98
   18:47:53.778.25-Dec-2020 4831.01 3416.12 64.23 6.00 143.91 2510.98
   18:47:53.978.25-Dec-2020 4831.01 3416.19 64.23 6.00 144.11 2510.98
   18:47:54.178.25-Dec-2020 4831.01 3416.16 64.23 6.00 144.31 2510.98
   18:47:54.378.25-Dec-2020 4831.01 3416.15 64.23 6.00 144.51 2510.98
   18:47:54.578.25-Dec-2020 4831.01 3415.72 64.23 6.00 144.71 2510.98
   18:47:54.779.25-Dec-2020 4831.01 3416.04 64.23 6.00 144.91 2510.98
   18:47:54.979.25-Dec-2020 4831.01 3415.98 64.23 6.00 145.11 2510.98
   18:47:55.179.25-Dec-2020 4831.01 3415.98 64.23 6.00 145.31 2510.98
   18:47:55.379.25-Dec-2020 4831.01 3416.18 64.23 6.00 145.51 2510.98
   18:47:55.579.25-Dec-2020 4831.01 3416.21 64.23 6.00 145.72 2510.98
   18:47:55.779.25-Dec-2020 4831.01 3416.10 64.23 6.00 145.92 2510.98
   18:47:55.980.25-Dec-2020 4831.01 3416.20 64.23 6.00 146.12 2510.98
   18:47:56.180.25-Dec-2020 4831.01 3416.20 64.23 6.00 146.32 2510.98
   18:47:56.380.25-Dec-2020 4831.01 3416.16 64.23 6.00 146.52 2510.98
   18:47:56.580.25-Dec-2020 4831.01 3416.18 64.23 6.00 146.72 2510.98
   18:47:56.780.25-Dec-2020 4831.01 3416.14 64.23 6.00 146.92 2510.98
   18:47:56.980.25-Dec-2020 4831.01 3416.18 64.23 6.00 147.12 2510.98
   18:47:57.180.25-Dec-2020 4831.01 3416.18 64.23 6.00 147.32 2510.98
   18:47:57.381.25-Dec-2020 4831.01 3416.54 64.23 6.00 147.52 2510.98
   18:47:57.581.25-Dec-2020 4831.01 3416.06 64.23 6.00 147.72 2510.98
   18:47:57.781.25-Dec-2020 4831.01 3415.62 64.23 6.00 147.92 2510.98
   18:47:57.981.25-Dec-2020 4831.01 3416.32 64.23 6.00 148.12 2510.98
   18:47:58.181.25-Dec-2020 4831.01 3416.06 64.23 6.00 148.32 2510.98
   18:47:58.381.25-Dec-2020 4831.01 3416.11 64.23 6.00 148.52 2510.98
   18:47:58.582.25-Dec-2020 4831.01 3416.23 64.23 6.00 148.72 2510.98
   18:47:58.782.25-Dec-2020 4831.01 3416.14 64.23 6.00 148.92 2510.98
   18:47:58.982.25-Dec-2020 4831.01 3415.49 64.23 6.00 149.12 2510.98
   18:47:59.182.25-Dec-2020 4831.01 3415.49 64.23 6.00 149.32 2510.98
   18:47:59.382.25-Dec-2020 4831.01 3416.31 64.23 6.00 149.52 2510.98
   18:47:59.582.25-Dec-2020 4831.01 3416.24 64.23 6.00 149.72 2510.98
   18:47:59.783.25-Dec-2020 4831.01 3415.65 64.23 6.00 149.92 2510.98
   18:47:59.983.25-Dec-2020 4831.01 3416.32 64.23 6.00 150.12 2510.98
   18:48:00.183.25-Dec-2020 4831.01 3416.32 64.23 6.00 150.32 2510.98
   18:48:00.383.25-Dec-2020 4831.01 3416.24 64.23 6.00 150.52 2510.98
   18:48:00.583.25-Dec-2020 4831.01 3416.22 64.23 6.00 150.72 2510.98
   18:48:00.783.25-Dec-2020 4831.01 3416.21 64.23 6.00 150.92 2510.98
   18:48:00.983.25-Dec-2020 4831.01 3416.22 64.23 6.00 151.12 2510.98
   18:48:01.184.25-Dec-2020 4831.01 3416.22 64.23 6.00 151.32 2510.98
   18:48:01.384.25-Dec-2020 4831.01 3416.20 64.23 6.00 151.52 2510.98
   18:48:01.584.25-Dec-2020 4831.01 3416.24 64.23 6.00 151.72 2510.98
   18:48:01.784.25-Dec-2020 4831.01 3416.20 64.23 6.00 151.92 2510.98
   18:48:01.984.25-Dec-2020 4831.01 3416.22 64.23 6.00 152.12 2510.98
   18:48:02.184.25-Dec-2020 4831.01 3416.25 64.23 6.00 152.32 2510.98
   18:48:02.385.25-Dec-2020 4831.01 3415.62 64.23 6.00 152.52 2510.98
   18:48:02.585.25-Dec-2020 4831.01 3416.09 64.23 6.00 152.72 2510.98
   18:48:02.785.25-Dec-2020 4831.01 3416.39 64.23 6.00 152.92 2510.98
   18:48:02.985.25-Dec-2020 4831.01 3416.27 64.23 6.00 153.12 2510.98
   18:48:03.185.25-Dec-2020 4831.01 3416.27 64.23 6.00 153.32 2510.98
   18:48:03.385.25-Dec-2020 4831.01 3416.24 64.23 6.00 153.52 2510.98
   18:48:03.586.25-Dec-2020 4831.01 3416.27 64.23 6.00 153.72 2510.98
   18:48:03.786.25-Dec-2020 4831.01 3416.25 64.23 6.00 153.92 2510.98
   18:48:03.986.25-Dec-2020 4831.01 3416.22 64.23 6.00 154.12 2510.98
   18:48:04.186.25-Dec-2020 4831.01 3416.22 64.23 6.00 154.32 2510.98
   18:48:04.386.25-Dec-2020 4831.01 3416.20 64.23 6.00 154.52 2510.98
   18:48:04.586.25-Dec-2020 4831.01 3416.25 64.23 6.00 154.72 2510.98
   18:48:04.786.25-Dec-2020 4831.01 3415.75 64.23 6.00 154.92 2510.98
   18:48:04.987.25-Dec-2020 4831.01 3416.15 64.23 6.00 155.12 2510.98
   18:48:05.187.25-Dec-2020 4831.01 3416.15 64.23 6.00 155.32 2510.98
   18:48:05.387.25-Dec-2020 4831.01 3415.85 64.23 6.00 155.52 2510.98
   18:48:05.587.25-Dec-2020 4831.01 3416.19 64.23 6.00 155.72 2510.98
   18:48:05.787.25-Dec-2020 4831.01 3416.12 64.23 6.00 155.92 2510.98
   18:48:05.987.25-Dec-2020 4831.01 3416.30 64.23 6.00 156.12 2510.98
   18:48:06.188.25-Dec-2020 4831.01 3416.30 64.23 6.00 156.32 2510.98
   18:48:06.388.25-Dec-2020 4831.01 3415.77 64.23 6.00 156.52 2510.98
   18:48:06.588.25-Dec-2020 4831.01 3416.21 64.23 6.00 156.72 2510.98
   18:48:06.788.25-Dec-2020 4831.01 3416.15 64.23 6.00 156.92 2510.98
   18:48:06.988.25-Dec-2020 4831.01 3416.34 64.23 6.00 157.12 2510.98
   18:48:07.188.25-Dec-2020 4831.01 3416.34 64.23 6.00 157.32 2510.98
   18:48:07.389.25-Dec-2020 4831.01 3415.98 64.23 6.00 157.52 2510.98
   18:48:07.589.25-Dec-2020 4831.01 3416.40 64.23 6.00 157.72 2510.98
   18:48:07.789.25-Dec-2020 4831.01 3416.26 64.23 6.00 157.92 2510.98
   18:48:07.989.25-Dec-2020 4831.01 3416.20 64.23 6.00 158.12 2510.98
   18:48:08.189.25-Dec-2020 4831.01 3416.20 64.23 6.00 158.33 2510.98
   18:48:08.389.25-Dec-2020 4831.01 3416.18 64.23 6.00 158.53 2510.98
   18:48:08.590.25-Dec-2020 4831.01 3416.23 64.23 6.00 158.73 2510.98
   18:48:08.790.25-Dec-2020 4831.01 3416.20 64.23 6.00 158.93 2510.98
   18:48:08.990.25-Dec-2020 4831.01 3416.18 64.23 6.00 159.13 2510.98
   18:48:09.190.25-Dec-2020 4831.01 3416.18 64.23 6.00 159.33 2510.98
   18:48:09.390.25-Dec-2020 4831.01 3416.17 64.23 6.00 159.53 2510.98
   18:48:09.590.25-Dec-2020 4831.01 3415.33 64.23 6.00 159.73 2510.98
   18:48:09.790.25-Dec-2020 4831.01 3416.72 64.23 6.00 159.93 2510.98
   18:48:09.991.25-Dec-2020 4831.01 3416.06 64.23 6.00 160.13 2510.98
   18:48:10.191.25-Dec-2020 4831.01 3416.18 64.23 6.00 160.33 2510.98
   18:48:10.391.25-Dec-2020 4831.01 3416.23 64.23 6.00 160.53 2510.98
   18:48:10.591.25-Dec-2020 4831.01 3416.23 64.23 6.00 160.73 2510.98
   18:48:10.791.25-Dec-2020 4831.01 3416.17 64.23 6.00 160.93 2510.98
