~Version Information
 VERS.                  2.0:   CWLS log ASCII Standard -VERSION 2.0
 WRAP.                   NO:   One line per depth step
~Well Information Block
#MNEM.UNIT     VALUE/NAME     DESCRIPTION
#---------     -----------    ---------------------------
 STRT.S             12:53:37 25-Dec-20: START TIME 12:53:37 25-Dec-20
 STOP.S             13:01:52 25-Dec-20: STOP TIME  13:01:52 25-Dec-20
 STEP.S                   0.00: STEP TIME
 NULL.                 -999.25: NULL VALUE
 DFWT.                        :  DIST FWL TEXT
 DFST.                        :  DIST FSL TEXT
 DMF .             Drill Floor:  DRILL MEAS FROM
 STIM.      04.54.24 22-Sep-20:  START TIME
 DATE.      04.54.24 21-Nov-20:  END TIME
 SPUD.               21-Nov-20:  SPUD DATE
 NREF.                    Grid:  NORTH REFERENCE
 HPTY.       Minimum Curvature:  HOLE POS TYPE
 DMOD.             Drill Model:  DRILL MOD DESC
 SVYD.                  Survey:  SURVEY DESC
 ILTD.               Lithology:  INTERP LTH DESC
 FTOP.          Formation Tops:  FORM TOPS DESC
 SON .        AZ-XX-0906571587:  JOB NUMBER
 COMP.     BP Exploration (Caspian Sea) Ltd:  COMPANY
 UWI .                     N/A:  UNIQUE WELL IDENTIFIER
 API .                     N/A:  API NUMBER
 BASE.              Azerbaijan:  LOGGING EQUIPMENT BASE LOCATION
 REGN.                   EESSA:  REGION
 PROV.                    Baku:  PROVINCE
 STAT.                    Baku:  STATE NAME
 CTRY.              Azerbaijan:  COUNTRY NAME
 FLD .                     ACG:  FIELD NAME
 SRVC.     TURAN Drilling & Engineering:  CONTRACTOR
 WELL.                     J27:  WELL NAME
 RIG .             West Chirag:  RIG NAME
 DOE .                     N/A:  DOE NUMBER
 DCON.         Sperry Drilling:  DIRECTNL CONTR
 PDAT.          Mean Sea Level:  PERMANENT DATUM
 WTYP.                Deviated:  WELL TYPE
 MWDS.                    Baku:  MWD SHOP
 JOBN.        AZ-XX-0906571587:  JOB TICKET NUMB
 UNIT.                     N/A:  LOGGING EQUIPMENT ID
 MDS .        Operator Entered:  MAG DATA SOURCE
 CNTY.                        :  COUNTY
 LOC .                        :  LOCATION
 LMF .             Drill Floor:  LOG MEASURED FROM
 TVDS.m                  43.00:  TVDSS CORRECTN
 LATI.deg                40.13:  LATITUDE
 LONG.deg                51.22:  LONGITUDE
 WHNS.m                   7.72:  WELL HEAD N/S
 WHEW.m                 -14.24:  WELL HEAD E/W
 UTMX.m              519005.06:  UTM X
 UTMY.m             4443793.85:  UTM Y
 DFWL.m                   0.00:  DISTANCE FWL
 DFSL.m                   0.00:  DISTANCE FSL
 SDEP.m                 347.00:  START DEPTH
 TDD .m                 581.00:  TOTAL DEPTH (DRILLER)
 VSDR.deg               159.72:  VERT SEC DIRECT
 GVFD.g                   1.00:  GRAVITY FIELD
 MFLD.nT              50318.00:  MAGNETIC FIELD
 MDIP.deg                59.57:  MAGNETIC DIP
 MDEC.deg                 6.44:  MAGNETIC DECL
 GRDC.deg                 0.15:  GRID CORRECTION
 AZTC.deg                 6.29:  AZM TOTAL CORR
 EPD .m                   0.00:  ELEVATION
 EGL .m                   0.00:  GROUND ELEVATION
 WDMS.m                 169.80:  WD ELEV
 APD .m                  43.00:  DEPTH ABOVE PD
 AGAP.m                  43.00:  AIR GAP
 VSEW.m                 -14.24:  VERT SEC E/W
 VSNS.m                   7.72:  VERT SEC N/S
 DEP .m                 342.45:  DEPTH
 EKB .m                   0.00:  KB ELEVATION
 EDF .m                  43.00:  DF ELEVATION
 TDL .m                 237.00:  TOTAL DEPTH (LOGGER)
 VSC .                       0:  VS TO CLOSURE
 MAGU.                 1851428:  MAGUTM CHECKSUM
~Parameter Information Block
#MNEM.UNIT       Value        Description
#---------     -----------    ---------------------------
 AV  .mps                 1.50:  Ann Velocity 
 AVMX.mps                 2.90:  Max Ann Veloc 
 AZIF.deg               115.59:  Azm, Final 
 BHAT.        Rotary Steerable:  BHA Type 
 BROT.°/30m               0.50:  Build Rotating 
 BS  .in                  8.50:  Bit Size 
 BTPL.psig              580.00:  Bit Press Loss 
 CABU.                     Yes:  Customer Abuse 
 COMM.                     LÓw:  Run Comments 1 
 TCS .hr                 89.79:  Time Ciculation Ended 
 CV  .mps                 3.22:  Crit Velocity 
 CVMX.mps                 4.37:  Max Crit Veloc 
 DD1 .          Rashad Habibov:  Direct Drillr 1 
 DDSV.               Geo-Pilot:  DD Service 
 DEFF.%                  95.00:  % Det Eff 
 DLRX.°/30m               1.94:  Dogleg Rot Max 
 DLSO.°/30m               0.70:  Dogleg Oriented 
 DLSX.°/30m               1.94:  Dogleg Str Max 
 DRET.      04.45.00 25-Dec-20:  Drill End Time 
 DRST.      10.00.00 24-Dec-20:  Drill Start Tim 
 DTIM.hr                 16.64:  Time Drilling 
 EDEP.m                4999.01:  End Depth 
 ENG1.         Elchin Mammadov:  Engineer 1 
 ENG2.          Ruslan Safarov:  Engineer 2 
 ENG3.          Rustam Safarov:  Engineer 3 
 ETIM.      09.00.00 29-Dec-20:  End Time 
 FLOI.gpm               500.00:  Flow In 
 FLON.gpm               400.00:  Flow In Min 
 FLOS.cptm                0.00:  Fluid Loss 
 FLOX.gpm               500.00:  Flow In Max 
 HFLO.                      No:  High Flow 
 HPRE.                      No:  High Pressure 
 HTEM.                      No:  High Temp 
 HYDO.m                   2.00:  Hydro Offset 
 IFIN.deg                66.79:  Inc, Final 
 IMAX.deg                67.66:  Inc Max 
 IMIN.deg                66.39:  Inc Min 
 IMND.m                4949.37:  Inc Min Depth 
 IMXD.m                4778.63:  Inc Max Depth 
 JARR.                     Yes:  Jarring 
 LETM.      04.45.00 25-Dec-20:  Log End Time 
 LOST.hr                     0:  Lost Rig Time 
 LSTM.      10.00.00 24-Dec-20:  Log Start Time 
 MDCL.ppm             39000.00:  Mud Chlorides 
 MDES.     Inversion Oil/Synthetic:  Mud Desc 
 DFD .sg                  1.33:  Mud Density 
 MDMN.sg                  1.33:  Dens Mud Min 
 MDMX.sg                  1.33:  Dens Mud Max 
 MOIL.                      70:  Run Mud Oil % 
 MOWR.                   70:30:  Run Mud OWR 
 MSND.                       0:  Run Mud Sand % 
 MSOL.                    17.4:  Run Mud Solids% 
 DFV .spqt               84.00:  Mud Viscosity 
 MWOD.in                  6.75:  MWD Tool OD 
 MWSI.                     Yes:  Serv Intrp, MWD 
 OTIM.hr                168.14:  Time Operating 
 PCON.           Look Like New:  Pad Condition 
 PMAX.psia            10822.93:  Press Op, Max 
 PV  .cP                 30.00:  Mud PV 
 RUN .                     900:  Run Number 
 ROPA.m/hr               18.00:  ROP Avg 
 ROPN.m/hr               12.00:  ROP Min 
 ROPX.m/hr               25.00:  ROP Max 
 RPMA.rpm               120.00:  RPM Surface Avg 
 RPMN.rpm               100.00:  RPM Surface Min 
 RPMX.rpm               120.00:  RPM Surface Max 
 RRUN.                    0900:  Rig Run Number 
 SAZI.deg               115.08:  Azm, Start 
 SDEP.m                4762.01:  Start Depth 
 SIDD.                      No:  Serv Intrp, DD 
 SINC.deg                66.14:  Inc, Start 
 SPPA.psig             3700.00:  SPP Avg 
 SPPN.psig             3620.00:  SPP Min 
 SPPX.psig             3900.00:  SPP Max 
 STIM.      09.30.00 22-Dec-20:  Start Time 
 SVCS.                 DD, MWD:  Services 
 SVER.                    9.20:  Sperry Version 
 TDAT.m                 237.00:  Tot Depth Attmp 
 TDDF.                      No:  Trip for DD 
 TDLG.m                 237.00:  Tot Depth Loggd 
 TFF .                      No:  Trip for Fail 
 TQAA.f-kp               18.00:  Torque Abs Avg 
 TQAN.f-kp               17.00:  Torque Abs Min 
 TQAX.f-kp               20.00:  Torque Abs Max 
 TRRT.°/30m               0.60:  Turn Rotating 
 MRT .                    HCIM:  Maximum Recorded Temperature 
 TTMX.degC               94.12:  Max Tool Temp 
 VS01.                90627809:  Virtual Str1 SN 
 VS02.                90527813:  Virtual Str2 SN 
 VS03.                90545417:  Virtual Str3 SN 
 VS04.                12460870:  Virtual Str4 SN 
 VS05.                90516706:  Virtual Str5 SN 
 VS06.                90632007:  Virtual Str6 SN 
 WBMN.klb                 0.00:  WOB Min 
 WOBA.klb                14.00:  WOB Avg 
 WOBX.klb                25.00:  WOB Max 
 YP  .lhf2               32.00:  Yield Point 
~Curve Information Block
#MNEM.UNIT                 API CODE     Curve Description
#---------               -----------    ---------------------------
 TIME.HHMMSS            00 000 000 000:  GT Time & Date
 GTDEPTH.m              00 000 000 000:  GT Depth
 GTPQH.psia             00 000 000 000:  GT HR Quartz Pressure
 GTTQ.degC              00 000 000 000:  GT Quartz Temperature
 GTTN.NONE              00 000 000 000:  GT Test Number
 GTET.sec               00 000 000 000:  GT Elapsed Test Time
 GTTVD.m                00 000 000 000:  GT True Vertical Depth
#Other Information
#
#WARRANTY: Halliburton will use its best efforts to furnish customers with 
#accurate information and interpretations that are part of, and incident to, the services 
#provided.  However, Halliburton cannot and does not warrant the accuracy 
#or correctness of such information and interpretations.  Under no circumstances should any 
#such information or interpretation be relied upon as the sole basis for any drilling, 
#completion, production, or financial decision or any procedure involving any risk to the 
#safety of any drilling venture, drilling rig or its crew or any other third party.  The 
#Customer has full responsibility for all drilling, completion and production operation.  
#Halliburton makes no representations or warranties, either expressed or 
#implied, including, but not limited to, the implied warranties of merchantability or fitness 
#for a particular purpose, with respect to the services rendered.  In no event will 
#Halliburton be liable for failure to obtain any particular results or for 
#any damages, including, but not limited to, indirect, special or consequential damages, 
#resulting from the use of any information or interpretation provided by Halliburton.
#
~A           TIME           GTDEPTH  GTPQH  GTTQ  GTTN  GTET   GTTVD  
# ...
   12:56:18.257.25-Dec-2020 4950.51 2089.94 66.63 1.00 161.07 2558.08
   12:56:18.457.25-Dec-2020 4950.51 2089.94 66.63 1.00 161.27 2558.08
   12:56:18.657.25-Dec-2020 4950.51 2089.97 66.63 1.00 161.47 2558.08
   12:56:18.857.25-Dec-2020 4950.51 2089.70 66.63 1.00 161.67 2558.08
   12:56:19.058.25-Dec-2020 4950.51 2090.18 66.63 1.00 161.87 2558.08
   12:56:19.258.25-Dec-2020 4950.51 2090.20 66.63 1.00 162.07 2558.08
   12:56:19.458.25-Dec-2020 4950.51 2090.20 66.63 1.00 162.27 2558.08
   12:56:19.658.25-Dec-2020 4950.51 2090.50 66.63 1.00 162.47 2558.08
   12:56:19.858.25-Dec-2020 4950.51 2089.84 66.63 1.00 162.67 2558.08
   12:56:20.058.25-Dec-2020 4950.51 2089.50 66.63 1.00 162.87 2558.08
   12:56:20.258.25-Dec-2020 4950.51 2090.79 66.63 1.00 163.07 2558.08
   12:56:20.458.25-Dec-2020 4950.51 2090.79 66.63 1.00 163.27 2558.08
   12:56:20.658.25-Dec-2020 4950.51 2089.52 66.63 1.00 163.47 2558.08
   12:56:20.858.25-Dec-2020 4950.51 2090.77 66.63 1.00 163.67 2558.08
   12:56:21.058.25-Dec-2020 4950.51 2090.34 66.63 1.00 163.87 2558.08
   12:56:21.259.25-Dec-2020 4950.51 2090.13 66.63 1.00 164.07 2558.08
   12:56:21.459.25-Dec-2020 4950.51 2090.13 66.63 1.00 164.27 2558.08
   12:56:21.659.25-Dec-2020 4950.51 2090.09 66.63 1.00 164.47 2558.08
   12:56:21.859.25-Dec-2020 4950.51 2090.04 66.63 1.00 164.67 2558.08
   12:56:22.059.25-Dec-2020 4950.51 2089.89 66.63 1.00 164.87 2558.08
   12:56:22.259.25-Dec-2020 4950.51 2089.97 66.63 1.00 165.07 2558.08
   12:56:22.459.25-Dec-2020 4950.51 2089.97 66.63 1.00 165.27 2558.08
   12:56:22.659.25-Dec-2020 4950.51 2089.92 66.63 1.00 165.47 2558.08
   12:56:22.859.25-Dec-2020 4950.51 2090.03 66.63 1.00 165.67 2558.08
   12:56:23.059.25-Dec-2020 4950.51 2089.49 66.63 1.00 165.87 2558.08
   12:56:23.259.25-Dec-2020 4950.51 2090.30 66.63 1.00 166.07 2558.08
   12:56:23.460.25-Dec-2020 4950.51 2090.30 66.63 1.00 166.27 2558.08
   12:56:23.660.25-Dec-2020 4950.51 2090.25 66.63 1.00 166.48 2558.08
   12:56:23.860.25-Dec-2020 4950.51 2090.10 66.63 1.00 166.68 2558.08
   12:56:24.060.25-Dec-2020 4950.51 2090.11 66.63 1.00 166.88 2558.08
   12:56:24.260.25-Dec-2020 4950.51 2090.13 66.63 1.00 167.08 2558.08
   12:56:24.460.25-Dec-2020 4950.51 2090.13 66.63 1.00 167.28 2558.08
   12:56:24.660.25-Dec-2020 4950.51 2090.07 66.63 1.00 167.48 2558.08
   12:56:24.860.25-Dec-2020 4950.51 2090.02 66.63 1.00 167.68 2558.08
   12:56:25.060.25-Dec-2020 4950.51 2089.97 66.63 1.00 167.88 2558.08
   12:56:25.260.25-Dec-2020 4950.51 2090.07 66.63 1.00 168.08 2558.08
   12:56:25.460.25-Dec-2020 4950.51 2090.07 66.63 1.00 168.28 2558.08
   12:56:25.661.25-Dec-2020 4950.51 2089.84 66.63 1.00 168.48 2558.08
   12:56:25.861.25-Dec-2020 4950.51 2090.20 66.63 1.00 168.68 2558.08
   12:56:26.061.25-Dec-2020 4950.51 2090.26 66.63 1.00 168.88 2558.08
   12:56:26.261.25-Dec-2020 4950.51 2089.65 66.63 1.00 169.08 2558.08
   12:56:26.461.25-Dec-2020 4950.51 2089.65 66.63 1.00 169.28 2558.08
   12:56:26.661.25-Dec-2020 4950.51 2089.96 66.63 1.00 169.48 2558.08
   12:56:26.861.25-Dec-2020 4950.51 2089.56 66.63 1.00 169.68 2558.08
   12:56:27.061.25-Dec-2020 4950.51 2090.78 66.63 1.00 169.88 2558.08
   12:56:27.261.25-Dec-2020 4950.51 2089.95 66.63 1.00 170.08 2558.08
   12:56:27.461.25-Dec-2020 4950.51 2089.95 66.63 1.00 170.28 2558.08
   12:56:27.661.25-Dec-2020 4950.51 2090.75 66.63 1.00 170.48 2558.08
   12:56:27.861.25-Dec-2020 4950.51 2090.37 66.63 1.00 170.68 2558.08
   12:56:28.062.25-Dec-2020 4950.51 2090.21 66.63 1.00 170.88 2558.08
   12:56:28.262.25-Dec-2020 4950.51 2090.06 66.63 1.00 171.08 2558.08
   12:56:28.462.25-Dec-2020 4950.51 2090.06 66.63 1.00 171.28 2558.08
   12:56:28.662.25-Dec-2020 4950.51 2090.14 66.63 1.00 171.48 2558.08
   12:56:28.862.25-Dec-2020 4950.51 2090.04 66.63 1.00 171.68 2558.08
   12:56:29.062.25-Dec-2020 4950.51 2090.05 66.63 1.00 171.88 2558.08
   12:56:29.262.25-Dec-2020 4950.51 2090.04 66.63 1.00 172.08 2558.08
   12:56:29.462.25-Dec-2020 4950.51 2090.04 66.63 1.00 172.28 2558.08
   12:56:29.662.25-Dec-2020 4950.51 2090.09 66.63 1.00 172.48 2558.08
   12:56:29.862.25-Dec-2020 4950.51 2089.58 66.63 1.00 172.68 2558.08
   12:56:30.062.25-Dec-2020 4950.51 2090.38 66.63 1.00 172.88 2558.08
   12:56:30.263.25-Dec-2020 4950.51 2090.13 66.63 1.00 173.08 2558.08
   12:56:30.463.25-Dec-2020 4950.51 2090.13 66.63 1.00 173.28 2558.08
   12:56:30.663.25-Dec-2020 4950.51 2090.29 66.63 1.00 173.48 2558.08
   12:56:30.863.25-Dec-2020 4950.51 2090.21 66.63 1.00 173.68 2558.08
   12:56:31.063.25-Dec-2020 4950.51 2049.43 66.63 1.00 173.88 2558.08
   12:56:31.263.25-Dec-2020 4950.51 1766.65 66.63 1.00 174.08 2558.08
   12:56:31.463.25-Dec-2020 4950.51 1766.65 66.63 1.00 174.28 2558.08
   12:56:31.663.25-Dec-2020 4950.51 1400.12 66.63 1.00 174.48 2558.08
   12:56:31.863.25-Dec-2020 4950.51 1322.34 66.63 1.00 174.68 2558.08
   12:56:32.063.25-Dec-2020 4950.51 1272.20 66.63 1.00 174.88 2558.08
   12:56:32.263.25-Dec-2020 4950.51 1237.19 66.63 1.00 175.08 2558.08
   12:56:32.464.25-Dec-2020 4950.51 1237.19 66.63 1.00 175.28 2558.08
   12:56:32.664.25-Dec-2020 4950.51 1203.24 66.63 1.00 175.48 2558.08
   12:56:32.864.25-Dec-2020 4950.51 1193.38 66.63 1.00 175.68 2558.08
   12:56:33.064.25-Dec-2020 4950.51 1198.67 66.63 1.00 175.88 2558.08
   12:56:33.264.25-Dec-2020 4950.51 1193.45 66.63 1.00 176.08 2558.08
   12:56:33.464.25-Dec-2020 4950.51 1193.45 66.63 1.00 176.28 2558.08
   12:56:33.664.25-Dec-2020 4950.51 1186.01 66.63 1.00 176.48 2558.08
   12:56:33.864.25-Dec-2020 4950.51 1181.71 66.63 1.00 176.68 2558.08
   12:56:34.064.25-Dec-2020 4950.51 1184.69 66.63 1.00 176.88 2558.08
   12:56:34.264.25-Dec-2020 4950.51 1190.86 66.63 1.00 177.08 2558.08
   12:56:34.464.25-Dec-2020 4950.51 1190.86 66.63 1.00 177.28 2558.08
   12:56:34.665.25-Dec-2020 4950.51 1184.25 66.62 1.00 177.48 2558.08
   12:56:34.865.25-Dec-2020 4950.51 1188.99 66.62 1.00 177.68 2558.08
   12:56:35.065.25-Dec-2020 4950.51 1186.98 66.62 1.00 177.88 2558.08
   12:56:35.265.25-Dec-2020 4950.51 1191.62 66.62 1.00 178.08 2558.08
   12:56:35.465.25-Dec-2020 4950.51 1191.62 66.62 1.00 178.28 2558.08
   12:56:35.665.25-Dec-2020 4950.51 1192.08 66.62 1.00 178.48 2558.08
   12:56:35.865.25-Dec-2020 4950.51 1191.02 66.62 1.00 178.68 2558.08
   12:56:36.065.25-Dec-2020 4950.51 1187.89 66.62 1.00 178.88 2558.08
   12:56:36.265.25-Dec-2020 4950.51 1190.17 66.62 1.00 179.08 2558.08
   12:56:36.465.25-Dec-2020 4950.51 1190.17 66.62 1.00 179.28 2558.08
   12:56:36.665.25-Dec-2020 4950.51 1186.27 66.62 1.00 179.48 2558.08
   12:56:36.866.25-Dec-2020 4950.51 1189.24 66.62 1.00 179.68 2558.08
   12:56:37.066.25-Dec-2020 4950.51 1185.90 66.62 1.00 179.88 2558.08
   12:56:37.266.25-Dec-2020 4950.51 1189.52 66.62 1.00 180.08 2558.08
   12:56:37.466.25-Dec-2020 4950.51 1189.52 66.62 1.00 180.28 2558.08
   12:56:37.666.25-Dec-2020 4950.51 1194.60 66.61 1.00 180.48 2558.08
   12:56:37.866.25-Dec-2020 4950.51 1201.67 66.61 1.00 180.68 2558.08
   12:56:38.066.25-Dec-2020 4950.51 1198.50 66.61 1.00 180.88 2558.08
   12:56:38.266.25-Dec-2020 4950.51 1197.91 66.61 1.00 181.08 2558.08
   12:56:38.466.25-Dec-2020 4950.51 1197.91 66.61 1.00 181.28 2558.08
   12:56:38.666.25-Dec-2020 4950.51 1207.56 66.61 1.00 181.48 2558.08
   12:56:38.866.25-Dec-2020 4950.51 1205.78 66.61 1.00 181.68 2558.08
   12:56:39.067.25-Dec-2020 4950.51 1208.42 66.61 1.00 181.88 2558.08
   12:56:39.267.25-Dec-2020 4950.51 1207.93 66.61 1.00 182.08 2558.08
   12:56:39.467.25-Dec-2020 4950.51 1207.93 66.61 1.00 182.28 2558.08
   12:56:39.667.25-Dec-2020 4950.51 1198.87 66.61 1.00 182.48 2558.08
   12:56:39.867.25-Dec-2020 4950.51 1197.39 66.61 1.00 182.68 2558.08
   12:56:40.067.25-Dec-2020 4950.51 1205.22 66.61 1.00 182.88 2558.08
   12:56:40.267.25-Dec-2020 4950.51 1204.90 66.61 1.00 183.08 2558.08
   12:56:40.467.25-Dec-2020 4950.51 1204.90 66.61 1.00 183.28 2558.08
   12:56:40.667.25-Dec-2020 4950.51 1211.18 66.61 1.00 183.48 2558.08
   12:56:40.867.25-Dec-2020 4950.51 1216.02 66.61 1.00 183.68 2558.08
   12:56:41.067.25-Dec-2020 4950.51 1210.25 66.61 1.00 183.88 2558.08
