~Version Information
 VERS.                  2.0:   CWLS log ASCII Standard -VERSION 2.0
 WRAP.                   NO:   One line per depth step
~Well Information Block
#MNEM.UNIT     VALUE/NAME     DESCRIPTION
#---------     -----------    ---------------------------
 STRT.S             18:45:29 25-Dec-20: START TIME 18:45:29 25-Dec-20
 STOP.S             18:53:50 25-Dec-20: STOP TIME  18:53:50 25-Dec-20
 STEP.S                   0.00: STEP TIME
 NULL.                 -999.25: NULL VALUE
 DFWT.                        :  DIST FWL TEXT
 DFST.                        :  DIST FSL TEXT
 DMF .             Drill Floor:  DRILL MEAS FROM
 STIM.      04.54.24 22-Sep-20:  START TIME
 DATE.      04.54.24 21-Nov-20:  END TIME
 SPUD.               21-Nov-20:  SPUD DATE
 NREF.                    Grid:  NORTH REFERENCE
 HPTY.       Minimum Curvature:  HOLE POS TYPE
 DMOD.             Drill Model:  DRILL MOD DESC
 SVYD.                  Survey:  SURVEY DESC
 ILTD.               Lithology:  INTERP LTH DESC
 FTOP.          Formation Tops:  FORM TOPS DESC
 SON .        AZ-XX-0906571587:  JOB NUMBER
 COMP.     BP Exploration (Caspian Sea) Ltd:  COMPANY
 UWI .                     N/A:  UNIQUE WELL IDENTIFIER
 API .                     N/A:  API NUMBER
 BASE.              Azerbaijan:  LOGGING EQUIPMENT BASE LOCATION
 REGN.                   EESSA:  REGION
 PROV.                    Baku:  PROVINCE
 STAT.                    Baku:  STATE NAME
 CTRY.              Azerbaijan:  COUNTRY NAME
 FLD .                     ACG:  FIELD NAME
 SRVC.     TURAN Drilling & Engineering:  CONTRACTOR
 WELL.                     J27:  WELL NAME
 RIG .             West Chirag:  RIG NAME
 DOE .                     N/A:  DOE NUMBER
 DCON.         Sperry Drilling:  DIRECTNL CONTR
 PDAT.          Mean Sea Level:  PERMANENT DATUM
 WTYP.                Deviated:  WELL TYPE
 MWDS.                    Baku:  MWD SHOP
 JOBN.        AZ-XX-0906571587:  JOB TICKET NUMB
 UNIT.                     N/A:  LOGGING EQUIPMENT ID
 MDS .        Operator Entered:  MAG DATA SOURCE
 CNTY.                        :  COUNTY
 LOC .                        :  LOCATION
 LMF .             Drill Floor:  LOG MEASURED FROM
 TVDS.m                  43.00:  TVDSS CORRECTN
 LATI.deg                40.13:  LATITUDE
 LONG.deg                51.22:  LONGITUDE
 WHNS.m                   7.72:  WELL HEAD N/S
 WHEW.m                 -14.24:  WELL HEAD E/W
 UTMX.m              519005.06:  UTM X
 UTMY.m             4443793.85:  UTM Y
 DFWL.m                   0.00:  DISTANCE FWL
 DFSL.m                   0.00:  DISTANCE FSL
 SDEP.m                 347.00:  START DEPTH
 TDD .m                 581.00:  TOTAL DEPTH (DRILLER)
 VSDR.deg               159.72:  VERT SEC DIRECT
 GVFD.g                   1.00:  GRAVITY FIELD
 MFLD.nT              50318.00:  MAGNETIC FIELD
 MDIP.deg                59.57:  MAGNETIC DIP
 MDEC.deg                 6.44:  MAGNETIC DECL
 GRDC.deg                 0.15:  GRID CORRECTION
 AZTC.deg                 6.29:  AZM TOTAL CORR
 EPD .m                   0.00:  ELEVATION
 EGL .m                   0.00:  GROUND ELEVATION
 WDMS.m                 169.80:  WD ELEV
 APD .m                  43.00:  DEPTH ABOVE PD
 AGAP.m                  43.00:  AIR GAP
 VSEW.m                 -14.24:  VERT SEC E/W
 VSNS.m                   7.72:  VERT SEC N/S
 DEP .m                 342.45:  DEPTH
 EKB .m                   0.00:  KB ELEVATION
 EDF .m                  43.00:  DF ELEVATION
 TDL .m                 237.00:  TOTAL DEPTH (LOGGER)
 VSC .                       0:  VS TO CLOSURE
 MAGU.                 1851428:  MAGUTM CHECKSUM
~Parameter Information Block
#MNEM.UNIT       Value        Description
#---------     -----------    ---------------------------
 AV  .mps                 1.50:  Ann Velocity 
 AVMX.mps                 2.90:  Max Ann Veloc 
 AZIF.deg               115.59:  Azm, Final 
 BHAT.        Rotary Steerable:  BHA Type 
 BROT.°/30m               0.50:  Build Rotating 
 BS  .in                  8.50:  Bit Size 
 BTPL.psig              580.00:  Bit Press Loss 
 CABU.                     Yes:  Customer Abuse 
 TCS .hr                 89.79:  Time Ciculation Ended 
 CV  .mps                 3.22:  Crit Velocity 
 CVMX.mps                 4.37:  Max Crit Veloc 
 DD1 .          Rashad Habibov:  Direct Drillr 1 
 DDSV.               Geo-Pilot:  DD Service 
 DEFF.%                  95.00:  % Det Eff 
 DLRX.°/30m               1.94:  Dogleg Rot Max 
 DLSO.°/30m               0.70:  Dogleg Oriented 
 DLSX.°/30m               1.94:  Dogleg Str Max 
 DRET.      04.45.00 25-Dec-20:  Drill End Time 
 DRST.      10.00.00 24-Dec-20:  Drill Start Tim 
 DTIM.hr                 16.64:  Time Drilling 
 EDEP.m                4999.01:  End Depth 
 ENG1.         Elchin Mammadov:  Engineer 1 
 ENG2.          Ruslan Safarov:  Engineer 2 
 ENG3.          Rustam Safarov:  Engineer 3 
 ETIM.      09.00.00 29-Dec-20:  End Time 
 FLOI.gpm               500.00:  Flow In 
 FLON.gpm               400.00:  Flow In Min 
 FLOS.cptm                0.00:  Fluid Loss 
 FLOX.gpm               500.00:  Flow In Max 
 HFLO.                      No:  High Flow 
 HPRE.                      No:  High Pressure 
 HTEM.                      No:  High Temp 
 HYDO.m                   2.00:  Hydro Offset 
 IFIN.deg                66.79:  Inc, Final 
 IMAX.deg                67.66:  Inc Max 
 IMIN.deg                66.39:  Inc Min 
 IMND.m                4949.37:  Inc Min Depth 
 IMXD.m                4778.63:  Inc Max Depth 
 JARR.                     Yes:  Jarring 
 LETM.      04.45.00 25-Dec-20:  Log End Time 
 LOST.hr                     0:  Lost Rig Time 
 LSTM.      10.00.00 24-Dec-20:  Log Start Time 
 MDCL.ppm             39000.00:  Mud Chlorides 
 MDES.     Inversion Oil/Synthetic:  Mud Desc 
 DFD .sg                  1.33:  Mud Density 
 MDMN.sg                  1.33:  Dens Mud Min 
 MDMX.sg                  1.33:  Dens Mud Max 
 MOIL.                      70:  Run Mud Oil % 
 MOWR.                   70:30:  Run Mud OWR 
 MSND.                       0:  Run Mud Sand % 
 MSOL.                    17.4:  Run Mud Solids% 
 DFV .spqt               84.00:  Mud Viscosity 
 MWOD.in                  6.75:  MWD Tool OD 
 MWSI.                     Yes:  Serv Intrp, MWD 
 OTIM.hr                168.14:  Time Operating 
 PCON.           Look Like New:  Pad Condition 
 PMAX.psia            10822.93:  Press Op, Max 
 PV  .cP                 30.00:  Mud PV 
 RUN .                     900:  Run Number 
 ROPA.m/hr               18.00:  ROP Avg 
 ROPN.m/hr               12.00:  ROP Min 
 ROPX.m/hr               25.00:  ROP Max 
 RPMA.rpm               120.00:  RPM Surface Avg 
 RPMN.rpm               100.00:  RPM Surface Min 
 RPMX.rpm               120.00:  RPM Surface Max 
 RRUN.                    0900:  Rig Run Number 
 SAZI.deg               115.08:  Azm, Start 
 SDEP.m                4762.01:  Start Depth 
 SIDD.                      No:  Serv Intrp, DD 
 SINC.deg                66.14:  Inc, Start 
 SPPA.psig             3700.00:  SPP Avg 
 SPPN.psig             3620.00:  SPP Min 
 SPPX.psig             3900.00:  SPP Max 
 STIM.      09.30.00 22-Dec-20:  Start Time 
 SVCS.                 DD, MWD:  Services 
 SVER.                    9.20:  Sperry Version 
 TDAT.m                 237.00:  Tot Depth Attmp 
 TDDF.                      No:  Trip for DD 
 TDLG.m                 237.00:  Tot Depth Loggd 
 TFF .                      No:  Trip for Fail 
 TQAA.f-kp               18.00:  Torque Abs Avg 
 TQAN.f-kp               17.00:  Torque Abs Min 
 TQAX.f-kp               20.00:  Torque Abs Max 
 TRRT.°/30m               0.60:  Turn Rotating 
 MRT .                    HCIM:  Maximum Recorded Temperature 
 TTMX.degC               94.12:  Max Tool Temp 
 VS01.                90627809:  Virtual Str1 SN 
 VS02.                90527813:  Virtual Str2 SN 
 VS03.                90545417:  Virtual Str3 SN 
 VS04.                12460870:  Virtual Str4 SN 
 VS05.                90516706:  Virtual Str5 SN 
 VS06.                90632007:  Virtual Str6 SN 
 WBMN.klb                 0.00:  WOB Min 
 WOBA.klb                14.00:  WOB Avg 
 WOBX.klb                25.00:  WOB Max 
 YP  .lhf2               32.00:  Yield Point 
~Curve Information Block
#MNEM.UNIT                 API CODE     Curve Description
#---------               -----------    ---------------------------
 TIME.HHMMSS            00 000 000 000:  GT Time & Date
 GTDEPTH.m              00 000 000 000:  GT Depth
 GTPQH.psia             00 000 000 000:  GT HR Quartz Pressure
 GTTQ.degC              00 000 000 000:  GT Quartz Temperature
 GTTN.NONE              00 000 000 000:  GT Test Number
 GTET.sec               00 000 000 000:  GT Elapsed Test Time
 GTTVD.m                00 000 000 000:  GT True Vertical Depth
#Other Information
#
#WARRANTY: Halliburton will use its best efforts to furnish customers with 
#accurate information and interpretations that are part of, and incident to, the services 
#provided.  However, Halliburton cannot and does not warrant the accuracy 
#or correctness of such information and interpretations.  Under no circumstances should any 
#such information or interpretation be relied upon as the sole basis for any drilling, 
#completion, production, or financial decision or any procedure involving any risk to the 
#safety of any drilling venture, drilling rig or its crew or any other third party.  The 
#Customer has full responsibility for all drilling, completion and production operation.  
#Halliburton makes no representations or warranties, either expressed or 
#implied, including, but not limited to, the implied warranties of merchantability or fitness 
#for a particular purpose, with respect to the services rendered.  In no event will 
#Halliburton be liable for failure to obtain any particular results or for 
#any damages, including, but not limited to, indirect, special or consequential damages, 
#resulting from the use of any information or interpretation provided by Halliburton.
#
~A           TIME           GTDEPTH  GTPQH  GTTQ  GTTN  GTET   GTTVD  
# ...
   18:50:29.100.25-Dec-2020 4831.01 3416.40 64.21 6.00 299.24 2510.98
   18:50:29.301.25-Dec-2020 4831.01 3416.40 64.21 6.00 299.44 2510.98
   18:50:29.501.25-Dec-2020 4831.01 3416.24 64.21 6.00 299.64 2510.98
   18:50:29.701.25-Dec-2020 4831.01 3416.12 64.21 6.00 299.84 2510.98
   18:50:29.901.25-Dec-2020 4831.01 3415.69 64.21 6.00 300.04 2510.98
   18:50:30.101.25-Dec-2020 4831.01 3416.38 64.21 6.00 300.24 2510.98
   18:50:30.301.25-Dec-2020 4831.01 3416.26 64.21 6.00 300.44 2510.98
   18:50:30.502.25-Dec-2020 4831.01 3415.67 64.21 6.00 300.64 2510.98
   18:50:30.702.25-Dec-2020 4831.01 3416.61 64.21 6.00 300.84 2510.98
   18:50:30.902.25-Dec-2020 4831.01 3416.10 64.21 6.00 301.04 2510.98
   18:50:31.102.25-Dec-2020 4831.01 3416.34 64.21 6.00 301.24 2510.98
   18:50:31.302.25-Dec-2020 4831.01 3416.34 64.21 6.00 301.44 2510.98
   18:50:31.502.25-Dec-2020 4831.01 3416.08 64.21 6.00 301.64 2510.98
   18:50:31.703.25-Dec-2020 4831.01 3416.09 64.21 6.00 301.84 2510.98
   18:50:31.903.25-Dec-2020 4831.01 3416.08 64.21 6.00 302.04 2510.98
   18:50:32.103.25-Dec-2020 4831.01 3416.08 64.21 6.00 302.24 2510.98
   18:50:32.303.25-Dec-2020 4831.01 3416.08 64.21 6.00 302.44 2510.98
   18:50:32.503.25-Dec-2020 4831.01 3416.07 64.21 6.00 302.64 2510.98
   18:50:32.703.25-Dec-2020 4831.01 3416.08 64.21 6.00 302.84 2510.98
   18:50:32.903.25-Dec-2020 4831.01 3416.03 64.21 6.00 303.04 2510.98
   18:50:33.104.25-Dec-2020 4831.01 3415.73 64.21 6.00 303.24 2510.98
   18:50:33.304.25-Dec-2020 4831.01 3415.73 64.21 6.00 303.44 2510.98
   18:50:33.504.25-Dec-2020 4831.01 3416.45 64.21 6.00 303.64 2510.98
   18:50:33.704.25-Dec-2020 4831.01 3416.26 64.21 6.00 303.84 2510.98
   18:50:33.904.25-Dec-2020 4831.01 3416.16 64.21 6.00 304.04 2510.98
   18:50:34.104.25-Dec-2020 4831.01 3416.13 64.21 6.00 304.24 2510.98
   18:50:34.305.25-Dec-2020 4831.01 3416.11 64.21 6.00 304.44 2510.98
   18:50:34.505.25-Dec-2020 4831.01 3416.11 64.21 6.00 304.64 2510.98
   18:50:34.705.25-Dec-2020 4831.01 3416.13 64.21 6.00 304.84 2510.98
   18:50:34.905.25-Dec-2020 4831.01 3416.07 64.21 6.00 305.04 2510.98
   18:50:35.105.25-Dec-2020 4831.01 3416.10 64.21 6.00 305.24 2510.98
   18:50:35.305.25-Dec-2020 4831.01 3416.10 64.21 6.00 305.44 2510.98
   18:50:35.506.25-Dec-2020 4831.01 3415.64 64.21 6.00 305.64 2510.98
   18:50:35.706.25-Dec-2020 4831.01 3416.22 64.21 6.00 305.84 2510.98
   18:50:35.906.25-Dec-2020 4831.01 3416.33 64.21 6.00 306.04 2510.98
   18:50:36.106.25-Dec-2020 4831.01 3415.99 64.21 6.00 306.24 2510.98
   18:50:36.306.25-Dec-2020 4831.01 3415.99 64.21 6.00 306.44 2510.98
   18:50:36.506.25-Dec-2020 4831.01 3416.42 64.21 6.00 306.64 2510.98
   18:50:36.706.25-Dec-2020 4831.01 3416.39 64.21 6.00 306.84 2510.98
   18:50:36.907.25-Dec-2020 4831.01 3416.20 64.21 6.00 307.04 2510.98
   18:50:37.107.25-Dec-2020 4831.01 3415.84 64.21 6.00 307.24 2510.98
   18:50:37.307.25-Dec-2020 4831.01 3415.84 64.21 6.00 307.44 2510.98
   18:50:37.507.25-Dec-2020 4831.01 3416.37 64.21 6.00 307.64 2510.98
   18:50:37.707.25-Dec-2020 4831.01 3416.47 64.21 6.00 307.84 2510.98
   18:50:37.907.25-Dec-2020 4831.01 3415.71 64.21 6.00 308.04 2510.98
   18:50:38.108.25-Dec-2020 4831.01 3416.43 64.21 6.00 308.24 2510.98
   18:50:38.308.25-Dec-2020 4831.01 3416.46 64.21 6.00 308.44 2510.98
   18:50:38.508.25-Dec-2020 4831.01 3416.22 64.21 6.00 308.64 2510.98
   18:50:38.708.25-Dec-2020 4831.01 3416.25 64.21 6.00 308.84 2510.98
   18:50:38.908.25-Dec-2020 4831.01 3416.13 64.21 6.00 309.04 2510.98
   18:50:39.108.25-Dec-2020 4831.01 3416.12 64.21 6.00 309.24 2510.98
   18:50:39.309.25-Dec-2020 4831.01 3416.12 64.21 6.00 309.44 2510.98
   18:50:39.509.25-Dec-2020 4831.01 3416.09 64.21 6.00 309.64 2510.98
   18:50:39.709.25-Dec-2020 4831.01 3416.11 64.21 6.00 309.84 2510.98
   18:50:39.909.25-Dec-2020 4831.01 3416.08 64.21 6.00 310.04 2510.98
   18:50:40.109.25-Dec-2020 4831.01 3416.08 64.21 6.00 310.25 2510.98
   18:50:40.309.25-Dec-2020 4831.01 3416.08 64.21 6.00 310.45 2510.98
   18:50:40.509.25-Dec-2020 4831.01 3416.82 64.21 6.00 310.65 2510.98
   18:50:40.710.25-Dec-2020 4831.01 3416.34 64.21 6.00 310.85 2510.98
   18:50:40.910.25-Dec-2020 4831.01 3416.25 64.21 6.00 311.05 2510.98
   18:50:41.110.25-Dec-2020 4831.01 3416.23 64.21 6.00 311.25 2510.98
   18:50:41.310.25-Dec-2020 4831.01 3416.23 64.21 6.00 311.45 2510.98
   18:50:41.510.25-Dec-2020 4831.01 3416.09 64.21 6.00 311.65 2510.98
   18:50:41.710.25-Dec-2020 4831.01 3416.16 64.21 6.00 311.85 2510.98
   18:50:41.911.25-Dec-2020 4831.01 3416.11 64.21 6.00 312.05 2510.98
   18:50:42.111.25-Dec-2020 4831.01 3416.11 64.21 6.00 312.25 2510.98
   18:50:42.311.25-Dec-2020 4831.01 3416.11 64.21 6.00 312.45 2510.98
   18:50:42.511.25-Dec-2020 4831.01 3416.05 64.21 6.00 312.65 2510.98
   18:50:42.711.25-Dec-2020 4831.01 3416.09 64.21 6.00 312.85 2510.98
   18:50:42.911.25-Dec-2020 4831.01 3415.45 64.21 6.00 313.05 2510.98
   18:50:43.112.25-Dec-2020 4831.01 3416.69 64.21 6.00 313.25 2510.98
   18:50:43.312.25-Dec-2020 4831.01 3416.69 64.21 6.00 313.45 2510.98
   18:50:43.512.25-Dec-2020 4831.01 3415.74 64.21 6.00 313.65 2510.98
   18:50:43.712.25-Dec-2020 4831.01 3416.76 64.21 6.00 313.85 2510.98
   18:50:43.912.25-Dec-2020 4831.01 3416.18 64.21 6.00 314.05 2510.98
   18:50:44.112.25-Dec-2020 4831.01 3416.25 64.21 6.00 314.25 2510.98
   18:50:44.312.25-Dec-2020 4831.01 3416.25 64.21 6.00 314.45 2510.98
   18:50:44.513.25-Dec-2020 4831.01 3415.49 64.21 6.00 314.65 2510.98
   18:50:44.713.25-Dec-2020 4831.01 3416.67 64.21 6.00 314.85 2510.98
   18:50:44.913.25-Dec-2020 4831.01 3416.20 64.21 6.00 315.05 2510.98
   18:50:45.113.25-Dec-2020 4831.01 3415.48 64.21 6.00 315.25 2510.98
   18:50:45.313.25-Dec-2020 4831.01 3415.48 64.21 6.00 315.45 2510.98
   18:50:45.513.25-Dec-2020 4831.01 3416.29 64.21 6.00 315.65 2510.98
   18:50:45.714.25-Dec-2020 4831.01 3416.28 64.21 6.00 315.85 2510.98
   18:50:45.914.25-Dec-2020 4831.01 3416.28 64.21 6.00 316.05 2510.98
   18:50:46.114.25-Dec-2020 4831.01 3416.17 64.21 6.00 316.25 2510.98
   18:50:46.314.25-Dec-2020 4831.01 3416.17 64.21 6.00 316.45 2510.98
   18:50:46.514.25-Dec-2020 4831.01 3416.11 64.21 6.00 316.65 2510.98
   18:50:46.714.25-Dec-2020 4831.01 3407.69 64.21 6.00 316.85 2510.98
   18:50:46.915.25-Dec-2020 4831.01 3237.02 64.21 6.00 317.05 2510.98
   18:50:47.115.25-Dec-2020 4831.01 3005.52 64.21 6.00 317.25 2510.98
   18:50:47.315.25-Dec-2020 4831.01 3005.52 64.21 6.00 317.45 2510.98
   18:50:47.515.25-Dec-2020 4831.01 2595.94 64.21 6.00 317.65 2510.98
   18:50:47.715.25-Dec-2020 4831.01 2390.24 64.21 6.00 317.85 2510.98
   18:50:47.915.25-Dec-2020 4831.01 2247.89 64.21 6.00 318.05 2510.98
   18:50:48.115.25-Dec-2020 4831.01 2130.09 64.21 6.00 318.25 2510.98
   18:50:48.316.25-Dec-2020 4831.01 2130.09 64.21 6.00 318.45 2510.98
   18:50:48.516.25-Dec-2020 4831.01 1867.21 64.21 6.00 318.65 2510.98
   18:50:48.716.25-Dec-2020 4831.01 1747.21 64.21 6.00 318.85 2510.98
   18:50:48.916.25-Dec-2020 4831.01 1690.94 64.21 6.00 319.05 2510.98
   18:50:49.116.25-Dec-2020 4831.01 1708.41 64.21 6.00 319.25 2510.98
   18:50:49.316.25-Dec-2020 4831.01 1708.41 64.21 6.00 319.45 2510.98
   18:50:49.517.25-Dec-2020 4831.01 1698.88 64.20 6.00 319.65 2510.98
   18:50:49.717.25-Dec-2020 4831.01 1734.47 64.20 6.00 319.85 2510.98
   18:50:49.917.25-Dec-2020 4831.01 1742.62 64.20 6.00 320.05 2510.98
   18:50:50.117.25-Dec-2020 4831.01 1704.13 64.20 6.00 320.25 2510.98
   18:50:50.317.25-Dec-2020 4831.01 1677.63 64.20 6.00 320.45 2510.98
   18:50:50.517.25-Dec-2020 4831.01 1652.29 64.20 6.00 320.65 2510.98
   18:50:50.718.25-Dec-2020 4831.01 1665.81 64.20 6.00 320.85 2510.98
   18:50:50.918.25-Dec-2020 4831.01 1710.98 64.20 6.00 321.05 2510.98
   18:50:51.118.25-Dec-2020 4831.01 1731.09 64.19 6.00 321.25 2510.98
   18:50:51.318.25-Dec-2020 4831.01 1731.09 64.19 6.00 321.45 2510.98
   18:50:51.518.25-Dec-2020 4831.01 1754.21 64.19 6.00 321.65 2510.98
   18:50:51.718.25-Dec-2020 4831.01 1764.99 64.19 6.00 321.85 2510.98
   18:50:51.918.25-Dec-2020 4831.01 1766.62 64.19 6.00 322.05 2510.98
