~Version Information
 VERS.                  2.0:   CWLS log ASCII Standard -VERSION 2.0
 WRAP.                   NO:   One line per depth step
~Well Information Block
#MNEM.UNIT     VALUE/NAME     DESCRIPTION
#---------     -----------    ---------------------------
 STRT.S             20:22:11 25-Dec-20: START TIME 20:22:11 25-Dec-20
 STOP.S             20:30:35 25-Dec-20: STOP TIME  20:30:35 25-Dec-20
 STEP.S                   0.00: STEP TIME
 NULL.                 -999.25: NULL VALUE
 DFWT.                        :  DIST FWL TEXT
 DFST.                        :  DIST FSL TEXT
 DMF .             Drill Floor:  DRILL MEAS FROM
 STIM.      04.54.24 22-Sep-20:  START TIME
 DATE.      04.54.24 21-Nov-20:  END TIME
 SPUD.               21-Nov-20:  SPUD DATE
 NREF.                    Grid:  NORTH REFERENCE
 HPTY.       Minimum Curvature:  HOLE POS TYPE
 DMOD.             Drill Model:  DRILL MOD DESC
 SVYD.                  Survey:  SURVEY DESC
 ILTD.               Lithology:  INTERP LTH DESC
 FTOP.          Formation Tops:  FORM TOPS DESC
 SON .        AZ-XX-0906571587:  JOB NUMBER
 COMP.     BP Exploration (Caspian Sea) Ltd:  COMPANY
 UWI .                     N/A:  UNIQUE WELL IDENTIFIER
 API .                     N/A:  API NUMBER
 BASE.              Azerbaijan:  LOGGING EQUIPMENT BASE LOCATION
 REGN.                   EESSA:  REGION
 PROV.                    Baku:  PROVINCE
 STAT.                    Baku:  STATE NAME
 CTRY.              Azerbaijan:  COUNTRY NAME
 FLD .                     ACG:  FIELD NAME
 SRVC.     TURAN Drilling & Engineering:  CONTRACTOR
 WELL.                     J27:  WELL NAME
 RIG .             West Chirag:  RIG NAME
 DOE .                     N/A:  DOE NUMBER
 DCON.         Sperry Drilling:  DIRECTNL CONTR
 PDAT.          Mean Sea Level:  PERMANENT DATUM
 WTYP.                Deviated:  WELL TYPE
 MWDS.                    Baku:  MWD SHOP
 JOBN.        AZ-XX-0906571587:  JOB TICKET NUMB
 UNIT.                     N/A:  LOGGING EQUIPMENT ID
 MDS .        Operator Entered:  MAG DATA SOURCE
 CNTY.                        :  COUNTY
 LOC .                        :  LOCATION
 LMF .             Drill Floor:  LOG MEASURED FROM
 TVDS.m                  43.00:  TVDSS CORRECTN
 LATI.deg                40.13:  LATITUDE
 LONG.deg                51.22:  LONGITUDE
 WHNS.m                   7.72:  WELL HEAD N/S
 WHEW.m                 -14.24:  WELL HEAD E/W
 UTMX.m              519005.06:  UTM X
 UTMY.m             4443793.85:  UTM Y
 DFWL.m                   0.00:  DISTANCE FWL
 DFSL.m                   0.00:  DISTANCE FSL
 SDEP.m                 347.00:  START DEPTH
 TDD .m                 581.00:  TOTAL DEPTH (DRILLER)
 VSDR.deg               159.72:  VERT SEC DIRECT
 GVFD.g                   1.00:  GRAVITY FIELD
 MFLD.nT              50318.00:  MAGNETIC FIELD
 MDIP.deg                59.57:  MAGNETIC DIP
 MDEC.deg                 6.44:  MAGNETIC DECL
 GRDC.deg                 0.15:  GRID CORRECTION
 AZTC.deg                 6.29:  AZM TOTAL CORR
 EPD .m                   0.00:  ELEVATION
 EGL .m                   0.00:  GROUND ELEVATION
 WDMS.m                 169.80:  WD ELEV
 APD .m                  43.00:  DEPTH ABOVE PD
 AGAP.m                  43.00:  AIR GAP
 VSEW.m                 -14.24:  VERT SEC E/W
 VSNS.m                   7.72:  VERT SEC N/S
 DEP .m                 342.45:  DEPTH
 EKB .m                   0.00:  KB ELEVATION
 EDF .m                  43.00:  DF ELEVATION
 TDL .m                 237.00:  TOTAL DEPTH (LOGGER)
 VSC .                       0:  VS TO CLOSURE
 MAGU.                 1851428:  MAGUTM CHECKSUM
~Parameter Information Block
#MNEM.UNIT       Value        Description
#---------     -----------    ---------------------------
 AV  .mps                 1.50:  Ann Velocity 
 AVMX.mps                 2.90:  Max Ann Veloc 
 AZIF.deg               115.59:  Azm, Final 
 BHAT.        Rotary Steerable:  BHA Type 
 BROT.°/30m               0.50:  Build Rotating 
 BS  .in                  8.50:  Bit Size 
 BTPL.psig              580.00:  Bit Press Loss 
 CABU.                     Yes:  Customer Abuse 
 COMM.                     ”Cf:  Run Comments 1 
 TCS .hr                 89.79:  Time Ciculation Ended 
 CV  .mps                 3.22:  Crit Velocity 
 CVMX.mps                 4.37:  Max Crit Veloc 
 DD1 .          Rashad Habibov:  Direct Drillr 1 
 DDSV.               Geo-Pilot:  DD Service 
 DEFF.%                  95.00:  % Det Eff 
 DLRX.°/30m               1.94:  Dogleg Rot Max 
 DLSO.°/30m               0.70:  Dogleg Oriented 
 DLSX.°/30m               1.94:  Dogleg Str Max 
 DRET.      04.45.00 25-Dec-20:  Drill End Time 
 DRST.      10.00.00 24-Dec-20:  Drill Start Tim 
 DTIM.hr                 16.64:  Time Drilling 
 EDEP.m                4999.01:  End Depth 
 ENG1.         Elchin Mammadov:  Engineer 1 
 ENG2.          Ruslan Safarov:  Engineer 2 
 ENG3.          Rustam Safarov:  Engineer 3 
 ETIM.      09.00.00 29-Dec-20:  End Time 
 FLOI.gpm               500.00:  Flow In 
 FLON.gpm               400.00:  Flow In Min 
 FLOS.cptm                0.00:  Fluid Loss 
 FLOX.gpm               500.00:  Flow In Max 
 HFLO.                      No:  High Flow 
 HPRE.                      No:  High Pressure 
 HTEM.                      No:  High Temp 
 HYDO.m                   2.00:  Hydro Offset 
 IFIN.deg                66.79:  Inc, Final 
 IMAX.deg                67.66:  Inc Max 
 IMIN.deg                66.39:  Inc Min 
 IMND.m                4949.37:  Inc Min Depth 
 IMXD.m                4778.63:  Inc Max Depth 
 JARR.                     Yes:  Jarring 
 LETM.      04.45.00 25-Dec-20:  Log End Time 
 LOST.hr                     0:  Lost Rig Time 
 LSTM.      10.00.00 24-Dec-20:  Log Start Time 
 MDCL.ppm             39000.00:  Mud Chlorides 
 MDES.     Inversion Oil/Synthetic:  Mud Desc 
 DFD .sg                  1.33:  Mud Density 
 MDMN.sg                  1.33:  Dens Mud Min 
 MDMX.sg                  1.33:  Dens Mud Max 
 MOIL.                      70:  Run Mud Oil % 
 MOWR.                   70:30:  Run Mud OWR 
 MSND.                       0:  Run Mud Sand % 
 MSOL.                    17.4:  Run Mud Solids% 
 DFV .spqt               84.00:  Mud Viscosity 
 MWOD.in                  6.75:  MWD Tool OD 
 MWSI.                     Yes:  Serv Intrp, MWD 
 OTIM.hr                168.14:  Time Operating 
 PCON.           Look Like New:  Pad Condition 
 PMAX.psia            10822.93:  Press Op, Max 
 PV  .cP                 30.00:  Mud PV 
 RUN .                     900:  Run Number 
 ROPA.m/hr               18.00:  ROP Avg 
 ROPN.m/hr               12.00:  ROP Min 
 ROPX.m/hr               25.00:  ROP Max 
 RPMA.rpm               120.00:  RPM Surface Avg 
 RPMN.rpm               100.00:  RPM Surface Min 
 RPMX.rpm               120.00:  RPM Surface Max 
 RRUN.                    0900:  Rig Run Number 
 SAZI.deg               115.08:  Azm, Start 
 SDEP.m                4762.01:  Start Depth 
 SIDD.                      No:  Serv Intrp, DD 
 SINC.deg                66.14:  Inc, Start 
 SPPA.psig             3700.00:  SPP Avg 
 SPPN.psig             3620.00:  SPP Min 
 SPPX.psig             3900.00:  SPP Max 
 STIM.      09.30.00 22-Dec-20:  Start Time 
 SVCS.                 DD, MWD:  Services 
 SVER.                    9.20:  Sperry Version 
 TDAT.m                 237.00:  Tot Depth Attmp 
 TDDF.                      No:  Trip for DD 
 TDLG.m                 237.00:  Tot Depth Loggd 
 TFF .                      No:  Trip for Fail 
 TQAA.f-kp               18.00:  Torque Abs Avg 
 TQAN.f-kp               17.00:  Torque Abs Min 
 TQAX.f-kp               20.00:  Torque Abs Max 
 TRRT.°/30m               0.60:  Turn Rotating 
 MRT .                    HCIM:  Maximum Recorded Temperature 
 TTMX.degC               94.12:  Max Tool Temp 
 VS01.                90627809:  Virtual Str1 SN 
 VS02.                90527813:  Virtual Str2 SN 
 VS03.                90545417:  Virtual Str3 SN 
 VS04.                12460870:  Virtual Str4 SN 
 VS05.                90516706:  Virtual Str5 SN 
 VS06.                90632007:  Virtual Str6 SN 
 WBMN.klb                 0.00:  WOB Min 
 WOBA.klb                14.00:  WOB Avg 
 WOBX.klb                25.00:  WOB Max 
 YP  .lhf2               32.00:  Yield Point 
~Curve Information Block
#MNEM.UNIT                 API CODE     Curve Description
#---------               -----------    ---------------------------
 TIME.HHMMSS            00 000 000 000:  GT Time & Date
 GTDEPTH.m              00 000 000 000:  GT Depth
 GTPQH.psia             00 000 000 000:  GT HR Quartz Pressure
 GTTQ.degC              00 000 000 000:  GT Quartz Temperature
 GTTN.NONE              00 000 000 000:  GT Test Number
 GTET.sec               00 000 000 000:  GT Elapsed Test Time
 GTTVD.m                00 000 000 000:  GT True Vertical Depth
#Other Information
#
#WARRANTY: Halliburton will use its best efforts to furnish customers with 
#accurate information and interpretations that are part of, and incident to, the services 
#provided.  However, Halliburton cannot and does not warrant the accuracy 
#or correctness of such information and interpretations.  Under no circumstances should any 
#such information or interpretation be relied upon as the sole basis for any drilling, 
#completion, production, or financial decision or any procedure involving any risk to the 
#safety of any drilling venture, drilling rig or its crew or any other third party.  The 
#Customer has full responsibility for all drilling, completion and production operation.  
#Halliburton makes no representations or warranties, either expressed or 
#implied, including, but not limited to, the implied warranties of merchantability or fitness 
#for a particular purpose, with respect to the services rendered.  In no event will 
#Halliburton be liable for failure to obtain any particular results or for 
#any damages, including, but not limited to, indirect, special or consequential damages, 
#resulting from the use of any information or interpretation provided by Halliburton.
#
~A           TIME           GTDEPTH  GTPQH  GTTQ  GTTN  GTET   GTTVD  
# ...
   20:26:01.863.25-Dec-2020 4794.01 2302.75 63.87 8.00 229.98 2496.73
   20:26:02.063.25-Dec-2020 4794.01 2302.75 63.87 8.00 230.18 2496.73
   20:26:02.263.25-Dec-2020 4794.01 2302.91 63.87 8.00 230.38 2496.73
   20:26:02.463.25-Dec-2020 4794.01 2302.95 63.87 8.00 230.58 2496.73
   20:26:02.663.25-Dec-2020 4794.01 2302.99 63.87 8.00 230.78 2496.73
   20:26:02.863.25-Dec-2020 4794.01 2302.92 63.87 8.00 230.98 2496.73
   20:26:03.063.25-Dec-2020 4794.01 2302.95 63.87 8.00 231.18 2496.73
   20:26:03.263.25-Dec-2020 4794.01 2302.97 63.87 8.00 231.38 2496.73
   20:26:03.463.25-Dec-2020 4794.01 2302.91 63.87 8.00 231.58 2496.73
   20:26:03.663.25-Dec-2020 4794.01 2302.98 63.87 8.00 231.78 2496.73
   20:26:03.863.25-Dec-2020 4794.01 2302.95 63.87 8.00 231.98 2496.73
   20:26:04.063.25-Dec-2020 4794.01 2302.95 63.87 8.00 232.18 2496.73
   20:26:04.263.25-Dec-2020 4794.01 2302.88 63.87 8.00 232.38 2496.73
   20:26:04.463.25-Dec-2020 4794.01 2303.10 63.87 8.00 232.58 2496.73
   20:26:04.663.25-Dec-2020 4794.01 2302.95 63.87 8.00 232.78 2496.73
   20:26:04.863.25-Dec-2020 4794.01 2302.94 63.87 8.00 232.98 2496.73
   20:26:05.063.25-Dec-2020 4794.01 2302.57 63.87 8.00 233.18 2496.73
   20:26:05.263.25-Dec-2020 4794.01 2303.52 63.87 8.00 233.38 2496.73
   20:26:05.463.25-Dec-2020 4794.01 2302.76 63.87 8.00 233.58 2496.73
   20:26:05.663.25-Dec-2020 4794.01 2302.98 63.87 8.00 233.78 2496.73
   20:26:05.863.25-Dec-2020 4794.01 2302.98 63.87 8.00 233.98 2496.73
   20:26:06.063.25-Dec-2020 4794.01 2302.98 63.87 8.00 234.18 2496.73
   20:26:06.263.25-Dec-2020 4794.01 2302.98 63.87 8.00 234.38 2496.73
   20:26:06.463.25-Dec-2020 4794.01 2302.78 63.87 8.00 234.58 2496.73
   20:26:06.663.25-Dec-2020 4794.01 2303.19 63.87 8.00 234.78 2496.73
   20:26:06.863.25-Dec-2020 4794.01 2302.93 63.87 8.00 234.98 2496.73
   20:26:07.063.25-Dec-2020 4794.01 2302.93 63.87 8.00 235.18 2496.73
   20:26:07.263.25-Dec-2020 4794.01 2303.42 63.87 8.00 235.38 2496.73
   20:26:07.463.25-Dec-2020 4794.01 2302.80 63.87 8.00 235.58 2496.73
   20:26:07.663.25-Dec-2020 4794.01 2303.00 63.87 8.00 235.78 2496.73
   20:26:07.863.25-Dec-2020 4794.01 2303.00 63.87 8.00 235.98 2496.73
   20:26:08.063.25-Dec-2020 4794.01 2303.00 63.87 8.00 236.18 2496.73
   20:26:08.263.25-Dec-2020 4794.01 2303.01 63.87 8.00 236.38 2496.73
   20:26:08.463.25-Dec-2020 4794.01 2302.91 63.87 8.00 236.58 2496.73
   20:26:08.663.25-Dec-2020 4794.01 2302.98 63.87 8.00 236.78 2496.73
   20:26:08.863.25-Dec-2020 4794.01 2302.98 63.87 8.00 236.98 2496.73
   20:26:09.063.25-Dec-2020 4794.01 2302.98 63.87 8.00 237.18 2496.73
   20:26:09.263.25-Dec-2020 4794.01 2302.98 63.87 8.00 237.38 2496.73
   20:26:09.463.25-Dec-2020 4794.01 2302.94 63.87 8.00 237.58 2496.73
   20:26:09.663.25-Dec-2020 4794.01 2302.99 63.87 8.00 237.78 2496.73
   20:26:09.863.25-Dec-2020 4794.01 2302.85 63.87 8.00 237.98 2496.73
   20:26:10.063.25-Dec-2020 4794.01 2302.85 63.87 8.00 238.18 2496.73
   20:26:10.263.25-Dec-2020 4794.01 2302.98 63.87 8.00 238.38 2496.73
   20:26:10.463.25-Dec-2020 4794.01 2302.93 63.87 8.00 238.58 2496.73
   20:26:10.663.25-Dec-2020 4794.01 2303.01 63.87 8.00 238.78 2496.73
   20:26:10.863.25-Dec-2020 4794.01 2302.94 63.87 8.00 238.98 2496.73
   20:26:11.063.25-Dec-2020 4794.01 2302.94 63.87 8.00 239.18 2496.73
   20:26:11.263.25-Dec-2020 4794.01 2302.98 63.87 8.00 239.38 2496.73
   20:26:11.463.25-Dec-2020 4794.01 2302.94 63.87 8.00 239.58 2496.73
   20:26:11.663.25-Dec-2020 4794.01 2302.99 63.87 8.00 239.78 2496.73
   20:26:11.863.25-Dec-2020 4794.01 2302.96 63.87 8.00 239.98 2496.73
   20:26:12.063.25-Dec-2020 4794.01 2302.74 63.87 8.00 240.18 2496.73
   20:26:12.263.25-Dec-2020 4794.01 2303.15 63.87 8.00 240.38 2496.73
   20:26:12.463.25-Dec-2020 4794.01 2302.94 63.87 8.00 240.58 2496.73
   20:26:12.663.25-Dec-2020 4794.01 2303.02 63.87 8.00 240.78 2496.73
   20:26:12.863.25-Dec-2020 4794.01 2302.94 63.87 8.00 240.98 2496.73
   20:26:13.063.25-Dec-2020 4794.01 2302.63 63.87 8.00 241.18 2496.73
   20:26:13.263.25-Dec-2020 4794.01 2303.42 63.87 8.00 241.38 2496.73
   20:26:13.463.25-Dec-2020 4794.01 2302.73 63.87 8.00 241.58 2496.73
   20:26:13.663.25-Dec-2020 4794.01 2303.16 63.87 8.00 241.78 2496.73
   20:26:13.863.25-Dec-2020 4794.01 2302.87 63.87 8.00 241.98 2496.73
   20:26:14.063.25-Dec-2020 4794.01 2302.87 63.87 8.00 242.18 2496.73
   20:26:14.263.25-Dec-2020 4794.01 2302.87 63.87 8.00 242.38 2496.73
   20:26:14.463.25-Dec-2020 4794.01 2303.07 63.87 8.00 242.58 2496.73
   20:26:14.663.25-Dec-2020 4794.01 2303.01 63.87 8.00 242.78 2496.73
   20:26:14.863.25-Dec-2020 4794.01 2303.03 63.87 8.00 242.98 2496.73
   20:26:15.063.25-Dec-2020 4794.01 2303.03 63.87 8.00 243.18 2496.73
   20:26:15.263.25-Dec-2020 4794.01 2303.58 63.86 8.00 243.38 2496.73
   20:26:15.463.25-Dec-2020 4794.01 2302.82 63.86 8.00 243.58 2496.73
   20:26:15.663.25-Dec-2020 4794.01 2302.94 63.86 8.00 243.78 2496.73
   20:26:15.863.25-Dec-2020 4794.01 2302.98 63.86 8.00 243.98 2496.73
   20:26:16.063.25-Dec-2020 4794.01 2302.90 63.86 8.00 244.18 2496.73
   20:26:16.263.25-Dec-2020 4794.01 2302.98 63.86 8.00 244.38 2496.73
   20:26:16.463.25-Dec-2020 4794.01 2302.95 63.86 8.00 244.58 2496.73
   20:26:16.663.25-Dec-2020 4794.01 2302.95 63.86 8.00 244.78 2496.73
   20:26:16.862.25-Dec-2020 4794.01 2302.98 63.86 8.00 244.98 2496.73
   20:26:17.062.25-Dec-2020 4794.01 2302.91 63.86 8.00 245.18 2496.73
   20:26:17.262.25-Dec-2020 4794.01 2302.97 63.86 8.00 245.38 2496.73
   20:26:17.462.25-Dec-2020 4794.01 2302.96 63.86 8.00 245.58 2496.73
   20:26:17.662.25-Dec-2020 4794.01 2302.79 63.86 8.00 245.78 2496.73
   20:26:17.862.25-Dec-2020 4794.01 2303.15 63.86 8.00 245.98 2496.73
   20:26:18.062.25-Dec-2020 4794.01 2303.15 63.86 8.00 246.18 2496.73
   20:26:18.262.25-Dec-2020 4794.01 2303.08 63.86 8.00 246.38 2496.73
   20:26:18.462.25-Dec-2020 4794.01 2302.92 63.86 8.00 246.58 2496.73
   20:26:18.662.25-Dec-2020 4794.01 2302.92 63.86 8.00 246.78 2496.73
   20:26:18.862.25-Dec-2020 4794.01 2303.01 63.86 8.00 246.98 2496.73
   20:26:19.062.25-Dec-2020 4794.01 2303.01 63.86 8.00 247.18 2496.73
   20:26:19.262.25-Dec-2020 4794.01 2302.99 63.86 8.00 247.38 2496.73
   20:26:19.462.25-Dec-2020 4794.01 2302.93 63.86 8.00 247.58 2496.73
   20:26:19.662.25-Dec-2020 4794.01 2302.95 63.86 8.00 247.78 2496.73
   20:26:19.862.25-Dec-2020 4794.01 2303.00 63.86 8.00 247.98 2496.73
   20:26:20.062.25-Dec-2020 4794.01 2303.00 63.86 8.00 248.18 2496.73
   20:26:20.262.25-Dec-2020 4794.01 2303.36 63.86 8.00 248.38 2496.73
   20:26:20.462.25-Dec-2020 4794.01 2302.83 63.86 8.00 248.58 2496.73
   20:26:20.662.25-Dec-2020 4794.01 2302.96 63.86 8.00 248.78 2496.73
   20:26:20.862.25-Dec-2020 4794.01 2303.03 63.86 8.00 248.98 2496.73
   20:26:21.062.25-Dec-2020 4794.01 2302.89 63.86 8.00 249.18 2496.73
   20:26:21.262.25-Dec-2020 4794.01 2303.02 63.86 8.00 249.38 2496.73
   20:26:21.462.25-Dec-2020 4794.01 2302.77 63.86 8.00 249.58 2496.73
   20:26:21.662.25-Dec-2020 4794.01 2303.13 63.86 8.00 249.78 2496.73
   20:26:21.862.25-Dec-2020 4794.01 2302.99 63.86 8.00 249.98 2496.73
   20:26:22.062.25-Dec-2020 4794.01 2302.99 63.86 8.00 250.18 2496.73
   20:26:22.262.25-Dec-2020 4794.01 2302.74 63.86 8.00 250.38 2496.73
   20:26:22.462.25-Dec-2020 4794.01 2303.32 63.86 8.00 250.58 2496.73
   20:26:22.662.25-Dec-2020 4794.01 2302.84 63.86 8.00 250.78 2496.73
   20:26:22.862.25-Dec-2020 4794.01 2303.00 63.86 8.00 250.98 2496.73
   20:26:23.062.25-Dec-2020 4794.01 2303.00 63.86 8.00 251.18 2496.73
   20:26:23.262.25-Dec-2020 4794.01 2303.27 63.86 8.00 251.38 2496.73
   20:26:23.462.25-Dec-2020 4794.01 2302.82 63.86 8.00 251.58 2496.73
   20:26:23.662.25-Dec-2020 4794.01 2303.14 63.86 8.00 251.78 2496.73
   20:26:23.862.25-Dec-2020 4794.01 2302.92 63.86 8.00 251.98 2496.73
   20:26:24.062.25-Dec-2020 4794.01 2302.92 63.86 8.00 252.18 2496.73
   20:26:24.262.25-Dec-2020 4794.01 2302.96 63.86 8.00 252.38 2496.73
   20:26:24.462.25-Dec-2020 4794.01 2302.94 63.86 8.00 252.58 2496.73
   20:26:24.662.25-Dec-2020 4794.01 2302.94 63.86 8.00 252.78 2496.73
