~Version Information
 VERS.                  2.0:   CWLS log ASCII Standard -VERSION 2.0
 WRAP.                   NO:   One line per depth step
~Well Information Block
#MNEM.UNIT     VALUE/NAME     DESCRIPTION
#---------     -----------    ---------------------------
 STRT.S             15:24:16 25-Dec-20: START TIME 15:24:16 25-Dec-20
 STOP.S             15:32:36 25-Dec-20: STOP TIME  15:32:36 25-Dec-20
 STEP.S                   0.00: STEP TIME
 NULL.                 -999.25: NULL VALUE
 DFWT.                        :  DIST FWL TEXT
 DFST.                        :  DIST FSL TEXT
 DMF .             Drill Floor:  DRILL MEAS FROM
 STIM.      04.54.24 22-Sep-20:  START TIME
 DATE.      04.54.24 21-Nov-20:  END TIME
 SPUD.               21-Nov-20:  SPUD DATE
 NREF.                    Grid:  NORTH REFERENCE
 HPTY.       Minimum Curvature:  HOLE POS TYPE
 DMOD.             Drill Model:  DRILL MOD DESC
 SVYD.                  Survey:  SURVEY DESC
 ILTD.               Lithology:  INTERP LTH DESC
 FTOP.          Formation Tops:  FORM TOPS DESC
 SON .        AZ-XX-0906571587:  JOB NUMBER
 COMP.     BP Exploration (Caspian Sea) Ltd:  COMPANY
 UWI .                     N/A:  UNIQUE WELL IDENTIFIER
 API .                     N/A:  API NUMBER
 BASE.              Azerbaijan:  LOGGING EQUIPMENT BASE LOCATION
 REGN.                   EESSA:  REGION
 PROV.                    Baku:  PROVINCE
 STAT.                    Baku:  STATE NAME
 CTRY.              Azerbaijan:  COUNTRY NAME
 FLD .                     ACG:  FIELD NAME
 SRVC.     TURAN Drilling & Engineering:  CONTRACTOR
 WELL.                     J27:  WELL NAME
 RIG .             West Chirag:  RIG NAME
 DOE .                     N/A:  DOE NUMBER
 DCON.         Sperry Drilling:  DIRECTNL CONTR
 PDAT.          Mean Sea Level:  PERMANENT DATUM
 WTYP.                Deviated:  WELL TYPE
 MWDS.                    Baku:  MWD SHOP
 JOBN.        AZ-XX-0906571587:  JOB TICKET NUMB
 UNIT.                     N/A:  LOGGING EQUIPMENT ID
 MDS .        Operator Entered:  MAG DATA SOURCE
 CNTY.                        :  COUNTY
 LOC .                        :  LOCATION
 LMF .             Drill Floor:  LOG MEASURED FROM
 TVDS.m                  43.00:  TVDSS CORRECTN
 LATI.deg                40.13:  LATITUDE
 LONG.deg                51.22:  LONGITUDE
 WHNS.m                   7.72:  WELL HEAD N/S
 WHEW.m                 -14.24:  WELL HEAD E/W
 UTMX.m              519005.06:  UTM X
 UTMY.m             4443793.85:  UTM Y
 DFWL.m                   0.00:  DISTANCE FWL
 DFSL.m                   0.00:  DISTANCE FSL
 SDEP.m                 347.00:  START DEPTH
 TDD .m                 581.00:  TOTAL DEPTH (DRILLER)
 VSDR.deg               159.72:  VERT SEC DIRECT
 GVFD.g                   1.00:  GRAVITY FIELD
 MFLD.nT              50318.00:  MAGNETIC FIELD
 MDIP.deg                59.57:  MAGNETIC DIP
 MDEC.deg                 6.44:  MAGNETIC DECL
 GRDC.deg                 0.15:  GRID CORRECTION
 AZTC.deg                 6.29:  AZM TOTAL CORR
 EPD .m                   0.00:  ELEVATION
 EGL .m                   0.00:  GROUND ELEVATION
 WDMS.m                 169.80:  WD ELEV
 APD .m                  43.00:  DEPTH ABOVE PD
 AGAP.m                  43.00:  AIR GAP
 VSEW.m                 -14.24:  VERT SEC E/W
 VSNS.m                   7.72:  VERT SEC N/S
 DEP .m                 342.45:  DEPTH
 EKB .m                   0.00:  KB ELEVATION
 EDF .m                  43.00:  DF ELEVATION
 TDL .m                 237.00:  TOTAL DEPTH (LOGGER)
 VSC .                       0:  VS TO CLOSURE
 MAGU.                 1851428:  MAGUTM CHECKSUM
~Parameter Information Block
#MNEM.UNIT       Value        Description
#---------     -----------    ---------------------------
 AV  .mps                 1.50:  Ann Velocity 
 AVMX.mps                 2.90:  Max Ann Veloc 
 AZIF.deg               115.59:  Azm, Final 
 BHAT.        Rotary Steerable:  BHA Type 
 BROT.°/30m               0.50:  Build Rotating 
 BS  .in                  8.50:  Bit Size 
 BTPL.psig              580.00:  Bit Press Loss 
 CABU.                     Yes:  Customer Abuse 
 TCS .hr                 89.79:  Time Ciculation Ended 
 CV  .mps                 3.22:  Crit Velocity 
 CVMX.mps                 4.37:  Max Crit Veloc 
 DD1 .          Rashad Habibov:  Direct Drillr 1 
 DDSV.               Geo-Pilot:  DD Service 
 DEFF.%                  95.00:  % Det Eff 
 DLRX.°/30m               1.94:  Dogleg Rot Max 
 DLSO.°/30m               0.70:  Dogleg Oriented 
 DLSX.°/30m               1.94:  Dogleg Str Max 
 DRET.      04.45.00 25-Dec-20:  Drill End Time 
 DRST.      10.00.00 24-Dec-20:  Drill Start Tim 
 DTIM.hr                 16.64:  Time Drilling 
 EDEP.m                4999.01:  End Depth 
 ENG1.         Elchin Mammadov:  Engineer 1 
 ENG2.          Ruslan Safarov:  Engineer 2 
 ENG3.          Rustam Safarov:  Engineer 3 
 ETIM.      09.00.00 29-Dec-20:  End Time 
 FLOI.gpm               500.00:  Flow In 
 FLON.gpm               400.00:  Flow In Min 
 FLOS.cptm                0.00:  Fluid Loss 
 FLOX.gpm               500.00:  Flow In Max 
 HFLO.                      No:  High Flow 
 HPRE.                      No:  High Pressure 
 HTEM.                      No:  High Temp 
 HYDO.m                   2.00:  Hydro Offset 
 IFIN.deg                66.79:  Inc, Final 
 IMAX.deg                67.66:  Inc Max 
 IMIN.deg                66.39:  Inc Min 
 IMND.m                4949.37:  Inc Min Depth 
 IMXD.m                4778.63:  Inc Max Depth 
 JARR.                     Yes:  Jarring 
 LETM.      04.45.00 25-Dec-20:  Log End Time 
 LOST.hr                     0:  Lost Rig Time 
 LSTM.      10.00.00 24-Dec-20:  Log Start Time 
 MDCL.ppm             39000.00:  Mud Chlorides 
 MDES.     Inversion Oil/Synthetic:  Mud Desc 
 DFD .sg                  1.33:  Mud Density 
 MDMN.sg                  1.33:  Dens Mud Min 
 MDMX.sg                  1.33:  Dens Mud Max 
 MOIL.                      70:  Run Mud Oil % 
 MOWR.                   70:30:  Run Mud OWR 
 MSND.                       0:  Run Mud Sand % 
 MSOL.                    17.4:  Run Mud Solids% 
 DFV .spqt               84.00:  Mud Viscosity 
 MWOD.in                  6.75:  MWD Tool OD 
 MWSI.                     Yes:  Serv Intrp, MWD 
 OTIM.hr                168.14:  Time Operating 
 PCON.           Look Like New:  Pad Condition 
 PMAX.psia            10822.93:  Press Op, Max 
 PV  .cP                 30.00:  Mud PV 
 RUN .                     900:  Run Number 
 ROPA.m/hr               18.00:  ROP Avg 
 ROPN.m/hr               12.00:  ROP Min 
 ROPX.m/hr               25.00:  ROP Max 
 RPMA.rpm               120.00:  RPM Surface Avg 
 RPMN.rpm               100.00:  RPM Surface Min 
 RPMX.rpm               120.00:  RPM Surface Max 
 RRUN.                    0900:  Rig Run Number 
 SAZI.deg               115.08:  Azm, Start 
 SDEP.m                4762.01:  Start Depth 
 SIDD.                      No:  Serv Intrp, DD 
 SINC.deg                66.14:  Inc, Start 
 SPPA.psig             3700.00:  SPP Avg 
 SPPN.psig             3620.00:  SPP Min 
 SPPX.psig             3900.00:  SPP Max 
 STIM.      09.30.00 22-Dec-20:  Start Time 
 SVCS.                 DD, MWD:  Services 
 SVER.                    9.20:  Sperry Version 
 TDAT.m                 237.00:  Tot Depth Attmp 
 TDDF.                      No:  Trip for DD 
 TDLG.m                 237.00:  Tot Depth Loggd 
 TFF .                      No:  Trip for Fail 
 TQAA.f-kp               18.00:  Torque Abs Avg 
 TQAN.f-kp               17.00:  Torque Abs Min 
 TQAX.f-kp               20.00:  Torque Abs Max 
 TRRT.°/30m               0.60:  Turn Rotating 
 MRT .                    HCIM:  Maximum Recorded Temperature 
 TTMX.degC               94.12:  Max Tool Temp 
 VS01.                90627809:  Virtual Str1 SN 
 VS02.                90527813:  Virtual Str2 SN 
 VS03.                90545417:  Virtual Str3 SN 
 VS04.                12460870:  Virtual Str4 SN 
 VS05.                90516706:  Virtual Str5 SN 
 VS06.                90632007:  Virtual Str6 SN 
 WBMN.klb                 0.00:  WOB Min 
 WOBA.klb                14.00:  WOB Avg 
 WOBX.klb                25.00:  WOB Max 
 YP  .lhf2               32.00:  Yield Point 
~Curve Information Block
#MNEM.UNIT                 API CODE     Curve Description
#---------               -----------    ---------------------------
 TIME.HHMMSS            00 000 000 000:  GT Time & Date
 GTDEPTH.m              00 000 000 000:  GT Depth
 GTPQH.psia             00 000 000 000:  GT HR Quartz Pressure
 GTTQ.degC              00 000 000 000:  GT Quartz Temperature
 GTTN.NONE              00 000 000 000:  GT Test Number
 GTET.sec               00 000 000 000:  GT Elapsed Test Time
 GTTVD.m                00 000 000 000:  GT True Vertical Depth
#Other Information
#
#WARRANTY: Halliburton will use its best efforts to furnish customers with 
#accurate information and interpretations that are part of, and incident to, the services 
#provided.  However, Halliburton cannot and does not warrant the accuracy 
#or correctness of such information and interpretations.  Under no circumstances should any 
#such information or interpretation be relied upon as the sole basis for any drilling, 
#completion, production, or financial decision or any procedure involving any risk to the 
#safety of any drilling venture, drilling rig or its crew or any other third party.  The 
#Customer has full responsibility for all drilling, completion and production operation.  
#Halliburton makes no representations or warranties, either expressed or 
#implied, including, but not limited to, the implied warranties of merchantability or fitness 
#for a particular purpose, with respect to the services rendered.  In no event will 
#Halliburton be liable for failure to obtain any particular results or for 
#any damages, including, but not limited to, indirect, special or consequential damages, 
#resulting from the use of any information or interpretation provided by Halliburton.
#
~A           TIME           GTDEPTH  GTPQH  GTTQ  GTTN  GTET   GTTVD  
# ...
   15:28:06.814.25-Dec-2020 4892.01 2718.24 65.36 4.00 230.06 2535.10
   15:28:07.014.25-Dec-2020 4892.01 2718.24 65.36 4.00 230.26 2535.10
   15:28:07.214.25-Dec-2020 4892.01 2718.34 65.36 4.00 230.46 2535.10
   15:28:07.414.25-Dec-2020 4892.01 2718.30 65.36 4.00 230.66 2535.10
   15:28:07.614.25-Dec-2020 4892.01 2718.40 65.36 4.00 230.86 2535.10
   15:28:07.814.25-Dec-2020 4892.01 2718.34 65.36 4.00 231.06 2535.10
   15:28:08.014.25-Dec-2020 4892.01 2718.37 65.36 4.00 231.26 2535.10
   15:28:08.214.25-Dec-2020 4892.01 2718.38 65.36 4.00 231.46 2535.10
   15:28:08.414.25-Dec-2020 4892.01 2718.35 65.36 4.00 231.66 2535.10
   15:28:08.614.25-Dec-2020 4892.01 2718.37 65.36 4.00 231.86 2535.10
   15:28:08.814.25-Dec-2020 4892.01 2718.37 65.36 4.00 232.06 2535.10
   15:28:09.014.25-Dec-2020 4892.01 2718.37 65.36 4.00 232.26 2535.10
   15:28:09.214.25-Dec-2020 4892.01 2718.35 65.35 4.00 232.46 2535.10
   15:28:09.414.25-Dec-2020 4892.01 2718.36 65.36 4.00 232.66 2535.10
   15:28:09.614.25-Dec-2020 4892.01 2718.43 65.35 4.00 232.86 2535.10
   15:28:09.814.25-Dec-2020 4892.01 2718.47 65.35 4.00 233.06 2535.10
   15:28:10.015.25-Dec-2020 4892.01 2718.47 65.35 4.00 233.26 2535.10
   15:28:10.215.25-Dec-2020 4892.01 2718.40 65.35 4.00 233.46 2535.10
   15:28:10.415.25-Dec-2020 4892.01 2718.39 65.35 4.00 233.66 2535.10
   15:28:10.615.25-Dec-2020 4892.01 2718.37 65.35 4.00 233.86 2535.10
   15:28:10.815.25-Dec-2020 4892.01 2718.39 65.35 4.00 234.06 2535.10
   15:28:11.015.25-Dec-2020 4892.01 2718.39 65.35 4.00 234.26 2535.10
   15:28:11.215.25-Dec-2020 4892.01 2718.36 65.35 4.00 234.46 2535.10
   15:28:11.415.25-Dec-2020 4892.01 2718.36 65.35 4.00 234.66 2535.10
   15:28:11.615.25-Dec-2020 4892.01 2718.49 65.35 4.00 234.86 2535.10
   15:28:11.815.25-Dec-2020 4892.01 2718.23 65.35 4.00 235.06 2535.10
   15:28:12.015.25-Dec-2020 4892.01 2718.45 65.35 4.00 235.26 2535.10
   15:28:12.215.25-Dec-2020 4892.01 2718.37 65.35 4.00 235.46 2535.10
   15:28:12.415.25-Dec-2020 4892.01 2718.30 65.35 4.00 235.66 2535.10
   15:28:12.615.25-Dec-2020 4892.01 2718.38 65.35 4.00 235.86 2535.10
   15:28:12.815.25-Dec-2020 4892.01 2718.32 65.35 4.00 236.06 2535.10
   15:28:13.015.25-Dec-2020 4892.01 2718.32 65.35 4.00 236.26 2535.10
   15:28:13.215.25-Dec-2020 4892.01 2718.36 65.35 4.00 236.46 2535.10
   15:28:13.415.25-Dec-2020 4892.01 2718.45 65.35 4.00 236.66 2535.10
   15:28:13.615.25-Dec-2020 4892.01 2718.48 65.35 4.00 236.86 2535.10
   15:28:13.816.25-Dec-2020 4892.01 2718.22 65.35 4.00 237.06 2535.10
   15:28:14.016.25-Dec-2020 4892.01 2718.22 65.35 4.00 237.26 2535.10
   15:28:14.216.25-Dec-2020 4892.01 2718.33 65.35 4.00 237.46 2535.10
   15:28:14.416.25-Dec-2020 4892.01 2718.30 65.35 4.00 237.66 2535.10
   15:28:14.616.25-Dec-2020 4892.01 2718.44 65.35 4.00 237.86 2535.10
   15:28:14.816.25-Dec-2020 4892.01 2718.43 65.35 4.00 238.06 2535.10
   15:28:15.016.25-Dec-2020 4892.01 2718.43 65.35 4.00 238.26 2535.10
   15:28:15.216.25-Dec-2020 4892.01 2718.37 65.35 4.00 238.46 2535.10
   15:28:15.416.25-Dec-2020 4892.01 2718.37 65.35 4.00 238.66 2535.10
   15:28:15.616.25-Dec-2020 4892.01 2718.34 65.35 4.00 238.86 2535.10
   15:28:15.816.25-Dec-2020 4892.01 2718.39 65.35 4.00 239.06 2535.10
   15:28:16.016.25-Dec-2020 4892.01 2718.35 65.35 4.00 239.26 2535.10
   15:28:16.216.25-Dec-2020 4892.01 2718.36 65.35 4.00 239.46 2535.10
   15:28:16.416.25-Dec-2020 4892.01 2718.37 65.35 4.00 239.66 2535.10
   15:28:16.616.25-Dec-2020 4892.01 2718.25 65.35 4.00 239.86 2535.10
   15:28:16.816.25-Dec-2020 4892.01 2718.54 65.35 4.00 240.06 2535.10
   15:28:17.016.25-Dec-2020 4892.01 2718.54 65.35 4.00 240.26 2535.10
   15:28:17.216.25-Dec-2020 4892.01 2718.22 65.35 4.00 240.46 2535.10
   15:28:17.417.25-Dec-2020 4892.01 2718.49 65.35 4.00 240.66 2535.10
   15:28:17.617.25-Dec-2020 4892.01 2718.35 65.35 4.00 240.87 2535.10
   15:28:17.817.25-Dec-2020 4892.01 2718.32 65.35 4.00 241.07 2535.10
   15:28:18.017.25-Dec-2020 4892.01 2718.32 65.35 4.00 241.27 2535.10
   15:28:18.217.25-Dec-2020 4892.01 2718.37 65.35 4.00 241.47 2535.10
   15:28:18.417.25-Dec-2020 4892.01 2718.37 65.35 4.00 241.67 2535.10
   15:28:18.617.25-Dec-2020 4892.01 2718.36 65.35 4.00 241.87 2535.10
   15:28:18.817.25-Dec-2020 4892.01 2718.36 65.35 4.00 242.07 2535.10
   15:28:19.017.25-Dec-2020 4892.01 2718.36 65.35 4.00 242.27 2535.10
   15:28:19.217.25-Dec-2020 4892.01 2718.34 65.35 4.00 242.47 2535.10
   15:28:19.417.25-Dec-2020 4892.01 2718.34 65.35 4.00 242.67 2535.10
   15:28:19.617.25-Dec-2020 4892.01 2718.42 65.35 4.00 242.87 2535.10
   15:28:19.817.25-Dec-2020 4892.01 2718.44 65.35 4.00 243.07 2535.10
   15:28:20.017.25-Dec-2020 4892.01 2718.44 65.35 4.00 243.27 2535.10
   15:28:20.217.25-Dec-2020 4892.01 2718.54 65.35 4.00 243.47 2535.10
   15:28:20.417.25-Dec-2020 4892.01 2718.48 65.35 4.00 243.67 2535.10
   15:28:20.617.25-Dec-2020 4892.01 2718.18 65.35 4.00 243.87 2535.10
   15:28:20.817.25-Dec-2020 4892.01 2718.50 65.35 4.00 244.07 2535.10
   15:28:21.017.25-Dec-2020 4892.01 2718.50 65.35 4.00 244.27 2535.10
   15:28:21.218.25-Dec-2020 4892.01 2718.42 65.35 4.00 244.47 2535.10
   15:28:21.418.25-Dec-2020 4892.01 2718.19 65.35 4.00 244.67 2535.10
   15:28:21.618.25-Dec-2020 4892.01 2718.21 65.35 4.00 244.87 2535.10
   15:28:21.818.25-Dec-2020 4892.01 2718.52 65.35 4.00 245.07 2535.10
   15:28:22.018.25-Dec-2020 4892.01 2718.52 65.35 4.00 245.27 2535.10
   15:28:22.218.25-Dec-2020 4892.01 2718.19 65.35 4.00 245.47 2535.10
   15:28:22.418.25-Dec-2020 4892.01 2718.45 65.35 4.00 245.67 2535.10
   15:28:22.618.25-Dec-2020 4892.01 2718.32 65.35 4.00 245.87 2535.10
   15:28:22.818.25-Dec-2020 4892.01 2718.30 65.35 4.00 246.07 2535.10
   15:28:23.018.25-Dec-2020 4892.01 2718.30 65.35 4.00 246.27 2535.10
   15:28:23.218.25-Dec-2020 4892.01 2718.35 65.35 4.00 246.47 2535.10
   15:28:23.418.25-Dec-2020 4892.01 2718.36 65.35 4.00 246.67 2535.10
   15:28:23.618.25-Dec-2020 4892.01 2718.36 65.35 4.00 246.87 2535.10
   15:28:23.818.25-Dec-2020 4892.01 2718.35 65.35 4.00 247.07 2535.10
   15:28:24.018.25-Dec-2020 4892.01 2718.36 65.35 4.00 247.27 2535.10
   15:28:24.218.25-Dec-2020 4892.01 2718.33 65.35 4.00 247.47 2535.10
   15:28:24.418.25-Dec-2020 4892.01 2718.56 65.35 4.00 247.67 2535.10
   15:28:24.618.25-Dec-2020 4892.01 2718.50 65.35 4.00 247.87 2535.10
   15:28:24.819.25-Dec-2020 4892.01 2718.17 65.35 4.00 248.07 2535.10
   15:28:25.019.25-Dec-2020 4892.01 2718.17 65.35 4.00 248.27 2535.10
   15:28:25.219.25-Dec-2020 4892.01 2718.35 65.35 4.00 248.47 2535.10
   15:28:25.419.25-Dec-2020 4892.01 2718.31 65.35 4.00 248.67 2535.10
   15:28:25.619.25-Dec-2020 4892.01 2718.37 65.35 4.00 248.87 2535.10
   15:28:25.819.25-Dec-2020 4892.01 2718.36 65.35 4.00 249.07 2535.10
   15:28:26.019.25-Dec-2020 4892.01 2718.36 65.35 4.00 249.27 2535.10
   15:28:26.219.25-Dec-2020 4892.01 2718.35 65.35 4.00 249.47 2535.10
   15:28:26.419.25-Dec-2020 4892.01 2718.35 65.35 4.00 249.67 2535.10
   15:28:26.619.25-Dec-2020 4892.01 2718.23 65.35 4.00 249.87 2535.10
   15:28:26.819.25-Dec-2020 4892.01 2718.52 65.35 4.00 250.07 2535.10
   15:28:27.019.25-Dec-2020 4892.01 2718.52 65.35 4.00 250.27 2535.10
   15:28:27.219.25-Dec-2020 4892.01 2718.19 65.35 4.00 250.47 2535.10
   15:28:27.419.25-Dec-2020 4892.01 2718.47 65.35 4.00 250.67 2535.10
   15:28:27.619.25-Dec-2020 4892.01 2718.34 65.35 4.00 250.87 2535.10
   15:28:27.819.25-Dec-2020 4892.01 2718.45 65.35 4.00 251.07 2535.10
   15:28:28.019.25-Dec-2020 4892.01 2718.52 65.35 4.00 251.27 2535.10
   15:28:28.219.25-Dec-2020 4892.01 2718.14 65.35 4.00 251.47 2535.10
   15:28:28.419.25-Dec-2020 4892.01 2718.64 65.35 4.00 251.67 2535.10
   15:28:28.620.25-Dec-2020 4892.01 2718.19 65.35 4.00 251.87 2535.10
   15:28:28.820.25-Dec-2020 4892.01 2718.33 65.35 4.00 252.07 2535.10
   15:28:29.020.25-Dec-2020 4892.01 2718.33 65.35 4.00 252.27 2535.10
   15:28:29.220.25-Dec-2020 4892.01 2718.24 65.35 4.00 252.47 2535.10
   15:28:29.420.25-Dec-2020 4892.01 2718.53 65.35 4.00 252.67 2535.10
   15:28:29.620.25-Dec-2020 4892.01 2718.45 65.35 4.00 252.87 2535.10
