~Version Information
 VERS.                  2.0:   CWLS log ASCII Standard -VERSION 2.0
 WRAP.                   NO:   One line per depth step
~Well Information Block
#MNEM.UNIT     VALUE/NAME     DESCRIPTION
#---------     -----------    ---------------------------
 STRT.S             21:28:23 25-Dec-20: START TIME 21:28:23 25-Dec-20
 STOP.S             21:36:48 25-Dec-20: STOP TIME  21:36:48 25-Dec-20
 STEP.S                   0.00: STEP TIME
 NULL.                 -999.25: NULL VALUE
 DFWT.                        :  DIST FWL TEXT
 DFST.                        :  DIST FSL TEXT
 DMF .             Drill Floor:  DRILL MEAS FROM
 STIM.      04.54.24 22-Sep-20:  START TIME
 DATE.      04.54.24 21-Nov-20:  END TIME
 SPUD.               21-Nov-20:  SPUD DATE
 NREF.                    Grid:  NORTH REFERENCE
 HPTY.       Minimum Curvature:  HOLE POS TYPE
 DMOD.             Drill Model:  DRILL MOD DESC
 SVYD.                  Survey:  SURVEY DESC
 ILTD.               Lithology:  INTERP LTH DESC
 FTOP.          Formation Tops:  FORM TOPS DESC
 SON .        AZ-XX-0906571587:  JOB NUMBER
 COMP.     BP Exploration (Caspian Sea) Ltd:  COMPANY
 UWI .                     N/A:  UNIQUE WELL IDENTIFIER
 API .                     N/A:  API NUMBER
 BASE.              Azerbaijan:  LOGGING EQUIPMENT BASE LOCATION
 REGN.                   EESSA:  REGION
 PROV.                    Baku:  PROVINCE
 STAT.                    Baku:  STATE NAME
 CTRY.              Azerbaijan:  COUNTRY NAME
 FLD .                     ACG:  FIELD NAME
 SRVC.     TURAN Drilling & Engineering:  CONTRACTOR
 WELL.                     J27:  WELL NAME
 RIG .             West Chirag:  RIG NAME
 DOE .                     N/A:  DOE NUMBER
 DCON.         Sperry Drilling:  DIRECTNL CONTR
 PDAT.          Mean Sea Level:  PERMANENT DATUM
 WTYP.                Deviated:  WELL TYPE
 MWDS.                    Baku:  MWD SHOP
 JOBN.        AZ-XX-0906571587:  JOB TICKET NUMB
 UNIT.                     N/A:  LOGGING EQUIPMENT ID
 MDS .        Operator Entered:  MAG DATA SOURCE
 CNTY.                        :  COUNTY
 LOC .                        :  LOCATION
 LMF .             Drill Floor:  LOG MEASURED FROM
 TVDS.m                  43.00:  TVDSS CORRECTN
 LATI.deg                40.13:  LATITUDE
 LONG.deg                51.22:  LONGITUDE
 WHNS.m                   7.72:  WELL HEAD N/S
 WHEW.m                 -14.24:  WELL HEAD E/W
 UTMX.m              519005.06:  UTM X
 UTMY.m             4443793.85:  UTM Y
 DFWL.m                   0.00:  DISTANCE FWL
 DFSL.m                   0.00:  DISTANCE FSL
 SDEP.m                 347.00:  START DEPTH
 TDD .m                 581.00:  TOTAL DEPTH (DRILLER)
 VSDR.deg               159.72:  VERT SEC DIRECT
 GVFD.g                   1.00:  GRAVITY FIELD
 MFLD.nT              50318.00:  MAGNETIC FIELD
 MDIP.deg                59.57:  MAGNETIC DIP
 MDEC.deg                 6.44:  MAGNETIC DECL
 GRDC.deg                 0.15:  GRID CORRECTION
 AZTC.deg                 6.29:  AZM TOTAL CORR
 EPD .m                   0.00:  ELEVATION
 EGL .m                   0.00:  GROUND ELEVATION
 WDMS.m                 169.80:  WD ELEV
 APD .m                  43.00:  DEPTH ABOVE PD
 AGAP.m                  43.00:  AIR GAP
 VSEW.m                 -14.24:  VERT SEC E/W
 VSNS.m                   7.72:  VERT SEC N/S
 DEP .m                 342.45:  DEPTH
 EKB .m                   0.00:  KB ELEVATION
 EDF .m                  43.00:  DF ELEVATION
 TDL .m                 237.00:  TOTAL DEPTH (LOGGER)
 VSC .                       0:  VS TO CLOSURE
 MAGU.                 1851428:  MAGUTM CHECKSUM
~Parameter Information Block
#MNEM.UNIT       Value        Description
#---------     -----------    ---------------------------
 AV  .mps                 1.50:  Ann Velocity 
 AVMX.mps                 2.90:  Max Ann Veloc 
 AZIF.deg               115.59:  Azm, Final 
 BHAT.        Rotary Steerable:  BHA Type 
 BROT.°/30m               0.50:  Build Rotating 
 BS  .in                  8.50:  Bit Size 
 BTPL.psig              580.00:  Bit Press Loss 
 CABU.                     Yes:  Customer Abuse 
 COMM.                     Üc{:  Run Comments 1 
 TCS .hr                 89.79:  Time Ciculation Ended 
 CV  .mps                 3.22:  Crit Velocity 
 CVMX.mps                 4.37:  Max Crit Veloc 
 DD1 .          Rashad Habibov:  Direct Drillr 1 
 DDSV.               Geo-Pilot:  DD Service 
 DEFF.%                  95.00:  % Det Eff 
 DLRX.°/30m               1.94:  Dogleg Rot Max 
 DLSO.°/30m               0.70:  Dogleg Oriented 
 DLSX.°/30m               1.94:  Dogleg Str Max 
 DRET.      04.45.00 25-Dec-20:  Drill End Time 
 DRST.      10.00.00 24-Dec-20:  Drill Start Tim 
 DTIM.hr                 16.64:  Time Drilling 
 EDEP.m                4999.01:  End Depth 
 ENG1.         Elchin Mammadov:  Engineer 1 
 ENG2.          Ruslan Safarov:  Engineer 2 
 ENG3.          Rustam Safarov:  Engineer 3 
 ETIM.      09.00.00 29-Dec-20:  End Time 
 FLOI.gpm               500.00:  Flow In 
 FLON.gpm               400.00:  Flow In Min 
 FLOS.cptm                0.00:  Fluid Loss 
 FLOX.gpm               500.00:  Flow In Max 
 HFLO.                      No:  High Flow 
 HPRE.                      No:  High Pressure 
 HTEM.                      No:  High Temp 
 HYDO.m                   2.00:  Hydro Offset 
 IFIN.deg                66.79:  Inc, Final 
 IMAX.deg                67.66:  Inc Max 
 IMIN.deg                66.39:  Inc Min 
 IMND.m                4949.37:  Inc Min Depth 
 IMXD.m                4778.63:  Inc Max Depth 
 JARR.                     Yes:  Jarring 
 LETM.      04.45.00 25-Dec-20:  Log End Time 
 LOST.hr                     0:  Lost Rig Time 
 LSTM.      10.00.00 24-Dec-20:  Log Start Time 
 MDCL.ppm             39000.00:  Mud Chlorides 
 MDES.     Inversion Oil/Synthetic:  Mud Desc 
 DFD .sg                  1.33:  Mud Density 
 MDMN.sg                  1.33:  Dens Mud Min 
 MDMX.sg                  1.33:  Dens Mud Max 
 MOIL.                      70:  Run Mud Oil % 
 MOWR.                   70:30:  Run Mud OWR 
 MSND.                       0:  Run Mud Sand % 
 MSOL.                    17.4:  Run Mud Solids% 
 DFV .spqt               84.00:  Mud Viscosity 
 MWOD.in                  6.75:  MWD Tool OD 
 MWSI.                     Yes:  Serv Intrp, MWD 
 OTIM.hr                168.14:  Time Operating 
 PCON.           Look Like New:  Pad Condition 
 PMAX.psia            10822.93:  Press Op, Max 
 PV  .cP                 30.00:  Mud PV 
 RUN .                     900:  Run Number 
 ROPA.m/hr               18.00:  ROP Avg 
 ROPN.m/hr               12.00:  ROP Min 
 ROPX.m/hr               25.00:  ROP Max 
 RPMA.rpm               120.00:  RPM Surface Avg 
 RPMN.rpm               100.00:  RPM Surface Min 
 RPMX.rpm               120.00:  RPM Surface Max 
 RRUN.                    0900:  Rig Run Number 
 SAZI.deg               115.08:  Azm, Start 
 SDEP.m                4762.01:  Start Depth 
 SIDD.                      No:  Serv Intrp, DD 
 SINC.deg                66.14:  Inc, Start 
 SPPA.psig             3700.00:  SPP Avg 
 SPPN.psig             3620.00:  SPP Min 
 SPPX.psig             3900.00:  SPP Max 
 STIM.      09.30.00 22-Dec-20:  Start Time 
 SVCS.                 DD, MWD:  Services 
 SVER.                    9.20:  Sperry Version 
 TDAT.m                 237.00:  Tot Depth Attmp 
 TDDF.                      No:  Trip for DD 
 TDLG.m                 237.00:  Tot Depth Loggd 
 TFF .                      No:  Trip for Fail 
 TQAA.f-kp               18.00:  Torque Abs Avg 
 TQAN.f-kp               17.00:  Torque Abs Min 
 TQAX.f-kp               20.00:  Torque Abs Max 
 TRRT.°/30m               0.60:  Turn Rotating 
 MRT .                    HCIM:  Maximum Recorded Temperature 
 TTMX.degC               94.12:  Max Tool Temp 
 VS01.                90627809:  Virtual Str1 SN 
 VS02.                90527813:  Virtual Str2 SN 
 VS03.                90545417:  Virtual Str3 SN 
 VS04.                12460870:  Virtual Str4 SN 
 VS05.                90516706:  Virtual Str5 SN 
 VS06.                90632007:  Virtual Str6 SN 
 WBMN.klb                 0.00:  WOB Min 
 WOBA.klb                14.00:  WOB Avg 
 WOBX.klb                25.00:  WOB Max 
 YP  .lhf2               32.00:  Yield Point 
~Curve Information Block
#MNEM.UNIT                 API CODE     Curve Description
#---------               -----------    ---------------------------
 TIME.HHMMSS            00 000 000 000:  GT Time & Date
 GTDEPTH.m              00 000 000 000:  GT Depth
 GTPQH.psia             00 000 000 000:  GT HR Quartz Pressure
 GTTQ.degC              00 000 000 000:  GT Quartz Temperature
 GTTN.NONE              00 000 000 000:  GT Test Number
 GTET.sec               00 000 000 000:  GT Elapsed Test Time
 GTTVD.m                00 000 000 000:  GT True Vertical Depth
#Other Information
#
#WARRANTY: Halliburton will use its best efforts to furnish customers with 
#accurate information and interpretations that are part of, and incident to, the services 
#provided.  However, Halliburton cannot and does not warrant the accuracy 
#or correctness of such information and interpretations.  Under no circumstances should any 
#such information or interpretation be relied upon as the sole basis for any drilling, 
#completion, production, or financial decision or any procedure involving any risk to the 
#safety of any drilling venture, drilling rig or its crew or any other third party.  The 
#Customer has full responsibility for all drilling, completion and production operation.  
#Halliburton makes no representations or warranties, either expressed or 
#implied, including, but not limited to, the implied warranties of merchantability or fitness 
#for a particular purpose, with respect to the services rendered.  In no event will 
#Halliburton be liable for failure to obtain any particular results or for 
#any damages, including, but not limited to, indirect, special or consequential damages, 
#resulting from the use of any information or interpretation provided by Halliburton.
#
~A           TIME           GTDEPTH  GTPQH  GTTQ  GTTN  GTET   GTTVD  
# ...
   21:33:45.595.25-Dec-2020 4768.01 2610.56 63.80 9.00 321.98 2486.78
   21:33:45.795.25-Dec-2020 4768.01 2514.81 63.80 9.00 322.18 2486.78
   21:33:45.995.25-Dec-2020 4768.01 2450.80 63.80 9.00 322.38 2486.78
   21:33:46.195.25-Dec-2020 4768.01 2409.13 63.80 9.00 322.58 2486.78
   21:33:46.395.25-Dec-2020 4768.01 2375.97 63.80 9.00 322.78 2486.78
   21:33:46.595.25-Dec-2020 4768.01 2355.31 63.80 9.00 322.98 2486.78
   21:33:46.795.25-Dec-2020 4768.01 2340.02 63.80 9.00 323.18 2486.78
   21:33:46.995.25-Dec-2020 4768.01 2324.89 63.80 9.00 323.38 2486.78
   21:33:47.195.25-Dec-2020 4768.01 2317.90 63.80 9.00 323.58 2486.78
   21:33:47.395.25-Dec-2020 4768.01 2314.07 63.80 9.00 323.78 2486.78
   21:33:47.595.25-Dec-2020 4768.01 2311.74 63.80 9.00 323.98 2486.78
   21:33:47.795.25-Dec-2020 4768.01 2311.74 63.80 9.00 324.18 2486.78
   21:33:47.995.25-Dec-2020 4768.01 2302.30 63.80 9.00 324.38 2486.78
   21:33:48.195.25-Dec-2020 4768.01 2302.30 63.80 9.00 324.58 2486.78
   21:33:48.395.25-Dec-2020 4768.01 2295.98 63.80 9.00 324.78 2486.78
   21:33:48.595.25-Dec-2020 4768.01 2300.62 63.80 9.00 324.98 2486.78
   21:33:48.795.25-Dec-2020 4768.01 2300.62 63.80 9.00 325.18 2486.78
   21:33:48.995.25-Dec-2020 4768.01 2282.63 63.79 9.00 325.38 2486.78
   21:33:49.195.25-Dec-2020 4768.01 2283.19 63.79 9.00 325.58 2486.78
   21:33:49.395.25-Dec-2020 4768.01 2282.18 63.79 9.00 325.78 2486.78
   21:33:49.595.25-Dec-2020 4768.01 2279.65 63.79 9.00 325.98 2486.78
   21:33:49.795.25-Dec-2020 4768.01 2279.65 63.79 9.00 326.18 2486.78
   21:33:49.995.25-Dec-2020 4768.01 2277.72 63.79 9.00 326.38 2486.78
   21:33:50.195.25-Dec-2020 4768.01 2279.35 63.79 9.00 326.58 2486.78
   21:33:50.395.25-Dec-2020 4768.01 2279.52 63.79 9.00 326.78 2486.78
   21:33:50.595.25-Dec-2020 4768.01 2280.45 63.79 9.00 326.98 2486.78
   21:33:50.795.25-Dec-2020 4768.01 2278.21 63.79 9.00 327.18 2486.78
   21:33:50.995.25-Dec-2020 4768.01 2282.81 63.79 9.00 327.38 2486.78
   21:33:51.195.25-Dec-2020 4768.01 2285.11 63.79 9.00 327.58 2486.78
   21:33:51.395.25-Dec-2020 4768.01 2279.56 63.79 9.00 327.78 2486.78
   21:33:51.595.25-Dec-2020 4768.01 2276.29 63.78 9.00 327.98 2486.78
   21:33:51.795.25-Dec-2020 4768.01 2276.29 63.78 9.00 328.18 2486.78
   21:33:51.995.25-Dec-2020 4768.01 2269.99 63.78 9.00 328.38 2486.78
   21:33:52.195.25-Dec-2020 4768.01 2272.27 63.78 9.00 328.58 2486.78
   21:33:52.395.25-Dec-2020 4768.01 2271.33 63.78 9.00 328.78 2486.78
   21:33:52.595.25-Dec-2020 4768.01 2267.83 63.78 9.00 328.98 2486.78
   21:33:52.795.25-Dec-2020 4768.01 2267.83 63.78 9.00 329.18 2486.78
   21:33:52.995.25-Dec-2020 4768.01 2266.87 63.78 9.00 329.38 2486.78
   21:33:53.195.25-Dec-2020 4768.01 2277.40 63.78 9.00 329.58 2486.78
   21:33:53.395.25-Dec-2020 4768.01 2274.35 63.78 9.00 329.78 2486.78
   21:33:53.595.25-Dec-2020 4768.01 2270.70 63.78 9.00 329.98 2486.78
   21:33:53.795.25-Dec-2020 4768.01 2270.70 63.78 9.00 330.18 2486.78
   21:33:53.995.25-Dec-2020 4768.01 2269.65 63.78 9.00 330.38 2486.78
   21:33:54.195.25-Dec-2020 4768.01 2274.64 63.78 9.00 330.58 2486.78
   21:33:54.395.25-Dec-2020 4768.01 2277.04 63.78 9.00 330.78 2486.78
   21:33:54.595.25-Dec-2020 4768.01 2270.05 63.78 9.00 330.98 2486.78
   21:33:54.795.25-Dec-2020 4768.01 2277.21 63.78 9.00 331.18 2486.78
   21:33:54.995.25-Dec-2020 4768.01 2287.10 63.78 9.00 331.38 2486.78
   21:33:55.195.25-Dec-2020 4768.01 2330.53 63.78 9.00 331.58 2486.78
   21:33:55.395.25-Dec-2020 4768.01 2571.32 63.78 9.00 331.78 2486.78
   21:33:55.595.25-Dec-2020 4768.01 2762.50 63.78 9.00 331.98 2486.78
   21:33:55.795.25-Dec-2020 4768.01 2762.50 63.78 9.00 332.18 2486.78
   21:33:55.995.25-Dec-2020 4768.01 2984.06 63.77 9.00 332.38 2486.78
   21:33:56.195.25-Dec-2020 4768.01 3047.64 63.77 9.00 332.58 2486.78
   21:33:56.395.25-Dec-2020 4768.01 3092.48 63.77 9.00 332.78 2486.78
   21:33:56.595.25-Dec-2020 4768.01 3124.04 63.77 9.00 332.98 2486.78
   21:33:56.795.25-Dec-2020 4768.01 3124.04 63.77 9.00 333.18 2486.78
   21:33:56.995.25-Dec-2020 4768.01 3163.64 63.77 9.00 333.38 2486.78
   21:33:57.195.25-Dec-2020 4768.01 3175.86 63.77 9.00 333.58 2486.78
   21:33:57.395.25-Dec-2020 4768.01 3184.75 63.78 9.00 333.78 2486.78
   21:33:57.595.25-Dec-2020 4768.01 3191.34 63.78 9.00 333.98 2486.78
   21:33:57.795.25-Dec-2020 4768.01 3191.34 63.78 9.00 334.18 2486.78
   21:33:57.995.25-Dec-2020 4768.01 3201.45 63.78 9.00 334.38 2486.78
   21:33:58.195.25-Dec-2020 4768.01 3204.44 63.78 9.00 334.58 2486.78
   21:33:58.395.25-Dec-2020 4768.01 3207.24 63.78 9.00 334.78 2486.78
   21:33:58.595.25-Dec-2020 4768.01 3209.40 63.78 9.00 334.98 2486.78
   21:33:58.795.25-Dec-2020 4768.01 3211.40 63.78 9.00 335.18 2486.78
   21:33:58.995.25-Dec-2020 4768.01 3212.97 63.78 9.00 335.38 2486.78
   21:33:59.195.25-Dec-2020 4768.01 3214.26 63.78 9.00 335.58 2486.78
   21:33:59.395.25-Dec-2020 4768.01 3215.56 63.78 9.00 335.78 2486.78
   21:33:59.594.25-Dec-2020 4768.01 3216.49 63.78 9.00 335.98 2486.78
   21:33:59.794.25-Dec-2020 4768.01 3216.49 63.78 9.00 336.18 2486.78
   21:33:59.994.25-Dec-2020 4768.01 3217.71 63.78 9.00 336.38 2486.78
   21:34:00.194.25-Dec-2020 4768.01 3219.29 63.78 9.00 336.58 2486.78
   21:34:00.394.25-Dec-2020 4768.01 3220.39 63.78 9.00 336.78 2486.78
   21:34:00.594.25-Dec-2020 4768.01 3220.74 63.78 9.00 336.98 2486.78
   21:34:00.794.25-Dec-2020 4768.01 3220.74 63.78 9.00 337.18 2486.78
   21:34:00.994.25-Dec-2020 4768.01 3221.19 63.78 9.00 337.38 2486.78
   21:34:01.194.25-Dec-2020 4768.01 3222.89 63.78 9.00 337.58 2486.78
   21:34:01.394.25-Dec-2020 4768.01 3223.34 63.79 9.00 337.78 2486.78
   21:34:01.594.25-Dec-2020 4768.01 3223.85 63.79 9.00 337.98 2486.78
   21:34:01.794.25-Dec-2020 4768.01 3223.85 63.79 9.00 338.18 2486.78
   21:34:01.994.25-Dec-2020 4768.01 3223.85 63.79 9.00 338.38 2486.78
   21:34:02.194.25-Dec-2020 4768.01 3225.16 63.79 9.00 338.58 2486.78
   21:34:02.394.25-Dec-2020 4768.01 3225.90 63.79 9.00 338.78 2486.78
   21:34:02.594.25-Dec-2020 4768.01 3225.94 63.79 9.00 338.98 2486.78
   21:34:02.794.25-Dec-2020 4768.01 3225.82 63.79 9.00 339.18 2486.78
   21:34:02.994.25-Dec-2020 4768.01 3226.54 63.79 9.00 339.38 2486.78
   21:34:03.194.25-Dec-2020 4768.01 3226.96 63.79 9.00 339.58 2486.78
   21:34:03.394.25-Dec-2020 4768.01 3227.75 63.79 9.00 339.78 2486.78
   21:34:03.594.25-Dec-2020 4768.01 3227.80 63.79 9.00 339.98 2486.78
   21:34:03.794.25-Dec-2020 4768.01 3227.80 63.79 9.00 340.18 2486.78
   21:34:03.994.25-Dec-2020 4768.01 3228.33 63.79 9.00 340.38 2486.78
   21:34:04.194.25-Dec-2020 4768.01 3228.50 63.79 9.00 340.58 2486.78
   21:34:04.394.25-Dec-2020 4768.01 3228.82 63.79 9.00 340.78 2486.78
   21:34:04.594.25-Dec-2020 4768.01 3229.02 63.79 9.00 340.98 2486.78
   21:34:04.794.25-Dec-2020 4768.01 3229.02 63.79 9.00 341.18 2486.78
   21:34:04.994.25-Dec-2020 4768.01 3229.60 63.79 9.00 341.38 2486.78
   21:34:05.194.25-Dec-2020 4768.01 3229.75 63.79 9.00 341.58 2486.78
   21:34:05.394.25-Dec-2020 4768.01 3229.16 63.79 9.00 341.78 2486.78
   21:34:05.594.25-Dec-2020 4768.01 3229.16 63.79 9.00 341.98 2486.78
   21:34:05.794.25-Dec-2020 4768.01 3230.98 63.79 9.00 342.18 2486.78
   21:34:05.994.25-Dec-2020 4768.01 3230.98 63.79 9.00 342.38 2486.78
   21:34:06.194.25-Dec-2020 4768.01 3231.26 63.79 9.00 342.58 2486.78
   21:34:06.394.25-Dec-2020 4768.01 3231.47 63.79 9.00 342.78 2486.78
   21:34:06.594.25-Dec-2020 4768.01 3231.59 63.80 9.00 342.98 2486.78
   21:34:06.794.25-Dec-2020 4768.01 3231.75 63.80 9.00 343.18 2486.78
   21:34:06.994.25-Dec-2020 4768.01 3231.98 63.80 9.00 343.38 2486.78
   21:34:07.194.25-Dec-2020 4768.01 3232.06 63.80 9.00 343.58 2486.78
   21:34:07.394.25-Dec-2020 4768.01 3232.33 63.80 9.00 343.78 2486.78
   21:34:07.594.25-Dec-2020 4768.01 3232.46 63.80 9.00 343.98 2486.78
   21:34:07.794.25-Dec-2020 4768.01 3232.46 63.80 9.00 344.18 2486.78
   21:34:07.994.25-Dec-2020 4768.01 3232.22 63.80 9.00 344.38 2486.78
   21:34:08.194.25-Dec-2020 4768.01 3233.14 63.80 9.00 344.58 2486.78
   21:34:08.394.25-Dec-2020 4768.01 3233.67 63.80 9.00 344.78 2486.78
