~Version Information
 VERS.                  2.0:   CWLS log ASCII Standard -VERSION 2.0
 WRAP.                   NO:   One line per depth step
~Well Information Block
#MNEM.UNIT     VALUE/NAME     DESCRIPTION
#---------     -----------    ---------------------------
 STRT.S             12:53:37 25-Dec-20: START TIME 12:53:37 25-Dec-20
 STOP.S             13:01:52 25-Dec-20: STOP TIME  13:01:52 25-Dec-20
 STEP.S                   0.00: STEP TIME
 NULL.                 -999.25: NULL VALUE
 DFWT.                        :  DIST FWL TEXT
 DFST.                        :  DIST FSL TEXT
 DMF .             Drill Floor:  DRILL MEAS FROM
 STIM.      04.54.24 22-Sep-20:  START TIME
 DATE.      04.54.24 21-Nov-20:  END TIME
 SPUD.               21-Nov-20:  SPUD DATE
 NREF.                    Grid:  NORTH REFERENCE
 HPTY.       Minimum Curvature:  HOLE POS TYPE
 DMOD.             Drill Model:  DRILL MOD DESC
 SVYD.                  Survey:  SURVEY DESC
 ILTD.               Lithology:  INTERP LTH DESC
 FTOP.          Formation Tops:  FORM TOPS DESC
 SON .        AZ-XX-0906571587:  JOB NUMBER
 COMP.     BP Exploration (Caspian Sea) Ltd:  COMPANY
 UWI .                     N/A:  UNIQUE WELL IDENTIFIER
 API .                     N/A:  API NUMBER
 BASE.              Azerbaijan:  LOGGING EQUIPMENT BASE LOCATION
 REGN.                   EESSA:  REGION
 PROV.                    Baku:  PROVINCE
 STAT.                    Baku:  STATE NAME
 CTRY.              Azerbaijan:  COUNTRY NAME
 FLD .                     ACG:  FIELD NAME
 SRVC.     TURAN Drilling & Engineering:  CONTRACTOR
 WELL.                     J27:  WELL NAME
 RIG .             West Chirag:  RIG NAME
 DOE .                     N/A:  DOE NUMBER
 DCON.         Sperry Drilling:  DIRECTNL CONTR
 PDAT.          Mean Sea Level:  PERMANENT DATUM
 WTYP.                Deviated:  WELL TYPE
 MWDS.                    Baku:  MWD SHOP
 JOBN.        AZ-XX-0906571587:  JOB TICKET NUMB
 UNIT.                     N/A:  LOGGING EQUIPMENT ID
 MDS .        Operator Entered:  MAG DATA SOURCE
 CNTY.                        :  COUNTY
 LOC .                        :  LOCATION
 LMF .             Drill Floor:  LOG MEASURED FROM
 TVDS.m                  43.00:  TVDSS CORRECTN
 LATI.deg                40.13:  LATITUDE
 LONG.deg                51.22:  LONGITUDE
 WHNS.m                   7.72:  WELL HEAD N/S
 WHEW.m                 -14.24:  WELL HEAD E/W
 UTMX.m              519005.06:  UTM X
 UTMY.m             4443793.85:  UTM Y
 DFWL.m                   0.00:  DISTANCE FWL
 DFSL.m                   0.00:  DISTANCE FSL
 SDEP.m                 347.00:  START DEPTH
 TDD .m                 581.00:  TOTAL DEPTH (DRILLER)
 VSDR.deg               159.72:  VERT SEC DIRECT
 GVFD.g                   1.00:  GRAVITY FIELD
 MFLD.nT              50318.00:  MAGNETIC FIELD
 MDIP.deg                59.57:  MAGNETIC DIP
 MDEC.deg                 6.44:  MAGNETIC DECL
 GRDC.deg                 0.15:  GRID CORRECTION
 AZTC.deg                 6.29:  AZM TOTAL CORR
 EPD .m                   0.00:  ELEVATION
 EGL .m                   0.00:  GROUND ELEVATION
 WDMS.m                 169.80:  WD ELEV
 APD .m                  43.00:  DEPTH ABOVE PD
 AGAP.m                  43.00:  AIR GAP
 VSEW.m                 -14.24:  VERT SEC E/W
 VSNS.m                   7.72:  VERT SEC N/S
 DEP .m                 342.45:  DEPTH
 EKB .m                   0.00:  KB ELEVATION
 EDF .m                  43.00:  DF ELEVATION
 TDL .m                 237.00:  TOTAL DEPTH (LOGGER)
 VSC .                       0:  VS TO CLOSURE
 MAGU.                 1851428:  MAGUTM CHECKSUM
~Parameter Information Block
#MNEM.UNIT       Value        Description
#---------     -----------    ---------------------------
 AV  .mps                 1.50:  Ann Velocity 
 AVMX.mps                 2.90:  Max Ann Veloc 
 AZIF.deg               115.59:  Azm, Final 
 BHAT.        Rotary Steerable:  BHA Type 
 BROT.°/30m               0.50:  Build Rotating 
 BS  .in                  8.50:  Bit Size 
 BTPL.psig              580.00:  Bit Press Loss 
 CABU.                     Yes:  Customer Abuse 
 COMM.                     LÓw:  Run Comments 1 
 TCS .hr                 89.79:  Time Ciculation Ended 
 CV  .mps                 3.22:  Crit Velocity 
 CVMX.mps                 4.37:  Max Crit Veloc 
 DD1 .          Rashad Habibov:  Direct Drillr 1 
 DDSV.               Geo-Pilot:  DD Service 
 DEFF.%                  95.00:  % Det Eff 
 DLRX.°/30m               1.94:  Dogleg Rot Max 
 DLSO.°/30m               0.70:  Dogleg Oriented 
 DLSX.°/30m               1.94:  Dogleg Str Max 
 DRET.      04.45.00 25-Dec-20:  Drill End Time 
 DRST.      10.00.00 24-Dec-20:  Drill Start Tim 
 DTIM.hr                 16.64:  Time Drilling 
 EDEP.m                4999.01:  End Depth 
 ENG1.         Elchin Mammadov:  Engineer 1 
 ENG2.          Ruslan Safarov:  Engineer 2 
 ENG3.          Rustam Safarov:  Engineer 3 
 ETIM.      09.00.00 29-Dec-20:  End Time 
 FLOI.gpm               500.00:  Flow In 
 FLON.gpm               400.00:  Flow In Min 
 FLOS.cptm                0.00:  Fluid Loss 
 FLOX.gpm               500.00:  Flow In Max 
 HFLO.                      No:  High Flow 
 HPRE.                      No:  High Pressure 
 HTEM.                      No:  High Temp 
 HYDO.m                   2.00:  Hydro Offset 
 IFIN.deg                66.79:  Inc, Final 
 IMAX.deg                67.66:  Inc Max 
 IMIN.deg                66.39:  Inc Min 
 IMND.m                4949.37:  Inc Min Depth 
 IMXD.m                4778.63:  Inc Max Depth 
 JARR.                     Yes:  Jarring 
 LETM.      04.45.00 25-Dec-20:  Log End Time 
 LOST.hr                     0:  Lost Rig Time 
 LSTM.      10.00.00 24-Dec-20:  Log Start Time 
 MDCL.ppm             39000.00:  Mud Chlorides 
 MDES.     Inversion Oil/Synthetic:  Mud Desc 
 DFD .sg                  1.33:  Mud Density 
 MDMN.sg                  1.33:  Dens Mud Min 
 MDMX.sg                  1.33:  Dens Mud Max 
 MOIL.                      70:  Run Mud Oil % 
 MOWR.                   70:30:  Run Mud OWR 
 MSND.                       0:  Run Mud Sand % 
 MSOL.                    17.4:  Run Mud Solids% 
 DFV .spqt               84.00:  Mud Viscosity 
 MWOD.in                  6.75:  MWD Tool OD 
 MWSI.                     Yes:  Serv Intrp, MWD 
 OTIM.hr                168.14:  Time Operating 
 PCON.           Look Like New:  Pad Condition 
 PMAX.psia            10822.93:  Press Op, Max 
 PV  .cP                 30.00:  Mud PV 
 RUN .                     900:  Run Number 
 ROPA.m/hr               18.00:  ROP Avg 
 ROPN.m/hr               12.00:  ROP Min 
 ROPX.m/hr               25.00:  ROP Max 
 RPMA.rpm               120.00:  RPM Surface Avg 
 RPMN.rpm               100.00:  RPM Surface Min 
 RPMX.rpm               120.00:  RPM Surface Max 
 RRUN.                    0900:  Rig Run Number 
 SAZI.deg               115.08:  Azm, Start 
 SDEP.m                4762.01:  Start Depth 
 SIDD.                      No:  Serv Intrp, DD 
 SINC.deg                66.14:  Inc, Start 
 SPPA.psig             3700.00:  SPP Avg 
 SPPN.psig             3620.00:  SPP Min 
 SPPX.psig             3900.00:  SPP Max 
 STIM.      09.30.00 22-Dec-20:  Start Time 
 SVCS.                 DD, MWD:  Services 
 SVER.                    9.20:  Sperry Version 
 TDAT.m                 237.00:  Tot Depth Attmp 
 TDDF.                      No:  Trip for DD 
 TDLG.m                 237.00:  Tot Depth Loggd 
 TFF .                      No:  Trip for Fail 
 TQAA.f-kp               18.00:  Torque Abs Avg 
 TQAN.f-kp               17.00:  Torque Abs Min 
 TQAX.f-kp               20.00:  Torque Abs Max 
 TRRT.°/30m               0.60:  Turn Rotating 
 MRT .                    HCIM:  Maximum Recorded Temperature 
 TTMX.degC               94.12:  Max Tool Temp 
 VS01.                90627809:  Virtual Str1 SN 
 VS02.                90527813:  Virtual Str2 SN 
 VS03.                90545417:  Virtual Str3 SN 
 VS04.                12460870:  Virtual Str4 SN 
 VS05.                90516706:  Virtual Str5 SN 
 VS06.                90632007:  Virtual Str6 SN 
 WBMN.klb                 0.00:  WOB Min 
 WOBA.klb                14.00:  WOB Avg 
 WOBX.klb                25.00:  WOB Max 
 YP  .lhf2               32.00:  Yield Point 
~Curve Information Block
#MNEM.UNIT                 API CODE     Curve Description
#---------               -----------    ---------------------------
 TIME.HHMMSS            00 000 000 000:  GT Time & Date
 GTDEPTH.m              00 000 000 000:  GT Depth
 GTPQH.psia             00 000 000 000:  GT HR Quartz Pressure
 GTTQ.degC              00 000 000 000:  GT Quartz Temperature
 GTTN.NONE              00 000 000 000:  GT Test Number
 GTET.sec               00 000 000 000:  GT Elapsed Test Time
 GTTVD.m                00 000 000 000:  GT True Vertical Depth
#Other Information
#
#WARRANTY: Halliburton will use its best efforts to furnish customers with 
#accurate information and interpretations that are part of, and incident to, the services 
#provided.  However, Halliburton cannot and does not warrant the accuracy 
#or correctness of such information and interpretations.  Under no circumstances should any 
#such information or interpretation be relied upon as the sole basis for any drilling, 
#completion, production, or financial decision or any procedure involving any risk to the 
#safety of any drilling venture, drilling rig or its crew or any other third party.  The 
#Customer has full responsibility for all drilling, completion and production operation.  
#Halliburton makes no representations or warranties, either expressed or 
#implied, including, but not limited to, the implied warranties of merchantability or fitness 
#for a particular purpose, with respect to the services rendered.  In no event will 
#Halliburton be liable for failure to obtain any particular results or for 
#any damages, including, but not limited to, indirect, special or consequential damages, 
#resulting from the use of any information or interpretation provided by Halliburton.
#
~A           TIME           GTDEPTH  GTPQH  GTTQ  GTTN  GTET   GTTVD  
# ...
   12:58:36.319.25-Dec-2020 4950.51 2090.82 66.60 1.00 299.13 2558.08
   12:58:36.519.25-Dec-2020 4950.51 2090.82 66.60 1.00 299.33 2558.08
   12:58:36.720.25-Dec-2020 4950.51 2090.88 66.60 1.00 299.54 2558.08
   12:58:36.920.25-Dec-2020 4950.51 2090.82 66.60 1.00 299.74 2558.08
   12:58:37.120.25-Dec-2020 4950.51 2091.01 66.60 1.00 299.94 2558.08
   12:58:37.320.25-Dec-2020 4950.51 2090.90 66.59 1.00 300.14 2558.08
   12:58:37.520.25-Dec-2020 4950.51 2090.90 66.59 1.00 300.34 2558.08
   12:58:37.720.25-Dec-2020 4950.51 2090.91 66.59 1.00 300.54 2558.08
   12:58:37.920.25-Dec-2020 4950.51 2090.92 66.59 1.00 300.74 2558.08
   12:58:38.120.25-Dec-2020 4950.51 2090.92 66.59 1.00 300.94 2558.08
   12:58:38.320.25-Dec-2020 4950.51 2090.28 66.59 1.00 301.14 2558.08
   12:58:38.520.25-Dec-2020 4950.51 2090.28 66.59 1.00 301.34 2558.08
   12:58:38.720.25-Dec-2020 4950.51 2090.63 66.59 1.00 301.54 2558.08
   12:58:38.921.25-Dec-2020 4950.51 2091.21 66.59 1.00 301.74 2558.08
   12:58:39.121.25-Dec-2020 4950.51 2090.54 66.59 1.00 301.94 2558.08
   12:58:39.321.25-Dec-2020 4950.51 2091.40 66.59 1.00 302.14 2558.08
   12:58:39.521.25-Dec-2020 4950.51 2091.40 66.59 1.00 302.34 2558.08
   12:58:39.721.25-Dec-2020 4950.51 2090.69 66.59 1.00 302.54 2558.08
   12:58:39.921.25-Dec-2020 4950.51 2091.42 66.59 1.00 302.74 2558.08
   12:58:40.121.25-Dec-2020 4950.51 2090.98 66.59 1.00 302.94 2558.08
   12:58:40.321.25-Dec-2020 4950.51 2090.81 66.59 1.00 303.14 2558.08
   12:58:40.521.25-Dec-2020 4950.51 2090.81 66.59 1.00 303.34 2558.08
   12:58:40.721.25-Dec-2020 4950.51 2091.17 66.59 1.00 303.54 2558.08
   12:58:40.921.25-Dec-2020 4950.51 2091.15 66.59 1.00 303.74 2558.08
   12:58:41.122.25-Dec-2020 4950.51 2090.92 66.59 1.00 303.94 2558.08
   12:58:41.322.25-Dec-2020 4950.51 2090.87 66.59 1.00 304.14 2558.08
   12:58:41.522.25-Dec-2020 4950.51 2090.87 66.59 1.00 304.34 2558.08
   12:58:41.722.25-Dec-2020 4950.51 2091.01 66.59 1.00 304.54 2558.08
   12:58:41.922.25-Dec-2020 4950.51 2090.87 66.59 1.00 304.74 2558.08
   12:58:42.122.25-Dec-2020 4950.51 2090.91 66.59 1.00 304.94 2558.08
   12:58:42.322.25-Dec-2020 4950.51 2090.85 66.59 1.00 305.14 2558.08
   12:58:42.522.25-Dec-2020 4950.51 2090.85 66.59 1.00 305.34 2558.08
   12:58:42.722.25-Dec-2020 4950.51 2090.89 66.59 1.00 305.54 2558.08
   12:58:42.922.25-Dec-2020 4950.51 2090.33 66.59 1.00 305.74 2558.08
   12:58:43.122.25-Dec-2020 4950.51 2091.41 66.59 1.00 305.94 2558.08
   12:58:43.323.25-Dec-2020 4950.51 2090.68 66.59 1.00 306.14 2558.08
   12:58:43.523.25-Dec-2020 4950.51 2090.68 66.59 1.00 306.34 2558.08
   12:58:43.723.25-Dec-2020 4950.51 2091.10 66.59 1.00 306.54 2558.08
   12:58:43.923.25-Dec-2020 4950.51 2090.99 66.59 1.00 306.74 2558.08
   12:58:44.123.25-Dec-2020 4950.51 2091.03 66.59 1.00 306.94 2558.08
   12:58:44.323.25-Dec-2020 4950.51 2090.96 66.59 1.00 307.14 2558.08
   12:58:44.523.25-Dec-2020 4950.51 2090.96 66.59 1.00 307.34 2558.08
   12:58:44.723.25-Dec-2020 4950.51 2090.99 66.59 1.00 307.54 2558.08
   12:58:44.923.25-Dec-2020 4950.51 2090.98 66.59 1.00 307.74 2558.08
   12:58:45.123.25-Dec-2020 4950.51 2091.06 66.59 1.00 307.94 2558.08
   12:58:45.323.25-Dec-2020 4950.51 2090.51 66.59 1.00 308.14 2558.08
   12:58:45.524.25-Dec-2020 4950.51 2090.51 66.59 1.00 308.34 2558.08
   12:58:45.724.25-Dec-2020 4950.51 2090.88 66.59 1.00 308.54 2558.08
   12:58:45.924.25-Dec-2020 4950.51 2090.99 66.59 1.00 308.74 2558.08
   12:58:46.124.25-Dec-2020 4950.51 2090.67 66.59 1.00 308.94 2558.08
   12:58:46.324.25-Dec-2020 4950.51 2091.39 66.59 1.00 309.14 2558.08
   12:58:46.524.25-Dec-2020 4950.51 2091.39 66.59 1.00 309.34 2558.08
   12:58:46.724.25-Dec-2020 4950.51 2090.57 66.59 1.00 309.54 2558.08
   12:58:46.924.25-Dec-2020 4950.51 2091.52 66.59 1.00 309.74 2558.08
   12:58:47.124.25-Dec-2020 4950.51 2091.03 66.59 1.00 309.94 2558.08
   12:58:47.324.25-Dec-2020 4950.51 2091.23 66.59 1.00 310.14 2558.08
   12:58:47.524.25-Dec-2020 4950.51 2091.23 66.59 1.00 310.34 2558.08
   12:58:47.725.25-Dec-2020 4950.51 2091.36 66.59 1.00 310.54 2558.08
   12:58:47.925.25-Dec-2020 4950.51 2091.24 66.59 1.00 310.74 2558.08
   12:58:48.125.25-Dec-2020 4950.51 2091.11 66.59 1.00 310.94 2558.08
   12:58:48.325.25-Dec-2020 4950.51 2090.87 66.59 1.00 311.14 2558.08
   12:58:48.525.25-Dec-2020 4950.51 2090.87 66.59 1.00 311.34 2558.08
   12:58:48.725.25-Dec-2020 4950.51 2091.13 66.59 1.00 311.54 2558.08
   12:58:48.925.25-Dec-2020 4950.51 2090.90 66.59 1.00 311.74 2558.08
   12:58:49.125.25-Dec-2020 4950.51 2044.08 66.59 1.00 311.94 2558.08
   12:58:49.325.25-Dec-2020 4950.51 1799.05 66.59 1.00 312.14 2558.08
   12:58:49.525.25-Dec-2020 4950.51 1799.05 66.59 1.00 312.34 2558.08
   12:58:49.725.25-Dec-2020 4950.51 1484.36 66.59 1.00 312.54 2558.08
   12:58:49.926.25-Dec-2020 4950.51 1410.29 66.59 1.00 312.74 2558.08
   12:58:50.126.25-Dec-2020 4950.51 1357.01 66.59 1.00 312.94 2558.08
   12:58:50.326.25-Dec-2020 4950.51 1320.81 66.59 1.00 313.14 2558.08
   12:58:50.526.25-Dec-2020 4950.51 1320.81 66.59 1.00 313.34 2558.08
   12:58:50.726.25-Dec-2020 4950.51 1279.84 66.59 1.00 313.54 2558.08
   12:58:50.926.25-Dec-2020 4950.51 1271.71 66.59 1.00 313.74 2558.08
   12:58:51.126.25-Dec-2020 4950.51 1259.88 66.59 1.00 313.94 2558.08
   12:58:51.326.25-Dec-2020 4950.51 1259.65 66.59 1.00 314.14 2558.08
   12:58:51.526.25-Dec-2020 4950.51 1259.65 66.59 1.00 314.34 2558.08
   12:58:51.726.25-Dec-2020 4950.51 1249.76 66.59 1.00 314.54 2558.08
   12:58:51.926.25-Dec-2020 4950.51 1249.99 66.59 1.00 314.74 2558.08
   12:58:52.127.25-Dec-2020 4950.51 1247.30 66.59 1.00 314.94 2558.08
   12:58:52.327.25-Dec-2020 4950.51 1251.27 66.59 1.00 315.14 2558.08
   12:58:52.527.25-Dec-2020 4950.51 1251.27 66.59 1.00 315.34 2558.08
   12:58:52.727.25-Dec-2020 4950.51 1244.53 66.59 1.00 315.54 2558.08
   12:58:52.927.25-Dec-2020 4950.51 1241.68 66.58 1.00 315.74 2558.08
   12:58:53.127.25-Dec-2020 4950.51 1244.48 66.58 1.00 315.94 2558.08
   12:58:53.327.25-Dec-2020 4950.51 1246.06 66.58 1.00 316.14 2558.08
   12:58:53.527.25-Dec-2020 4950.51 1246.06 66.58 1.00 316.34 2558.08
   12:58:53.727.25-Dec-2020 4950.51 1244.01 66.58 1.00 316.54 2558.08
   12:58:53.927.25-Dec-2020 4950.51 1243.73 66.58 1.00 316.74 2558.08
   12:58:54.127.25-Dec-2020 4950.51 1240.32 66.58 1.00 316.94 2558.08
   12:58:54.328.25-Dec-2020 4950.51 1245.39 66.58 1.00 317.14 2558.08
   12:58:54.528.25-Dec-2020 4950.51 1245.39 66.58 1.00 317.34 2558.08
   12:58:54.728.25-Dec-2020 4950.51 1246.14 66.58 1.00 317.54 2558.08
   12:58:54.928.25-Dec-2020 4950.51 1246.59 66.58 1.00 317.74 2558.08
   12:58:55.128.25-Dec-2020 4950.51 1250.63 66.58 1.00 317.94 2558.08
   12:58:55.328.25-Dec-2020 4950.51 1246.08 66.58 1.00 318.14 2558.08
   12:58:55.528.25-Dec-2020 4950.51 1246.08 66.58 1.00 318.34 2558.08
   12:58:55.728.25-Dec-2020 4950.51 1254.80 66.58 1.00 318.54 2558.08
   12:58:55.928.25-Dec-2020 4950.51 1251.88 66.57 1.00 318.74 2558.08
   12:58:56.128.25-Dec-2020 4950.51 1252.01 66.57 1.00 318.94 2558.08
   12:58:56.328.25-Dec-2020 4950.51 1247.13 66.57 1.00 319.14 2558.08
   12:58:56.529.25-Dec-2020 4950.51 1247.13 66.57 1.00 319.34 2558.08
   12:58:56.729.25-Dec-2020 4950.51 1247.06 66.57 1.00 319.54 2558.08
   12:58:56.929.25-Dec-2020 4950.51 1247.38 66.57 1.00 319.74 2558.08
   12:58:57.129.25-Dec-2020 4950.51 1245.11 66.57 1.00 319.94 2558.08
   12:58:57.329.25-Dec-2020 4950.51 1244.88 66.57 1.00 320.14 2558.08
   12:58:57.529.25-Dec-2020 4950.51 1244.88 66.57 1.00 320.34 2558.08
   12:58:57.729.25-Dec-2020 4950.51 1254.28 66.57 1.00 320.54 2558.08
   12:58:57.929.25-Dec-2020 4950.51 1260.27 66.57 1.00 320.74 2558.08
   12:58:58.129.25-Dec-2020 4950.51 1260.50 66.57 1.00 320.94 2558.08
   12:58:58.329.25-Dec-2020 4950.51 1259.63 66.57 1.00 321.14 2558.08
   12:58:58.529.25-Dec-2020 4950.51 1259.63 66.57 1.00 321.34 2558.08
   12:58:58.730.25-Dec-2020 4950.51 1247.67 66.57 1.00 321.54 2558.08
   12:58:58.930.25-Dec-2020 4950.51 1245.07 66.57 1.00 321.75 2558.08
   12:58:59.130.25-Dec-2020 4950.51 1253.91 66.57 1.00 321.95 2558.08
