~Version Information
 VERS.                  2.0:   CWLS log ASCII Standard -VERSION 2.0
 WRAP.                   NO:   One line per depth step
~Well Information Block
#MNEM.UNIT     VALUE/NAME     DESCRIPTION
#---------     -----------    ---------------------------
 STRT.S             18:45:29 25-Dec-20: START TIME 18:45:29 25-Dec-20
 STOP.S             18:53:50 25-Dec-20: STOP TIME  18:53:50 25-Dec-20
 STEP.S                   0.00: STEP TIME
 NULL.                 -999.25: NULL VALUE
 DFWT.                        :  DIST FWL TEXT
 DFST.                        :  DIST FSL TEXT
 DMF .             Drill Floor:  DRILL MEAS FROM
 STIM.      04.54.24 22-Sep-20:  START TIME
 DATE.      04.54.24 21-Nov-20:  END TIME
 SPUD.               21-Nov-20:  SPUD DATE
 NREF.                    Grid:  NORTH REFERENCE
 HPTY.       Minimum Curvature:  HOLE POS TYPE
 DMOD.             Drill Model:  DRILL MOD DESC
 SVYD.                  Survey:  SURVEY DESC
 ILTD.               Lithology:  INTERP LTH DESC
 FTOP.          Formation Tops:  FORM TOPS DESC
 SON .        AZ-XX-0906571587:  JOB NUMBER
 COMP.     BP Exploration (Caspian Sea) Ltd:  COMPANY
 UWI .                     N/A:  UNIQUE WELL IDENTIFIER
 API .                     N/A:  API NUMBER
 BASE.              Azerbaijan:  LOGGING EQUIPMENT BASE LOCATION
 REGN.                   EESSA:  REGION
 PROV.                    Baku:  PROVINCE
 STAT.                    Baku:  STATE NAME
 CTRY.              Azerbaijan:  COUNTRY NAME
 FLD .                     ACG:  FIELD NAME
 SRVC.     TURAN Drilling & Engineering:  CONTRACTOR
 WELL.                     J27:  WELL NAME
 RIG .             West Chirag:  RIG NAME
 DOE .                     N/A:  DOE NUMBER
 DCON.         Sperry Drilling:  DIRECTNL CONTR
 PDAT.          Mean Sea Level:  PERMANENT DATUM
 WTYP.                Deviated:  WELL TYPE
 MWDS.                    Baku:  MWD SHOP
 JOBN.        AZ-XX-0906571587:  JOB TICKET NUMB
 UNIT.                     N/A:  LOGGING EQUIPMENT ID
 MDS .        Operator Entered:  MAG DATA SOURCE
 CNTY.                        :  COUNTY
 LOC .                        :  LOCATION
 LMF .             Drill Floor:  LOG MEASURED FROM
 TVDS.m                  43.00:  TVDSS CORRECTN
 LATI.deg                40.13:  LATITUDE
 LONG.deg                51.22:  LONGITUDE
 WHNS.m                   7.72:  WELL HEAD N/S
 WHEW.m                 -14.24:  WELL HEAD E/W
 UTMX.m              519005.06:  UTM X
 UTMY.m             4443793.85:  UTM Y
 DFWL.m                   0.00:  DISTANCE FWL
 DFSL.m                   0.00:  DISTANCE FSL
 SDEP.m                 347.00:  START DEPTH
 TDD .m                 581.00:  TOTAL DEPTH (DRILLER)
 VSDR.deg               159.72:  VERT SEC DIRECT
 GVFD.g                   1.00:  GRAVITY FIELD
 MFLD.nT              50318.00:  MAGNETIC FIELD
 MDIP.deg                59.57:  MAGNETIC DIP
 MDEC.deg                 6.44:  MAGNETIC DECL
 GRDC.deg                 0.15:  GRID CORRECTION
 AZTC.deg                 6.29:  AZM TOTAL CORR
 EPD .m                   0.00:  ELEVATION
 EGL .m                   0.00:  GROUND ELEVATION
 WDMS.m                 169.80:  WD ELEV
 APD .m                  43.00:  DEPTH ABOVE PD
 AGAP.m                  43.00:  AIR GAP
 VSEW.m                 -14.24:  VERT SEC E/W
 VSNS.m                   7.72:  VERT SEC N/S
 DEP .m                 342.45:  DEPTH
 EKB .m                   0.00:  KB ELEVATION
 EDF .m                  43.00:  DF ELEVATION
 TDL .m                 237.00:  TOTAL DEPTH (LOGGER)
 VSC .                       0:  VS TO CLOSURE
 MAGU.                 1851428:  MAGUTM CHECKSUM
~Parameter Information Block
#MNEM.UNIT       Value        Description
#---------     -----------    ---------------------------
 AV  .mps                 1.50:  Ann Velocity 
 AVMX.mps                 2.90:  Max Ann Veloc 
 AZIF.deg               115.59:  Azm, Final 
 BHAT.        Rotary Steerable:  BHA Type 
 BROT.°/30m               0.50:  Build Rotating 
 BS  .in                  8.50:  Bit Size 
 BTPL.psig              580.00:  Bit Press Loss 
 CABU.                     Yes:  Customer Abuse 
 TCS .hr                 89.79:  Time Ciculation Ended 
 CV  .mps                 3.22:  Crit Velocity 
 CVMX.mps                 4.37:  Max Crit Veloc 
 DD1 .          Rashad Habibov:  Direct Drillr 1 
 DDSV.               Geo-Pilot:  DD Service 
 DEFF.%                  95.00:  % Det Eff 
 DLRX.°/30m               1.94:  Dogleg Rot Max 
 DLSO.°/30m               0.70:  Dogleg Oriented 
 DLSX.°/30m               1.94:  Dogleg Str Max 
 DRET.      04.45.00 25-Dec-20:  Drill End Time 
 DRST.      10.00.00 24-Dec-20:  Drill Start Tim 
 DTIM.hr                 16.64:  Time Drilling 
 EDEP.m                4999.01:  End Depth 
 ENG1.         Elchin Mammadov:  Engineer 1 
 ENG2.          Ruslan Safarov:  Engineer 2 
 ENG3.          Rustam Safarov:  Engineer 3 
 ETIM.      09.00.00 29-Dec-20:  End Time 
 FLOI.gpm               500.00:  Flow In 
 FLON.gpm               400.00:  Flow In Min 
 FLOS.cptm                0.00:  Fluid Loss 
 FLOX.gpm               500.00:  Flow In Max 
 HFLO.                      No:  High Flow 
 HPRE.                      No:  High Pressure 
 HTEM.                      No:  High Temp 
 HYDO.m                   2.00:  Hydro Offset 
 IFIN.deg                66.79:  Inc, Final 
 IMAX.deg                67.66:  Inc Max 
 IMIN.deg                66.39:  Inc Min 
 IMND.m                4949.37:  Inc Min Depth 
 IMXD.m                4778.63:  Inc Max Depth 
 JARR.                     Yes:  Jarring 
 LETM.      04.45.00 25-Dec-20:  Log End Time 
 LOST.hr                     0:  Lost Rig Time 
 LSTM.      10.00.00 24-Dec-20:  Log Start Time 
 MDCL.ppm             39000.00:  Mud Chlorides 
 MDES.     Inversion Oil/Synthetic:  Mud Desc 
 DFD .sg                  1.33:  Mud Density 
 MDMN.sg                  1.33:  Dens Mud Min 
 MDMX.sg                  1.33:  Dens Mud Max 
 MOIL.                      70:  Run Mud Oil % 
 MOWR.                   70:30:  Run Mud OWR 
 MSND.                       0:  Run Mud Sand % 
 MSOL.                    17.4:  Run Mud Solids% 
 DFV .spqt               84.00:  Mud Viscosity 
 MWOD.in                  6.75:  MWD Tool OD 
 MWSI.                     Yes:  Serv Intrp, MWD 
 OTIM.hr                168.14:  Time Operating 
 PCON.           Look Like New:  Pad Condition 
 PMAX.psia            10822.93:  Press Op, Max 
 PV  .cP                 30.00:  Mud PV 
 RUN .                     900:  Run Number 
 ROPA.m/hr               18.00:  ROP Avg 
 ROPN.m/hr               12.00:  ROP Min 
 ROPX.m/hr               25.00:  ROP Max 
 RPMA.rpm               120.00:  RPM Surface Avg 
 RPMN.rpm               100.00:  RPM Surface Min 
 RPMX.rpm               120.00:  RPM Surface Max 
 RRUN.                    0900:  Rig Run Number 
 SAZI.deg               115.08:  Azm, Start 
 SDEP.m                4762.01:  Start Depth 
 SIDD.                      No:  Serv Intrp, DD 
 SINC.deg                66.14:  Inc, Start 
 SPPA.psig             3700.00:  SPP Avg 
 SPPN.psig             3620.00:  SPP Min 
 SPPX.psig             3900.00:  SPP Max 
 STIM.      09.30.00 22-Dec-20:  Start Time 
 SVCS.                 DD, MWD:  Services 
 SVER.                    9.20:  Sperry Version 
 TDAT.m                 237.00:  Tot Depth Attmp 
 TDDF.                      No:  Trip for DD 
 TDLG.m                 237.00:  Tot Depth Loggd 
 TFF .                      No:  Trip for Fail 
 TQAA.f-kp               18.00:  Torque Abs Avg 
 TQAN.f-kp               17.00:  Torque Abs Min 
 TQAX.f-kp               20.00:  Torque Abs Max 
 TRRT.°/30m               0.60:  Turn Rotating 
 MRT .                    HCIM:  Maximum Recorded Temperature 
 TTMX.degC               94.12:  Max Tool Temp 
 VS01.                90627809:  Virtual Str1 SN 
 VS02.                90527813:  Virtual Str2 SN 
 VS03.                90545417:  Virtual Str3 SN 
 VS04.                12460870:  Virtual Str4 SN 
 VS05.                90516706:  Virtual Str5 SN 
 VS06.                90632007:  Virtual Str6 SN 
 WBMN.klb                 0.00:  WOB Min 
 WOBA.klb                14.00:  WOB Avg 
 WOBX.klb                25.00:  WOB Max 
 YP  .lhf2               32.00:  Yield Point 
~Curve Information Block
#MNEM.UNIT                 API CODE     Curve Description
#---------               -----------    ---------------------------
 TIME.HHMMSS            00 000 000 000:  GT Time & Date
 GTDEPTH.m              00 000 000 000:  GT Depth
 GTPQH.psia             00 000 000 000:  GT HR Quartz Pressure
 GTTQ.degC              00 000 000 000:  GT Quartz Temperature
 GTTN.NONE              00 000 000 000:  GT Test Number
 GTET.sec               00 000 000 000:  GT Elapsed Test Time
 GTTVD.m                00 000 000 000:  GT True Vertical Depth
#Other Information
#
#WARRANTY: Halliburton will use its best efforts to furnish customers with 
#accurate information and interpretations that are part of, and incident to, the services 
#provided.  However, Halliburton cannot and does not warrant the accuracy 
#or correctness of such information and interpretations.  Under no circumstances should any 
#such information or interpretation be relied upon as the sole basis for any drilling, 
#completion, production, or financial decision or any procedure involving any risk to the 
#safety of any drilling venture, drilling rig or its crew or any other third party.  The 
#Customer has full responsibility for all drilling, completion and production operation.  
#Halliburton makes no representations or warranties, either expressed or 
#implied, including, but not limited to, the implied warranties of merchantability or fitness 
#for a particular purpose, with respect to the services rendered.  In no event will 
#Halliburton be liable for failure to obtain any particular results or for 
#any damages, including, but not limited to, indirect, special or consequential damages, 
#resulting from the use of any information or interpretation provided by Halliburton.
#
~A           TIME           GTDEPTH  GTPQH  GTTQ  GTTN  GTET   GTTVD  
# ...
   18:53:33.246.25-Dec-2020 4831.01 5445.62 64.23 6.00 483.38 2510.98
   18:53:33.446.25-Dec-2020 4831.01 5445.62 64.23 6.00 483.58 2510.98
   18:53:33.646.25-Dec-2020 4831.01 5444.59 64.23 6.00 483.78 2510.98
   18:53:33.846.25-Dec-2020 4831.01 5443.73 64.23 6.00 483.98 2510.98
   18:53:34.047.25-Dec-2020 4831.01 5444.70 64.23 6.00 484.18 2510.98
   18:53:34.247.25-Dec-2020 4831.01 5444.05 64.23 6.00 484.38 2510.98
   18:53:34.447.25-Dec-2020 4831.01 5444.25 64.23 6.00 484.58 2510.98
   18:53:34.647.25-Dec-2020 4831.01 5444.12 64.23 6.00 484.78 2510.98
   18:53:34.847.25-Dec-2020 4831.01 5443.27 64.23 6.00 484.98 2510.98
   18:53:35.047.25-Dec-2020 4831.01 5443.29 64.23 6.00 485.18 2510.98
   18:53:35.247.25-Dec-2020 4831.01 5453.85 64.23 6.00 485.38 2510.98
   18:53:35.448.25-Dec-2020 4831.01 5453.85 64.23 6.00 485.58 2510.98
   18:53:35.648.25-Dec-2020 4831.01 5447.45 64.23 6.00 485.78 2510.98
   18:53:35.848.25-Dec-2020 4831.01 5458.77 64.23 6.00 485.98 2510.98
   18:53:36.048.25-Dec-2020 4831.01 5442.29 64.22 6.00 486.18 2510.98
   18:53:36.248.25-Dec-2020 4831.01 5444.14 64.22 6.00 486.38 2510.98
   18:53:36.448.25-Dec-2020 4831.01 5444.14 64.22 6.00 486.58 2510.98
   18:53:36.649.25-Dec-2020 4831.01 5449.86 64.22 6.00 486.78 2510.98
   18:53:36.849.25-Dec-2020 4831.01 5441.81 64.22 6.00 486.98 2510.98
   18:53:37.049.25-Dec-2020 4831.01 5452.48 64.22 6.00 487.18 2510.98
   18:53:37.249.25-Dec-2020 4831.01 5447.45 64.22 6.00 487.38 2510.98
   18:53:37.449.25-Dec-2020 4831.01 5447.45 64.22 6.00 487.59 2510.98
   18:53:37.649.25-Dec-2020 4831.01 5444.86 64.22 6.00 487.79 2510.98
   18:53:37.850.25-Dec-2020 4831.01 5445.37 64.22 6.00 487.99 2510.98
   18:53:38.050.25-Dec-2020 4831.01 5447.47 64.22 6.00 488.19 2510.98
   18:53:38.250.25-Dec-2020 4831.01 5444.59 64.22 6.00 488.39 2510.98
   18:53:38.450.25-Dec-2020 4831.01 5444.59 64.22 6.00 488.59 2510.98
   18:53:38.650.25-Dec-2020 4831.01 5444.04 64.22 6.00 488.79 2510.98
   18:53:38.850.25-Dec-2020 4831.01 5443.40 64.22 6.00 488.99 2510.98
   18:53:39.050.25-Dec-2020 4831.01 5442.88 64.22 6.00 489.19 2510.98
   18:53:39.251.25-Dec-2020 4831.01 5442.98 64.22 6.00 489.39 2510.98
   18:53:39.451.25-Dec-2020 4831.01 5442.98 64.22 6.00 489.59 2510.98
   18:53:39.651.25-Dec-2020 4831.01 5443.03 64.22 6.00 489.79 2510.98
   18:53:39.851.25-Dec-2020 4831.01 5453.88 64.22 6.00 489.99 2510.98
   18:53:40.051.25-Dec-2020 4831.01 5439.35 64.22 6.00 490.19 2510.98
   18:53:40.251.25-Dec-2020 4831.01 5447.40 64.22 6.00 490.39 2510.98
   18:53:40.452.25-Dec-2020 4831.01 5447.40 64.22 6.00 490.59 2510.98
   18:53:40.652.25-Dec-2020 4831.01 5443.51 64.22 6.00 490.79 2510.98
   18:53:40.852.25-Dec-2020 4831.01 5443.85 64.22 6.00 490.99 2510.98
   18:53:41.052.25-Dec-2020 4831.01 5444.91 64.22 6.00 491.19 2510.98
   18:53:41.252.25-Dec-2020 4831.01 5443.88 64.22 6.00 491.39 2510.98
   18:53:41.452.25-Dec-2020 4831.01 5443.88 64.22 6.00 491.59 2510.98
   18:53:41.653.25-Dec-2020 4831.01 5444.70 64.22 6.00 491.79 2510.98
   18:53:41.853.25-Dec-2020 4831.01 5444.01 64.22 6.00 491.99 2510.98
   18:53:42.053.25-Dec-2020 4831.01 5443.86 64.22 6.00 492.19 2510.98
   18:53:42.253.25-Dec-2020 4831.01 5443.49 64.22 6.00 492.39 2510.98
   18:53:42.453.25-Dec-2020 4831.01 5443.49 64.22 6.00 492.59 2510.98
   18:53:42.653.25-Dec-2020 4831.01 5450.24 64.22 6.00 492.79 2510.98
   18:53:42.853.25-Dec-2020 4831.01 5445.22 64.22 6.00 492.99 2510.98
   18:53:43.054.25-Dec-2020 4831.01 5448.44 64.22 6.00 493.19 2510.98
   18:53:43.254.25-Dec-2020 4831.01 5445.80 64.22 6.00 493.39 2510.98
   18:53:43.454.25-Dec-2020 4831.01 5445.80 64.22 6.00 493.59 2510.98
   18:53:43.654.25-Dec-2020 4831.01 5446.19 64.22 6.00 493.79 2510.98
   18:53:43.854.25-Dec-2020 4831.01 5443.30 64.22 6.00 493.99 2510.98
   18:53:44.054.25-Dec-2020 4831.01 5457.18 64.22 6.00 494.19 2510.98
   18:53:44.255.25-Dec-2020 4831.01 5440.41 64.22 6.00 494.39 2510.98
   18:53:44.455.25-Dec-2020 4831.01 5440.41 64.22 6.00 494.59 2510.98
   18:53:44.655.25-Dec-2020 4831.01 5448.27 64.22 6.00 494.79 2510.98
   18:53:44.855.25-Dec-2020 4831.01 5449.57 64.22 6.00 494.99 2510.98
   18:53:45.055.25-Dec-2020 4831.01 5445.19 64.22 6.00 495.19 2510.98
   18:53:45.255.25-Dec-2020 4831.01 5443.98 64.22 6.00 495.39 2510.98
   18:53:45.456.25-Dec-2020 4831.01 5443.98 64.22 6.00 495.59 2510.98
   18:53:45.656.25-Dec-2020 4831.01 5444.68 64.22 6.00 495.79 2510.98
   18:53:45.856.25-Dec-2020 4831.01 5442.20 64.22 6.00 495.99 2510.98
   18:53:46.056.25-Dec-2020 4831.01 5442.50 64.22 6.00 496.19 2510.98
   18:53:46.256.25-Dec-2020 4831.01 5442.70 64.22 6.00 496.39 2510.98
   18:53:46.456.25-Dec-2020 4831.01 5442.70 64.22 6.00 496.59 2510.98
   18:53:46.656.25-Dec-2020 4831.01 5442.55 64.22 6.00 496.79 2510.98
   18:53:46.857.25-Dec-2020 4831.01 5442.06 64.22 6.00 496.99 2510.98
   18:53:47.057.25-Dec-2020 4831.01 5442.04 64.22 6.00 497.19 2510.98
   18:53:47.257.25-Dec-2020 4831.01 5453.60 64.22 6.00 497.39 2510.98
   18:53:47.457.25-Dec-2020 4831.01 5453.60 64.22 6.00 497.59 2510.98
   18:53:47.657.25-Dec-2020 4831.01 5443.36 64.22 6.00 497.79 2510.98
   18:53:47.857.25-Dec-2020 4831.01 5446.73 64.22 6.00 497.99 2510.98
   18:53:48.058.25-Dec-2020 4831.01 5444.29 64.22 6.00 498.19 2510.98
   18:53:48.258.25-Dec-2020 4831.01 5442.49 64.22 6.00 498.39 2510.98
   18:53:48.458.25-Dec-2020 4831.01 5442.49 64.22 6.00 498.59 2510.98
   18:53:48.658.25-Dec-2020 4831.01 5443.87 64.22 6.00 498.79 2510.98
   18:53:48.858.25-Dec-2020 4831.01 5442.99 64.21 6.00 498.99 2510.98
   18:53:49.058.25-Dec-2020 4831.01 5443.88 64.21 6.00 499.19 2510.98
   18:53:49.259.25-Dec-2020 4831.01 5444.06 64.21 6.00 499.39 2510.98
   18:53:49.459.25-Dec-2020 4831.01 5444.06 64.21 6.00 499.59 2510.98
   18:53:49.659.25-Dec-2020 4831.01 5443.54 64.21 6.00 499.79 2510.98
   18:53:49.859.25-Dec-2020 4831.01 5443.11 64.21 6.00 499.99 2510.98
   18:53:50.059.25-Dec-2020 4831.01 5446.53 64.21 6.00 500.20 2510.98
