~Version Information
 VERS.                  2.0:   CWLS log ASCII Standard -VERSION 2.0
 WRAP.                   NO:   One line per depth step
~Well Information Block
#MNEM.UNIT     VALUE/NAME     DESCRIPTION
#---------     -----------    ---------------------------
 STRT.S             17:56:34 25-Dec-20: START TIME 17:56:34 25-Dec-20
 STOP.S             18:04:57 25-Dec-20: STOP TIME  18:04:57 25-Dec-20
 STEP.S                   0.00: STEP TIME
 NULL.                 -999.25: NULL VALUE
 DFWT.                        :  DIST FWL TEXT
 DFST.                        :  DIST FSL TEXT
 DMF .             Drill Floor:  DRILL MEAS FROM
 STIM.      04.54.24 22-Sep-20:  START TIME
 DATE.      04.54.24 21-Nov-20:  END TIME
 SPUD.               21-Nov-20:  SPUD DATE
 NREF.                    Grid:  NORTH REFERENCE
 HPTY.       Minimum Curvature:  HOLE POS TYPE
 DMOD.             Drill Model:  DRILL MOD DESC
 SVYD.                  Survey:  SURVEY DESC
 ILTD.               Lithology:  INTERP LTH DESC
 FTOP.          Formation Tops:  FORM TOPS DESC
 SON .        AZ-XX-0906571587:  JOB NUMBER
 COMP.     BP Exploration (Caspian Sea) Ltd:  COMPANY
 UWI .                     N/A:  UNIQUE WELL IDENTIFIER
 API .                     N/A:  API NUMBER
 BASE.              Azerbaijan:  LOGGING EQUIPMENT BASE LOCATION
 REGN.                   EESSA:  REGION
 PROV.                    Baku:  PROVINCE
 STAT.                    Baku:  STATE NAME
 CTRY.              Azerbaijan:  COUNTRY NAME
 FLD .                     ACG:  FIELD NAME
 SRVC.     TURAN Drilling & Engineering:  CONTRACTOR
 WELL.                     J27:  WELL NAME
 RIG .             West Chirag:  RIG NAME
 DOE .                     N/A:  DOE NUMBER
 DCON.         Sperry Drilling:  DIRECTNL CONTR
 PDAT.          Mean Sea Level:  PERMANENT DATUM
 WTYP.                Deviated:  WELL TYPE
 MWDS.                    Baku:  MWD SHOP
 JOBN.        AZ-XX-0906571587:  JOB TICKET NUMB
 UNIT.                     N/A:  LOGGING EQUIPMENT ID
 MDS .        Operator Entered:  MAG DATA SOURCE
 CNTY.                        :  COUNTY
 LOC .                        :  LOCATION
 LMF .             Drill Floor:  LOG MEASURED FROM
 TVDS.m                  43.00:  TVDSS CORRECTN
 LATI.deg                40.13:  LATITUDE
 LONG.deg                51.22:  LONGITUDE
 WHNS.m                   7.72:  WELL HEAD N/S
 WHEW.m                 -14.24:  WELL HEAD E/W
 UTMX.m              519005.06:  UTM X
 UTMY.m             4443793.85:  UTM Y
 DFWL.m                   0.00:  DISTANCE FWL
 DFSL.m                   0.00:  DISTANCE FSL
 SDEP.m                 347.00:  START DEPTH
 TDD .m                 581.00:  TOTAL DEPTH (DRILLER)
 VSDR.deg               159.72:  VERT SEC DIRECT
 GVFD.g                   1.00:  GRAVITY FIELD
 MFLD.nT              50318.00:  MAGNETIC FIELD
 MDIP.deg                59.57:  MAGNETIC DIP
 MDEC.deg                 6.44:  MAGNETIC DECL
 GRDC.deg                 0.15:  GRID CORRECTION
 AZTC.deg                 6.29:  AZM TOTAL CORR
 EPD .m                   0.00:  ELEVATION
 EGL .m                   0.00:  GROUND ELEVATION
 WDMS.m                 169.80:  WD ELEV
 APD .m                  43.00:  DEPTH ABOVE PD
 AGAP.m                  43.00:  AIR GAP
 VSEW.m                 -14.24:  VERT SEC E/W
 VSNS.m                   7.72:  VERT SEC N/S
 DEP .m                 342.45:  DEPTH
 EKB .m                   0.00:  KB ELEVATION
 EDF .m                  43.00:  DF ELEVATION
 TDL .m                 237.00:  TOTAL DEPTH (LOGGER)
 VSC .                       0:  VS TO CLOSURE
 MAGU.                 1851428:  MAGUTM CHECKSUM
~Parameter Information Block
#MNEM.UNIT       Value        Description
#---------     -----------    ---------------------------
 AV  .mps                 1.50:  Ann Velocity 
 AVMX.mps                 2.90:  Max Ann Veloc 
 AZIF.deg               115.59:  Azm, Final 
 BHAT.        Rotary Steerable:  BHA Type 
 BROT.∞/30m               0.50:  Build Rotating 
 BS  .in                  8.50:  Bit Size 
 BTPL.psig              580.00:  Bit Press Loss 
 CABU.                     Yes:  Customer Abuse 
 COMM.                     ‰E:  Run Comments 1 
 TCS .hr                 89.79:  Time Ciculation Ended 
 CV  .mps                 3.22:  Crit Velocity 
 CVMX.mps                 4.37:  Max Crit Veloc 
 DD1 .          Rashad Habibov:  Direct Drillr 1 
 DDSV.               Geo-Pilot:  DD Service 
 DEFF.%                  95.00:  % Det Eff 
 DLRX.∞/30m               1.94:  Dogleg Rot Max 
 DLSO.∞/30m               0.70:  Dogleg Oriented 
 DLSX.∞/30m               1.94:  Dogleg Str Max 
 DRET.      04.45.00 25-Dec-20:  Drill End Time 
 DRST.      10.00.00 24-Dec-20:  Drill Start Tim 
 DTIM.hr                 16.64:  Time Drilling 
 EDEP.m                4999.01:  End Depth 
 ENG1.         Elchin Mammadov:  Engineer 1 
 ENG2.          Ruslan Safarov:  Engineer 2 
 ENG3.          Rustam Safarov:  Engineer 3 
 ETIM.      09.00.00 29-Dec-20:  End Time 
 FLOI.gpm               500.00:  Flow In 
 FLON.gpm               400.00:  Flow In Min 
 FLOS.cptm                0.00:  Fluid Loss 
 FLOX.gpm               500.00:  Flow In Max 
 HFLO.                      No:  High Flow 
 HPRE.                      No:  High Pressure 
 HTEM.                      No:  High Temp 
 HYDO.m                   2.00:  Hydro Offset 
 IFIN.deg                66.79:  Inc, Final 
 IMAX.deg                67.66:  Inc Max 
 IMIN.deg                66.39:  Inc Min 
 IMND.m                4949.37:  Inc Min Depth 
 IMXD.m                4778.63:  Inc Max Depth 
 JARR.                     Yes:  Jarring 
 LETM.      04.45.00 25-Dec-20:  Log End Time 
 LOST.hr                     0:  Lost Rig Time 
 LSTM.      10.00.00 24-Dec-20:  Log Start Time 
 MDCL.ppm             39000.00:  Mud Chlorides 
 MDES.     Inversion Oil/Synthetic:  Mud Desc 
 DFD .sg                  1.33:  Mud Density 
 MDMN.sg                  1.33:  Dens Mud Min 
 MDMX.sg                  1.33:  Dens Mud Max 
 MOIL.                      70:  Run Mud Oil % 
 MOWR.                   70:30:  Run Mud OWR 
 MSND.                       0:  Run Mud Sand % 
 MSOL.                    17.4:  Run Mud Solids% 
 DFV .spqt               84.00:  Mud Viscosity 
 MWOD.in                  6.75:  MWD Tool OD 
 MWSI.                     Yes:  Serv Intrp, MWD 
 OTIM.hr                168.14:  Time Operating 
 PCON.           Look Like New:  Pad Condition 
 PMAX.psia            10822.93:  Press Op, Max 
 PV  .cP                 30.00:  Mud PV 
 RUN .                     900:  Run Number 
 ROPA.m/hr               18.00:  ROP Avg 
 ROPN.m/hr               12.00:  ROP Min 
 ROPX.m/hr               25.00:  ROP Max 
 RPMA.rpm               120.00:  RPM Surface Avg 
 RPMN.rpm               100.00:  RPM Surface Min 
 RPMX.rpm               120.00:  RPM Surface Max 
 RRUN.                    0900:  Rig Run Number 
 SAZI.deg               115.08:  Azm, Start 
 SDEP.m                4762.01:  Start Depth 
 SIDD.                      No:  Serv Intrp, DD 
 SINC.deg                66.14:  Inc, Start 
 SPPA.psig             3700.00:  SPP Avg 
 SPPN.psig             3620.00:  SPP Min 
 SPPX.psig             3900.00:  SPP Max 
 STIM.      09.30.00 22-Dec-20:  Start Time 
 SVCS.                 DD, MWD:  Services 
 SVER.                    9.20:  Sperry Version 
 TDAT.m                 237.00:  Tot Depth Attmp 
 TDDF.                      No:  Trip for DD 
 TDLG.m                 237.00:  Tot Depth Loggd 
 TFF .                      No:  Trip for Fail 
 TQAA.f-kp               18.00:  Torque Abs Avg 
 TQAN.f-kp               17.00:  Torque Abs Min 
 TQAX.f-kp               20.00:  Torque Abs Max 
 TRRT.∞/30m               0.60:  Turn Rotating 
 MRT .                    HCIM:  Maximum Recorded Temperature 
 TTMX.degC               94.12:  Max Tool Temp 
 VS01.                90627809:  Virtual Str1 SN 
 VS02.                90527813:  Virtual Str2 SN 
 VS03.                90545417:  Virtual Str3 SN 
 VS04.                12460870:  Virtual Str4 SN 
 VS05.                90516706:  Virtual Str5 SN 
 VS06.                90632007:  Virtual Str6 SN 
 WBMN.klb                 0.00:  WOB Min 
 WOBA.klb                14.00:  WOB Avg 
 WOBX.klb                25.00:  WOB Max 
 YP  .lhf2               32.00:  Yield Point 
~Curve Information Block
#MNEM.UNIT                 API CODE     Curve Description
#---------               -----------    ---------------------------
 TIME.HHMMSS            00 000 000 000:  GT Time & Date
 GTDEPTH.m              00 000 000 000:  GT Depth
 GTPQH.psia             00 000 000 000:  GT HR Quartz Pressure
 GTTQ.degC              00 000 000 000:  GT Quartz Temperature
 GTTN.NONE              00 000 000 000:  GT Test Number
 GTET.sec               00 000 000 000:  GT Elapsed Test Time
 GTTVD.m                00 000 000 000:  GT True Vertical Depth
#Other Information
#
#WARRANTY: Halliburton will use its best efforts to furnish customers with 
#accurate information and interpretations that are part of, and incident to, the services 
#provided.  However, Halliburton cannot and does not warrant the accuracy 
#or correctness of such information and interpretations.  Under no circumstances should any 
#such information or interpretation be relied upon as the sole basis for any drilling, 
#completion, production, or financial decision or any procedure involving any risk to the 
#safety of any drilling venture, drilling rig or its crew or any other third party.  The 
#Customer has full responsibility for all drilling, completion and production operation.  
#Halliburton makes no representations or warranties, either expressed or 
#implied, including, but not limited to, the implied warranties of merchantability or fitness 
#for a particular purpose, with respect to the services rendered.  In no event will 
#Halliburton be liable for failure to obtain any particular results or for 
#any damages, including, but not limited to, indirect, special or consequential damages, 
#resulting from the use of any information or interpretation provided by Halliburton.
#
~A           TIME           GTDEPTH  GTPQH  GTTQ  GTTN  GTET   GTTVD  
# ...
   18:03:28.561.25-Dec-2020 4856.51 3919.46 64.22 5.00 413.84 2521.01
   18:03:28.761.25-Dec-2020 4856.51 3919.46 64.22 5.00 414.04 2521.01
   18:03:28.961.25-Dec-2020 4856.51 3919.67 64.22 5.00 414.24 2521.01
   18:03:29.161.25-Dec-2020 4856.51 3920.03 64.22 5.00 414.44 2521.01
   18:03:29.361.25-Dec-2020 4856.51 3920.13 64.22 5.00 414.64 2521.01
   18:03:29.561.25-Dec-2020 4856.51 3920.19 64.22 5.00 414.84 2521.01
   18:03:29.761.25-Dec-2020 4856.51 3920.19 64.22 5.00 415.04 2521.01
   18:03:29.961.25-Dec-2020 4856.51 3920.15 64.22 5.00 415.24 2521.01
   18:03:30.161.25-Dec-2020 4856.51 3920.22 64.22 5.00 415.44 2521.01
   18:03:30.361.25-Dec-2020 4856.51 3920.23 64.22 5.00 415.64 2521.01
   18:03:30.561.25-Dec-2020 4856.51 3919.46 64.22 5.00 415.84 2521.01
   18:03:30.760.25-Dec-2020 4856.51 3919.46 64.22 5.00 416.04 2521.01
   18:03:30.960.25-Dec-2020 4856.51 3919.58 64.22 5.00 416.24 2521.01
   18:03:31.160.25-Dec-2020 4856.51 3919.77 64.22 5.00 416.44 2521.01
   18:03:31.360.25-Dec-2020 4856.51 3919.88 64.22 5.00 416.64 2521.01
   18:03:31.560.25-Dec-2020 4856.51 3919.97 64.22 5.00 416.84 2521.01
   18:03:31.760.25-Dec-2020 4856.51 3919.97 64.22 5.00 417.04 2521.01
   18:03:31.960.25-Dec-2020 4856.51 3920.17 64.22 5.00 417.24 2521.01
   18:03:32.160.25-Dec-2020 4856.51 3920.25 64.22 5.00 417.44 2521.01
   18:03:32.360.25-Dec-2020 4856.51 3920.23 64.22 5.00 417.64 2521.01
   18:03:32.560.25-Dec-2020 4856.51 3920.23 64.22 5.00 417.84 2521.01
   18:03:32.760.25-Dec-2020 4856.51 3920.23 64.22 5.00 418.04 2521.01
   18:03:32.960.25-Dec-2020 4856.51 3920.22 64.22 5.00 418.24 2521.01
   18:03:33.160.25-Dec-2020 4856.51 3919.60 64.22 5.00 418.44 2521.01
   18:03:33.359.25-Dec-2020 4856.51 3919.65 64.22 5.00 418.64 2521.01
   18:03:33.559.25-Dec-2020 4856.51 3919.55 64.22 5.00 418.84 2521.01
   18:03:33.759.25-Dec-2020 4856.51 3919.55 64.22 5.00 419.03 2521.01
   18:03:33.959.25-Dec-2020 4856.51 3919.14 64.22 5.00 419.23 2521.01
   18:03:34.159.25-Dec-2020 4856.51 3919.14 64.22 5.00 419.43 2521.01
   18:03:34.359.25-Dec-2020 4856.51 3919.49 64.22 5.00 419.63 2521.01
   18:03:34.559.25-Dec-2020 4856.51 3919.64 64.22 5.00 419.83 2521.01
   18:03:34.759.25-Dec-2020 4856.51 3919.64 64.22 5.00 420.03 2521.01
   18:03:34.959.25-Dec-2020 4856.51 3918.87 64.22 5.00 420.23 2521.01
   18:03:35.159.25-Dec-2020 4856.51 3919.03 64.22 5.00 420.43 2521.01
   18:03:35.359.25-Dec-2020 4856.51 3919.41 64.22 5.00 420.63 2521.01
   18:03:35.559.25-Dec-2020 4856.51 3918.72 64.22 5.00 420.83 2521.01
   18:03:35.758.25-Dec-2020 4856.51 3918.72 64.22 5.00 421.03 2521.01
   18:03:35.958.25-Dec-2020 4856.51 3919.24 64.22 5.00 421.23 2521.01
   18:03:36.158.25-Dec-2020 4856.51 3919.52 64.22 5.00 421.43 2521.01
   18:03:36.358.25-Dec-2020 4856.51 3919.80 64.22 5.00 421.63 2521.01
   18:03:36.558.25-Dec-2020 4856.51 3919.89 64.22 5.00 421.83 2521.01
   18:03:36.758.25-Dec-2020 4856.51 3919.89 64.22 5.00 422.03 2521.01
   18:03:36.958.25-Dec-2020 4856.51 3920.17 64.22 5.00 422.23 2521.01
   18:03:37.158.25-Dec-2020 4856.51 3920.24 64.22 5.00 422.43 2521.01
   18:03:37.358.25-Dec-2020 4856.51 3920.29 64.22 5.00 422.63 2521.01
   18:03:37.558.25-Dec-2020 4856.51 3920.32 64.22 5.00 422.83 2521.01
   18:03:37.758.25-Dec-2020 4856.51 3920.32 64.22 5.00 423.03 2521.01
   18:03:37.958.25-Dec-2020 4856.51 3920.39 64.22 5.00 423.23 2521.01
   18:03:38.158.25-Dec-2020 4856.51 3919.70 64.22 5.00 423.43 2521.01
   18:03:38.357.25-Dec-2020 4856.51 3919.76 64.22 5.00 423.63 2521.01
   18:03:38.557.25-Dec-2020 4856.51 3919.70 64.22 5.00 423.83 2521.01
   18:03:38.757.25-Dec-2020 4856.51 3919.70 64.22 5.00 424.03 2521.01
   18:03:38.957.25-Dec-2020 4856.51 3919.92 64.22 5.00 424.23 2521.01
   18:03:39.157.25-Dec-2020 4856.51 3919.90 64.22 5.00 424.43 2521.01
   18:03:39.357.25-Dec-2020 4856.51 3920.18 64.22 5.00 424.63 2521.01
   18:03:39.557.25-Dec-2020 4856.51 3920.19 64.22 5.00 424.83 2521.01
   18:03:39.757.25-Dec-2020 4856.51 3920.19 64.22 5.00 425.03 2521.01
   18:03:39.957.25-Dec-2020 4856.51 3920.31 64.22 5.00 425.23 2521.01
   18:03:40.157.25-Dec-2020 4856.51 3920.27 64.22 5.00 425.43 2521.01
   18:03:40.357.25-Dec-2020 4856.51 3920.28 64.22 5.00 425.63 2521.01
   18:03:40.557.25-Dec-2020 4856.51 3920.27 64.22 5.00 425.83 2521.01
   18:03:40.757.25-Dec-2020 4856.51 3920.27 64.22 5.00 426.03 2521.01
   18:03:40.956.25-Dec-2020 4856.51 3919.61 64.22 5.00 426.23 2521.01
   18:03:41.156.25-Dec-2020 4856.51 3919.62 64.22 5.00 426.43 2521.01
   18:03:41.356.25-Dec-2020 4856.51 3919.02 64.22 5.00 426.63 2521.01
   18:03:41.556.25-Dec-2020 4856.51 3918.78 64.22 5.00 426.83 2521.01
   18:03:41.756.25-Dec-2020 4856.51 3918.78 64.22 5.00 427.03 2521.01
   18:03:41.956.25-Dec-2020 4856.51 3919.54 64.22 5.00 427.23 2521.01
   18:03:42.156.25-Dec-2020 4856.51 3919.56 64.22 5.00 427.43 2521.01
   18:03:42.356.25-Dec-2020 4856.51 3918.68 64.22 5.00 427.63 2521.01
   18:03:42.556.25-Dec-2020 4856.51 3918.99 64.22 5.00 427.83 2521.01
   18:03:42.756.25-Dec-2020 4856.51 3918.99 64.22 5.00 428.03 2521.01
   18:03:42.956.25-Dec-2020 4856.51 3919.49 64.22 5.00 428.23 2521.01
   18:03:43.156.25-Dec-2020 4856.51 3918.85 64.22 5.00 428.43 2521.01
   18:03:43.355.25-Dec-2020 4856.51 3918.99 64.22 5.00 428.63 2521.01
   18:03:43.555.25-Dec-2020 4856.51 3919.27 64.22 5.00 428.83 2521.01
   18:03:43.755.25-Dec-2020 4856.51 3919.27 64.22 5.00 429.03 2521.01
   18:03:43.955.25-Dec-2020 4856.51 3919.76 64.22 5.00 429.23 2521.01
   18:03:44.155.25-Dec-2020 4856.51 3919.82 64.22 5.00 429.43 2521.01
   18:03:44.355.25-Dec-2020 4856.51 3920.20 64.22 5.00 429.63 2521.01
   18:03:44.555.25-Dec-2020 4856.51 3920.17 64.22 5.00 429.83 2521.01
   18:03:44.755.25-Dec-2020 4856.51 3920.17 64.22 5.00 430.03 2521.01
   18:03:44.955.25-Dec-2020 4856.51 3920.29 64.22 5.00 430.23 2521.01
   18:03:45.155.25-Dec-2020 4856.51 3920.24 64.22 5.00 430.43 2521.01
   18:03:45.355.25-Dec-2020 4856.51 3920.28 64.22 5.00 430.63 2521.01
   18:03:45.555.25-Dec-2020 4856.51 3920.28 64.22 5.00 430.83 2521.01
   18:03:45.755.25-Dec-2020 4856.51 3920.28 64.22 5.00 431.03 2521.01
   18:03:45.954.25-Dec-2020 4856.51 3919.69 64.22 5.00 431.23 2521.01
   18:03:46.154.25-Dec-2020 4856.51 3919.82 64.22 5.00 431.43 2521.01
   18:03:46.354.25-Dec-2020 4856.51 3920.04 64.22 5.00 431.63 2521.01
   18:03:46.554.25-Dec-2020 4856.51 3919.88 64.22 5.00 431.83 2521.01
   18:03:46.754.25-Dec-2020 4856.51 3919.88 64.22 5.00 432.03 2521.01
   18:03:46.954.25-Dec-2020 4856.51 3920.25 64.22 5.00 432.23 2521.01
   18:03:47.154.25-Dec-2020 4856.51 3920.20 64.22 5.00 432.43 2521.01
   18:03:47.354.25-Dec-2020 4856.51 3920.31 64.22 5.00 432.63 2521.01
   18:03:47.554.25-Dec-2020 4856.51 3920.25 64.22 5.00 432.83 2521.01
   18:03:47.754.25-Dec-2020 4856.51 3920.25 64.22 5.00 433.03 2521.01
   18:03:47.954.25-Dec-2020 4856.51 3920.30 64.22 5.00 433.23 2521.01
   18:03:48.154.25-Dec-2020 4856.51 3919.91 64.22 5.00 433.43 2521.01
   18:03:48.354.25-Dec-2020 4856.51 3919.67 64.22 5.00 433.63 2521.01
   18:03:48.553.25-Dec-2020 4856.51 3919.68 64.22 5.00 433.83 2521.01
   18:03:48.753.25-Dec-2020 4856.51 3919.68 64.22 5.00 434.03 2521.01
   18:03:48.953.25-Dec-2020 4856.51 3918.66 64.22 5.00 434.23 2521.01
   18:03:49.153.25-Dec-2020 4856.51 3918.99 64.22 5.00 434.43 2521.01
   18:03:49.353.25-Dec-2020 4856.51 3919.40 64.22 5.00 434.63 2521.01
   18:03:49.553.25-Dec-2020 4856.51 3919.61 64.22 5.00 434.83 2521.01
   18:03:49.753.25-Dec-2020 4856.51 3919.61 64.22 5.00 435.03 2521.01
   18:03:49.953.25-Dec-2020 4856.51 3918.74 64.22 5.00 435.23 2521.01
   18:03:50.153.25-Dec-2020 4856.51 3918.99 64.22 5.00 435.43 2521.01
   18:03:50.353.25-Dec-2020 4856.51 3919.59 64.22 5.00 435.63 2521.01
   18:03:50.553.25-Dec-2020 4856.51 3919.55 64.22 5.00 435.83 2521.01
   18:03:50.753.25-Dec-2020 4856.51 3919.55 64.22 5.00 436.03 2521.01
   18:03:50.952.25-Dec-2020 4856.51 3919.02 64.22 5.00 436.23 2521.01
   18:03:51.152.25-Dec-2020 4856.51 3919.39 64.22 5.00 436.43 2521.01
   18:03:51.352.25-Dec-2020 4856.51 3919.86 64.22 5.00 436.63 2521.01
