~Version Information
 VERS.                  2.0:   CWLS log ASCII Standard -VERSION 2.0
 WRAP.                   NO:   One line per depth step
~Well Information Block
#MNEM.UNIT     VALUE/NAME     DESCRIPTION
#---------     -----------    ---------------------------
 STRT.S             19:12:01 25-Dec-20: START TIME 19:12:01 25-Dec-20
 STOP.S             19:20:19 25-Dec-20: STOP TIME  19:20:19 25-Dec-20
 STEP.S                   0.00: STEP TIME
 NULL.                 -999.25: NULL VALUE
 DFWT.                        :  DIST FWL TEXT
 DFST.                        :  DIST FSL TEXT
 DMF .             Drill Floor:  DRILL MEAS FROM
 STIM.      04.54.24 22-Sep-20:  START TIME
 DATE.      04.54.24 21-Nov-20:  END TIME
 SPUD.               21-Nov-20:  SPUD DATE
 NREF.                    Grid:  NORTH REFERENCE
 HPTY.       Minimum Curvature:  HOLE POS TYPE
 DMOD.             Drill Model:  DRILL MOD DESC
 SVYD.                  Survey:  SURVEY DESC
 ILTD.               Lithology:  INTERP LTH DESC
 FTOP.          Formation Tops:  FORM TOPS DESC
 SON .        AZ-XX-0906571587:  JOB NUMBER
 COMP.     BP Exploration (Caspian Sea) Ltd:  COMPANY
 UWI .                     N/A:  UNIQUE WELL IDENTIFIER
 API .                     N/A:  API NUMBER
 BASE.              Azerbaijan:  LOGGING EQUIPMENT BASE LOCATION
 REGN.                   EESSA:  REGION
 PROV.                    Baku:  PROVINCE
 STAT.                    Baku:  STATE NAME
 CTRY.              Azerbaijan:  COUNTRY NAME
 FLD .                     ACG:  FIELD NAME
 SRVC.     TURAN Drilling & Engineering:  CONTRACTOR
 WELL.                     J27:  WELL NAME
 RIG .             West Chirag:  RIG NAME
 DOE .                     N/A:  DOE NUMBER
 DCON.         Sperry Drilling:  DIRECTNL CONTR
 PDAT.          Mean Sea Level:  PERMANENT DATUM
 WTYP.                Deviated:  WELL TYPE
 MWDS.                    Baku:  MWD SHOP
 JOBN.        AZ-XX-0906571587:  JOB TICKET NUMB
 UNIT.                     N/A:  LOGGING EQUIPMENT ID
 MDS .        Operator Entered:  MAG DATA SOURCE
 CNTY.                        :  COUNTY
 LOC .                        :  LOCATION
 LMF .             Drill Floor:  LOG MEASURED FROM
 TVDS.m                  43.00:  TVDSS CORRECTN
 LATI.deg                40.13:  LATITUDE
 LONG.deg                51.22:  LONGITUDE
 WHNS.m                   7.72:  WELL HEAD N/S
 WHEW.m                 -14.24:  WELL HEAD E/W
 UTMX.m              519005.06:  UTM X
 UTMY.m             4443793.85:  UTM Y
 DFWL.m                   0.00:  DISTANCE FWL
 DFSL.m                   0.00:  DISTANCE FSL
 SDEP.m                 347.00:  START DEPTH
 TDD .m                 581.00:  TOTAL DEPTH (DRILLER)
 VSDR.deg               159.72:  VERT SEC DIRECT
 GVFD.g                   1.00:  GRAVITY FIELD
 MFLD.nT              50318.00:  MAGNETIC FIELD
 MDIP.deg                59.57:  MAGNETIC DIP
 MDEC.deg                 6.44:  MAGNETIC DECL
 GRDC.deg                 0.15:  GRID CORRECTION
 AZTC.deg                 6.29:  AZM TOTAL CORR
 EPD .m                   0.00:  ELEVATION
 EGL .m                   0.00:  GROUND ELEVATION
 WDMS.m                 169.80:  WD ELEV
 APD .m                  43.00:  DEPTH ABOVE PD
 AGAP.m                  43.00:  AIR GAP
 VSEW.m                 -14.24:  VERT SEC E/W
 VSNS.m                   7.72:  VERT SEC N/S
 DEP .m                 342.45:  DEPTH
 EKB .m                   0.00:  KB ELEVATION
 EDF .m                  43.00:  DF ELEVATION
 TDL .m                 237.00:  TOTAL DEPTH (LOGGER)
 VSC .                       0:  VS TO CLOSURE
 MAGU.                 1851428:  MAGUTM CHECKSUM
~Parameter Information Block
#MNEM.UNIT       Value        Description
#---------     -----------    ---------------------------
 AV  .mps                 1.50:  Ann Velocity 
 AVMX.mps                 2.90:  Max Ann Veloc 
 AZIF.deg               115.59:  Azm, Final 
 BHAT.        Rotary Steerable:  BHA Type 
 BROT.°/30m               0.50:  Build Rotating 
 BS  .in                  8.50:  Bit Size 
 BTPL.psig              580.00:  Bit Press Loss 
 CABU.                     Yes:  Customer Abuse 
 COMM.                     Ìt:  Run Comments 1 
 TCS .hr                 89.79:  Time Ciculation Ended 
 CV  .mps                 3.22:  Crit Velocity 
 CVMX.mps                 4.37:  Max Crit Veloc 
 DD1 .          Rashad Habibov:  Direct Drillr 1 
 DDSV.               Geo-Pilot:  DD Service 
 DEFF.%                  95.00:  % Det Eff 
 DLRX.°/30m               1.94:  Dogleg Rot Max 
 DLSO.°/30m               0.70:  Dogleg Oriented 
 DLSX.°/30m               1.94:  Dogleg Str Max 
 DRET.      04.45.00 25-Dec-20:  Drill End Time 
 DRST.      10.00.00 24-Dec-20:  Drill Start Tim 
 DTIM.hr                 16.64:  Time Drilling 
 EDEP.m                4999.01:  End Depth 
 ENG1.         Elchin Mammadov:  Engineer 1 
 ENG2.          Ruslan Safarov:  Engineer 2 
 ENG3.          Rustam Safarov:  Engineer 3 
 ETIM.      09.00.00 29-Dec-20:  End Time 
 FLOI.gpm               500.00:  Flow In 
 FLON.gpm               400.00:  Flow In Min 
 FLOS.cptm                0.00:  Fluid Loss 
 FLOX.gpm               500.00:  Flow In Max 
 HFLO.                      No:  High Flow 
 HPRE.                      No:  High Pressure 
 HTEM.                      No:  High Temp 
 HYDO.m                   2.00:  Hydro Offset 
 IFIN.deg                66.79:  Inc, Final 
 IMAX.deg                67.66:  Inc Max 
 IMIN.deg                66.39:  Inc Min 
 IMND.m                4949.37:  Inc Min Depth 
 IMXD.m                4778.63:  Inc Max Depth 
 JARR.                     Yes:  Jarring 
 LETM.      04.45.00 25-Dec-20:  Log End Time 
 LOST.hr                     0:  Lost Rig Time 
 LSTM.      10.00.00 24-Dec-20:  Log Start Time 
 MDCL.ppm             39000.00:  Mud Chlorides 
 MDES.     Inversion Oil/Synthetic:  Mud Desc 
 DFD .sg                  1.33:  Mud Density 
 MDMN.sg                  1.33:  Dens Mud Min 
 MDMX.sg                  1.33:  Dens Mud Max 
 MOIL.                      70:  Run Mud Oil % 
 MOWR.                   70:30:  Run Mud OWR 
 MSND.                       0:  Run Mud Sand % 
 MSOL.                    17.4:  Run Mud Solids% 
 DFV .spqt               84.00:  Mud Viscosity 
 MWOD.in                  6.75:  MWD Tool OD 
 MWSI.                     Yes:  Serv Intrp, MWD 
 OTIM.hr                168.14:  Time Operating 
 PCON.           Look Like New:  Pad Condition 
 PMAX.psia            10822.93:  Press Op, Max 
 PV  .cP                 30.00:  Mud PV 
 RUN .                     900:  Run Number 
 ROPA.m/hr               18.00:  ROP Avg 
 ROPN.m/hr               12.00:  ROP Min 
 ROPX.m/hr               25.00:  ROP Max 
 RPMA.rpm               120.00:  RPM Surface Avg 
 RPMN.rpm               100.00:  RPM Surface Min 
 RPMX.rpm               120.00:  RPM Surface Max 
 RRUN.                    0900:  Rig Run Number 
 SAZI.deg               115.08:  Azm, Start 
 SDEP.m                4762.01:  Start Depth 
 SIDD.                      No:  Serv Intrp, DD 
 SINC.deg                66.14:  Inc, Start 
 SPPA.psig             3700.00:  SPP Avg 
 SPPN.psig             3620.00:  SPP Min 
 SPPX.psig             3900.00:  SPP Max 
 STIM.      09.30.00 22-Dec-20:  Start Time 
 SVCS.                 DD, MWD:  Services 
 SVER.                    9.20:  Sperry Version 
 TDAT.m                 237.00:  Tot Depth Attmp 
 TDDF.                      No:  Trip for DD 
 TDLG.m                 237.00:  Tot Depth Loggd 
 TFF .                      No:  Trip for Fail 
 TQAA.f-kp               18.00:  Torque Abs Avg 
 TQAN.f-kp               17.00:  Torque Abs Min 
 TQAX.f-kp               20.00:  Torque Abs Max 
 TRRT.°/30m               0.60:  Turn Rotating 
 MRT .                    HCIM:  Maximum Recorded Temperature 
 TTMX.degC               94.12:  Max Tool Temp 
 VS01.                90627809:  Virtual Str1 SN 
 VS02.                90527813:  Virtual Str2 SN 
 VS03.                90545417:  Virtual Str3 SN 
 VS04.                12460870:  Virtual Str4 SN 
 VS05.                90516706:  Virtual Str5 SN 
 VS06.                90632007:  Virtual Str6 SN 
 WBMN.klb                 0.00:  WOB Min 
 WOBA.klb                14.00:  WOB Avg 
 WOBX.klb                25.00:  WOB Max 
 YP  .lhf2               32.00:  Yield Point 
~Curve Information Block
#MNEM.UNIT                 API CODE     Curve Description
#---------               -----------    ---------------------------
 TIME.HHMMSS            00 000 000 000:  GT Time & Date
 GTDEPTH.m              00 000 000 000:  GT Depth
 GTPQH.psia             00 000 000 000:  GT HR Quartz Pressure
 GTTQ.degC              00 000 000 000:  GT Quartz Temperature
 GTTN.NONE              00 000 000 000:  GT Test Number
 GTET.sec               00 000 000 000:  GT Elapsed Test Time
 GTTVD.m                00 000 000 000:  GT True Vertical Depth
#Other Information
#
#WARRANTY: Halliburton will use its best efforts to furnish customers with 
#accurate information and interpretations that are part of, and incident to, the services 
#provided.  However, Halliburton cannot and does not warrant the accuracy 
#or correctness of such information and interpretations.  Under no circumstances should any 
#such information or interpretation be relied upon as the sole basis for any drilling, 
#completion, production, or financial decision or any procedure involving any risk to the 
#safety of any drilling venture, drilling rig or its crew or any other third party.  The 
#Customer has full responsibility for all drilling, completion and production operation.  
#Halliburton makes no representations or warranties, either expressed or 
#implied, including, but not limited to, the implied warranties of merchantability or fitness 
#for a particular purpose, with respect to the services rendered.  In no event will 
#Halliburton be liable for failure to obtain any particular results or for 
#any damages, including, but not limited to, indirect, special or consequential damages, 
#resulting from the use of any information or interpretation provided by Halliburton.
#
~A           TIME           GTDEPTH  GTPQH  GTTQ  GTTN  GTET   GTTVD  
# ...
   19:17:46.393.25-Dec-2020 4808.01 2274.71 63.87 7.00 345.27 2502.07
   19:17:46.594.25-Dec-2020 4808.01 2274.71 63.87 7.00 345.47 2502.07
   19:17:46.794.25-Dec-2020 4808.01 2277.78 63.87 7.00 345.67 2502.07
   19:17:46.994.25-Dec-2020 4808.01 2279.92 63.87 7.00 345.87 2502.07
   19:17:47.194.25-Dec-2020 4808.01 2281.79 63.87 7.00 346.07 2502.07
   19:17:47.394.25-Dec-2020 4808.01 2283.45 63.88 7.00 346.27 2502.07
   19:17:47.594.25-Dec-2020 4808.01 2283.45 63.88 7.00 346.47 2502.07
   19:17:47.795.25-Dec-2020 4808.01 2286.05 63.88 7.00 346.67 2502.07
   19:17:47.995.25-Dec-2020 4808.01 2287.12 63.88 7.00 346.87 2502.07
   19:17:48.195.25-Dec-2020 4808.01 2288.21 63.88 7.00 347.07 2502.07
   19:17:48.395.25-Dec-2020 4808.01 2289.13 63.88 7.00 347.27 2502.07
   19:17:48.595.25-Dec-2020 4808.01 2289.13 63.88 7.00 347.47 2502.07
   19:17:48.795.25-Dec-2020 4808.01 2290.83 63.88 7.00 347.67 2502.07
   19:17:48.996.25-Dec-2020 4808.01 2291.50 63.88 7.00 347.87 2502.07
   19:17:49.196.25-Dec-2020 4808.01 2292.23 63.88 7.00 348.07 2502.07
   19:17:49.396.25-Dec-2020 4808.01 2292.22 63.88 7.00 348.28 2502.07
   19:17:49.596.25-Dec-2020 4808.01 2292.22 63.88 7.00 348.48 2502.07
   19:17:49.796.25-Dec-2020 4808.01 2295.57 63.88 7.00 348.68 2502.07
   19:17:49.996.25-Dec-2020 4808.01 2296.47 63.88 7.00 348.88 2502.07
   19:17:50.196.25-Dec-2020 4808.01 2296.99 63.88 7.00 349.08 2502.07
   19:17:50.397.25-Dec-2020 4808.01 2297.36 63.88 7.00 349.28 2502.07
   19:17:50.597.25-Dec-2020 4808.01 2297.36 63.88 7.00 349.48 2502.07
   19:17:50.797.25-Dec-2020 4808.01 2298.12 63.88 7.00 349.68 2502.07
   19:17:50.997.25-Dec-2020 4808.01 2298.33 63.88 7.00 349.88 2502.07
   19:17:51.197.25-Dec-2020 4808.01 2298.60 63.88 7.00 350.08 2502.07
   19:17:51.397.25-Dec-2020 4808.01 2298.82 63.88 7.00 350.28 2502.07
   19:17:51.598.25-Dec-2020 4808.01 2298.82 63.88 7.00 350.48 2502.07
   19:17:51.798.25-Dec-2020 4808.01 2298.50 63.88 7.00 350.68 2502.07
   19:17:51.998.25-Dec-2020 4808.01 2300.11 63.88 7.00 350.88 2502.07
   19:17:52.198.25-Dec-2020 4808.01 2300.06 63.88 7.00 351.08 2502.07
   19:17:52.398.25-Dec-2020 4808.01 2300.46 63.88 7.00 351.28 2502.07
   19:17:52.598.25-Dec-2020 4808.01 2300.46 63.88 7.00 351.48 2502.07
   19:17:52.799.25-Dec-2020 4808.01 2301.36 63.88 7.00 351.68 2502.07
   19:17:52.999.25-Dec-2020 4808.01 2301.16 63.88 7.00 351.88 2502.07
   19:17:53.199.25-Dec-2020 4808.01 2301.50 63.89 7.00 352.08 2502.07
   19:17:53.399.25-Dec-2020 4808.01 2301.49 63.89 7.00 352.28 2502.07
   19:17:53.599.25-Dec-2020 4808.01 2301.49 63.89 7.00 352.48 2502.07
   19:17:53.799.25-Dec-2020 4808.01 2301.58 63.89 7.00 352.68 2502.07
   19:17:54.000.25-Dec-2020 4808.01 2301.56 63.89 7.00 352.88 2502.07
   19:17:54.200.25-Dec-2020 4808.01 2301.97 63.89 7.00 353.08 2502.07
   19:17:54.400.25-Dec-2020 4808.01 2301.96 63.89 7.00 353.28 2502.07
   19:17:54.600.25-Dec-2020 4808.01 2301.96 63.89 7.00 353.48 2502.07
   19:17:54.800.25-Dec-2020 4808.01 2300.47 63.89 7.00 353.68 2502.07
   19:17:55.000.25-Dec-2020 4808.01 2301.55 63.89 7.00 353.88 2502.07
   19:17:55.200.25-Dec-2020 4808.01 2301.55 63.89 7.00 354.08 2502.07
   19:17:55.401.25-Dec-2020 4808.01 2301.86 63.89 7.00 354.28 2502.07
   19:17:55.601.25-Dec-2020 4808.01 2301.86 63.89 7.00 354.48 2502.07
   19:17:55.801.25-Dec-2020 4808.01 2302.06 63.89 7.00 354.68 2502.07
   19:17:56.001.25-Dec-2020 4808.01 2302.12 63.89 7.00 354.88 2502.07
   19:17:56.201.25-Dec-2020 4808.01 2302.20 63.89 7.00 355.08 2502.07
   19:17:56.401.25-Dec-2020 4808.01 2302.27 63.89 7.00 355.28 2502.07
   19:17:56.602.25-Dec-2020 4808.01 2302.27 63.89 7.00 355.48 2502.07
   19:17:56.802.25-Dec-2020 4808.01 2302.42 63.89 7.00 355.68 2502.07
   19:17:57.002.25-Dec-2020 4808.01 2302.44 63.89 7.00 355.88 2502.07
   19:17:57.202.25-Dec-2020 4808.01 2302.44 63.89 7.00 356.08 2502.07
   19:17:57.402.25-Dec-2020 4808.01 2302.09 63.89 7.00 356.28 2502.07
   19:17:57.602.25-Dec-2020 4808.01 2302.09 63.89 7.00 356.48 2502.07
   19:17:57.803.25-Dec-2020 4808.01 2303.27 63.89 7.00 356.68 2502.07
   19:17:58.003.25-Dec-2020 4808.01 2303.15 63.89 7.00 356.88 2502.07
   19:17:58.203.25-Dec-2020 4808.01 2303.26 63.89 7.00 357.08 2502.07
   19:17:58.403.25-Dec-2020 4808.01 2303.30 63.89 7.00 357.28 2502.07
   19:17:58.603.25-Dec-2020 4808.01 2303.30 63.89 7.00 357.48 2502.07
   19:17:58.803.25-Dec-2020 4808.01 2303.34 63.89 7.00 357.68 2502.07
   19:17:59.003.25-Dec-2020 4808.01 2303.31 63.89 7.00 357.88 2502.07
   19:17:59.204.25-Dec-2020 4808.01 2303.32 63.89 7.00 358.08 2502.07
   19:17:59.404.25-Dec-2020 4808.01 2303.35 63.89 7.00 358.28 2502.07
   19:17:59.604.25-Dec-2020 4808.01 2303.35 63.89 7.00 358.48 2502.07
   19:17:59.804.25-Dec-2020 4808.01 2302.79 63.89 7.00 358.68 2502.07
   19:18:00.004.25-Dec-2020 4808.01 2303.81 63.89 7.00 358.88 2502.07
   19:18:00.204.25-Dec-2020 4808.01 2303.79 63.89 7.00 359.08 2502.07
   19:18:00.405.25-Dec-2020 4808.01 2303.85 63.89 7.00 359.28 2502.07
   19:18:00.605.25-Dec-2020 4808.01 2303.85 63.89 7.00 359.48 2502.07
   19:18:00.805.25-Dec-2020 4808.01 2303.20 63.89 7.00 359.68 2502.07
   19:18:01.005.25-Dec-2020 4808.01 2304.31 63.89 7.00 359.88 2502.07
   19:18:01.205.25-Dec-2020 4808.01 2303.98 63.89 7.00 360.08 2502.07
   19:18:01.405.25-Dec-2020 4808.01 2304.21 63.89 7.00 360.28 2502.07
   19:18:01.606.25-Dec-2020 4808.01 2304.21 63.89 7.00 360.48 2502.07
   19:18:01.806.25-Dec-2020 4808.01 2304.14 63.89 7.00 360.68 2502.07
   19:18:02.006.25-Dec-2020 4808.01 2303.52 63.89 7.00 360.89 2502.07
   19:18:02.206.25-Dec-2020 4808.01 2304.20 63.89 7.00 361.09 2502.07
   19:18:02.406.25-Dec-2020 4808.01 2304.53 63.89 7.00 361.29 2502.07
   19:18:02.606.25-Dec-2020 4808.01 2304.53 63.89 7.00 361.49 2502.07
   19:18:02.806.25-Dec-2020 4808.01 2304.55 63.89 7.00 361.69 2502.07
   19:18:03.007.25-Dec-2020 4808.01 2304.44 63.89 7.00 361.89 2502.07
   19:18:03.207.25-Dec-2020 4808.01 2304.39 63.89 7.00 362.09 2502.07
   19:18:03.407.25-Dec-2020 4808.01 2304.47 63.88 7.00 362.29 2502.07
   19:18:03.607.25-Dec-2020 4808.01 2304.47 63.88 7.00 362.49 2502.07
   19:18:03.807.25-Dec-2020 4808.01 2304.54 63.88 7.00 362.69 2502.07
   19:18:04.007.25-Dec-2020 4808.01 2304.53 63.88 7.00 362.89 2502.07
   19:18:04.208.25-Dec-2020 4808.01 2304.50 63.88 7.00 363.09 2502.07
   19:18:04.408.25-Dec-2020 4808.01 2304.54 63.88 7.00 363.29 2502.07
   19:18:04.608.25-Dec-2020 4808.01 2304.54 63.88 7.00 363.49 2502.07
   19:18:04.808.25-Dec-2020 4808.01 2304.54 63.88 7.00 363.69 2502.07
   19:18:05.008.25-Dec-2020 4808.01 2304.09 63.88 7.00 363.89 2502.07
   19:18:05.208.25-Dec-2020 4808.01 2304.55 63.88 7.00 364.09 2502.07
   19:18:05.409.25-Dec-2020 4808.01 2304.67 63.88 7.00 364.29 2502.07
   19:18:05.609.25-Dec-2020 4808.01 2304.67 63.88 7.00 364.49 2502.07
   19:18:05.809.25-Dec-2020 4808.01 2304.65 63.88 7.00 364.69 2502.07
   19:18:06.009.25-Dec-2020 4808.01 2304.72 63.88 7.00 364.89 2502.07
   19:18:06.209.25-Dec-2020 4808.01 2304.69 63.88 7.00 365.09 2502.07
   19:18:06.409.25-Dec-2020 4808.01 2304.72 63.88 7.00 365.29 2502.07
   19:18:06.609.25-Dec-2020 4808.01 2304.72 63.88 7.00 365.49 2502.07
   19:18:06.810.25-Dec-2020 4808.01 2304.72 63.88 7.00 365.69 2502.07
   19:18:07.010.25-Dec-2020 4808.01 2304.72 63.88 7.00 365.89 2502.07
   19:18:07.210.25-Dec-2020 4808.01 2304.69 63.88 7.00 366.09 2502.07
   19:18:07.410.25-Dec-2020 4808.01 2304.65 63.88 7.00 366.29 2502.07
   19:18:07.610.25-Dec-2020 4808.01 2304.65 63.88 7.00 366.49 2502.07
   19:18:07.810.25-Dec-2020 4808.01 2304.87 63.88 7.00 366.69 2502.07
   19:18:08.011.25-Dec-2020 4808.01 2305.05 63.88 7.00 366.89 2502.07
   19:18:08.211.25-Dec-2020 4808.01 2304.75 63.88 7.00 367.09 2502.07
   19:18:08.411.25-Dec-2020 4808.01 2304.84 63.88 7.00 367.29 2502.07
   19:18:08.611.25-Dec-2020 4808.01 2304.84 63.88 7.00 367.49 2502.07
   19:18:08.811.25-Dec-2020 4808.01 2305.29 63.88 7.00 367.69 2502.07
   19:18:09.011.25-Dec-2020 4808.01 2304.81 63.88 7.00 367.89 2502.07
   19:18:09.212.25-Dec-2020 4808.01 2304.84 63.88 7.00 368.09 2502.07
