~Version Information
 VERS.                  2.0:   CWLS log ASCII Standard -VERSION 2.0
 WRAP.                   NO:   One line per depth step
~Well Information Block
#MNEM.UNIT     VALUE/NAME     DESCRIPTION
#---------     -----------    ---------------------------
 STRT.S             19:12:01 25-Dec-20: START TIME 19:12:01 25-Dec-20
 STOP.S             19:20:19 25-Dec-20: STOP TIME  19:20:19 25-Dec-20
 STEP.S                   0.00: STEP TIME
 NULL.                 -999.25: NULL VALUE
 DFWT.                        :  DIST FWL TEXT
 DFST.                        :  DIST FSL TEXT
 DMF .             Drill Floor:  DRILL MEAS FROM
 STIM.      04.54.24 22-Sep-20:  START TIME
 DATE.      04.54.24 21-Nov-20:  END TIME
 SPUD.               21-Nov-20:  SPUD DATE
 NREF.                    Grid:  NORTH REFERENCE
 HPTY.       Minimum Curvature:  HOLE POS TYPE
 DMOD.             Drill Model:  DRILL MOD DESC
 SVYD.                  Survey:  SURVEY DESC
 ILTD.               Lithology:  INTERP LTH DESC
 FTOP.          Formation Tops:  FORM TOPS DESC
 SON .        AZ-XX-0906571587:  JOB NUMBER
 COMP.     BP Exploration (Caspian Sea) Ltd:  COMPANY
 UWI .                     N/A:  UNIQUE WELL IDENTIFIER
 API .                     N/A:  API NUMBER
 BASE.              Azerbaijan:  LOGGING EQUIPMENT BASE LOCATION
 REGN.                   EESSA:  REGION
 PROV.                    Baku:  PROVINCE
 STAT.                    Baku:  STATE NAME
 CTRY.              Azerbaijan:  COUNTRY NAME
 FLD .                     ACG:  FIELD NAME
 SRVC.     TURAN Drilling & Engineering:  CONTRACTOR
 WELL.                     J27:  WELL NAME
 RIG .             West Chirag:  RIG NAME
 DOE .                     N/A:  DOE NUMBER
 DCON.         Sperry Drilling:  DIRECTNL CONTR
 PDAT.          Mean Sea Level:  PERMANENT DATUM
 WTYP.                Deviated:  WELL TYPE
 MWDS.                    Baku:  MWD SHOP
 JOBN.        AZ-XX-0906571587:  JOB TICKET NUMB
 UNIT.                     N/A:  LOGGING EQUIPMENT ID
 MDS .        Operator Entered:  MAG DATA SOURCE
 CNTY.                        :  COUNTY
 LOC .                        :  LOCATION
 LMF .             Drill Floor:  LOG MEASURED FROM
 TVDS.m                  43.00:  TVDSS CORRECTN
 LATI.deg                40.13:  LATITUDE
 LONG.deg                51.22:  LONGITUDE
 WHNS.m                   7.72:  WELL HEAD N/S
 WHEW.m                 -14.24:  WELL HEAD E/W
 UTMX.m              519005.06:  UTM X
 UTMY.m             4443793.85:  UTM Y
 DFWL.m                   0.00:  DISTANCE FWL
 DFSL.m                   0.00:  DISTANCE FSL
 SDEP.m                 347.00:  START DEPTH
 TDD .m                 581.00:  TOTAL DEPTH (DRILLER)
 VSDR.deg               159.72:  VERT SEC DIRECT
 GVFD.g                   1.00:  GRAVITY FIELD
 MFLD.nT              50318.00:  MAGNETIC FIELD
 MDIP.deg                59.57:  MAGNETIC DIP
 MDEC.deg                 6.44:  MAGNETIC DECL
 GRDC.deg                 0.15:  GRID CORRECTION
 AZTC.deg                 6.29:  AZM TOTAL CORR
 EPD .m                   0.00:  ELEVATION
 EGL .m                   0.00:  GROUND ELEVATION
 WDMS.m                 169.80:  WD ELEV
 APD .m                  43.00:  DEPTH ABOVE PD
 AGAP.m                  43.00:  AIR GAP
 VSEW.m                 -14.24:  VERT SEC E/W
 VSNS.m                   7.72:  VERT SEC N/S
 DEP .m                 342.45:  DEPTH
 EKB .m                   0.00:  KB ELEVATION
 EDF .m                  43.00:  DF ELEVATION
 TDL .m                 237.00:  TOTAL DEPTH (LOGGER)
 VSC .                       0:  VS TO CLOSURE
 MAGU.                 1851428:  MAGUTM CHECKSUM
~Parameter Information Block
#MNEM.UNIT       Value        Description
#---------     -----------    ---------------------------
 AV  .mps                 1.50:  Ann Velocity 
 AVMX.mps                 2.90:  Max Ann Veloc 
 AZIF.deg               115.59:  Azm, Final 
 BHAT.        Rotary Steerable:  BHA Type 
 BROT.°/30m               0.50:  Build Rotating 
 BS  .in                  8.50:  Bit Size 
 BTPL.psig              580.00:  Bit Press Loss 
 CABU.                     Yes:  Customer Abuse 
 COMM.                     Ìt:  Run Comments 1 
 TCS .hr                 89.79:  Time Ciculation Ended 
 CV  .mps                 3.22:  Crit Velocity 
 CVMX.mps                 4.37:  Max Crit Veloc 
 DD1 .          Rashad Habibov:  Direct Drillr 1 
 DDSV.               Geo-Pilot:  DD Service 
 DEFF.%                  95.00:  % Det Eff 
 DLRX.°/30m               1.94:  Dogleg Rot Max 
 DLSO.°/30m               0.70:  Dogleg Oriented 
 DLSX.°/30m               1.94:  Dogleg Str Max 
 DRET.      04.45.00 25-Dec-20:  Drill End Time 
 DRST.      10.00.00 24-Dec-20:  Drill Start Tim 
 DTIM.hr                 16.64:  Time Drilling 
 EDEP.m                4999.01:  End Depth 
 ENG1.         Elchin Mammadov:  Engineer 1 
 ENG2.          Ruslan Safarov:  Engineer 2 
 ENG3.          Rustam Safarov:  Engineer 3 
 ETIM.      09.00.00 29-Dec-20:  End Time 
 FLOI.gpm               500.00:  Flow In 
 FLON.gpm               400.00:  Flow In Min 
 FLOS.cptm                0.00:  Fluid Loss 
 FLOX.gpm               500.00:  Flow In Max 
 HFLO.                      No:  High Flow 
 HPRE.                      No:  High Pressure 
 HTEM.                      No:  High Temp 
 HYDO.m                   2.00:  Hydro Offset 
 IFIN.deg                66.79:  Inc, Final 
 IMAX.deg                67.66:  Inc Max 
 IMIN.deg                66.39:  Inc Min 
 IMND.m                4949.37:  Inc Min Depth 
 IMXD.m                4778.63:  Inc Max Depth 
 JARR.                     Yes:  Jarring 
 LETM.      04.45.00 25-Dec-20:  Log End Time 
 LOST.hr                     0:  Lost Rig Time 
 LSTM.      10.00.00 24-Dec-20:  Log Start Time 
 MDCL.ppm             39000.00:  Mud Chlorides 
 MDES.     Inversion Oil/Synthetic:  Mud Desc 
 DFD .sg                  1.33:  Mud Density 
 MDMN.sg                  1.33:  Dens Mud Min 
 MDMX.sg                  1.33:  Dens Mud Max 
 MOIL.                      70:  Run Mud Oil % 
 MOWR.                   70:30:  Run Mud OWR 
 MSND.                       0:  Run Mud Sand % 
 MSOL.                    17.4:  Run Mud Solids% 
 DFV .spqt               84.00:  Mud Viscosity 
 MWOD.in                  6.75:  MWD Tool OD 
 MWSI.                     Yes:  Serv Intrp, MWD 
 OTIM.hr                168.14:  Time Operating 
 PCON.           Look Like New:  Pad Condition 
 PMAX.psia            10822.93:  Press Op, Max 
 PV  .cP                 30.00:  Mud PV 
 RUN .                     900:  Run Number 
 ROPA.m/hr               18.00:  ROP Avg 
 ROPN.m/hr               12.00:  ROP Min 
 ROPX.m/hr               25.00:  ROP Max 
 RPMA.rpm               120.00:  RPM Surface Avg 
 RPMN.rpm               100.00:  RPM Surface Min 
 RPMX.rpm               120.00:  RPM Surface Max 
 RRUN.                    0900:  Rig Run Number 
 SAZI.deg               115.08:  Azm, Start 
 SDEP.m                4762.01:  Start Depth 
 SIDD.                      No:  Serv Intrp, DD 
 SINC.deg                66.14:  Inc, Start 
 SPPA.psig             3700.00:  SPP Avg 
 SPPN.psig             3620.00:  SPP Min 
 SPPX.psig             3900.00:  SPP Max 
 STIM.      09.30.00 22-Dec-20:  Start Time 
 SVCS.                 DD, MWD:  Services 
 SVER.                    9.20:  Sperry Version 
 TDAT.m                 237.00:  Tot Depth Attmp 
 TDDF.                      No:  Trip for DD 
 TDLG.m                 237.00:  Tot Depth Loggd 
 TFF .                      No:  Trip for Fail 
 TQAA.f-kp               18.00:  Torque Abs Avg 
 TQAN.f-kp               17.00:  Torque Abs Min 
 TQAX.f-kp               20.00:  Torque Abs Max 
 TRRT.°/30m               0.60:  Turn Rotating 
 MRT .                    HCIM:  Maximum Recorded Temperature 
 TTMX.degC               94.12:  Max Tool Temp 
 VS01.                90627809:  Virtual Str1 SN 
 VS02.                90527813:  Virtual Str2 SN 
 VS03.                90545417:  Virtual Str3 SN 
 VS04.                12460870:  Virtual Str4 SN 
 VS05.                90516706:  Virtual Str5 SN 
 VS06.                90632007:  Virtual Str6 SN 
 WBMN.klb                 0.00:  WOB Min 
 WOBA.klb                14.00:  WOB Avg 
 WOBX.klb                25.00:  WOB Max 
 YP  .lhf2               32.00:  Yield Point 
~Curve Information Block
#MNEM.UNIT                 API CODE     Curve Description
#---------               -----------    ---------------------------
 TIME.HHMMSS            00 000 000 000:  GT Time & Date
 GTDEPTH.m              00 000 000 000:  GT Depth
 GTPQH.psia             00 000 000 000:  GT HR Quartz Pressure
 GTTQ.degC              00 000 000 000:  GT Quartz Temperature
 GTTN.NONE              00 000 000 000:  GT Test Number
 GTET.sec               00 000 000 000:  GT Elapsed Test Time
 GTTVD.m                00 000 000 000:  GT True Vertical Depth
#Other Information
#
#WARRANTY: Halliburton will use its best efforts to furnish customers with 
#accurate information and interpretations that are part of, and incident to, the services 
#provided.  However, Halliburton cannot and does not warrant the accuracy 
#or correctness of such information and interpretations.  Under no circumstances should any 
#such information or interpretation be relied upon as the sole basis for any drilling, 
#completion, production, or financial decision or any procedure involving any risk to the 
#safety of any drilling venture, drilling rig or its crew or any other third party.  The 
#Customer has full responsibility for all drilling, completion and production operation.  
#Halliburton makes no representations or warranties, either expressed or 
#implied, including, but not limited to, the implied warranties of merchantability or fitness 
#for a particular purpose, with respect to the services rendered.  In no event will 
#Halliburton be liable for failure to obtain any particular results or for 
#any damages, including, but not limited to, indirect, special or consequential damages, 
#resulting from the use of any information or interpretation provided by Halliburton.
#
~A           TIME           GTDEPTH  GTPQH  GTTQ  GTTN  GTET   GTTVD  
# ...
   19:18:32.430.25-Dec-2020 4808.01 2304.53 63.88 7.00 391.31 2502.07
   19:18:32.630.25-Dec-2020 4808.01 2304.53 63.88 7.00 391.51 2502.07
   19:18:32.830.25-Dec-2020 4808.01 2304.80 63.88 7.00 391.71 2502.07
   19:18:33.030.25-Dec-2020 4808.01 2304.86 63.88 7.00 391.91 2502.07
   19:18:33.230.25-Dec-2020 4808.01 2304.45 63.88 7.00 392.11 2502.07
   19:18:33.431.25-Dec-2020 4808.01 2304.93 63.88 7.00 392.31 2502.07
   19:18:33.631.25-Dec-2020 4808.01 2304.93 63.88 7.00 392.51 2502.07
   19:18:33.831.25-Dec-2020 4808.01 2305.26 63.88 7.00 392.71 2502.07
   19:18:34.031.25-Dec-2020 4808.01 2305.19 63.88 7.00 392.91 2502.07
   19:18:34.231.25-Dec-2020 4808.01 2305.27 63.88 7.00 393.11 2502.07
   19:18:34.431.25-Dec-2020 4808.01 2305.25 63.88 7.00 393.31 2502.07
   19:18:34.632.25-Dec-2020 4808.01 2305.25 63.88 7.00 393.51 2502.07
   19:18:34.832.25-Dec-2020 4808.01 2305.32 63.88 7.00 393.71 2502.07
   19:18:35.032.25-Dec-2020 4808.01 2305.30 63.88 7.00 393.91 2502.07
   19:18:35.232.25-Dec-2020 4808.01 2305.35 63.88 7.00 394.11 2502.07
   19:18:35.432.25-Dec-2020 4808.01 2305.35 63.88 7.00 394.31 2502.07
   19:18:35.632.25-Dec-2020 4808.01 2305.35 63.88 7.00 394.51 2502.07
   19:18:35.833.25-Dec-2020 4808.01 2304.61 63.88 7.00 394.71 2502.07
   19:18:36.033.25-Dec-2020 4808.01 2305.53 63.88 7.00 394.91 2502.07
   19:18:36.233.25-Dec-2020 4808.01 2304.93 63.88 7.00 395.11 2502.07
   19:18:36.433.25-Dec-2020 4808.01 2305.31 63.88 7.00 395.31 2502.07
   19:18:36.633.25-Dec-2020 4808.01 2305.31 63.88 7.00 395.51 2502.07
   19:18:36.833.25-Dec-2020 4808.01 2304.66 63.88 7.00 395.71 2502.07
   19:18:37.033.25-Dec-2020 4808.01 2305.70 63.88 7.00 395.91 2502.07
   19:18:37.234.25-Dec-2020 4808.01 2305.26 63.88 7.00 396.11 2502.07
   19:18:37.434.25-Dec-2020 4808.01 2304.50 63.88 7.00 396.31 2502.07
   19:18:37.634.25-Dec-2020 4808.01 2304.50 63.88 7.00 396.51 2502.07
   19:18:37.834.25-Dec-2020 4808.01 2305.23 63.88 7.00 396.71 2502.07
   19:18:38.034.25-Dec-2020 4808.01 2305.34 63.88 7.00 396.91 2502.07
   19:18:38.234.25-Dec-2020 4808.01 2305.40 63.88 7.00 397.11 2502.07
   19:18:38.435.25-Dec-2020 4808.01 2305.35 63.88 7.00 397.31 2502.07
   19:18:38.635.25-Dec-2020 4808.01 2305.35 63.88 7.00 397.51 2502.07
   19:18:38.835.25-Dec-2020 4808.01 2305.43 63.88 7.00 397.71 2502.07
   19:18:39.035.25-Dec-2020 4808.01 2305.41 63.88 7.00 397.91 2502.07
   19:18:39.235.25-Dec-2020 4808.01 2305.41 63.88 7.00 398.11 2502.07
   19:18:39.435.25-Dec-2020 4808.01 2305.42 63.88 7.00 398.31 2502.07
   19:18:39.636.25-Dec-2020 4808.01 2305.42 63.88 7.00 398.51 2502.07
   19:18:39.836.25-Dec-2020 4808.01 2305.40 63.88 7.00 398.71 2502.07
   19:18:40.036.25-Dec-2020 4808.01 2304.70 63.88 7.00 398.92 2502.07
   19:18:40.236.25-Dec-2020 4808.01 2305.41 63.88 7.00 399.12 2502.07
   19:18:40.436.25-Dec-2020 4808.01 2305.55 63.88 7.00 399.32 2502.07
   19:18:40.636.25-Dec-2020 4808.01 2305.55 63.88 7.00 399.52 2502.07
   19:18:40.836.25-Dec-2020 4808.01 2305.44 63.88 7.00 399.72 2502.07
   19:18:41.037.25-Dec-2020 4808.01 2305.44 63.88 7.00 399.92 2502.07
   19:18:41.237.25-Dec-2020 4808.01 2305.51 63.88 7.00 400.12 2502.07
   19:18:41.437.25-Dec-2020 4808.01 2305.49 63.88 7.00 400.32 2502.07
   19:18:41.637.25-Dec-2020 4808.01 2305.49 63.88 7.00 400.52 2502.07
   19:18:41.837.25-Dec-2020 4808.01 2305.48 63.88 7.00 400.72 2502.07
   19:18:42.037.25-Dec-2020 4808.01 2305.50 63.88 7.00 400.92 2502.07
   19:18:42.238.25-Dec-2020 4808.01 2305.53 63.88 7.00 401.12 2502.07
   19:18:42.438.25-Dec-2020 4808.01 2304.72 63.88 7.00 401.32 2502.07
   19:18:42.638.25-Dec-2020 4808.01 2304.72 63.88 7.00 401.52 2502.07
   19:18:42.838.25-Dec-2020 4808.01 2305.33 63.88 7.00 401.72 2502.07
   19:18:43.038.25-Dec-2020 4808.01 2304.76 63.88 7.00 401.92 2502.07
   19:18:43.238.25-Dec-2020 4808.01 2305.56 63.88 7.00 402.12 2502.07
   19:18:43.439.25-Dec-2020 4808.01 2304.75 63.88 7.00 402.32 2502.07
   19:18:43.639.25-Dec-2020 4808.01 2304.75 63.88 7.00 402.52 2502.07
   19:18:43.839.25-Dec-2020 4808.01 2305.41 63.88 7.00 402.72 2502.07
   19:18:44.039.25-Dec-2020 4808.01 2304.90 63.88 7.00 402.92 2502.07
   19:18:44.239.25-Dec-2020 4808.01 2305.34 63.88 7.00 403.12 2502.07
   19:18:44.439.25-Dec-2020 4808.01 2305.33 63.88 7.00 403.32 2502.07
   19:18:44.639.25-Dec-2020 4808.01 2305.33 63.88 7.00 403.52 2502.07
   19:18:44.840.25-Dec-2020 4808.01 2305.41 63.88 7.00 403.72 2502.07
   19:18:45.040.25-Dec-2020 4808.01 2305.46 63.88 7.00 403.92 2502.07
   19:18:45.240.25-Dec-2020 4808.01 2305.47 63.88 7.00 404.12 2502.07
   19:18:45.440.25-Dec-2020 4808.01 2305.46 63.88 7.00 404.32 2502.07
   19:18:45.640.25-Dec-2020 4808.01 2305.46 63.88 7.00 404.52 2502.07
   19:18:45.840.25-Dec-2020 4808.01 2305.50 63.88 7.00 404.72 2502.07
   19:18:46.041.25-Dec-2020 4808.01 2305.48 63.88 7.00 404.92 2502.07
   19:18:46.241.25-Dec-2020 4808.01 2305.55 63.88 7.00 405.12 2502.07
   19:18:46.441.25-Dec-2020 4808.01 2305.54 63.88 7.00 405.32 2502.07
   19:18:46.641.25-Dec-2020 4808.01 2305.54 63.88 7.00 405.52 2502.07
   19:18:46.841.25-Dec-2020 4808.01 2305.75 63.88 7.00 405.72 2502.07
   19:18:47.041.25-Dec-2020 4808.01 2305.31 63.88 7.00 405.92 2502.07
   19:18:47.242.25-Dec-2020 4808.01 2305.53 63.88 7.00 406.12 2502.07
   19:18:47.442.25-Dec-2020 4808.01 2305.53 63.88 7.00 406.32 2502.07
   19:18:47.642.25-Dec-2020 4808.01 2305.53 63.88 7.00 406.52 2502.07
   19:18:47.842.25-Dec-2020 4808.01 2305.60 63.88 7.00 406.72 2502.07
   19:18:48.042.25-Dec-2020 4808.01 2305.56 63.88 7.00 406.92 2502.07
   19:18:48.242.25-Dec-2020 4808.01 2305.58 63.88 7.00 407.12 2502.07
   19:18:48.442.25-Dec-2020 4808.01 2305.55 63.88 7.00 407.32 2502.07
   19:18:48.643.25-Dec-2020 4808.01 2305.55 63.88 7.00 407.52 2502.07
   19:18:48.843.25-Dec-2020 4808.01 2305.61 63.88 7.00 407.72 2502.07
   19:18:49.043.25-Dec-2020 4808.01 2305.04 63.88 7.00 407.92 2502.07
   19:18:49.243.25-Dec-2020 4808.01 2305.50 63.88 7.00 408.12 2502.07
   19:18:49.443.25-Dec-2020 4808.01 2305.51 63.88 7.00 408.32 2502.07
   19:18:49.643.25-Dec-2020 4808.01 2305.51 63.88 7.00 408.52 2502.07
   19:18:49.844.25-Dec-2020 4808.01 2305.80 63.88 7.00 408.72 2502.07
   19:18:50.044.25-Dec-2020 4808.01 2305.39 63.88 7.00 408.92 2502.07
   19:18:50.244.25-Dec-2020 4808.01 2304.76 63.88 7.00 409.12 2502.07
   19:18:50.444.25-Dec-2020 4808.01 2305.68 63.88 7.00 409.32 2502.07
   19:18:50.644.25-Dec-2020 4808.01 2305.68 63.88 7.00 409.52 2502.07
   19:18:50.844.25-Dec-2020 4808.01 2304.79 63.88 7.00 409.72 2502.07
   19:18:51.045.25-Dec-2020 4808.01 2305.44 63.88 7.00 409.92 2502.07
   19:18:51.245.25-Dec-2020 4808.01 2305.62 63.88 7.00 410.12 2502.07
   19:18:51.445.25-Dec-2020 4808.01 2305.42 63.88 7.00 410.32 2502.07
   19:18:51.645.25-Dec-2020 4808.01 2305.42 63.88 7.00 410.52 2502.07
   19:18:51.845.25-Dec-2020 4808.01 2305.52 63.88 7.00 410.72 2502.07
   19:18:52.045.25-Dec-2020 4808.01 2305.50 63.88 7.00 410.92 2502.07
   19:18:52.245.25-Dec-2020 4808.01 2305.55 63.88 7.00 411.12 2502.07
   19:18:52.446.25-Dec-2020 4808.01 2305.54 63.88 7.00 411.32 2502.07
   19:18:52.646.25-Dec-2020 4808.01 2305.54 63.88 7.00 411.52 2502.07
   19:18:52.846.25-Dec-2020 4808.01 2305.60 63.88 7.00 411.73 2502.07
   19:18:53.046.25-Dec-2020 4808.01 2305.58 63.88 7.00 411.93 2502.07
   19:18:53.246.25-Dec-2020 4808.01 2304.72 63.88 7.00 412.13 2502.07
   19:18:53.446.25-Dec-2020 4808.01 2305.91 63.88 7.00 412.33 2502.07
   19:18:53.647.25-Dec-2020 4808.01 2305.91 63.88 7.00 412.53 2502.07
   19:18:53.847.25-Dec-2020 4808.01 2305.52 63.88 7.00 412.73 2502.07
   19:18:54.047.25-Dec-2020 4808.01 2305.52 63.88 7.00 412.93 2502.07
   19:18:54.247.25-Dec-2020 4808.01 2305.53 63.88 7.00 413.13 2502.07
   19:18:54.447.25-Dec-2020 4808.01 2305.59 63.88 7.00 413.33 2502.07
   19:18:54.647.25-Dec-2020 4808.01 2305.59 63.88 7.00 413.53 2502.07
   19:18:54.848.25-Dec-2020 4808.01 2305.62 63.88 7.00 413.73 2502.07
   19:18:55.048.25-Dec-2020 4808.01 2305.58 63.88 7.00 413.93 2502.07
   19:18:55.248.25-Dec-2020 4808.01 2305.60 63.88 7.00 414.13 2502.07
