~Version Information
 VERS.                  2.0:   CWLS log ASCII Standard -VERSION 2.0
 WRAP.                   NO:   One line per depth step
~Well Information Block
#MNEM.UNIT     VALUE/NAME     DESCRIPTION
#---------     -----------    ---------------------------
 STRT.S             21:28:23 25-Dec-20: START TIME 21:28:23 25-Dec-20
 STOP.S             21:36:48 25-Dec-20: STOP TIME  21:36:48 25-Dec-20
 STEP.S                   0.00: STEP TIME
 NULL.                 -999.25: NULL VALUE
 DFWT.                        :  DIST FWL TEXT
 DFST.                        :  DIST FSL TEXT
 DMF .             Drill Floor:  DRILL MEAS FROM
 STIM.      04.54.24 22-Sep-20:  START TIME
 DATE.      04.54.24 21-Nov-20:  END TIME
 SPUD.               21-Nov-20:  SPUD DATE
 NREF.                    Grid:  NORTH REFERENCE
 HPTY.       Minimum Curvature:  HOLE POS TYPE
 DMOD.             Drill Model:  DRILL MOD DESC
 SVYD.                  Survey:  SURVEY DESC
 ILTD.               Lithology:  INTERP LTH DESC
 FTOP.          Formation Tops:  FORM TOPS DESC
 SON .        AZ-XX-0906571587:  JOB NUMBER
 COMP.     BP Exploration (Caspian Sea) Ltd:  COMPANY
 UWI .                     N/A:  UNIQUE WELL IDENTIFIER
 API .                     N/A:  API NUMBER
 BASE.              Azerbaijan:  LOGGING EQUIPMENT BASE LOCATION
 REGN.                   EESSA:  REGION
 PROV.                    Baku:  PROVINCE
 STAT.                    Baku:  STATE NAME
 CTRY.              Azerbaijan:  COUNTRY NAME
 FLD .                     ACG:  FIELD NAME
 SRVC.     TURAN Drilling & Engineering:  CONTRACTOR
 WELL.                     J27:  WELL NAME
 RIG .             West Chirag:  RIG NAME
 DOE .                     N/A:  DOE NUMBER
 DCON.         Sperry Drilling:  DIRECTNL CONTR
 PDAT.          Mean Sea Level:  PERMANENT DATUM
 WTYP.                Deviated:  WELL TYPE
 MWDS.                    Baku:  MWD SHOP
 JOBN.        AZ-XX-0906571587:  JOB TICKET NUMB
 UNIT.                     N/A:  LOGGING EQUIPMENT ID
 MDS .        Operator Entered:  MAG DATA SOURCE
 CNTY.                        :  COUNTY
 LOC .                        :  LOCATION
 LMF .             Drill Floor:  LOG MEASURED FROM
 TVDS.m                  43.00:  TVDSS CORRECTN
 LATI.deg                40.13:  LATITUDE
 LONG.deg                51.22:  LONGITUDE
 WHNS.m                   7.72:  WELL HEAD N/S
 WHEW.m                 -14.24:  WELL HEAD E/W
 UTMX.m              519005.06:  UTM X
 UTMY.m             4443793.85:  UTM Y
 DFWL.m                   0.00:  DISTANCE FWL
 DFSL.m                   0.00:  DISTANCE FSL
 SDEP.m                 347.00:  START DEPTH
 TDD .m                 581.00:  TOTAL DEPTH (DRILLER)
 VSDR.deg               159.72:  VERT SEC DIRECT
 GVFD.g                   1.00:  GRAVITY FIELD
 MFLD.nT              50318.00:  MAGNETIC FIELD
 MDIP.deg                59.57:  MAGNETIC DIP
 MDEC.deg                 6.44:  MAGNETIC DECL
 GRDC.deg                 0.15:  GRID CORRECTION
 AZTC.deg                 6.29:  AZM TOTAL CORR
 EPD .m                   0.00:  ELEVATION
 EGL .m                   0.00:  GROUND ELEVATION
 WDMS.m                 169.80:  WD ELEV
 APD .m                  43.00:  DEPTH ABOVE PD
 AGAP.m                  43.00:  AIR GAP
 VSEW.m                 -14.24:  VERT SEC E/W
 VSNS.m                   7.72:  VERT SEC N/S
 DEP .m                 342.45:  DEPTH
 EKB .m                   0.00:  KB ELEVATION
 EDF .m                  43.00:  DF ELEVATION
 TDL .m                 237.00:  TOTAL DEPTH (LOGGER)
 VSC .                       0:  VS TO CLOSURE
 MAGU.                 1851428:  MAGUTM CHECKSUM
~Parameter Information Block
#MNEM.UNIT       Value        Description
#---------     -----------    ---------------------------
 AV  .mps                 1.50:  Ann Velocity 
 AVMX.mps                 2.90:  Max Ann Veloc 
 AZIF.deg               115.59:  Azm, Final 
 BHAT.        Rotary Steerable:  BHA Type 
 BROT.°/30m               0.50:  Build Rotating 
 BS  .in                  8.50:  Bit Size 
 BTPL.psig              580.00:  Bit Press Loss 
 CABU.                     Yes:  Customer Abuse 
 COMM.                     Üc{:  Run Comments 1 
 TCS .hr                 89.79:  Time Ciculation Ended 
 CV  .mps                 3.22:  Crit Velocity 
 CVMX.mps                 4.37:  Max Crit Veloc 
 DD1 .          Rashad Habibov:  Direct Drillr 1 
 DDSV.               Geo-Pilot:  DD Service 
 DEFF.%                  95.00:  % Det Eff 
 DLRX.°/30m               1.94:  Dogleg Rot Max 
 DLSO.°/30m               0.70:  Dogleg Oriented 
 DLSX.°/30m               1.94:  Dogleg Str Max 
 DRET.      04.45.00 25-Dec-20:  Drill End Time 
 DRST.      10.00.00 24-Dec-20:  Drill Start Tim 
 DTIM.hr                 16.64:  Time Drilling 
 EDEP.m                4999.01:  End Depth 
 ENG1.         Elchin Mammadov:  Engineer 1 
 ENG2.          Ruslan Safarov:  Engineer 2 
 ENG3.          Rustam Safarov:  Engineer 3 
 ETIM.      09.00.00 29-Dec-20:  End Time 
 FLOI.gpm               500.00:  Flow In 
 FLON.gpm               400.00:  Flow In Min 
 FLOS.cptm                0.00:  Fluid Loss 
 FLOX.gpm               500.00:  Flow In Max 
 HFLO.                      No:  High Flow 
 HPRE.                      No:  High Pressure 
 HTEM.                      No:  High Temp 
 HYDO.m                   2.00:  Hydro Offset 
 IFIN.deg                66.79:  Inc, Final 
 IMAX.deg                67.66:  Inc Max 
 IMIN.deg                66.39:  Inc Min 
 IMND.m                4949.37:  Inc Min Depth 
 IMXD.m                4778.63:  Inc Max Depth 
 JARR.                     Yes:  Jarring 
 LETM.      04.45.00 25-Dec-20:  Log End Time 
 LOST.hr                     0:  Lost Rig Time 
 LSTM.      10.00.00 24-Dec-20:  Log Start Time 
 MDCL.ppm             39000.00:  Mud Chlorides 
 MDES.     Inversion Oil/Synthetic:  Mud Desc 
 DFD .sg                  1.33:  Mud Density 
 MDMN.sg                  1.33:  Dens Mud Min 
 MDMX.sg                  1.33:  Dens Mud Max 
 MOIL.                      70:  Run Mud Oil % 
 MOWR.                   70:30:  Run Mud OWR 
 MSND.                       0:  Run Mud Sand % 
 MSOL.                    17.4:  Run Mud Solids% 
 DFV .spqt               84.00:  Mud Viscosity 
 MWOD.in                  6.75:  MWD Tool OD 
 MWSI.                     Yes:  Serv Intrp, MWD 
 OTIM.hr                168.14:  Time Operating 
 PCON.           Look Like New:  Pad Condition 
 PMAX.psia            10822.93:  Press Op, Max 
 PV  .cP                 30.00:  Mud PV 
 RUN .                     900:  Run Number 
 ROPA.m/hr               18.00:  ROP Avg 
 ROPN.m/hr               12.00:  ROP Min 
 ROPX.m/hr               25.00:  ROP Max 
 RPMA.rpm               120.00:  RPM Surface Avg 
 RPMN.rpm               100.00:  RPM Surface Min 
 RPMX.rpm               120.00:  RPM Surface Max 
 RRUN.                    0900:  Rig Run Number 
 SAZI.deg               115.08:  Azm, Start 
 SDEP.m                4762.01:  Start Depth 
 SIDD.                      No:  Serv Intrp, DD 
 SINC.deg                66.14:  Inc, Start 
 SPPA.psig             3700.00:  SPP Avg 
 SPPN.psig             3620.00:  SPP Min 
 SPPX.psig             3900.00:  SPP Max 
 STIM.      09.30.00 22-Dec-20:  Start Time 
 SVCS.                 DD, MWD:  Services 
 SVER.                    9.20:  Sperry Version 
 TDAT.m                 237.00:  Tot Depth Attmp 
 TDDF.                      No:  Trip for DD 
 TDLG.m                 237.00:  Tot Depth Loggd 
 TFF .                      No:  Trip for Fail 
 TQAA.f-kp               18.00:  Torque Abs Avg 
 TQAN.f-kp               17.00:  Torque Abs Min 
 TQAX.f-kp               20.00:  Torque Abs Max 
 TRRT.°/30m               0.60:  Turn Rotating 
 MRT .                    HCIM:  Maximum Recorded Temperature 
 TTMX.degC               94.12:  Max Tool Temp 
 VS01.                90627809:  Virtual Str1 SN 
 VS02.                90527813:  Virtual Str2 SN 
 VS03.                90545417:  Virtual Str3 SN 
 VS04.                12460870:  Virtual Str4 SN 
 VS05.                90516706:  Virtual Str5 SN 
 VS06.                90632007:  Virtual Str6 SN 
 WBMN.klb                 0.00:  WOB Min 
 WOBA.klb                14.00:  WOB Avg 
 WOBX.klb                25.00:  WOB Max 
 YP  .lhf2               32.00:  Yield Point 
~Curve Information Block
#MNEM.UNIT                 API CODE     Curve Description
#---------               -----------    ---------------------------
 TIME.HHMMSS            00 000 000 000:  GT Time & Date
 GTDEPTH.m              00 000 000 000:  GT Depth
 GTPQH.psia             00 000 000 000:  GT HR Quartz Pressure
 GTTQ.degC              00 000 000 000:  GT Quartz Temperature
 GTTN.NONE              00 000 000 000:  GT Test Number
 GTET.sec               00 000 000 000:  GT Elapsed Test Time
 GTTVD.m                00 000 000 000:  GT True Vertical Depth
#Other Information
#
#WARRANTY: Halliburton will use its best efforts to furnish customers with 
#accurate information and interpretations that are part of, and incident to, the services 
#provided.  However, Halliburton cannot and does not warrant the accuracy 
#or correctness of such information and interpretations.  Under no circumstances should any 
#such information or interpretation be relied upon as the sole basis for any drilling, 
#completion, production, or financial decision or any procedure involving any risk to the 
#safety of any drilling venture, drilling rig or its crew or any other third party.  The 
#Customer has full responsibility for all drilling, completion and production operation.  
#Halliburton makes no representations or warranties, either expressed or 
#implied, including, but not limited to, the implied warranties of merchantability or fitness 
#for a particular purpose, with respect to the services rendered.  In no event will 
#Halliburton be liable for failure to obtain any particular results or for 
#any damages, including, but not limited to, indirect, special or consequential damages, 
#resulting from the use of any information or interpretation provided by Halliburton.
#
~A           TIME           GTDEPTH  GTPQH  GTTQ  GTTN  GTET   GTTVD  
# ...
   21:32:36.600.25-Dec-2020 4768.01 3245.30 63.82 9.00 252.98 2486.78
   21:32:36.800.25-Dec-2020 4768.01 3245.30 63.82 9.00 253.18 2486.78
   21:32:37.000.25-Dec-2020 4768.01 3245.40 63.82 9.00 253.38 2486.78
   21:32:37.200.25-Dec-2020 4768.01 3245.41 63.82 9.00 253.58 2486.78
   21:32:37.400.25-Dec-2020 4768.01 3245.50 63.82 9.00 253.78 2486.78
   21:32:37.600.25-Dec-2020 4768.01 3245.41 63.82 9.00 253.98 2486.78
   21:32:37.800.25-Dec-2020 4768.01 3245.51 63.82 9.00 254.18 2486.78
   21:32:38.000.25-Dec-2020 4768.01 3245.06 63.82 9.00 254.38 2486.78
   21:32:38.200.25-Dec-2020 4768.01 3244.98 63.82 9.00 254.58 2486.78
   21:32:38.400.25-Dec-2020 4768.01 3245.50 63.82 9.00 254.78 2486.78
   21:32:38.600.25-Dec-2020 4768.01 3245.79 63.82 9.00 254.98 2486.78
   21:32:38.800.25-Dec-2020 4768.01 3245.79 63.82 9.00 255.18 2486.78
   21:32:39.000.25-Dec-2020 4768.01 3245.56 63.82 9.00 255.38 2486.78
   21:32:39.200.25-Dec-2020 4768.01 3244.42 63.82 9.00 255.58 2486.78
   21:32:39.400.25-Dec-2020 4768.01 3246.36 63.82 9.00 255.78 2486.78
   21:32:39.600.25-Dec-2020 4768.01 3245.50 63.82 9.00 255.98 2486.78
   21:32:39.800.25-Dec-2020 4768.01 3245.50 63.82 9.00 256.18 2486.78
   21:32:40.000.25-Dec-2020 4768.01 3245.99 63.82 9.00 256.38 2486.78
   21:32:40.200.25-Dec-2020 4768.01 3245.73 63.82 9.00 256.58 2486.78
   21:32:40.400.25-Dec-2020 4768.01 3246.07 63.82 9.00 256.78 2486.78
   21:32:40.600.25-Dec-2020 4768.01 3244.66 63.82 9.00 256.98 2486.78
   21:32:40.800.25-Dec-2020 4768.01 3244.66 63.82 9.00 257.18 2486.78
   21:32:41.000.25-Dec-2020 4768.01 3245.90 63.82 9.00 257.38 2486.78
   21:32:41.200.25-Dec-2020 4768.01 3245.95 63.82 9.00 257.58 2486.78
   21:32:41.400.25-Dec-2020 4768.01 3245.92 63.82 9.00 257.78 2486.78
   21:32:41.600.25-Dec-2020 4768.01 3245.84 63.82 9.00 257.98 2486.78
   21:32:41.800.25-Dec-2020 4768.01 3245.84 63.82 9.00 258.18 2486.78
   21:32:42.000.25-Dec-2020 4768.01 3245.94 63.82 9.00 258.38 2486.78
   21:32:42.200.25-Dec-2020 4768.01 3245.89 63.82 9.00 258.58 2486.78
   21:32:42.400.25-Dec-2020 4768.01 3245.99 63.82 9.00 258.78 2486.78
   21:32:42.600.25-Dec-2020 4768.01 3245.91 63.82 9.00 258.98 2486.78
   21:32:42.800.25-Dec-2020 4768.01 3245.98 63.82 9.00 259.18 2486.78
   21:32:43.000.25-Dec-2020 4768.01 3245.55 63.82 9.00 259.38 2486.78
   21:32:43.200.25-Dec-2020 4768.01 3245.35 63.82 9.00 259.58 2486.78
   21:32:43.400.25-Dec-2020 4768.01 3245.93 63.82 9.00 259.78 2486.78
   21:32:43.600.25-Dec-2020 4768.01 3246.25 63.82 9.00 259.98 2486.78
   21:32:43.799.25-Dec-2020 4768.01 3246.25 63.82 9.00 260.18 2486.78
   21:32:43.999.25-Dec-2020 4768.01 3246.04 63.82 9.00 260.38 2486.78
   21:32:44.199.25-Dec-2020 4768.01 3246.09 63.82 9.00 260.58 2486.78
   21:32:44.399.25-Dec-2020 4768.01 3246.20 63.82 9.00 260.78 2486.78
   21:32:44.599.25-Dec-2020 4768.01 3246.10 63.82 9.00 260.98 2486.78
   21:32:44.799.25-Dec-2020 4768.01 3246.10 63.82 9.00 261.18 2486.78
   21:32:44.999.25-Dec-2020 4768.01 3246.16 63.82 9.00 261.38 2486.78
   21:32:45.199.25-Dec-2020 4768.01 3246.12 63.82 9.00 261.58 2486.78
   21:32:45.399.25-Dec-2020 4768.01 3246.22 63.82 9.00 261.78 2486.78
   21:32:45.599.25-Dec-2020 4768.01 3244.90 63.82 9.00 261.98 2486.78
   21:32:45.799.25-Dec-2020 4768.01 3246.73 63.82 9.00 262.18 2486.78
   21:32:45.999.25-Dec-2020 4768.01 3246.10 63.82 9.00 262.38 2486.78
   21:32:46.199.25-Dec-2020 4768.01 3246.27 63.82 9.00 262.58 2486.78
   21:32:46.399.25-Dec-2020 4768.01 3246.33 63.82 9.00 262.78 2486.78
   21:32:46.599.25-Dec-2020 4768.01 3245.79 63.82 9.00 262.98 2486.78
   21:32:46.799.25-Dec-2020 4768.01 3245.79 63.82 9.00 263.18 2486.78
   21:32:46.999.25-Dec-2020 4768.01 3246.36 63.82 9.00 263.38 2486.78
   21:32:47.199.25-Dec-2020 4768.01 3246.68 63.82 9.00 263.58 2486.78
   21:32:47.399.25-Dec-2020 4768.01 3245.63 63.82 9.00 263.78 2486.78
   21:32:47.599.25-Dec-2020 4768.01 3246.33 63.82 9.00 263.98 2486.78
   21:32:47.799.25-Dec-2020 4768.01 3246.33 63.82 9.00 264.18 2486.78
   21:32:47.999.25-Dec-2020 4768.01 3246.60 63.82 9.00 264.38 2486.78
   21:32:48.199.25-Dec-2020 4768.01 3245.24 63.82 9.00 264.58 2486.78
   21:32:48.399.25-Dec-2020 4768.01 3246.61 63.82 9.00 264.78 2486.78
   21:32:48.599.25-Dec-2020 4768.01 3246.78 63.82 9.00 264.98 2486.78
   21:32:48.799.25-Dec-2020 4768.01 3246.78 63.82 9.00 265.18 2486.78
   21:32:48.999.25-Dec-2020 4768.01 3246.51 63.82 9.00 265.38 2486.78
   21:32:49.199.25-Dec-2020 4768.01 3246.51 63.82 9.00 265.58 2486.78
   21:32:49.399.25-Dec-2020 4768.01 3246.62 63.82 9.00 265.78 2486.78
   21:32:49.599.25-Dec-2020 4768.01 3246.54 63.82 9.00 265.98 2486.78
   21:32:49.799.25-Dec-2020 4768.01 3246.54 63.82 9.00 266.18 2486.78
   21:32:49.999.25-Dec-2020 4768.01 3246.61 63.82 9.00 266.38 2486.78
   21:32:50.199.25-Dec-2020 4768.01 3246.55 63.82 9.00 266.58 2486.78
   21:32:50.399.25-Dec-2020 4768.01 3246.63 63.82 9.00 266.78 2486.78
   21:32:50.599.25-Dec-2020 4768.01 3245.36 63.82 9.00 266.98 2486.78
   21:32:50.799.25-Dec-2020 4768.01 3246.97 63.82 9.00 267.18 2486.78
   21:32:50.999.25-Dec-2020 4768.01 3246.56 63.82 9.00 267.38 2486.78
   21:32:51.199.25-Dec-2020 4768.01 3246.65 63.82 9.00 267.58 2486.78
   21:32:51.399.25-Dec-2020 4768.01 3246.71 63.82 9.00 267.78 2486.78
   21:32:51.599.25-Dec-2020 4768.01 3246.67 63.82 9.00 267.98 2486.78
   21:32:51.799.25-Dec-2020 4768.01 3246.67 63.82 9.00 268.18 2486.78
   21:32:51.999.25-Dec-2020 4768.01 3246.79 63.82 9.00 268.38 2486.78
   21:32:52.199.25-Dec-2020 4768.01 3246.71 63.82 9.00 268.58 2486.78
   21:32:52.399.25-Dec-2020 4768.01 3246.81 63.82 9.00 268.78 2486.78
   21:32:52.599.25-Dec-2020 4768.01 3246.75 63.82 9.00 268.98 2486.78
   21:32:52.799.25-Dec-2020 4768.01 3246.75 63.82 9.00 269.18 2486.78
   21:32:52.999.25-Dec-2020 4768.01 3246.81 63.82 9.00 269.38 2486.78
   21:32:53.199.25-Dec-2020 4768.01 3245.74 63.82 9.00 269.58 2486.78
   21:32:53.399.25-Dec-2020 4768.01 3247.02 63.82 9.00 269.78 2486.78
   21:32:53.599.25-Dec-2020 4768.01 3246.78 63.82 9.00 269.98 2486.78
   21:32:53.799.25-Dec-2020 4768.01 3246.78 63.82 9.00 270.18 2486.78
   21:32:53.999.25-Dec-2020 4768.01 3246.84 63.82 9.00 270.38 2486.78
   21:32:54.199.25-Dec-2020 4768.01 3245.61 63.82 9.00 270.58 2486.78
   21:32:54.399.25-Dec-2020 4768.01 3247.47 63.82 9.00 270.78 2486.78
   21:32:54.599.25-Dec-2020 4768.01 3246.84 63.82 9.00 270.98 2486.78
   21:32:54.799.25-Dec-2020 4768.01 3246.62 63.82 9.00 271.18 2486.78
   21:32:54.999.25-Dec-2020 4768.01 3246.67 63.82 9.00 271.38 2486.78
   21:32:55.199.25-Dec-2020 4768.01 3246.81 63.82 9.00 271.58 2486.78
   21:32:55.399.25-Dec-2020 4768.01 3247.39 63.82 9.00 271.78 2486.78
   21:32:55.599.25-Dec-2020 4768.01 3246.59 63.82 9.00 271.98 2486.78
   21:32:55.799.25-Dec-2020 4768.01 3246.59 63.82 9.00 272.18 2486.78
   21:32:55.999.25-Dec-2020 4768.01 3247.05 63.82 9.00 272.38 2486.78
   21:32:56.199.25-Dec-2020 4768.01 3247.29 63.81 9.00 272.58 2486.78
   21:32:56.399.25-Dec-2020 4768.01 3247.09 63.81 9.00 272.78 2486.78
   21:32:56.599.25-Dec-2020 4768.01 3247.03 63.81 9.00 272.98 2486.78
   21:32:56.799.25-Dec-2020 4768.01 3247.03 63.81 9.00 273.18 2486.78
   21:32:56.999.25-Dec-2020 4768.01 3247.15 63.81 9.00 273.38 2486.78
   21:32:57.199.25-Dec-2020 4768.01 3247.05 63.81 9.00 273.58 2486.78
   21:32:57.399.25-Dec-2020 4768.01 3247.12 63.81 9.00 273.78 2486.78
   21:32:57.599.25-Dec-2020 4768.01 3247.12 63.81 9.00 273.98 2486.78
   21:32:57.799.25-Dec-2020 4768.01 3247.12 63.81 9.00 274.18 2486.78
   21:32:57.999.25-Dec-2020 4768.01 3247.20 63.81 9.00 274.38 2486.78
   21:32:58.199.25-Dec-2020 4768.01 3245.82 63.81 9.00 274.58 2486.78
   21:32:58.399.25-Dec-2020 4768.01 3247.63 63.81 9.00 274.78 2486.78
   21:32:58.599.25-Dec-2020 4768.01 3246.98 63.81 9.00 274.98 2486.78
   21:32:58.798.25-Dec-2020 4768.01 3246.98 63.81 9.00 275.18 2486.78
   21:32:58.998.25-Dec-2020 4768.01 3247.23 63.81 9.00 275.38 2486.78
   21:32:59.198.25-Dec-2020 4768.01 3247.16 63.81 9.00 275.58 2486.78
   21:32:59.398.25-Dec-2020 4768.01 3247.28 63.81 9.00 275.78 2486.78
