~Version Information
 VERS.                  2.0:   CWLS log ASCII Standard -VERSION 2.0
 WRAP.                   NO:   One line per depth step
~Well Information Block
#MNEM.UNIT     VALUE/NAME     DESCRIPTION
#---------     -----------    ---------------------------
 STRT.S             15:24:16 25-Dec-20: START TIME 15:24:16 25-Dec-20
 STOP.S             15:32:36 25-Dec-20: STOP TIME  15:32:36 25-Dec-20
 STEP.S                   0.00: STEP TIME
 NULL.                 -999.25: NULL VALUE
 DFWT.                        :  DIST FWL TEXT
 DFST.                        :  DIST FSL TEXT
 DMF .             Drill Floor:  DRILL MEAS FROM
 STIM.      04.54.24 22-Sep-20:  START TIME
 DATE.      04.54.24 21-Nov-20:  END TIME
 SPUD.               21-Nov-20:  SPUD DATE
 NREF.                    Grid:  NORTH REFERENCE
 HPTY.       Minimum Curvature:  HOLE POS TYPE
 DMOD.             Drill Model:  DRILL MOD DESC
 SVYD.                  Survey:  SURVEY DESC
 ILTD.               Lithology:  INTERP LTH DESC
 FTOP.          Formation Tops:  FORM TOPS DESC
 SON .        AZ-XX-0906571587:  JOB NUMBER
 COMP.     BP Exploration (Caspian Sea) Ltd:  COMPANY
 UWI .                     N/A:  UNIQUE WELL IDENTIFIER
 API .                     N/A:  API NUMBER
 BASE.              Azerbaijan:  LOGGING EQUIPMENT BASE LOCATION
 REGN.                   EESSA:  REGION
 PROV.                    Baku:  PROVINCE
 STAT.                    Baku:  STATE NAME
 CTRY.              Azerbaijan:  COUNTRY NAME
 FLD .                     ACG:  FIELD NAME
 SRVC.     TURAN Drilling & Engineering:  CONTRACTOR
 WELL.                     J27:  WELL NAME
 RIG .             West Chirag:  RIG NAME
 DOE .                     N/A:  DOE NUMBER
 DCON.         Sperry Drilling:  DIRECTNL CONTR
 PDAT.          Mean Sea Level:  PERMANENT DATUM
 WTYP.                Deviated:  WELL TYPE
 MWDS.                    Baku:  MWD SHOP
 JOBN.        AZ-XX-0906571587:  JOB TICKET NUMB
 UNIT.                     N/A:  LOGGING EQUIPMENT ID
 MDS .        Operator Entered:  MAG DATA SOURCE
 CNTY.                        :  COUNTY
 LOC .                        :  LOCATION
 LMF .             Drill Floor:  LOG MEASURED FROM
 TVDS.m                  43.00:  TVDSS CORRECTN
 LATI.deg                40.13:  LATITUDE
 LONG.deg                51.22:  LONGITUDE
 WHNS.m                   7.72:  WELL HEAD N/S
 WHEW.m                 -14.24:  WELL HEAD E/W
 UTMX.m              519005.06:  UTM X
 UTMY.m             4443793.85:  UTM Y
 DFWL.m                   0.00:  DISTANCE FWL
 DFSL.m                   0.00:  DISTANCE FSL
 SDEP.m                 347.00:  START DEPTH
 TDD .m                 581.00:  TOTAL DEPTH (DRILLER)
 VSDR.deg               159.72:  VERT SEC DIRECT
 GVFD.g                   1.00:  GRAVITY FIELD
 MFLD.nT              50318.00:  MAGNETIC FIELD
 MDIP.deg                59.57:  MAGNETIC DIP
 MDEC.deg                 6.44:  MAGNETIC DECL
 GRDC.deg                 0.15:  GRID CORRECTION
 AZTC.deg                 6.29:  AZM TOTAL CORR
 EPD .m                   0.00:  ELEVATION
 EGL .m                   0.00:  GROUND ELEVATION
 WDMS.m                 169.80:  WD ELEV
 APD .m                  43.00:  DEPTH ABOVE PD
 AGAP.m                  43.00:  AIR GAP
 VSEW.m                 -14.24:  VERT SEC E/W
 VSNS.m                   7.72:  VERT SEC N/S
 DEP .m                 342.45:  DEPTH
 EKB .m                   0.00:  KB ELEVATION
 EDF .m                  43.00:  DF ELEVATION
 TDL .m                 237.00:  TOTAL DEPTH (LOGGER)
 VSC .                       0:  VS TO CLOSURE
 MAGU.                 1851428:  MAGUTM CHECKSUM
~Parameter Information Block
#MNEM.UNIT       Value        Description
#---------     -----------    ---------------------------
 AV  .mps                 1.50:  Ann Velocity 
 AVMX.mps                 2.90:  Max Ann Veloc 
 AZIF.deg               115.59:  Azm, Final 
 BHAT.        Rotary Steerable:  BHA Type 
 BROT.°/30m               0.50:  Build Rotating 
 BS  .in                  8.50:  Bit Size 
 BTPL.psig              580.00:  Bit Press Loss 
 CABU.                     Yes:  Customer Abuse 
 TCS .hr                 89.79:  Time Ciculation Ended 
 CV  .mps                 3.22:  Crit Velocity 
 CVMX.mps                 4.37:  Max Crit Veloc 
 DD1 .          Rashad Habibov:  Direct Drillr 1 
 DDSV.               Geo-Pilot:  DD Service 
 DEFF.%                  95.00:  % Det Eff 
 DLRX.°/30m               1.94:  Dogleg Rot Max 
 DLSO.°/30m               0.70:  Dogleg Oriented 
 DLSX.°/30m               1.94:  Dogleg Str Max 
 DRET.      04.45.00 25-Dec-20:  Drill End Time 
 DRST.      10.00.00 24-Dec-20:  Drill Start Tim 
 DTIM.hr                 16.64:  Time Drilling 
 EDEP.m                4999.01:  End Depth 
 ENG1.         Elchin Mammadov:  Engineer 1 
 ENG2.          Ruslan Safarov:  Engineer 2 
 ENG3.          Rustam Safarov:  Engineer 3 
 ETIM.      09.00.00 29-Dec-20:  End Time 
 FLOI.gpm               500.00:  Flow In 
 FLON.gpm               400.00:  Flow In Min 
 FLOS.cptm                0.00:  Fluid Loss 
 FLOX.gpm               500.00:  Flow In Max 
 HFLO.                      No:  High Flow 
 HPRE.                      No:  High Pressure 
 HTEM.                      No:  High Temp 
 HYDO.m                   2.00:  Hydro Offset 
 IFIN.deg                66.79:  Inc, Final 
 IMAX.deg                67.66:  Inc Max 
 IMIN.deg                66.39:  Inc Min 
 IMND.m                4949.37:  Inc Min Depth 
 IMXD.m                4778.63:  Inc Max Depth 
 JARR.                     Yes:  Jarring 
 LETM.      04.45.00 25-Dec-20:  Log End Time 
 LOST.hr                     0:  Lost Rig Time 
 LSTM.      10.00.00 24-Dec-20:  Log Start Time 
 MDCL.ppm             39000.00:  Mud Chlorides 
 MDES.     Inversion Oil/Synthetic:  Mud Desc 
 DFD .sg                  1.33:  Mud Density 
 MDMN.sg                  1.33:  Dens Mud Min 
 MDMX.sg                  1.33:  Dens Mud Max 
 MOIL.                      70:  Run Mud Oil % 
 MOWR.                   70:30:  Run Mud OWR 
 MSND.                       0:  Run Mud Sand % 
 MSOL.                    17.4:  Run Mud Solids% 
 DFV .spqt               84.00:  Mud Viscosity 
 MWOD.in                  6.75:  MWD Tool OD 
 MWSI.                     Yes:  Serv Intrp, MWD 
 OTIM.hr                168.14:  Time Operating 
 PCON.           Look Like New:  Pad Condition 
 PMAX.psia            10822.93:  Press Op, Max 
 PV  .cP                 30.00:  Mud PV 
 RUN .                     900:  Run Number 
 ROPA.m/hr               18.00:  ROP Avg 
 ROPN.m/hr               12.00:  ROP Min 
 ROPX.m/hr               25.00:  ROP Max 
 RPMA.rpm               120.00:  RPM Surface Avg 
 RPMN.rpm               100.00:  RPM Surface Min 
 RPMX.rpm               120.00:  RPM Surface Max 
 RRUN.                    0900:  Rig Run Number 
 SAZI.deg               115.08:  Azm, Start 
 SDEP.m                4762.01:  Start Depth 
 SIDD.                      No:  Serv Intrp, DD 
 SINC.deg                66.14:  Inc, Start 
 SPPA.psig             3700.00:  SPP Avg 
 SPPN.psig             3620.00:  SPP Min 
 SPPX.psig             3900.00:  SPP Max 
 STIM.      09.30.00 22-Dec-20:  Start Time 
 SVCS.                 DD, MWD:  Services 
 SVER.                    9.20:  Sperry Version 
 TDAT.m                 237.00:  Tot Depth Attmp 
 TDDF.                      No:  Trip for DD 
 TDLG.m                 237.00:  Tot Depth Loggd 
 TFF .                      No:  Trip for Fail 
 TQAA.f-kp               18.00:  Torque Abs Avg 
 TQAN.f-kp               17.00:  Torque Abs Min 
 TQAX.f-kp               20.00:  Torque Abs Max 
 TRRT.°/30m               0.60:  Turn Rotating 
 MRT .                    HCIM:  Maximum Recorded Temperature 
 TTMX.degC               94.12:  Max Tool Temp 
 VS01.                90627809:  Virtual Str1 SN 
 VS02.                90527813:  Virtual Str2 SN 
 VS03.                90545417:  Virtual Str3 SN 
 VS04.                12460870:  Virtual Str4 SN 
 VS05.                90516706:  Virtual Str5 SN 
 VS06.                90632007:  Virtual Str6 SN 
 WBMN.klb                 0.00:  WOB Min 
 WOBA.klb                14.00:  WOB Avg 
 WOBX.klb                25.00:  WOB Max 
 YP  .lhf2               32.00:  Yield Point 
~Curve Information Block
#MNEM.UNIT                 API CODE     Curve Description
#---------               -----------    ---------------------------
 TIME.HHMMSS            00 000 000 000:  GT Time & Date
 GTDEPTH.m              00 000 000 000:  GT Depth
 GTPQH.psia             00 000 000 000:  GT HR Quartz Pressure
 GTTQ.degC              00 000 000 000:  GT Quartz Temperature
 GTTN.NONE              00 000 000 000:  GT Test Number
 GTET.sec               00 000 000 000:  GT Elapsed Test Time
 GTTVD.m                00 000 000 000:  GT True Vertical Depth
#Other Information
#
#WARRANTY: Halliburton will use its best efforts to furnish customers with 
#accurate information and interpretations that are part of, and incident to, the services 
#provided.  However, Halliburton cannot and does not warrant the accuracy 
#or correctness of such information and interpretations.  Under no circumstances should any 
#such information or interpretation be relied upon as the sole basis for any drilling, 
#completion, production, or financial decision or any procedure involving any risk to the 
#safety of any drilling venture, drilling rig or its crew or any other third party.  The 
#Customer has full responsibility for all drilling, completion and production operation.  
#Halliburton makes no representations or warranties, either expressed or 
#implied, including, but not limited to, the implied warranties of merchantability or fitness 
#for a particular purpose, with respect to the services rendered.  In no event will 
#Halliburton be liable for failure to obtain any particular results or for 
#any damages, including, but not limited to, indirect, special or consequential damages, 
#resulting from the use of any information or interpretation provided by Halliburton.
#
~A           TIME           GTDEPTH  GTPQH  GTTQ  GTTN  GTET   GTTVD  
# ...
   15:31:10.863.25-Dec-2020 4892.01 2718.34 65.31 4.00 414.11 2535.10
   15:31:11.063.25-Dec-2020 4892.01 2718.34 65.31 4.00 414.31 2535.10
   15:31:11.263.25-Dec-2020 4892.01 2718.17 65.31 4.00 414.51 2535.10
   15:31:11.463.25-Dec-2020 4892.01 2718.28 65.31 4.00 414.71 2535.10
   15:31:11.664.25-Dec-2020 4892.01 2718.22 65.31 4.00 414.91 2535.10
   15:31:11.864.25-Dec-2020 4892.01 2718.25 65.31 4.00 415.11 2535.10
   15:31:12.064.25-Dec-2020 4892.01 2718.26 65.31 4.00 415.31 2535.10
   15:31:12.264.25-Dec-2020 4892.01 2718.23 65.31 4.00 415.51 2535.10
   15:31:12.464.25-Dec-2020 4892.01 2718.23 65.31 4.00 415.71 2535.10
   15:31:12.664.25-Dec-2020 4892.01 2718.23 65.31 4.00 415.91 2535.10
   15:31:12.864.25-Dec-2020 4892.01 2718.47 65.31 4.00 416.11 2535.10
   15:31:13.064.25-Dec-2020 4892.01 2718.47 65.31 4.00 416.31 2535.10
   15:31:13.264.25-Dec-2020 4892.01 2718.29 65.31 4.00 416.51 2535.10
   15:31:13.464.25-Dec-2020 4892.01 2718.19 65.31 4.00 416.71 2535.10
   15:31:13.664.25-Dec-2020 4892.01 2718.17 65.31 4.00 416.91 2535.10
   15:31:13.864.25-Dec-2020 4892.01 2718.35 65.31 4.00 417.11 2535.10
   15:31:14.064.25-Dec-2020 4892.01 2718.35 65.31 4.00 417.31 2535.10
   15:31:14.264.25-Dec-2020 4892.01 2718.35 65.31 4.00 417.51 2535.10
   15:31:14.464.25-Dec-2020 4892.01 2718.24 65.31 4.00 417.71 2535.10
   15:31:14.664.25-Dec-2020 4892.01 2718.13 65.31 4.00 417.91 2535.10
   15:31:14.864.25-Dec-2020 4892.01 2718.25 65.31 4.00 418.11 2535.10
   15:31:15.064.25-Dec-2020 4892.01 2718.25 65.31 4.00 418.31 2535.10
   15:31:15.265.25-Dec-2020 4892.01 2718.32 65.31 4.00 418.51 2535.10
   15:31:15.465.25-Dec-2020 4892.01 2718.27 65.31 4.00 418.71 2535.10
   15:31:15.665.25-Dec-2020 4892.01 2718.12 65.31 4.00 418.91 2535.10
   15:31:15.865.25-Dec-2020 4892.01 2718.35 65.31 4.00 419.11 2535.10
   15:31:16.065.25-Dec-2020 4892.01 2718.35 65.31 4.00 419.31 2535.10
   15:31:16.265.25-Dec-2020 4892.01 2718.17 65.31 4.00 419.51 2535.10
   15:31:16.465.25-Dec-2020 4892.01 2718.25 65.31 4.00 419.71 2535.10
   15:31:16.665.25-Dec-2020 4892.01 2718.20 65.31 4.00 419.91 2535.10
   15:31:16.865.25-Dec-2020 4892.01 2718.24 65.31 4.00 420.11 2535.10
   15:31:17.065.25-Dec-2020 4892.01 2718.24 65.31 4.00 420.31 2535.10
   15:31:17.265.25-Dec-2020 4892.01 2718.21 65.31 4.00 420.51 2535.10
   15:31:17.465.25-Dec-2020 4892.01 2718.23 65.31 4.00 420.71 2535.10
   15:31:17.665.25-Dec-2020 4892.01 2718.23 65.31 4.00 420.91 2535.10
   15:31:17.865.25-Dec-2020 4892.01 2718.23 65.31 4.00 421.11 2535.10
   15:31:18.065.25-Dec-2020 4892.01 2718.23 65.31 4.00 421.31 2535.10
   15:31:18.265.25-Dec-2020 4892.01 2718.22 65.31 4.00 421.51 2535.10
   15:31:18.465.25-Dec-2020 4892.01 2718.28 65.31 4.00 421.71 2535.10
   15:31:18.665.25-Dec-2020 4892.01 2718.32 65.31 4.00 421.91 2535.10
   15:31:18.865.25-Dec-2020 4892.01 2718.17 65.31 4.00 422.11 2535.10
   15:31:19.066.25-Dec-2020 4892.01 2718.17 65.31 4.00 422.31 2535.10
   15:31:19.266.25-Dec-2020 4892.01 2718.24 65.31 4.00 422.51 2535.10
   15:31:19.466.25-Dec-2020 4892.01 2718.23 65.31 4.00 422.71 2535.10
   15:31:19.666.25-Dec-2020 4892.01 2718.25 65.31 4.00 422.91 2535.10
   15:31:19.866.25-Dec-2020 4892.01 2718.22 65.31 4.00 423.11 2535.10
   15:31:20.066.25-Dec-2020 4892.01 2718.23 65.31 4.00 423.31 2535.10
   15:31:20.266.25-Dec-2020 4892.01 2718.22 65.31 4.00 423.51 2535.10
   15:31:20.466.25-Dec-2020 4892.01 2718.34 65.31 4.00 423.71 2535.10
   15:31:20.666.25-Dec-2020 4892.01 2718.12 65.31 4.00 423.91 2535.10
   15:31:20.866.25-Dec-2020 4892.01 2718.32 65.31 4.00 424.11 2535.10
   15:31:21.066.25-Dec-2020 4892.01 2718.32 65.31 4.00 424.31 2535.10
   15:31:21.266.25-Dec-2020 4892.01 2718.16 65.31 4.00 424.51 2535.10
   15:31:21.466.25-Dec-2020 4892.01 2718.25 65.31 4.00 424.71 2535.10
   15:31:21.666.25-Dec-2020 4892.01 2718.18 65.31 4.00 424.91 2535.10
   15:31:21.866.25-Dec-2020 4892.01 2718.28 65.31 4.00 425.11 2535.10
   15:31:22.066.25-Dec-2020 4892.01 2718.28 65.31 4.00 425.31 2535.10
   15:31:22.266.25-Dec-2020 4892.01 2718.30 65.30 4.00 425.51 2535.10
   15:31:22.466.25-Dec-2020 4892.01 2718.34 65.30 4.00 425.71 2535.10
   15:31:22.667.25-Dec-2020 4892.01 2718.08 65.30 4.00 425.91 2535.10
   15:31:22.867.25-Dec-2020 4892.01 2718.32 65.30 4.00 426.11 2535.10
   15:31:23.067.25-Dec-2020 4892.01 2718.32 65.30 4.00 426.32 2535.10
   15:31:23.267.25-Dec-2020 4892.01 2718.15 65.30 4.00 426.52 2535.10
   15:31:23.467.25-Dec-2020 4892.01 2718.29 65.30 4.00 426.72 2535.10
   15:31:23.667.25-Dec-2020 4892.01 2718.29 65.30 4.00 426.92 2535.10
   15:31:23.867.25-Dec-2020 4892.01 2718.15 65.30 4.00 427.12 2535.10
   15:31:24.067.25-Dec-2020 4892.01 2718.24 65.30 4.00 427.32 2535.10
   15:31:24.267.25-Dec-2020 4892.01 2718.22 65.30 4.00 427.52 2535.10
   15:31:24.467.25-Dec-2020 4892.01 2718.21 65.30 4.00 427.72 2535.10
   15:31:24.667.25-Dec-2020 4892.01 2718.24 65.30 4.00 427.92 2535.10
   15:31:24.867.25-Dec-2020 4892.01 2718.22 65.30 4.00 428.12 2535.10
   15:31:25.067.25-Dec-2020 4892.01 2718.22 65.30 4.00 428.32 2535.10
   15:31:25.267.25-Dec-2020 4892.01 2718.22 65.30 4.00 428.52 2535.10
   15:31:25.467.25-Dec-2020 4892.01 2718.11 65.30 4.00 428.72 2535.10
   15:31:25.667.25-Dec-2020 4892.01 2718.40 65.30 4.00 428.92 2535.10
   15:31:25.867.25-Dec-2020 4892.01 2718.35 65.30 4.00 429.12 2535.10
   15:31:26.067.25-Dec-2020 4892.01 2718.35 65.30 4.00 429.32 2535.10
   15:31:26.267.25-Dec-2020 4892.01 2718.36 65.30 4.00 429.52 2535.10
   15:31:26.468.25-Dec-2020 4892.01 2718.22 65.30 4.00 429.72 2535.10
   15:31:26.668.25-Dec-2020 4892.01 2718.19 65.30 4.00 429.92 2535.10
   15:31:26.868.25-Dec-2020 4892.01 2718.26 65.30 4.00 430.12 2535.10
   15:31:27.068.25-Dec-2020 4892.01 2718.26 65.30 4.00 430.32 2535.10
   15:31:27.268.25-Dec-2020 4892.01 2718.24 65.30 4.00 430.52 2535.10
   15:31:27.468.25-Dec-2020 4892.01 2718.22 65.30 4.00 430.72 2535.10
   15:31:27.668.25-Dec-2020 4892.01 2718.23 65.30 4.00 430.92 2535.10
   15:31:27.868.25-Dec-2020 4892.01 2718.23 65.30 4.00 431.12 2535.10
   15:31:28.068.25-Dec-2020 4892.01 2718.20 65.30 4.00 431.32 2535.10
   15:31:28.268.25-Dec-2020 4892.01 2718.22 65.30 4.00 431.52 2535.10
   15:31:28.468.25-Dec-2020 4892.01 2718.27 65.30 4.00 431.72 2535.10
   15:31:28.668.25-Dec-2020 4892.01 2718.31 65.30 4.00 431.92 2535.10
   15:31:28.868.25-Dec-2020 4892.01 2718.06 65.30 4.00 432.12 2535.10
   15:31:29.068.25-Dec-2020 4892.01 2718.06 65.30 4.00 432.32 2535.10
   15:31:29.268.25-Dec-2020 4892.01 2718.35 65.30 4.00 432.52 2535.10
   15:31:29.468.25-Dec-2020 4892.01 2718.06 65.30 4.00 432.72 2535.10
   15:31:29.668.25-Dec-2020 4892.01 2718.37 65.30 4.00 432.92 2535.10
   15:31:29.868.25-Dec-2020 4892.01 2718.33 65.30 4.00 433.12 2535.10
   15:31:30.068.25-Dec-2020 4892.01 2718.33 65.30 4.00 433.32 2535.10
   15:31:30.269.25-Dec-2020 4892.01 2718.06 65.30 4.00 433.52 2535.10
   15:31:30.469.25-Dec-2020 4892.01 2718.08 65.30 4.00 433.72 2535.10
   15:31:30.669.25-Dec-2020 4892.01 2718.38 65.30 4.00 433.92 2535.10
   15:31:30.869.25-Dec-2020 4892.01 2718.27 65.30 4.00 434.12 2535.10
   15:31:31.069.25-Dec-2020 4892.01 2718.27 65.30 4.00 434.32 2535.10
   15:31:31.269.25-Dec-2020 4892.01 2718.32 65.30 4.00 434.52 2535.10
   15:31:31.469.25-Dec-2020 4892.01 2718.19 65.30 4.00 434.72 2535.10
   15:31:31.669.25-Dec-2020 4892.01 2718.17 65.30 4.00 434.92 2535.10
   15:31:31.869.25-Dec-2020 4892.01 2718.23 65.30 4.00 435.12 2535.10
   15:31:32.069.25-Dec-2020 4892.01 2718.22 65.30 4.00 435.32 2535.10
   15:31:32.269.25-Dec-2020 4892.01 2718.23 65.30 4.00 435.52 2535.10
   15:31:32.469.25-Dec-2020 4892.01 2718.21 65.30 4.00 435.72 2535.10
   15:31:32.669.25-Dec-2020 4892.01 2718.22 65.30 4.00 435.92 2535.10
   15:31:32.869.25-Dec-2020 4892.01 2718.22 65.30 4.00 436.12 2535.10
   15:31:33.069.25-Dec-2020 4892.01 2718.22 65.30 4.00 436.32 2535.10
   15:31:33.269.25-Dec-2020 4892.01 2718.40 65.30 4.00 436.52 2535.10
   15:31:33.469.25-Dec-2020 4892.01 2718.36 65.30 4.00 436.72 2535.10
   15:31:33.669.25-Dec-2020 4892.01 2718.05 65.30 4.00 436.92 2535.10
