~Version Information
 VERS.                  2.0:   CWLS log ASCII Standard -VERSION 2.0
 WRAP.                   NO:   One line per depth step
~Well Information Block
#MNEM.UNIT     VALUE/NAME     DESCRIPTION
#---------     -----------    ---------------------------
 STRT.S             17:56:34 25-Dec-20: START TIME 17:56:34 25-Dec-20
 STOP.S             18:04:57 25-Dec-20: STOP TIME  18:04:57 25-Dec-20
 STEP.S                   0.00: STEP TIME
 NULL.                 -999.25: NULL VALUE
 DFWT.                        :  DIST FWL TEXT
 DFST.                        :  DIST FSL TEXT
 DMF .             Drill Floor:  DRILL MEAS FROM
 STIM.      04.54.24 22-Sep-20:  START TIME
 DATE.      04.54.24 21-Nov-20:  END TIME
 SPUD.               21-Nov-20:  SPUD DATE
 NREF.                    Grid:  NORTH REFERENCE
 HPTY.       Minimum Curvature:  HOLE POS TYPE
 DMOD.             Drill Model:  DRILL MOD DESC
 SVYD.                  Survey:  SURVEY DESC
 ILTD.               Lithology:  INTERP LTH DESC
 FTOP.          Formation Tops:  FORM TOPS DESC
 SON .        AZ-XX-0906571587:  JOB NUMBER
 COMP.     BP Exploration (Caspian Sea) Ltd:  COMPANY
 UWI .                     N/A:  UNIQUE WELL IDENTIFIER
 API .                     N/A:  API NUMBER
 BASE.              Azerbaijan:  LOGGING EQUIPMENT BASE LOCATION
 REGN.                   EESSA:  REGION
 PROV.                    Baku:  PROVINCE
 STAT.                    Baku:  STATE NAME
 CTRY.              Azerbaijan:  COUNTRY NAME
 FLD .                     ACG:  FIELD NAME
 SRVC.     TURAN Drilling & Engineering:  CONTRACTOR
 WELL.                     J27:  WELL NAME
 RIG .             West Chirag:  RIG NAME
 DOE .                     N/A:  DOE NUMBER
 DCON.         Sperry Drilling:  DIRECTNL CONTR
 PDAT.          Mean Sea Level:  PERMANENT DATUM
 WTYP.                Deviated:  WELL TYPE
 MWDS.                    Baku:  MWD SHOP
 JOBN.        AZ-XX-0906571587:  JOB TICKET NUMB
 UNIT.                     N/A:  LOGGING EQUIPMENT ID
 MDS .        Operator Entered:  MAG DATA SOURCE
 CNTY.                        :  COUNTY
 LOC .                        :  LOCATION
 LMF .             Drill Floor:  LOG MEASURED FROM
 TVDS.m                  43.00:  TVDSS CORRECTN
 LATI.deg                40.13:  LATITUDE
 LONG.deg                51.22:  LONGITUDE
 WHNS.m                   7.72:  WELL HEAD N/S
 WHEW.m                 -14.24:  WELL HEAD E/W
 UTMX.m              519005.06:  UTM X
 UTMY.m             4443793.85:  UTM Y
 DFWL.m                   0.00:  DISTANCE FWL
 DFSL.m                   0.00:  DISTANCE FSL
 SDEP.m                 347.00:  START DEPTH
 TDD .m                 581.00:  TOTAL DEPTH (DRILLER)
 VSDR.deg               159.72:  VERT SEC DIRECT
 GVFD.g                   1.00:  GRAVITY FIELD
 MFLD.nT              50318.00:  MAGNETIC FIELD
 MDIP.deg                59.57:  MAGNETIC DIP
 MDEC.deg                 6.44:  MAGNETIC DECL
 GRDC.deg                 0.15:  GRID CORRECTION
 AZTC.deg                 6.29:  AZM TOTAL CORR
 EPD .m                   0.00:  ELEVATION
 EGL .m                   0.00:  GROUND ELEVATION
 WDMS.m                 169.80:  WD ELEV
 APD .m                  43.00:  DEPTH ABOVE PD
 AGAP.m                  43.00:  AIR GAP
 VSEW.m                 -14.24:  VERT SEC E/W
 VSNS.m                   7.72:  VERT SEC N/S
 DEP .m                 342.45:  DEPTH
 EKB .m                   0.00:  KB ELEVATION
 EDF .m                  43.00:  DF ELEVATION
 TDL .m                 237.00:  TOTAL DEPTH (LOGGER)
 VSC .                       0:  VS TO CLOSURE
 MAGU.                 1851428:  MAGUTM CHECKSUM
~Parameter Information Block
#MNEM.UNIT       Value        Description
#---------     -----------    ---------------------------
 AV  .mps                 1.50:  Ann Velocity 
 AVMX.mps                 2.90:  Max Ann Veloc 
 AZIF.deg               115.59:  Azm, Final 
 BHAT.        Rotary Steerable:  BHA Type 
 BROT.∞/30m               0.50:  Build Rotating 
 BS  .in                  8.50:  Bit Size 
 BTPL.psig              580.00:  Bit Press Loss 
 CABU.                     Yes:  Customer Abuse 
 COMM.                     ‰E:  Run Comments 1 
 TCS .hr                 89.79:  Time Ciculation Ended 
 CV  .mps                 3.22:  Crit Velocity 
 CVMX.mps                 4.37:  Max Crit Veloc 
 DD1 .          Rashad Habibov:  Direct Drillr 1 
 DDSV.               Geo-Pilot:  DD Service 
 DEFF.%                  95.00:  % Det Eff 
 DLRX.∞/30m               1.94:  Dogleg Rot Max 
 DLSO.∞/30m               0.70:  Dogleg Oriented 
 DLSX.∞/30m               1.94:  Dogleg Str Max 
 DRET.      04.45.00 25-Dec-20:  Drill End Time 
 DRST.      10.00.00 24-Dec-20:  Drill Start Tim 
 DTIM.hr                 16.64:  Time Drilling 
 EDEP.m                4999.01:  End Depth 
 ENG1.         Elchin Mammadov:  Engineer 1 
 ENG2.          Ruslan Safarov:  Engineer 2 
 ENG3.          Rustam Safarov:  Engineer 3 
 ETIM.      09.00.00 29-Dec-20:  End Time 
 FLOI.gpm               500.00:  Flow In 
 FLON.gpm               400.00:  Flow In Min 
 FLOS.cptm                0.00:  Fluid Loss 
 FLOX.gpm               500.00:  Flow In Max 
 HFLO.                      No:  High Flow 
 HPRE.                      No:  High Pressure 
 HTEM.                      No:  High Temp 
 HYDO.m                   2.00:  Hydro Offset 
 IFIN.deg                66.79:  Inc, Final 
 IMAX.deg                67.66:  Inc Max 
 IMIN.deg                66.39:  Inc Min 
 IMND.m                4949.37:  Inc Min Depth 
 IMXD.m                4778.63:  Inc Max Depth 
 JARR.                     Yes:  Jarring 
 LETM.      04.45.00 25-Dec-20:  Log End Time 
 LOST.hr                     0:  Lost Rig Time 
 LSTM.      10.00.00 24-Dec-20:  Log Start Time 
 MDCL.ppm             39000.00:  Mud Chlorides 
 MDES.     Inversion Oil/Synthetic:  Mud Desc 
 DFD .sg                  1.33:  Mud Density 
 MDMN.sg                  1.33:  Dens Mud Min 
 MDMX.sg                  1.33:  Dens Mud Max 
 MOIL.                      70:  Run Mud Oil % 
 MOWR.                   70:30:  Run Mud OWR 
 MSND.                       0:  Run Mud Sand % 
 MSOL.                    17.4:  Run Mud Solids% 
 DFV .spqt               84.00:  Mud Viscosity 
 MWOD.in                  6.75:  MWD Tool OD 
 MWSI.                     Yes:  Serv Intrp, MWD 
 OTIM.hr                168.14:  Time Operating 
 PCON.           Look Like New:  Pad Condition 
 PMAX.psia            10822.93:  Press Op, Max 
 PV  .cP                 30.00:  Mud PV 
 RUN .                     900:  Run Number 
 ROPA.m/hr               18.00:  ROP Avg 
 ROPN.m/hr               12.00:  ROP Min 
 ROPX.m/hr               25.00:  ROP Max 
 RPMA.rpm               120.00:  RPM Surface Avg 
 RPMN.rpm               100.00:  RPM Surface Min 
 RPMX.rpm               120.00:  RPM Surface Max 
 RRUN.                    0900:  Rig Run Number 
 SAZI.deg               115.08:  Azm, Start 
 SDEP.m                4762.01:  Start Depth 
 SIDD.                      No:  Serv Intrp, DD 
 SINC.deg                66.14:  Inc, Start 
 SPPA.psig             3700.00:  SPP Avg 
 SPPN.psig             3620.00:  SPP Min 
 SPPX.psig             3900.00:  SPP Max 
 STIM.      09.30.00 22-Dec-20:  Start Time 
 SVCS.                 DD, MWD:  Services 
 SVER.                    9.20:  Sperry Version 
 TDAT.m                 237.00:  Tot Depth Attmp 
 TDDF.                      No:  Trip for DD 
 TDLG.m                 237.00:  Tot Depth Loggd 
 TFF .                      No:  Trip for Fail 
 TQAA.f-kp               18.00:  Torque Abs Avg 
 TQAN.f-kp               17.00:  Torque Abs Min 
 TQAX.f-kp               20.00:  Torque Abs Max 
 TRRT.∞/30m               0.60:  Turn Rotating 
 MRT .                    HCIM:  Maximum Recorded Temperature 
 TTMX.degC               94.12:  Max Tool Temp 
 VS01.                90627809:  Virtual Str1 SN 
 VS02.                90527813:  Virtual Str2 SN 
 VS03.                90545417:  Virtual Str3 SN 
 VS04.                12460870:  Virtual Str4 SN 
 VS05.                90516706:  Virtual Str5 SN 
 VS06.                90632007:  Virtual Str6 SN 
 WBMN.klb                 0.00:  WOB Min 
 WOBA.klb                14.00:  WOB Avg 
 WOBX.klb                25.00:  WOB Max 
 YP  .lhf2               32.00:  Yield Point 
~Curve Information Block
#MNEM.UNIT                 API CODE     Curve Description
#---------               -----------    ---------------------------
 TIME.HHMMSS            00 000 000 000:  GT Time & Date
 GTDEPTH.m              00 000 000 000:  GT Depth
 GTPQH.psia             00 000 000 000:  GT HR Quartz Pressure
 GTTQ.degC              00 000 000 000:  GT Quartz Temperature
 GTTN.NONE              00 000 000 000:  GT Test Number
 GTET.sec               00 000 000 000:  GT Elapsed Test Time
 GTTVD.m                00 000 000 000:  GT True Vertical Depth
#Other Information
#
#WARRANTY: Halliburton will use its best efforts to furnish customers with 
#accurate information and interpretations that are part of, and incident to, the services 
#provided.  However, Halliburton cannot and does not warrant the accuracy 
#or correctness of such information and interpretations.  Under no circumstances should any 
#such information or interpretation be relied upon as the sole basis for any drilling, 
#completion, production, or financial decision or any procedure involving any risk to the 
#safety of any drilling venture, drilling rig or its crew or any other third party.  The 
#Customer has full responsibility for all drilling, completion and production operation.  
#Halliburton makes no representations or warranties, either expressed or 
#implied, including, but not limited to, the implied warranties of merchantability or fitness 
#for a particular purpose, with respect to the services rendered.  In no event will 
#Halliburton be liable for failure to obtain any particular results or for 
#any damages, including, but not limited to, indirect, special or consequential damages, 
#resulting from the use of any information or interpretation provided by Halliburton.
#
~A           TIME           GTDEPTH  GTPQH  GTTQ  GTTN  GTET   GTTVD  
# ...
   17:59:38.652.25-Dec-2020 4856.51 1490.02 64.21 5.00 183.93 2521.01
   17:59:38.852.25-Dec-2020 4856.51 1490.02 64.21 5.00 184.13 2521.01
   17:59:39.052.25-Dec-2020 4856.51 1270.89 64.21 5.00 184.33 2521.01
   17:59:39.252.25-Dec-2020 4856.51 1175.59 64.21 5.00 184.53 2521.01
   17:59:39.452.25-Dec-2020 4856.51 1093.14 64.21 5.00 184.73 2521.01
   17:59:39.651.25-Dec-2020 4856.51 1021.21 64.21 5.00 184.93 2521.01
   17:59:39.851.25-Dec-2020 4856.51  953.34 64.20 5.00 185.13 2521.01
   17:59:40.051.25-Dec-2020 4856.51  892.52 64.20 5.00 185.33 2521.01
   17:59:40.251.25-Dec-2020 4856.51  840.74 64.20 5.00 185.53 2521.01
   17:59:40.451.25-Dec-2020 4856.51  809.39 64.20 5.00 185.73 2521.01
   17:59:40.651.25-Dec-2020 4856.51  784.49 64.20 5.00 185.93 2521.01
   17:59:40.851.25-Dec-2020 4856.51  784.49 64.20 5.00 186.13 2521.01
   17:59:41.051.25-Dec-2020 4856.51  735.71 64.19 5.00 186.33 2521.01
   17:59:41.251.25-Dec-2020 4856.51  728.56 64.19 5.00 186.53 2521.01
   17:59:41.451.25-Dec-2020 4856.51  718.00 64.19 5.00 186.73 2521.01
   17:59:41.651.25-Dec-2020 4856.51  714.97 64.19 5.00 186.93 2521.01
   17:59:41.851.25-Dec-2020 4856.51  714.97 64.19 5.00 187.13 2521.01
   17:59:42.051.25-Dec-2020 4856.51  702.73 64.18 5.00 187.33 2521.01
   17:59:42.250.25-Dec-2020 4856.51  709.14 64.18 5.00 187.53 2521.01
   17:59:42.450.25-Dec-2020 4856.51  712.61 64.18 5.00 187.73 2521.01
   17:59:42.650.25-Dec-2020 4856.51  715.38 64.18 5.00 187.93 2521.01
   17:59:42.850.25-Dec-2020 4856.51  715.38 64.18 5.00 188.13 2521.01
   17:59:43.050.25-Dec-2020 4856.51  744.42 64.17 5.00 188.33 2521.01
   17:59:43.250.25-Dec-2020 4856.51  750.12 64.17 5.00 188.53 2521.01
   17:59:43.450.25-Dec-2020 4856.51  764.35 64.17 5.00 188.73 2521.01
   17:59:43.650.25-Dec-2020 4856.51  768.83 64.17 5.00 188.93 2521.01
   17:59:43.850.25-Dec-2020 4856.51  781.81 64.16 5.00 189.13 2521.01
   17:59:44.050.25-Dec-2020 4856.51  805.26 64.16 5.00 189.33 2521.01
   17:59:44.250.25-Dec-2020 4856.51  818.21 64.16 5.00 189.53 2521.01
   17:59:44.450.25-Dec-2020 4856.51  829.69 64.16 5.00 189.73 2521.01
   17:59:44.650.25-Dec-2020 4856.51  839.03 64.16 5.00 189.93 2521.01
   17:59:44.849.25-Dec-2020 4856.51  839.03 64.16 5.00 190.13 2521.01
   17:59:45.049.25-Dec-2020 4856.51  868.60 64.15 5.00 190.33 2521.01
   17:59:45.249.25-Dec-2020 4856.51  879.80 64.15 5.00 190.52 2521.01
   17:59:45.449.25-Dec-2020 4856.51  892.93 64.15 5.00 190.72 2521.01
   17:59:45.649.25-Dec-2020 4856.51  906.45 64.15 5.00 190.92 2521.01
   17:59:45.849.25-Dec-2020 4856.51  906.45 64.15 5.00 191.12 2521.01
   17:59:46.049.25-Dec-2020 4856.51  916.39 64.15 5.00 191.32 2521.01
   17:59:46.249.25-Dec-2020 4856.51  923.09 64.15 5.00 191.52 2521.01
   17:59:46.449.25-Dec-2020 4856.51  934.26 64.14 5.00 191.72 2521.01
   17:59:46.649.25-Dec-2020 4856.51  939.08 64.14 5.00 191.92 2521.01
   17:59:46.849.25-Dec-2020 4856.51  939.08 64.14 5.00 192.12 2521.01
   17:59:47.049.25-Dec-2020 4856.51 1211.98 64.14 5.00 192.32 2521.01
   17:59:47.248.25-Dec-2020 4856.51 1527.95 64.14 5.00 192.52 2521.01
   17:59:47.448.25-Dec-2020 4856.51 1810.16 64.14 5.00 192.72 2521.01
   17:59:47.648.25-Dec-2020 4856.51 2060.04 64.14 5.00 192.92 2521.01
   17:59:47.848.25-Dec-2020 4856.51 2280.44 64.14 5.00 193.12 2521.01
   17:59:48.048.25-Dec-2020 4856.51 2474.88 64.14 5.00 193.32 2521.01
   17:59:48.248.25-Dec-2020 4856.51 2646.07 64.14 5.00 193.52 2521.01
   17:59:48.448.25-Dec-2020 4856.51 2796.68 64.14 5.00 193.72 2521.01
   17:59:48.648.25-Dec-2020 4856.51 2929.24 64.14 5.00 193.92 2521.01
   17:59:48.848.25-Dec-2020 4856.51 2929.24 64.14 5.00 194.12 2521.01
   17:59:49.048.25-Dec-2020 4856.51 3148.17 64.14 5.00 194.32 2521.01
   17:59:49.248.25-Dec-2020 4856.51 3237.94 64.14 5.00 194.52 2521.01
   17:59:49.448.25-Dec-2020 4856.51 3315.54 64.14 5.00 194.72 2521.01
   17:59:49.648.25-Dec-2020 4856.51 3384.81 64.14 5.00 194.92 2521.01
   17:59:49.847.25-Dec-2020 4856.51 3384.81 64.14 5.00 195.12 2521.01
   17:59:50.047.25-Dec-2020 4856.51 3501.07 64.14 5.00 195.32 2521.01
   17:59:50.247.25-Dec-2020 4856.51 3548.97 64.14 5.00 195.52 2521.01
   17:59:50.447.25-Dec-2020 4856.51 3591.01 64.14 5.00 195.72 2521.01
   17:59:50.647.25-Dec-2020 4856.51 3628.20 64.14 5.00 195.92 2521.01
   17:59:50.847.25-Dec-2020 4856.51 3628.20 64.14 5.00 196.12 2521.01
   17:59:51.047.25-Dec-2020 4856.51 3689.56 64.15 5.00 196.32 2521.01
   17:59:51.247.25-Dec-2020 4856.51 3714.97 64.15 5.00 196.52 2521.01
   17:59:51.447.25-Dec-2020 4856.51 3737.12 64.15 5.00 196.72 2521.01
   17:59:51.647.25-Dec-2020 4856.51 3756.82 64.15 5.00 196.92 2521.01
   17:59:51.847.25-Dec-2020 4856.51 3756.82 64.15 5.00 197.12 2521.01
   17:59:52.047.25-Dec-2020 4856.51 3786.85 64.16 5.00 197.32 2521.01
   17:59:52.247.25-Dec-2020 4856.51 3800.66 64.16 5.00 197.52 2521.01
   17:59:52.446.25-Dec-2020 4856.51 3812.90 64.16 5.00 197.72 2521.01
   17:59:52.646.25-Dec-2020 4856.51 3822.79 64.16 5.00 197.92 2521.01
   17:59:52.846.25-Dec-2020 4856.51 3822.79 64.16 5.00 198.12 2521.01
   17:59:53.046.25-Dec-2020 4856.51 3839.87 64.17 5.00 198.32 2521.01
   17:59:53.246.25-Dec-2020 4856.51 3847.77 64.17 5.00 198.52 2521.01
   17:59:53.446.25-Dec-2020 4856.51 3854.57 64.17 5.00 198.72 2521.01
   17:59:53.646.25-Dec-2020 4856.51 3859.60 64.17 5.00 198.92 2521.01
   17:59:53.846.25-Dec-2020 4856.51 3859.60 64.17 5.00 199.12 2521.01
   17:59:54.046.25-Dec-2020 4856.51 3869.44 64.18 5.00 199.32 2521.01
   17:59:54.246.25-Dec-2020 4856.51 3874.04 64.18 5.00 199.52 2521.01
   17:59:54.446.25-Dec-2020 4856.51 3877.89 64.18 5.00 199.72 2521.01
   17:59:54.646.25-Dec-2020 4856.51 3880.69 64.18 5.00 199.92 2521.01
   17:59:54.845.25-Dec-2020 4856.51 3880.69 64.18 5.00 200.12 2521.01
   17:59:55.045.25-Dec-2020 4856.51 3885.83 64.18 5.00 200.32 2521.01
   17:59:55.245.25-Dec-2020 4856.51 3888.71 64.19 5.00 200.52 2521.01
   17:59:55.445.25-Dec-2020 4856.51 3891.05 64.19 5.00 200.72 2521.01
   17:59:55.645.25-Dec-2020 4856.51 3893.29 64.19 5.00 200.92 2521.01
   17:59:55.845.25-Dec-2020 4856.51 3893.29 64.19 5.00 201.12 2521.01
   17:59:56.045.25-Dec-2020 4856.51 3897.10 64.19 5.00 201.32 2521.01
   17:59:56.245.25-Dec-2020 4856.51 3898.81 64.19 5.00 201.52 2521.01
   17:59:56.445.25-Dec-2020 4856.51 3900.17 64.20 5.00 201.72 2521.01
   17:59:56.645.25-Dec-2020 4856.51 3901.50 64.20 5.00 201.92 2521.01
   17:59:56.845.25-Dec-2020 4856.51 3901.50 64.20 5.00 202.12 2521.01
   17:59:57.045.25-Dec-2020 4856.51 3903.32 64.20 5.00 202.32 2521.01
   17:59:57.245.25-Dec-2020 4856.51 3904.07 64.20 5.00 202.52 2521.01
   17:59:57.444.25-Dec-2020 4856.51 3904.41 64.20 5.00 202.72 2521.01
   17:59:57.644.25-Dec-2020 4856.51 3905.21 64.20 5.00 202.92 2521.01
   17:59:57.844.25-Dec-2020 4856.51 3905.21 64.20 5.00 203.12 2521.01
   17:59:58.044.25-Dec-2020 4856.51 3906.56 64.21 5.00 203.32 2521.01
   17:59:58.244.25-Dec-2020 4856.51 3907.39 64.21 5.00 203.52 2521.01
   17:59:58.444.25-Dec-2020 4856.51 3907.99 64.21 5.00 203.72 2521.01
   17:59:58.644.25-Dec-2020 4856.51 3908.65 64.21 5.00 203.92 2521.01
   17:59:58.844.25-Dec-2020 4856.51 3908.65 64.21 5.00 204.12 2521.01
   17:59:59.044.25-Dec-2020 4856.51 3909.60 64.21 5.00 204.32 2521.01
   17:59:59.244.25-Dec-2020 4856.51 3910.13 64.21 5.00 204.52 2521.01
   17:59:59.444.25-Dec-2020 4856.51 3910.53 64.21 5.00 204.72 2521.01
   17:59:59.644.25-Dec-2020 4856.51 3910.21 64.21 5.00 204.92 2521.01
   17:59:59.844.25-Dec-2020 4856.51 3910.21 64.21 5.00 205.12 2521.01
   18:00:00.043.25-Dec-2020 4856.51 3910.53 64.22 5.00 205.32 2521.01
   18:00:00.243.25-Dec-2020 4856.51 3910.91 64.22 5.00 205.52 2521.01
   18:00:00.443.25-Dec-2020 4856.51 3911.30 64.22 5.00 205.72 2521.01
   18:00:00.643.25-Dec-2020 4856.51 3910.87 64.22 5.00 205.92 2521.01
   18:00:00.843.25-Dec-2020 4856.51 3910.87 64.22 5.00 206.12 2521.01
   18:00:01.043.25-Dec-2020 4856.51 3910.66 64.22 5.00 206.32 2521.01
   18:00:01.243.25-Dec-2020 4856.51 3910.02 64.22 5.00 206.52 2521.01
   18:00:01.443.25-Dec-2020 4856.51 3910.76 64.22 5.00 206.72 2521.01
