~Version Information
 VERS.                  2.0:   CWLS log ASCII Standard -VERSION 2.0
 WRAP.                   NO:   One line per depth step
~Well Information Block
#MNEM.UNIT     VALUE/NAME     DESCRIPTION
#---------     -----------    ---------------------------
 STRT.S             19:12:01 25-Dec-20: START TIME 19:12:01 25-Dec-20
 STOP.S             19:20:19 25-Dec-20: STOP TIME  19:20:19 25-Dec-20
 STEP.S                   0.00: STEP TIME
 NULL.                 -999.25: NULL VALUE
 DFWT.                        :  DIST FWL TEXT
 DFST.                        :  DIST FSL TEXT
 DMF .             Drill Floor:  DRILL MEAS FROM
 STIM.      04.54.24 22-Sep-20:  START TIME
 DATE.      04.54.24 21-Nov-20:  END TIME
 SPUD.               21-Nov-20:  SPUD DATE
 NREF.                    Grid:  NORTH REFERENCE
 HPTY.       Minimum Curvature:  HOLE POS TYPE
 DMOD.             Drill Model:  DRILL MOD DESC
 SVYD.                  Survey:  SURVEY DESC
 ILTD.               Lithology:  INTERP LTH DESC
 FTOP.          Formation Tops:  FORM TOPS DESC
 SON .        AZ-XX-0906571587:  JOB NUMBER
 COMP.     BP Exploration (Caspian Sea) Ltd:  COMPANY
 UWI .                     N/A:  UNIQUE WELL IDENTIFIER
 API .                     N/A:  API NUMBER
 BASE.              Azerbaijan:  LOGGING EQUIPMENT BASE LOCATION
 REGN.                   EESSA:  REGION
 PROV.                    Baku:  PROVINCE
 STAT.                    Baku:  STATE NAME
 CTRY.              Azerbaijan:  COUNTRY NAME
 FLD .                     ACG:  FIELD NAME
 SRVC.     TURAN Drilling & Engineering:  CONTRACTOR
 WELL.                     J27:  WELL NAME
 RIG .             West Chirag:  RIG NAME
 DOE .                     N/A:  DOE NUMBER
 DCON.         Sperry Drilling:  DIRECTNL CONTR
 PDAT.          Mean Sea Level:  PERMANENT DATUM
 WTYP.                Deviated:  WELL TYPE
 MWDS.                    Baku:  MWD SHOP
 JOBN.        AZ-XX-0906571587:  JOB TICKET NUMB
 UNIT.                     N/A:  LOGGING EQUIPMENT ID
 MDS .        Operator Entered:  MAG DATA SOURCE
 CNTY.                        :  COUNTY
 LOC .                        :  LOCATION
 LMF .             Drill Floor:  LOG MEASURED FROM
 TVDS.m                  43.00:  TVDSS CORRECTN
 LATI.deg                40.13:  LATITUDE
 LONG.deg                51.22:  LONGITUDE
 WHNS.m                   7.72:  WELL HEAD N/S
 WHEW.m                 -14.24:  WELL HEAD E/W
 UTMX.m              519005.06:  UTM X
 UTMY.m             4443793.85:  UTM Y
 DFWL.m                   0.00:  DISTANCE FWL
 DFSL.m                   0.00:  DISTANCE FSL
 SDEP.m                 347.00:  START DEPTH
 TDD .m                 581.00:  TOTAL DEPTH (DRILLER)
 VSDR.deg               159.72:  VERT SEC DIRECT
 GVFD.g                   1.00:  GRAVITY FIELD
 MFLD.nT              50318.00:  MAGNETIC FIELD
 MDIP.deg                59.57:  MAGNETIC DIP
 MDEC.deg                 6.44:  MAGNETIC DECL
 GRDC.deg                 0.15:  GRID CORRECTION
 AZTC.deg                 6.29:  AZM TOTAL CORR
 EPD .m                   0.00:  ELEVATION
 EGL .m                   0.00:  GROUND ELEVATION
 WDMS.m                 169.80:  WD ELEV
 APD .m                  43.00:  DEPTH ABOVE PD
 AGAP.m                  43.00:  AIR GAP
 VSEW.m                 -14.24:  VERT SEC E/W
 VSNS.m                   7.72:  VERT SEC N/S
 DEP .m                 342.45:  DEPTH
 EKB .m                   0.00:  KB ELEVATION
 EDF .m                  43.00:  DF ELEVATION
 TDL .m                 237.00:  TOTAL DEPTH (LOGGER)
 VSC .                       0:  VS TO CLOSURE
 MAGU.                 1851428:  MAGUTM CHECKSUM
~Parameter Information Block
#MNEM.UNIT       Value        Description
#---------     -----------    ---------------------------
 AV  .mps                 1.50:  Ann Velocity 
 AVMX.mps                 2.90:  Max Ann Veloc 
 AZIF.deg               115.59:  Azm, Final 
 BHAT.        Rotary Steerable:  BHA Type 
 BROT.°/30m               0.50:  Build Rotating 
 BS  .in                  8.50:  Bit Size 
 BTPL.psig              580.00:  Bit Press Loss 
 CABU.                     Yes:  Customer Abuse 
 COMM.                     Ìt:  Run Comments 1 
 TCS .hr                 89.79:  Time Ciculation Ended 
 CV  .mps                 3.22:  Crit Velocity 
 CVMX.mps                 4.37:  Max Crit Veloc 
 DD1 .          Rashad Habibov:  Direct Drillr 1 
 DDSV.               Geo-Pilot:  DD Service 
 DEFF.%                  95.00:  % Det Eff 
 DLRX.°/30m               1.94:  Dogleg Rot Max 
 DLSO.°/30m               0.70:  Dogleg Oriented 
 DLSX.°/30m               1.94:  Dogleg Str Max 
 DRET.      04.45.00 25-Dec-20:  Drill End Time 
 DRST.      10.00.00 24-Dec-20:  Drill Start Tim 
 DTIM.hr                 16.64:  Time Drilling 
 EDEP.m                4999.01:  End Depth 
 ENG1.         Elchin Mammadov:  Engineer 1 
 ENG2.          Ruslan Safarov:  Engineer 2 
 ENG3.          Rustam Safarov:  Engineer 3 
 ETIM.      09.00.00 29-Dec-20:  End Time 
 FLOI.gpm               500.00:  Flow In 
 FLON.gpm               400.00:  Flow In Min 
 FLOS.cptm                0.00:  Fluid Loss 
 FLOX.gpm               500.00:  Flow In Max 
 HFLO.                      No:  High Flow 
 HPRE.                      No:  High Pressure 
 HTEM.                      No:  High Temp 
 HYDO.m                   2.00:  Hydro Offset 
 IFIN.deg                66.79:  Inc, Final 
 IMAX.deg                67.66:  Inc Max 
 IMIN.deg                66.39:  Inc Min 
 IMND.m                4949.37:  Inc Min Depth 
 IMXD.m                4778.63:  Inc Max Depth 
 JARR.                     Yes:  Jarring 
 LETM.      04.45.00 25-Dec-20:  Log End Time 
 LOST.hr                     0:  Lost Rig Time 
 LSTM.      10.00.00 24-Dec-20:  Log Start Time 
 MDCL.ppm             39000.00:  Mud Chlorides 
 MDES.     Inversion Oil/Synthetic:  Mud Desc 
 DFD .sg                  1.33:  Mud Density 
 MDMN.sg                  1.33:  Dens Mud Min 
 MDMX.sg                  1.33:  Dens Mud Max 
 MOIL.                      70:  Run Mud Oil % 
 MOWR.                   70:30:  Run Mud OWR 
 MSND.                       0:  Run Mud Sand % 
 MSOL.                    17.4:  Run Mud Solids% 
 DFV .spqt               84.00:  Mud Viscosity 
 MWOD.in                  6.75:  MWD Tool OD 
 MWSI.                     Yes:  Serv Intrp, MWD 
 OTIM.hr                168.14:  Time Operating 
 PCON.           Look Like New:  Pad Condition 
 PMAX.psia            10822.93:  Press Op, Max 
 PV  .cP                 30.00:  Mud PV 
 RUN .                     900:  Run Number 
 ROPA.m/hr               18.00:  ROP Avg 
 ROPN.m/hr               12.00:  ROP Min 
 ROPX.m/hr               25.00:  ROP Max 
 RPMA.rpm               120.00:  RPM Surface Avg 
 RPMN.rpm               100.00:  RPM Surface Min 
 RPMX.rpm               120.00:  RPM Surface Max 
 RRUN.                    0900:  Rig Run Number 
 SAZI.deg               115.08:  Azm, Start 
 SDEP.m                4762.01:  Start Depth 
 SIDD.                      No:  Serv Intrp, DD 
 SINC.deg                66.14:  Inc, Start 
 SPPA.psig             3700.00:  SPP Avg 
 SPPN.psig             3620.00:  SPP Min 
 SPPX.psig             3900.00:  SPP Max 
 STIM.      09.30.00 22-Dec-20:  Start Time 
 SVCS.                 DD, MWD:  Services 
 SVER.                    9.20:  Sperry Version 
 TDAT.m                 237.00:  Tot Depth Attmp 
 TDDF.                      No:  Trip for DD 
 TDLG.m                 237.00:  Tot Depth Loggd 
 TFF .                      No:  Trip for Fail 
 TQAA.f-kp               18.00:  Torque Abs Avg 
 TQAN.f-kp               17.00:  Torque Abs Min 
 TQAX.f-kp               20.00:  Torque Abs Max 
 TRRT.°/30m               0.60:  Turn Rotating 
 MRT .                    HCIM:  Maximum Recorded Temperature 
 TTMX.degC               94.12:  Max Tool Temp 
 VS01.                90627809:  Virtual Str1 SN 
 VS02.                90527813:  Virtual Str2 SN 
 VS03.                90545417:  Virtual Str3 SN 
 VS04.                12460870:  Virtual Str4 SN 
 VS05.                90516706:  Virtual Str5 SN 
 VS06.                90632007:  Virtual Str6 SN 
 WBMN.klb                 0.00:  WOB Min 
 WOBA.klb                14.00:  WOB Avg 
 WOBX.klb                25.00:  WOB Max 
 YP  .lhf2               32.00:  Yield Point 
~Curve Information Block
#MNEM.UNIT                 API CODE     Curve Description
#---------               -----------    ---------------------------
 TIME.HHMMSS            00 000 000 000:  GT Time & Date
 GTDEPTH.m              00 000 000 000:  GT Depth
 GTPQH.psia             00 000 000 000:  GT HR Quartz Pressure
 GTTQ.degC              00 000 000 000:  GT Quartz Temperature
 GTTN.NONE              00 000 000 000:  GT Test Number
 GTET.sec               00 000 000 000:  GT Elapsed Test Time
 GTTVD.m                00 000 000 000:  GT True Vertical Depth
#Other Information
#
#WARRANTY: Halliburton will use its best efforts to furnish customers with 
#accurate information and interpretations that are part of, and incident to, the services 
#provided.  However, Halliburton cannot and does not warrant the accuracy 
#or correctness of such information and interpretations.  Under no circumstances should any 
#such information or interpretation be relied upon as the sole basis for any drilling, 
#completion, production, or financial decision or any procedure involving any risk to the 
#safety of any drilling venture, drilling rig or its crew or any other third party.  The 
#Customer has full responsibility for all drilling, completion and production operation.  
#Halliburton makes no representations or warranties, either expressed or 
#implied, including, but not limited to, the implied warranties of merchantability or fitness 
#for a particular purpose, with respect to the services rendered.  In no event will 
#Halliburton be liable for failure to obtain any particular results or for 
#any damages, including, but not limited to, indirect, special or consequential damages, 
#resulting from the use of any information or interpretation provided by Halliburton.
#
~A           TIME           GTDEPTH  GTPQH  GTTQ  GTTN  GTET   GTTVD  
# ...
   19:19:41.484.25-Dec-2020 4808.01 5436.28 63.93 7.00 460.36 2502.07
   19:19:41.685.25-Dec-2020 4808.01 5436.28 63.93 7.00 460.56 2502.07
   19:19:41.885.25-Dec-2020 4808.01 5436.79 63.93 7.00 460.76 2502.07
   19:19:42.085.25-Dec-2020 4808.01 5436.25 63.93 7.00 460.96 2502.07
   19:19:42.285.25-Dec-2020 4808.01 5444.09 63.93 7.00 461.16 2502.07
   19:19:42.485.25-Dec-2020 4808.01 5440.73 63.93 7.00 461.36 2502.07
   19:19:42.685.25-Dec-2020 4808.01 5440.73 63.93 7.00 461.56 2502.07
   19:19:42.885.25-Dec-2020 4808.01 5448.41 63.94 7.00 461.76 2502.07
   19:19:43.086.25-Dec-2020 4808.01 5439.70 63.94 7.00 461.96 2502.07
   19:19:43.286.25-Dec-2020 4808.01 5447.58 63.94 7.00 462.16 2502.07
   19:19:43.486.25-Dec-2020 4808.01 5444.22 63.94 7.00 462.37 2502.07
   19:19:43.686.25-Dec-2020 4808.01 5444.22 63.94 7.00 462.57 2502.07
   19:19:43.886.25-Dec-2020 4808.01 5458.76 63.94 7.00 462.77 2502.07
   19:19:44.086.25-Dec-2020 4808.01 5435.39 63.95 7.00 462.97 2502.07
   19:19:44.287.25-Dec-2020 4808.01 5441.02 63.95 7.00 463.17 2502.07
   19:19:44.487.25-Dec-2020 4808.01 5443.12 63.95 7.00 463.37 2502.07
   19:19:44.687.25-Dec-2020 4808.01 5443.12 63.95 7.00 463.57 2502.07
   19:19:44.887.25-Dec-2020 4808.01 5441.56 63.95 7.00 463.77 2502.07
   19:19:45.087.25-Dec-2020 4808.01 5439.99 63.95 7.00 463.97 2502.07
   19:19:45.287.25-Dec-2020 4808.01 5438.21 63.95 7.00 464.17 2502.07
   19:19:45.488.25-Dec-2020 4808.01 5439.25 63.95 7.00 464.37 2502.07
   19:19:45.688.25-Dec-2020 4808.01 5439.25 63.95 7.00 464.57 2502.07
   19:19:45.888.25-Dec-2020 4808.01 5437.22 63.95 7.00 464.77 2502.07
   19:19:46.088.25-Dec-2020 4808.01 5436.95 63.95 7.00 464.97 2502.07
   19:19:46.288.25-Dec-2020 4808.01 5444.80 63.96 7.00 465.17 2502.07
   19:19:46.488.25-Dec-2020 4808.01 5440.80 63.96 7.00 465.37 2502.07
   19:19:46.688.25-Dec-2020 4808.01 5440.80 63.96 7.00 465.57 2502.07
   19:19:46.889.25-Dec-2020 4808.01 5442.25 63.96 7.00 465.77 2502.07
   19:19:47.089.25-Dec-2020 4808.01 5437.20 63.96 7.00 465.97 2502.07
   19:19:47.289.25-Dec-2020 4808.01 5437.26 63.96 7.00 466.17 2502.07
   19:19:47.489.25-Dec-2020 4808.01 5438.34 63.96 7.00 466.37 2502.07
   19:19:47.689.25-Dec-2020 4808.01 5438.34 63.96 7.00 466.57 2502.07
   19:19:47.889.25-Dec-2020 4808.01 5438.83 63.96 7.00 466.77 2502.07
   19:19:48.090.25-Dec-2020 4808.01 5438.97 63.96 7.00 466.97 2502.07
   19:19:48.290.25-Dec-2020 4808.01 5437.98 63.96 7.00 467.17 2502.07
   19:19:48.490.25-Dec-2020 4808.01 5439.29 63.96 7.00 467.37 2502.07
   19:19:48.690.25-Dec-2020 4808.01 5439.29 63.96 7.00 467.57 2502.07
   19:19:48.890.25-Dec-2020 4808.01 5439.04 63.96 7.00 467.77 2502.07
   19:19:49.090.25-Dec-2020 4808.01 5446.19 63.96 7.00 467.97 2502.07
   19:19:49.291.25-Dec-2020 4808.01 5441.89 63.96 7.00 468.17 2502.07
   19:19:49.491.25-Dec-2020 4808.01 5440.65 63.96 7.00 468.37 2502.07
   19:19:49.691.25-Dec-2020 4808.01 5440.65 63.96 7.00 468.57 2502.07
   19:19:49.891.25-Dec-2020 4808.01 5445.95 63.96 7.00 468.77 2502.07
   19:19:50.091.25-Dec-2020 4808.01 5445.32 63.96 7.00 468.97 2502.07
   19:19:50.291.25-Dec-2020 4808.01 5439.15 63.96 7.00 469.17 2502.07
   19:19:50.491.25-Dec-2020 4808.01 5442.96 63.96 7.00 469.37 2502.07
   19:19:50.692.25-Dec-2020 4808.01 5442.96 63.96 7.00 469.57 2502.07
   19:19:50.892.25-Dec-2020 4808.01 5440.00 63.96 7.00 469.77 2502.07
   19:19:51.092.25-Dec-2020 4808.01 5442.03 63.96 7.00 469.97 2502.07
   19:19:51.292.25-Dec-2020 4808.01 5441.72 63.96 7.00 470.17 2502.07
   19:19:51.492.25-Dec-2020 4808.01 5450.45 63.96 7.00 470.37 2502.07
   19:19:51.692.25-Dec-2020 4808.01 5450.45 63.96 7.00 470.57 2502.07
   19:19:51.893.25-Dec-2020 4808.01 5440.63 63.96 7.00 470.77 2502.07
   19:19:52.093.25-Dec-2020 4808.01 5441.31 63.96 7.00 470.97 2502.07
   19:19:52.293.25-Dec-2020 4808.01 5438.47 63.96 7.00 471.17 2502.07
   19:19:52.493.25-Dec-2020 4808.01 5437.32 63.96 7.00 471.37 2502.07
   19:19:52.693.25-Dec-2020 4808.01 5437.32 63.96 7.00 471.57 2502.07
   19:19:52.893.25-Dec-2020 4808.01 5436.81 63.96 7.00 471.77 2502.07
   19:19:53.094.25-Dec-2020 4808.01 5437.08 63.96 7.00 471.97 2502.07
   19:19:53.294.25-Dec-2020 4808.01 5436.23 63.96 7.00 472.17 2502.07
   19:19:53.494.25-Dec-2020 4808.01 5436.88 63.96 7.00 472.37 2502.07
   19:19:53.694.25-Dec-2020 4808.01 5436.88 63.96 7.00 472.57 2502.07
   19:19:53.894.25-Dec-2020 4808.01 5441.09 63.96 7.00 472.77 2502.07
   19:19:54.094.25-Dec-2020 4808.01 5443.31 63.96 7.00 472.97 2502.07
   19:19:54.295.25-Dec-2020 4808.01 5436.02 63.96 7.00 473.17 2502.07
   19:19:54.495.25-Dec-2020 4808.01 5440.52 63.96 7.00 473.37 2502.07
   19:19:54.695.25-Dec-2020 4808.01 5440.52 63.96 7.00 473.57 2502.07
   19:19:54.895.25-Dec-2020 4808.01 5437.50 63.96 7.00 473.77 2502.07
   19:19:55.095.25-Dec-2020 4808.01 5439.33 63.96 7.00 473.97 2502.07
   19:19:55.295.25-Dec-2020 4808.01 5438.78 63.96 7.00 474.17 2502.07
   19:19:55.495.25-Dec-2020 4808.01 5438.77 63.96 7.00 474.37 2502.07
   19:19:55.696.25-Dec-2020 4808.01 5438.77 63.96 7.00 474.57 2502.07
   19:19:55.896.25-Dec-2020 4808.01 5438.14 63.96 7.00 474.77 2502.07
   19:19:56.096.25-Dec-2020 4808.01 5439.42 63.96 7.00 474.98 2502.07
   19:19:56.296.25-Dec-2020 4808.01 5439.17 63.96 7.00 475.18 2502.07
   19:19:56.496.25-Dec-2020 4808.01 5447.38 63.96 7.00 475.38 2502.07
   19:19:56.696.25-Dec-2020 4808.01 5447.38 63.96 7.00 475.58 2502.07
   19:19:56.897.25-Dec-2020 4808.01 5437.19 63.96 7.00 475.78 2502.07
   19:19:57.097.25-Dec-2020 4808.01 5444.25 63.96 7.00 475.98 2502.07
   19:19:57.297.25-Dec-2020 4808.01 5452.73 63.96 7.00 476.18 2502.07
   19:19:57.497.25-Dec-2020 4808.01 5435.65 63.95 7.00 476.38 2502.07
   19:19:57.697.25-Dec-2020 4808.01 5435.65 63.95 7.00 476.58 2502.07
   19:19:57.897.25-Dec-2020 4808.01 5441.19 63.95 7.00 476.78 2502.07
   19:19:58.098.25-Dec-2020 4808.01 5453.27 63.95 7.00 476.98 2502.07
   19:19:58.298.25-Dec-2020 4808.01 5435.02 63.95 7.00 477.18 2502.07
   19:19:58.498.25-Dec-2020 4808.01 5440.80 63.95 7.00 477.38 2502.07
   19:19:58.698.25-Dec-2020 4808.01 5440.80 63.95 7.00 477.58 2502.07
   19:19:58.898.25-Dec-2020 4808.01 5443.42 63.95 7.00 477.78 2502.07
   19:19:59.098.25-Dec-2020 4808.01 5445.71 63.95 7.00 477.98 2502.07
   19:19:59.298.25-Dec-2020 4808.01 5438.25 63.95 7.00 478.18 2502.07
   19:19:59.499.25-Dec-2020 4808.01 5441.00 63.95 7.00 478.38 2502.07
   19:19:59.699.25-Dec-2020 4808.01 5441.00 63.95 7.00 478.58 2502.07
   19:19:59.899.25-Dec-2020 4808.01 5437.59 63.95 7.00 478.78 2502.07
   19:20:00.099.25-Dec-2020 4808.01 5438.78 63.95 7.00 478.98 2502.07
   19:20:00.299.25-Dec-2020 4808.01 5438.03 63.95 7.00 479.18 2502.07
   19:20:00.499.25-Dec-2020 4808.01 5437.72 63.95 7.00 479.38 2502.07
   19:20:00.700.25-Dec-2020 4808.01 5437.72 63.95 7.00 479.58 2502.07
   19:20:00.900.25-Dec-2020 4808.01 5437.31 63.95 7.00 479.78 2502.07
   19:20:01.100.25-Dec-2020 4808.01 5437.81 63.95 7.00 479.98 2502.07
   19:20:01.300.25-Dec-2020 4808.01 5444.51 63.95 7.00 480.18 2502.07
   19:20:01.500.25-Dec-2020 4808.01 5441.47 63.95 7.00 480.38 2502.07
   19:20:01.700.25-Dec-2020 4808.01 5441.47 63.95 7.00 480.58 2502.07
   19:20:01.901.25-Dec-2020 4808.01 5440.13 63.95 7.00 480.78 2502.07
   19:20:02.101.25-Dec-2020 4808.01 5441.56 63.95 7.00 480.98 2502.07
   19:20:02.301.25-Dec-2020 4808.01 5437.63 63.95 7.00 481.18 2502.07
   19:20:02.501.25-Dec-2020 4808.01 5438.53 63.95 7.00 481.38 2502.07
   19:20:02.701.25-Dec-2020 4808.01 5438.53 63.95 7.00 481.58 2502.07
   19:20:02.901.25-Dec-2020 4808.01 5438.38 63.95 7.00 481.78 2502.07
   19:20:03.101.25-Dec-2020 4808.01 5439.21 63.95 7.00 481.98 2502.07
   19:20:03.302.25-Dec-2020 4808.01 5438.41 63.95 7.00 482.18 2502.07
   19:20:03.502.25-Dec-2020 4808.01 5438.46 63.95 7.00 482.38 2502.07
   19:20:03.702.25-Dec-2020 4808.01 5438.46 63.95 7.00 482.58 2502.07
   19:20:03.902.25-Dec-2020 4808.01 5438.50 63.95 7.00 482.78 2502.07
   19:20:04.102.25-Dec-2020 4808.01 5447.89 63.95 7.00 482.98 2502.07
   19:20:04.302.25-Dec-2020 4808.01 5439.59 63.95 7.00 483.18 2502.07
