~Version Information
 VERS.                  2.0:   CWLS log ASCII Standard -VERSION 2.0
 WRAP.                   NO:   One line per depth step
~Well Information Block
#MNEM.UNIT     VALUE/NAME     DESCRIPTION
#---------     -----------    ---------------------------
 STRT.S             18:45:29 25-Dec-20: START TIME 18:45:29 25-Dec-20
 STOP.S             18:53:50 25-Dec-20: STOP TIME  18:53:50 25-Dec-20
 STEP.S                   0.00: STEP TIME
 NULL.                 -999.25: NULL VALUE
 DFWT.                        :  DIST FWL TEXT
 DFST.                        :  DIST FSL TEXT
 DMF .             Drill Floor:  DRILL MEAS FROM
 STIM.      04.54.24 22-Sep-20:  START TIME
 DATE.      04.54.24 21-Nov-20:  END TIME
 SPUD.               21-Nov-20:  SPUD DATE
 NREF.                    Grid:  NORTH REFERENCE
 HPTY.       Minimum Curvature:  HOLE POS TYPE
 DMOD.             Drill Model:  DRILL MOD DESC
 SVYD.                  Survey:  SURVEY DESC
 ILTD.               Lithology:  INTERP LTH DESC
 FTOP.          Formation Tops:  FORM TOPS DESC
 SON .        AZ-XX-0906571587:  JOB NUMBER
 COMP.     BP Exploration (Caspian Sea) Ltd:  COMPANY
 UWI .                     N/A:  UNIQUE WELL IDENTIFIER
 API .                     N/A:  API NUMBER
 BASE.              Azerbaijan:  LOGGING EQUIPMENT BASE LOCATION
 REGN.                   EESSA:  REGION
 PROV.                    Baku:  PROVINCE
 STAT.                    Baku:  STATE NAME
 CTRY.              Azerbaijan:  COUNTRY NAME
 FLD .                     ACG:  FIELD NAME
 SRVC.     TURAN Drilling & Engineering:  CONTRACTOR
 WELL.                     J27:  WELL NAME
 RIG .             West Chirag:  RIG NAME
 DOE .                     N/A:  DOE NUMBER
 DCON.         Sperry Drilling:  DIRECTNL CONTR
 PDAT.          Mean Sea Level:  PERMANENT DATUM
 WTYP.                Deviated:  WELL TYPE
 MWDS.                    Baku:  MWD SHOP
 JOBN.        AZ-XX-0906571587:  JOB TICKET NUMB
 UNIT.                     N/A:  LOGGING EQUIPMENT ID
 MDS .        Operator Entered:  MAG DATA SOURCE
 CNTY.                        :  COUNTY
 LOC .                        :  LOCATION
 LMF .             Drill Floor:  LOG MEASURED FROM
 TVDS.m                  43.00:  TVDSS CORRECTN
 LATI.deg                40.13:  LATITUDE
 LONG.deg                51.22:  LONGITUDE
 WHNS.m                   7.72:  WELL HEAD N/S
 WHEW.m                 -14.24:  WELL HEAD E/W
 UTMX.m              519005.06:  UTM X
 UTMY.m             4443793.85:  UTM Y
 DFWL.m                   0.00:  DISTANCE FWL
 DFSL.m                   0.00:  DISTANCE FSL
 SDEP.m                 347.00:  START DEPTH
 TDD .m                 581.00:  TOTAL DEPTH (DRILLER)
 VSDR.deg               159.72:  VERT SEC DIRECT
 GVFD.g                   1.00:  GRAVITY FIELD
 MFLD.nT              50318.00:  MAGNETIC FIELD
 MDIP.deg                59.57:  MAGNETIC DIP
 MDEC.deg                 6.44:  MAGNETIC DECL
 GRDC.deg                 0.15:  GRID CORRECTION
 AZTC.deg                 6.29:  AZM TOTAL CORR
 EPD .m                   0.00:  ELEVATION
 EGL .m                   0.00:  GROUND ELEVATION
 WDMS.m                 169.80:  WD ELEV
 APD .m                  43.00:  DEPTH ABOVE PD
 AGAP.m                  43.00:  AIR GAP
 VSEW.m                 -14.24:  VERT SEC E/W
 VSNS.m                   7.72:  VERT SEC N/S
 DEP .m                 342.45:  DEPTH
 EKB .m                   0.00:  KB ELEVATION
 EDF .m                  43.00:  DF ELEVATION
 TDL .m                 237.00:  TOTAL DEPTH (LOGGER)
 VSC .                       0:  VS TO CLOSURE
 MAGU.                 1851428:  MAGUTM CHECKSUM
~Parameter Information Block
#MNEM.UNIT       Value        Description
#---------     -----------    ---------------------------
 AV  .mps                 1.50:  Ann Velocity 
 AVMX.mps                 2.90:  Max Ann Veloc 
 AZIF.deg               115.59:  Azm, Final 
 BHAT.        Rotary Steerable:  BHA Type 
 BROT.°/30m               0.50:  Build Rotating 
 BS  .in                  8.50:  Bit Size 
 BTPL.psig              580.00:  Bit Press Loss 
 CABU.                     Yes:  Customer Abuse 
 TCS .hr                 89.79:  Time Ciculation Ended 
 CV  .mps                 3.22:  Crit Velocity 
 CVMX.mps                 4.37:  Max Crit Veloc 
 DD1 .          Rashad Habibov:  Direct Drillr 1 
 DDSV.               Geo-Pilot:  DD Service 
 DEFF.%                  95.00:  % Det Eff 
 DLRX.°/30m               1.94:  Dogleg Rot Max 
 DLSO.°/30m               0.70:  Dogleg Oriented 
 DLSX.°/30m               1.94:  Dogleg Str Max 
 DRET.      04.45.00 25-Dec-20:  Drill End Time 
 DRST.      10.00.00 24-Dec-20:  Drill Start Tim 
 DTIM.hr                 16.64:  Time Drilling 
 EDEP.m                4999.01:  End Depth 
 ENG1.         Elchin Mammadov:  Engineer 1 
 ENG2.          Ruslan Safarov:  Engineer 2 
 ENG3.          Rustam Safarov:  Engineer 3 
 ETIM.      09.00.00 29-Dec-20:  End Time 
 FLOI.gpm               500.00:  Flow In 
 FLON.gpm               400.00:  Flow In Min 
 FLOS.cptm                0.00:  Fluid Loss 
 FLOX.gpm               500.00:  Flow In Max 
 HFLO.                      No:  High Flow 
 HPRE.                      No:  High Pressure 
 HTEM.                      No:  High Temp 
 HYDO.m                   2.00:  Hydro Offset 
 IFIN.deg                66.79:  Inc, Final 
 IMAX.deg                67.66:  Inc Max 
 IMIN.deg                66.39:  Inc Min 
 IMND.m                4949.37:  Inc Min Depth 
 IMXD.m                4778.63:  Inc Max Depth 
 JARR.                     Yes:  Jarring 
 LETM.      04.45.00 25-Dec-20:  Log End Time 
 LOST.hr                     0:  Lost Rig Time 
 LSTM.      10.00.00 24-Dec-20:  Log Start Time 
 MDCL.ppm             39000.00:  Mud Chlorides 
 MDES.     Inversion Oil/Synthetic:  Mud Desc 
 DFD .sg                  1.33:  Mud Density 
 MDMN.sg                  1.33:  Dens Mud Min 
 MDMX.sg                  1.33:  Dens Mud Max 
 MOIL.                      70:  Run Mud Oil % 
 MOWR.                   70:30:  Run Mud OWR 
 MSND.                       0:  Run Mud Sand % 
 MSOL.                    17.4:  Run Mud Solids% 
 DFV .spqt               84.00:  Mud Viscosity 
 MWOD.in                  6.75:  MWD Tool OD 
 MWSI.                     Yes:  Serv Intrp, MWD 
 OTIM.hr                168.14:  Time Operating 
 PCON.           Look Like New:  Pad Condition 
 PMAX.psia            10822.93:  Press Op, Max 
 PV  .cP                 30.00:  Mud PV 
 RUN .                     900:  Run Number 
 ROPA.m/hr               18.00:  ROP Avg 
 ROPN.m/hr               12.00:  ROP Min 
 ROPX.m/hr               25.00:  ROP Max 
 RPMA.rpm               120.00:  RPM Surface Avg 
 RPMN.rpm               100.00:  RPM Surface Min 
 RPMX.rpm               120.00:  RPM Surface Max 
 RRUN.                    0900:  Rig Run Number 
 SAZI.deg               115.08:  Azm, Start 
 SDEP.m                4762.01:  Start Depth 
 SIDD.                      No:  Serv Intrp, DD 
 SINC.deg                66.14:  Inc, Start 
 SPPA.psig             3700.00:  SPP Avg 
 SPPN.psig             3620.00:  SPP Min 
 SPPX.psig             3900.00:  SPP Max 
 STIM.      09.30.00 22-Dec-20:  Start Time 
 SVCS.                 DD, MWD:  Services 
 SVER.                    9.20:  Sperry Version 
 TDAT.m                 237.00:  Tot Depth Attmp 
 TDDF.                      No:  Trip for DD 
 TDLG.m                 237.00:  Tot Depth Loggd 
 TFF .                      No:  Trip for Fail 
 TQAA.f-kp               18.00:  Torque Abs Avg 
 TQAN.f-kp               17.00:  Torque Abs Min 
 TQAX.f-kp               20.00:  Torque Abs Max 
 TRRT.°/30m               0.60:  Turn Rotating 
 MRT .                    HCIM:  Maximum Recorded Temperature 
 TTMX.degC               94.12:  Max Tool Temp 
 VS01.                90627809:  Virtual Str1 SN 
 VS02.                90527813:  Virtual Str2 SN 
 VS03.                90545417:  Virtual Str3 SN 
 VS04.                12460870:  Virtual Str4 SN 
 VS05.                90516706:  Virtual Str5 SN 
 VS06.                90632007:  Virtual Str6 SN 
 WBMN.klb                 0.00:  WOB Min 
 WOBA.klb                14.00:  WOB Avg 
 WOBX.klb                25.00:  WOB Max 
 YP  .lhf2               32.00:  Yield Point 
~Curve Information Block
#MNEM.UNIT                 API CODE     Curve Description
#---------               -----------    ---------------------------
 TIME.HHMMSS            00 000 000 000:  GT Time & Date
 GTDEPTH.m              00 000 000 000:  GT Depth
 GTPQH.psia             00 000 000 000:  GT HR Quartz Pressure
 GTTQ.degC              00 000 000 000:  GT Quartz Temperature
 GTTN.NONE              00 000 000 000:  GT Test Number
 GTET.sec               00 000 000 000:  GT Elapsed Test Time
 GTTVD.m                00 000 000 000:  GT True Vertical Depth
#Other Information
#
#WARRANTY: Halliburton will use its best efforts to furnish customers with 
#accurate information and interpretations that are part of, and incident to, the services 
#provided.  However, Halliburton cannot and does not warrant the accuracy 
#or correctness of such information and interpretations.  Under no circumstances should any 
#such information or interpretation be relied upon as the sole basis for any drilling, 
#completion, production, or financial decision or any procedure involving any risk to the 
#safety of any drilling venture, drilling rig or its crew or any other third party.  The 
#Customer has full responsibility for all drilling, completion and production operation.  
#Halliburton makes no representations or warranties, either expressed or 
#implied, including, but not limited to, the implied warranties of merchantability or fitness 
#for a particular purpose, with respect to the services rendered.  In no event will 
#Halliburton be liable for failure to obtain any particular results or for 
#any damages, including, but not limited to, indirect, special or consequential damages, 
#resulting from the use of any information or interpretation provided by Halliburton.
#
~A           TIME           GTDEPTH  GTPQH  GTTQ  GTTN  GTET   GTTVD  
# ...
   18:48:10.991.25-Dec-2020 4831.01 3416.18 64.23 6.00 161.13 2510.98
   18:48:11.192.25-Dec-2020 4831.01 3416.18 64.23 6.00 161.33 2510.98
   18:48:11.392.25-Dec-2020 4831.01 3416.19 64.23 6.00 161.53 2510.98
   18:48:11.592.25-Dec-2020 4831.01 3416.20 64.23 6.00 161.73 2510.98
   18:48:11.792.25-Dec-2020 4831.01 3416.20 64.23 6.00 161.93 2510.98
   18:48:11.992.25-Dec-2020 4831.01 3416.17 64.23 6.00 162.13 2510.98
   18:48:12.192.25-Dec-2020 4831.01 3416.17 64.23 6.00 162.33 2510.98
   18:48:12.393.25-Dec-2020 4831.01 3416.35 64.23 6.00 162.53 2510.98
   18:48:12.593.25-Dec-2020 4831.01 3416.09 64.23 6.00 162.73 2510.98
   18:48:12.793.25-Dec-2020 4831.01 3416.07 64.23 6.00 162.93 2510.98
   18:48:12.993.25-Dec-2020 4831.01 3416.12 64.23 6.00 163.13 2510.98
   18:48:13.193.25-Dec-2020 4831.01 3416.12 64.23 6.00 163.33 2510.98
   18:48:13.393.25-Dec-2020 4831.01 3416.22 64.23 6.00 163.53 2510.98
   18:48:13.593.25-Dec-2020 4831.01 3416.23 64.23 6.00 163.73 2510.98
   18:48:13.794.25-Dec-2020 4831.01 3415.70 64.23 6.00 163.93 2510.98
   18:48:13.994.25-Dec-2020 4831.01 3416.09 64.23 6.00 164.13 2510.98
   18:48:14.194.25-Dec-2020 4831.01 3416.24 64.23 6.00 164.33 2510.98
   18:48:14.394.25-Dec-2020 4831.01 3416.31 64.23 6.00 164.53 2510.98
   18:48:14.594.25-Dec-2020 4831.01 3416.23 64.23 6.00 164.73 2510.98
   18:48:14.794.25-Dec-2020 4831.01 3415.82 64.23 6.00 164.93 2510.98
   18:48:14.995.25-Dec-2020 4831.01 3416.06 64.23 6.00 165.13 2510.98
   18:48:15.195.25-Dec-2020 4831.01 3416.06 64.23 6.00 165.33 2510.98
   18:48:15.395.25-Dec-2020 4831.01 3416.30 64.23 6.00 165.53 2510.98
   18:48:15.595.25-Dec-2020 4831.01 3416.18 64.23 6.00 165.73 2510.98
   18:48:15.795.25-Dec-2020 4831.01 3416.23 64.23 6.00 165.93 2510.98
   18:48:15.995.25-Dec-2020 4831.01 3416.20 64.23 6.00 166.13 2510.98
   18:48:16.196.25-Dec-2020 4831.01 3416.20 64.23 6.00 166.33 2510.98
   18:48:16.396.25-Dec-2020 4831.01 3416.20 64.23 6.00 166.53 2510.98
   18:48:16.596.25-Dec-2020 4831.01 3416.18 64.23 6.00 166.73 2510.98
   18:48:16.796.25-Dec-2020 4831.01 3416.22 64.23 6.00 166.93 2510.98
   18:48:16.996.25-Dec-2020 4831.01 3416.18 64.23 6.00 167.13 2510.98
   18:48:17.196.25-Dec-2020 4831.01 3416.18 64.23 6.00 167.33 2510.98
   18:48:17.396.25-Dec-2020 4831.01 3416.26 64.23 6.00 167.53 2510.98
   18:48:17.597.25-Dec-2020 4831.01 3416.26 64.23 6.00 167.73 2510.98
   18:48:17.797.25-Dec-2020 4831.01 3416.40 64.23 6.00 167.93 2510.98
   18:48:17.997.25-Dec-2020 4831.01 3416.24 64.23 6.00 168.13 2510.98
   18:48:18.197.25-Dec-2020 4831.01 3416.26 64.23 6.00 168.33 2510.98
   18:48:18.397.25-Dec-2020 4831.01 3416.24 64.23 6.00 168.53 2510.98
   18:48:18.597.25-Dec-2020 4831.01 3416.19 64.23 6.00 168.73 2510.98
   18:48:18.798.25-Dec-2020 4831.01 3416.25 64.23 6.00 168.93 2510.98
   18:48:18.998.25-Dec-2020 4831.01 3416.19 64.23 6.00 169.13 2510.98
   18:48:19.198.25-Dec-2020 4831.01 3416.19 64.23 6.00 169.33 2510.98
   18:48:19.398.25-Dec-2020 4831.01 3416.22 64.23 6.00 169.53 2510.98
   18:48:19.598.25-Dec-2020 4831.01 3416.19 64.23 6.00 169.73 2510.98
   18:48:19.798.25-Dec-2020 4831.01 3415.34 64.23 6.00 169.93 2510.98
   18:48:19.999.25-Dec-2020 4831.01 3416.77 64.23 6.00 170.13 2510.98
   18:48:20.199.25-Dec-2020 4831.01 3416.77 64.23 6.00 170.33 2510.98
   18:48:20.399.25-Dec-2020 4831.01 3415.35 64.23 6.00 170.53 2510.98
   18:48:20.599.25-Dec-2020 4831.01 3417.62 64.23 6.00 170.73 2510.98
   18:48:20.799.25-Dec-2020 4831.01 3416.85 64.23 6.00 170.93 2510.98
   18:48:20.999.25-Dec-2020 4831.01 3416.43 64.23 6.00 171.14 2510.98
   18:48:21.199.25-Dec-2020 4831.01 3416.43 64.23 6.00 171.34 2510.98
   18:48:21.400.25-Dec-2020 4831.01 3415.43 64.23 6.00 171.54 2510.98
   18:48:21.600.25-Dec-2020 4831.01 3416.64 64.23 6.00 171.74 2510.98
   18:48:21.800.25-Dec-2020 4831.01 3416.29 64.23 6.00 171.94 2510.98
   18:48:22.000.25-Dec-2020 4831.01 3415.77 64.23 6.00 172.14 2510.98
   18:48:22.200.25-Dec-2020 4831.01 3415.77 64.23 6.00 172.34 2510.98
   18:48:22.400.25-Dec-2020 4831.01 3416.04 64.23 6.00 172.54 2510.98
   18:48:22.601.25-Dec-2020 4831.01 3416.35 64.23 6.00 172.74 2510.98
   18:48:22.801.25-Dec-2020 4831.01 3416.30 64.23 6.00 172.94 2510.98
   18:48:23.001.25-Dec-2020 4831.01 3416.26 64.23 6.00 173.14 2510.98
   18:48:23.201.25-Dec-2020 4831.01 3416.26 64.23 6.00 173.34 2510.98
   18:48:23.401.25-Dec-2020 4831.01 3416.21 64.23 6.00 173.54 2510.98
   18:48:23.601.25-Dec-2020 4831.01 3416.19 64.23 6.00 173.74 2510.98
   18:48:23.802.25-Dec-2020 4831.01 3416.20 64.23 6.00 173.94 2510.98
   18:48:24.002.25-Dec-2020 4831.01 3416.17 64.23 6.00 174.14 2510.98
   18:48:24.202.25-Dec-2020 4831.01 3416.17 64.23 6.00 174.34 2510.98
   18:48:24.402.25-Dec-2020 4831.01 3416.19 64.23 6.00 174.54 2510.98
   18:48:24.602.25-Dec-2020 4831.01 3415.52 64.23 6.00 174.74 2510.98
   18:48:24.802.25-Dec-2020 4831.01 3416.44 64.23 6.00 174.94 2510.98
   18:48:25.002.25-Dec-2020 4831.01 3416.11 64.23 6.00 175.14 2510.98
   18:48:25.203.25-Dec-2020 4831.01 3416.11 64.23 6.00 175.34 2510.98
   18:48:25.403.25-Dec-2020 4831.01 3416.27 64.23 6.00 175.54 2510.98
   18:48:25.603.25-Dec-2020 4831.01 3416.17 64.23 6.00 175.74 2510.98
   18:48:25.803.25-Dec-2020 4831.01 3416.20 64.23 6.00 175.94 2510.98
   18:48:26.003.25-Dec-2020 4831.01 3416.22 64.23 6.00 176.14 2510.98
   18:48:26.203.25-Dec-2020 4831.01 3416.22 64.23 6.00 176.34 2510.98
   18:48:26.404.25-Dec-2020 4831.01 3416.22 64.23 6.00 176.54 2510.98
   18:48:26.604.25-Dec-2020 4831.01 3416.17 64.23 6.00 176.74 2510.98
   18:48:26.804.25-Dec-2020 4831.01 3416.19 64.23 6.00 176.94 2510.98
   18:48:27.004.25-Dec-2020 4831.01 3416.17 64.23 6.00 177.14 2510.98
   18:48:27.204.25-Dec-2020 4831.01 3416.17 64.23 6.00 177.34 2510.98
   18:48:27.404.25-Dec-2020 4831.01 3416.16 64.23 6.00 177.54 2510.98
   18:48:27.605.25-Dec-2020 4831.01 3416.21 64.23 6.00 177.74 2510.98
   18:48:27.805.25-Dec-2020 4831.01 3415.91 64.23 6.00 177.94 2510.98
   18:48:28.005.25-Dec-2020 4831.01 3416.08 64.23 6.00 178.14 2510.98
   18:48:28.205.25-Dec-2020 4831.01 3416.08 64.23 6.00 178.34 2510.98
   18:48:28.405.25-Dec-2020 4831.01 3416.27 64.23 6.00 178.54 2510.98
   18:48:28.605.25-Dec-2020 4831.01 3416.21 64.23 6.00 178.74 2510.98
   18:48:28.805.25-Dec-2020 4831.01 3416.06 64.23 6.00 178.94 2510.98
   18:48:29.006.25-Dec-2020 4831.01 3351.63 64.23 6.00 179.14 2510.98
   18:48:29.206.25-Dec-2020 4831.01 3351.63 64.23 6.00 179.34 2510.98
   18:48:29.406.25-Dec-2020 4831.01 3281.35 64.23 6.00 179.54 2510.98
   18:48:29.606.25-Dec-2020 4831.01 3275.72 64.23 6.00 179.74 2510.98
   18:48:29.806.25-Dec-2020 4831.01 3283.54 64.23 6.00 179.94 2510.98
   18:48:30.006.25-Dec-2020 4831.01 3290.32 64.23 6.00 180.14 2510.98
   18:48:30.207.25-Dec-2020 4831.01 3287.53 64.23 6.00 180.34 2510.98
   18:48:30.407.25-Dec-2020 4831.01 3287.91 64.23 6.00 180.54 2510.98
   18:48:30.607.25-Dec-2020 4831.01 3284.72 64.23 6.00 180.74 2510.98
   18:48:30.807.25-Dec-2020 4831.01 3287.21 64.23 6.00 180.94 2510.98
   18:48:31.007.25-Dec-2020 4831.01 3286.73 64.23 6.00 181.14 2510.98
   18:48:31.207.25-Dec-2020 4831.01 3286.73 64.23 6.00 181.34 2510.98
   18:48:31.408.25-Dec-2020 4831.01 3292.49 64.23 6.00 181.54 2510.98
   18:48:31.608.25-Dec-2020 4831.01 3285.54 64.23 6.00 181.74 2510.98
   18:48:31.808.25-Dec-2020 4831.01 3287.71 64.23 6.00 181.94 2510.98
   18:48:32.008.25-Dec-2020 4831.01 3282.36 64.23 6.00 182.14 2510.98
   18:48:32.208.25-Dec-2020 4831.01 3282.36 64.23 6.00 182.34 2510.98
   18:48:32.408.25-Dec-2020 4831.01 3284.75 64.23 6.00 182.54 2510.98
   18:48:32.608.25-Dec-2020 4831.01 3280.66 64.23 6.00 182.74 2510.98
   18:48:32.809.25-Dec-2020 4831.01 3289.22 64.23 6.00 182.94 2510.98
   18:48:33.009.25-Dec-2020 4831.01 3283.11 64.23 6.00 183.14 2510.98
   18:48:33.209.25-Dec-2020 4831.01 3283.11 64.23 6.00 183.34 2510.98
   18:48:33.409.25-Dec-2020 4831.01 3282.22 64.23 6.00 183.54 2510.98
   18:48:33.609.25-Dec-2020 4831.01 3283.69 64.23 6.00 183.75 2510.98
   18:48:33.809.25-Dec-2020 4831.01 3284.46 64.23 6.00 183.95 2510.98
