~Version Information
 VERS.                  2.0:   CWLS log ASCII Standard -VERSION 2.0
 WRAP.                   NO:   One line per depth step
~Well Information Block
#MNEM.UNIT     VALUE/NAME     DESCRIPTION
#---------     -----------    ---------------------------
 STRT.S             13:36:27 25-Dec-20: START TIME 13:36:27 25-Dec-20
 STOP.S             13:44:49 25-Dec-20: STOP TIME  13:44:49 25-Dec-20
 STEP.S                   0.00: STEP TIME
 NULL.                 -999.25: NULL VALUE
 DFWT.                        :  DIST FWL TEXT
 DFST.                        :  DIST FSL TEXT
 DMF .             Drill Floor:  DRILL MEAS FROM
 STIM.      04.54.24 22-Sep-20:  START TIME
 DATE.      04.54.24 21-Nov-20:  END TIME
 SPUD.               21-Nov-20:  SPUD DATE
 NREF.                    Grid:  NORTH REFERENCE
 HPTY.       Minimum Curvature:  HOLE POS TYPE
 DMOD.             Drill Model:  DRILL MOD DESC
 SVYD.                  Survey:  SURVEY DESC
 ILTD.               Lithology:  INTERP LTH DESC
 FTOP.          Formation Tops:  FORM TOPS DESC
 SON .        AZ-XX-0906571587:  JOB NUMBER
 COMP.     BP Exploration (Caspian Sea) Ltd:  COMPANY
 UWI .                     N/A:  UNIQUE WELL IDENTIFIER
 API .                     N/A:  API NUMBER
 BASE.              Azerbaijan:  LOGGING EQUIPMENT BASE LOCATION
 REGN.                   EESSA:  REGION
 PROV.                    Baku:  PROVINCE
 STAT.                    Baku:  STATE NAME
 CTRY.              Azerbaijan:  COUNTRY NAME
 FLD .                     ACG:  FIELD NAME
 SRVC.     TURAN Drilling & Engineering:  CONTRACTOR
 WELL.                     J27:  WELL NAME
 RIG .             West Chirag:  RIG NAME
 DOE .                     N/A:  DOE NUMBER
 DCON.         Sperry Drilling:  DIRECTNL CONTR
 PDAT.          Mean Sea Level:  PERMANENT DATUM
 WTYP.                Deviated:  WELL TYPE
 MWDS.                    Baku:  MWD SHOP
 JOBN.        AZ-XX-0906571587:  JOB TICKET NUMB
 UNIT.                     N/A:  LOGGING EQUIPMENT ID
 MDS .        Operator Entered:  MAG DATA SOURCE
 CNTY.                        :  COUNTY
 LOC .                        :  LOCATION
 LMF .             Drill Floor:  LOG MEASURED FROM
 TVDS.m                  43.00:  TVDSS CORRECTN
 LATI.deg                40.13:  LATITUDE
 LONG.deg                51.22:  LONGITUDE
 WHNS.m                   7.72:  WELL HEAD N/S
 WHEW.m                 -14.24:  WELL HEAD E/W
 UTMX.m              519005.06:  UTM X
 UTMY.m             4443793.85:  UTM Y
 DFWL.m                   0.00:  DISTANCE FWL
 DFSL.m                   0.00:  DISTANCE FSL
 SDEP.m                 347.00:  START DEPTH
 TDD .m                 581.00:  TOTAL DEPTH (DRILLER)
 VSDR.deg               159.72:  VERT SEC DIRECT
 GVFD.g                   1.00:  GRAVITY FIELD
 MFLD.nT              50318.00:  MAGNETIC FIELD
 MDIP.deg                59.57:  MAGNETIC DIP
 MDEC.deg                 6.44:  MAGNETIC DECL
 GRDC.deg                 0.15:  GRID CORRECTION
 AZTC.deg                 6.29:  AZM TOTAL CORR
 EPD .m                   0.00:  ELEVATION
 EGL .m                   0.00:  GROUND ELEVATION
 WDMS.m                 169.80:  WD ELEV
 APD .m                  43.00:  DEPTH ABOVE PD
 AGAP.m                  43.00:  AIR GAP
 VSEW.m                 -14.24:  VERT SEC E/W
 VSNS.m                   7.72:  VERT SEC N/S
 DEP .m                 342.45:  DEPTH
 EKB .m                   0.00:  KB ELEVATION
 EDF .m                  43.00:  DF ELEVATION
 TDL .m                 237.00:  TOTAL DEPTH (LOGGER)
 VSC .                       0:  VS TO CLOSURE
 MAGU.                 1851428:  MAGUTM CHECKSUM
~Parameter Information Block
#MNEM.UNIT       Value        Description
#---------     -----------    ---------------------------
 AV  .mps                 1.50:  Ann Velocity 
 AVMX.mps                 2.90:  Max Ann Veloc 
 AZIF.deg               115.59:  Azm, Final 
 BHAT.        Rotary Steerable:  BHA Type 
 BROT.°/30m               0.50:  Build Rotating 
 BS  .in                  8.50:  Bit Size 
 BTPL.psig              580.00:  Bit Press Loss 
 CABU.                     Yes:  Customer Abuse 
 COMM.                     lW:  Run Comments 1 
 TCS .hr                 89.79:  Time Ciculation Ended 
 CV  .mps                 3.22:  Crit Velocity 
 CVMX.mps                 4.37:  Max Crit Veloc 
 DD1 .          Rashad Habibov:  Direct Drillr 1 
 DDSV.               Geo-Pilot:  DD Service 
 DEFF.%                  95.00:  % Det Eff 
 DLRX.°/30m               1.94:  Dogleg Rot Max 
 DLSO.°/30m               0.70:  Dogleg Oriented 
 DLSX.°/30m               1.94:  Dogleg Str Max 
 DRET.      04.45.00 25-Dec-20:  Drill End Time 
 DRST.      10.00.00 24-Dec-20:  Drill Start Tim 
 DTIM.hr                 16.64:  Time Drilling 
 EDEP.m                4999.01:  End Depth 
 ENG1.         Elchin Mammadov:  Engineer 1 
 ENG2.          Ruslan Safarov:  Engineer 2 
 ENG3.          Rustam Safarov:  Engineer 3 
 ETIM.      09.00.00 29-Dec-20:  End Time 
 FLOI.gpm               500.00:  Flow In 
 FLON.gpm               400.00:  Flow In Min 
 FLOS.cptm                0.00:  Fluid Loss 
 FLOX.gpm               500.00:  Flow In Max 
 HFLO.                      No:  High Flow 
 HPRE.                      No:  High Pressure 
 HTEM.                      No:  High Temp 
 HYDO.m                   2.00:  Hydro Offset 
 IFIN.deg                66.79:  Inc, Final 
 IMAX.deg                67.66:  Inc Max 
 IMIN.deg                66.39:  Inc Min 
 IMND.m                4949.37:  Inc Min Depth 
 IMXD.m                4778.63:  Inc Max Depth 
 JARR.                     Yes:  Jarring 
 LETM.      04.45.00 25-Dec-20:  Log End Time 
 LOST.hr                     0:  Lost Rig Time 
 LSTM.      10.00.00 24-Dec-20:  Log Start Time 
 MDCL.ppm             39000.00:  Mud Chlorides 
 MDES.     Inversion Oil/Synthetic:  Mud Desc 
 DFD .sg                  1.33:  Mud Density 
 MDMN.sg                  1.33:  Dens Mud Min 
 MDMX.sg                  1.33:  Dens Mud Max 
 MOIL.                      70:  Run Mud Oil % 
 MOWR.                   70:30:  Run Mud OWR 
 MSND.                       0:  Run Mud Sand % 
 MSOL.                    17.4:  Run Mud Solids% 
 DFV .spqt               84.00:  Mud Viscosity 
 MWOD.in                  6.75:  MWD Tool OD 
 MWSI.                     Yes:  Serv Intrp, MWD 
 OTIM.hr                168.14:  Time Operating 
 PCON.           Look Like New:  Pad Condition 
 PMAX.psia            10822.93:  Press Op, Max 
 PV  .cP                 30.00:  Mud PV 
 RUN .                     900:  Run Number 
 ROPA.m/hr               18.00:  ROP Avg 
 ROPN.m/hr               12.00:  ROP Min 
 ROPX.m/hr               25.00:  ROP Max 
 RPMA.rpm               120.00:  RPM Surface Avg 
 RPMN.rpm               100.00:  RPM Surface Min 
 RPMX.rpm               120.00:  RPM Surface Max 
 RRUN.                    0900:  Rig Run Number 
 SAZI.deg               115.08:  Azm, Start 
 SDEP.m                4762.01:  Start Depth 
 SIDD.                      No:  Serv Intrp, DD 
 SINC.deg                66.14:  Inc, Start 
 SPPA.psig             3700.00:  SPP Avg 
 SPPN.psig             3620.00:  SPP Min 
 SPPX.psig             3900.00:  SPP Max 
 STIM.      09.30.00 22-Dec-20:  Start Time 
 SVCS.                 DD, MWD:  Services 
 SVER.                    9.20:  Sperry Version 
 TDAT.m                 237.00:  Tot Depth Attmp 
 TDDF.                      No:  Trip for DD 
 TDLG.m                 237.00:  Tot Depth Loggd 
 TFF .                      No:  Trip for Fail 
 TQAA.f-kp               18.00:  Torque Abs Avg 
 TQAN.f-kp               17.00:  Torque Abs Min 
 TQAX.f-kp               20.00:  Torque Abs Max 
 TRRT.°/30m               0.60:  Turn Rotating 
 MRT .                    HCIM:  Maximum Recorded Temperature 
 TTMX.degC               94.12:  Max Tool Temp 
 VS01.                90627809:  Virtual Str1 SN 
 VS02.                90527813:  Virtual Str2 SN 
 VS03.                90545417:  Virtual Str3 SN 
 VS04.                12460870:  Virtual Str4 SN 
 VS05.                90516706:  Virtual Str5 SN 
 VS06.                90632007:  Virtual Str6 SN 
 WBMN.klb                 0.00:  WOB Min 
 WOBA.klb                14.00:  WOB Avg 
 WOBX.klb                25.00:  WOB Max 
 YP  .lhf2               32.00:  Yield Point 
~Curve Information Block
#MNEM.UNIT                 API CODE     Curve Description
#---------               -----------    ---------------------------
 TIME.HHMMSS            00 000 000 000:  GT Time & Date
 GTDEPTH.m              00 000 000 000:  GT Depth
 GTPQH.psia             00 000 000 000:  GT HR Quartz Pressure
 GTTQ.degC              00 000 000 000:  GT Quartz Temperature
 GTTN.NONE              00 000 000 000:  GT Test Number
 GTET.sec               00 000 000 000:  GT Elapsed Test Time
 GTTVD.m                00 000 000 000:  GT True Vertical Depth
#Other Information
#
#WARRANTY: Halliburton will use its best efforts to furnish customers with 
#accurate information and interpretations that are part of, and incident to, the services 
#provided.  However, Halliburton cannot and does not warrant the accuracy 
#or correctness of such information and interpretations.  Under no circumstances should any 
#such information or interpretation be relied upon as the sole basis for any drilling, 
#completion, production, or financial decision or any procedure involving any risk to the 
#safety of any drilling venture, drilling rig or its crew or any other third party.  The 
#Customer has full responsibility for all drilling, completion and production operation.  
#Halliburton makes no representations or warranties, either expressed or 
#implied, including, but not limited to, the implied warranties of merchantability or fitness 
#for a particular purpose, with respect to the services rendered.  In no event will 
#Halliburton be liable for failure to obtain any particular results or for 
#any damages, including, but not limited to, indirect, special or consequential damages, 
#resulting from the use of any information or interpretation provided by Halliburton.
#
~A           TIME           GTDEPTH  GTPQH  GTTQ  GTTN  GTET   GTTVD  
# ...
   13:42:12.000.25-Dec-2020 4921.01   31.52 66.22 2.00 345.00 2546.48
   13:42:12.200.25-Dec-2020 4921.01   31.52 66.22 2.00 345.20 2546.48
   13:42:12.400.25-Dec-2020 4921.01   31.54 66.22 2.00 345.40 2546.48
   13:42:12.600.25-Dec-2020 4921.01   31.56 66.22 2.00 345.60 2546.48
   13:42:12.800.25-Dec-2020 4921.01   31.57 66.22 2.00 345.80 2546.48
   13:42:13.000.25-Dec-2020 4921.01   31.58 66.22 2.00 346.00 2546.48
   13:42:13.200.25-Dec-2020 4921.01   31.58 66.22 2.00 346.20 2546.48
   13:42:13.400.25-Dec-2020 4921.01   31.59 66.22 2.00 346.40 2546.48
   13:42:13.600.25-Dec-2020 4921.01   31.60 66.22 2.00 346.60 2546.48
   13:42:13.800.25-Dec-2020 4921.01   31.61 66.22 2.00 346.80 2546.48
   13:42:14.000.25-Dec-2020 4921.01   31.61 66.22 2.00 347.00 2546.48
   13:42:14.200.25-Dec-2020 4921.01   31.62 66.22 2.00 347.20 2546.48
   13:42:14.400.25-Dec-2020 4921.01   31.63 66.22 2.00 347.40 2546.48
   13:42:14.600.25-Dec-2020 4921.01   31.64 66.22 2.00 347.60 2546.48
   13:42:14.800.25-Dec-2020 4921.01   31.63 66.22 2.00 347.80 2546.48
   13:42:15.000.25-Dec-2020 4921.01   31.67 66.22 2.00 348.00 2546.48
   13:42:15.200.25-Dec-2020 4921.01   31.67 66.22 2.00 348.20 2546.48
   13:42:15.400.25-Dec-2020 4921.01   31.67 66.22 2.00 348.40 2546.48
   13:42:15.600.25-Dec-2020 4921.01   31.68 66.22 2.00 348.60 2546.48
   13:42:15.800.25-Dec-2020 4921.01   31.70 66.22 2.00 348.80 2546.48
   13:42:16.000.25-Dec-2020 4921.01   31.70 66.22 2.00 349.00 2546.48
   13:42:16.200.25-Dec-2020 4921.01   31.70 66.22 2.00 349.20 2546.48
   13:42:16.400.25-Dec-2020 4921.01   31.71 66.22 2.00 349.40 2546.48
   13:42:16.600.25-Dec-2020 4921.01   31.73 66.22 2.00 349.60 2546.48
   13:42:16.800.25-Dec-2020 4921.01   31.73 66.22 2.00 349.80 2546.48
   13:42:17.000.25-Dec-2020 4921.01   31.73 66.22 2.00 350.00 2546.48
   13:42:17.200.25-Dec-2020 4921.01   31.74 66.22 2.00 350.20 2546.48
   13:42:17.400.25-Dec-2020 4921.01   31.76 66.22 2.00 350.40 2546.48
   13:42:17.600.25-Dec-2020 4921.01   31.76 66.22 2.00 350.60 2546.48
   13:42:17.800.25-Dec-2020 4921.01   31.75 66.22 2.00 350.80 2546.48
   13:42:18.000.25-Dec-2020 4921.01   31.81 66.21 2.00 351.00 2546.48
   13:42:18.200.25-Dec-2020 4921.01   31.78 66.21 2.00 351.20 2546.48
   13:42:18.400.25-Dec-2020 4921.01   31.80 66.22 2.00 351.40 2546.48
   13:42:18.600.25-Dec-2020 4921.01   31.78 66.21 2.00 351.60 2546.48
   13:42:18.800.25-Dec-2020 4921.01   31.84 66.21 2.00 351.80 2546.48
   13:42:19.000.25-Dec-2020 4921.01   31.82 66.21 2.00 352.00 2546.48
   13:42:19.200.25-Dec-2020 4921.01   31.82 66.21 2.00 352.20 2546.48
   13:42:19.400.25-Dec-2020 4921.01   31.84 66.21 2.00 352.40 2546.48
   13:42:19.600.25-Dec-2020 4921.01   31.83 66.21 2.00 352.60 2546.48
   13:42:19.800.25-Dec-2020 4921.01   31.86 66.21 2.00 352.80 2546.48
   13:42:20.000.25-Dec-2020 4921.01   31.86 66.21 2.00 353.00 2546.48
   13:42:20.200.25-Dec-2020 4921.01   31.86 66.21 2.00 353.20 2546.48
   13:42:20.400.25-Dec-2020 4921.01   31.89 66.21 2.00 353.40 2546.48
   13:42:20.600.25-Dec-2020 4921.01   31.88 66.21 2.00 353.60 2546.48
   13:42:20.800.25-Dec-2020 4921.01   31.89 66.21 2.00 353.80 2546.48
   13:42:21.000.25-Dec-2020 4921.01   31.90 66.21 2.00 354.00 2546.48
   13:42:21.200.25-Dec-2020 4921.01   31.90 66.21 2.00 354.20 2546.48
   13:42:21.400.25-Dec-2020 4921.01   31.92 66.21 2.00 354.40 2546.48
   13:42:21.600.25-Dec-2020 4921.01   31.92 66.21 2.00 354.60 2546.48
   13:42:21.800.25-Dec-2020 4921.01   31.93 66.21 2.00 354.80 2546.48
   13:42:22.000.25-Dec-2020 4921.01   31.91 66.21 2.00 355.00 2546.48
   13:42:22.200.25-Dec-2020 4921.01   31.91 66.21 2.00 355.20 2546.48
   13:42:22.400.25-Dec-2020 4921.01   31.95 66.21 2.00 355.40 2546.48
   13:42:22.600.25-Dec-2020 4921.01   31.95 66.21 2.00 355.60 2546.48
   13:42:22.800.25-Dec-2020 4921.01   31.97 66.21 2.00 355.80 2546.48
   13:42:23.000.25-Dec-2020 4921.01   31.98 66.21 2.00 356.00 2546.48
   13:42:23.200.25-Dec-2020 4921.01   31.98 66.21 2.00 356.20 2546.48
   13:42:23.400.25-Dec-2020 4921.01   31.99 66.21 2.00 356.40 2546.48
   13:42:23.600.25-Dec-2020 4921.01   31.99 66.21 2.00 356.60 2546.48
   13:42:23.800.25-Dec-2020 4921.01   32.00 66.21 2.00 356.80 2546.48
   13:42:24.000.25-Dec-2020 4921.01   32.01 66.21 2.00 357.00 2546.48
   13:42:24.200.25-Dec-2020 4921.01   32.01 66.21 2.00 357.20 2546.48
   13:42:24.400.25-Dec-2020 4921.01   32.00 66.21 2.00 357.40 2546.48
   13:42:24.600.25-Dec-2020 4921.01   32.04 66.21 2.00 357.60 2546.48
   13:42:24.800.25-Dec-2020 4921.01   32.04 66.21 2.00 357.80 2546.48
   13:42:25.000.25-Dec-2020 4921.01   32.04 66.21 2.00 358.00 2546.48
   13:42:25.200.25-Dec-2020 4921.01   32.04 66.21 2.00 358.20 2546.48
   13:42:25.400.25-Dec-2020 4921.01   32.07 66.21 2.00 358.40 2546.48
   13:42:25.600.25-Dec-2020 4921.01   32.08 66.21 2.00 358.60 2546.48
   13:42:25.800.25-Dec-2020 4921.01   32.07 66.21 2.00 358.80 2546.48
   13:42:26.000.25-Dec-2020 4921.01   32.08 66.21 2.00 359.00 2546.48
   13:42:26.200.25-Dec-2020 4921.01   32.09 66.21 2.00 359.20 2546.48
   13:42:26.400.25-Dec-2020 4921.01   32.11 66.21 2.00 359.40 2546.48
   13:42:26.600.25-Dec-2020 4921.01   32.10 66.21 2.00 359.60 2546.48
   13:42:26.800.25-Dec-2020 4921.01   32.10 66.21 2.00 359.80 2546.48
   13:42:27.000.25-Dec-2020 4921.01   32.14 66.21 2.00 360.00 2546.48
   13:42:27.200.25-Dec-2020 4921.01   32.14 66.21 2.00 360.20 2546.48
   13:42:27.400.25-Dec-2020 4921.01   32.14 66.21 2.00 360.40 2546.48
   13:42:27.600.25-Dec-2020 4921.01   32.15 66.21 2.00 360.60 2546.48
   13:42:27.800.25-Dec-2020 4921.01   32.15 66.21 2.00 360.80 2546.48
   13:42:28.000.25-Dec-2020 4921.01   32.16 66.21 2.00 361.00 2546.48
   13:42:28.200.25-Dec-2020 4921.01   32.16 66.21 2.00 361.20 2546.48
   13:42:28.400.25-Dec-2020 4921.01   32.17 66.21 2.00 361.40 2546.48
   13:42:28.600.25-Dec-2020 4921.01   32.18 66.21 2.00 361.60 2546.48
   13:42:28.800.25-Dec-2020 4921.01   32.18 66.21 2.00 361.80 2546.48
   13:42:29.000.25-Dec-2020 4921.01   32.20 66.21 2.00 362.00 2546.48
   13:42:29.200.25-Dec-2020 4921.01   32.19 66.21 2.00 362.20 2546.48
   13:42:29.400.25-Dec-2020 4921.01   32.19 66.21 2.00 362.40 2546.48
   13:42:29.600.25-Dec-2020 4921.01   32.22 66.21 2.00 362.60 2546.48
   13:42:29.800.25-Dec-2020 4921.01   32.23 66.21 2.00 362.80 2546.48
   13:42:30.000.25-Dec-2020 4921.01   32.23 66.21 2.00 363.00 2546.48
   13:42:30.200.25-Dec-2020 4921.01   32.23 66.21 2.00 363.20 2546.48
   13:42:30.400.25-Dec-2020 4921.01   32.24 66.21 2.00 363.40 2546.48
   13:42:30.600.25-Dec-2020 4921.01   32.26 66.21 2.00 363.60 2546.48
   13:42:30.800.25-Dec-2020 4921.01   32.25 66.21 2.00 363.80 2546.48
   13:42:31.000.25-Dec-2020 4921.01   32.26 66.21 2.00 364.00 2546.48
   13:42:31.200.25-Dec-2020 4921.01   32.26 66.21 2.00 364.20 2546.48
   13:42:31.400.25-Dec-2020 4921.01   32.28 66.21 2.00 364.40 2546.48
   13:42:31.600.25-Dec-2020 4921.01   32.28 66.21 2.00 364.60 2546.48
   13:42:31.800.25-Dec-2020 4921.01   32.26 66.21 2.00 364.80 2546.48
   13:42:32.000.25-Dec-2020 4921.01   32.30 66.21 2.00 365.00 2546.48
   13:42:32.200.25-Dec-2020 4921.01   32.30 66.21 2.00 365.20 2546.48
   13:42:32.400.25-Dec-2020 4921.01   32.29 66.21 2.00 365.40 2546.48
   13:42:32.600.25-Dec-2020 4921.01   32.33 66.21 2.00 365.60 2546.48
   13:42:32.800.25-Dec-2020 4921.01   32.32 66.21 2.00 365.80 2546.48
   13:42:33.000.25-Dec-2020 4921.01   32.33 66.21 2.00 366.00 2546.48
   13:42:33.200.25-Dec-2020 4921.01   32.32 66.21 2.00 366.20 2546.48
   13:42:33.400.25-Dec-2020 4921.01   32.34 66.21 2.00 366.40 2546.48
   13:42:33.600.25-Dec-2020 4921.01   32.36 66.21 2.00 366.60 2546.48
   13:42:33.800.25-Dec-2020 4921.01   32.36 66.21 2.00 366.80 2546.48
   13:42:34.000.25-Dec-2020 4921.01   32.36 66.21 2.00 367.00 2546.48
   13:42:34.200.25-Dec-2020 4921.01   32.36 66.21 2.00 367.20 2546.48
   13:42:34.400.25-Dec-2020 4921.01   32.39 66.21 2.00 367.40 2546.48
   13:42:34.600.25-Dec-2020 4921.01   32.39 66.21 2.00 367.60 2546.48
   13:42:34.800.25-Dec-2020 4921.01   32.39 66.21 2.00 367.80 2546.48
