~Version Information
 VERS.                  2.0:   CWLS log ASCII Standard -VERSION 2.0
 WRAP.                   NO:   One line per depth step
~Well Information Block
#MNEM.UNIT     VALUE/NAME     DESCRIPTION
#---------     -----------    ---------------------------
 STRT.S             12:53:37 25-Dec-20: START TIME 12:53:37 25-Dec-20
 STOP.S             13:01:52 25-Dec-20: STOP TIME  13:01:52 25-Dec-20
 STEP.S                   0.00: STEP TIME
 NULL.                 -999.25: NULL VALUE
 DFWT.                        :  DIST FWL TEXT
 DFST.                        :  DIST FSL TEXT
 DMF .             Drill Floor:  DRILL MEAS FROM
 STIM.      04.54.24 22-Sep-20:  START TIME
 DATE.      04.54.24 21-Nov-20:  END TIME
 SPUD.               21-Nov-20:  SPUD DATE
 NREF.                    Grid:  NORTH REFERENCE
 HPTY.       Minimum Curvature:  HOLE POS TYPE
 DMOD.             Drill Model:  DRILL MOD DESC
 SVYD.                  Survey:  SURVEY DESC
 ILTD.               Lithology:  INTERP LTH DESC
 FTOP.          Formation Tops:  FORM TOPS DESC
 SON .        AZ-XX-0906571587:  JOB NUMBER
 COMP.     BP Exploration (Caspian Sea) Ltd:  COMPANY
 UWI .                     N/A:  UNIQUE WELL IDENTIFIER
 API .                     N/A:  API NUMBER
 BASE.              Azerbaijan:  LOGGING EQUIPMENT BASE LOCATION
 REGN.                   EESSA:  REGION
 PROV.                    Baku:  PROVINCE
 STAT.                    Baku:  STATE NAME
 CTRY.              Azerbaijan:  COUNTRY NAME
 FLD .                     ACG:  FIELD NAME
 SRVC.     TURAN Drilling & Engineering:  CONTRACTOR
 WELL.                     J27:  WELL NAME
 RIG .             West Chirag:  RIG NAME
 DOE .                     N/A:  DOE NUMBER
 DCON.         Sperry Drilling:  DIRECTNL CONTR
 PDAT.          Mean Sea Level:  PERMANENT DATUM
 WTYP.                Deviated:  WELL TYPE
 MWDS.                    Baku:  MWD SHOP
 JOBN.        AZ-XX-0906571587:  JOB TICKET NUMB
 UNIT.                     N/A:  LOGGING EQUIPMENT ID
 MDS .        Operator Entered:  MAG DATA SOURCE
 CNTY.                        :  COUNTY
 LOC .                        :  LOCATION
 LMF .             Drill Floor:  LOG MEASURED FROM
 TVDS.m                  43.00:  TVDSS CORRECTN
 LATI.deg                40.13:  LATITUDE
 LONG.deg                51.22:  LONGITUDE
 WHNS.m                   7.72:  WELL HEAD N/S
 WHEW.m                 -14.24:  WELL HEAD E/W
 UTMX.m              519005.06:  UTM X
 UTMY.m             4443793.85:  UTM Y
 DFWL.m                   0.00:  DISTANCE FWL
 DFSL.m                   0.00:  DISTANCE FSL
 SDEP.m                 347.00:  START DEPTH
 TDD .m                 581.00:  TOTAL DEPTH (DRILLER)
 VSDR.deg               159.72:  VERT SEC DIRECT
 GVFD.g                   1.00:  GRAVITY FIELD
 MFLD.nT              50318.00:  MAGNETIC FIELD
 MDIP.deg                59.57:  MAGNETIC DIP
 MDEC.deg                 6.44:  MAGNETIC DECL
 GRDC.deg                 0.15:  GRID CORRECTION
 AZTC.deg                 6.29:  AZM TOTAL CORR
 EPD .m                   0.00:  ELEVATION
 EGL .m                   0.00:  GROUND ELEVATION
 WDMS.m                 169.80:  WD ELEV
 APD .m                  43.00:  DEPTH ABOVE PD
 AGAP.m                  43.00:  AIR GAP
 VSEW.m                 -14.24:  VERT SEC E/W
 VSNS.m                   7.72:  VERT SEC N/S
 DEP .m                 342.45:  DEPTH
 EKB .m                   0.00:  KB ELEVATION
 EDF .m                  43.00:  DF ELEVATION
 TDL .m                 237.00:  TOTAL DEPTH (LOGGER)
 VSC .                       0:  VS TO CLOSURE
 MAGU.                 1851428:  MAGUTM CHECKSUM
~Parameter Information Block
#MNEM.UNIT       Value        Description
#---------     -----------    ---------------------------
 AV  .mps                 1.50:  Ann Velocity 
 AVMX.mps                 2.90:  Max Ann Veloc 
 AZIF.deg               115.59:  Azm, Final 
 BHAT.        Rotary Steerable:  BHA Type 
 BROT.°/30m               0.50:  Build Rotating 
 BS  .in                  8.50:  Bit Size 
 BTPL.psig              580.00:  Bit Press Loss 
 CABU.                     Yes:  Customer Abuse 
 COMM.                     LÓw:  Run Comments 1 
 TCS .hr                 89.79:  Time Ciculation Ended 
 CV  .mps                 3.22:  Crit Velocity 
 CVMX.mps                 4.37:  Max Crit Veloc 
 DD1 .          Rashad Habibov:  Direct Drillr 1 
 DDSV.               Geo-Pilot:  DD Service 
 DEFF.%                  95.00:  % Det Eff 
 DLRX.°/30m               1.94:  Dogleg Rot Max 
 DLSO.°/30m               0.70:  Dogleg Oriented 
 DLSX.°/30m               1.94:  Dogleg Str Max 
 DRET.      04.45.00 25-Dec-20:  Drill End Time 
 DRST.      10.00.00 24-Dec-20:  Drill Start Tim 
 DTIM.hr                 16.64:  Time Drilling 
 EDEP.m                4999.01:  End Depth 
 ENG1.         Elchin Mammadov:  Engineer 1 
 ENG2.          Ruslan Safarov:  Engineer 2 
 ENG3.          Rustam Safarov:  Engineer 3 
 ETIM.      09.00.00 29-Dec-20:  End Time 
 FLOI.gpm               500.00:  Flow In 
 FLON.gpm               400.00:  Flow In Min 
 FLOS.cptm                0.00:  Fluid Loss 
 FLOX.gpm               500.00:  Flow In Max 
 HFLO.                      No:  High Flow 
 HPRE.                      No:  High Pressure 
 HTEM.                      No:  High Temp 
 HYDO.m                   2.00:  Hydro Offset 
 IFIN.deg                66.79:  Inc, Final 
 IMAX.deg                67.66:  Inc Max 
 IMIN.deg                66.39:  Inc Min 
 IMND.m                4949.37:  Inc Min Depth 
 IMXD.m                4778.63:  Inc Max Depth 
 JARR.                     Yes:  Jarring 
 LETM.      04.45.00 25-Dec-20:  Log End Time 
 LOST.hr                     0:  Lost Rig Time 
 LSTM.      10.00.00 24-Dec-20:  Log Start Time 
 MDCL.ppm             39000.00:  Mud Chlorides 
 MDES.     Inversion Oil/Synthetic:  Mud Desc 
 DFD .sg                  1.33:  Mud Density 
 MDMN.sg                  1.33:  Dens Mud Min 
 MDMX.sg                  1.33:  Dens Mud Max 
 MOIL.                      70:  Run Mud Oil % 
 MOWR.                   70:30:  Run Mud OWR 
 MSND.                       0:  Run Mud Sand % 
 MSOL.                    17.4:  Run Mud Solids% 
 DFV .spqt               84.00:  Mud Viscosity 
 MWOD.in                  6.75:  MWD Tool OD 
 MWSI.                     Yes:  Serv Intrp, MWD 
 OTIM.hr                168.14:  Time Operating 
 PCON.           Look Like New:  Pad Condition 
 PMAX.psia            10822.93:  Press Op, Max 
 PV  .cP                 30.00:  Mud PV 
 RUN .                     900:  Run Number 
 ROPA.m/hr               18.00:  ROP Avg 
 ROPN.m/hr               12.00:  ROP Min 
 ROPX.m/hr               25.00:  ROP Max 
 RPMA.rpm               120.00:  RPM Surface Avg 
 RPMN.rpm               100.00:  RPM Surface Min 
 RPMX.rpm               120.00:  RPM Surface Max 
 RRUN.                    0900:  Rig Run Number 
 SAZI.deg               115.08:  Azm, Start 
 SDEP.m                4762.01:  Start Depth 
 SIDD.                      No:  Serv Intrp, DD 
 SINC.deg                66.14:  Inc, Start 
 SPPA.psig             3700.00:  SPP Avg 
 SPPN.psig             3620.00:  SPP Min 
 SPPX.psig             3900.00:  SPP Max 
 STIM.      09.30.00 22-Dec-20:  Start Time 
 SVCS.                 DD, MWD:  Services 
 SVER.                    9.20:  Sperry Version 
 TDAT.m                 237.00:  Tot Depth Attmp 
 TDDF.                      No:  Trip for DD 
 TDLG.m                 237.00:  Tot Depth Loggd 
 TFF .                      No:  Trip for Fail 
 TQAA.f-kp               18.00:  Torque Abs Avg 
 TQAN.f-kp               17.00:  Torque Abs Min 
 TQAX.f-kp               20.00:  Torque Abs Max 
 TRRT.°/30m               0.60:  Turn Rotating 
 MRT .                    HCIM:  Maximum Recorded Temperature 
 TTMX.degC               94.12:  Max Tool Temp 
 VS01.                90627809:  Virtual Str1 SN 
 VS02.                90527813:  Virtual Str2 SN 
 VS03.                90545417:  Virtual Str3 SN 
 VS04.                12460870:  Virtual Str4 SN 
 VS05.                90516706:  Virtual Str5 SN 
 VS06.                90632007:  Virtual Str6 SN 
 WBMN.klb                 0.00:  WOB Min 
 WOBA.klb                14.00:  WOB Avg 
 WOBX.klb                25.00:  WOB Max 
 YP  .lhf2               32.00:  Yield Point 
~Curve Information Block
#MNEM.UNIT                 API CODE     Curve Description
#---------               -----------    ---------------------------
 TIME.HHMMSS            00 000 000 000:  GT Time & Date
 GTDEPTH.m              00 000 000 000:  GT Depth
 GTPQH.psia             00 000 000 000:  GT HR Quartz Pressure
 GTTQ.degC              00 000 000 000:  GT Quartz Temperature
 GTTN.NONE              00 000 000 000:  GT Test Number
 GTET.sec               00 000 000 000:  GT Elapsed Test Time
 GTTVD.m                00 000 000 000:  GT True Vertical Depth
#Other Information
#
#WARRANTY: Halliburton will use its best efforts to furnish customers with 
#accurate information and interpretations that are part of, and incident to, the services 
#provided.  However, Halliburton cannot and does not warrant the accuracy 
#or correctness of such information and interpretations.  Under no circumstances should any 
#such information or interpretation be relied upon as the sole basis for any drilling, 
#completion, production, or financial decision or any procedure involving any risk to the 
#safety of any drilling venture, drilling rig or its crew or any other third party.  The 
#Customer has full responsibility for all drilling, completion and production operation.  
#Halliburton makes no representations or warranties, either expressed or 
#implied, including, but not limited to, the implied warranties of merchantability or fitness 
#for a particular purpose, with respect to the services rendered.  In no event will 
#Halliburton be liable for failure to obtain any particular results or for 
#any damages, including, but not limited to, indirect, special or consequential damages, 
#resulting from the use of any information or interpretation provided by Halliburton.
#
~A           TIME           GTDEPTH  GTPQH  GTTQ  GTTN  GTET   GTTVD  
# ...
   13:00:08.361.25-Dec-2020 4950.51 2091.19 66.57 1.00 391.18 2558.08
   13:00:08.561.25-Dec-2020 4950.51 2091.19 66.57 1.00 391.38 2558.08
   13:00:08.761.25-Dec-2020 4950.51 2090.93 66.57 1.00 391.58 2558.08
   13:00:08.961.25-Dec-2020 4950.51 2091.39 66.57 1.00 391.78 2558.08
   13:00:09.161.25-Dec-2020 4950.51 2091.33 66.57 1.00 391.98 2558.08
   13:00:09.361.25-Dec-2020 4950.51 2091.28 66.57 1.00 392.18 2558.08
   13:00:09.561.25-Dec-2020 4950.51 2091.37 66.57 1.00 392.38 2558.08
   13:00:09.762.25-Dec-2020 4950.51 2091.26 66.57 1.00 392.58 2558.08
   13:00:09.962.25-Dec-2020 4950.51 2091.33 66.57 1.00 392.78 2558.08
   13:00:10.162.25-Dec-2020 4950.51 2091.22 66.57 1.00 392.98 2558.08
   13:00:10.362.25-Dec-2020 4950.51 2091.24 66.57 1.00 393.18 2558.08
   13:00:10.562.25-Dec-2020 4950.51 2091.24 66.57 1.00 393.38 2558.08
   13:00:10.762.25-Dec-2020 4950.51 2091.26 66.57 1.00 393.58 2558.08
   13:00:10.962.25-Dec-2020 4950.51 2091.29 66.57 1.00 393.78 2558.08
   13:00:11.162.25-Dec-2020 4950.51 2090.66 66.57 1.00 393.98 2558.08
   13:00:11.362.25-Dec-2020 4950.51 2091.67 66.57 1.00 394.18 2558.08
   13:00:11.562.25-Dec-2020 4950.51 2091.67 66.57 1.00 394.38 2558.08
   13:00:11.762.25-Dec-2020 4950.51 2091.28 66.57 1.00 394.58 2558.08
   13:00:11.963.25-Dec-2020 4950.51 2090.69 66.57 1.00 394.78 2558.08
   13:00:12.163.25-Dec-2020 4950.51 2091.61 66.57 1.00 394.98 2558.08
   13:00:12.363.25-Dec-2020 4950.51 2091.37 66.57 1.00 395.18 2558.08
   13:00:12.563.25-Dec-2020 4950.51 2091.37 66.57 1.00 395.38 2558.08
   13:00:12.763.25-Dec-2020 4950.51 2091.40 66.57 1.00 395.58 2558.08
   13:00:12.963.25-Dec-2020 4950.51 2091.38 66.57 1.00 395.78 2558.08
   13:00:13.163.25-Dec-2020 4950.51 2090.91 66.57 1.00 395.98 2558.08
   13:00:13.363.25-Dec-2020 4950.51 2091.78 66.57 1.00 396.18 2558.08
   13:00:13.563.25-Dec-2020 4950.51 2091.78 66.57 1.00 396.38 2558.08
   13:00:13.763.25-Dec-2020 4950.51 2091.64 66.57 1.00 396.58 2558.08
   13:00:13.963.25-Dec-2020 4950.51 2091.26 66.57 1.00 396.78 2558.08
   13:00:14.164.25-Dec-2020 4950.51 2091.12 66.57 1.00 396.98 2558.08
   13:00:14.364.25-Dec-2020 4950.51 2091.33 66.57 1.00 397.18 2558.08
   13:00:14.564.25-Dec-2020 4950.51 2091.33 66.57 1.00 397.38 2558.08
   13:00:14.764.25-Dec-2020 4950.51 2091.30 66.57 1.00 397.58 2558.08
   13:00:14.964.25-Dec-2020 4950.51 2091.25 66.57 1.00 397.78 2558.08
   13:00:15.164.25-Dec-2020 4950.51 2091.32 66.57 1.00 397.98 2558.08
   13:00:15.364.25-Dec-2020 4950.51 2091.26 66.57 1.00 398.18 2558.08
   13:00:15.564.25-Dec-2020 4950.51 2091.26 66.57 1.00 398.38 2558.08
   13:00:15.764.25-Dec-2020 4950.51 2091.03 66.57 1.00 398.58 2558.08
   13:00:15.964.25-Dec-2020 4950.51 2091.56 66.57 1.00 398.78 2558.08
   13:00:16.164.25-Dec-2020 4950.51 2091.48 66.57 1.00 398.98 2558.08
   13:00:16.365.25-Dec-2020 4950.51 2091.32 66.57 1.00 399.18 2558.08
   13:00:16.565.25-Dec-2020 4950.51 2091.32 66.57 1.00 399.38 2558.08
   13:00:16.765.25-Dec-2020 4950.51 2091.42 66.57 1.00 399.58 2558.08
   13:00:16.965.25-Dec-2020 4950.51 2091.49 66.57 1.00 399.78 2558.08
   13:00:17.165.25-Dec-2020 4950.51 2091.32 66.57 1.00 399.98 2558.08
   13:00:17.365.25-Dec-2020 4950.51 2091.32 66.57 1.00 400.18 2558.08
   13:00:17.565.25-Dec-2020 4950.51 2091.32 66.57 1.00 400.38 2558.08
   13:00:17.765.25-Dec-2020 4950.51 2091.37 66.57 1.00 400.58 2558.08
   13:00:17.965.25-Dec-2020 4950.51 2091.35 66.57 1.00 400.78 2558.08
   13:00:18.165.25-Dec-2020 4950.51 2090.81 66.57 1.00 400.98 2558.08
   13:00:18.365.25-Dec-2020 4950.51 2091.72 66.57 1.00 401.18 2558.08
   13:00:18.565.25-Dec-2020 4950.51 2091.72 66.57 1.00 401.38 2558.08
   13:00:18.766.25-Dec-2020 4950.51 2091.36 66.57 1.00 401.58 2558.08
   13:00:18.966.25-Dec-2020 4950.51 2090.79 66.57 1.00 401.78 2558.08
   13:00:19.166.25-Dec-2020 4950.51 2091.75 66.57 1.00 401.98 2558.08
   13:00:19.366.25-Dec-2020 4950.51 2091.51 66.57 1.00 402.18 2558.08
   13:00:19.566.25-Dec-2020 4950.51 2091.51 66.57 1.00 402.38 2558.08
   13:00:19.766.25-Dec-2020 4950.51 2091.55 66.57 1.00 402.58 2558.08
   13:00:19.966.25-Dec-2020 4950.51 2091.47 66.57 1.00 402.78 2558.08
   13:00:20.166.25-Dec-2020 4950.51 2090.96 66.57 1.00 402.98 2558.08
   13:00:20.366.25-Dec-2020 4950.51 2091.86 66.57 1.00 403.18 2558.08
   13:00:20.566.25-Dec-2020 4950.51 2091.86 66.57 1.00 403.38 2558.08
   13:00:20.766.25-Dec-2020 4950.51 2091.67 66.57 1.00 403.58 2558.08
   13:00:20.967.25-Dec-2020 4950.51 2091.33 66.56 1.00 403.78 2558.08
   13:00:21.167.25-Dec-2020 4950.51 2091.23 66.56 1.00 403.98 2558.08
   13:00:21.367.25-Dec-2020 4950.51 2091.38 66.56 1.00 404.18 2558.08
   13:00:21.567.25-Dec-2020 4950.51 2091.38 66.56 1.00 404.38 2558.08
   13:00:21.767.25-Dec-2020 4950.51 2091.39 66.56 1.00 404.58 2558.08
   13:00:21.967.25-Dec-2020 4950.51 2091.37 66.56 1.00 404.78 2558.08
   13:00:22.167.25-Dec-2020 4950.51 2091.38 66.56 1.00 404.98 2558.08
   13:00:22.367.25-Dec-2020 4950.51 2091.37 66.56 1.00 405.18 2558.08
   13:00:22.567.25-Dec-2020 4950.51 2091.37 66.56 1.00 405.38 2558.08
   13:00:22.767.25-Dec-2020 4950.51 2091.13 66.56 1.00 405.58 2558.08
   13:00:22.967.25-Dec-2020 4950.51 2091.56 66.56 1.00 405.78 2558.08
   13:00:23.168.25-Dec-2020 4950.51 2091.61 66.56 1.00 405.98 2558.08
   13:00:23.368.25-Dec-2020 4950.51 2091.47 66.56 1.00 406.18 2558.08
   13:00:23.568.25-Dec-2020 4950.51 2091.47 66.56 1.00 406.38 2558.08
   13:00:23.768.25-Dec-2020 4950.51 2091.43 66.56 1.00 406.58 2558.08
   13:00:23.968.25-Dec-2020 4950.51 2091.50 66.56 1.00 406.78 2558.08
   13:00:24.168.25-Dec-2020 4950.51 2091.43 66.56 1.00 406.98 2558.08
   13:00:24.368.25-Dec-2020 4950.51 2091.41 66.56 1.00 407.18 2558.08
   13:00:24.568.25-Dec-2020 4950.51 2091.41 66.56 1.00 407.38 2558.08
   13:00:24.768.25-Dec-2020 4950.51 2091.46 66.56 1.00 407.58 2558.08
   13:00:24.968.25-Dec-2020 4950.51 2091.44 66.56 1.00 407.78 2558.08
   13:00:25.168.25-Dec-2020 4950.51 2090.85 66.56 1.00 407.98 2558.08
   13:00:25.369.25-Dec-2020 4950.51 2091.80 66.56 1.00 408.18 2558.08
   13:00:25.569.25-Dec-2020 4950.51 2091.80 66.56 1.00 408.38 2558.08
   13:00:25.769.25-Dec-2020 4950.51 2091.52 66.56 1.00 408.58 2558.08
   13:00:25.969.25-Dec-2020 4950.51 2090.84 66.56 1.00 408.78 2558.08
   13:00:26.169.25-Dec-2020 4950.51 2091.84 66.56 1.00 408.98 2558.08
   13:00:26.369.25-Dec-2020 4950.51 2091.63 66.56 1.00 409.18 2558.08
   13:00:26.569.25-Dec-2020 4950.51 2091.63 66.56 1.00 409.38 2558.08
   13:00:26.769.25-Dec-2020 4950.51 2091.62 66.56 1.00 409.58 2558.08
   13:00:26.969.25-Dec-2020 4950.51 2091.62 66.56 1.00 409.78 2558.08
   13:00:27.169.25-Dec-2020 4950.51 2091.10 66.56 1.00 409.98 2558.08
   13:00:27.369.25-Dec-2020 4950.51 2091.95 66.56 1.00 410.18 2558.08
   13:00:27.570.25-Dec-2020 4950.51 2091.95 66.56 1.00 410.38 2558.08
   13:00:27.770.25-Dec-2020 4950.51 2091.82 66.56 1.00 410.59 2558.08
   13:00:27.970.25-Dec-2020 4950.51 2091.42 66.56 1.00 410.79 2558.08
   13:00:28.170.25-Dec-2020 4950.51 2091.34 66.56 1.00 410.99 2558.08
   13:00:28.370.25-Dec-2020 4950.51 2091.49 66.56 1.00 411.19 2558.08
   13:00:28.570.25-Dec-2020 4950.51 2091.49 66.56 1.00 411.39 2558.08
   13:00:28.770.25-Dec-2020 4950.51 2091.51 66.56 1.00 411.59 2558.08
   13:00:28.970.25-Dec-2020 4950.51 2091.43 66.56 1.00 411.79 2558.08
   13:00:29.170.25-Dec-2020 4950.51 2091.47 66.56 1.00 411.99 2558.08
   13:00:29.370.25-Dec-2020 4950.51 2091.43 66.56 1.00 412.19 2558.08
   13:00:29.570.25-Dec-2020 4950.51 2091.43 66.56 1.00 412.39 2558.08
   13:00:29.771.25-Dec-2020 4950.51 2091.23 66.56 1.00 412.59 2558.08
   13:00:29.971.25-Dec-2020 4950.51 2091.66 66.56 1.00 412.79 2558.08
   13:00:30.171.25-Dec-2020 4950.51 2091.68 66.56 1.00 412.99 2558.08
   13:00:30.371.25-Dec-2020 4950.51 2091.52 66.56 1.00 413.19 2558.08
   13:00:30.571.25-Dec-2020 4950.51 2091.52 66.56 1.00 413.39 2558.08
   13:00:30.771.25-Dec-2020 4950.51 2091.48 66.56 1.00 413.59 2558.08
   13:00:30.971.25-Dec-2020 4950.51 2091.58 66.56 1.00 413.79 2558.08
   13:00:31.171.25-Dec-2020 4950.51 2091.53 66.56 1.00 413.99 2558.08
