~Version Information
 VERS.                  2.0:   CWLS log ASCII Standard -VERSION 2.0
 WRAP.                   NO:   One line per depth step
~Well Information Block
#MNEM.UNIT     VALUE/NAME     DESCRIPTION
#---------     -----------    ---------------------------
 STRT.S             13:59:04 25-Dec-20: START TIME 13:59:04 25-Dec-20
 STOP.S             14:07:22 25-Dec-20: STOP TIME  14:07:22 25-Dec-20
 STEP.S                   0.00: STEP TIME
 NULL.                 -999.25: NULL VALUE
 DFWT.                        :  DIST FWL TEXT
 DFST.                        :  DIST FSL TEXT
 DMF .             Drill Floor:  DRILL MEAS FROM
 STIM.      04.54.24 22-Sep-20:  START TIME
 DATE.      04.54.24 21-Nov-20:  END TIME
 SPUD.               21-Nov-20:  SPUD DATE
 NREF.                    Grid:  NORTH REFERENCE
 HPTY.       Minimum Curvature:  HOLE POS TYPE
 DMOD.             Drill Model:  DRILL MOD DESC
 SVYD.                  Survey:  SURVEY DESC
 ILTD.               Lithology:  INTERP LTH DESC
 FTOP.          Formation Tops:  FORM TOPS DESC
 SON .        AZ-XX-0906571587:  JOB NUMBER
 COMP.     BP Exploration (Caspian Sea) Ltd:  COMPANY
 UWI .                     N/A:  UNIQUE WELL IDENTIFIER
 API .                     N/A:  API NUMBER
 BASE.              Azerbaijan:  LOGGING EQUIPMENT BASE LOCATION
 REGN.                   EESSA:  REGION
 PROV.                    Baku:  PROVINCE
 STAT.                    Baku:  STATE NAME
 CTRY.              Azerbaijan:  COUNTRY NAME
 FLD .                     ACG:  FIELD NAME
 SRVC.     TURAN Drilling & Engineering:  CONTRACTOR
 WELL.                     J27:  WELL NAME
 RIG .             West Chirag:  RIG NAME
 DOE .                     N/A:  DOE NUMBER
 DCON.         Sperry Drilling:  DIRECTNL CONTR
 PDAT.          Mean Sea Level:  PERMANENT DATUM
 WTYP.                Deviated:  WELL TYPE
 MWDS.                    Baku:  MWD SHOP
 JOBN.        AZ-XX-0906571587:  JOB TICKET NUMB
 UNIT.                     N/A:  LOGGING EQUIPMENT ID
 MDS .        Operator Entered:  MAG DATA SOURCE
 CNTY.                        :  COUNTY
 LOC .                        :  LOCATION
 LMF .             Drill Floor:  LOG MEASURED FROM
 TVDS.m                  43.00:  TVDSS CORRECTN
 LATI.deg                40.13:  LATITUDE
 LONG.deg                51.22:  LONGITUDE
 WHNS.m                   7.72:  WELL HEAD N/S
 WHEW.m                 -14.24:  WELL HEAD E/W
 UTMX.m              519005.06:  UTM X
 UTMY.m             4443793.85:  UTM Y
 DFWL.m                   0.00:  DISTANCE FWL
 DFSL.m                   0.00:  DISTANCE FSL
 SDEP.m                 347.00:  START DEPTH
 TDD .m                 581.00:  TOTAL DEPTH (DRILLER)
 VSDR.deg               159.72:  VERT SEC DIRECT
 GVFD.g                   1.00:  GRAVITY FIELD
 MFLD.nT              50318.00:  MAGNETIC FIELD
 MDIP.deg                59.57:  MAGNETIC DIP
 MDEC.deg                 6.44:  MAGNETIC DECL
 GRDC.deg                 0.15:  GRID CORRECTION
 AZTC.deg                 6.29:  AZM TOTAL CORR
 EPD .m                   0.00:  ELEVATION
 EGL .m                   0.00:  GROUND ELEVATION
 WDMS.m                 169.80:  WD ELEV
 APD .m                  43.00:  DEPTH ABOVE PD
 AGAP.m                  43.00:  AIR GAP
 VSEW.m                 -14.24:  VERT SEC E/W
 VSNS.m                   7.72:  VERT SEC N/S
 DEP .m                 342.45:  DEPTH
 EKB .m                   0.00:  KB ELEVATION
 EDF .m                  43.00:  DF ELEVATION
 TDL .m                 237.00:  TOTAL DEPTH (LOGGER)
 VSC .                       0:  VS TO CLOSURE
 MAGU.                 1851428:  MAGUTM CHECKSUM
~Parameter Information Block
#MNEM.UNIT       Value        Description
#---------     -----------    ---------------------------
 AV  .mps                 1.50:  Ann Velocity 
 AVMX.mps                 2.90:  Max Ann Veloc 
 AZIF.deg               115.59:  Azm, Final 
 BHAT.        Rotary Steerable:  BHA Type 
 BROT.°/30m               0.50:  Build Rotating 
 BS  .in                  8.50:  Bit Size 
 BTPL.psig              580.00:  Bit Press Loss 
 CABU.                     Yes:  Customer Abuse 
 COMM.                     ì©q:  Run Comments 1 
 TCS .hr                 89.79:  Time Ciculation Ended 
 CV  .mps                 3.22:  Crit Velocity 
 CVMX.mps                 4.37:  Max Crit Veloc 
 DD1 .          Rashad Habibov:  Direct Drillr 1 
 DDSV.               Geo-Pilot:  DD Service 
 DEFF.%                  95.00:  % Det Eff 
 DLRX.°/30m               1.94:  Dogleg Rot Max 
 DLSO.°/30m               0.70:  Dogleg Oriented 
 DLSX.°/30m               1.94:  Dogleg Str Max 
 DRET.      04.45.00 25-Dec-20:  Drill End Time 
 DRST.      10.00.00 24-Dec-20:  Drill Start Tim 
 DTIM.hr                 16.64:  Time Drilling 
 EDEP.m                4999.01:  End Depth 
 ENG1.         Elchin Mammadov:  Engineer 1 
 ENG2.          Ruslan Safarov:  Engineer 2 
 ENG3.          Rustam Safarov:  Engineer 3 
 ETIM.      09.00.00 29-Dec-20:  End Time 
 FLOI.gpm               500.00:  Flow In 
 FLON.gpm               400.00:  Flow In Min 
 FLOS.cptm                0.00:  Fluid Loss 
 FLOX.gpm               500.00:  Flow In Max 
 HFLO.                      No:  High Flow 
 HPRE.                      No:  High Pressure 
 HTEM.                      No:  High Temp 
 HYDO.m                   2.00:  Hydro Offset 
 IFIN.deg                66.79:  Inc, Final 
 IMAX.deg                67.66:  Inc Max 
 IMIN.deg                66.39:  Inc Min 
 IMND.m                4949.37:  Inc Min Depth 
 IMXD.m                4778.63:  Inc Max Depth 
 JARR.                     Yes:  Jarring 
 LETM.      04.45.00 25-Dec-20:  Log End Time 
 LOST.hr                     0:  Lost Rig Time 
 LSTM.      10.00.00 24-Dec-20:  Log Start Time 
 MDCL.ppm             39000.00:  Mud Chlorides 
 MDES.     Inversion Oil/Synthetic:  Mud Desc 
 DFD .sg                  1.33:  Mud Density 
 MDMN.sg                  1.33:  Dens Mud Min 
 MDMX.sg                  1.33:  Dens Mud Max 
 MOIL.                      70:  Run Mud Oil % 
 MOWR.                   70:30:  Run Mud OWR 
 MSND.                       0:  Run Mud Sand % 
 MSOL.                    17.4:  Run Mud Solids% 
 DFV .spqt               84.00:  Mud Viscosity 
 MWOD.in                  6.75:  MWD Tool OD 
 MWSI.                     Yes:  Serv Intrp, MWD 
 OTIM.hr                168.14:  Time Operating 
 PCON.           Look Like New:  Pad Condition 
 PMAX.psia            10822.93:  Press Op, Max 
 PV  .cP                 30.00:  Mud PV 
 RUN .                     900:  Run Number 
 ROPA.m/hr               18.00:  ROP Avg 
 ROPN.m/hr               12.00:  ROP Min 
 ROPX.m/hr               25.00:  ROP Max 
 RPMA.rpm               120.00:  RPM Surface Avg 
 RPMN.rpm               100.00:  RPM Surface Min 
 RPMX.rpm               120.00:  RPM Surface Max 
 RRUN.                    0900:  Rig Run Number 
 SAZI.deg               115.08:  Azm, Start 
 SDEP.m                4762.01:  Start Depth 
 SIDD.                      No:  Serv Intrp, DD 
 SINC.deg                66.14:  Inc, Start 
 SPPA.psig             3700.00:  SPP Avg 
 SPPN.psig             3620.00:  SPP Min 
 SPPX.psig             3900.00:  SPP Max 
 STIM.      09.30.00 22-Dec-20:  Start Time 
 SVCS.                 DD, MWD:  Services 
 SVER.                    9.20:  Sperry Version 
 TDAT.m                 237.00:  Tot Depth Attmp 
 TDDF.                      No:  Trip for DD 
 TDLG.m                 237.00:  Tot Depth Loggd 
 TFF .                      No:  Trip for Fail 
 TQAA.f-kp               18.00:  Torque Abs Avg 
 TQAN.f-kp               17.00:  Torque Abs Min 
 TQAX.f-kp               20.00:  Torque Abs Max 
 TRRT.°/30m               0.60:  Turn Rotating 
 MRT .                    HCIM:  Maximum Recorded Temperature 
 TTMX.degC               94.12:  Max Tool Temp 
 VS01.                90627809:  Virtual Str1 SN 
 VS02.                90527813:  Virtual Str2 SN 
 VS03.                90545417:  Virtual Str3 SN 
 VS04.                12460870:  Virtual Str4 SN 
 VS05.                90516706:  Virtual Str5 SN 
 VS06.                90632007:  Virtual Str6 SN 
 WBMN.klb                 0.00:  WOB Min 
 WOBA.klb                14.00:  WOB Avg 
 WOBX.klb                25.00:  WOB Max 
 YP  .lhf2               32.00:  Yield Point 
~Curve Information Block
#MNEM.UNIT                 API CODE     Curve Description
#---------               -----------    ---------------------------
 TIME.HHMMSS            00 000 000 000:  GT Time & Date
 GTDEPTH.m              00 000 000 000:  GT Depth
 GTPQH.psia             00 000 000 000:  GT HR Quartz Pressure
 GTTQ.degC              00 000 000 000:  GT Quartz Temperature
 GTTN.NONE              00 000 000 000:  GT Test Number
 GTET.sec               00 000 000 000:  GT Elapsed Test Time
 GTTVD.m                00 000 000 000:  GT True Vertical Depth
#Other Information
#
#WARRANTY: Halliburton will use its best efforts to furnish customers with 
#accurate information and interpretations that are part of, and incident to, the services 
#provided.  However, Halliburton cannot and does not warrant the accuracy 
#or correctness of such information and interpretations.  Under no circumstances should any 
#such information or interpretation be relied upon as the sole basis for any drilling, 
#completion, production, or financial decision or any procedure involving any risk to the 
#safety of any drilling venture, drilling rig or its crew or any other third party.  The 
#Customer has full responsibility for all drilling, completion and production operation.  
#Halliburton makes no representations or warranties, either expressed or 
#implied, including, but not limited to, the implied warranties of merchantability or fitness 
#for a particular purpose, with respect to the services rendered.  In no event will 
#Halliburton be liable for failure to obtain any particular results or for 
#any damages, including, but not limited to, indirect, special or consequential damages, 
#resulting from the use of any information or interpretation provided by Halliburton.
#
~A           TIME           GTDEPTH  GTPQH  GTTQ  GTTN  GTET   GTTVD  
# ...
   14:01:45.000.25-Dec-2020 4920.01 2664.58 65.74 3.00 161.00 2546.09
   14:01:45.200.25-Dec-2020 4920.01 2664.58 65.74 3.00 161.20 2546.09
   14:01:45.400.25-Dec-2020 4920.01 2664.60 65.74 3.00 161.40 2546.09
   14:01:45.600.25-Dec-2020 4920.01 2664.58 65.74 3.00 161.60 2546.09
   14:01:45.800.25-Dec-2020 4920.01 2664.31 65.74 3.00 161.80 2546.09
   14:01:46.000.25-Dec-2020 4920.01 2665.19 65.74 3.00 162.00 2546.09
   14:01:46.200.25-Dec-2020 4920.01 2665.19 65.74 3.00 162.20 2546.09
   14:01:46.400.25-Dec-2020 4920.01 2664.31 65.74 3.00 162.40 2546.09
   14:01:46.600.25-Dec-2020 4920.01 2665.19 65.74 3.00 162.60 2546.09
   14:01:46.800.25-Dec-2020 4920.01 2664.44 65.74 3.00 162.80 2546.09
   14:01:47.000.25-Dec-2020 4920.01 2664.54 65.74 3.00 163.00 2546.09
   14:01:47.200.25-Dec-2020 4920.01 2664.52 65.74 3.00 163.20 2546.09
   14:01:47.400.25-Dec-2020 4920.01 2664.57 65.74 3.00 163.40 2546.09
   14:01:47.600.25-Dec-2020 4920.01 2664.59 65.74 3.00 163.60 2546.09
   14:01:47.800.25-Dec-2020 4920.01 2664.56 65.74 3.00 163.80 2546.09
   14:01:48.000.25-Dec-2020 4920.01 2664.58 65.74 3.00 164.00 2546.09
   14:01:48.200.25-Dec-2020 4920.01 2664.58 65.74 3.00 164.20 2546.09
   14:01:48.400.25-Dec-2020 4920.01 2664.59 65.74 3.00 164.40 2546.09
   14:01:48.600.25-Dec-2020 4920.01 2664.59 65.74 3.00 164.60 2546.09
   14:01:48.800.25-Dec-2020 4920.01 2664.59 65.74 3.00 164.80 2546.09
   14:01:49.000.25-Dec-2020 4920.01 2664.57 65.74 3.00 165.00 2546.09
   14:01:49.200.25-Dec-2020 4920.01 2664.57 65.74 3.00 165.20 2546.09
   14:01:49.400.25-Dec-2020 4920.01 2664.60 65.74 3.00 165.40 2546.09
   14:01:49.600.25-Dec-2020 4920.01 2664.61 65.74 3.00 165.60 2546.09
   14:01:49.800.25-Dec-2020 4920.01 2664.56 65.74 3.00 165.80 2546.09
   14:01:50.000.25-Dec-2020 4920.01 2664.57 65.74 3.00 166.00 2546.09
   14:01:50.200.25-Dec-2020 4920.01 2664.57 65.74 3.00 166.20 2546.09
   14:01:50.400.25-Dec-2020 4920.01 2664.55 65.74 3.00 166.40 2546.09
   14:01:50.600.25-Dec-2020 4920.01 2664.60 65.74 3.00 166.60 2546.09
   14:01:50.800.25-Dec-2020 4920.01 2664.59 65.74 3.00 166.80 2546.09
   14:01:51.000.25-Dec-2020 4920.01 2664.62 65.74 3.00 167.00 2546.09
   14:01:51.200.25-Dec-2020 4920.01 2664.59 65.74 3.00 167.20 2546.09
   14:01:51.400.25-Dec-2020 4920.01 2664.33 65.74 3.00 167.40 2546.09
   14:01:51.600.25-Dec-2020 4920.01 2665.18 65.74 3.00 167.60 2546.09
   14:01:51.800.25-Dec-2020 4920.01 2664.46 65.74 3.00 167.80 2546.09
   14:01:52.000.25-Dec-2020 4920.01 2664.56 65.74 3.00 168.00 2546.09
   14:01:52.200.25-Dec-2020 4920.01 2664.55 65.74 3.00 168.20 2546.09
   14:01:52.400.25-Dec-2020 4920.01 2664.76 65.74 3.00 168.40 2546.09
   14:01:52.600.25-Dec-2020 4920.01 2664.58 65.74 3.00 168.60 2546.09
   14:01:52.800.25-Dec-2020 4920.01 2664.54 65.74 3.00 168.80 2546.09
   14:01:53.000.25-Dec-2020 4920.01 2664.33 65.74 3.00 169.00 2546.09
   14:01:53.200.25-Dec-2020 4920.01 2664.33 65.74 3.00 169.20 2546.09
   14:01:53.400.25-Dec-2020 4920.01 2664.47 65.74 3.00 169.40 2546.09
   14:01:53.600.25-Dec-2020 4920.01 2664.29 65.74 3.00 169.60 2546.09
   14:01:53.800.25-Dec-2020 4920.01 2665.16 65.74 3.00 169.80 2546.09
   14:01:54.000.25-Dec-2020 4920.01 2664.47 65.74 3.00 170.00 2546.09
   14:01:54.200.25-Dec-2020 4920.01 2664.47 65.74 3.00 170.20 2546.09
   14:01:54.400.25-Dec-2020 4920.01 2664.51 65.74 3.00 170.40 2546.09
   14:01:54.600.25-Dec-2020 4920.01 2664.56 65.74 3.00 170.60 2546.09
   14:01:54.800.25-Dec-2020 4920.01 2664.53 65.74 3.00 170.80 2546.09
   14:01:55.000.25-Dec-2020 4920.01 2664.56 65.74 3.00 171.00 2546.09
   14:01:55.200.25-Dec-2020 4920.01 2664.56 65.74 3.00 171.20 2546.09
   14:01:55.400.25-Dec-2020 4920.01 2664.56 65.74 3.00 171.40 2546.09
   14:01:55.600.25-Dec-2020 4920.01 2664.59 65.74 3.00 171.60 2546.09
   14:01:55.800.25-Dec-2020 4920.01 2664.57 65.74 3.00 171.80 2546.09
   14:01:56.000.25-Dec-2020 4920.01 2664.58 65.74 3.00 172.00 2546.09
   14:01:56.200.25-Dec-2020 4920.01 2664.53 65.74 3.00 172.20 2546.09
   14:01:56.400.25-Dec-2020 4920.01 2664.76 65.74 3.00 172.40 2546.09
   14:01:56.600.25-Dec-2020 4920.01 2664.62 65.74 3.00 172.60 2546.09
   14:01:56.800.25-Dec-2020 4920.01 2664.59 65.74 3.00 172.80 2546.09
   14:01:57.000.25-Dec-2020 4920.01 2664.56 65.74 3.00 173.00 2546.09
   14:01:57.200.25-Dec-2020 4920.01 2664.56 65.74 3.00 173.20 2546.09
   14:01:57.400.25-Dec-2020 4920.01 2664.58 65.74 3.00 173.40 2546.09
   14:01:57.600.25-Dec-2020 4920.01 2664.57 65.73 3.00 173.60 2546.09
   14:01:57.800.25-Dec-2020 4920.01 2664.57 65.74 3.00 173.80 2546.09
   14:01:58.000.25-Dec-2020 4920.01 2664.60 65.73 3.00 174.00 2546.09
   14:01:58.200.25-Dec-2020 4920.01 2664.60 65.73 3.00 174.20 2546.09
   14:01:58.400.25-Dec-2020 4920.01 2664.57 65.73 3.00 174.40 2546.09
   14:01:58.600.25-Dec-2020 4920.01 2664.33 65.73 3.00 174.60 2546.09
   14:01:58.800.25-Dec-2020 4920.01 2665.17 65.73 3.00 174.80 2546.09
   14:01:59.000.25-Dec-2020 4920.01 2664.44 65.73 3.00 175.00 2546.09
   14:01:59.200.25-Dec-2020 4920.01 2664.56 65.73 3.00 175.20 2546.09
   14:01:59.400.25-Dec-2020 4920.01 2664.53 65.73 3.00 175.40 2546.09
   14:01:59.600.25-Dec-2020 4920.01 2664.78 65.73 3.00 175.60 2546.09
   14:01:59.800.25-Dec-2020 4920.01 2664.54 65.73 3.00 175.80 2546.09
   14:02:00.000.25-Dec-2020 4920.01 2664.55 65.73 3.00 176.00 2546.09
   14:02:00.200.25-Dec-2020 4920.01 2664.55 65.73 3.00 176.20 2546.09
   14:02:00.400.25-Dec-2020 4920.01 2665.12 65.73 3.00 176.40 2546.09
   14:02:00.600.25-Dec-2020 4920.01 2664.46 65.73 3.00 176.60 2546.09
   14:02:00.800.25-Dec-2020 4920.01 2664.23 65.73 3.00 176.80 2546.09
   14:02:01.000.25-Dec-2020 4920.01 2665.17 65.73 3.00 177.00 2546.09
   14:02:01.200.25-Dec-2020 4920.01 2665.17 65.73 3.00 177.20 2546.09
   14:02:01.400.25-Dec-2020 4920.01 2664.50 65.73 3.00 177.40 2546.09
   14:02:01.600.25-Dec-2020 4920.01 2664.46 65.73 3.00 177.60 2546.09
   14:02:01.800.25-Dec-2020 4920.01 2550.46 65.73 3.00 177.80 2546.09
   14:02:02.000.25-Dec-2020 4920.01 2476.52 65.73 3.00 178.00 2546.09
   14:02:02.200.25-Dec-2020 4920.01 2476.52 65.73 3.00 178.20 2546.09
   14:02:02.400.25-Dec-2020 4920.01 2467.64 65.73 3.00 178.40 2546.09
   14:02:02.600.25-Dec-2020 4920.01 2475.84 65.73 3.00 178.60 2546.09
   14:02:02.800.25-Dec-2020 4920.01 2476.61 65.73 3.00 178.80 2546.09
   14:02:03.000.25-Dec-2020 4920.01 2475.04 65.73 3.00 179.00 2546.09
   14:02:03.200.25-Dec-2020 4920.01 2475.04 65.73 3.00 179.20 2546.09
   14:02:03.400.25-Dec-2020 4920.01 2477.00 65.73 3.00 179.40 2546.09
   14:02:03.600.25-Dec-2020 4920.01 2480.80 65.73 3.00 179.60 2546.09
   14:02:03.800.25-Dec-2020 4920.01 2477.27 65.73 3.00 179.80 2546.09
   14:02:04.000.25-Dec-2020 4920.01 2476.14 65.73 3.00 180.00 2546.09
   14:02:04.200.25-Dec-2020 4920.01 2477.83 65.73 3.00 180.20 2546.09
   14:02:04.400.25-Dec-2020 4920.01 2471.92 65.73 3.00 180.40 2546.09
   14:02:04.600.25-Dec-2020 4920.01 2478.01 65.73 3.00 180.60 2546.09
   14:02:04.800.25-Dec-2020 4920.01 2483.36 65.73 3.00 180.80 2546.09
   14:02:05.000.25-Dec-2020 4920.01 2477.97 65.73 3.00 181.00 2546.09
   14:02:05.200.25-Dec-2020 4920.01 2477.97 65.73 3.00 181.20 2546.09
   14:02:05.400.25-Dec-2020 4920.01 2480.89 65.73 3.00 181.40 2546.09
   14:02:05.600.25-Dec-2020 4920.01 2476.40 65.73 3.00 181.60 2546.09
   14:02:05.800.25-Dec-2020 4920.01 2481.48 65.73 3.00 181.80 2546.09
   14:02:06.000.25-Dec-2020 4920.01 2475.04 65.73 3.00 182.00 2546.09
   14:02:06.200.25-Dec-2020 4920.01 2475.04 65.73 3.00 182.20 2546.09
   14:02:06.400.25-Dec-2020 4920.01 2477.92 65.73 3.00 182.40 2546.09
   14:02:06.600.25-Dec-2020 4920.01 2475.75 65.73 3.00 182.60 2546.09
   14:02:06.800.25-Dec-2020 4920.01 2476.82 65.73 3.00 182.80 2546.09
   14:02:07.000.25-Dec-2020 4920.01 2472.04 65.73 3.00 183.00 2546.09
   14:02:07.200.25-Dec-2020 4920.01 2471.13 65.73 3.00 183.20 2546.09
   14:02:07.400.25-Dec-2020 4920.01 2482.66 65.73 3.00 183.40 2546.09
   14:02:07.600.25-Dec-2020 4920.01 2477.06 65.73 3.00 183.60 2546.09
   14:02:07.800.25-Dec-2020 4920.01 2473.79 65.73 3.00 183.80 2546.09
