~Version Information
 VERS.                  2.0:   CWLS log ASCII Standard -VERSION 2.0
 WRAP.                   NO:   One line per depth step
~Well Information Block
#MNEM.UNIT     VALUE/NAME     DESCRIPTION
#---------     -----------    ---------------------------
 STRT.S             19:12:01 25-Dec-20: START TIME 19:12:01 25-Dec-20
 STOP.S             19:20:19 25-Dec-20: STOP TIME  19:20:19 25-Dec-20
 STEP.S                   0.00: STEP TIME
 NULL.                 -999.25: NULL VALUE
 DFWT.                        :  DIST FWL TEXT
 DFST.                        :  DIST FSL TEXT
 DMF .             Drill Floor:  DRILL MEAS FROM
 STIM.      04.54.24 22-Sep-20:  START TIME
 DATE.      04.54.24 21-Nov-20:  END TIME
 SPUD.               21-Nov-20:  SPUD DATE
 NREF.                    Grid:  NORTH REFERENCE
 HPTY.       Minimum Curvature:  HOLE POS TYPE
 DMOD.             Drill Model:  DRILL MOD DESC
 SVYD.                  Survey:  SURVEY DESC
 ILTD.               Lithology:  INTERP LTH DESC
 FTOP.          Formation Tops:  FORM TOPS DESC
 SON .        AZ-XX-0906571587:  JOB NUMBER
 COMP.     BP Exploration (Caspian Sea) Ltd:  COMPANY
 UWI .                     N/A:  UNIQUE WELL IDENTIFIER
 API .                     N/A:  API NUMBER
 BASE.              Azerbaijan:  LOGGING EQUIPMENT BASE LOCATION
 REGN.                   EESSA:  REGION
 PROV.                    Baku:  PROVINCE
 STAT.                    Baku:  STATE NAME
 CTRY.              Azerbaijan:  COUNTRY NAME
 FLD .                     ACG:  FIELD NAME
 SRVC.     TURAN Drilling & Engineering:  CONTRACTOR
 WELL.                     J27:  WELL NAME
 RIG .             West Chirag:  RIG NAME
 DOE .                     N/A:  DOE NUMBER
 DCON.         Sperry Drilling:  DIRECTNL CONTR
 PDAT.          Mean Sea Level:  PERMANENT DATUM
 WTYP.                Deviated:  WELL TYPE
 MWDS.                    Baku:  MWD SHOP
 JOBN.        AZ-XX-0906571587:  JOB TICKET NUMB
 UNIT.                     N/A:  LOGGING EQUIPMENT ID
 MDS .        Operator Entered:  MAG DATA SOURCE
 CNTY.                        :  COUNTY
 LOC .                        :  LOCATION
 LMF .             Drill Floor:  LOG MEASURED FROM
 TVDS.m                  43.00:  TVDSS CORRECTN
 LATI.deg                40.13:  LATITUDE
 LONG.deg                51.22:  LONGITUDE
 WHNS.m                   7.72:  WELL HEAD N/S
 WHEW.m                 -14.24:  WELL HEAD E/W
 UTMX.m              519005.06:  UTM X
 UTMY.m             4443793.85:  UTM Y
 DFWL.m                   0.00:  DISTANCE FWL
 DFSL.m                   0.00:  DISTANCE FSL
 SDEP.m                 347.00:  START DEPTH
 TDD .m                 581.00:  TOTAL DEPTH (DRILLER)
 VSDR.deg               159.72:  VERT SEC DIRECT
 GVFD.g                   1.00:  GRAVITY FIELD
 MFLD.nT              50318.00:  MAGNETIC FIELD
 MDIP.deg                59.57:  MAGNETIC DIP
 MDEC.deg                 6.44:  MAGNETIC DECL
 GRDC.deg                 0.15:  GRID CORRECTION
 AZTC.deg                 6.29:  AZM TOTAL CORR
 EPD .m                   0.00:  ELEVATION
 EGL .m                   0.00:  GROUND ELEVATION
 WDMS.m                 169.80:  WD ELEV
 APD .m                  43.00:  DEPTH ABOVE PD
 AGAP.m                  43.00:  AIR GAP
 VSEW.m                 -14.24:  VERT SEC E/W
 VSNS.m                   7.72:  VERT SEC N/S
 DEP .m                 342.45:  DEPTH
 EKB .m                   0.00:  KB ELEVATION
 EDF .m                  43.00:  DF ELEVATION
 TDL .m                 237.00:  TOTAL DEPTH (LOGGER)
 VSC .                       0:  VS TO CLOSURE
 MAGU.                 1851428:  MAGUTM CHECKSUM
~Parameter Information Block
#MNEM.UNIT       Value        Description
#---------     -----------    ---------------------------
 AV  .mps                 1.50:  Ann Velocity 
 AVMX.mps                 2.90:  Max Ann Veloc 
 AZIF.deg               115.59:  Azm, Final 
 BHAT.        Rotary Steerable:  BHA Type 
 BROT.°/30m               0.50:  Build Rotating 
 BS  .in                  8.50:  Bit Size 
 BTPL.psig              580.00:  Bit Press Loss 
 CABU.                     Yes:  Customer Abuse 
 COMM.                     Ìt:  Run Comments 1 
 TCS .hr                 89.79:  Time Ciculation Ended 
 CV  .mps                 3.22:  Crit Velocity 
 CVMX.mps                 4.37:  Max Crit Veloc 
 DD1 .          Rashad Habibov:  Direct Drillr 1 
 DDSV.               Geo-Pilot:  DD Service 
 DEFF.%                  95.00:  % Det Eff 
 DLRX.°/30m               1.94:  Dogleg Rot Max 
 DLSO.°/30m               0.70:  Dogleg Oriented 
 DLSX.°/30m               1.94:  Dogleg Str Max 
 DRET.      04.45.00 25-Dec-20:  Drill End Time 
 DRST.      10.00.00 24-Dec-20:  Drill Start Tim 
 DTIM.hr                 16.64:  Time Drilling 
 EDEP.m                4999.01:  End Depth 
 ENG1.         Elchin Mammadov:  Engineer 1 
 ENG2.          Ruslan Safarov:  Engineer 2 
 ENG3.          Rustam Safarov:  Engineer 3 
 ETIM.      09.00.00 29-Dec-20:  End Time 
 FLOI.gpm               500.00:  Flow In 
 FLON.gpm               400.00:  Flow In Min 
 FLOS.cptm                0.00:  Fluid Loss 
 FLOX.gpm               500.00:  Flow In Max 
 HFLO.                      No:  High Flow 
 HPRE.                      No:  High Pressure 
 HTEM.                      No:  High Temp 
 HYDO.m                   2.00:  Hydro Offset 
 IFIN.deg                66.79:  Inc, Final 
 IMAX.deg                67.66:  Inc Max 
 IMIN.deg                66.39:  Inc Min 
 IMND.m                4949.37:  Inc Min Depth 
 IMXD.m                4778.63:  Inc Max Depth 
 JARR.                     Yes:  Jarring 
 LETM.      04.45.00 25-Dec-20:  Log End Time 
 LOST.hr                     0:  Lost Rig Time 
 LSTM.      10.00.00 24-Dec-20:  Log Start Time 
 MDCL.ppm             39000.00:  Mud Chlorides 
 MDES.     Inversion Oil/Synthetic:  Mud Desc 
 DFD .sg                  1.33:  Mud Density 
 MDMN.sg                  1.33:  Dens Mud Min 
 MDMX.sg                  1.33:  Dens Mud Max 
 MOIL.                      70:  Run Mud Oil % 
 MOWR.                   70:30:  Run Mud OWR 
 MSND.                       0:  Run Mud Sand % 
 MSOL.                    17.4:  Run Mud Solids% 
 DFV .spqt               84.00:  Mud Viscosity 
 MWOD.in                  6.75:  MWD Tool OD 
 MWSI.                     Yes:  Serv Intrp, MWD 
 OTIM.hr                168.14:  Time Operating 
 PCON.           Look Like New:  Pad Condition 
 PMAX.psia            10822.93:  Press Op, Max 
 PV  .cP                 30.00:  Mud PV 
 RUN .                     900:  Run Number 
 ROPA.m/hr               18.00:  ROP Avg 
 ROPN.m/hr               12.00:  ROP Min 
 ROPX.m/hr               25.00:  ROP Max 
 RPMA.rpm               120.00:  RPM Surface Avg 
 RPMN.rpm               100.00:  RPM Surface Min 
 RPMX.rpm               120.00:  RPM Surface Max 
 RRUN.                    0900:  Rig Run Number 
 SAZI.deg               115.08:  Azm, Start 
 SDEP.m                4762.01:  Start Depth 
 SIDD.                      No:  Serv Intrp, DD 
 SINC.deg                66.14:  Inc, Start 
 SPPA.psig             3700.00:  SPP Avg 
 SPPN.psig             3620.00:  SPP Min 
 SPPX.psig             3900.00:  SPP Max 
 STIM.      09.30.00 22-Dec-20:  Start Time 
 SVCS.                 DD, MWD:  Services 
 SVER.                    9.20:  Sperry Version 
 TDAT.m                 237.00:  Tot Depth Attmp 
 TDDF.                      No:  Trip for DD 
 TDLG.m                 237.00:  Tot Depth Loggd 
 TFF .                      No:  Trip for Fail 
 TQAA.f-kp               18.00:  Torque Abs Avg 
 TQAN.f-kp               17.00:  Torque Abs Min 
 TQAX.f-kp               20.00:  Torque Abs Max 
 TRRT.°/30m               0.60:  Turn Rotating 
 MRT .                    HCIM:  Maximum Recorded Temperature 
 TTMX.degC               94.12:  Max Tool Temp 
 VS01.                90627809:  Virtual Str1 SN 
 VS02.                90527813:  Virtual Str2 SN 
 VS03.                90545417:  Virtual Str3 SN 
 VS04.                12460870:  Virtual Str4 SN 
 VS05.                90516706:  Virtual Str5 SN 
 VS06.                90632007:  Virtual Str6 SN 
 WBMN.klb                 0.00:  WOB Min 
 WOBA.klb                14.00:  WOB Avg 
 WOBX.klb                25.00:  WOB Max 
 YP  .lhf2               32.00:  Yield Point 
~Curve Information Block
#MNEM.UNIT                 API CODE     Curve Description
#---------               -----------    ---------------------------
 TIME.HHMMSS            00 000 000 000:  GT Time & Date
 GTDEPTH.m              00 000 000 000:  GT Depth
 GTPQH.psia             00 000 000 000:  GT HR Quartz Pressure
 GTTQ.degC              00 000 000 000:  GT Quartz Temperature
 GTTN.NONE              00 000 000 000:  GT Test Number
 GTET.sec               00 000 000 000:  GT Elapsed Test Time
 GTTVD.m                00 000 000 000:  GT True Vertical Depth
#Other Information
#
#WARRANTY: Halliburton will use its best efforts to furnish customers with 
#accurate information and interpretations that are part of, and incident to, the services 
#provided.  However, Halliburton cannot and does not warrant the accuracy 
#or correctness of such information and interpretations.  Under no circumstances should any 
#such information or interpretation be relied upon as the sole basis for any drilling, 
#completion, production, or financial decision or any procedure involving any risk to the 
#safety of any drilling venture, drilling rig or its crew or any other third party.  The 
#Customer has full responsibility for all drilling, completion and production operation.  
#Halliburton makes no representations or warranties, either expressed or 
#implied, including, but not limited to, the implied warranties of merchantability or fitness 
#for a particular purpose, with respect to the services rendered.  In no event will 
#Halliburton be liable for failure to obtain any particular results or for 
#any damages, including, but not limited to, indirect, special or consequential damages, 
#resulting from the use of any information or interpretation provided by Halliburton.
#
~A           TIME           GTDEPTH  GTPQH  GTTQ  GTTN  GTET   GTTVD  
# ...
   19:13:10.175.25-Dec-2020 4808.01 2305.83 63.84 7.00  69.05 2502.07
   19:13:10.376.25-Dec-2020 4808.01 2305.83 63.84 7.00  69.25 2502.07
   19:13:10.576.25-Dec-2020 4808.01 2305.59 63.84 7.00  69.45 2502.07
   19:13:10.776.25-Dec-2020 4808.01 2305.65 63.84 7.00  69.66 2502.07
   19:13:10.976.25-Dec-2020 4808.01 2305.63 63.84 7.00  69.86 2502.07
   19:13:11.176.25-Dec-2020 4808.01 2305.65 63.84 7.00  70.06 2502.07
   19:13:11.376.25-Dec-2020 4808.01 2305.72 63.84 7.00  70.26 2502.07
   19:13:11.576.25-Dec-2020 4808.01 2305.76 63.85 7.00  70.46 2502.07
   19:13:11.777.25-Dec-2020 4808.01 2305.82 63.85 7.00  70.66 2502.07
   19:13:11.977.25-Dec-2020 4808.01 2305.85 63.85 7.00  70.86 2502.07
   19:13:12.177.25-Dec-2020 4808.01 2305.82 63.85 7.00  71.06 2502.07
   19:13:12.377.25-Dec-2020 4808.01 2305.82 63.85 7.00  71.26 2502.07
   19:13:12.577.25-Dec-2020 4808.01 2305.87 63.85 7.00  71.46 2502.07
   19:13:12.777.25-Dec-2020 4808.01 2305.07 63.85 7.00  71.66 2502.07
   19:13:12.978.25-Dec-2020 4808.01 2306.39 63.85 7.00  71.86 2502.07
   19:13:13.178.25-Dec-2020 4808.01 2305.36 63.85 7.00  72.06 2502.07
   19:13:13.378.25-Dec-2020 4808.01 2305.36 63.85 7.00  72.26 2502.07
   19:13:13.578.25-Dec-2020 4808.01 2305.64 63.85 7.00  72.46 2502.07
   19:13:13.778.25-Dec-2020 4808.01 2305.62 63.85 7.00  72.66 2502.07
   19:13:13.978.25-Dec-2020 4808.01 2305.27 63.85 7.00  72.86 2502.07
   19:13:14.179.25-Dec-2020 4808.01 2305.54 63.85 7.00  73.06 2502.07
   19:13:14.379.25-Dec-2020 4808.01 2305.54 63.85 7.00  73.26 2502.07
   19:13:14.579.25-Dec-2020 4808.01 2305.88 63.85 7.00  73.46 2502.07
   19:13:14.779.25-Dec-2020 4808.01 2305.49 63.85 7.00  73.66 2502.07
   19:13:14.979.25-Dec-2020 4808.01 2305.63 63.85 7.00  73.86 2502.07
   19:13:15.179.25-Dec-2020 4808.01 2305.61 63.85 7.00  74.06 2502.07
   19:13:15.379.25-Dec-2020 4808.01 2305.76 63.85 7.00  74.26 2502.07
   19:13:15.580.25-Dec-2020 4808.01 2305.68 63.85 7.00  74.46 2502.07
   19:13:15.780.25-Dec-2020 4808.01 2305.72 63.85 7.00  74.66 2502.07
   19:13:15.980.25-Dec-2020 4808.01 2305.79 63.85 7.00  74.86 2502.07
   19:13:16.180.25-Dec-2020 4808.01 2305.75 63.85 7.00  75.06 2502.07
   19:13:16.380.25-Dec-2020 4808.01 2305.75 63.85 7.00  75.26 2502.07
   19:13:16.580.25-Dec-2020 4808.01 2305.85 63.85 7.00  75.46 2502.07
   19:13:16.781.25-Dec-2020 4808.01 2305.84 63.85 7.00  75.66 2502.07
   19:13:16.981.25-Dec-2020 4808.01 2305.26 63.85 7.00  75.86 2502.07
   19:13:17.181.25-Dec-2020 4808.01 2305.93 63.85 7.00  76.06 2502.07
   19:13:17.381.25-Dec-2020 4808.01 2305.93 63.85 7.00  76.26 2502.07
   19:13:17.581.25-Dec-2020 4808.01 2305.64 63.85 7.00  76.46 2502.07
   19:13:17.781.25-Dec-2020 4808.01 2305.67 63.85 7.00  76.66 2502.07
   19:13:17.982.25-Dec-2020 4808.01 2305.70 63.85 7.00  76.86 2502.07
   19:13:18.182.25-Dec-2020 4808.01 2305.75 63.85 7.00  77.06 2502.07
   19:13:18.382.25-Dec-2020 4808.01 2305.75 63.85 7.00  77.26 2502.07
   19:13:18.582.25-Dec-2020 4808.01 2305.81 63.85 7.00  77.46 2502.07
   19:13:18.782.25-Dec-2020 4808.01 2305.81 63.85 7.00  77.66 2502.07
   19:13:18.982.25-Dec-2020 4808.01 2305.89 63.85 7.00  77.86 2502.07
   19:13:19.182.25-Dec-2020 4808.01 2305.87 63.85 7.00  78.06 2502.07
   19:13:19.383.25-Dec-2020 4808.01 2305.33 63.85 7.00  78.26 2502.07
   19:13:19.583.25-Dec-2020 4808.01 2306.02 63.85 7.00  78.46 2502.07
   19:13:19.783.25-Dec-2020 4808.01 2305.56 63.85 7.00  78.66 2502.07
   19:13:19.983.25-Dec-2020 4808.01 2305.17 63.85 7.00  78.86 2502.07
   19:13:20.183.25-Dec-2020 4808.01 2305.92 63.85 7.00  79.06 2502.07
   19:13:20.383.25-Dec-2020 4808.01 2305.92 63.85 7.00  79.26 2502.07
   19:13:20.584.25-Dec-2020 4808.01 2305.19 63.85 7.00  79.46 2502.07
   19:13:20.784.25-Dec-2020 4808.01 2305.73 63.85 7.00  79.66 2502.07
   19:13:20.984.25-Dec-2020 4808.01 2305.66 63.85 7.00  79.86 2502.07
   19:13:21.184.25-Dec-2020 4808.01 2305.24 63.85 7.00  80.06 2502.07
   19:13:21.384.25-Dec-2020 4808.01 2305.24 63.85 7.00  80.26 2502.07
   19:13:21.584.25-Dec-2020 4808.01 2305.79 63.85 7.00  80.46 2502.07
   19:13:21.785.25-Dec-2020 4808.01 2305.57 63.85 7.00  80.66 2502.07
   19:13:21.985.25-Dec-2020 4808.01 2305.73 63.85 7.00  80.86 2502.07
   19:13:22.185.25-Dec-2020 4808.01 2305.69 63.85 7.00  81.06 2502.07
   19:13:22.385.25-Dec-2020 4808.01 2305.69 63.85 7.00  81.26 2502.07
   19:13:22.585.25-Dec-2020 4808.01 2305.78 63.85 7.00  81.46 2502.07
   19:13:22.785.25-Dec-2020 4808.01 2305.74 63.85 7.00  81.66 2502.07
   19:13:22.985.25-Dec-2020 4808.01 2305.79 63.85 7.00  81.86 2502.07
   19:13:23.186.25-Dec-2020 4808.01 2305.82 63.85 7.00  82.06 2502.07
   19:13:23.386.25-Dec-2020 4808.01 2305.83 63.85 7.00  82.26 2502.07
   19:13:23.586.25-Dec-2020 4808.01 2304.94 63.85 7.00  82.47 2502.07
   19:13:23.786.25-Dec-2020 4808.01 2306.35 63.85 7.00  82.67 2502.07
   19:13:23.986.25-Dec-2020 4808.01 2305.47 63.85 7.00  82.87 2502.07
   19:13:24.186.25-Dec-2020 4808.01 2305.58 63.85 7.00  83.07 2502.07
   19:13:24.387.25-Dec-2020 4808.01 2305.58 63.85 7.00  83.27 2502.07
   19:13:24.587.25-Dec-2020 4808.01 2305.71 63.85 7.00  83.47 2502.07
   19:13:24.787.25-Dec-2020 4808.01 2305.70 63.85 7.00  83.67 2502.07
   19:13:24.987.25-Dec-2020 4808.01 2305.78 63.85 7.00  83.87 2502.07
   19:13:25.187.25-Dec-2020 4808.01 2305.79 63.85 7.00  84.07 2502.07
   19:13:25.387.25-Dec-2020 4808.01 2305.79 63.85 7.00  84.27 2502.07
   19:13:25.588.25-Dec-2020 4808.01 2305.84 63.85 7.00  84.47 2502.07
   19:13:25.788.25-Dec-2020 4808.01 2305.85 63.85 7.00  84.67 2502.07
   19:13:25.988.25-Dec-2020 4808.01 2305.87 63.85 7.00  84.87 2502.07
   19:13:26.188.25-Dec-2020 4808.01 2305.24 63.85 7.00  85.07 2502.07
   19:13:26.388.25-Dec-2020 4808.01 2305.24 63.85 7.00  85.27 2502.07
   19:13:26.588.25-Dec-2020 4808.01 2304.97 63.85 7.00  85.47 2502.07
   19:13:26.788.25-Dec-2020 4808.01 2306.38 63.85 7.00  85.67 2502.07
   19:13:26.989.25-Dec-2020 4808.01 2305.52 63.85 7.00  85.87 2502.07
   19:13:27.189.25-Dec-2020 4808.01 2305.03 63.85 7.00  86.07 2502.07
   19:13:27.389.25-Dec-2020 4808.01 2306.05 63.86 7.00  86.27 2502.07
   19:13:27.589.25-Dec-2020 4808.01 2305.55 63.85 7.00  86.47 2502.07
   19:13:27.789.25-Dec-2020 4808.01 2305.18 63.86 7.00  86.67 2502.07
   19:13:27.989.25-Dec-2020 4808.01 2305.85 63.86 7.00  86.87 2502.07
   19:13:28.190.25-Dec-2020 4808.01 2305.73 63.86 7.00  87.07 2502.07
   19:13:28.390.25-Dec-2020 4808.01 2305.73 63.86 7.00  87.27 2502.07
   19:13:28.590.25-Dec-2020 4808.01 2305.72 63.86 7.00  87.47 2502.07
   19:13:28.790.25-Dec-2020 4808.01 2305.69 63.86 7.00  87.67 2502.07
   19:13:28.990.25-Dec-2020 4808.01 2305.73 63.86 7.00  87.87 2502.07
   19:13:29.190.25-Dec-2020 4808.01 2305.75 63.86 7.00  88.07 2502.07
   19:13:29.391.25-Dec-2020 4808.01 2305.75 63.86 7.00  88.27 2502.07
   19:13:29.591.25-Dec-2020 4808.01 2305.75 63.86 7.00  88.47 2502.07
   19:13:29.791.25-Dec-2020 4808.01 2305.79 63.86 7.00  88.67 2502.07
   19:13:29.991.25-Dec-2020 4808.01 2305.82 63.86 7.00  88.87 2502.07
   19:13:30.191.25-Dec-2020 4808.01 2305.23 63.86 7.00  89.07 2502.07
   19:13:30.391.25-Dec-2020 4808.01 2305.23 63.86 7.00  89.27 2502.07
   19:13:30.591.25-Dec-2020 4808.01 2305.62 63.86 7.00  89.47 2502.07
   19:13:30.792.25-Dec-2020 4808.01 2305.67 63.86 7.00  89.67 2502.07
   19:13:30.992.25-Dec-2020 4808.01 2305.65 63.86 7.00  89.87 2502.07
   19:13:31.192.25-Dec-2020 4808.01 2305.71 63.86 7.00  90.07 2502.07
   19:13:31.392.25-Dec-2020 4808.01 2305.71 63.86 7.00  90.27 2502.07
   19:13:31.592.25-Dec-2020 4808.01 2305.76 63.86 7.00  90.47 2502.07
   19:13:31.792.25-Dec-2020 4808.01 2305.75 63.86 7.00  90.67 2502.07
   19:13:31.993.25-Dec-2020 4808.01 2305.78 63.86 7.00  90.87 2502.07
   19:13:32.193.25-Dec-2020 4808.01 2305.79 63.86 7.00  91.07 2502.07
   19:13:32.393.25-Dec-2020 4808.01 2305.79 63.86 7.00  91.27 2502.07
   19:13:32.593.25-Dec-2020 4808.01 2305.83 63.86 7.00  91.47 2502.07
   19:13:32.793.25-Dec-2020 4808.01 2305.20 63.86 7.00  91.67 2502.07
   19:13:32.993.25-Dec-2020 4808.01 2305.83 63.86 7.00  91.87 2502.07
