~Version Information
 VERS.                  2.0:   CWLS log ASCII Standard -VERSION 2.0
 WRAP.                   NO:   One line per depth step
~Well Information Block
#MNEM.UNIT     VALUE/NAME     DESCRIPTION
#---------     -----------    ---------------------------
 STRT.S             17:56:34 25-Dec-20: START TIME 17:56:34 25-Dec-20
 STOP.S             18:04:57 25-Dec-20: STOP TIME  18:04:57 25-Dec-20
 STEP.S                   0.00: STEP TIME
 NULL.                 -999.25: NULL VALUE
 DFWT.                        :  DIST FWL TEXT
 DFST.                        :  DIST FSL TEXT
 DMF .             Drill Floor:  DRILL MEAS FROM
 STIM.      04.54.24 22-Sep-20:  START TIME
 DATE.      04.54.24 21-Nov-20:  END TIME
 SPUD.               21-Nov-20:  SPUD DATE
 NREF.                    Grid:  NORTH REFERENCE
 HPTY.       Minimum Curvature:  HOLE POS TYPE
 DMOD.             Drill Model:  DRILL MOD DESC
 SVYD.                  Survey:  SURVEY DESC
 ILTD.               Lithology:  INTERP LTH DESC
 FTOP.          Formation Tops:  FORM TOPS DESC
 SON .        AZ-XX-0906571587:  JOB NUMBER
 COMP.     BP Exploration (Caspian Sea) Ltd:  COMPANY
 UWI .                     N/A:  UNIQUE WELL IDENTIFIER
 API .                     N/A:  API NUMBER
 BASE.              Azerbaijan:  LOGGING EQUIPMENT BASE LOCATION
 REGN.                   EESSA:  REGION
 PROV.                    Baku:  PROVINCE
 STAT.                    Baku:  STATE NAME
 CTRY.              Azerbaijan:  COUNTRY NAME
 FLD .                     ACG:  FIELD NAME
 SRVC.     TURAN Drilling & Engineering:  CONTRACTOR
 WELL.                     J27:  WELL NAME
 RIG .             West Chirag:  RIG NAME
 DOE .                     N/A:  DOE NUMBER
 DCON.         Sperry Drilling:  DIRECTNL CONTR
 PDAT.          Mean Sea Level:  PERMANENT DATUM
 WTYP.                Deviated:  WELL TYPE
 MWDS.                    Baku:  MWD SHOP
 JOBN.        AZ-XX-0906571587:  JOB TICKET NUMB
 UNIT.                     N/A:  LOGGING EQUIPMENT ID
 MDS .        Operator Entered:  MAG DATA SOURCE
 CNTY.                        :  COUNTY
 LOC .                        :  LOCATION
 LMF .             Drill Floor:  LOG MEASURED FROM
 TVDS.m                  43.00:  TVDSS CORRECTN
 LATI.deg                40.13:  LATITUDE
 LONG.deg                51.22:  LONGITUDE
 WHNS.m                   7.72:  WELL HEAD N/S
 WHEW.m                 -14.24:  WELL HEAD E/W
 UTMX.m              519005.06:  UTM X
 UTMY.m             4443793.85:  UTM Y
 DFWL.m                   0.00:  DISTANCE FWL
 DFSL.m                   0.00:  DISTANCE FSL
 SDEP.m                 347.00:  START DEPTH
 TDD .m                 581.00:  TOTAL DEPTH (DRILLER)
 VSDR.deg               159.72:  VERT SEC DIRECT
 GVFD.g                   1.00:  GRAVITY FIELD
 MFLD.nT              50318.00:  MAGNETIC FIELD
 MDIP.deg                59.57:  MAGNETIC DIP
 MDEC.deg                 6.44:  MAGNETIC DECL
 GRDC.deg                 0.15:  GRID CORRECTION
 AZTC.deg                 6.29:  AZM TOTAL CORR
 EPD .m                   0.00:  ELEVATION
 EGL .m                   0.00:  GROUND ELEVATION
 WDMS.m                 169.80:  WD ELEV
 APD .m                  43.00:  DEPTH ABOVE PD
 AGAP.m                  43.00:  AIR GAP
 VSEW.m                 -14.24:  VERT SEC E/W
 VSNS.m                   7.72:  VERT SEC N/S
 DEP .m                 342.45:  DEPTH
 EKB .m                   0.00:  KB ELEVATION
 EDF .m                  43.00:  DF ELEVATION
 TDL .m                 237.00:  TOTAL DEPTH (LOGGER)
 VSC .                       0:  VS TO CLOSURE
 MAGU.                 1851428:  MAGUTM CHECKSUM
~Parameter Information Block
#MNEM.UNIT       Value        Description
#---------     -----------    ---------------------------
 AV  .mps                 1.50:  Ann Velocity 
 AVMX.mps                 2.90:  Max Ann Veloc 
 AZIF.deg               115.59:  Azm, Final 
 BHAT.        Rotary Steerable:  BHA Type 
 BROT.∞/30m               0.50:  Build Rotating 
 BS  .in                  8.50:  Bit Size 
 BTPL.psig              580.00:  Bit Press Loss 
 CABU.                     Yes:  Customer Abuse 
 COMM.                     ‰E:  Run Comments 1 
 TCS .hr                 89.79:  Time Ciculation Ended 
 CV  .mps                 3.22:  Crit Velocity 
 CVMX.mps                 4.37:  Max Crit Veloc 
 DD1 .          Rashad Habibov:  Direct Drillr 1 
 DDSV.               Geo-Pilot:  DD Service 
 DEFF.%                  95.00:  % Det Eff 
 DLRX.∞/30m               1.94:  Dogleg Rot Max 
 DLSO.∞/30m               0.70:  Dogleg Oriented 
 DLSX.∞/30m               1.94:  Dogleg Str Max 
 DRET.      04.45.00 25-Dec-20:  Drill End Time 
 DRST.      10.00.00 24-Dec-20:  Drill Start Tim 
 DTIM.hr                 16.64:  Time Drilling 
 EDEP.m                4999.01:  End Depth 
 ENG1.         Elchin Mammadov:  Engineer 1 
 ENG2.          Ruslan Safarov:  Engineer 2 
 ENG3.          Rustam Safarov:  Engineer 3 
 ETIM.      09.00.00 29-Dec-20:  End Time 
 FLOI.gpm               500.00:  Flow In 
 FLON.gpm               400.00:  Flow In Min 
 FLOS.cptm                0.00:  Fluid Loss 
 FLOX.gpm               500.00:  Flow In Max 
 HFLO.                      No:  High Flow 
 HPRE.                      No:  High Pressure 
 HTEM.                      No:  High Temp 
 HYDO.m                   2.00:  Hydro Offset 
 IFIN.deg                66.79:  Inc, Final 
 IMAX.deg                67.66:  Inc Max 
 IMIN.deg                66.39:  Inc Min 
 IMND.m                4949.37:  Inc Min Depth 
 IMXD.m                4778.63:  Inc Max Depth 
 JARR.                     Yes:  Jarring 
 LETM.      04.45.00 25-Dec-20:  Log End Time 
 LOST.hr                     0:  Lost Rig Time 
 LSTM.      10.00.00 24-Dec-20:  Log Start Time 
 MDCL.ppm             39000.00:  Mud Chlorides 
 MDES.     Inversion Oil/Synthetic:  Mud Desc 
 DFD .sg                  1.33:  Mud Density 
 MDMN.sg                  1.33:  Dens Mud Min 
 MDMX.sg                  1.33:  Dens Mud Max 
 MOIL.                      70:  Run Mud Oil % 
 MOWR.                   70:30:  Run Mud OWR 
 MSND.                       0:  Run Mud Sand % 
 MSOL.                    17.4:  Run Mud Solids% 
 DFV .spqt               84.00:  Mud Viscosity 
 MWOD.in                  6.75:  MWD Tool OD 
 MWSI.                     Yes:  Serv Intrp, MWD 
 OTIM.hr                168.14:  Time Operating 
 PCON.           Look Like New:  Pad Condition 
 PMAX.psia            10822.93:  Press Op, Max 
 PV  .cP                 30.00:  Mud PV 
 RUN .                     900:  Run Number 
 ROPA.m/hr               18.00:  ROP Avg 
 ROPN.m/hr               12.00:  ROP Min 
 ROPX.m/hr               25.00:  ROP Max 
 RPMA.rpm               120.00:  RPM Surface Avg 
 RPMN.rpm               100.00:  RPM Surface Min 
 RPMX.rpm               120.00:  RPM Surface Max 
 RRUN.                    0900:  Rig Run Number 
 SAZI.deg               115.08:  Azm, Start 
 SDEP.m                4762.01:  Start Depth 
 SIDD.                      No:  Serv Intrp, DD 
 SINC.deg                66.14:  Inc, Start 
 SPPA.psig             3700.00:  SPP Avg 
 SPPN.psig             3620.00:  SPP Min 
 SPPX.psig             3900.00:  SPP Max 
 STIM.      09.30.00 22-Dec-20:  Start Time 
 SVCS.                 DD, MWD:  Services 
 SVER.                    9.20:  Sperry Version 
 TDAT.m                 237.00:  Tot Depth Attmp 
 TDDF.                      No:  Trip for DD 
 TDLG.m                 237.00:  Tot Depth Loggd 
 TFF .                      No:  Trip for Fail 
 TQAA.f-kp               18.00:  Torque Abs Avg 
 TQAN.f-kp               17.00:  Torque Abs Min 
 TQAX.f-kp               20.00:  Torque Abs Max 
 TRRT.∞/30m               0.60:  Turn Rotating 
 MRT .                    HCIM:  Maximum Recorded Temperature 
 TTMX.degC               94.12:  Max Tool Temp 
 VS01.                90627809:  Virtual Str1 SN 
 VS02.                90527813:  Virtual Str2 SN 
 VS03.                90545417:  Virtual Str3 SN 
 VS04.                12460870:  Virtual Str4 SN 
 VS05.                90516706:  Virtual Str5 SN 
 VS06.                90632007:  Virtual Str6 SN 
 WBMN.klb                 0.00:  WOB Min 
 WOBA.klb                14.00:  WOB Avg 
 WOBX.klb                25.00:  WOB Max 
 YP  .lhf2               32.00:  Yield Point 
~Curve Information Block
#MNEM.UNIT                 API CODE     Curve Description
#---------               -----------    ---------------------------
 TIME.HHMMSS            00 000 000 000:  GT Time & Date
 GTDEPTH.m              00 000 000 000:  GT Depth
 GTPQH.psia             00 000 000 000:  GT HR Quartz Pressure
 GTTQ.degC              00 000 000 000:  GT Quartz Temperature
 GTTN.NONE              00 000 000 000:  GT Test Number
 GTET.sec               00 000 000 000:  GT Elapsed Test Time
 GTTVD.m                00 000 000 000:  GT True Vertical Depth
#Other Information
#
#WARRANTY: Halliburton will use its best efforts to furnish customers with 
#accurate information and interpretations that are part of, and incident to, the services 
#provided.  However, Halliburton cannot and does not warrant the accuracy 
#or correctness of such information and interpretations.  Under no circumstances should any 
#such information or interpretation be relied upon as the sole basis for any drilling, 
#completion, production, or financial decision or any procedure involving any risk to the 
#safety of any drilling venture, drilling rig or its crew or any other third party.  The 
#Customer has full responsibility for all drilling, completion and production operation.  
#Halliburton makes no representations or warranties, either expressed or 
#implied, including, but not limited to, the implied warranties of merchantability or fitness 
#for a particular purpose, with respect to the services rendered.  In no event will 
#Halliburton be liable for failure to obtain any particular results or for 
#any damages, including, but not limited to, indirect, special or consequential damages, 
#resulting from the use of any information or interpretation provided by Halliburton.
#
~A           TIME           GTDEPTH  GTPQH  GTTQ  GTTN  GTET   GTTVD  
# ...
   18:04:14.543.25-Dec-2020 4856.51 5464.88 64.22 5.00 459.82 2521.01
   18:04:14.743.25-Dec-2020 4856.51 5464.88 64.22 5.00 460.02 2521.01
   18:04:14.943.25-Dec-2020 4856.51 5465.16 64.22 5.00 460.22 2521.01
   18:04:15.143.25-Dec-2020 4856.51 5465.57 64.22 5.00 460.42 2521.01
   18:04:15.343.25-Dec-2020 4856.51 5465.39 64.23 5.00 460.62 2521.01
   18:04:15.543.25-Dec-2020 4856.51 5465.46 64.23 5.00 460.82 2521.01
   18:04:15.743.25-Dec-2020 4856.51 5465.46 64.23 5.00 461.02 2521.01
   18:04:15.943.25-Dec-2020 4856.51 5473.96 64.23 5.00 461.22 2521.01
   18:04:16.143.25-Dec-2020 4856.51 5468.24 64.23 5.00 461.42 2521.01
   18:04:16.342.25-Dec-2020 4856.51 5467.03 64.23 5.00 461.62 2521.01
   18:04:16.542.25-Dec-2020 4856.51 5471.53 64.23 5.00 461.82 2521.01
   18:04:16.742.25-Dec-2020 4856.51 5471.53 64.23 5.00 462.02 2521.01
   18:04:16.942.25-Dec-2020 4856.51 5466.32 64.23 5.00 462.22 2521.01
   18:04:17.142.25-Dec-2020 4856.51 5468.91 64.24 5.00 462.42 2521.01
   18:04:17.342.25-Dec-2020 4856.51 5467.73 64.24 5.00 462.62 2521.01
   18:04:17.542.25-Dec-2020 4856.51 5467.91 64.24 5.00 462.82 2521.01
   18:04:17.742.25-Dec-2020 4856.51 5467.91 64.24 5.00 463.02 2521.01
   18:04:17.942.25-Dec-2020 4856.51 5467.15 64.24 5.00 463.22 2521.01
   18:04:18.142.25-Dec-2020 4856.51 5467.12 64.24 5.00 463.42 2521.01
   18:04:18.342.25-Dec-2020 4856.51 5466.80 64.24 5.00 463.62 2521.01
   18:04:18.542.25-Dec-2020 4856.51 5474.21 64.24 5.00 463.82 2521.01
   18:04:18.742.25-Dec-2020 4856.51 5474.21 64.24 5.00 464.02 2521.01
   18:04:18.941.25-Dec-2020 4856.51 5474.68 64.24 5.00 464.22 2521.01
   18:04:19.141.25-Dec-2020 4856.51 5464.08 64.25 5.00 464.42 2521.01
   18:04:19.341.25-Dec-2020 4856.51 5476.94 64.25 5.00 464.62 2521.01
   18:04:19.541.25-Dec-2020 4856.51 5470.42 64.25 5.00 464.82 2521.01
   18:04:19.741.25-Dec-2020 4856.51 5470.42 64.25 5.00 465.02 2521.01
   18:04:19.941.25-Dec-2020 4856.51 5480.13 64.25 5.00 465.22 2521.01
   18:04:20.141.25-Dec-2020 4856.51 5459.82 64.25 5.00 465.42 2521.01
   18:04:20.341.25-Dec-2020 4856.51 5476.10 64.25 5.00 465.62 2521.01
   18:04:20.541.25-Dec-2020 4856.51 5471.04 64.25 5.00 465.82 2521.01
   18:04:20.741.25-Dec-2020 4856.51 5471.04 64.25 5.00 466.02 2521.01
   18:04:20.941.25-Dec-2020 4856.51 5476.98 64.25 5.00 466.22 2521.01
   18:04:21.141.25-Dec-2020 4856.51 5468.34 64.25 5.00 466.42 2521.01
   18:04:21.341.25-Dec-2020 4856.51 5466.33 64.25 5.00 466.62 2521.01
   18:04:21.540.25-Dec-2020 4856.51 5471.82 64.25 5.00 466.82 2521.01
   18:04:21.740.25-Dec-2020 4856.51 5471.82 64.25 5.00 467.02 2521.01
   18:04:21.940.25-Dec-2020 4856.51 5465.76 64.25 5.00 467.22 2521.01
   18:04:22.140.25-Dec-2020 4856.51 5468.26 64.25 5.00 467.42 2521.01
   18:04:22.340.25-Dec-2020 4856.51 5466.93 64.26 5.00 467.62 2521.01
   18:04:22.540.25-Dec-2020 4856.51 5466.95 64.26 5.00 467.82 2521.01
   18:04:22.740.25-Dec-2020 4856.51 5466.95 64.26 5.00 468.02 2521.01
   18:04:22.940.25-Dec-2020 4856.51 5467.18 64.26 5.00 468.22 2521.01
   18:04:23.140.25-Dec-2020 4856.51 5467.74 64.26 5.00 468.42 2521.01
   18:04:23.340.25-Dec-2020 4856.51 5478.70 64.26 5.00 468.62 2521.01
   18:04:23.540.25-Dec-2020 4856.51 5461.83 64.26 5.00 468.82 2521.01
   18:04:23.740.25-Dec-2020 4856.51 5461.83 64.26 5.00 469.02 2521.01
   18:04:23.940.25-Dec-2020 4856.51 5471.38 64.26 5.00 469.22 2521.01
   18:04:24.139.25-Dec-2020 4856.51 5469.35 64.26 5.00 469.42 2521.01
   18:04:24.339.25-Dec-2020 4856.51 5470.01 64.26 5.00 469.62 2521.01
   18:04:24.539.25-Dec-2020 4856.51 5468.97 64.26 5.00 469.81 2521.01
   18:04:24.739.25-Dec-2020 4856.51 5468.97 64.26 5.00 470.01 2521.01
   18:04:24.939.25-Dec-2020 4856.51 5469.20 64.26 5.00 470.21 2521.01
   18:04:25.139.25-Dec-2020 4856.51 5469.69 64.26 5.00 470.41 2521.01
   18:04:25.339.25-Dec-2020 4856.51 5469.14 64.26 5.00 470.61 2521.01
   18:04:25.539.25-Dec-2020 4856.51 5468.52 64.26 5.00 470.81 2521.01
   18:04:25.739.25-Dec-2020 4856.51 5468.52 64.26 5.00 471.01 2521.01
   18:04:25.939.25-Dec-2020 4856.51 5468.07 64.26 5.00 471.21 2521.01
   18:04:26.139.25-Dec-2020 4856.51 5475.76 64.26 5.00 471.41 2521.01
   18:04:26.339.25-Dec-2020 4856.51 5473.88 64.26 5.00 471.61 2521.01
   18:04:26.538.25-Dec-2020 4856.51 5465.71 64.26 5.00 471.81 2521.01
   18:04:26.738.25-Dec-2020 4856.51 5465.71 64.26 5.00 472.01 2521.01
   18:04:26.938.25-Dec-2020 4856.51 5474.09 64.26 5.00 472.21 2521.01
   18:04:27.138.25-Dec-2020 4856.51 5465.55 64.26 5.00 472.41 2521.01
   18:04:27.338.25-Dec-2020 4856.51 5474.02 64.26 5.00 472.61 2521.01
   18:04:27.538.25-Dec-2020 4856.51 5468.30 64.26 5.00 472.81 2521.01
   18:04:27.738.25-Dec-2020 4856.51 5468.30 64.26 5.00 473.01 2521.01
   18:04:27.938.25-Dec-2020 4856.51 5463.15 64.26 5.00 473.21 2521.01
   18:04:28.138.25-Dec-2020 4856.51 5475.15 64.26 5.00 473.41 2521.01
   18:04:28.338.25-Dec-2020 4856.51 5470.88 64.26 5.00 473.61 2521.01
   18:04:28.538.25-Dec-2020 4856.51 5477.80 64.26 5.00 473.81 2521.01
   18:04:28.738.25-Dec-2020 4856.51 5477.80 64.26 5.00 474.01 2521.01
   18:04:28.938.25-Dec-2020 4856.51 5474.34 64.26 5.00 474.21 2521.01
   18:04:29.137.25-Dec-2020 4856.51 5470.48 64.26 5.00 474.41 2521.01
   18:04:29.337.25-Dec-2020 4856.51 5467.97 64.26 5.00 474.61 2521.01
   18:04:29.537.25-Dec-2020 4856.51 5467.94 64.26 5.00 474.81 2521.01
   18:04:29.737.25-Dec-2020 4856.51 5467.94 64.26 5.00 475.01 2521.01
   18:04:29.937.25-Dec-2020 4856.51 5467.47 64.26 5.00 475.21 2521.01
   18:04:30.137.25-Dec-2020 4856.51 5467.48 64.26 5.00 475.41 2521.01
   18:04:30.337.25-Dec-2020 4856.51 5467.57 64.26 5.00 475.61 2521.01
   18:04:30.537.25-Dec-2020 4856.51 5467.37 64.26 5.00 475.81 2521.01
   18:04:30.737.25-Dec-2020 4856.51 5467.37 64.26 5.00 476.01 2521.01
   18:04:30.937.25-Dec-2020 4856.51 5477.42 64.26 5.00 476.21 2521.01
   18:04:31.137.25-Dec-2020 4856.51 5459.66 64.26 5.00 476.41 2521.01
   18:04:31.337.25-Dec-2020 4856.51 5476.98 64.26 5.00 476.61 2521.01
   18:04:31.537.25-Dec-2020 4856.51 5471.34 64.26 5.00 476.81 2521.01
   18:04:31.736.25-Dec-2020 4856.51 5471.34 64.26 5.00 477.01 2521.01
   18:04:31.936.25-Dec-2020 4856.51 5470.20 64.26 5.00 477.21 2521.01
   18:04:32.136.25-Dec-2020 4856.51 5468.36 64.26 5.00 477.41 2521.01
   18:04:32.336.25-Dec-2020 4856.51 5468.73 64.26 5.00 477.61 2521.01
   18:04:32.536.25-Dec-2020 4856.51 5469.37 64.26 5.00 477.81 2521.01
   18:04:32.736.25-Dec-2020 4856.51 5469.37 64.26 5.00 478.01 2521.01
   18:04:32.936.25-Dec-2020 4856.51 5468.15 64.26 5.00 478.21 2521.01
   18:04:33.136.25-Dec-2020 4856.51 5467.81 64.26 5.00 478.41 2521.01
   18:04:33.336.25-Dec-2020 4856.51 5467.56 64.26 5.00 478.61 2521.01
   18:04:33.536.25-Dec-2020 4856.51 5467.49 64.26 5.00 478.81 2521.01
   18:04:33.736.25-Dec-2020 4856.51 5467.49 64.26 5.00 479.01 2521.01
   18:04:33.936.25-Dec-2020 4856.51 5469.30 64.26 5.00 479.21 2521.01
   18:04:34.135.25-Dec-2020 4856.51 5467.79 64.26 5.00 479.41 2521.01
   18:04:34.335.25-Dec-2020 4856.51 5482.45 64.26 5.00 479.61 2521.01
   18:04:34.535.25-Dec-2020 4856.51 5461.82 64.26 5.00 479.81 2521.01
   18:04:34.735.25-Dec-2020 4856.51 5461.82 64.26 5.00 480.01 2521.01
   18:04:34.935.25-Dec-2020 4856.51 5471.60 64.26 5.00 480.21 2521.01
   18:04:35.135.25-Dec-2020 4856.51 5467.47 64.26 5.00 480.41 2521.01
   18:04:35.335.25-Dec-2020 4856.51 5478.90 64.26 5.00 480.61 2521.01
   18:04:35.535.25-Dec-2020 4856.51 5459.96 64.26 5.00 480.81 2521.01
   18:04:35.735.25-Dec-2020 4856.51 5459.96 64.26 5.00 481.01 2521.01
   18:04:35.935.25-Dec-2020 4856.51 5470.88 64.26 5.00 481.21 2521.01
   18:04:36.135.25-Dec-2020 4856.51 5474.06 64.26 5.00 481.41 2521.01
   18:04:36.335.25-Dec-2020 4856.51 5470.56 64.26 5.00 481.61 2521.01
   18:04:36.535.25-Dec-2020 4856.51 5466.78 64.26 5.00 481.81 2521.01
   18:04:36.734.25-Dec-2020 4856.51 5466.78 64.26 5.00 482.01 2521.01
   18:04:36.934.25-Dec-2020 4856.51 5468.66 64.26 5.00 482.21 2521.01
   18:04:37.134.25-Dec-2020 4856.51 5466.00 64.26 5.00 482.41 2521.01
   18:04:37.334.25-Dec-2020 4856.51 5468.57 64.26 5.00 482.61 2521.01
