~Version Information
 VERS.                  2.0:   CWLS log ASCII Standard -VERSION 2.0
 WRAP.                   NO:   One line per depth step
~Well Information Block
#MNEM.UNIT     VALUE/NAME     DESCRIPTION
#---------     -----------    ---------------------------
 STRT.S             21:28:23 25-Dec-20: START TIME 21:28:23 25-Dec-20
 STOP.S             21:36:48 25-Dec-20: STOP TIME  21:36:48 25-Dec-20
 STEP.S                   0.00: STEP TIME
 NULL.                 -999.25: NULL VALUE
 DFWT.                        :  DIST FWL TEXT
 DFST.                        :  DIST FSL TEXT
 DMF .             Drill Floor:  DRILL MEAS FROM
 STIM.      04.54.24 22-Sep-20:  START TIME
 DATE.      04.54.24 21-Nov-20:  END TIME
 SPUD.               21-Nov-20:  SPUD DATE
 NREF.                    Grid:  NORTH REFERENCE
 HPTY.       Minimum Curvature:  HOLE POS TYPE
 DMOD.             Drill Model:  DRILL MOD DESC
 SVYD.                  Survey:  SURVEY DESC
 ILTD.               Lithology:  INTERP LTH DESC
 FTOP.          Formation Tops:  FORM TOPS DESC
 SON .        AZ-XX-0906571587:  JOB NUMBER
 COMP.     BP Exploration (Caspian Sea) Ltd:  COMPANY
 UWI .                     N/A:  UNIQUE WELL IDENTIFIER
 API .                     N/A:  API NUMBER
 BASE.              Azerbaijan:  LOGGING EQUIPMENT BASE LOCATION
 REGN.                   EESSA:  REGION
 PROV.                    Baku:  PROVINCE
 STAT.                    Baku:  STATE NAME
 CTRY.              Azerbaijan:  COUNTRY NAME
 FLD .                     ACG:  FIELD NAME
 SRVC.     TURAN Drilling & Engineering:  CONTRACTOR
 WELL.                     J27:  WELL NAME
 RIG .             West Chirag:  RIG NAME
 DOE .                     N/A:  DOE NUMBER
 DCON.         Sperry Drilling:  DIRECTNL CONTR
 PDAT.          Mean Sea Level:  PERMANENT DATUM
 WTYP.                Deviated:  WELL TYPE
 MWDS.                    Baku:  MWD SHOP
 JOBN.        AZ-XX-0906571587:  JOB TICKET NUMB
 UNIT.                     N/A:  LOGGING EQUIPMENT ID
 MDS .        Operator Entered:  MAG DATA SOURCE
 CNTY.                        :  COUNTY
 LOC .                        :  LOCATION
 LMF .             Drill Floor:  LOG MEASURED FROM
 TVDS.m                  43.00:  TVDSS CORRECTN
 LATI.deg                40.13:  LATITUDE
 LONG.deg                51.22:  LONGITUDE
 WHNS.m                   7.72:  WELL HEAD N/S
 WHEW.m                 -14.24:  WELL HEAD E/W
 UTMX.m              519005.06:  UTM X
 UTMY.m             4443793.85:  UTM Y
 DFWL.m                   0.00:  DISTANCE FWL
 DFSL.m                   0.00:  DISTANCE FSL
 SDEP.m                 347.00:  START DEPTH
 TDD .m                 581.00:  TOTAL DEPTH (DRILLER)
 VSDR.deg               159.72:  VERT SEC DIRECT
 GVFD.g                   1.00:  GRAVITY FIELD
 MFLD.nT              50318.00:  MAGNETIC FIELD
 MDIP.deg                59.57:  MAGNETIC DIP
 MDEC.deg                 6.44:  MAGNETIC DECL
 GRDC.deg                 0.15:  GRID CORRECTION
 AZTC.deg                 6.29:  AZM TOTAL CORR
 EPD .m                   0.00:  ELEVATION
 EGL .m                   0.00:  GROUND ELEVATION
 WDMS.m                 169.80:  WD ELEV
 APD .m                  43.00:  DEPTH ABOVE PD
 AGAP.m                  43.00:  AIR GAP
 VSEW.m                 -14.24:  VERT SEC E/W
 VSNS.m                   7.72:  VERT SEC N/S
 DEP .m                 342.45:  DEPTH
 EKB .m                   0.00:  KB ELEVATION
 EDF .m                  43.00:  DF ELEVATION
 TDL .m                 237.00:  TOTAL DEPTH (LOGGER)
 VSC .                       0:  VS TO CLOSURE
 MAGU.                 1851428:  MAGUTM CHECKSUM
~Parameter Information Block
#MNEM.UNIT       Value        Description
#---------     -----------    ---------------------------
 AV  .mps                 1.50:  Ann Velocity 
 AVMX.mps                 2.90:  Max Ann Veloc 
 AZIF.deg               115.59:  Azm, Final 
 BHAT.        Rotary Steerable:  BHA Type 
 BROT.°/30m               0.50:  Build Rotating 
 BS  .in                  8.50:  Bit Size 
 BTPL.psig              580.00:  Bit Press Loss 
 CABU.                     Yes:  Customer Abuse 
 COMM.                     Üc{:  Run Comments 1 
 TCS .hr                 89.79:  Time Ciculation Ended 
 CV  .mps                 3.22:  Crit Velocity 
 CVMX.mps                 4.37:  Max Crit Veloc 
 DD1 .          Rashad Habibov:  Direct Drillr 1 
 DDSV.               Geo-Pilot:  DD Service 
 DEFF.%                  95.00:  % Det Eff 
 DLRX.°/30m               1.94:  Dogleg Rot Max 
 DLSO.°/30m               0.70:  Dogleg Oriented 
 DLSX.°/30m               1.94:  Dogleg Str Max 
 DRET.      04.45.00 25-Dec-20:  Drill End Time 
 DRST.      10.00.00 24-Dec-20:  Drill Start Tim 
 DTIM.hr                 16.64:  Time Drilling 
 EDEP.m                4999.01:  End Depth 
 ENG1.         Elchin Mammadov:  Engineer 1 
 ENG2.          Ruslan Safarov:  Engineer 2 
 ENG3.          Rustam Safarov:  Engineer 3 
 ETIM.      09.00.00 29-Dec-20:  End Time 
 FLOI.gpm               500.00:  Flow In 
 FLON.gpm               400.00:  Flow In Min 
 FLOS.cptm                0.00:  Fluid Loss 
 FLOX.gpm               500.00:  Flow In Max 
 HFLO.                      No:  High Flow 
 HPRE.                      No:  High Pressure 
 HTEM.                      No:  High Temp 
 HYDO.m                   2.00:  Hydro Offset 
 IFIN.deg                66.79:  Inc, Final 
 IMAX.deg                67.66:  Inc Max 
 IMIN.deg                66.39:  Inc Min 
 IMND.m                4949.37:  Inc Min Depth 
 IMXD.m                4778.63:  Inc Max Depth 
 JARR.                     Yes:  Jarring 
 LETM.      04.45.00 25-Dec-20:  Log End Time 
 LOST.hr                     0:  Lost Rig Time 
 LSTM.      10.00.00 24-Dec-20:  Log Start Time 
 MDCL.ppm             39000.00:  Mud Chlorides 
 MDES.     Inversion Oil/Synthetic:  Mud Desc 
 DFD .sg                  1.33:  Mud Density 
 MDMN.sg                  1.33:  Dens Mud Min 
 MDMX.sg                  1.33:  Dens Mud Max 
 MOIL.                      70:  Run Mud Oil % 
 MOWR.                   70:30:  Run Mud OWR 
 MSND.                       0:  Run Mud Sand % 
 MSOL.                    17.4:  Run Mud Solids% 
 DFV .spqt               84.00:  Mud Viscosity 
 MWOD.in                  6.75:  MWD Tool OD 
 MWSI.                     Yes:  Serv Intrp, MWD 
 OTIM.hr                168.14:  Time Operating 
 PCON.           Look Like New:  Pad Condition 
 PMAX.psia            10822.93:  Press Op, Max 
 PV  .cP                 30.00:  Mud PV 
 RUN .                     900:  Run Number 
 ROPA.m/hr               18.00:  ROP Avg 
 ROPN.m/hr               12.00:  ROP Min 
 ROPX.m/hr               25.00:  ROP Max 
 RPMA.rpm               120.00:  RPM Surface Avg 
 RPMN.rpm               100.00:  RPM Surface Min 
 RPMX.rpm               120.00:  RPM Surface Max 
 RRUN.                    0900:  Rig Run Number 
 SAZI.deg               115.08:  Azm, Start 
 SDEP.m                4762.01:  Start Depth 
 SIDD.                      No:  Serv Intrp, DD 
 SINC.deg                66.14:  Inc, Start 
 SPPA.psig             3700.00:  SPP Avg 
 SPPN.psig             3620.00:  SPP Min 
 SPPX.psig             3900.00:  SPP Max 
 STIM.      09.30.00 22-Dec-20:  Start Time 
 SVCS.                 DD, MWD:  Services 
 SVER.                    9.20:  Sperry Version 
 TDAT.m                 237.00:  Tot Depth Attmp 
 TDDF.                      No:  Trip for DD 
 TDLG.m                 237.00:  Tot Depth Loggd 
 TFF .                      No:  Trip for Fail 
 TQAA.f-kp               18.00:  Torque Abs Avg 
 TQAN.f-kp               17.00:  Torque Abs Min 
 TQAX.f-kp               20.00:  Torque Abs Max 
 TRRT.°/30m               0.60:  Turn Rotating 
 MRT .                    HCIM:  Maximum Recorded Temperature 
 TTMX.degC               94.12:  Max Tool Temp 
 VS01.                90627809:  Virtual Str1 SN 
 VS02.                90527813:  Virtual Str2 SN 
 VS03.                90545417:  Virtual Str3 SN 
 VS04.                12460870:  Virtual Str4 SN 
 VS05.                90516706:  Virtual Str5 SN 
 VS06.                90632007:  Virtual Str6 SN 
 WBMN.klb                 0.00:  WOB Min 
 WOBA.klb                14.00:  WOB Avg 
 WOBX.klb                25.00:  WOB Max 
 YP  .lhf2               32.00:  Yield Point 
~Curve Information Block
#MNEM.UNIT                 API CODE     Curve Description
#---------               -----------    ---------------------------
 TIME.HHMMSS            00 000 000 000:  GT Time & Date
 GTDEPTH.m              00 000 000 000:  GT Depth
 GTPQH.psia             00 000 000 000:  GT HR Quartz Pressure
 GTTQ.degC              00 000 000 000:  GT Quartz Temperature
 GTTN.NONE              00 000 000 000:  GT Test Number
 GTET.sec               00 000 000 000:  GT Elapsed Test Time
 GTTVD.m                00 000 000 000:  GT True Vertical Depth
#Other Information
#
#WARRANTY: Halliburton will use its best efforts to furnish customers with 
#accurate information and interpretations that are part of, and incident to, the services 
#provided.  However, Halliburton cannot and does not warrant the accuracy 
#or correctness of such information and interpretations.  Under no circumstances should any 
#such information or interpretation be relied upon as the sole basis for any drilling, 
#completion, production, or financial decision or any procedure involving any risk to the 
#safety of any drilling venture, drilling rig or its crew or any other third party.  The 
#Customer has full responsibility for all drilling, completion and production operation.  
#Halliburton makes no representations or warranties, either expressed or 
#implied, including, but not limited to, the implied warranties of merchantability or fitness 
#for a particular purpose, with respect to the services rendered.  In no event will 
#Halliburton be liable for failure to obtain any particular results or for 
#any damages, including, but not limited to, indirect, special or consequential damages, 
#resulting from the use of any information or interpretation provided by Halliburton.
#
~A           TIME           GTDEPTH  GTPQH  GTTQ  GTTN  GTET   GTTVD  
# ...
   21:32:13.601.25-Dec-2020 4768.01 3241.02 63.83 9.00 229.98 2486.78
   21:32:13.801.25-Dec-2020 4768.01 3241.02 63.83 9.00 230.18 2486.78
   21:32:14.001.25-Dec-2020 4768.01 3242.22 63.83 9.00 230.38 2486.78
   21:32:14.201.25-Dec-2020 4768.01 3242.15 63.83 9.00 230.58 2486.78
   21:32:14.401.25-Dec-2020 4768.01 3242.07 63.83 9.00 230.78 2486.78
   21:32:14.601.25-Dec-2020 4768.01 3242.25 63.83 9.00 230.98 2486.78
   21:32:14.801.25-Dec-2020 4768.01 3242.27 63.83 9.00 231.18 2486.78
   21:32:15.001.25-Dec-2020 4768.01 3242.19 63.83 9.00 231.38 2486.78
   21:32:15.201.25-Dec-2020 4768.01 3242.33 63.83 9.00 231.58 2486.78
   21:32:15.401.25-Dec-2020 4768.01 3242.24 63.83 9.00 231.78 2486.78
   21:32:15.601.25-Dec-2020 4768.01 3242.31 63.83 9.00 231.98 2486.78
   21:32:15.801.25-Dec-2020 4768.01 3242.31 63.83 9.00 232.18 2486.78
   21:32:16.001.25-Dec-2020 4768.01 3241.18 63.83 9.00 232.38 2486.78
   21:32:16.201.25-Dec-2020 4768.01 3243.04 63.83 9.00 232.58 2486.78
   21:32:16.401.25-Dec-2020 4768.01 3242.36 63.83 9.00 232.78 2486.78
   21:32:16.601.25-Dec-2020 4768.01 3242.64 63.83 9.00 232.98 2486.78
   21:32:16.801.25-Dec-2020 4768.01 3242.64 63.83 9.00 233.18 2486.78
   21:32:17.001.25-Dec-2020 4768.01 3242.62 63.83 9.00 233.38 2486.78
   21:32:17.201.25-Dec-2020 4768.01 3241.85 63.83 9.00 233.58 2486.78
   21:32:17.401.25-Dec-2020 4768.01 3242.75 63.83 9.00 233.78 2486.78
   21:32:17.601.25-Dec-2020 4768.01 3241.88 63.83 9.00 233.98 2486.78
   21:32:17.801.25-Dec-2020 4768.01 3241.88 63.83 9.00 234.18 2486.78
   21:32:18.001.25-Dec-2020 4768.01 3242.73 63.83 9.00 234.38 2486.78
   21:32:18.201.25-Dec-2020 4768.01 3241.97 63.83 9.00 234.58 2486.78
   21:32:18.401.25-Dec-2020 4768.01 3243.57 63.83 9.00 234.78 2486.78
   21:32:18.601.25-Dec-2020 4768.01 3242.87 63.83 9.00 234.98 2486.78
   21:32:18.801.25-Dec-2020 4768.01 3242.87 63.83 9.00 235.18 2486.78
   21:32:19.001.25-Dec-2020 4768.01 3243.10 63.83 9.00 235.38 2486.78
   21:32:19.201.25-Dec-2020 4768.01 3243.16 63.83 9.00 235.58 2486.78
   21:32:19.401.25-Dec-2020 4768.01 3243.07 63.83 9.00 235.78 2486.78
   21:32:19.601.25-Dec-2020 4768.01 3243.16 63.83 9.00 235.98 2486.78
   21:32:19.801.25-Dec-2020 4768.01 3243.16 63.83 9.00 236.18 2486.78
   21:32:20.001.25-Dec-2020 4768.01 3243.15 63.83 9.00 236.38 2486.78
   21:32:20.201.25-Dec-2020 4768.01 3243.26 63.83 9.00 236.58 2486.78
   21:32:20.401.25-Dec-2020 4768.01 3243.20 63.83 9.00 236.78 2486.78
   21:32:20.601.25-Dec-2020 4768.01 3243.22 63.83 9.00 236.98 2486.78
   21:32:20.801.25-Dec-2020 4768.01 3243.22 63.83 9.00 237.18 2486.78
   21:32:21.001.25-Dec-2020 4768.01 3243.16 63.83 9.00 237.38 2486.78
   21:32:21.201.25-Dec-2020 4768.01 3243.65 63.83 9.00 237.58 2486.78
   21:32:21.401.25-Dec-2020 4768.01 3243.44 63.83 9.00 237.78 2486.78
   21:32:21.601.25-Dec-2020 4768.01 3243.39 63.83 9.00 237.98 2486.78
   21:32:21.801.25-Dec-2020 4768.01 3243.39 63.83 9.00 238.18 2486.78
   21:32:22.001.25-Dec-2020 4768.01 3243.44 63.83 9.00 238.38 2486.78
   21:32:22.201.25-Dec-2020 4768.01 3243.60 63.82 9.00 238.58 2486.78
   21:32:22.401.25-Dec-2020 4768.01 3243.57 63.83 9.00 238.78 2486.78
   21:32:22.601.25-Dec-2020 4768.01 3243.57 63.82 9.00 238.98 2486.78
   21:32:22.801.25-Dec-2020 4768.01 3243.66 63.82 9.00 239.18 2486.78
   21:32:23.001.25-Dec-2020 4768.01 3243.57 63.82 9.00 239.38 2486.78
   21:32:23.201.25-Dec-2020 4768.01 3242.52 63.82 9.00 239.58 2486.78
   21:32:23.401.25-Dec-2020 4768.01 3244.12 63.82 9.00 239.78 2486.78
   21:32:23.601.25-Dec-2020 4768.01 3243.53 63.82 9.00 239.98 2486.78
   21:32:23.801.25-Dec-2020 4768.01 3243.53 63.82 9.00 240.18 2486.78
   21:32:24.001.25-Dec-2020 4768.01 3243.82 63.82 9.00 240.38 2486.78
   21:32:24.201.25-Dec-2020 4768.01 3243.88 63.82 9.00 240.58 2486.78
   21:32:24.401.25-Dec-2020 4768.01 3242.86 63.82 9.00 240.78 2486.78
   21:32:24.601.25-Dec-2020 4768.01 3243.87 63.82 9.00 240.98 2486.78
   21:32:24.801.25-Dec-2020 4768.01 3243.87 63.82 9.00 241.18 2486.78
   21:32:25.001.25-Dec-2020 4768.01 3243.59 63.82 9.00 241.38 2486.78
   21:32:25.201.25-Dec-2020 4768.01 3243.99 63.82 9.00 241.58 2486.78
   21:32:25.401.25-Dec-2020 4768.01 3244.40 63.82 9.00 241.78 2486.78
   21:32:25.601.25-Dec-2020 4768.01 3243.17 63.82 9.00 241.98 2486.78
   21:32:25.801.25-Dec-2020 4768.01 3244.25 63.82 9.00 242.18 2486.78
   21:32:26.001.25-Dec-2020 4768.01 3244.32 63.82 9.00 242.38 2486.78
   21:32:26.201.25-Dec-2020 4768.01 3244.30 63.82 9.00 242.58 2486.78
   21:32:26.401.25-Dec-2020 4768.01 3244.25 63.82 9.00 242.78 2486.78
   21:32:26.601.25-Dec-2020 4768.01 3244.15 63.82 9.00 242.98 2486.78
   21:32:26.801.25-Dec-2020 4768.01 3244.36 63.82 9.00 243.18 2486.78
   21:32:27.001.25-Dec-2020 4768.01 3244.22 63.82 9.00 243.38 2486.78
   21:32:27.201.25-Dec-2020 4768.01 3244.30 63.82 9.00 243.58 2486.78
   21:32:27.401.25-Dec-2020 4768.01 3244.29 63.82 9.00 243.78 2486.78
   21:32:27.601.25-Dec-2020 4768.01 3244.25 63.82 9.00 243.98 2486.78
   21:32:27.801.25-Dec-2020 4768.01 3244.25 63.82 9.00 244.18 2486.78
   21:32:28.001.25-Dec-2020 4768.01 3243.10 63.82 9.00 244.38 2486.78
   21:32:28.201.25-Dec-2020 4768.01 3244.83 63.82 9.00 244.58 2486.78
   21:32:28.401.25-Dec-2020 4768.01 3244.29 63.82 9.00 244.78 2486.78
   21:32:28.600.25-Dec-2020 4768.01 3244.50 63.82 9.00 244.98 2486.78
   21:32:28.800.25-Dec-2020 4768.01 3244.50 63.82 9.00 245.18 2486.78
   21:32:29.000.25-Dec-2020 4768.01 3244.43 63.82 9.00 245.38 2486.78
   21:32:29.200.25-Dec-2020 4768.01 3244.50 63.82 9.00 245.58 2486.78
   21:32:29.400.25-Dec-2020 4768.01 3244.60 63.82 9.00 245.78 2486.78
   21:32:29.600.25-Dec-2020 4768.01 3244.56 63.82 9.00 245.98 2486.78
   21:32:29.800.25-Dec-2020 4768.01 3244.56 63.82 9.00 246.18 2486.78
   21:32:30.000.25-Dec-2020 4768.01 3244.57 63.82 9.00 246.38 2486.78
   21:32:30.200.25-Dec-2020 4768.01 3244.62 63.82 9.00 246.58 2486.78
   21:32:30.400.25-Dec-2020 4768.01 3244.65 63.82 9.00 246.78 2486.78
   21:32:30.600.25-Dec-2020 4768.01 3243.61 63.82 9.00 246.98 2486.78
   21:32:30.800.25-Dec-2020 4768.01 3243.61 63.82 9.00 247.18 2486.78
   21:32:31.000.25-Dec-2020 4768.01 3244.66 63.82 9.00 247.38 2486.78
   21:32:31.200.25-Dec-2020 4768.01 3244.92 63.82 9.00 247.58 2486.78
   21:32:31.400.25-Dec-2020 4768.01 3244.83 63.82 9.00 247.78 2486.78
   21:32:31.600.25-Dec-2020 4768.01 3244.30 63.82 9.00 247.98 2486.78
   21:32:31.800.25-Dec-2020 4768.01 3244.30 63.82 9.00 248.18 2486.78
   21:32:32.000.25-Dec-2020 4768.01 3244.76 63.82 9.00 248.38 2486.78
   21:32:32.200.25-Dec-2020 4768.01 3244.12 63.82 9.00 248.58 2486.78
   21:32:32.400.25-Dec-2020 4768.01 3245.66 63.82 9.00 248.78 2486.78
   21:32:32.600.25-Dec-2020 4768.01 3244.78 63.82 9.00 248.98 2486.78
   21:32:32.800.25-Dec-2020 4768.01 3244.78 63.82 9.00 249.18 2486.78
   21:32:33.000.25-Dec-2020 4768.01 3243.87 63.82 9.00 249.38 2486.78
   21:32:33.200.25-Dec-2020 4768.01 3245.42 63.82 9.00 249.58 2486.78
   21:32:33.400.25-Dec-2020 4768.01 3245.01 63.82 9.00 249.78 2486.78
   21:32:33.600.25-Dec-2020 4768.01 3245.15 63.82 9.00 249.98 2486.78
   21:32:33.800.25-Dec-2020 4768.01 3245.15 63.82 9.00 250.18 2486.78
   21:32:34.000.25-Dec-2020 4768.01 3245.08 63.82 9.00 250.38 2486.78
   21:32:34.200.25-Dec-2020 4768.01 3245.15 63.82 9.00 250.58 2486.78
   21:32:34.400.25-Dec-2020 4768.01 3245.21 63.82 9.00 250.78 2486.78
   21:32:34.600.25-Dec-2020 4768.01 3245.14 63.82 9.00 250.98 2486.78
   21:32:34.800.25-Dec-2020 4768.01 3245.22 63.82 9.00 251.18 2486.78
   21:32:35.000.25-Dec-2020 4768.01 3245.16 63.82 9.00 251.38 2486.78
   21:32:35.200.25-Dec-2020 4768.01 3245.19 63.82 9.00 251.58 2486.78
   21:32:35.400.25-Dec-2020 4768.01 3245.26 63.82 9.00 251.78 2486.78
   21:32:35.600.25-Dec-2020 4768.01 3244.15 63.82 9.00 251.98 2486.78
   21:32:35.800.25-Dec-2020 4768.01 3244.15 63.82 9.00 252.18 2486.78
   21:32:36.000.25-Dec-2020 4768.01 3245.25 63.82 9.00 252.38 2486.78
   21:32:36.200.25-Dec-2020 4768.01 3245.41 63.82 9.00 252.58 2486.78
   21:32:36.400.25-Dec-2020 4768.01 3245.34 63.82 9.00 252.78 2486.78
