~Version Information
 VERS.                  2.0:   CWLS log ASCII Standard -VERSION 2.0
 WRAP.                   NO:   One line per depth step
~Well Information Block
#MNEM.UNIT     VALUE/NAME     DESCRIPTION
#---------     -----------    ---------------------------
 STRT.S             18:45:29 25-Dec-20: START TIME 18:45:29 25-Dec-20
 STOP.S             18:53:50 25-Dec-20: STOP TIME  18:53:50 25-Dec-20
 STEP.S                   0.00: STEP TIME
 NULL.                 -999.25: NULL VALUE
 DFWT.                        :  DIST FWL TEXT
 DFST.                        :  DIST FSL TEXT
 DMF .             Drill Floor:  DRILL MEAS FROM
 STIM.      04.54.24 22-Sep-20:  START TIME
 DATE.      04.54.24 21-Nov-20:  END TIME
 SPUD.               21-Nov-20:  SPUD DATE
 NREF.                    Grid:  NORTH REFERENCE
 HPTY.       Minimum Curvature:  HOLE POS TYPE
 DMOD.             Drill Model:  DRILL MOD DESC
 SVYD.                  Survey:  SURVEY DESC
 ILTD.               Lithology:  INTERP LTH DESC
 FTOP.          Formation Tops:  FORM TOPS DESC
 SON .        AZ-XX-0906571587:  JOB NUMBER
 COMP.     BP Exploration (Caspian Sea) Ltd:  COMPANY
 UWI .                     N/A:  UNIQUE WELL IDENTIFIER
 API .                     N/A:  API NUMBER
 BASE.              Azerbaijan:  LOGGING EQUIPMENT BASE LOCATION
 REGN.                   EESSA:  REGION
 PROV.                    Baku:  PROVINCE
 STAT.                    Baku:  STATE NAME
 CTRY.              Azerbaijan:  COUNTRY NAME
 FLD .                     ACG:  FIELD NAME
 SRVC.     TURAN Drilling & Engineering:  CONTRACTOR
 WELL.                     J27:  WELL NAME
 RIG .             West Chirag:  RIG NAME
 DOE .                     N/A:  DOE NUMBER
 DCON.         Sperry Drilling:  DIRECTNL CONTR
 PDAT.          Mean Sea Level:  PERMANENT DATUM
 WTYP.                Deviated:  WELL TYPE
 MWDS.                    Baku:  MWD SHOP
 JOBN.        AZ-XX-0906571587:  JOB TICKET NUMB
 UNIT.                     N/A:  LOGGING EQUIPMENT ID
 MDS .        Operator Entered:  MAG DATA SOURCE
 CNTY.                        :  COUNTY
 LOC .                        :  LOCATION
 LMF .             Drill Floor:  LOG MEASURED FROM
 TVDS.m                  43.00:  TVDSS CORRECTN
 LATI.deg                40.13:  LATITUDE
 LONG.deg                51.22:  LONGITUDE
 WHNS.m                   7.72:  WELL HEAD N/S
 WHEW.m                 -14.24:  WELL HEAD E/W
 UTMX.m              519005.06:  UTM X
 UTMY.m             4443793.85:  UTM Y
 DFWL.m                   0.00:  DISTANCE FWL
 DFSL.m                   0.00:  DISTANCE FSL
 SDEP.m                 347.00:  START DEPTH
 TDD .m                 581.00:  TOTAL DEPTH (DRILLER)
 VSDR.deg               159.72:  VERT SEC DIRECT
 GVFD.g                   1.00:  GRAVITY FIELD
 MFLD.nT              50318.00:  MAGNETIC FIELD
 MDIP.deg                59.57:  MAGNETIC DIP
 MDEC.deg                 6.44:  MAGNETIC DECL
 GRDC.deg                 0.15:  GRID CORRECTION
 AZTC.deg                 6.29:  AZM TOTAL CORR
 EPD .m                   0.00:  ELEVATION
 EGL .m                   0.00:  GROUND ELEVATION
 WDMS.m                 169.80:  WD ELEV
 APD .m                  43.00:  DEPTH ABOVE PD
 AGAP.m                  43.00:  AIR GAP
 VSEW.m                 -14.24:  VERT SEC E/W
 VSNS.m                   7.72:  VERT SEC N/S
 DEP .m                 342.45:  DEPTH
 EKB .m                   0.00:  KB ELEVATION
 EDF .m                  43.00:  DF ELEVATION
 TDL .m                 237.00:  TOTAL DEPTH (LOGGER)
 VSC .                       0:  VS TO CLOSURE
 MAGU.                 1851428:  MAGUTM CHECKSUM
~Parameter Information Block
#MNEM.UNIT       Value        Description
#---------     -----------    ---------------------------
 AV  .mps                 1.50:  Ann Velocity 
 AVMX.mps                 2.90:  Max Ann Veloc 
 AZIF.deg               115.59:  Azm, Final 
 BHAT.        Rotary Steerable:  BHA Type 
 BROT.°/30m               0.50:  Build Rotating 
 BS  .in                  8.50:  Bit Size 
 BTPL.psig              580.00:  Bit Press Loss 
 CABU.                     Yes:  Customer Abuse 
 TCS .hr                 89.79:  Time Ciculation Ended 
 CV  .mps                 3.22:  Crit Velocity 
 CVMX.mps                 4.37:  Max Crit Veloc 
 DD1 .          Rashad Habibov:  Direct Drillr 1 
 DDSV.               Geo-Pilot:  DD Service 
 DEFF.%                  95.00:  % Det Eff 
 DLRX.°/30m               1.94:  Dogleg Rot Max 
 DLSO.°/30m               0.70:  Dogleg Oriented 
 DLSX.°/30m               1.94:  Dogleg Str Max 
 DRET.      04.45.00 25-Dec-20:  Drill End Time 
 DRST.      10.00.00 24-Dec-20:  Drill Start Tim 
 DTIM.hr                 16.64:  Time Drilling 
 EDEP.m                4999.01:  End Depth 
 ENG1.         Elchin Mammadov:  Engineer 1 
 ENG2.          Ruslan Safarov:  Engineer 2 
 ENG3.          Rustam Safarov:  Engineer 3 
 ETIM.      09.00.00 29-Dec-20:  End Time 
 FLOI.gpm               500.00:  Flow In 
 FLON.gpm               400.00:  Flow In Min 
 FLOS.cptm                0.00:  Fluid Loss 
 FLOX.gpm               500.00:  Flow In Max 
 HFLO.                      No:  High Flow 
 HPRE.                      No:  High Pressure 
 HTEM.                      No:  High Temp 
 HYDO.m                   2.00:  Hydro Offset 
 IFIN.deg                66.79:  Inc, Final 
 IMAX.deg                67.66:  Inc Max 
 IMIN.deg                66.39:  Inc Min 
 IMND.m                4949.37:  Inc Min Depth 
 IMXD.m                4778.63:  Inc Max Depth 
 JARR.                     Yes:  Jarring 
 LETM.      04.45.00 25-Dec-20:  Log End Time 
 LOST.hr                     0:  Lost Rig Time 
 LSTM.      10.00.00 24-Dec-20:  Log Start Time 
 MDCL.ppm             39000.00:  Mud Chlorides 
 MDES.     Inversion Oil/Synthetic:  Mud Desc 
 DFD .sg                  1.33:  Mud Density 
 MDMN.sg                  1.33:  Dens Mud Min 
 MDMX.sg                  1.33:  Dens Mud Max 
 MOIL.                      70:  Run Mud Oil % 
 MOWR.                   70:30:  Run Mud OWR 
 MSND.                       0:  Run Mud Sand % 
 MSOL.                    17.4:  Run Mud Solids% 
 DFV .spqt               84.00:  Mud Viscosity 
 MWOD.in                  6.75:  MWD Tool OD 
 MWSI.                     Yes:  Serv Intrp, MWD 
 OTIM.hr                168.14:  Time Operating 
 PCON.           Look Like New:  Pad Condition 
 PMAX.psia            10822.93:  Press Op, Max 
 PV  .cP                 30.00:  Mud PV 
 RUN .                     900:  Run Number 
 ROPA.m/hr               18.00:  ROP Avg 
 ROPN.m/hr               12.00:  ROP Min 
 ROPX.m/hr               25.00:  ROP Max 
 RPMA.rpm               120.00:  RPM Surface Avg 
 RPMN.rpm               100.00:  RPM Surface Min 
 RPMX.rpm               120.00:  RPM Surface Max 
 RRUN.                    0900:  Rig Run Number 
 SAZI.deg               115.08:  Azm, Start 
 SDEP.m                4762.01:  Start Depth 
 SIDD.                      No:  Serv Intrp, DD 
 SINC.deg                66.14:  Inc, Start 
 SPPA.psig             3700.00:  SPP Avg 
 SPPN.psig             3620.00:  SPP Min 
 SPPX.psig             3900.00:  SPP Max 
 STIM.      09.30.00 22-Dec-20:  Start Time 
 SVCS.                 DD, MWD:  Services 
 SVER.                    9.20:  Sperry Version 
 TDAT.m                 237.00:  Tot Depth Attmp 
 TDDF.                      No:  Trip for DD 
 TDLG.m                 237.00:  Tot Depth Loggd 
 TFF .                      No:  Trip for Fail 
 TQAA.f-kp               18.00:  Torque Abs Avg 
 TQAN.f-kp               17.00:  Torque Abs Min 
 TQAX.f-kp               20.00:  Torque Abs Max 
 TRRT.°/30m               0.60:  Turn Rotating 
 MRT .                    HCIM:  Maximum Recorded Temperature 
 TTMX.degC               94.12:  Max Tool Temp 
 VS01.                90627809:  Virtual Str1 SN 
 VS02.                90527813:  Virtual Str2 SN 
 VS03.                90545417:  Virtual Str3 SN 
 VS04.                12460870:  Virtual Str4 SN 
 VS05.                90516706:  Virtual Str5 SN 
 VS06.                90632007:  Virtual Str6 SN 
 WBMN.klb                 0.00:  WOB Min 
 WOBA.klb                14.00:  WOB Avg 
 WOBX.klb                25.00:  WOB Max 
 YP  .lhf2               32.00:  Yield Point 
~Curve Information Block
#MNEM.UNIT                 API CODE     Curve Description
#---------               -----------    ---------------------------
 TIME.HHMMSS            00 000 000 000:  GT Time & Date
 GTDEPTH.m              00 000 000 000:  GT Depth
 GTPQH.psia             00 000 000 000:  GT HR Quartz Pressure
 GTTQ.degC              00 000 000 000:  GT Quartz Temperature
 GTTN.NONE              00 000 000 000:  GT Test Number
 GTET.sec               00 000 000 000:  GT Elapsed Test Time
 GTTVD.m                00 000 000 000:  GT True Vertical Depth
#Other Information
#
#WARRANTY: Halliburton will use its best efforts to furnish customers with 
#accurate information and interpretations that are part of, and incident to, the services 
#provided.  However, Halliburton cannot and does not warrant the accuracy 
#or correctness of such information and interpretations.  Under no circumstances should any 
#such information or interpretation be relied upon as the sole basis for any drilling, 
#completion, production, or financial decision or any procedure involving any risk to the 
#safety of any drilling venture, drilling rig or its crew or any other third party.  The 
#Customer has full responsibility for all drilling, completion and production operation.  
#Halliburton makes no representations or warranties, either expressed or 
#implied, including, but not limited to, the implied warranties of merchantability or fitness 
#for a particular purpose, with respect to the services rendered.  In no event will 
#Halliburton be liable for failure to obtain any particular results or for 
#any damages, including, but not limited to, indirect, special or consequential damages, 
#resulting from the use of any information or interpretation provided by Halliburton.
#
~A           TIME           GTDEPTH  GTPQH  GTTQ  GTTN  GTET   GTTVD  
# ...
   18:49:43.064.25-Dec-2020 4831.01 3415.98 64.22 6.00 253.20 2510.98
   18:49:43.264.25-Dec-2020 4831.01 3415.98 64.22 6.00 253.40 2510.98
   18:49:43.464.25-Dec-2020 4831.01 3416.23 64.22 6.00 253.60 2510.98
   18:49:43.665.25-Dec-2020 4831.01 3416.09 64.22 6.00 253.80 2510.98
   18:49:43.865.25-Dec-2020 4831.01 3415.69 64.22 6.00 254.00 2510.98
   18:49:44.065.25-Dec-2020 4831.01 3416.28 64.22 6.00 254.20 2510.98
   18:49:44.265.25-Dec-2020 4831.01 3416.28 64.22 6.00 254.40 2510.98
   18:49:44.465.25-Dec-2020 4831.01 3416.06 64.22 6.00 254.60 2510.98
   18:49:44.665.25-Dec-2020 4831.01 3415.97 64.22 6.00 254.80 2510.98
   18:49:44.866.25-Dec-2020 4831.01 3415.67 64.22 6.00 255.00 2510.98
   18:49:45.066.25-Dec-2020 4831.01 3416.26 64.22 6.00 255.20 2510.98
   18:49:45.266.25-Dec-2020 4831.01 3416.26 64.22 6.00 255.40 2510.98
   18:49:45.466.25-Dec-2020 4831.01 3416.07 64.22 6.00 255.60 2510.98
   18:49:45.666.25-Dec-2020 4831.01 3415.82 64.22 6.00 255.80 2510.98
   18:49:45.866.25-Dec-2020 4831.01 3415.99 64.22 6.00 256.00 2510.98
   18:49:46.066.25-Dec-2020 4831.01 3416.20 64.22 6.00 256.20 2510.98
   18:49:46.267.25-Dec-2020 4831.01 3416.20 64.22 6.00 256.40 2510.98
   18:49:46.467.25-Dec-2020 4831.01 3415.99 64.22 6.00 256.60 2510.98
   18:49:46.667.25-Dec-2020 4831.01 3415.98 64.22 6.00 256.80 2510.98
   18:49:46.867.25-Dec-2020 4831.01 3415.96 64.22 6.00 257.00 2510.98
   18:49:47.067.25-Dec-2020 4831.01 3416.00 64.22 6.00 257.20 2510.98
   18:49:47.267.25-Dec-2020 4831.01 3416.00 64.22 6.00 257.40 2510.98
   18:49:47.468.25-Dec-2020 4831.01 3415.96 64.22 6.00 257.60 2510.98
   18:49:47.668.25-Dec-2020 4831.01 3416.00 64.22 6.00 257.80 2510.98
   18:49:47.868.25-Dec-2020 4831.01 3415.96 64.22 6.00 258.00 2510.98
   18:49:48.068.25-Dec-2020 4831.01 3415.43 64.22 6.00 258.20 2510.98
   18:49:48.268.25-Dec-2020 4831.01 3415.43 64.22 6.00 258.40 2510.98
   18:49:48.468.25-Dec-2020 4831.01 3416.02 64.22 6.00 258.60 2510.98
   18:49:48.669.25-Dec-2020 4831.01 3416.01 64.22 6.00 258.80 2510.98
   18:49:48.869.25-Dec-2020 4831.01 3416.00 64.22 6.00 259.00 2510.98
   18:49:49.069.25-Dec-2020 4831.01 3416.01 64.22 6.00 259.20 2510.98
   18:49:49.269.25-Dec-2020 4831.01 3416.01 64.22 6.00 259.40 2510.98
   18:49:49.469.25-Dec-2020 4831.01 3415.98 64.22 6.00 259.61 2510.98
   18:49:49.669.25-Dec-2020 4831.01 3416.01 64.22 6.00 259.81 2510.98
   18:49:49.869.25-Dec-2020 4831.01 3415.99 64.22 6.00 260.01 2510.98
   18:49:50.070.25-Dec-2020 4831.01 3415.98 64.22 6.00 260.21 2510.98
   18:49:50.270.25-Dec-2020 4831.01 3416.00 64.22 6.00 260.41 2510.98
   18:49:50.470.25-Dec-2020 4831.01 3415.96 64.22 6.00 260.61 2510.98
   18:49:50.670.25-Dec-2020 4831.01 3415.86 64.22 6.00 260.81 2510.98
   18:49:50.870.25-Dec-2020 4831.01 3416.29 64.22 6.00 261.01 2510.98
   18:49:51.070.25-Dec-2020 4831.01 3415.98 64.22 6.00 261.21 2510.98
   18:49:51.271.25-Dec-2020 4831.01 3415.98 64.22 6.00 261.41 2510.98
   18:49:51.471.25-Dec-2020 4831.01 3416.04 64.22 6.00 261.61 2510.98
   18:49:51.671.25-Dec-2020 4831.01 3416.04 64.22 6.00 261.81 2510.98
   18:49:51.871.25-Dec-2020 4831.01 3416.08 64.22 6.00 262.01 2510.98
   18:49:52.071.25-Dec-2020 4831.01 3416.04 64.22 6.00 262.21 2510.98
   18:49:52.271.25-Dec-2020 4831.01 3416.04 64.22 6.00 262.41 2510.98
   18:49:52.472.25-Dec-2020 4831.01 3416.26 64.22 6.00 262.61 2510.98
   18:49:52.672.25-Dec-2020 4831.01 3416.21 64.22 6.00 262.81 2510.98
   18:49:52.872.25-Dec-2020 4831.01 3416.08 64.22 6.00 263.01 2510.98
   18:49:53.072.25-Dec-2020 4831.01 3416.01 64.22 6.00 263.21 2510.98
   18:49:53.272.25-Dec-2020 4831.01 3416.01 64.22 6.00 263.41 2510.98
   18:49:53.472.25-Dec-2020 4831.01 3416.01 64.22 6.00 263.61 2510.98
   18:49:53.672.25-Dec-2020 4831.01 3416.14 64.22 6.00 263.81 2510.98
   18:49:53.873.25-Dec-2020 4831.01 3416.10 64.22 6.00 264.01 2510.98
   18:49:54.073.25-Dec-2020 4831.01 3415.99 64.22 6.00 264.21 2510.98
   18:49:54.273.25-Dec-2020 4831.01 3416.00 64.22 6.00 264.41 2510.98
   18:49:54.473.25-Dec-2020 4831.01 3415.99 64.22 6.00 264.61 2510.98
   18:49:54.673.25-Dec-2020 4831.01 3416.02 64.22 6.00 264.81 2510.98
   18:49:54.873.25-Dec-2020 4831.01 3415.99 64.22 6.00 265.01 2510.98
   18:49:55.074.25-Dec-2020 4831.01 3415.98 64.22 6.00 265.21 2510.98
   18:49:55.274.25-Dec-2020 4831.01 3415.98 64.22 6.00 265.41 2510.98
   18:49:55.474.25-Dec-2020 4831.01 3415.98 64.22 6.00 265.61 2510.98
   18:49:55.674.25-Dec-2020 4831.01 3415.63 64.22 6.00 265.81 2510.98
   18:49:55.874.25-Dec-2020 4831.01 3416.31 64.22 6.00 266.01 2510.98
   18:49:56.074.25-Dec-2020 4831.01 3416.14 64.22 6.00 266.21 2510.98
   18:49:56.275.25-Dec-2020 4831.01 3416.14 64.22 6.00 266.41 2510.98
   18:49:56.475.25-Dec-2020 4831.01 3416.01 64.22 6.00 266.61 2510.98
   18:49:56.675.25-Dec-2020 4831.01 3416.05 64.22 6.00 266.81 2510.98
   18:49:56.875.25-Dec-2020 4831.01 3416.04 64.22 6.00 267.01 2510.98
   18:49:57.075.25-Dec-2020 4831.01 3415.98 64.22 6.00 267.21 2510.98
   18:49:57.275.25-Dec-2020 4831.01 3415.98 64.22 6.00 267.41 2510.98
   18:49:57.475.25-Dec-2020 4831.01 3415.98 64.22 6.00 267.61 2510.98
   18:49:57.676.25-Dec-2020 4831.01 3415.99 64.22 6.00 267.81 2510.98
   18:49:57.876.25-Dec-2020 4831.01 3416.00 64.22 6.00 268.01 2510.98
   18:49:58.076.25-Dec-2020 4831.01 3415.97 64.22 6.00 268.21 2510.98
   18:49:58.276.25-Dec-2020 4831.01 3415.40 64.22 6.00 268.41 2510.98
   18:49:58.476.25-Dec-2020 4831.01 3416.74 64.22 6.00 268.61 2510.98
   18:49:58.676.25-Dec-2020 4831.01 3416.09 64.22 6.00 268.81 2510.98
   18:49:58.877.25-Dec-2020 4831.01 3415.47 64.22 6.00 269.01 2510.98
   18:49:59.077.25-Dec-2020 4831.01 3416.65 64.22 6.00 269.21 2510.98
   18:49:59.277.25-Dec-2020 4831.01 3416.65 64.22 6.00 269.41 2510.98
   18:49:59.477.25-Dec-2020 4831.01 3416.04 64.22 6.00 269.61 2510.98
   18:49:59.677.25-Dec-2020 4831.01 3416.01 64.22 6.00 269.81 2510.98
   18:49:59.877.25-Dec-2020 4831.01 3415.47 64.22 6.00 270.01 2510.98
   18:50:00.078.25-Dec-2020 4831.01 3416.69 64.22 6.00 270.21 2510.98
   18:50:00.278.25-Dec-2020 4831.01 3416.69 64.22 6.00 270.41 2510.98
   18:50:00.478.25-Dec-2020 4831.01 3415.68 64.22 6.00 270.61 2510.98
   18:50:00.678.25-Dec-2020 4831.01 3416.18 64.22 6.00 270.81 2510.98
   18:50:00.878.25-Dec-2020 4831.01 3416.14 64.22 6.00 271.01 2510.98
   18:50:01.078.25-Dec-2020 4831.01 3416.20 64.22 6.00 271.21 2510.98
   18:50:01.278.25-Dec-2020 4831.01 3416.20 64.22 6.00 271.41 2510.98
   18:50:01.479.25-Dec-2020 4831.01 3416.06 64.22 6.00 271.61 2510.98
   18:50:01.679.25-Dec-2020 4831.01 3416.00 64.22 6.00 271.81 2510.98
   18:50:01.879.25-Dec-2020 4831.01 3416.03 64.22 6.00 272.01 2510.98
   18:50:02.079.25-Dec-2020 4831.01 3416.00 64.22 6.00 272.21 2510.98
   18:50:02.279.25-Dec-2020 4831.01 3416.00 64.22 6.00 272.42 2510.98
   18:50:02.479.25-Dec-2020 4831.01 3415.99 64.22 6.00 272.62 2510.98
   18:50:02.680.25-Dec-2020 4831.01 3416.00 64.21 6.00 272.82 2510.98
   18:50:02.880.25-Dec-2020 4831.01 3416.02 64.22 6.00 273.02 2510.98
   18:50:03.080.25-Dec-2020 4831.01 3415.69 64.21 6.00 273.22 2510.98
   18:50:03.280.25-Dec-2020 4831.01 3415.69 64.21 6.00 273.42 2510.98
   18:50:03.480.25-Dec-2020 4831.01 3416.05 64.21 6.00 273.62 2510.98
   18:50:03.680.25-Dec-2020 4831.01 3416.15 64.21 6.00 273.82 2510.98
   18:50:03.881.25-Dec-2020 4831.01 3416.10 64.21 6.00 274.02 2510.98
   18:50:04.081.25-Dec-2020 4831.01 3415.99 64.21 6.00 274.22 2510.98
   18:50:04.281.25-Dec-2020 4831.01 3415.99 64.21 6.00 274.42 2510.98
   18:50:04.481.25-Dec-2020 4831.01 3416.05 64.21 6.00 274.62 2510.98
   18:50:04.681.25-Dec-2020 4831.01 3416.01 64.21 6.00 274.82 2510.98
   18:50:04.881.25-Dec-2020 4831.01 3416.04 64.21 6.00 275.02 2510.98
   18:50:05.082.25-Dec-2020 4831.01 3416.01 64.21 6.00 275.22 2510.98
   18:50:05.282.25-Dec-2020 4831.01 3416.01 64.21 6.00 275.42 2510.98
   18:50:05.482.25-Dec-2020 4831.01 3416.02 64.21 6.00 275.62 2510.98
   18:50:05.682.25-Dec-2020 4831.01 3415.88 64.21 6.00 275.82 2510.98
   18:50:05.882.25-Dec-2020 4831.01 3416.22 64.21 6.00 276.02 2510.98
