~Version Information
 VERS.                  2.0:   CWLS log ASCII Standard -VERSION 2.0
 WRAP.                   NO:   One line per depth step
~Well Information Block
#MNEM.UNIT     VALUE/NAME     DESCRIPTION
#---------     -----------    ---------------------------
 STRT.S             18:45:29 25-Dec-20: START TIME 18:45:29 25-Dec-20
 STOP.S             18:53:50 25-Dec-20: STOP TIME  18:53:50 25-Dec-20
 STEP.S                   0.00: STEP TIME
 NULL.                 -999.25: NULL VALUE
 DFWT.                        :  DIST FWL TEXT
 DFST.                        :  DIST FSL TEXT
 DMF .             Drill Floor:  DRILL MEAS FROM
 STIM.      04.54.24 22-Sep-20:  START TIME
 DATE.      04.54.24 21-Nov-20:  END TIME
 SPUD.               21-Nov-20:  SPUD DATE
 NREF.                    Grid:  NORTH REFERENCE
 HPTY.       Minimum Curvature:  HOLE POS TYPE
 DMOD.             Drill Model:  DRILL MOD DESC
 SVYD.                  Survey:  SURVEY DESC
 ILTD.               Lithology:  INTERP LTH DESC
 FTOP.          Formation Tops:  FORM TOPS DESC
 SON .        AZ-XX-0906571587:  JOB NUMBER
 COMP.     BP Exploration (Caspian Sea) Ltd:  COMPANY
 UWI .                     N/A:  UNIQUE WELL IDENTIFIER
 API .                     N/A:  API NUMBER
 BASE.              Azerbaijan:  LOGGING EQUIPMENT BASE LOCATION
 REGN.                   EESSA:  REGION
 PROV.                    Baku:  PROVINCE
 STAT.                    Baku:  STATE NAME
 CTRY.              Azerbaijan:  COUNTRY NAME
 FLD .                     ACG:  FIELD NAME
 SRVC.     TURAN Drilling & Engineering:  CONTRACTOR
 WELL.                     J27:  WELL NAME
 RIG .             West Chirag:  RIG NAME
 DOE .                     N/A:  DOE NUMBER
 DCON.         Sperry Drilling:  DIRECTNL CONTR
 PDAT.          Mean Sea Level:  PERMANENT DATUM
 WTYP.                Deviated:  WELL TYPE
 MWDS.                    Baku:  MWD SHOP
 JOBN.        AZ-XX-0906571587:  JOB TICKET NUMB
 UNIT.                     N/A:  LOGGING EQUIPMENT ID
 MDS .        Operator Entered:  MAG DATA SOURCE
 CNTY.                        :  COUNTY
 LOC .                        :  LOCATION
 LMF .             Drill Floor:  LOG MEASURED FROM
 TVDS.m                  43.00:  TVDSS CORRECTN
 LATI.deg                40.13:  LATITUDE
 LONG.deg                51.22:  LONGITUDE
 WHNS.m                   7.72:  WELL HEAD N/S
 WHEW.m                 -14.24:  WELL HEAD E/W
 UTMX.m              519005.06:  UTM X
 UTMY.m             4443793.85:  UTM Y
 DFWL.m                   0.00:  DISTANCE FWL
 DFSL.m                   0.00:  DISTANCE FSL
 SDEP.m                 347.00:  START DEPTH
 TDD .m                 581.00:  TOTAL DEPTH (DRILLER)
 VSDR.deg               159.72:  VERT SEC DIRECT
 GVFD.g                   1.00:  GRAVITY FIELD
 MFLD.nT              50318.00:  MAGNETIC FIELD
 MDIP.deg                59.57:  MAGNETIC DIP
 MDEC.deg                 6.44:  MAGNETIC DECL
 GRDC.deg                 0.15:  GRID CORRECTION
 AZTC.deg                 6.29:  AZM TOTAL CORR
 EPD .m                   0.00:  ELEVATION
 EGL .m                   0.00:  GROUND ELEVATION
 WDMS.m                 169.80:  WD ELEV
 APD .m                  43.00:  DEPTH ABOVE PD
 AGAP.m                  43.00:  AIR GAP
 VSEW.m                 -14.24:  VERT SEC E/W
 VSNS.m                   7.72:  VERT SEC N/S
 DEP .m                 342.45:  DEPTH
 EKB .m                   0.00:  KB ELEVATION
 EDF .m                  43.00:  DF ELEVATION
 TDL .m                 237.00:  TOTAL DEPTH (LOGGER)
 VSC .                       0:  VS TO CLOSURE
 MAGU.                 1851428:  MAGUTM CHECKSUM
~Parameter Information Block
#MNEM.UNIT       Value        Description
#---------     -----------    ---------------------------
 AV  .mps                 1.50:  Ann Velocity 
 AVMX.mps                 2.90:  Max Ann Veloc 
 AZIF.deg               115.59:  Azm, Final 
 BHAT.        Rotary Steerable:  BHA Type 
 BROT.°/30m               0.50:  Build Rotating 
 BS  .in                  8.50:  Bit Size 
 BTPL.psig              580.00:  Bit Press Loss 
 CABU.                     Yes:  Customer Abuse 
 TCS .hr                 89.79:  Time Ciculation Ended 
 CV  .mps                 3.22:  Crit Velocity 
 CVMX.mps                 4.37:  Max Crit Veloc 
 DD1 .          Rashad Habibov:  Direct Drillr 1 
 DDSV.               Geo-Pilot:  DD Service 
 DEFF.%                  95.00:  % Det Eff 
 DLRX.°/30m               1.94:  Dogleg Rot Max 
 DLSO.°/30m               0.70:  Dogleg Oriented 
 DLSX.°/30m               1.94:  Dogleg Str Max 
 DRET.      04.45.00 25-Dec-20:  Drill End Time 
 DRST.      10.00.00 24-Dec-20:  Drill Start Tim 
 DTIM.hr                 16.64:  Time Drilling 
 EDEP.m                4999.01:  End Depth 
 ENG1.         Elchin Mammadov:  Engineer 1 
 ENG2.          Ruslan Safarov:  Engineer 2 
 ENG3.          Rustam Safarov:  Engineer 3 
 ETIM.      09.00.00 29-Dec-20:  End Time 
 FLOI.gpm               500.00:  Flow In 
 FLON.gpm               400.00:  Flow In Min 
 FLOS.cptm                0.00:  Fluid Loss 
 FLOX.gpm               500.00:  Flow In Max 
 HFLO.                      No:  High Flow 
 HPRE.                      No:  High Pressure 
 HTEM.                      No:  High Temp 
 HYDO.m                   2.00:  Hydro Offset 
 IFIN.deg                66.79:  Inc, Final 
 IMAX.deg                67.66:  Inc Max 
 IMIN.deg                66.39:  Inc Min 
 IMND.m                4949.37:  Inc Min Depth 
 IMXD.m                4778.63:  Inc Max Depth 
 JARR.                     Yes:  Jarring 
 LETM.      04.45.00 25-Dec-20:  Log End Time 
 LOST.hr                     0:  Lost Rig Time 
 LSTM.      10.00.00 24-Dec-20:  Log Start Time 
 MDCL.ppm             39000.00:  Mud Chlorides 
 MDES.     Inversion Oil/Synthetic:  Mud Desc 
 DFD .sg                  1.33:  Mud Density 
 MDMN.sg                  1.33:  Dens Mud Min 
 MDMX.sg                  1.33:  Dens Mud Max 
 MOIL.                      70:  Run Mud Oil % 
 MOWR.                   70:30:  Run Mud OWR 
 MSND.                       0:  Run Mud Sand % 
 MSOL.                    17.4:  Run Mud Solids% 
 DFV .spqt               84.00:  Mud Viscosity 
 MWOD.in                  6.75:  MWD Tool OD 
 MWSI.                     Yes:  Serv Intrp, MWD 
 OTIM.hr                168.14:  Time Operating 
 PCON.           Look Like New:  Pad Condition 
 PMAX.psia            10822.93:  Press Op, Max 
 PV  .cP                 30.00:  Mud PV 
 RUN .                     900:  Run Number 
 ROPA.m/hr               18.00:  ROP Avg 
 ROPN.m/hr               12.00:  ROP Min 
 ROPX.m/hr               25.00:  ROP Max 
 RPMA.rpm               120.00:  RPM Surface Avg 
 RPMN.rpm               100.00:  RPM Surface Min 
 RPMX.rpm               120.00:  RPM Surface Max 
 RRUN.                    0900:  Rig Run Number 
 SAZI.deg               115.08:  Azm, Start 
 SDEP.m                4762.01:  Start Depth 
 SIDD.                      No:  Serv Intrp, DD 
 SINC.deg                66.14:  Inc, Start 
 SPPA.psig             3700.00:  SPP Avg 
 SPPN.psig             3620.00:  SPP Min 
 SPPX.psig             3900.00:  SPP Max 
 STIM.      09.30.00 22-Dec-20:  Start Time 
 SVCS.                 DD, MWD:  Services 
 SVER.                    9.20:  Sperry Version 
 TDAT.m                 237.00:  Tot Depth Attmp 
 TDDF.                      No:  Trip for DD 
 TDLG.m                 237.00:  Tot Depth Loggd 
 TFF .                      No:  Trip for Fail 
 TQAA.f-kp               18.00:  Torque Abs Avg 
 TQAN.f-kp               17.00:  Torque Abs Min 
 TQAX.f-kp               20.00:  Torque Abs Max 
 TRRT.°/30m               0.60:  Turn Rotating 
 MRT .                    HCIM:  Maximum Recorded Temperature 
 TTMX.degC               94.12:  Max Tool Temp 
 VS01.                90627809:  Virtual Str1 SN 
 VS02.                90527813:  Virtual Str2 SN 
 VS03.                90545417:  Virtual Str3 SN 
 VS04.                12460870:  Virtual Str4 SN 
 VS05.                90516706:  Virtual Str5 SN 
 VS06.                90632007:  Virtual Str6 SN 
 WBMN.klb                 0.00:  WOB Min 
 WOBA.klb                14.00:  WOB Avg 
 WOBX.klb                25.00:  WOB Max 
 YP  .lhf2               32.00:  Yield Point 
~Curve Information Block
#MNEM.UNIT                 API CODE     Curve Description
#---------               -----------    ---------------------------
 TIME.HHMMSS            00 000 000 000:  GT Time & Date
 GTDEPTH.m              00 000 000 000:  GT Depth
 GTPQH.psia             00 000 000 000:  GT HR Quartz Pressure
 GTTQ.degC              00 000 000 000:  GT Quartz Temperature
 GTTN.NONE              00 000 000 000:  GT Test Number
 GTET.sec               00 000 000 000:  GT Elapsed Test Time
 GTTVD.m                00 000 000 000:  GT True Vertical Depth
#Other Information
#
#WARRANTY: Halliburton will use its best efforts to furnish customers with 
#accurate information and interpretations that are part of, and incident to, the services 
#provided.  However, Halliburton cannot and does not warrant the accuracy 
#or correctness of such information and interpretations.  Under no circumstances should any 
#such information or interpretation be relied upon as the sole basis for any drilling, 
#completion, production, or financial decision or any procedure involving any risk to the 
#safety of any drilling venture, drilling rig or its crew or any other third party.  The 
#Customer has full responsibility for all drilling, completion and production operation.  
#Halliburton makes no representations or warranties, either expressed or 
#implied, including, but not limited to, the implied warranties of merchantability or fitness 
#for a particular purpose, with respect to the services rendered.  In no event will 
#Halliburton be liable for failure to obtain any particular results or for 
#any damages, including, but not limited to, indirect, special or consequential damages, 
#resulting from the use of any information or interpretation provided by Halliburton.
#
~A           TIME           GTDEPTH  GTPQH  GTTQ  GTTN  GTET   GTTVD  
# ...
   18:48:34.010.25-Dec-2020 4831.01 3283.85 64.23 6.00 184.15 2510.98
   18:48:34.210.25-Dec-2020 4831.01 3280.07 64.23 6.00 184.35 2510.98
   18:48:34.410.25-Dec-2020 4831.01 3281.30 64.23 6.00 184.55 2510.98
   18:48:34.610.25-Dec-2020 4831.01 3278.35 64.23 6.00 184.75 2510.98
   18:48:34.810.25-Dec-2020 4831.01 3273.16 64.23 6.00 184.95 2510.98
   18:48:35.010.25-Dec-2020 4831.01 3275.15 64.23 6.00 185.15 2510.98
   18:48:35.211.25-Dec-2020 4831.01 3275.15 64.23 6.00 185.35 2510.98
   18:48:35.411.25-Dec-2020 4831.01 3278.65 64.23 6.00 185.55 2510.98
   18:48:35.611.25-Dec-2020 4831.01 3283.19 64.23 6.00 185.75 2510.98
   18:48:35.811.25-Dec-2020 4831.01 3279.19 64.23 6.00 185.95 2510.98
   18:48:36.011.25-Dec-2020 4831.01 3282.71 64.23 6.00 186.15 2510.98
   18:48:36.211.25-Dec-2020 4831.01 3282.71 64.23 6.00 186.35 2510.98
   18:48:36.411.25-Dec-2020 4831.01 3277.12 64.23 6.00 186.55 2510.98
   18:48:36.612.25-Dec-2020 4831.01 3282.75 64.23 6.00 186.75 2510.98
   18:48:36.812.25-Dec-2020 4831.01 3280.55 64.22 6.00 186.95 2510.98
   18:48:37.012.25-Dec-2020 4831.01 3283.24 64.23 6.00 187.15 2510.98
   18:48:37.212.25-Dec-2020 4831.01 3283.24 64.23 6.00 187.35 2510.98
   18:48:37.412.25-Dec-2020 4831.01 3276.01 64.22 6.00 187.55 2510.98
   18:48:37.612.25-Dec-2020 4831.01 3277.55 64.22 6.00 187.75 2510.98
   18:48:37.813.25-Dec-2020 4831.01 3274.65 64.22 6.00 187.95 2510.98
   18:48:38.013.25-Dec-2020 4831.01 3275.50 64.22 6.00 188.15 2510.98
   18:48:38.213.25-Dec-2020 4831.01 3273.82 64.22 6.00 188.35 2510.98
   18:48:38.413.25-Dec-2020 4831.01 3275.64 64.22 6.00 188.55 2510.98
   18:48:38.613.25-Dec-2020 4831.01 3277.38 64.22 6.00 188.75 2510.98
   18:48:38.813.25-Dec-2020 4831.01 3274.62 64.22 6.00 188.95 2510.98
   18:48:39.014.25-Dec-2020 4831.01 3290.28 64.22 6.00 189.15 2510.98
   18:48:39.214.25-Dec-2020 4831.01 3290.28 64.22 6.00 189.35 2510.98
   18:48:39.414.25-Dec-2020 4831.01 3412.41 64.22 6.00 189.55 2510.98
   18:48:39.614.25-Dec-2020 4831.01 3413.79 64.22 6.00 189.75 2510.98
   18:48:39.814.25-Dec-2020 4831.01 3413.96 64.22 6.00 189.95 2510.98
   18:48:40.014.25-Dec-2020 4831.01 3414.41 64.22 6.00 190.15 2510.98
   18:48:40.214.25-Dec-2020 4831.01 3414.41 64.22 6.00 190.35 2510.98
   18:48:40.415.25-Dec-2020 4831.01 3414.54 64.22 6.00 190.55 2510.98
   18:48:40.615.25-Dec-2020 4831.01 3414.59 64.22 6.00 190.75 2510.98
   18:48:40.815.25-Dec-2020 4831.01 3414.68 64.22 6.00 190.95 2510.98
   18:48:41.015.25-Dec-2020 4831.01 3414.75 64.22 6.00 191.15 2510.98
   18:48:41.215.25-Dec-2020 4831.01 3414.75 64.22 6.00 191.35 2510.98
   18:48:41.415.25-Dec-2020 4831.01 3414.82 64.22 6.00 191.55 2510.98
   18:48:41.616.25-Dec-2020 4831.01 3414.87 64.22 6.00 191.75 2510.98
   18:48:41.816.25-Dec-2020 4831.01 3414.88 64.22 6.00 191.95 2510.98
   18:48:42.016.25-Dec-2020 4831.01 3414.62 64.22 6.00 192.15 2510.98
   18:48:42.216.25-Dec-2020 4831.01 3414.62 64.22 6.00 192.35 2510.98
   18:48:42.416.25-Dec-2020 4831.01 3415.32 64.22 6.00 192.55 2510.98
   18:48:42.616.25-Dec-2020 4831.01 3415.32 64.22 6.00 192.75 2510.98
   18:48:42.817.25-Dec-2020 4831.01 3415.26 64.22 6.00 192.95 2510.98
   18:48:43.017.25-Dec-2020 4831.01 3415.36 64.22 6.00 193.15 2510.98
   18:48:43.217.25-Dec-2020 4831.01 3415.36 64.22 6.00 193.35 2510.98
   18:48:43.417.25-Dec-2020 4831.01 3415.41 64.22 6.00 193.55 2510.98
   18:48:43.617.25-Dec-2020 4831.01 3415.48 64.22 6.00 193.75 2510.98
   18:48:43.817.25-Dec-2020 4831.01 3415.42 64.22 6.00 193.95 2510.98
   18:48:44.017.25-Dec-2020 4831.01 3414.97 64.22 6.00 194.15 2510.98
   18:48:44.218.25-Dec-2020 4831.01 3414.97 64.22 6.00 194.35 2510.98
   18:48:44.418.25-Dec-2020 4831.01 3415.53 64.22 6.00 194.55 2510.98
   18:48:44.618.25-Dec-2020 4831.01 3415.61 64.22 6.00 194.75 2510.98
   18:48:44.818.25-Dec-2020 4831.01 3415.40 64.22 6.00 194.95 2510.98
   18:48:45.018.25-Dec-2020 4831.01 3415.54 64.23 6.00 195.15 2510.98
   18:48:45.218.25-Dec-2020 4831.01 3415.54 64.23 6.00 195.35 2510.98
   18:48:45.419.25-Dec-2020 4831.01 3415.49 64.23 6.00 195.55 2510.98
   18:48:45.619.25-Dec-2020 4831.01 3415.52 64.23 6.00 195.75 2510.98
   18:48:45.819.25-Dec-2020 4831.01 3415.57 64.23 6.00 195.95 2510.98
   18:48:46.019.25-Dec-2020 4831.01 3415.59 64.23 6.00 196.15 2510.98
   18:48:46.219.25-Dec-2020 4831.01 3415.59 64.23 6.00 196.36 2510.98
   18:48:46.419.25-Dec-2020 4831.01 3415.59 64.23 6.00 196.56 2510.98
   18:48:46.620.25-Dec-2020 4831.01 3415.59 64.23 6.00 196.76 2510.98
   18:48:46.820.25-Dec-2020 4831.01 3415.58 64.23 6.00 196.96 2510.98
   18:48:47.020.25-Dec-2020 4831.01 3415.61 64.23 6.00 197.16 2510.98
   18:48:47.220.25-Dec-2020 4831.01 3415.61 64.23 6.00 197.36 2510.98
   18:48:47.420.25-Dec-2020 4831.01 3415.64 64.23 6.00 197.56 2510.98
   18:48:47.620.25-Dec-2020 4831.01 3415.82 64.23 6.00 197.76 2510.98
   18:48:47.820.25-Dec-2020 4831.01 3415.66 64.23 6.00 197.96 2510.98
   18:48:48.021.25-Dec-2020 4831.01 3415.71 64.23 6.00 198.16 2510.98
   18:48:48.221.25-Dec-2020 4831.01 3415.71 64.23 6.00 198.36 2510.98
   18:48:48.421.25-Dec-2020 4831.01 3415.67 64.23 6.00 198.56 2510.98
   18:48:48.621.25-Dec-2020 4831.01 3415.71 64.23 6.00 198.76 2510.98
   18:48:48.821.25-Dec-2020 4831.01 3415.68 64.23 6.00 198.96 2510.98
   18:48:49.021.25-Dec-2020 4831.01 3415.69 64.23 6.00 199.16 2510.98
   18:48:49.222.25-Dec-2020 4831.01 3415.69 64.23 6.00 199.36 2510.98
   18:48:49.422.25-Dec-2020 4831.01 3415.68 64.23 6.00 199.56 2510.98
   18:48:49.622.25-Dec-2020 4831.01 3415.36 64.23 6.00 199.76 2510.98
   18:48:49.822.25-Dec-2020 4831.01 3415.97 64.23 6.00 199.96 2510.98
   18:48:50.022.25-Dec-2020 4831.01 3415.95 64.23 6.00 200.16 2510.98
   18:48:50.222.25-Dec-2020 4831.01 3415.83 64.23 6.00 200.36 2510.98
   18:48:50.423.25-Dec-2020 4831.01 3415.86 64.23 6.00 200.56 2510.98
   18:48:50.623.25-Dec-2020 4831.01 3415.76 64.23 6.00 200.76 2510.98
   18:48:50.823.25-Dec-2020 4831.01 3415.84 64.23 6.00 200.96 2510.98
   18:48:51.023.25-Dec-2020 4831.01 3415.73 64.23 6.00 201.16 2510.98
   18:48:51.223.25-Dec-2020 4831.01 3415.73 64.23 6.00 201.36 2510.98
   18:48:51.423.25-Dec-2020 4831.01 3415.58 64.23 6.00 201.56 2510.98
   18:48:51.623.25-Dec-2020 4831.01 3415.77 64.23 6.00 201.76 2510.98
   18:48:51.824.25-Dec-2020 4831.01 3415.85 64.23 6.00 201.96 2510.98
   18:48:52.024.25-Dec-2020 4831.01 3415.80 64.23 6.00 202.16 2510.98
   18:48:52.224.25-Dec-2020 4831.01 3415.80 64.23 6.00 202.36 2510.98
   18:48:52.424.25-Dec-2020 4831.01 3415.76 64.23 6.00 202.56 2510.98
   18:48:52.624.25-Dec-2020 4831.01 3415.63 64.23 6.00 202.76 2510.98
   18:48:52.824.25-Dec-2020 4831.01 3415.83 64.23 6.00 202.96 2510.98
   18:48:53.025.25-Dec-2020 4831.01 3415.84 64.23 6.00 203.16 2510.98
   18:48:53.225.25-Dec-2020 4831.01 3415.84 64.23 6.00 203.36 2510.98
   18:48:53.425.25-Dec-2020 4831.01 3415.75 64.23 6.00 203.56 2510.98
   18:48:53.625.25-Dec-2020 4831.01 3415.82 64.23 6.00 203.76 2510.98
   18:48:53.825.25-Dec-2020 4831.01 3415.77 64.23 6.00 203.96 2510.98
   18:48:54.025.25-Dec-2020 4831.01 3415.78 64.23 6.00 204.16 2510.98
   18:48:54.226.25-Dec-2020 4831.01 3415.78 64.23 6.00 204.36 2510.98
   18:48:54.426.25-Dec-2020 4831.01 3415.78 64.23 6.00 204.56 2510.98
   18:48:54.626.25-Dec-2020 4831.01 3415.80 64.23 6.00 204.76 2510.98
   18:48:54.826.25-Dec-2020 4831.01 3415.44 64.23 6.00 204.96 2510.98
   18:48:55.026.25-Dec-2020 4831.01 3416.00 64.23 6.00 205.16 2510.98
   18:48:55.226.25-Dec-2020 4831.01 3416.00 64.23 6.00 205.36 2510.98
   18:48:55.426.25-Dec-2020 4831.01 3415.84 64.23 6.00 205.56 2510.98
   18:48:55.627.25-Dec-2020 4831.01 3415.82 64.23 6.00 205.76 2510.98
   18:48:55.827.25-Dec-2020 4831.01 3415.86 64.23 6.00 205.96 2510.98
   18:48:56.027.25-Dec-2020 4831.01 3415.83 64.23 6.00 206.16 2510.98
   18:48:56.227.25-Dec-2020 4831.01 3415.83 64.23 6.00 206.36 2510.98
   18:48:56.427.25-Dec-2020 4831.01 3415.83 64.23 6.00 206.56 2510.98
   18:48:56.627.25-Dec-2020 4831.01 3415.83 64.23 6.00 206.76 2510.98
   18:48:56.828.25-Dec-2020 4831.01 3415.81 64.23 6.00 206.96 2510.98
