~Version Information
 VERS.                  2.0:   CWLS log ASCII Standard -VERSION 2.0
 WRAP.                   NO:   One line per depth step
~Well Information Block
#MNEM.UNIT     VALUE/NAME     DESCRIPTION
#---------     -----------    ---------------------------
 STRT.S             13:36:27 25-Dec-20: START TIME 13:36:27 25-Dec-20
 STOP.S             13:44:49 25-Dec-20: STOP TIME  13:44:49 25-Dec-20
 STEP.S                   0.00: STEP TIME
 NULL.                 -999.25: NULL VALUE
 DFWT.                        :  DIST FWL TEXT
 DFST.                        :  DIST FSL TEXT
 DMF .             Drill Floor:  DRILL MEAS FROM
 STIM.      04.54.24 22-Sep-20:  START TIME
 DATE.      04.54.24 21-Nov-20:  END TIME
 SPUD.               21-Nov-20:  SPUD DATE
 NREF.                    Grid:  NORTH REFERENCE
 HPTY.       Minimum Curvature:  HOLE POS TYPE
 DMOD.             Drill Model:  DRILL MOD DESC
 SVYD.                  Survey:  SURVEY DESC
 ILTD.               Lithology:  INTERP LTH DESC
 FTOP.          Formation Tops:  FORM TOPS DESC
 SON .        AZ-XX-0906571587:  JOB NUMBER
 COMP.     BP Exploration (Caspian Sea) Ltd:  COMPANY
 UWI .                     N/A:  UNIQUE WELL IDENTIFIER
 API .                     N/A:  API NUMBER
 BASE.              Azerbaijan:  LOGGING EQUIPMENT BASE LOCATION
 REGN.                   EESSA:  REGION
 PROV.                    Baku:  PROVINCE
 STAT.                    Baku:  STATE NAME
 CTRY.              Azerbaijan:  COUNTRY NAME
 FLD .                     ACG:  FIELD NAME
 SRVC.     TURAN Drilling & Engineering:  CONTRACTOR
 WELL.                     J27:  WELL NAME
 RIG .             West Chirag:  RIG NAME
 DOE .                     N/A:  DOE NUMBER
 DCON.         Sperry Drilling:  DIRECTNL CONTR
 PDAT.          Mean Sea Level:  PERMANENT DATUM
 WTYP.                Deviated:  WELL TYPE
 MWDS.                    Baku:  MWD SHOP
 JOBN.        AZ-XX-0906571587:  JOB TICKET NUMB
 UNIT.                     N/A:  LOGGING EQUIPMENT ID
 MDS .        Operator Entered:  MAG DATA SOURCE
 CNTY.                        :  COUNTY
 LOC .                        :  LOCATION
 LMF .             Drill Floor:  LOG MEASURED FROM
 TVDS.m                  43.00:  TVDSS CORRECTN
 LATI.deg                40.13:  LATITUDE
 LONG.deg                51.22:  LONGITUDE
 WHNS.m                   7.72:  WELL HEAD N/S
 WHEW.m                 -14.24:  WELL HEAD E/W
 UTMX.m              519005.06:  UTM X
 UTMY.m             4443793.85:  UTM Y
 DFWL.m                   0.00:  DISTANCE FWL
 DFSL.m                   0.00:  DISTANCE FSL
 SDEP.m                 347.00:  START DEPTH
 TDD .m                 581.00:  TOTAL DEPTH (DRILLER)
 VSDR.deg               159.72:  VERT SEC DIRECT
 GVFD.g                   1.00:  GRAVITY FIELD
 MFLD.nT              50318.00:  MAGNETIC FIELD
 MDIP.deg                59.57:  MAGNETIC DIP
 MDEC.deg                 6.44:  MAGNETIC DECL
 GRDC.deg                 0.15:  GRID CORRECTION
 AZTC.deg                 6.29:  AZM TOTAL CORR
 EPD .m                   0.00:  ELEVATION
 EGL .m                   0.00:  GROUND ELEVATION
 WDMS.m                 169.80:  WD ELEV
 APD .m                  43.00:  DEPTH ABOVE PD
 AGAP.m                  43.00:  AIR GAP
 VSEW.m                 -14.24:  VERT SEC E/W
 VSNS.m                   7.72:  VERT SEC N/S
 DEP .m                 342.45:  DEPTH
 EKB .m                   0.00:  KB ELEVATION
 EDF .m                  43.00:  DF ELEVATION
 TDL .m                 237.00:  TOTAL DEPTH (LOGGER)
 VSC .                       0:  VS TO CLOSURE
 MAGU.                 1851428:  MAGUTM CHECKSUM
~Parameter Information Block
#MNEM.UNIT       Value        Description
#---------     -----------    ---------------------------
 AV  .mps                 1.50:  Ann Velocity 
 AVMX.mps                 2.90:  Max Ann Veloc 
 AZIF.deg               115.59:  Azm, Final 
 BHAT.        Rotary Steerable:  BHA Type 
 BROT.°/30m               0.50:  Build Rotating 
 BS  .in                  8.50:  Bit Size 
 BTPL.psig              580.00:  Bit Press Loss 
 CABU.                     Yes:  Customer Abuse 
 COMM.                     lW:  Run Comments 1 
 TCS .hr                 89.79:  Time Ciculation Ended 
 CV  .mps                 3.22:  Crit Velocity 
 CVMX.mps                 4.37:  Max Crit Veloc 
 DD1 .          Rashad Habibov:  Direct Drillr 1 
 DDSV.               Geo-Pilot:  DD Service 
 DEFF.%                  95.00:  % Det Eff 
 DLRX.°/30m               1.94:  Dogleg Rot Max 
 DLSO.°/30m               0.70:  Dogleg Oriented 
 DLSX.°/30m               1.94:  Dogleg Str Max 
 DRET.      04.45.00 25-Dec-20:  Drill End Time 
 DRST.      10.00.00 24-Dec-20:  Drill Start Tim 
 DTIM.hr                 16.64:  Time Drilling 
 EDEP.m                4999.01:  End Depth 
 ENG1.         Elchin Mammadov:  Engineer 1 
 ENG2.          Ruslan Safarov:  Engineer 2 
 ENG3.          Rustam Safarov:  Engineer 3 
 ETIM.      09.00.00 29-Dec-20:  End Time 
 FLOI.gpm               500.00:  Flow In 
 FLON.gpm               400.00:  Flow In Min 
 FLOS.cptm                0.00:  Fluid Loss 
 FLOX.gpm               500.00:  Flow In Max 
 HFLO.                      No:  High Flow 
 HPRE.                      No:  High Pressure 
 HTEM.                      No:  High Temp 
 HYDO.m                   2.00:  Hydro Offset 
 IFIN.deg                66.79:  Inc, Final 
 IMAX.deg                67.66:  Inc Max 
 IMIN.deg                66.39:  Inc Min 
 IMND.m                4949.37:  Inc Min Depth 
 IMXD.m                4778.63:  Inc Max Depth 
 JARR.                     Yes:  Jarring 
 LETM.      04.45.00 25-Dec-20:  Log End Time 
 LOST.hr                     0:  Lost Rig Time 
 LSTM.      10.00.00 24-Dec-20:  Log Start Time 
 MDCL.ppm             39000.00:  Mud Chlorides 
 MDES.     Inversion Oil/Synthetic:  Mud Desc 
 DFD .sg                  1.33:  Mud Density 
 MDMN.sg                  1.33:  Dens Mud Min 
 MDMX.sg                  1.33:  Dens Mud Max 
 MOIL.                      70:  Run Mud Oil % 
 MOWR.                   70:30:  Run Mud OWR 
 MSND.                       0:  Run Mud Sand % 
 MSOL.                    17.4:  Run Mud Solids% 
 DFV .spqt               84.00:  Mud Viscosity 
 MWOD.in                  6.75:  MWD Tool OD 
 MWSI.                     Yes:  Serv Intrp, MWD 
 OTIM.hr                168.14:  Time Operating 
 PCON.           Look Like New:  Pad Condition 
 PMAX.psia            10822.93:  Press Op, Max 
 PV  .cP                 30.00:  Mud PV 
 RUN .                     900:  Run Number 
 ROPA.m/hr               18.00:  ROP Avg 
 ROPN.m/hr               12.00:  ROP Min 
 ROPX.m/hr               25.00:  ROP Max 
 RPMA.rpm               120.00:  RPM Surface Avg 
 RPMN.rpm               100.00:  RPM Surface Min 
 RPMX.rpm               120.00:  RPM Surface Max 
 RRUN.                    0900:  Rig Run Number 
 SAZI.deg               115.08:  Azm, Start 
 SDEP.m                4762.01:  Start Depth 
 SIDD.                      No:  Serv Intrp, DD 
 SINC.deg                66.14:  Inc, Start 
 SPPA.psig             3700.00:  SPP Avg 
 SPPN.psig             3620.00:  SPP Min 
 SPPX.psig             3900.00:  SPP Max 
 STIM.      09.30.00 22-Dec-20:  Start Time 
 SVCS.                 DD, MWD:  Services 
 SVER.                    9.20:  Sperry Version 
 TDAT.m                 237.00:  Tot Depth Attmp 
 TDDF.                      No:  Trip for DD 
 TDLG.m                 237.00:  Tot Depth Loggd 
 TFF .                      No:  Trip for Fail 
 TQAA.f-kp               18.00:  Torque Abs Avg 
 TQAN.f-kp               17.00:  Torque Abs Min 
 TQAX.f-kp               20.00:  Torque Abs Max 
 TRRT.°/30m               0.60:  Turn Rotating 
 MRT .                    HCIM:  Maximum Recorded Temperature 
 TTMX.degC               94.12:  Max Tool Temp 
 VS01.                90627809:  Virtual Str1 SN 
 VS02.                90527813:  Virtual Str2 SN 
 VS03.                90545417:  Virtual Str3 SN 
 VS04.                12460870:  Virtual Str4 SN 
 VS05.                90516706:  Virtual Str5 SN 
 VS06.                90632007:  Virtual Str6 SN 
 WBMN.klb                 0.00:  WOB Min 
 WOBA.klb                14.00:  WOB Avg 
 WOBX.klb                25.00:  WOB Max 
 YP  .lhf2               32.00:  Yield Point 
~Curve Information Block
#MNEM.UNIT                 API CODE     Curve Description
#---------               -----------    ---------------------------
 TIME.HHMMSS            00 000 000 000:  GT Time & Date
 GTDEPTH.m              00 000 000 000:  GT Depth
 GTPQH.psia             00 000 000 000:  GT HR Quartz Pressure
 GTTQ.degC              00 000 000 000:  GT Quartz Temperature
 GTTN.NONE              00 000 000 000:  GT Test Number
 GTET.sec               00 000 000 000:  GT Elapsed Test Time
 GTTVD.m                00 000 000 000:  GT True Vertical Depth
#Other Information
#
#WARRANTY: Halliburton will use its best efforts to furnish customers with 
#accurate information and interpretations that are part of, and incident to, the services 
#provided.  However, Halliburton cannot and does not warrant the accuracy 
#or correctness of such information and interpretations.  Under no circumstances should any 
#such information or interpretation be relied upon as the sole basis for any drilling, 
#completion, production, or financial decision or any procedure involving any risk to the 
#safety of any drilling venture, drilling rig or its crew or any other third party.  The 
#Customer has full responsibility for all drilling, completion and production operation.  
#Halliburton makes no representations or warranties, either expressed or 
#implied, including, but not limited to, the implied warranties of merchantability or fitness 
#for a particular purpose, with respect to the services rendered.  In no event will 
#Halliburton be liable for failure to obtain any particular results or for 
#any damages, including, but not limited to, indirect, special or consequential damages, 
#resulting from the use of any information or interpretation provided by Halliburton.
#
~A           TIME           GTDEPTH  GTPQH  GTTQ  GTTN  GTET   GTTVD  
# ...
   13:40:17.000.25-Dec-2020 4921.01   44.31 66.24 2.00 230.00 2546.48
   13:40:17.200.25-Dec-2020 4921.01   44.33 66.24 2.00 230.20 2546.48
   13:40:17.400.25-Dec-2020 4921.01   44.36 66.24 2.00 230.40 2546.48
   13:40:17.600.25-Dec-2020 4921.01   44.38 66.24 2.00 230.60 2546.48
   13:40:17.800.25-Dec-2020 4921.01   44.40 66.24 2.00 230.80 2546.48
   13:40:18.000.25-Dec-2020 4921.01   44.43 66.24 2.00 231.00 2546.48
   13:40:18.200.25-Dec-2020 4921.01   44.44 66.24 2.00 231.20 2546.48
   13:40:18.400.25-Dec-2020 4921.01   44.47 66.24 2.00 231.40 2546.48
   13:40:18.600.25-Dec-2020 4921.01   44.47 66.24 2.00 231.60 2546.48
   13:40:18.800.25-Dec-2020 4921.01   44.56 66.24 2.00 231.80 2546.48
   13:40:19.000.25-Dec-2020 4921.01   44.55 66.24 2.00 232.00 2546.48
   13:40:19.200.25-Dec-2020 4921.01   44.55 66.24 2.00 232.20 2546.48
   13:40:19.400.25-Dec-2020 4921.01   44.58 66.24 2.00 232.40 2546.48
   13:40:19.600.25-Dec-2020 4921.01   44.65 66.24 2.00 232.60 2546.48
   13:40:19.800.25-Dec-2020 4921.01   44.66 66.24 2.00 232.80 2546.48
   13:40:20.000.25-Dec-2020 4921.01   44.66 66.24 2.00 233.00 2546.48
   13:40:20.200.25-Dec-2020 4921.01   44.66 66.24 2.00 233.20 2546.48
   13:40:20.400.25-Dec-2020 4921.01   44.73 66.24 2.00 233.40 2546.48
   13:40:20.600.25-Dec-2020 4921.01   44.75 66.24 2.00 233.60 2546.48
   13:40:20.800.25-Dec-2020 4921.01   44.76 66.24 2.00 233.80 2546.48
   13:40:21.000.25-Dec-2020 4921.01   44.80 66.24 2.00 234.00 2546.48
   13:40:21.200.25-Dec-2020 4921.01   44.83 66.24 2.00 234.20 2546.48
   13:40:21.400.25-Dec-2020 4921.01   44.85 66.24 2.00 234.40 2546.48
   13:40:21.600.25-Dec-2020 4921.01   44.86 66.24 2.00 234.60 2546.48
   13:40:21.800.25-Dec-2020 4921.01   44.90 66.24 2.00 234.80 2546.48
   13:40:22.000.25-Dec-2020 4921.01   44.91 66.24 2.00 235.00 2546.48
   13:40:22.200.25-Dec-2020 4921.01   44.91 66.24 2.00 235.20 2546.48
   13:40:22.400.25-Dec-2020 4921.01   44.96 66.24 2.00 235.40 2546.48
   13:40:22.600.25-Dec-2020 4921.01   44.99 66.24 2.00 235.60 2546.48
   13:40:22.800.25-Dec-2020 4921.01   45.00 66.24 2.00 235.80 2546.48
   13:40:23.000.25-Dec-2020 4921.01   45.03 66.24 2.00 236.00 2546.48
   13:40:23.200.25-Dec-2020 4921.01   45.03 66.24 2.00 236.20 2546.48
   13:40:23.400.25-Dec-2020 4921.01   45.09 66.24 2.00 236.40 2546.48
   13:40:23.600.25-Dec-2020 4921.01   45.11 66.24 2.00 236.60 2546.48
   13:40:23.800.25-Dec-2020 4921.01   45.13 66.24 2.00 236.80 2546.48
   13:40:24.000.25-Dec-2020 4921.01   45.15 66.24 2.00 237.00 2546.48
   13:40:24.200.25-Dec-2020 4921.01   45.15 66.24 2.00 237.20 2546.48
   13:40:24.400.25-Dec-2020 4921.01   45.20 66.24 2.00 237.40 2546.48
   13:40:24.600.25-Dec-2020 4921.01   45.21 66.24 2.00 237.60 2546.48
   13:40:24.800.25-Dec-2020 4921.01   45.24 66.24 2.00 237.80 2546.48
   13:40:25.000.25-Dec-2020 4921.01   45.26 66.24 2.00 238.00 2546.48
   13:40:25.200.25-Dec-2020 4921.01   45.26 66.24 2.00 238.20 2546.48
   13:40:25.400.25-Dec-2020 4921.01   45.30 66.24 2.00 238.40 2546.48
   13:40:25.600.25-Dec-2020 4921.01   45.30 66.24 2.00 238.60 2546.48
   13:40:25.800.25-Dec-2020 4921.01   45.39 66.24 2.00 238.80 2546.48
   13:40:26.000.25-Dec-2020 4921.01   45.38 66.24 2.00 239.00 2546.48
   13:40:26.200.25-Dec-2020 4921.01   45.40 66.24 2.00 239.20 2546.48
   13:40:26.400.25-Dec-2020 4921.01   45.41 66.24 2.00 239.40 2546.48
   13:40:26.600.25-Dec-2020 4921.01   45.46 66.24 2.00 239.60 2546.48
   13:40:26.800.25-Dec-2020 4921.01   45.48 66.24 2.00 239.80 2546.48
   13:40:27.000.25-Dec-2020 4921.01   45.49 66.24 2.00 240.00 2546.48
   13:40:27.200.25-Dec-2020 4921.01   45.49 66.24 2.00 240.20 2546.48
   13:40:27.400.25-Dec-2020 4921.01   45.54 66.24 2.00 240.40 2546.48
   13:40:27.600.25-Dec-2020 4921.01   45.55 66.24 2.00 240.60 2546.48
   13:40:27.800.25-Dec-2020 4921.01   45.61 66.24 2.00 240.80 2546.48
   13:40:28.000.25-Dec-2020 4921.01   45.61 66.24 2.00 241.00 2546.48
   13:40:28.200.25-Dec-2020 4921.01   45.61 66.24 2.00 241.20 2546.48
   13:40:28.400.25-Dec-2020 4921.01   45.66 66.24 2.00 241.40 2546.48
   13:40:28.600.25-Dec-2020 4921.01   45.67 66.24 2.00 241.60 2546.48
   13:40:28.800.25-Dec-2020 4921.01   45.70 66.24 2.00 241.80 2546.48
   13:40:29.000.25-Dec-2020 4921.01   45.72 66.24 2.00 242.00 2546.48
   13:40:29.200.25-Dec-2020 4921.01   45.74 66.24 2.00 242.20 2546.48
   13:40:29.400.25-Dec-2020 4921.01   45.76 66.24 2.00 242.40 2546.48
   13:40:29.600.25-Dec-2020 4921.01   45.78 66.24 2.00 242.60 2546.48
   13:40:29.800.25-Dec-2020 4921.01   45.80 66.24 2.00 242.80 2546.48
   13:40:30.000.25-Dec-2020 4921.01   45.82 66.24 2.00 243.00 2546.48
   13:40:30.200.25-Dec-2020 4921.01   45.84 66.24 2.00 243.20 2546.48
   13:40:30.400.25-Dec-2020 4921.01   45.88 66.24 2.00 243.40 2546.48
   13:40:30.600.25-Dec-2020 4921.01   45.90 66.24 2.00 243.60 2546.48
   13:40:30.800.25-Dec-2020 4921.01   45.92 66.24 2.00 243.80 2546.48
   13:40:31.000.25-Dec-2020 4921.01   45.93 66.24 2.00 244.00 2546.48
   13:40:31.200.25-Dec-2020 4921.01   45.93 66.24 2.00 244.20 2546.48
   13:40:31.400.25-Dec-2020 4921.01   45.98 66.24 2.00 244.40 2546.48
   13:40:31.600.25-Dec-2020 4921.01   45.99 66.24 2.00 244.60 2546.48
   13:40:31.800.25-Dec-2020 4921.01   46.02 66.24 2.00 244.80 2546.48
   13:40:32.000.25-Dec-2020 4921.01   46.04 66.24 2.00 245.00 2546.48
   13:40:32.200.25-Dec-2020 4921.01   46.04 66.24 2.00 245.20 2546.48
   13:40:32.400.25-Dec-2020 4921.01   46.09 66.24 2.00 245.40 2546.48
   13:40:32.600.25-Dec-2020 4921.01   46.09 66.24 2.00 245.60 2546.48
   13:40:32.800.25-Dec-2020 4921.01   46.13 66.24 2.00 245.80 2546.48
   13:40:33.000.25-Dec-2020 4921.01   46.17 66.24 2.00 246.00 2546.48
   13:40:33.200.25-Dec-2020 4921.01   46.17 66.24 2.00 246.20 2546.48
   13:40:33.400.25-Dec-2020 4921.01   46.19 66.24 2.00 246.40 2546.48
   13:40:33.600.25-Dec-2020 4921.01   46.22 66.24 2.00 246.60 2546.48
   13:40:33.800.25-Dec-2020 4921.01   46.25 66.24 2.00 246.80 2546.48
   13:40:34.000.25-Dec-2020 4921.01   46.26 66.24 2.00 247.00 2546.48
   13:40:34.200.25-Dec-2020 4921.01   46.28 66.24 2.00 247.20 2546.48
   13:40:34.400.25-Dec-2020 4921.01   46.32 66.24 2.00 247.40 2546.48
   13:40:34.600.25-Dec-2020 4921.01   46.32 66.24 2.00 247.60 2546.48
   13:40:34.800.25-Dec-2020 4921.01   46.37 66.24 2.00 247.80 2546.48
   13:40:35.000.25-Dec-2020 4921.01   46.38 66.24 2.00 248.00 2546.48
   13:40:35.200.25-Dec-2020 4921.01   46.38 66.24 2.00 248.20 2546.48
   13:40:35.400.25-Dec-2020 4921.01   46.41 66.24 2.00 248.40 2546.48
   13:40:35.600.25-Dec-2020 4921.01   46.44 66.24 2.00 248.60 2546.48
   13:40:35.800.25-Dec-2020 4921.01   46.46 66.24 2.00 248.80 2546.48
   13:40:36.000.25-Dec-2020 4921.01   46.48 66.24 2.00 249.00 2546.48
   13:40:36.200.25-Dec-2020 4921.01   46.48 66.24 2.00 249.20 2546.48
   13:40:36.400.25-Dec-2020 4921.01   46.52 66.24 2.00 249.40 2546.48
   13:40:36.600.25-Dec-2020 4921.01   46.54 66.24 2.00 249.60 2546.48
   13:40:36.800.25-Dec-2020 4921.01   46.55 66.24 2.00 249.80 2546.48
   13:40:37.000.25-Dec-2020 4921.01   46.57 66.24 2.00 250.00 2546.48
   13:40:37.200.25-Dec-2020 4921.01   46.63 66.24 2.00 250.20 2546.48
   13:40:37.400.25-Dec-2020 4921.01   46.62 66.24 2.00 250.40 2546.48
   13:40:37.600.25-Dec-2020 4921.01   46.65 66.24 2.00 250.60 2546.48
   13:40:37.800.25-Dec-2020 4921.01   46.66 66.24 2.00 250.80 2546.48
   13:40:38.000.25-Dec-2020 4921.01   46.69 66.24 2.00 251.00 2546.48
   13:40:38.200.25-Dec-2020 4921.01   46.70 66.24 2.00 251.20 2546.48
   13:40:38.400.25-Dec-2020 4921.01   46.73 66.24 2.00 251.40 2546.48
   13:40:38.600.25-Dec-2020 4921.01   46.74 66.24 2.00 251.60 2546.48
   13:40:38.800.25-Dec-2020 4921.01   46.76 66.24 2.00 251.80 2546.48
   13:40:39.000.25-Dec-2020 4921.01   46.79 66.24 2.00 252.00 2546.48
   13:40:39.200.25-Dec-2020 4921.01   46.79 66.24 2.00 252.20 2546.48
   13:40:39.400.25-Dec-2020 4921.01   46.80 66.24 2.00 252.40 2546.48
   13:40:39.600.25-Dec-2020 4921.01   46.86 66.24 2.00 252.60 2546.48
   13:40:39.800.25-Dec-2020 4921.01   46.87 66.24 2.00 252.80 2546.48
