~Version Information
 VERS.                  2.0:   CWLS log ASCII Standard -VERSION 2.0
 WRAP.                   NO:   One line per depth step
~Well Information Block
#MNEM.UNIT     VALUE/NAME     DESCRIPTION
#---------     -----------    ---------------------------
 STRT.S             18:45:29 25-Dec-20: START TIME 18:45:29 25-Dec-20
 STOP.S             18:53:50 25-Dec-20: STOP TIME  18:53:50 25-Dec-20
 STEP.S                   0.00: STEP TIME
 NULL.                 -999.25: NULL VALUE
 DFWT.                        :  DIST FWL TEXT
 DFST.                        :  DIST FSL TEXT
 DMF .             Drill Floor:  DRILL MEAS FROM
 STIM.      04.54.24 22-Sep-20:  START TIME
 DATE.      04.54.24 21-Nov-20:  END TIME
 SPUD.               21-Nov-20:  SPUD DATE
 NREF.                    Grid:  NORTH REFERENCE
 HPTY.       Minimum Curvature:  HOLE POS TYPE
 DMOD.             Drill Model:  DRILL MOD DESC
 SVYD.                  Survey:  SURVEY DESC
 ILTD.               Lithology:  INTERP LTH DESC
 FTOP.          Formation Tops:  FORM TOPS DESC
 SON .        AZ-XX-0906571587:  JOB NUMBER
 COMP.     BP Exploration (Caspian Sea) Ltd:  COMPANY
 UWI .                     N/A:  UNIQUE WELL IDENTIFIER
 API .                     N/A:  API NUMBER
 BASE.              Azerbaijan:  LOGGING EQUIPMENT BASE LOCATION
 REGN.                   EESSA:  REGION
 PROV.                    Baku:  PROVINCE
 STAT.                    Baku:  STATE NAME
 CTRY.              Azerbaijan:  COUNTRY NAME
 FLD .                     ACG:  FIELD NAME
 SRVC.     TURAN Drilling & Engineering:  CONTRACTOR
 WELL.                     J27:  WELL NAME
 RIG .             West Chirag:  RIG NAME
 DOE .                     N/A:  DOE NUMBER
 DCON.         Sperry Drilling:  DIRECTNL CONTR
 PDAT.          Mean Sea Level:  PERMANENT DATUM
 WTYP.                Deviated:  WELL TYPE
 MWDS.                    Baku:  MWD SHOP
 JOBN.        AZ-XX-0906571587:  JOB TICKET NUMB
 UNIT.                     N/A:  LOGGING EQUIPMENT ID
 MDS .        Operator Entered:  MAG DATA SOURCE
 CNTY.                        :  COUNTY
 LOC .                        :  LOCATION
 LMF .             Drill Floor:  LOG MEASURED FROM
 TVDS.m                  43.00:  TVDSS CORRECTN
 LATI.deg                40.13:  LATITUDE
 LONG.deg                51.22:  LONGITUDE
 WHNS.m                   7.72:  WELL HEAD N/S
 WHEW.m                 -14.24:  WELL HEAD E/W
 UTMX.m              519005.06:  UTM X
 UTMY.m             4443793.85:  UTM Y
 DFWL.m                   0.00:  DISTANCE FWL
 DFSL.m                   0.00:  DISTANCE FSL
 SDEP.m                 347.00:  START DEPTH
 TDD .m                 581.00:  TOTAL DEPTH (DRILLER)
 VSDR.deg               159.72:  VERT SEC DIRECT
 GVFD.g                   1.00:  GRAVITY FIELD
 MFLD.nT              50318.00:  MAGNETIC FIELD
 MDIP.deg                59.57:  MAGNETIC DIP
 MDEC.deg                 6.44:  MAGNETIC DECL
 GRDC.deg                 0.15:  GRID CORRECTION
 AZTC.deg                 6.29:  AZM TOTAL CORR
 EPD .m                   0.00:  ELEVATION
 EGL .m                   0.00:  GROUND ELEVATION
 WDMS.m                 169.80:  WD ELEV
 APD .m                  43.00:  DEPTH ABOVE PD
 AGAP.m                  43.00:  AIR GAP
 VSEW.m                 -14.24:  VERT SEC E/W
 VSNS.m                   7.72:  VERT SEC N/S
 DEP .m                 342.45:  DEPTH
 EKB .m                   0.00:  KB ELEVATION
 EDF .m                  43.00:  DF ELEVATION
 TDL .m                 237.00:  TOTAL DEPTH (LOGGER)
 VSC .                       0:  VS TO CLOSURE
 MAGU.                 1851428:  MAGUTM CHECKSUM
~Parameter Information Block
#MNEM.UNIT       Value        Description
#---------     -----------    ---------------------------
 AV  .mps                 1.50:  Ann Velocity 
 AVMX.mps                 2.90:  Max Ann Veloc 
 AZIF.deg               115.59:  Azm, Final 
 BHAT.        Rotary Steerable:  BHA Type 
 BROT.°/30m               0.50:  Build Rotating 
 BS  .in                  8.50:  Bit Size 
 BTPL.psig              580.00:  Bit Press Loss 
 CABU.                     Yes:  Customer Abuse 
 TCS .hr                 89.79:  Time Ciculation Ended 
 CV  .mps                 3.22:  Crit Velocity 
 CVMX.mps                 4.37:  Max Crit Veloc 
 DD1 .          Rashad Habibov:  Direct Drillr 1 
 DDSV.               Geo-Pilot:  DD Service 
 DEFF.%                  95.00:  % Det Eff 
 DLRX.°/30m               1.94:  Dogleg Rot Max 
 DLSO.°/30m               0.70:  Dogleg Oriented 
 DLSX.°/30m               1.94:  Dogleg Str Max 
 DRET.      04.45.00 25-Dec-20:  Drill End Time 
 DRST.      10.00.00 24-Dec-20:  Drill Start Tim 
 DTIM.hr                 16.64:  Time Drilling 
 EDEP.m                4999.01:  End Depth 
 ENG1.         Elchin Mammadov:  Engineer 1 
 ENG2.          Ruslan Safarov:  Engineer 2 
 ENG3.          Rustam Safarov:  Engineer 3 
 ETIM.      09.00.00 29-Dec-20:  End Time 
 FLOI.gpm               500.00:  Flow In 
 FLON.gpm               400.00:  Flow In Min 
 FLOS.cptm                0.00:  Fluid Loss 
 FLOX.gpm               500.00:  Flow In Max 
 HFLO.                      No:  High Flow 
 HPRE.                      No:  High Pressure 
 HTEM.                      No:  High Temp 
 HYDO.m                   2.00:  Hydro Offset 
 IFIN.deg                66.79:  Inc, Final 
 IMAX.deg                67.66:  Inc Max 
 IMIN.deg                66.39:  Inc Min 
 IMND.m                4949.37:  Inc Min Depth 
 IMXD.m                4778.63:  Inc Max Depth 
 JARR.                     Yes:  Jarring 
 LETM.      04.45.00 25-Dec-20:  Log End Time 
 LOST.hr                     0:  Lost Rig Time 
 LSTM.      10.00.00 24-Dec-20:  Log Start Time 
 MDCL.ppm             39000.00:  Mud Chlorides 
 MDES.     Inversion Oil/Synthetic:  Mud Desc 
 DFD .sg                  1.33:  Mud Density 
 MDMN.sg                  1.33:  Dens Mud Min 
 MDMX.sg                  1.33:  Dens Mud Max 
 MOIL.                      70:  Run Mud Oil % 
 MOWR.                   70:30:  Run Mud OWR 
 MSND.                       0:  Run Mud Sand % 
 MSOL.                    17.4:  Run Mud Solids% 
 DFV .spqt               84.00:  Mud Viscosity 
 MWOD.in                  6.75:  MWD Tool OD 
 MWSI.                     Yes:  Serv Intrp, MWD 
 OTIM.hr                168.14:  Time Operating 
 PCON.           Look Like New:  Pad Condition 
 PMAX.psia            10822.93:  Press Op, Max 
 PV  .cP                 30.00:  Mud PV 
 RUN .                     900:  Run Number 
 ROPA.m/hr               18.00:  ROP Avg 
 ROPN.m/hr               12.00:  ROP Min 
 ROPX.m/hr               25.00:  ROP Max 
 RPMA.rpm               120.00:  RPM Surface Avg 
 RPMN.rpm               100.00:  RPM Surface Min 
 RPMX.rpm               120.00:  RPM Surface Max 
 RRUN.                    0900:  Rig Run Number 
 SAZI.deg               115.08:  Azm, Start 
 SDEP.m                4762.01:  Start Depth 
 SIDD.                      No:  Serv Intrp, DD 
 SINC.deg                66.14:  Inc, Start 
 SPPA.psig             3700.00:  SPP Avg 
 SPPN.psig             3620.00:  SPP Min 
 SPPX.psig             3900.00:  SPP Max 
 STIM.      09.30.00 22-Dec-20:  Start Time 
 SVCS.                 DD, MWD:  Services 
 SVER.                    9.20:  Sperry Version 
 TDAT.m                 237.00:  Tot Depth Attmp 
 TDDF.                      No:  Trip for DD 
 TDLG.m                 237.00:  Tot Depth Loggd 
 TFF .                      No:  Trip for Fail 
 TQAA.f-kp               18.00:  Torque Abs Avg 
 TQAN.f-kp               17.00:  Torque Abs Min 
 TQAX.f-kp               20.00:  Torque Abs Max 
 TRRT.°/30m               0.60:  Turn Rotating 
 MRT .                    HCIM:  Maximum Recorded Temperature 
 TTMX.degC               94.12:  Max Tool Temp 
 VS01.                90627809:  Virtual Str1 SN 
 VS02.                90527813:  Virtual Str2 SN 
 VS03.                90545417:  Virtual Str3 SN 
 VS04.                12460870:  Virtual Str4 SN 
 VS05.                90516706:  Virtual Str5 SN 
 VS06.                90632007:  Virtual Str6 SN 
 WBMN.klb                 0.00:  WOB Min 
 WOBA.klb                14.00:  WOB Avg 
 WOBX.klb                25.00:  WOB Max 
 YP  .lhf2               32.00:  Yield Point 
~Curve Information Block
#MNEM.UNIT                 API CODE     Curve Description
#---------               -----------    ---------------------------
 TIME.HHMMSS            00 000 000 000:  GT Time & Date
 GTDEPTH.m              00 000 000 000:  GT Depth
 GTPQH.psia             00 000 000 000:  GT HR Quartz Pressure
 GTTQ.degC              00 000 000 000:  GT Quartz Temperature
 GTTN.NONE              00 000 000 000:  GT Test Number
 GTET.sec               00 000 000 000:  GT Elapsed Test Time
 GTTVD.m                00 000 000 000:  GT True Vertical Depth
#Other Information
#
#WARRANTY: Halliburton will use its best efforts to furnish customers with 
#accurate information and interpretations that are part of, and incident to, the services 
#provided.  However, Halliburton cannot and does not warrant the accuracy 
#or correctness of such information and interpretations.  Under no circumstances should any 
#such information or interpretation be relied upon as the sole basis for any drilling, 
#completion, production, or financial decision or any procedure involving any risk to the 
#safety of any drilling venture, drilling rig or its crew or any other third party.  The 
#Customer has full responsibility for all drilling, completion and production operation.  
#Halliburton makes no representations or warranties, either expressed or 
#implied, including, but not limited to, the implied warranties of merchantability or fitness 
#for a particular purpose, with respect to the services rendered.  In no event will 
#Halliburton be liable for failure to obtain any particular results or for 
#any damages, including, but not limited to, indirect, special or consequential damages, 
#resulting from the use of any information or interpretation provided by Halliburton.
#
~A           TIME           GTDEPTH  GTPQH  GTTQ  GTTN  GTET   GTTVD  
# ...
   18:51:15.137.25-Dec-2020 4831.01 3415.84 64.21 6.00 345.27 2510.98
   18:51:15.337.25-Dec-2020 4831.01 3415.84 64.21 6.00 345.47 2510.98
   18:51:15.537.25-Dec-2020 4831.01 3415.93 64.21 6.00 345.67 2510.98
   18:51:15.737.25-Dec-2020 4831.01 3415.76 64.21 6.00 345.87 2510.98
   18:51:15.937.25-Dec-2020 4831.01 3415.70 64.21 6.00 346.07 2510.98
   18:51:16.138.25-Dec-2020 4831.01 3415.80 64.21 6.00 346.27 2510.98
   18:51:16.338.25-Dec-2020 4831.01 3415.80 64.21 6.00 346.47 2510.98
   18:51:16.538.25-Dec-2020 4831.01 3415.72 64.21 6.00 346.67 2510.98
   18:51:16.738.25-Dec-2020 4831.01 3415.71 64.21 6.00 346.87 2510.98
   18:51:16.938.25-Dec-2020 4831.01 3415.68 64.21 6.00 347.07 2510.98
   18:51:17.138.25-Dec-2020 4831.01 3415.68 64.21 6.00 347.27 2510.98
   18:51:17.339.25-Dec-2020 4831.01 3415.68 64.21 6.00 347.47 2510.98
   18:51:17.539.25-Dec-2020 4831.01 3415.64 64.21 6.00 347.67 2510.98
   18:51:17.739.25-Dec-2020 4831.01 3415.87 64.21 6.00 347.87 2510.98
   18:51:17.939.25-Dec-2020 4831.01 3415.96 64.21 6.00 348.07 2510.98
   18:51:18.139.25-Dec-2020 4831.01 3415.83 64.21 6.00 348.28 2510.98
   18:51:18.339.25-Dec-2020 4831.01 3415.83 64.21 6.00 348.48 2510.98
   18:51:18.540.25-Dec-2020 4831.01 3415.81 64.21 6.00 348.68 2510.98
   18:51:18.740.25-Dec-2020 4831.01 3415.77 64.21 6.00 348.88 2510.98
   18:51:18.940.25-Dec-2020 4831.01 3415.76 64.21 6.00 349.08 2510.98
   18:51:19.140.25-Dec-2020 4831.01 3415.76 64.21 6.00 349.28 2510.98
   18:51:19.340.25-Dec-2020 4831.01 3415.76 64.21 6.00 349.48 2510.98
   18:51:19.540.25-Dec-2020 4831.01 3415.71 64.21 6.00 349.68 2510.98
   18:51:19.740.25-Dec-2020 4831.01 3415.69 64.21 6.00 349.88 2510.98
   18:51:19.941.25-Dec-2020 4831.01 3415.36 64.21 6.00 350.08 2510.98
   18:51:20.141.25-Dec-2020 4831.01 3416.02 64.21 6.00 350.28 2510.98
   18:51:20.341.25-Dec-2020 4831.01 3416.02 64.21 6.00 350.48 2510.98
   18:51:20.541.25-Dec-2020 4831.01 3415.56 64.21 6.00 350.68 2510.98
   18:51:20.741.25-Dec-2020 4831.01 3416.33 64.21 6.00 350.88 2510.98
   18:51:20.941.25-Dec-2020 4831.01 3415.91 64.21 6.00 351.08 2510.98
   18:51:21.142.25-Dec-2020 4831.01 3415.91 64.21 6.00 351.28 2510.98
   18:51:21.342.25-Dec-2020 4831.01 3415.91 64.21 6.00 351.48 2510.98
   18:51:21.542.25-Dec-2020 4831.01 3415.86 64.21 6.00 351.68 2510.98
   18:51:21.742.25-Dec-2020 4831.01 3415.98 64.21 6.00 351.88 2510.98
   18:51:21.942.25-Dec-2020 4831.01 3416.30 64.21 6.00 352.08 2510.98
   18:51:22.142.25-Dec-2020 4831.01 3416.02 64.21 6.00 352.28 2510.98
   18:51:22.343.25-Dec-2020 4831.01 3416.02 64.21 6.00 352.48 2510.98
   18:51:22.543.25-Dec-2020 4831.01 3415.45 64.21 6.00 352.68 2510.98
   18:51:22.743.25-Dec-2020 4831.01 3416.35 64.21 6.00 352.88 2510.98
   18:51:22.943.25-Dec-2020 4831.01 3415.96 64.21 6.00 353.08 2510.98
   18:51:23.143.25-Dec-2020 4831.01 3415.91 64.21 6.00 353.28 2510.98
   18:51:23.343.25-Dec-2020 4831.01 3415.91 64.21 6.00 353.48 2510.98
   18:51:23.543.25-Dec-2020 4831.01 3415.87 64.21 6.00 353.68 2510.98
   18:51:23.744.25-Dec-2020 4831.01 3415.88 64.21 6.00 353.88 2510.98
   18:51:23.944.25-Dec-2020 4831.01 3415.82 64.21 6.00 354.08 2510.98
   18:51:24.144.25-Dec-2020 4831.01 3415.85 64.21 6.00 354.28 2510.98
   18:51:24.344.25-Dec-2020 4831.01 3415.85 64.21 6.00 354.48 2510.98
   18:51:24.544.25-Dec-2020 4831.01 3415.81 64.21 6.00 354.68 2510.98
   18:51:24.744.25-Dec-2020 4831.01 3415.81 64.21 6.00 354.88 2510.98
   18:51:24.945.25-Dec-2020 4831.01 3415.78 64.21 6.00 355.08 2510.98
   18:51:25.145.25-Dec-2020 4831.01 3415.94 64.21 6.00 355.28 2510.98
   18:51:25.345.25-Dec-2020 4831.01 3415.94 64.21 6.00 355.48 2510.98
   18:51:25.545.25-Dec-2020 4831.01 3415.96 64.21 6.00 355.68 2510.98
   18:51:25.745.25-Dec-2020 4831.01 3415.96 64.21 6.00 355.88 2510.98
   18:51:25.945.25-Dec-2020 4831.01 3415.87 64.21 6.00 356.08 2510.98
   18:51:26.146.25-Dec-2020 4831.01 3415.87 64.21 6.00 356.28 2510.98
   18:51:26.346.25-Dec-2020 4831.01 3415.87 64.21 6.00 356.48 2510.98
   18:51:26.546.25-Dec-2020 4831.01 3415.87 64.21 6.00 356.68 2510.98
   18:51:26.746.25-Dec-2020 4831.01 3415.84 64.21 6.00 356.88 2510.98
   18:51:26.946.25-Dec-2020 4831.01 3415.82 64.21 6.00 357.08 2510.98
   18:51:27.146.25-Dec-2020 4831.01 3415.83 64.21 6.00 357.28 2510.98
   18:51:27.346.25-Dec-2020 4831.01 3415.83 64.21 6.00 357.48 2510.98
   18:51:27.547.25-Dec-2020 4831.01 3415.79 64.21 6.00 357.68 2510.98
   18:51:27.747.25-Dec-2020 4831.01 3415.74 64.21 6.00 357.88 2510.98
   18:51:27.947.25-Dec-2020 4831.01 3415.91 64.21 6.00 358.08 2510.98
   18:51:28.147.25-Dec-2020 4831.01 3415.72 64.21 6.00 358.28 2510.98
   18:51:28.347.25-Dec-2020 4831.01 3415.72 64.21 6.00 358.48 2510.98
   18:51:28.547.25-Dec-2020 4831.01 3416.03 64.21 6.00 358.68 2510.98
   18:51:28.748.25-Dec-2020 4831.01 3415.99 64.21 6.00 358.88 2510.98
   18:51:28.948.25-Dec-2020 4831.01 3415.86 64.21 6.00 359.08 2510.98
   18:51:29.148.25-Dec-2020 4831.01 3415.95 64.21 6.00 359.28 2510.98
   18:51:29.348.25-Dec-2020 4831.01 3415.95 64.21 6.00 359.48 2510.98
   18:51:29.548.25-Dec-2020 4831.01 3416.02 64.21 6.00 359.68 2510.98
   18:51:29.748.25-Dec-2020 4831.01 3415.94 64.21 6.00 359.88 2510.98
   18:51:29.949.25-Dec-2020 4831.01 3415.96 64.21 6.00 360.08 2510.98
   18:51:30.149.25-Dec-2020 4831.01 3415.53 64.21 6.00 360.28 2510.98
   18:51:30.349.25-Dec-2020 4831.01 3416.07 64.21 6.00 360.48 2510.98
   18:51:30.549.25-Dec-2020 4831.01 3416.07 64.21 6.00 360.68 2510.98
   18:51:30.749.25-Dec-2020 4831.01 3416.01 64.21 6.00 360.89 2510.98
   18:51:30.949.25-Dec-2020 4831.01 3415.86 64.21 6.00 361.09 2510.98
   18:51:31.149.25-Dec-2020 4831.01 3415.93 64.21 6.00 361.29 2510.98
   18:51:31.350.25-Dec-2020 4831.01 3415.93 64.21 6.00 361.49 2510.98
   18:51:31.550.25-Dec-2020 4831.01 3415.85 64.21 6.00 361.69 2510.98
   18:51:31.750.25-Dec-2020 4831.01 3415.90 64.21 6.00 361.89 2510.98
   18:51:31.950.25-Dec-2020 4831.01 3415.86 64.21 6.00 362.09 2510.98
   18:51:32.150.25-Dec-2020 4831.01 3415.86 64.21 6.00 362.29 2510.98
   18:51:32.350.25-Dec-2020 4831.01 3415.86 64.21 6.00 362.49 2510.98
   18:51:32.551.25-Dec-2020 4831.01 3415.83 64.21 6.00 362.69 2510.98
   18:51:32.751.25-Dec-2020 4831.01 3415.79 64.21 6.00 362.89 2510.98
   18:51:32.951.25-Dec-2020 4831.01 3416.10 64.21 6.00 363.09 2510.98
   18:51:33.151.25-Dec-2020 4831.01 3415.92 64.21 6.00 363.29 2510.98
   18:51:33.351.25-Dec-2020 4831.01 3415.92 64.21 6.00 363.49 2510.98
   18:51:33.551.25-Dec-2020 4831.01 3415.87 64.21 6.00 363.69 2510.98
   18:51:33.752.25-Dec-2020 4831.01 3415.89 64.21 6.00 363.89 2510.98
   18:51:33.952.25-Dec-2020 4831.01 3415.89 64.21 6.00 364.09 2510.98
   18:51:34.152.25-Dec-2020 4831.01 3415.89 64.21 6.00 364.29 2510.98
   18:51:34.352.25-Dec-2020 4831.01 3415.87 64.21 6.00 364.49 2510.98
   18:51:34.552.25-Dec-2020 4831.01 3415.85 64.21 6.00 364.69 2510.98
   18:51:34.752.25-Dec-2020 4831.01 3415.87 64.21 6.00 364.89 2510.98
   18:51:34.952.25-Dec-2020 4831.01 3415.84 64.21 6.00 365.09 2510.98
   18:51:35.153.25-Dec-2020 4831.01 3415.84 64.21 6.00 365.29 2510.98
   18:51:35.353.25-Dec-2020 4831.01 3415.84 64.21 6.00 365.49 2510.98
   18:51:35.553.25-Dec-2020 4831.01 3415.87 64.21 6.00 365.69 2510.98
   18:51:35.753.25-Dec-2020 4831.01 3416.00 64.21 6.00 365.89 2510.98
   18:51:35.953.25-Dec-2020 4831.01 3415.84 64.21 6.00 366.09 2510.98
   18:51:36.153.25-Dec-2020 4831.01 3415.98 64.21 6.00 366.29 2510.98
   18:51:36.354.25-Dec-2020 4831.01 3415.98 64.21 6.00 366.49 2510.98
   18:51:36.554.25-Dec-2020 4831.01 3415.90 64.21 6.00 366.69 2510.98
   18:51:36.754.25-Dec-2020 4831.01 3415.95 64.20 6.00 366.89 2510.98
   18:51:36.954.25-Dec-2020 4831.01 3415.33 64.20 6.00 367.09 2510.98
   18:51:37.154.25-Dec-2020 4831.01 3416.49 64.20 6.00 367.29 2510.98
   18:51:37.354.25-Dec-2020 4831.01 3416.49 64.20 6.00 367.49 2510.98
   18:51:37.555.25-Dec-2020 4831.01 3415.87 64.20 6.00 367.69 2510.98
   18:51:37.755.25-Dec-2020 4831.01 3415.88 64.20 6.00 367.89 2510.98
   18:51:37.955.25-Dec-2020 4831.01 3415.69 64.20 6.00 368.09 2510.98
