~Version Information
 VERS.                  2.0:   CWLS log ASCII Standard -VERSION 2.0
 WRAP.                   NO:   One line per depth step
~Well Information Block
#MNEM.UNIT     VALUE/NAME     DESCRIPTION
#---------     -----------    ---------------------------
 STRT.S             17:56:34 25-Dec-20: START TIME 17:56:34 25-Dec-20
 STOP.S             18:04:57 25-Dec-20: STOP TIME  18:04:57 25-Dec-20
 STEP.S                   0.00: STEP TIME
 NULL.                 -999.25: NULL VALUE
 DFWT.                        :  DIST FWL TEXT
 DFST.                        :  DIST FSL TEXT
 DMF .             Drill Floor:  DRILL MEAS FROM
 STIM.      04.54.24 22-Sep-20:  START TIME
 DATE.      04.54.24 21-Nov-20:  END TIME
 SPUD.               21-Nov-20:  SPUD DATE
 NREF.                    Grid:  NORTH REFERENCE
 HPTY.       Minimum Curvature:  HOLE POS TYPE
 DMOD.             Drill Model:  DRILL MOD DESC
 SVYD.                  Survey:  SURVEY DESC
 ILTD.               Lithology:  INTERP LTH DESC
 FTOP.          Formation Tops:  FORM TOPS DESC
 SON .        AZ-XX-0906571587:  JOB NUMBER
 COMP.     BP Exploration (Caspian Sea) Ltd:  COMPANY
 UWI .                     N/A:  UNIQUE WELL IDENTIFIER
 API .                     N/A:  API NUMBER
 BASE.              Azerbaijan:  LOGGING EQUIPMENT BASE LOCATION
 REGN.                   EESSA:  REGION
 PROV.                    Baku:  PROVINCE
 STAT.                    Baku:  STATE NAME
 CTRY.              Azerbaijan:  COUNTRY NAME
 FLD .                     ACG:  FIELD NAME
 SRVC.     TURAN Drilling & Engineering:  CONTRACTOR
 WELL.                     J27:  WELL NAME
 RIG .             West Chirag:  RIG NAME
 DOE .                     N/A:  DOE NUMBER
 DCON.         Sperry Drilling:  DIRECTNL CONTR
 PDAT.          Mean Sea Level:  PERMANENT DATUM
 WTYP.                Deviated:  WELL TYPE
 MWDS.                    Baku:  MWD SHOP
 JOBN.        AZ-XX-0906571587:  JOB TICKET NUMB
 UNIT.                     N/A:  LOGGING EQUIPMENT ID
 MDS .        Operator Entered:  MAG DATA SOURCE
 CNTY.                        :  COUNTY
 LOC .                        :  LOCATION
 LMF .             Drill Floor:  LOG MEASURED FROM
 TVDS.m                  43.00:  TVDSS CORRECTN
 LATI.deg                40.13:  LATITUDE
 LONG.deg                51.22:  LONGITUDE
 WHNS.m                   7.72:  WELL HEAD N/S
 WHEW.m                 -14.24:  WELL HEAD E/W
 UTMX.m              519005.06:  UTM X
 UTMY.m             4443793.85:  UTM Y
 DFWL.m                   0.00:  DISTANCE FWL
 DFSL.m                   0.00:  DISTANCE FSL
 SDEP.m                 347.00:  START DEPTH
 TDD .m                 581.00:  TOTAL DEPTH (DRILLER)
 VSDR.deg               159.72:  VERT SEC DIRECT
 GVFD.g                   1.00:  GRAVITY FIELD
 MFLD.nT              50318.00:  MAGNETIC FIELD
 MDIP.deg                59.57:  MAGNETIC DIP
 MDEC.deg                 6.44:  MAGNETIC DECL
 GRDC.deg                 0.15:  GRID CORRECTION
 AZTC.deg                 6.29:  AZM TOTAL CORR
 EPD .m                   0.00:  ELEVATION
 EGL .m                   0.00:  GROUND ELEVATION
 WDMS.m                 169.80:  WD ELEV
 APD .m                  43.00:  DEPTH ABOVE PD
 AGAP.m                  43.00:  AIR GAP
 VSEW.m                 -14.24:  VERT SEC E/W
 VSNS.m                   7.72:  VERT SEC N/S
 DEP .m                 342.45:  DEPTH
 EKB .m                   0.00:  KB ELEVATION
 EDF .m                  43.00:  DF ELEVATION
 TDL .m                 237.00:  TOTAL DEPTH (LOGGER)
 VSC .                       0:  VS TO CLOSURE
 MAGU.                 1851428:  MAGUTM CHECKSUM
~Parameter Information Block
#MNEM.UNIT       Value        Description
#---------     -----------    ---------------------------
 AV  .mps                 1.50:  Ann Velocity 
 AVMX.mps                 2.90:  Max Ann Veloc 
 AZIF.deg               115.59:  Azm, Final 
 BHAT.        Rotary Steerable:  BHA Type 
 BROT.∞/30m               0.50:  Build Rotating 
 BS  .in                  8.50:  Bit Size 
 BTPL.psig              580.00:  Bit Press Loss 
 CABU.                     Yes:  Customer Abuse 
 COMM.                     ‰E:  Run Comments 1 
 TCS .hr                 89.79:  Time Ciculation Ended 
 CV  .mps                 3.22:  Crit Velocity 
 CVMX.mps                 4.37:  Max Crit Veloc 
 DD1 .          Rashad Habibov:  Direct Drillr 1 
 DDSV.               Geo-Pilot:  DD Service 
 DEFF.%                  95.00:  % Det Eff 
 DLRX.∞/30m               1.94:  Dogleg Rot Max 
 DLSO.∞/30m               0.70:  Dogleg Oriented 
 DLSX.∞/30m               1.94:  Dogleg Str Max 
 DRET.      04.45.00 25-Dec-20:  Drill End Time 
 DRST.      10.00.00 24-Dec-20:  Drill Start Tim 
 DTIM.hr                 16.64:  Time Drilling 
 EDEP.m                4999.01:  End Depth 
 ENG1.         Elchin Mammadov:  Engineer 1 
 ENG2.          Ruslan Safarov:  Engineer 2 
 ENG3.          Rustam Safarov:  Engineer 3 
 ETIM.      09.00.00 29-Dec-20:  End Time 
 FLOI.gpm               500.00:  Flow In 
 FLON.gpm               400.00:  Flow In Min 
 FLOS.cptm                0.00:  Fluid Loss 
 FLOX.gpm               500.00:  Flow In Max 
 HFLO.                      No:  High Flow 
 HPRE.                      No:  High Pressure 
 HTEM.                      No:  High Temp 
 HYDO.m                   2.00:  Hydro Offset 
 IFIN.deg                66.79:  Inc, Final 
 IMAX.deg                67.66:  Inc Max 
 IMIN.deg                66.39:  Inc Min 
 IMND.m                4949.37:  Inc Min Depth 
 IMXD.m                4778.63:  Inc Max Depth 
 JARR.                     Yes:  Jarring 
 LETM.      04.45.00 25-Dec-20:  Log End Time 
 LOST.hr                     0:  Lost Rig Time 
 LSTM.      10.00.00 24-Dec-20:  Log Start Time 
 MDCL.ppm             39000.00:  Mud Chlorides 
 MDES.     Inversion Oil/Synthetic:  Mud Desc 
 DFD .sg                  1.33:  Mud Density 
 MDMN.sg                  1.33:  Dens Mud Min 
 MDMX.sg                  1.33:  Dens Mud Max 
 MOIL.                      70:  Run Mud Oil % 
 MOWR.                   70:30:  Run Mud OWR 
 MSND.                       0:  Run Mud Sand % 
 MSOL.                    17.4:  Run Mud Solids% 
 DFV .spqt               84.00:  Mud Viscosity 
 MWOD.in                  6.75:  MWD Tool OD 
 MWSI.                     Yes:  Serv Intrp, MWD 
 OTIM.hr                168.14:  Time Operating 
 PCON.           Look Like New:  Pad Condition 
 PMAX.psia            10822.93:  Press Op, Max 
 PV  .cP                 30.00:  Mud PV 
 RUN .                     900:  Run Number 
 ROPA.m/hr               18.00:  ROP Avg 
 ROPN.m/hr               12.00:  ROP Min 
 ROPX.m/hr               25.00:  ROP Max 
 RPMA.rpm               120.00:  RPM Surface Avg 
 RPMN.rpm               100.00:  RPM Surface Min 
 RPMX.rpm               120.00:  RPM Surface Max 
 RRUN.                    0900:  Rig Run Number 
 SAZI.deg               115.08:  Azm, Start 
 SDEP.m                4762.01:  Start Depth 
 SIDD.                      No:  Serv Intrp, DD 
 SINC.deg                66.14:  Inc, Start 
 SPPA.psig             3700.00:  SPP Avg 
 SPPN.psig             3620.00:  SPP Min 
 SPPX.psig             3900.00:  SPP Max 
 STIM.      09.30.00 22-Dec-20:  Start Time 
 SVCS.                 DD, MWD:  Services 
 SVER.                    9.20:  Sperry Version 
 TDAT.m                 237.00:  Tot Depth Attmp 
 TDDF.                      No:  Trip for DD 
 TDLG.m                 237.00:  Tot Depth Loggd 
 TFF .                      No:  Trip for Fail 
 TQAA.f-kp               18.00:  Torque Abs Avg 
 TQAN.f-kp               17.00:  Torque Abs Min 
 TQAX.f-kp               20.00:  Torque Abs Max 
 TRRT.∞/30m               0.60:  Turn Rotating 
 MRT .                    HCIM:  Maximum Recorded Temperature 
 TTMX.degC               94.12:  Max Tool Temp 
 VS01.                90627809:  Virtual Str1 SN 
 VS02.                90527813:  Virtual Str2 SN 
 VS03.                90545417:  Virtual Str3 SN 
 VS04.                12460870:  Virtual Str4 SN 
 VS05.                90516706:  Virtual Str5 SN 
 VS06.                90632007:  Virtual Str6 SN 
 WBMN.klb                 0.00:  WOB Min 
 WOBA.klb                14.00:  WOB Avg 
 WOBX.klb                25.00:  WOB Max 
 YP  .lhf2               32.00:  Yield Point 
~Curve Information Block
#MNEM.UNIT                 API CODE     Curve Description
#---------               -----------    ---------------------------
 TIME.HHMMSS            00 000 000 000:  GT Time & Date
 GTDEPTH.m              00 000 000 000:  GT Depth
 GTPQH.psia             00 000 000 000:  GT HR Quartz Pressure
 GTTQ.degC              00 000 000 000:  GT Quartz Temperature
 GTTN.NONE              00 000 000 000:  GT Test Number
 GTET.sec               00 000 000 000:  GT Elapsed Test Time
 GTTVD.m                00 000 000 000:  GT True Vertical Depth
#Other Information
#
#WARRANTY: Halliburton will use its best efforts to furnish customers with 
#accurate information and interpretations that are part of, and incident to, the services 
#provided.  However, Halliburton cannot and does not warrant the accuracy 
#or correctness of such information and interpretations.  Under no circumstances should any 
#such information or interpretation be relied upon as the sole basis for any drilling, 
#completion, production, or financial decision or any procedure involving any risk to the 
#safety of any drilling venture, drilling rig or its crew or any other third party.  The 
#Customer has full responsibility for all drilling, completion and production operation.  
#Halliburton makes no representations or warranties, either expressed or 
#implied, including, but not limited to, the implied warranties of merchantability or fitness 
#for a particular purpose, with respect to the services rendered.  In no event will 
#Halliburton be liable for failure to obtain any particular results or for 
#any damages, including, but not limited to, indirect, special or consequential damages, 
#resulting from the use of any information or interpretation provided by Halliburton.
#
~A           TIME           GTDEPTH  GTPQH  GTTQ  GTTN  GTET   GTTVD  
# ...
   17:58:52.670.25-Dec-2020 4856.51 3918.47 64.21 5.00 137.95 2521.01
   17:58:52.870.25-Dec-2020 4856.51 3918.47 64.21 5.00 138.15 2521.01
   17:58:53.070.25-Dec-2020 4856.51 3917.74 64.21 5.00 138.35 2521.01
   17:58:53.270.25-Dec-2020 4856.51 3917.68 64.21 5.00 138.55 2521.01
   17:58:53.470.25-Dec-2020 4856.51 3918.10 64.21 5.00 138.75 2521.01
   17:58:53.670.25-Dec-2020 4856.51 3918.26 64.21 5.00 138.95 2521.01
   17:58:53.870.25-Dec-2020 4856.51 3918.26 64.21 5.00 139.15 2521.01
   17:58:54.069.25-Dec-2020 4856.51 3917.35 64.21 5.00 139.35 2521.01
   17:58:54.269.25-Dec-2020 4856.51 3917.85 64.21 5.00 139.55 2521.01
   17:58:54.469.25-Dec-2020 4856.51 3918.06 64.21 5.00 139.74 2521.01
   17:58:54.669.25-Dec-2020 4856.51 3918.30 64.21 5.00 139.94 2521.01
   17:58:54.869.25-Dec-2020 4856.51 3918.30 64.21 5.00 140.14 2521.01
   17:58:55.069.25-Dec-2020 4856.51 3918.87 64.21 5.00 140.34 2521.01
   17:58:55.269.25-Dec-2020 4856.51 3919.05 64.21 5.00 140.54 2521.01
   17:58:55.469.25-Dec-2020 4856.51 3919.19 64.21 5.00 140.74 2521.01
   17:58:55.669.25-Dec-2020 4856.51 3919.42 64.21 5.00 140.94 2521.01
   17:58:55.869.25-Dec-2020 4856.51 3919.42 64.21 5.00 141.14 2521.01
   17:58:56.069.25-Dec-2020 4856.51 3919.50 64.21 5.00 141.34 2521.01
   17:58:56.269.25-Dec-2020 4856.51 3919.20 64.21 5.00 141.54 2521.01
   17:58:56.468.25-Dec-2020 4856.51 3918.97 64.21 5.00 141.74 2521.01
   17:58:56.668.25-Dec-2020 4856.51 3918.69 64.21 5.00 141.94 2521.01
   17:58:56.868.25-Dec-2020 4856.51 3918.69 64.21 5.00 142.14 2521.01
   17:58:57.068.25-Dec-2020 4856.51 3918.91 64.21 5.00 142.34 2521.01
   17:58:57.268.25-Dec-2020 4856.51 3919.13 64.21 5.00 142.54 2521.01
   17:58:57.468.25-Dec-2020 4856.51 3919.30 64.21 5.00 142.74 2521.01
   17:58:57.668.25-Dec-2020 4856.51 3919.53 64.21 5.00 142.94 2521.01
   17:58:57.868.25-Dec-2020 4856.51 3919.53 64.21 5.00 143.14 2521.01
   17:58:58.068.25-Dec-2020 4856.51 3919.74 64.21 5.00 143.34 2521.01
   17:58:58.268.25-Dec-2020 4856.51 3919.84 64.21 5.00 143.54 2521.01
   17:58:58.468.25-Dec-2020 4856.51 3919.76 64.21 5.00 143.74 2521.01
   17:58:58.668.25-Dec-2020 4856.51 3919.93 64.21 5.00 143.94 2521.01
   17:58:58.868.25-Dec-2020 4856.51 3919.93 64.21 5.00 144.14 2521.01
   17:58:59.067.25-Dec-2020 4856.51 3919.71 64.21 5.00 144.34 2521.01
   17:58:59.267.25-Dec-2020 4856.51 3919.09 64.21 5.00 144.54 2521.01
   17:58:59.467.25-Dec-2020 4856.51 3918.58 64.21 5.00 144.74 2521.01
   17:58:59.667.25-Dec-2020 4856.51 3918.08 64.21 5.00 144.94 2521.01
   17:58:59.867.25-Dec-2020 4856.51 3918.04 64.21 5.00 145.14 2521.01
   17:59:00.067.25-Dec-2020 4856.51 3918.48 64.21 5.00 145.34 2521.01
   17:59:00.267.25-Dec-2020 4856.51 3918.54 64.21 5.00 145.54 2521.01
   17:59:00.467.25-Dec-2020 4856.51 3917.43 64.21 5.00 145.74 2521.01
   17:59:00.667.25-Dec-2020 4856.51 3917.72 64.21 5.00 145.94 2521.01
   17:59:00.867.25-Dec-2020 4856.51 3917.72 64.21 5.00 146.14 2521.01
   17:59:01.067.25-Dec-2020 4856.51 3917.90 64.21 5.00 146.34 2521.01
   17:59:01.267.25-Dec-2020 4856.51 3918.34 64.21 5.00 146.54 2521.01
   17:59:01.467.25-Dec-2020 4856.51 3916.94 64.21 5.00 146.74 2521.01
   17:59:01.666.25-Dec-2020 4856.51 3917.20 64.21 5.00 146.94 2521.01
   17:59:01.866.25-Dec-2020 4856.51 3917.20 64.21 5.00 147.14 2521.01
   17:59:02.066.25-Dec-2020 4856.51 3917.87 64.21 5.00 147.34 2521.01
   17:59:02.266.25-Dec-2020 4856.51 3918.12 64.21 5.00 147.54 2521.01
   17:59:02.466.25-Dec-2020 4856.51 3918.43 64.21 5.00 147.74 2521.01
   17:59:02.666.25-Dec-2020 4856.51 3918.81 64.21 5.00 147.94 2521.01
   17:59:02.866.25-Dec-2020 4856.51 3918.81 64.21 5.00 148.14 2521.01
   17:59:03.066.25-Dec-2020 4856.51 3919.17 64.21 5.00 148.34 2521.01
   17:59:03.266.25-Dec-2020 4856.51 3919.36 64.21 5.00 148.54 2521.01
   17:59:03.466.25-Dec-2020 4856.51 3919.47 64.21 5.00 148.74 2521.01
   17:59:03.666.25-Dec-2020 4856.51 3919.64 64.21 5.00 148.94 2521.01
   17:59:03.866.25-Dec-2020 4856.51 3919.36 64.21 5.00 149.14 2521.01
   17:59:04.065.25-Dec-2020 4856.51 3919.05 64.21 5.00 149.34 2521.01
   17:59:04.265.25-Dec-2020 4856.51 3918.73 64.21 5.00 149.54 2521.01
   17:59:04.465.25-Dec-2020 4856.51 3919.05 64.21 5.00 149.74 2521.01
   17:59:04.665.25-Dec-2020 4856.51 3919.05 64.21 5.00 149.94 2521.01
   17:59:04.865.25-Dec-2020 4856.51 3919.05 64.21 5.00 150.14 2521.01
   17:59:05.065.25-Dec-2020 4856.51 3919.46 64.21 5.00 150.34 2521.01
   17:59:05.265.25-Dec-2020 4856.51 3919.64 64.21 5.00 150.54 2521.01
   17:59:05.465.25-Dec-2020 4856.51 3919.67 64.21 5.00 150.74 2521.01
   17:59:05.665.25-Dec-2020 4856.51 3919.78 64.21 5.00 150.94 2521.01
   17:59:05.865.25-Dec-2020 4856.51 3919.78 64.21 5.00 151.14 2521.01
   17:59:06.065.25-Dec-2020 4856.51 3919.80 64.21 5.00 151.34 2521.01
   17:59:06.265.25-Dec-2020 4856.51 3919.98 64.21 5.00 151.54 2521.01
   17:59:06.465.25-Dec-2020 4856.51 3918.91 64.21 5.00 151.74 2521.01
   17:59:06.664.25-Dec-2020 4856.51 3919.86 64.21 5.00 151.94 2521.01
   17:59:06.864.25-Dec-2020 4856.51 3919.86 64.21 5.00 152.14 2521.01
   17:59:07.064.25-Dec-2020 4856.51 3918.96 64.21 5.00 152.34 2521.01
   17:59:07.264.25-Dec-2020 4856.51 3918.48 64.21 5.00 152.54 2521.01
   17:59:07.464.25-Dec-2020 4856.51 3918.36 64.21 5.00 152.74 2521.01
   17:59:07.664.25-Dec-2020 4856.51 3918.89 64.21 5.00 152.94 2521.01
   17:59:07.864.25-Dec-2020 4856.51 3918.89 64.21 5.00 153.14 2521.01
   17:59:08.064.25-Dec-2020 4856.51 3917.73 64.21 5.00 153.34 2521.01
   17:59:08.264.25-Dec-2020 4856.51 3918.66 64.21 5.00 153.54 2521.01
   17:59:08.464.25-Dec-2020 4856.51 3918.11 64.21 5.00 153.74 2521.01
   17:59:08.664.25-Dec-2020 4856.51 3918.25 64.21 5.00 153.94 2521.01
   17:59:08.864.25-Dec-2020 4856.51 3918.25 64.21 5.00 154.14 2521.01
   17:59:09.064.25-Dec-2020 4856.51 3917.60 64.21 5.00 154.34 2521.01
   17:59:09.263.25-Dec-2020 4856.51 3917.56 64.21 5.00 154.54 2521.01
   17:59:09.463.25-Dec-2020 4856.51 3918.20 64.21 5.00 154.74 2521.01
   17:59:09.663.25-Dec-2020 4856.51 3918.24 64.21 5.00 154.94 2521.01
   17:59:09.863.25-Dec-2020 4856.51 3918.24 64.21 5.00 155.14 2521.01
   17:59:10.063.25-Dec-2020 4856.51 3918.68 64.21 5.00 155.34 2521.01
   17:59:10.263.25-Dec-2020 4856.51 3918.95 64.21 5.00 155.54 2521.01
   17:59:10.463.25-Dec-2020 4856.51 3919.09 64.21 5.00 155.74 2521.01
   17:59:10.663.25-Dec-2020 4856.51 3919.22 64.21 5.00 155.94 2521.01
   17:59:10.863.25-Dec-2020 4856.51 3919.22 64.21 5.00 156.14 2521.01
   17:59:11.063.25-Dec-2020 4856.51 3919.45 64.21 5.00 156.34 2521.01
   17:59:11.263.25-Dec-2020 4856.51 3919.73 64.21 5.00 156.54 2521.01
   17:59:11.463.25-Dec-2020 4856.51 3918.73 64.21 5.00 156.74 2521.01
   17:59:11.662.25-Dec-2020 4856.51 3919.45 64.21 5.00 156.94 2521.01
   17:59:11.862.25-Dec-2020 4856.51 3918.80 64.21 5.00 157.14 2521.01
   17:59:12.062.25-Dec-2020 4856.51 3918.90 64.21 5.00 157.34 2521.01
   17:59:12.262.25-Dec-2020 4856.51 3919.08 64.21 5.00 157.54 2521.01
   17:59:12.462.25-Dec-2020 4856.51 3919.32 64.21 5.00 157.74 2521.01
   17:59:12.662.25-Dec-2020 4856.51 3919.42 64.21 5.00 157.94 2521.01
   17:59:12.862.25-Dec-2020 4856.51 3919.42 64.21 5.00 158.14 2521.01
   17:59:13.062.25-Dec-2020 4856.51 3919.70 64.21 5.00 158.34 2521.01
   17:59:13.262.25-Dec-2020 4856.51 3919.84 64.21 5.00 158.54 2521.01
   17:59:13.462.25-Dec-2020 4856.51 3919.90 64.21 5.00 158.74 2521.01
   17:59:13.662.25-Dec-2020 4856.51 3919.92 64.21 5.00 158.94 2521.01
   17:59:13.862.25-Dec-2020 4856.51 3919.92 64.21 5.00 159.14 2521.01
   17:59:14.062.25-Dec-2020 4856.51 3919.07 64.21 5.00 159.34 2521.01
   17:59:14.261.25-Dec-2020 4856.51 3919.39 64.21 5.00 159.54 2521.01
   17:59:14.461.25-Dec-2020 4856.51 3919.05 64.21 5.00 159.74 2521.01
   17:59:14.661.25-Dec-2020 4856.51 3917.94 64.21 5.00 159.94 2521.01
   17:59:14.861.25-Dec-2020 4856.51 3917.94 64.21 5.00 160.14 2521.01
   17:59:15.061.25-Dec-2020 4856.51 3918.24 64.21 5.00 160.34 2521.01
   17:59:15.261.25-Dec-2020 4856.51 3918.49 64.21 5.00 160.54 2521.01
   17:59:15.461.25-Dec-2020 4856.51 3918.65 64.21 5.00 160.74 2521.01
