~Version Information
 VERS.                  2.0:   CWLS log ASCII Standard -VERSION 2.0
 WRAP.                   NO:   One line per depth step
~Well Information Block
#MNEM.UNIT     VALUE/NAME     DESCRIPTION
#---------     -----------    ---------------------------
 STRT.S             15:24:16 25-Dec-20: START TIME 15:24:16 25-Dec-20
 STOP.S             15:32:36 25-Dec-20: STOP TIME  15:32:36 25-Dec-20
 STEP.S                   0.00: STEP TIME
 NULL.                 -999.25: NULL VALUE
 DFWT.                        :  DIST FWL TEXT
 DFST.                        :  DIST FSL TEXT
 DMF .             Drill Floor:  DRILL MEAS FROM
 STIM.      04.54.24 22-Sep-20:  START TIME
 DATE.      04.54.24 21-Nov-20:  END TIME
 SPUD.               21-Nov-20:  SPUD DATE
 NREF.                    Grid:  NORTH REFERENCE
 HPTY.       Minimum Curvature:  HOLE POS TYPE
 DMOD.             Drill Model:  DRILL MOD DESC
 SVYD.                  Survey:  SURVEY DESC
 ILTD.               Lithology:  INTERP LTH DESC
 FTOP.          Formation Tops:  FORM TOPS DESC
 SON .        AZ-XX-0906571587:  JOB NUMBER
 COMP.     BP Exploration (Caspian Sea) Ltd:  COMPANY
 UWI .                     N/A:  UNIQUE WELL IDENTIFIER
 API .                     N/A:  API NUMBER
 BASE.              Azerbaijan:  LOGGING EQUIPMENT BASE LOCATION
 REGN.                   EESSA:  REGION
 PROV.                    Baku:  PROVINCE
 STAT.                    Baku:  STATE NAME
 CTRY.              Azerbaijan:  COUNTRY NAME
 FLD .                     ACG:  FIELD NAME
 SRVC.     TURAN Drilling & Engineering:  CONTRACTOR
 WELL.                     J27:  WELL NAME
 RIG .             West Chirag:  RIG NAME
 DOE .                     N/A:  DOE NUMBER
 DCON.         Sperry Drilling:  DIRECTNL CONTR
 PDAT.          Mean Sea Level:  PERMANENT DATUM
 WTYP.                Deviated:  WELL TYPE
 MWDS.                    Baku:  MWD SHOP
 JOBN.        AZ-XX-0906571587:  JOB TICKET NUMB
 UNIT.                     N/A:  LOGGING EQUIPMENT ID
 MDS .        Operator Entered:  MAG DATA SOURCE
 CNTY.                        :  COUNTY
 LOC .                        :  LOCATION
 LMF .             Drill Floor:  LOG MEASURED FROM
 TVDS.m                  43.00:  TVDSS CORRECTN
 LATI.deg                40.13:  LATITUDE
 LONG.deg                51.22:  LONGITUDE
 WHNS.m                   7.72:  WELL HEAD N/S
 WHEW.m                 -14.24:  WELL HEAD E/W
 UTMX.m              519005.06:  UTM X
 UTMY.m             4443793.85:  UTM Y
 DFWL.m                   0.00:  DISTANCE FWL
 DFSL.m                   0.00:  DISTANCE FSL
 SDEP.m                 347.00:  START DEPTH
 TDD .m                 581.00:  TOTAL DEPTH (DRILLER)
 VSDR.deg               159.72:  VERT SEC DIRECT
 GVFD.g                   1.00:  GRAVITY FIELD
 MFLD.nT              50318.00:  MAGNETIC FIELD
 MDIP.deg                59.57:  MAGNETIC DIP
 MDEC.deg                 6.44:  MAGNETIC DECL
 GRDC.deg                 0.15:  GRID CORRECTION
 AZTC.deg                 6.29:  AZM TOTAL CORR
 EPD .m                   0.00:  ELEVATION
 EGL .m                   0.00:  GROUND ELEVATION
 WDMS.m                 169.80:  WD ELEV
 APD .m                  43.00:  DEPTH ABOVE PD
 AGAP.m                  43.00:  AIR GAP
 VSEW.m                 -14.24:  VERT SEC E/W
 VSNS.m                   7.72:  VERT SEC N/S
 DEP .m                 342.45:  DEPTH
 EKB .m                   0.00:  KB ELEVATION
 EDF .m                  43.00:  DF ELEVATION
 TDL .m                 237.00:  TOTAL DEPTH (LOGGER)
 VSC .                       0:  VS TO CLOSURE
 MAGU.                 1851428:  MAGUTM CHECKSUM
~Parameter Information Block
#MNEM.UNIT       Value        Description
#---------     -----------    ---------------------------
 AV  .mps                 1.50:  Ann Velocity 
 AVMX.mps                 2.90:  Max Ann Veloc 
 AZIF.deg               115.59:  Azm, Final 
 BHAT.        Rotary Steerable:  BHA Type 
 BROT.°/30m               0.50:  Build Rotating 
 BS  .in                  8.50:  Bit Size 
 BTPL.psig              580.00:  Bit Press Loss 
 CABU.                     Yes:  Customer Abuse 
 TCS .hr                 89.79:  Time Ciculation Ended 
 CV  .mps                 3.22:  Crit Velocity 
 CVMX.mps                 4.37:  Max Crit Veloc 
 DD1 .          Rashad Habibov:  Direct Drillr 1 
 DDSV.               Geo-Pilot:  DD Service 
 DEFF.%                  95.00:  % Det Eff 
 DLRX.°/30m               1.94:  Dogleg Rot Max 
 DLSO.°/30m               0.70:  Dogleg Oriented 
 DLSX.°/30m               1.94:  Dogleg Str Max 
 DRET.      04.45.00 25-Dec-20:  Drill End Time 
 DRST.      10.00.00 24-Dec-20:  Drill Start Tim 
 DTIM.hr                 16.64:  Time Drilling 
 EDEP.m                4999.01:  End Depth 
 ENG1.         Elchin Mammadov:  Engineer 1 
 ENG2.          Ruslan Safarov:  Engineer 2 
 ENG3.          Rustam Safarov:  Engineer 3 
 ETIM.      09.00.00 29-Dec-20:  End Time 
 FLOI.gpm               500.00:  Flow In 
 FLON.gpm               400.00:  Flow In Min 
 FLOS.cptm                0.00:  Fluid Loss 
 FLOX.gpm               500.00:  Flow In Max 
 HFLO.                      No:  High Flow 
 HPRE.                      No:  High Pressure 
 HTEM.                      No:  High Temp 
 HYDO.m                   2.00:  Hydro Offset 
 IFIN.deg                66.79:  Inc, Final 
 IMAX.deg                67.66:  Inc Max 
 IMIN.deg                66.39:  Inc Min 
 IMND.m                4949.37:  Inc Min Depth 
 IMXD.m                4778.63:  Inc Max Depth 
 JARR.                     Yes:  Jarring 
 LETM.      04.45.00 25-Dec-20:  Log End Time 
 LOST.hr                     0:  Lost Rig Time 
 LSTM.      10.00.00 24-Dec-20:  Log Start Time 
 MDCL.ppm             39000.00:  Mud Chlorides 
 MDES.     Inversion Oil/Synthetic:  Mud Desc 
 DFD .sg                  1.33:  Mud Density 
 MDMN.sg                  1.33:  Dens Mud Min 
 MDMX.sg                  1.33:  Dens Mud Max 
 MOIL.                      70:  Run Mud Oil % 
 MOWR.                   70:30:  Run Mud OWR 
 MSND.                       0:  Run Mud Sand % 
 MSOL.                    17.4:  Run Mud Solids% 
 DFV .spqt               84.00:  Mud Viscosity 
 MWOD.in                  6.75:  MWD Tool OD 
 MWSI.                     Yes:  Serv Intrp, MWD 
 OTIM.hr                168.14:  Time Operating 
 PCON.           Look Like New:  Pad Condition 
 PMAX.psia            10822.93:  Press Op, Max 
 PV  .cP                 30.00:  Mud PV 
 RUN .                     900:  Run Number 
 ROPA.m/hr               18.00:  ROP Avg 
 ROPN.m/hr               12.00:  ROP Min 
 ROPX.m/hr               25.00:  ROP Max 
 RPMA.rpm               120.00:  RPM Surface Avg 
 RPMN.rpm               100.00:  RPM Surface Min 
 RPMX.rpm               120.00:  RPM Surface Max 
 RRUN.                    0900:  Rig Run Number 
 SAZI.deg               115.08:  Azm, Start 
 SDEP.m                4762.01:  Start Depth 
 SIDD.                      No:  Serv Intrp, DD 
 SINC.deg                66.14:  Inc, Start 
 SPPA.psig             3700.00:  SPP Avg 
 SPPN.psig             3620.00:  SPP Min 
 SPPX.psig             3900.00:  SPP Max 
 STIM.      09.30.00 22-Dec-20:  Start Time 
 SVCS.                 DD, MWD:  Services 
 SVER.                    9.20:  Sperry Version 
 TDAT.m                 237.00:  Tot Depth Attmp 
 TDDF.                      No:  Trip for DD 
 TDLG.m                 237.00:  Tot Depth Loggd 
 TFF .                      No:  Trip for Fail 
 TQAA.f-kp               18.00:  Torque Abs Avg 
 TQAN.f-kp               17.00:  Torque Abs Min 
 TQAX.f-kp               20.00:  Torque Abs Max 
 TRRT.°/30m               0.60:  Turn Rotating 
 MRT .                    HCIM:  Maximum Recorded Temperature 
 TTMX.degC               94.12:  Max Tool Temp 
 VS01.                90627809:  Virtual Str1 SN 
 VS02.                90527813:  Virtual Str2 SN 
 VS03.                90545417:  Virtual Str3 SN 
 VS04.                12460870:  Virtual Str4 SN 
 VS05.                90516706:  Virtual Str5 SN 
 VS06.                90632007:  Virtual Str6 SN 
 WBMN.klb                 0.00:  WOB Min 
 WOBA.klb                14.00:  WOB Avg 
 WOBX.klb                25.00:  WOB Max 
 YP  .lhf2               32.00:  Yield Point 
~Curve Information Block
#MNEM.UNIT                 API CODE     Curve Description
#---------               -----------    ---------------------------
 TIME.HHMMSS            00 000 000 000:  GT Time & Date
 GTDEPTH.m              00 000 000 000:  GT Depth
 GTPQH.psia             00 000 000 000:  GT HR Quartz Pressure
 GTTQ.degC              00 000 000 000:  GT Quartz Temperature
 GTTN.NONE              00 000 000 000:  GT Test Number
 GTET.sec               00 000 000 000:  GT Elapsed Test Time
 GTTVD.m                00 000 000 000:  GT True Vertical Depth
#Other Information
#
#WARRANTY: Halliburton will use its best efforts to furnish customers with 
#accurate information and interpretations that are part of, and incident to, the services 
#provided.  However, Halliburton cannot and does not warrant the accuracy 
#or correctness of such information and interpretations.  Under no circumstances should any 
#such information or interpretation be relied upon as the sole basis for any drilling, 
#completion, production, or financial decision or any procedure involving any risk to the 
#safety of any drilling venture, drilling rig or its crew or any other third party.  The 
#Customer has full responsibility for all drilling, completion and production operation.  
#Halliburton makes no representations or warranties, either expressed or 
#implied, including, but not limited to, the implied warranties of merchantability or fitness 
#for a particular purpose, with respect to the services rendered.  In no event will 
#Halliburton be liable for failure to obtain any particular results or for 
#any damages, including, but not limited to, indirect, special or consequential damages, 
#resulting from the use of any information or interpretation provided by Halliburton.
#
~A           TIME           GTDEPTH  GTPQH  GTTQ  GTTN  GTET   GTTVD  
# ...
   15:26:34.789.25-Dec-2020 4892.01 2718.62 65.38 4.00 138.04 2535.10
   15:26:34.989.25-Dec-2020 4892.01 2718.62 65.38 4.00 138.24 2535.10
   15:26:35.189.25-Dec-2020 4892.01 2718.74 65.38 4.00 138.44 2535.10
   15:26:35.389.25-Dec-2020 4892.01 2718.65 65.38 4.00 138.64 2535.10
   15:26:35.589.25-Dec-2020 4892.01 2718.37 65.38 4.00 138.84 2535.10
   15:26:35.789.25-Dec-2020 4892.01 2718.67 65.38 4.00 139.04 2535.10
   15:26:35.989.25-Dec-2020 4892.01 2718.67 65.38 4.00 139.24 2535.10
   15:26:36.189.25-Dec-2020 4892.01 2718.60 65.38 4.00 139.44 2535.10
   15:26:36.389.25-Dec-2020 4892.01 2718.34 65.38 4.00 139.64 2535.10
   15:26:36.589.25-Dec-2020 4892.01 2718.39 65.38 4.00 139.84 2535.10
   15:26:36.789.25-Dec-2020 4892.01 2718.71 65.38 4.00 140.04 2535.10
   15:26:36.989.25-Dec-2020 4892.01 2718.71 65.38 4.00 140.24 2535.10
   15:26:37.189.25-Dec-2020 4892.01 2718.37 65.38 4.00 140.44 2535.10
   15:26:37.390.25-Dec-2020 4892.01 2718.63 65.38 4.00 140.64 2535.10
   15:26:37.590.25-Dec-2020 4892.01 2718.49 65.38 4.00 140.84 2535.10
   15:26:37.790.25-Dec-2020 4892.01 2718.47 65.38 4.00 141.04 2535.10
   15:26:37.990.25-Dec-2020 4892.01 2718.47 65.38 4.00 141.24 2535.10
   15:26:38.190.25-Dec-2020 4892.01 2718.53 65.38 4.00 141.44 2535.10
   15:26:38.390.25-Dec-2020 4892.01 2718.54 65.38 4.00 141.64 2535.10
   15:26:38.590.25-Dec-2020 4892.01 2718.53 65.38 4.00 141.84 2535.10
   15:26:38.790.25-Dec-2020 4892.01 2718.55 65.38 4.00 142.04 2535.10
   15:26:38.990.25-Dec-2020 4892.01 2718.55 65.38 4.00 142.24 2535.10
   15:26:39.190.25-Dec-2020 4892.01 2718.52 65.38 4.00 142.44 2535.10
   15:26:39.390.25-Dec-2020 4892.01 2718.75 65.38 4.00 142.64 2535.10
   15:26:39.590.25-Dec-2020 4892.01 2718.68 65.38 4.00 142.84 2535.10
   15:26:39.790.25-Dec-2020 4892.01 2718.35 65.38 4.00 143.04 2535.10
   15:26:39.990.25-Dec-2020 4892.01 2718.35 65.38 4.00 143.24 2535.10
   15:26:40.190.25-Dec-2020 4892.01 2718.54 65.38 4.00 143.44 2535.10
   15:26:40.390.25-Dec-2020 4892.01 2718.50 65.38 4.00 143.64 2535.10
   15:26:40.590.25-Dec-2020 4892.01 2718.55 65.38 4.00 143.84 2535.10
   15:26:40.790.25-Dec-2020 4892.01 2718.54 65.38 4.00 144.04 2535.10
   15:26:40.990.25-Dec-2020 4892.01 2718.54 65.38 4.00 144.24 2535.10
   15:26:41.191.25-Dec-2020 4892.01 2718.54 65.38 4.00 144.44 2535.10
   15:26:41.391.25-Dec-2020 4892.01 2718.55 65.38 4.00 144.64 2535.10
   15:26:41.591.25-Dec-2020 4892.01 2718.41 65.38 4.00 144.84 2535.10
   15:26:41.791.25-Dec-2020 4892.01 2718.71 65.37 4.00 145.04 2535.10
   15:26:41.991.25-Dec-2020 4892.01 2718.71 65.37 4.00 145.24 2535.10
   15:26:42.191.25-Dec-2020 4892.01 2718.38 65.37 4.00 145.44 2535.10
   15:26:42.391.25-Dec-2020 4892.01 2718.65 65.37 4.00 145.64 2535.10
   15:26:42.591.25-Dec-2020 4892.01 2718.52 65.37 4.00 145.84 2535.10
   15:26:42.791.25-Dec-2020 4892.01 2718.67 65.37 4.00 146.04 2535.10
   15:26:42.991.25-Dec-2020 4892.01 2718.67 65.37 4.00 146.24 2535.10
   15:26:43.191.25-Dec-2020 4892.01 2718.33 65.37 4.00 146.44 2535.10
   15:26:43.391.25-Dec-2020 4892.01 2718.82 65.37 4.00 146.64 2535.10
   15:26:43.591.25-Dec-2020 4892.01 2718.37 65.37 4.00 146.84 2535.10
   15:26:43.791.25-Dec-2020 4892.01 2718.51 65.37 4.00 147.04 2535.10
   15:26:43.991.25-Dec-2020 4892.01 2718.48 65.37 4.00 147.24 2535.10
   15:26:44.191.25-Dec-2020 4892.01 2718.40 65.37 4.00 147.44 2535.10
   15:26:44.391.25-Dec-2020 4892.01 2718.71 65.37 4.00 147.64 2535.10
   15:26:44.591.25-Dec-2020 4892.01 2718.62 65.37 4.00 147.84 2535.10
   15:26:44.792.25-Dec-2020 4892.01 2718.31 65.37 4.00 148.04 2535.10
   15:26:44.992.25-Dec-2020 4892.01 2718.31 65.37 4.00 148.24 2535.10
   15:26:45.192.25-Dec-2020 4892.01 2718.50 65.37 4.00 148.44 2535.10
   15:26:45.392.25-Dec-2020 4892.01 2718.46 65.37 4.00 148.64 2535.10
   15:26:45.592.25-Dec-2020 4892.01 2718.52 65.37 4.00 148.84 2535.10
   15:26:45.792.25-Dec-2020 4892.01 2718.51 65.37 4.00 149.04 2535.10
   15:26:45.992.25-Dec-2020 4892.01 2718.51 65.37 4.00 149.24 2535.10
   15:26:46.192.25-Dec-2020 4892.01 2718.52 65.37 4.00 149.44 2535.10
   15:26:46.392.25-Dec-2020 4892.01 2718.53 65.37 4.00 149.64 2535.10
   15:26:46.592.25-Dec-2020 4892.01 2718.54 65.37 4.00 149.84 2535.10
   15:26:46.792.25-Dec-2020 4892.01 2718.80 65.37 4.00 150.04 2535.10
   15:26:46.992.25-Dec-2020 4892.01 2718.80 65.37 4.00 150.24 2535.10
   15:26:47.192.25-Dec-2020 4892.01 2718.59 65.37 4.00 150.44 2535.10
   15:26:47.392.25-Dec-2020 4892.01 2718.49 65.37 4.00 150.64 2535.10
   15:26:47.592.25-Dec-2020 4892.01 2718.47 65.37 4.00 150.84 2535.10
   15:26:47.792.25-Dec-2020 4892.01 2718.53 65.37 4.00 151.04 2535.10
   15:26:47.992.25-Dec-2020 4892.01 2718.51 65.37 4.00 151.24 2535.10
   15:26:48.192.25-Dec-2020 4892.01 2718.54 65.37 4.00 151.44 2535.10
   15:26:48.392.25-Dec-2020 4892.01 2718.53 65.37 4.00 151.64 2535.10
   15:26:48.593.25-Dec-2020 4892.01 2718.54 65.37 4.00 151.84 2535.10
   15:26:48.793.25-Dec-2020 4892.01 2718.53 65.37 4.00 152.04 2535.10
   15:26:48.993.25-Dec-2020 4892.01 2718.53 65.37 4.00 152.24 2535.10
   15:26:49.193.25-Dec-2020 4892.01 2718.49 65.37 4.00 152.44 2535.10
   15:26:49.393.25-Dec-2020 4892.01 2718.73 65.37 4.00 152.64 2535.10
   15:26:49.593.25-Dec-2020 4892.01 2718.66 65.37 4.00 152.84 2535.10
   15:26:49.793.25-Dec-2020 4892.01 2718.32 65.37 4.00 153.04 2535.10
   15:26:49.993.25-Dec-2020 4892.01 2718.32 65.37 4.00 153.24 2535.10
   15:26:50.193.25-Dec-2020 4892.01 2718.82 65.37 4.00 153.44 2535.10
   15:26:50.393.25-Dec-2020 4892.01 2718.32 65.37 4.00 153.64 2535.10
   15:26:50.593.25-Dec-2020 4892.01 2718.59 65.37 4.00 153.84 2535.10
   15:26:50.793.25-Dec-2020 4892.01 2718.47 65.37 4.00 154.04 2535.10
   15:26:50.993.25-Dec-2020 4892.01 2718.47 65.37 4.00 154.24 2535.10
   15:26:51.193.25-Dec-2020 4892.01 2718.36 65.37 4.00 154.44 2535.10
   15:26:51.393.25-Dec-2020 4892.01 2718.56 65.37 4.00 154.64 2535.10
   15:26:51.593.25-Dec-2020 4892.01 2718.55 65.37 4.00 154.84 2535.10
   15:26:51.793.25-Dec-2020 4892.01 2718.69 65.37 4.00 155.04 2535.10
   15:26:51.993.25-Dec-2020 4892.01 2718.41 65.37 4.00 155.24 2535.10
   15:26:52.194.25-Dec-2020 4892.01 2718.55 65.37 4.00 155.44 2535.10
   15:26:52.394.25-Dec-2020 4892.01 2718.46 65.37 4.00 155.64 2535.10
   15:26:52.594.25-Dec-2020 4892.01 2718.47 65.37 4.00 155.84 2535.10
   15:26:52.794.25-Dec-2020 4892.01 2718.49 65.37 4.00 156.04 2535.10
   15:26:52.994.25-Dec-2020 4892.01 2718.49 65.37 4.00 156.24 2535.10
   15:26:53.194.25-Dec-2020 4892.01 2718.51 65.37 4.00 156.44 2535.10
   15:26:53.394.25-Dec-2020 4892.01 2718.52 65.37 4.00 156.64 2535.10
   15:26:53.594.25-Dec-2020 4892.01 2718.51 65.37 4.00 156.84 2535.10
   15:26:53.794.25-Dec-2020 4892.01 2718.52 65.37 4.00 157.04 2535.10
   15:26:53.994.25-Dec-2020 4892.01 2718.52 65.37 4.00 157.24 2535.10
   15:26:54.194.25-Dec-2020 4892.01 2718.53 65.37 4.00 157.44 2535.10
   15:26:54.394.25-Dec-2020 4892.01 2718.67 65.37 4.00 157.64 2535.10
   15:26:54.594.25-Dec-2020 4892.01 2718.39 65.37 4.00 157.84 2535.10
   15:26:54.794.25-Dec-2020 4892.01 2718.63 65.37 4.00 158.04 2535.10
   15:26:54.994.25-Dec-2020 4892.01 2718.63 65.37 4.00 158.24 2535.10
   15:26:55.194.25-Dec-2020 4892.01 2718.46 65.37 4.00 158.44 2535.10
   15:26:55.394.25-Dec-2020 4892.01 2718.56 65.37 4.00 158.64 2535.10
   15:26:55.594.25-Dec-2020 4892.01 2718.51 65.37 4.00 158.84 2535.10
   15:26:55.794.25-Dec-2020 4892.01 2718.53 65.37 4.00 159.04 2535.10
   15:26:55.995.25-Dec-2020 4892.01 2718.55 65.37 4.00 159.24 2535.10
   15:26:56.195.25-Dec-2020 4892.01 2718.51 65.37 4.00 159.44 2535.10
   15:26:56.395.25-Dec-2020 4892.01 2718.54 65.37 4.00 159.64 2535.10
   15:26:56.595.25-Dec-2020 4892.01 2718.52 65.37 4.00 159.84 2535.10
   15:26:56.795.25-Dec-2020 4892.01 2718.78 65.37 4.00 160.04 2535.10
   15:26:56.995.25-Dec-2020 4892.01 2718.78 65.37 4.00 160.24 2535.10
   15:26:57.195.25-Dec-2020 4892.01 2718.58 65.37 4.00 160.44 2535.10
   15:26:57.395.25-Dec-2020 4892.01 2718.47 65.37 4.00 160.64 2535.10
   15:26:57.595.25-Dec-2020 4892.01 2718.46 65.37 4.00 160.84 2535.10
