~Version Information
 VERS.                  2.0:   CWLS log ASCII Standard -VERSION 2.0
 WRAP.                   NO:   One line per depth step
~Well Information Block
#MNEM.UNIT     VALUE/NAME     DESCRIPTION
#---------     -----------    ---------------------------
 STRT.S             17:56:34 25-Dec-20: START TIME 17:56:34 25-Dec-20
 STOP.S             18:04:57 25-Dec-20: STOP TIME  18:04:57 25-Dec-20
 STEP.S                   0.00: STEP TIME
 NULL.                 -999.25: NULL VALUE
 DFWT.                        :  DIST FWL TEXT
 DFST.                        :  DIST FSL TEXT
 DMF .             Drill Floor:  DRILL MEAS FROM
 STIM.      04.54.24 22-Sep-20:  START TIME
 DATE.      04.54.24 21-Nov-20:  END TIME
 SPUD.               21-Nov-20:  SPUD DATE
 NREF.                    Grid:  NORTH REFERENCE
 HPTY.       Minimum Curvature:  HOLE POS TYPE
 DMOD.             Drill Model:  DRILL MOD DESC
 SVYD.                  Survey:  SURVEY DESC
 ILTD.               Lithology:  INTERP LTH DESC
 FTOP.          Formation Tops:  FORM TOPS DESC
 SON .        AZ-XX-0906571587:  JOB NUMBER
 COMP.     BP Exploration (Caspian Sea) Ltd:  COMPANY
 UWI .                     N/A:  UNIQUE WELL IDENTIFIER
 API .                     N/A:  API NUMBER
 BASE.              Azerbaijan:  LOGGING EQUIPMENT BASE LOCATION
 REGN.                   EESSA:  REGION
 PROV.                    Baku:  PROVINCE
 STAT.                    Baku:  STATE NAME
 CTRY.              Azerbaijan:  COUNTRY NAME
 FLD .                     ACG:  FIELD NAME
 SRVC.     TURAN Drilling & Engineering:  CONTRACTOR
 WELL.                     J27:  WELL NAME
 RIG .             West Chirag:  RIG NAME
 DOE .                     N/A:  DOE NUMBER
 DCON.         Sperry Drilling:  DIRECTNL CONTR
 PDAT.          Mean Sea Level:  PERMANENT DATUM
 WTYP.                Deviated:  WELL TYPE
 MWDS.                    Baku:  MWD SHOP
 JOBN.        AZ-XX-0906571587:  JOB TICKET NUMB
 UNIT.                     N/A:  LOGGING EQUIPMENT ID
 MDS .        Operator Entered:  MAG DATA SOURCE
 CNTY.                        :  COUNTY
 LOC .                        :  LOCATION
 LMF .             Drill Floor:  LOG MEASURED FROM
 TVDS.m                  43.00:  TVDSS CORRECTN
 LATI.deg                40.13:  LATITUDE
 LONG.deg                51.22:  LONGITUDE
 WHNS.m                   7.72:  WELL HEAD N/S
 WHEW.m                 -14.24:  WELL HEAD E/W
 UTMX.m              519005.06:  UTM X
 UTMY.m             4443793.85:  UTM Y
 DFWL.m                   0.00:  DISTANCE FWL
 DFSL.m                   0.00:  DISTANCE FSL
 SDEP.m                 347.00:  START DEPTH
 TDD .m                 581.00:  TOTAL DEPTH (DRILLER)
 VSDR.deg               159.72:  VERT SEC DIRECT
 GVFD.g                   1.00:  GRAVITY FIELD
 MFLD.nT              50318.00:  MAGNETIC FIELD
 MDIP.deg                59.57:  MAGNETIC DIP
 MDEC.deg                 6.44:  MAGNETIC DECL
 GRDC.deg                 0.15:  GRID CORRECTION
 AZTC.deg                 6.29:  AZM TOTAL CORR
 EPD .m                   0.00:  ELEVATION
 EGL .m                   0.00:  GROUND ELEVATION
 WDMS.m                 169.80:  WD ELEV
 APD .m                  43.00:  DEPTH ABOVE PD
 AGAP.m                  43.00:  AIR GAP
 VSEW.m                 -14.24:  VERT SEC E/W
 VSNS.m                   7.72:  VERT SEC N/S
 DEP .m                 342.45:  DEPTH
 EKB .m                   0.00:  KB ELEVATION
 EDF .m                  43.00:  DF ELEVATION
 TDL .m                 237.00:  TOTAL DEPTH (LOGGER)
 VSC .                       0:  VS TO CLOSURE
 MAGU.                 1851428:  MAGUTM CHECKSUM
~Parameter Information Block
#MNEM.UNIT       Value        Description
#---------     -----------    ---------------------------
 AV  .mps                 1.50:  Ann Velocity 
 AVMX.mps                 2.90:  Max Ann Veloc 
 AZIF.deg               115.59:  Azm, Final 
 BHAT.        Rotary Steerable:  BHA Type 
 BROT.∞/30m               0.50:  Build Rotating 
 BS  .in                  8.50:  Bit Size 
 BTPL.psig              580.00:  Bit Press Loss 
 CABU.                     Yes:  Customer Abuse 
 COMM.                     ‰E:  Run Comments 1 
 TCS .hr                 89.79:  Time Ciculation Ended 
 CV  .mps                 3.22:  Crit Velocity 
 CVMX.mps                 4.37:  Max Crit Veloc 
 DD1 .          Rashad Habibov:  Direct Drillr 1 
 DDSV.               Geo-Pilot:  DD Service 
 DEFF.%                  95.00:  % Det Eff 
 DLRX.∞/30m               1.94:  Dogleg Rot Max 
 DLSO.∞/30m               0.70:  Dogleg Oriented 
 DLSX.∞/30m               1.94:  Dogleg Str Max 
 DRET.      04.45.00 25-Dec-20:  Drill End Time 
 DRST.      10.00.00 24-Dec-20:  Drill Start Tim 
 DTIM.hr                 16.64:  Time Drilling 
 EDEP.m                4999.01:  End Depth 
 ENG1.         Elchin Mammadov:  Engineer 1 
 ENG2.          Ruslan Safarov:  Engineer 2 
 ENG3.          Rustam Safarov:  Engineer 3 
 ETIM.      09.00.00 29-Dec-20:  End Time 
 FLOI.gpm               500.00:  Flow In 
 FLON.gpm               400.00:  Flow In Min 
 FLOS.cptm                0.00:  Fluid Loss 
 FLOX.gpm               500.00:  Flow In Max 
 HFLO.                      No:  High Flow 
 HPRE.                      No:  High Pressure 
 HTEM.                      No:  High Temp 
 HYDO.m                   2.00:  Hydro Offset 
 IFIN.deg                66.79:  Inc, Final 
 IMAX.deg                67.66:  Inc Max 
 IMIN.deg                66.39:  Inc Min 
 IMND.m                4949.37:  Inc Min Depth 
 IMXD.m                4778.63:  Inc Max Depth 
 JARR.                     Yes:  Jarring 
 LETM.      04.45.00 25-Dec-20:  Log End Time 
 LOST.hr                     0:  Lost Rig Time 
 LSTM.      10.00.00 24-Dec-20:  Log Start Time 
 MDCL.ppm             39000.00:  Mud Chlorides 
 MDES.     Inversion Oil/Synthetic:  Mud Desc 
 DFD .sg                  1.33:  Mud Density 
 MDMN.sg                  1.33:  Dens Mud Min 
 MDMX.sg                  1.33:  Dens Mud Max 
 MOIL.                      70:  Run Mud Oil % 
 MOWR.                   70:30:  Run Mud OWR 
 MSND.                       0:  Run Mud Sand % 
 MSOL.                    17.4:  Run Mud Solids% 
 DFV .spqt               84.00:  Mud Viscosity 
 MWOD.in                  6.75:  MWD Tool OD 
 MWSI.                     Yes:  Serv Intrp, MWD 
 OTIM.hr                168.14:  Time Operating 
 PCON.           Look Like New:  Pad Condition 
 PMAX.psia            10822.93:  Press Op, Max 
 PV  .cP                 30.00:  Mud PV 
 RUN .                     900:  Run Number 
 ROPA.m/hr               18.00:  ROP Avg 
 ROPN.m/hr               12.00:  ROP Min 
 ROPX.m/hr               25.00:  ROP Max 
 RPMA.rpm               120.00:  RPM Surface Avg 
 RPMN.rpm               100.00:  RPM Surface Min 
 RPMX.rpm               120.00:  RPM Surface Max 
 RRUN.                    0900:  Rig Run Number 
 SAZI.deg               115.08:  Azm, Start 
 SDEP.m                4762.01:  Start Depth 
 SIDD.                      No:  Serv Intrp, DD 
 SINC.deg                66.14:  Inc, Start 
 SPPA.psig             3700.00:  SPP Avg 
 SPPN.psig             3620.00:  SPP Min 
 SPPX.psig             3900.00:  SPP Max 
 STIM.      09.30.00 22-Dec-20:  Start Time 
 SVCS.                 DD, MWD:  Services 
 SVER.                    9.20:  Sperry Version 
 TDAT.m                 237.00:  Tot Depth Attmp 
 TDDF.                      No:  Trip for DD 
 TDLG.m                 237.00:  Tot Depth Loggd 
 TFF .                      No:  Trip for Fail 
 TQAA.f-kp               18.00:  Torque Abs Avg 
 TQAN.f-kp               17.00:  Torque Abs Min 
 TQAX.f-kp               20.00:  Torque Abs Max 
 TRRT.∞/30m               0.60:  Turn Rotating 
 MRT .                    HCIM:  Maximum Recorded Temperature 
 TTMX.degC               94.12:  Max Tool Temp 
 VS01.                90627809:  Virtual Str1 SN 
 VS02.                90527813:  Virtual Str2 SN 
 VS03.                90545417:  Virtual Str3 SN 
 VS04.                12460870:  Virtual Str4 SN 
 VS05.                90516706:  Virtual Str5 SN 
 VS06.                90632007:  Virtual Str6 SN 
 WBMN.klb                 0.00:  WOB Min 
 WOBA.klb                14.00:  WOB Avg 
 WOBX.klb                25.00:  WOB Max 
 YP  .lhf2               32.00:  Yield Point 
~Curve Information Block
#MNEM.UNIT                 API CODE     Curve Description
#---------               -----------    ---------------------------
 TIME.HHMMSS            00 000 000 000:  GT Time & Date
 GTDEPTH.m              00 000 000 000:  GT Depth
 GTPQH.psia             00 000 000 000:  GT HR Quartz Pressure
 GTTQ.degC              00 000 000 000:  GT Quartz Temperature
 GTTN.NONE              00 000 000 000:  GT Test Number
 GTET.sec               00 000 000 000:  GT Elapsed Test Time
 GTTVD.m                00 000 000 000:  GT True Vertical Depth
#Other Information
#
#WARRANTY: Halliburton will use its best efforts to furnish customers with 
#accurate information and interpretations that are part of, and incident to, the services 
#provided.  However, Halliburton cannot and does not warrant the accuracy 
#or correctness of such information and interpretations.  Under no circumstances should any 
#such information or interpretation be relied upon as the sole basis for any drilling, 
#completion, production, or financial decision or any procedure involving any risk to the 
#safety of any drilling venture, drilling rig or its crew or any other third party.  The 
#Customer has full responsibility for all drilling, completion and production operation.  
#Halliburton makes no representations or warranties, either expressed or 
#implied, including, but not limited to, the implied warranties of merchantability or fitness 
#for a particular purpose, with respect to the services rendered.  In no event will 
#Halliburton be liable for failure to obtain any particular results or for 
#any damages, including, but not limited to, indirect, special or consequential damages, 
#resulting from the use of any information or interpretation provided by Halliburton.
#
~A           TIME           GTDEPTH  GTPQH  GTTQ  GTTN  GTET   GTTVD  
# ...
   17:57:43.697.25-Dec-2020 4856.51 3914.94 64.20 5.00  68.97 2521.01
   17:57:43.897.25-Dec-2020 4856.51 3915.77 64.20 5.00  69.17 2521.01
   17:57:44.097.25-Dec-2020 4856.51 3915.53 64.20 5.00  69.37 2521.01
   17:57:44.297.25-Dec-2020 4856.51 3915.77 64.20 5.00  69.57 2521.01
   17:57:44.497.25-Dec-2020 4856.51 3915.00 64.21 5.00  69.77 2521.01
   17:57:44.697.25-Dec-2020 4856.51 3916.04 64.21 5.00  69.97 2521.01
   17:57:44.897.25-Dec-2020 4856.51 3916.04 64.21 5.00  70.17 2521.01
   17:57:45.097.25-Dec-2020 4856.51 3915.57 64.21 5.00  70.37 2521.01
   17:57:45.297.25-Dec-2020 4856.51 3914.59 64.21 5.00  70.57 2521.01
   17:57:45.496.25-Dec-2020 4856.51 3916.08 64.21 5.00  70.77 2521.01
   17:57:45.696.25-Dec-2020 4856.51 3915.32 64.21 5.00  70.97 2521.01
   17:57:45.896.25-Dec-2020 4856.51 3915.32 64.21 5.00  71.17 2521.01
   17:57:46.096.25-Dec-2020 4856.51 3915.24 64.21 5.00  71.37 2521.01
   17:57:46.296.25-Dec-2020 4856.51 3915.09 64.21 5.00  71.57 2521.01
   17:57:46.496.25-Dec-2020 4856.51 3915.72 64.21 5.00  71.77 2521.01
   17:57:46.696.25-Dec-2020 4856.51 3915.81 64.21 5.00  71.97 2521.01
   17:57:46.896.25-Dec-2020 4856.51 3915.81 64.21 5.00  72.17 2521.01
   17:57:47.096.25-Dec-2020 4856.51 3916.27 64.21 5.00  72.37 2521.01
   17:57:47.296.25-Dec-2020 4856.51 3916.44 64.21 5.00  72.57 2521.01
   17:57:47.496.25-Dec-2020 4856.51 3916.73 64.21 5.00  72.77 2521.01
   17:57:47.696.25-Dec-2020 4856.51 3916.89 64.21 5.00  72.97 2521.01
   17:57:47.895.25-Dec-2020 4856.51 3916.97 64.21 5.00  73.17 2521.01
   17:57:48.095.25-Dec-2020 4856.51 3917.11 64.21 5.00  73.37 2521.01
   17:57:48.295.25-Dec-2020 4856.51 3917.13 64.21 5.00  73.57 2521.01
   17:57:48.495.25-Dec-2020 4856.51 3916.28 64.21 5.00  73.77 2521.01
   17:57:48.695.25-Dec-2020 4856.51 3917.85 64.21 5.00  73.97 2521.01
   17:57:48.895.25-Dec-2020 4856.51 3917.85 64.21 5.00  74.17 2521.01
   17:57:49.095.25-Dec-2020 4856.51 3917.18 64.21 5.00  74.37 2521.01
   17:57:49.295.25-Dec-2020 4856.51 3917.18 64.21 5.00  74.57 2521.01
   17:57:49.495.25-Dec-2020 4856.51 3917.45 64.21 5.00  74.77 2521.01
   17:57:49.695.25-Dec-2020 4856.51 3917.57 64.21 5.00  74.97 2521.01
   17:57:49.895.25-Dec-2020 4856.51 3917.57 64.21 5.00  75.17 2521.01
   17:57:50.095.25-Dec-2020 4856.51 3917.77 64.21 5.00  75.37 2521.01
   17:57:50.295.25-Dec-2020 4856.51 3917.78 64.21 5.00  75.57 2521.01
   17:57:50.494.25-Dec-2020 4856.51 3917.95 64.21 5.00  75.77 2521.01
   17:57:50.694.25-Dec-2020 4856.51 3918.11 64.21 5.00  75.97 2521.01
   17:57:50.894.25-Dec-2020 4856.51 3918.11 64.21 5.00  76.17 2521.01
   17:57:51.094.25-Dec-2020 4856.51 3917.42 64.21 5.00  76.37 2521.01
   17:57:51.294.25-Dec-2020 4856.51 3918.26 64.21 5.00  76.57 2521.01
   17:57:51.494.25-Dec-2020 4856.51 3917.71 64.21 5.00  76.77 2521.01
   17:57:51.694.25-Dec-2020 4856.51 3916.79 64.21 5.00  76.97 2521.01
   17:57:51.894.25-Dec-2020 4856.51 3916.65 64.21 5.00  77.17 2521.01
   17:57:52.094.25-Dec-2020 4856.51 3916.43 64.21 5.00  77.37 2521.01
   17:57:52.294.25-Dec-2020 4856.51 3916.74 64.21 5.00  77.57 2521.01
   17:57:52.494.25-Dec-2020 4856.51 3917.07 64.21 5.00  77.77 2521.01
   17:57:52.694.25-Dec-2020 4856.51 3916.27 64.21 5.00  77.97 2521.01
   17:57:52.894.25-Dec-2020 4856.51 3916.27 64.21 5.00  78.17 2521.01
   17:57:53.093.25-Dec-2020 4856.51 3915.41 64.21 5.00  78.37 2521.01
   17:57:53.293.25-Dec-2020 4856.51 3916.54 64.21 5.00  78.57 2521.01
   17:57:53.493.25-Dec-2020 4856.51 3916.04 64.21 5.00  78.77 2521.01
   17:57:53.693.25-Dec-2020 4856.51 3916.50 64.21 5.00  78.97 2521.01
   17:57:53.893.25-Dec-2020 4856.51 3916.50 64.21 5.00  79.17 2521.01
   17:57:54.093.25-Dec-2020 4856.51 3917.24 64.21 5.00  79.37 2521.01
   17:57:54.293.25-Dec-2020 4856.51 3917.37 64.21 5.00  79.57 2521.01
   17:57:54.493.25-Dec-2020 4856.51 3917.60 64.21 5.00  79.77 2521.01
   17:57:54.693.25-Dec-2020 4856.51 3917.97 64.21 5.00  79.97 2521.01
   17:57:54.893.25-Dec-2020 4856.51 3917.97 64.21 5.00  80.17 2521.01
   17:57:55.093.25-Dec-2020 4856.51 3918.30 64.21 5.00  80.37 2521.01
   17:57:55.293.25-Dec-2020 4856.51 3918.41 64.21 5.00  80.57 2521.01
   17:57:55.492.25-Dec-2020 4856.51 3918.42 64.21 5.00  80.77 2521.01
   17:57:55.692.25-Dec-2020 4856.51 3917.68 64.21 5.00  80.97 2521.01
   17:57:55.892.25-Dec-2020 4856.51 3917.68 64.21 5.00  81.17 2521.01
   17:57:56.092.25-Dec-2020 4856.51 3917.91 64.21 5.00  81.37 2521.01
   17:57:56.292.25-Dec-2020 4856.51 3918.01 64.21 5.00  81.57 2521.01
   17:57:56.492.25-Dec-2020 4856.51 3918.23 64.21 5.00  81.77 2521.01
   17:57:56.692.25-Dec-2020 4856.51 3918.51 64.21 5.00  81.97 2521.01
   17:57:56.892.25-Dec-2020 4856.51 3918.51 64.21 5.00  82.17 2521.01
   17:57:57.092.25-Dec-2020 4856.51 3918.63 64.21 5.00  82.37 2521.01
   17:57:57.292.25-Dec-2020 4856.51 3918.80 64.21 5.00  82.57 2521.01
   17:57:57.492.25-Dec-2020 4856.51 3918.86 64.21 5.00  82.77 2521.01
   17:57:57.692.25-Dec-2020 4856.51 3919.02 64.21 5.00  82.97 2521.01
   17:57:57.892.25-Dec-2020 4856.51 3919.02 64.21 5.00  83.17 2521.01
   17:57:58.091.25-Dec-2020 4856.51 3919.13 64.21 5.00  83.37 2521.01
   17:57:58.291.25-Dec-2020 4856.51 3918.29 64.21 5.00  83.57 2521.01
   17:57:58.491.25-Dec-2020 4856.51 3918.70 64.21 5.00  83.77 2521.01
   17:57:58.691.25-Dec-2020 4856.51 3918.43 64.21 5.00  83.97 2521.01
   17:57:58.891.25-Dec-2020 4856.51 3918.43 64.21 5.00  84.17 2521.01
   17:57:59.091.25-Dec-2020 4856.51 3917.02 64.21 5.00  84.37 2521.01
   17:57:59.291.25-Dec-2020 4856.51 3916.97 64.21 5.00  84.57 2521.01
   17:57:59.491.25-Dec-2020 4856.51 3917.29 64.21 5.00  84.77 2521.01
   17:57:59.691.25-Dec-2020 4856.51 3917.67 64.21 5.00  84.97 2521.01
   17:57:59.891.25-Dec-2020 4856.51 3916.94 64.21 5.00  85.17 2521.01
   17:58:00.091.25-Dec-2020 4856.51 3917.55 64.21 5.00  85.37 2521.01
   17:58:00.291.25-Dec-2020 4856.51 3917.76 64.21 5.00  85.57 2521.01
   17:58:00.491.25-Dec-2020 4856.51 3918.01 64.21 5.00  85.77 2521.01
   17:58:00.690.25-Dec-2020 4856.51 3918.34 64.21 5.00  85.97 2521.01
   17:58:00.890.25-Dec-2020 4856.51 3918.34 64.21 5.00  86.17 2521.01
   17:58:01.090.25-Dec-2020 4856.51 3917.88 64.21 5.00  86.37 2521.01
   17:58:01.290.25-Dec-2020 4856.51 3917.95 64.21 5.00  86.57 2521.01
   17:58:01.490.25-Dec-2020 4856.51 3918.03 64.21 5.00  86.77 2521.01
   17:58:01.690.25-Dec-2020 4856.51 3918.35 64.21 5.00  86.97 2521.01
   17:58:01.890.25-Dec-2020 4856.51 3918.35 64.21 5.00  87.17 2521.01
   17:58:02.090.25-Dec-2020 4856.51 3918.90 64.21 5.00  87.37 2521.01
   17:58:02.290.25-Dec-2020 4856.51 3918.96 64.21 5.00  87.57 2521.01
   17:58:02.490.25-Dec-2020 4856.51 3919.05 64.21 5.00  87.77 2521.01
   17:58:02.690.25-Dec-2020 4856.51 3919.18 64.21 5.00  87.97 2521.01
   17:58:02.890.25-Dec-2020 4856.51 3919.18 64.21 5.00  88.17 2521.01
   17:58:03.090.25-Dec-2020 4856.51 3919.19 64.21 5.00  88.37 2521.01
   17:58:03.289.25-Dec-2020 4856.51 3918.92 64.21 5.00  88.57 2521.01
   17:58:03.489.25-Dec-2020 4856.51 3918.97 64.21 5.00  88.77 2521.01
   17:58:03.689.25-Dec-2020 4856.51 3918.83 64.21 5.00  88.96 2521.01
   17:58:03.889.25-Dec-2020 4856.51 3919.08 64.21 5.00  89.16 2521.01
   17:58:04.089.25-Dec-2020 4856.51 3918.99 64.21 5.00  89.36 2521.01
   17:58:04.289.25-Dec-2020 4856.51 3919.23 64.21 5.00  89.56 2521.01
   17:58:04.489.25-Dec-2020 4856.51 3919.37 64.21 5.00  89.76 2521.01
   17:58:04.689.25-Dec-2020 4856.51 3919.47 64.21 5.00  89.96 2521.01
   17:58:04.889.25-Dec-2020 4856.51 3919.47 64.21 5.00  90.16 2521.01
   17:58:05.089.25-Dec-2020 4856.51 3919.54 64.21 5.00  90.36 2521.01
   17:58:05.289.25-Dec-2020 4856.51 3919.57 64.21 5.00  90.56 2521.01
   17:58:05.489.25-Dec-2020 4856.51 3919.46 64.21 5.00  90.76 2521.01
   17:58:05.688.25-Dec-2020 4856.51 3919.63 64.21 5.00  90.96 2521.01
   17:58:05.888.25-Dec-2020 4856.51 3919.63 64.21 5.00  91.16 2521.01
   17:58:06.088.25-Dec-2020 4856.51 3919.79 64.21 5.00  91.36 2521.01
   17:58:06.288.25-Dec-2020 4856.51 3919.21 64.21 5.00  91.56 2521.01
   17:58:06.488.25-Dec-2020 4856.51 3918.60 64.21 5.00  91.76 2521.01
