~Version Information
 VERS.                  2.0:   CWLS log ASCII Standard -VERSION 2.0
 WRAP.                   NO:   One line per depth step
~Well Information Block
#MNEM.UNIT     VALUE/NAME     DESCRIPTION
#---------     -----------    ---------------------------
 STRT.S             13:59:04 25-Dec-20: START TIME 13:59:04 25-Dec-20
 STOP.S             14:07:22 25-Dec-20: STOP TIME  14:07:22 25-Dec-20
 STEP.S                   0.00: STEP TIME
 NULL.                 -999.25: NULL VALUE
 DFWT.                        :  DIST FWL TEXT
 DFST.                        :  DIST FSL TEXT
 DMF .             Drill Floor:  DRILL MEAS FROM
 STIM.      04.54.24 22-Sep-20:  START TIME
 DATE.      04.54.24 21-Nov-20:  END TIME
 SPUD.               21-Nov-20:  SPUD DATE
 NREF.                    Grid:  NORTH REFERENCE
 HPTY.       Minimum Curvature:  HOLE POS TYPE
 DMOD.             Drill Model:  DRILL MOD DESC
 SVYD.                  Survey:  SURVEY DESC
 ILTD.               Lithology:  INTERP LTH DESC
 FTOP.          Formation Tops:  FORM TOPS DESC
 SON .        AZ-XX-0906571587:  JOB NUMBER
 COMP.     BP Exploration (Caspian Sea) Ltd:  COMPANY
 UWI .                     N/A:  UNIQUE WELL IDENTIFIER
 API .                     N/A:  API NUMBER
 BASE.              Azerbaijan:  LOGGING EQUIPMENT BASE LOCATION
 REGN.                   EESSA:  REGION
 PROV.                    Baku:  PROVINCE
 STAT.                    Baku:  STATE NAME
 CTRY.              Azerbaijan:  COUNTRY NAME
 FLD .                     ACG:  FIELD NAME
 SRVC.     TURAN Drilling & Engineering:  CONTRACTOR
 WELL.                     J27:  WELL NAME
 RIG .             West Chirag:  RIG NAME
 DOE .                     N/A:  DOE NUMBER
 DCON.         Sperry Drilling:  DIRECTNL CONTR
 PDAT.          Mean Sea Level:  PERMANENT DATUM
 WTYP.                Deviated:  WELL TYPE
 MWDS.                    Baku:  MWD SHOP
 JOBN.        AZ-XX-0906571587:  JOB TICKET NUMB
 UNIT.                     N/A:  LOGGING EQUIPMENT ID
 MDS .        Operator Entered:  MAG DATA SOURCE
 CNTY.                        :  COUNTY
 LOC .                        :  LOCATION
 LMF .             Drill Floor:  LOG MEASURED FROM
 TVDS.m                  43.00:  TVDSS CORRECTN
 LATI.deg                40.13:  LATITUDE
 LONG.deg                51.22:  LONGITUDE
 WHNS.m                   7.72:  WELL HEAD N/S
 WHEW.m                 -14.24:  WELL HEAD E/W
 UTMX.m              519005.06:  UTM X
 UTMY.m             4443793.85:  UTM Y
 DFWL.m                   0.00:  DISTANCE FWL
 DFSL.m                   0.00:  DISTANCE FSL
 SDEP.m                 347.00:  START DEPTH
 TDD .m                 581.00:  TOTAL DEPTH (DRILLER)
 VSDR.deg               159.72:  VERT SEC DIRECT
 GVFD.g                   1.00:  GRAVITY FIELD
 MFLD.nT              50318.00:  MAGNETIC FIELD
 MDIP.deg                59.57:  MAGNETIC DIP
 MDEC.deg                 6.44:  MAGNETIC DECL
 GRDC.deg                 0.15:  GRID CORRECTION
 AZTC.deg                 6.29:  AZM TOTAL CORR
 EPD .m                   0.00:  ELEVATION
 EGL .m                   0.00:  GROUND ELEVATION
 WDMS.m                 169.80:  WD ELEV
 APD .m                  43.00:  DEPTH ABOVE PD
 AGAP.m                  43.00:  AIR GAP
 VSEW.m                 -14.24:  VERT SEC E/W
 VSNS.m                   7.72:  VERT SEC N/S
 DEP .m                 342.45:  DEPTH
 EKB .m                   0.00:  KB ELEVATION
 EDF .m                  43.00:  DF ELEVATION
 TDL .m                 237.00:  TOTAL DEPTH (LOGGER)
 VSC .                       0:  VS TO CLOSURE
 MAGU.                 1851428:  MAGUTM CHECKSUM
~Parameter Information Block
#MNEM.UNIT       Value        Description
#---------     -----------    ---------------------------
 AV  .mps                 1.50:  Ann Velocity 
 AVMX.mps                 2.90:  Max Ann Veloc 
 AZIF.deg               115.59:  Azm, Final 
 BHAT.        Rotary Steerable:  BHA Type 
 BROT.°/30m               0.50:  Build Rotating 
 BS  .in                  8.50:  Bit Size 
 BTPL.psig              580.00:  Bit Press Loss 
 CABU.                     Yes:  Customer Abuse 
 COMM.                     ì©q:  Run Comments 1 
 TCS .hr                 89.79:  Time Ciculation Ended 
 CV  .mps                 3.22:  Crit Velocity 
 CVMX.mps                 4.37:  Max Crit Veloc 
 DD1 .          Rashad Habibov:  Direct Drillr 1 
 DDSV.               Geo-Pilot:  DD Service 
 DEFF.%                  95.00:  % Det Eff 
 DLRX.°/30m               1.94:  Dogleg Rot Max 
 DLSO.°/30m               0.70:  Dogleg Oriented 
 DLSX.°/30m               1.94:  Dogleg Str Max 
 DRET.      04.45.00 25-Dec-20:  Drill End Time 
 DRST.      10.00.00 24-Dec-20:  Drill Start Tim 
 DTIM.hr                 16.64:  Time Drilling 
 EDEP.m                4999.01:  End Depth 
 ENG1.         Elchin Mammadov:  Engineer 1 
 ENG2.          Ruslan Safarov:  Engineer 2 
 ENG3.          Rustam Safarov:  Engineer 3 
 ETIM.      09.00.00 29-Dec-20:  End Time 
 FLOI.gpm               500.00:  Flow In 
 FLON.gpm               400.00:  Flow In Min 
 FLOS.cptm                0.00:  Fluid Loss 
 FLOX.gpm               500.00:  Flow In Max 
 HFLO.                      No:  High Flow 
 HPRE.                      No:  High Pressure 
 HTEM.                      No:  High Temp 
 HYDO.m                   2.00:  Hydro Offset 
 IFIN.deg                66.79:  Inc, Final 
 IMAX.deg                67.66:  Inc Max 
 IMIN.deg                66.39:  Inc Min 
 IMND.m                4949.37:  Inc Min Depth 
 IMXD.m                4778.63:  Inc Max Depth 
 JARR.                     Yes:  Jarring 
 LETM.      04.45.00 25-Dec-20:  Log End Time 
 LOST.hr                     0:  Lost Rig Time 
 LSTM.      10.00.00 24-Dec-20:  Log Start Time 
 MDCL.ppm             39000.00:  Mud Chlorides 
 MDES.     Inversion Oil/Synthetic:  Mud Desc 
 DFD .sg                  1.33:  Mud Density 
 MDMN.sg                  1.33:  Dens Mud Min 
 MDMX.sg                  1.33:  Dens Mud Max 
 MOIL.                      70:  Run Mud Oil % 
 MOWR.                   70:30:  Run Mud OWR 
 MSND.                       0:  Run Mud Sand % 
 MSOL.                    17.4:  Run Mud Solids% 
 DFV .spqt               84.00:  Mud Viscosity 
 MWOD.in                  6.75:  MWD Tool OD 
 MWSI.                     Yes:  Serv Intrp, MWD 
 OTIM.hr                168.14:  Time Operating 
 PCON.           Look Like New:  Pad Condition 
 PMAX.psia            10822.93:  Press Op, Max 
 PV  .cP                 30.00:  Mud PV 
 RUN .                     900:  Run Number 
 ROPA.m/hr               18.00:  ROP Avg 
 ROPN.m/hr               12.00:  ROP Min 
 ROPX.m/hr               25.00:  ROP Max 
 RPMA.rpm               120.00:  RPM Surface Avg 
 RPMN.rpm               100.00:  RPM Surface Min 
 RPMX.rpm               120.00:  RPM Surface Max 
 RRUN.                    0900:  Rig Run Number 
 SAZI.deg               115.08:  Azm, Start 
 SDEP.m                4762.01:  Start Depth 
 SIDD.                      No:  Serv Intrp, DD 
 SINC.deg                66.14:  Inc, Start 
 SPPA.psig             3700.00:  SPP Avg 
 SPPN.psig             3620.00:  SPP Min 
 SPPX.psig             3900.00:  SPP Max 
 STIM.      09.30.00 22-Dec-20:  Start Time 
 SVCS.                 DD, MWD:  Services 
 SVER.                    9.20:  Sperry Version 
 TDAT.m                 237.00:  Tot Depth Attmp 
 TDDF.                      No:  Trip for DD 
 TDLG.m                 237.00:  Tot Depth Loggd 
 TFF .                      No:  Trip for Fail 
 TQAA.f-kp               18.00:  Torque Abs Avg 
 TQAN.f-kp               17.00:  Torque Abs Min 
 TQAX.f-kp               20.00:  Torque Abs Max 
 TRRT.°/30m               0.60:  Turn Rotating 
 MRT .                    HCIM:  Maximum Recorded Temperature 
 TTMX.degC               94.12:  Max Tool Temp 
 VS01.                90627809:  Virtual Str1 SN 
 VS02.                90527813:  Virtual Str2 SN 
 VS03.                90545417:  Virtual Str3 SN 
 VS04.                12460870:  Virtual Str4 SN 
 VS05.                90516706:  Virtual Str5 SN 
 VS06.                90632007:  Virtual Str6 SN 
 WBMN.klb                 0.00:  WOB Min 
 WOBA.klb                14.00:  WOB Avg 
 WOBX.klb                25.00:  WOB Max 
 YP  .lhf2               32.00:  Yield Point 
~Curve Information Block
#MNEM.UNIT                 API CODE     Curve Description
#---------               -----------    ---------------------------
 TIME.HHMMSS            00 000 000 000:  GT Time & Date
 GTDEPTH.m              00 000 000 000:  GT Depth
 GTPQH.psia             00 000 000 000:  GT HR Quartz Pressure
 GTTQ.degC              00 000 000 000:  GT Quartz Temperature
 GTTN.NONE              00 000 000 000:  GT Test Number
 GTET.sec               00 000 000 000:  GT Elapsed Test Time
 GTTVD.m                00 000 000 000:  GT True Vertical Depth
#Other Information
#
#WARRANTY: Halliburton will use its best efforts to furnish customers with 
#accurate information and interpretations that are part of, and incident to, the services 
#provided.  However, Halliburton cannot and does not warrant the accuracy 
#or correctness of such information and interpretations.  Under no circumstances should any 
#such information or interpretation be relied upon as the sole basis for any drilling, 
#completion, production, or financial decision or any procedure involving any risk to the 
#safety of any drilling venture, drilling rig or its crew or any other third party.  The 
#Customer has full responsibility for all drilling, completion and production operation.  
#Halliburton makes no representations or warranties, either expressed or 
#implied, including, but not limited to, the implied warranties of merchantability or fitness 
#for a particular purpose, with respect to the services rendered.  In no event will 
#Halliburton be liable for failure to obtain any particular results or for 
#any damages, including, but not limited to, indirect, special or consequential damages, 
#resulting from the use of any information or interpretation provided by Halliburton.
#
~A           TIME           GTDEPTH  GTPQH  GTTQ  GTTN  GTET   GTTVD  
# ...
   13:59:27.000.25-Dec-2020 4920.01 5475.77 65.84 3.00  23.00 2546.09
   13:59:27.200.25-Dec-2020 4920.01 5475.50 65.84 3.00  23.20 2546.09
   13:59:27.400.25-Dec-2020 4920.01 5477.19 65.84 3.00  23.40 2546.09
   13:59:27.600.25-Dec-2020 4920.01 5476.34 65.84 3.00  23.60 2546.09
   13:59:27.800.25-Dec-2020 4920.01 5477.24 65.84 3.00  23.80 2546.09
   13:59:28.000.25-Dec-2020 4920.01 5477.04 65.84 3.00  24.00 2546.09
   13:59:28.200.25-Dec-2020 4920.01 5477.04 65.84 3.00  24.20 2546.09
   13:59:28.400.25-Dec-2020 4920.01 5480.94 65.84 3.00  24.40 2546.09
   13:59:28.600.25-Dec-2020 4920.01 5480.99 65.84 3.00  24.60 2546.09
   13:59:28.800.25-Dec-2020 4920.01 5480.30 65.84 3.00  24.80 2546.09
   13:59:29.000.25-Dec-2020 4920.01 5480.92 65.84 3.00  25.00 2546.09
   13:59:29.200.25-Dec-2020 4920.01 5480.92 65.84 3.00  25.20 2546.09
   13:59:29.400.25-Dec-2020 4920.01 5479.59 65.84 3.00  25.40 2546.09
   13:59:29.600.25-Dec-2020 4920.01 5479.46 65.84 3.00  25.60 2546.09
   13:59:29.800.25-Dec-2020 4920.01 5480.52 65.84 3.00  25.80 2546.09
   13:59:30.000.25-Dec-2020 4920.01 5480.37 65.84 3.00  26.00 2546.09
   13:59:30.200.25-Dec-2020 4920.01 5480.37 65.84 3.00  26.20 2546.09
   13:59:30.400.25-Dec-2020 4920.01 5480.78 65.84 3.00  26.40 2546.09
   13:59:30.600.25-Dec-2020 4920.01 5479.83 65.84 3.00  26.60 2546.09
   13:59:30.800.25-Dec-2020 4920.01 5480.12 65.84 3.00  26.80 2546.09
   13:59:31.000.25-Dec-2020 4920.01 5480.30 65.84 3.00  27.00 2546.09
   13:59:31.200.25-Dec-2020 4920.01 5491.57 65.84 3.00  27.20 2546.09
   13:59:31.400.25-Dec-2020 4920.01 5482.05 65.84 3.00  27.40 2546.09
   13:59:31.600.25-Dec-2020 4920.01 5484.35 65.84 3.00  27.60 2546.09
   13:59:31.800.25-Dec-2020 4920.01 5484.89 65.84 3.00  27.80 2546.09
   13:59:32.000.25-Dec-2020 4920.01 5487.64 65.84 3.00  28.00 2546.09
   13:59:32.200.25-Dec-2020 4920.01 5483.36 65.84 3.00  28.20 2546.09
   13:59:32.400.25-Dec-2020 4920.01 5484.30 65.84 3.00  28.40 2546.09
   13:59:32.600.25-Dec-2020 4920.01 5486.17 65.84 3.00  28.60 2546.09
   13:59:32.800.25-Dec-2020 4920.01 5493.03 65.84 3.00  28.80 2546.09
   13:59:33.000.25-Dec-2020 4920.01 5484.47 65.84 3.00  29.00 2546.09
   13:59:33.200.25-Dec-2020 4920.01 5484.47 65.84 3.00  29.20 2546.09
   13:59:33.400.25-Dec-2020 4920.01 5483.00 65.84 3.00  29.40 2546.09
   13:59:33.600.25-Dec-2020 4920.01 5493.29 65.84 3.00  29.60 2546.09
   13:59:33.800.25-Dec-2020 4920.01 5483.59 65.84 3.00  29.80 2546.09
   13:59:34.000.25-Dec-2020 4920.01 5483.64 65.84 3.00  30.00 2546.09
   13:59:34.200.25-Dec-2020 4920.01 5483.64 65.84 3.00  30.20 2546.09
   13:59:34.400.25-Dec-2020 4920.01 5484.84 65.84 3.00  30.40 2546.09
   13:59:34.600.25-Dec-2020 4920.01 5482.91 65.84 3.00  30.60 2546.09
   13:59:34.800.25-Dec-2020 4920.01 5481.90 65.84 3.00  30.80 2546.09
   13:59:35.000.25-Dec-2020 4920.01 5483.25 65.84 3.00  31.00 2546.09
   13:59:35.200.25-Dec-2020 4920.01 5482.42 65.84 3.00  31.20 2546.09
   13:59:35.400.25-Dec-2020 4920.01 5483.27 65.84 3.00  31.40 2546.09
   13:59:35.600.25-Dec-2020 4920.01 5482.82 65.83 3.00  31.60 2546.09
   13:59:35.800.25-Dec-2020 4920.01 5483.10 65.83 3.00  31.80 2546.09
   13:59:36.000.25-Dec-2020 4920.01 5495.11 65.83 3.00  32.00 2546.09
   13:59:36.200.25-Dec-2020 4920.01 5483.95 65.83 3.00  32.20 2546.09
   13:59:36.400.25-Dec-2020 4920.01 5487.92 65.83 3.00  32.40 2546.09
   13:59:36.600.25-Dec-2020 4920.01 5483.84 65.83 3.00  32.60 2546.09
   13:59:36.800.25-Dec-2020 4920.01 5486.48 65.83 3.00  32.80 2546.09
   13:59:37.000.25-Dec-2020 4920.01 5486.21 65.83 3.00  33.00 2546.09
   13:59:37.200.25-Dec-2020 4920.01 5486.21 65.83 3.00  33.20 2546.09
   13:59:37.400.25-Dec-2020 4920.01 5476.73 65.83 3.00  33.40 2546.09
   13:59:37.600.25-Dec-2020 4920.01 5461.73 65.83 3.00  33.60 2546.09
   13:59:37.800.25-Dec-2020 4920.01 5467.42 65.83 3.00  33.80 2546.09
   13:59:38.000.25-Dec-2020 4920.01 5475.11 65.83 3.00  34.00 2546.09
   13:59:38.200.25-Dec-2020 4920.01 5475.11 65.83 3.00  34.20 2546.09
   13:59:38.400.25-Dec-2020 4920.01 5493.39 65.83 3.00  34.40 2546.09
   13:59:38.600.25-Dec-2020 4920.01 5495.70 65.83 3.00  34.60 2546.09
   13:59:38.800.25-Dec-2020 4920.01 5506.29 65.83 3.00  34.80 2546.09
   13:59:39.000.25-Dec-2020 4920.01 5508.90 65.83 3.00  35.00 2546.09
   13:59:39.200.25-Dec-2020 4920.01 5513.74 65.83 3.00  35.20 2546.09
   13:59:39.400.25-Dec-2020 4920.01 5524.89 65.83 3.00  35.40 2546.09
   13:59:39.600.25-Dec-2020 4920.01 5528.10 65.83 3.00  35.60 2546.09
   13:59:39.800.25-Dec-2020 4920.01 5528.12 65.83 3.00  35.80 2546.09
   13:59:40.000.25-Dec-2020 4920.01 5534.31 65.83 3.00  36.00 2546.09
   13:59:40.200.25-Dec-2020 4920.01 5534.31 65.83 3.00  36.20 2546.09
   13:59:40.400.25-Dec-2020 4920.01 5554.93 65.83 3.00  36.40 2546.09
   13:59:40.600.25-Dec-2020 4920.01 5558.88 65.83 3.00  36.60 2546.09
   13:59:40.800.25-Dec-2020 4920.01 5564.89 65.83 3.00  36.80 2546.09
   13:59:41.000.25-Dec-2020 4920.01 5576.88 65.83 3.00  37.00 2546.09
   13:59:41.200.25-Dec-2020 4920.01 5576.88 65.83 3.00  37.20 2546.09
   13:59:41.400.25-Dec-2020 4920.01 5591.86 65.83 3.00  37.40 2546.09
   13:59:41.600.25-Dec-2020 4920.01 5595.38 65.83 3.00  37.60 2546.09
   13:59:41.800.25-Dec-2020 4920.01 5583.45 65.83 3.00  37.80 2546.09
   13:59:42.000.25-Dec-2020 4920.01 5540.10 65.83 3.00  38.00 2546.09
   13:59:42.200.25-Dec-2020 4920.01 5540.10 65.83 3.00  38.20 2546.09
   13:59:42.400.25-Dec-2020 4920.01 5410.44 65.83 3.00  38.40 2546.09
   13:59:42.600.25-Dec-2020 4920.01 5334.36 65.83 3.00  38.60 2546.09
   13:59:42.800.25-Dec-2020 4920.01 5261.15 65.83 3.00  38.80 2546.09
   13:59:43.000.25-Dec-2020 4920.01 5200.43 65.83 3.00  39.00 2546.09
   13:59:43.200.25-Dec-2020 4920.01 5200.43 65.83 3.00  39.20 2546.09
   13:59:43.400.25-Dec-2020 4920.01 5105.90 65.83 3.00  39.40 2546.09
   13:59:43.600.25-Dec-2020 4920.01 5068.24 65.83 3.00  39.60 2546.09
   13:59:43.800.25-Dec-2020 4920.01 5036.16 65.83 3.00  39.80 2546.09
   13:59:44.000.25-Dec-2020 4920.01 5010.34 65.83 3.00  40.00 2546.09
   13:59:44.200.25-Dec-2020 4920.01 5010.34 65.83 3.00  40.20 2546.09
   13:59:44.400.25-Dec-2020 4920.01 4970.75 65.83 3.00  40.40 2546.09
   13:59:44.600.25-Dec-2020 4920.01 4946.78 65.83 3.00  40.60 2546.09
   13:59:44.800.25-Dec-2020 4920.01 4924.63 65.83 3.00  40.80 2546.09
   13:59:45.000.25-Dec-2020 4920.01 4902.73 65.83 3.00  41.00 2546.09
   13:59:45.200.25-Dec-2020 4920.01 4902.73 65.83 3.00  41.20 2546.09
   13:59:45.400.25-Dec-2020 4920.01 4858.25 65.83 3.00  41.40 2546.09
   13:59:45.600.25-Dec-2020 4920.01 4672.19 65.82 3.00  41.60 2546.09
   13:59:45.800.25-Dec-2020 4920.01 3989.82 65.82 3.00  41.80 2546.09
   13:59:46.000.25-Dec-2020 4920.01 3417.86 65.82 3.00  42.00 2546.09
   13:59:46.200.25-Dec-2020 4920.01 3417.86 65.82 3.00  42.20 2546.09
   13:59:46.400.25-Dec-2020 4920.01 3120.30 65.82 3.00  42.40 2546.09
   13:59:46.600.25-Dec-2020 4920.01 3022.05 65.82 3.00  42.60 2546.09
   13:59:46.800.25-Dec-2020 4920.01 2621.56 65.82 3.00  42.80 2546.09
   13:59:47.000.25-Dec-2020 4920.01 2582.76 65.82 3.00  43.00 2546.09
   13:59:47.200.25-Dec-2020 4920.01 2539.98 65.82 3.00  43.20 2546.09
   13:59:47.400.25-Dec-2020 4920.01 2527.72 65.82 3.00  43.40 2546.09
   13:59:47.600.25-Dec-2020 4920.01 2526.62 65.82 3.00  43.60 2546.09
   13:59:47.800.25-Dec-2020 4920.01 2525.52 65.81 3.00  43.80 2546.09
   13:59:48.000.25-Dec-2020 4920.01 2527.25 65.81 3.00  44.00 2546.09
   13:59:48.200.25-Dec-2020 4920.01 2527.25 65.81 3.00  44.20 2546.09
   13:59:48.400.25-Dec-2020 4920.01 2535.57 65.81 3.00  44.40 2546.09
   13:59:48.600.25-Dec-2020 4920.01 2537.71 65.81 3.00  44.60 2546.09
   13:59:48.800.25-Dec-2020 4920.01 2537.87 65.80 3.00  44.80 2546.09
   13:59:49.000.25-Dec-2020 4920.01 2543.21 65.80 3.00  45.00 2546.09
   13:59:49.200.25-Dec-2020 4920.01 2543.21 65.80 3.00  45.20 2546.09
   13:59:49.400.25-Dec-2020 4920.01 2536.90 65.80 3.00  45.40 2546.09
   13:59:49.600.25-Dec-2020 4920.01 2536.20 65.80 3.00  45.60 2546.09
   13:59:49.800.25-Dec-2020 4920.01 2537.11 65.79 3.00  45.80 2546.09
