~Version Information
 VERS.                  2.0:   CWLS log ASCII Standard -VERSION 2.0
 WRAP.                   NO:   One line per depth step
~Well Information Block
#MNEM.UNIT     VALUE/NAME     DESCRIPTION
#---------     -----------    ---------------------------
 STRT.S             13:59:04 25-Dec-20: START TIME 13:59:04 25-Dec-20
 STOP.S             14:07:22 25-Dec-20: STOP TIME  14:07:22 25-Dec-20
 STEP.S                   0.00: STEP TIME
 NULL.                 -999.25: NULL VALUE
 DFWT.                        :  DIST FWL TEXT
 DFST.                        :  DIST FSL TEXT
 DMF .             Drill Floor:  DRILL MEAS FROM
 STIM.      04.54.24 22-Sep-20:  START TIME
 DATE.      04.54.24 21-Nov-20:  END TIME
 SPUD.               21-Nov-20:  SPUD DATE
 NREF.                    Grid:  NORTH REFERENCE
 HPTY.       Minimum Curvature:  HOLE POS TYPE
 DMOD.             Drill Model:  DRILL MOD DESC
 SVYD.                  Survey:  SURVEY DESC
 ILTD.               Lithology:  INTERP LTH DESC
 FTOP.          Formation Tops:  FORM TOPS DESC
 SON .        AZ-XX-0906571587:  JOB NUMBER
 COMP.     BP Exploration (Caspian Sea) Ltd:  COMPANY
 UWI .                     N/A:  UNIQUE WELL IDENTIFIER
 API .                     N/A:  API NUMBER
 BASE.              Azerbaijan:  LOGGING EQUIPMENT BASE LOCATION
 REGN.                   EESSA:  REGION
 PROV.                    Baku:  PROVINCE
 STAT.                    Baku:  STATE NAME
 CTRY.              Azerbaijan:  COUNTRY NAME
 FLD .                     ACG:  FIELD NAME
 SRVC.     TURAN Drilling & Engineering:  CONTRACTOR
 WELL.                     J27:  WELL NAME
 RIG .             West Chirag:  RIG NAME
 DOE .                     N/A:  DOE NUMBER
 DCON.         Sperry Drilling:  DIRECTNL CONTR
 PDAT.          Mean Sea Level:  PERMANENT DATUM
 WTYP.                Deviated:  WELL TYPE
 MWDS.                    Baku:  MWD SHOP
 JOBN.        AZ-XX-0906571587:  JOB TICKET NUMB
 UNIT.                     N/A:  LOGGING EQUIPMENT ID
 MDS .        Operator Entered:  MAG DATA SOURCE
 CNTY.                        :  COUNTY
 LOC .                        :  LOCATION
 LMF .             Drill Floor:  LOG MEASURED FROM
 TVDS.m                  43.00:  TVDSS CORRECTN
 LATI.deg                40.13:  LATITUDE
 LONG.deg                51.22:  LONGITUDE
 WHNS.m                   7.72:  WELL HEAD N/S
 WHEW.m                 -14.24:  WELL HEAD E/W
 UTMX.m              519005.06:  UTM X
 UTMY.m             4443793.85:  UTM Y
 DFWL.m                   0.00:  DISTANCE FWL
 DFSL.m                   0.00:  DISTANCE FSL
 SDEP.m                 347.00:  START DEPTH
 TDD .m                 581.00:  TOTAL DEPTH (DRILLER)
 VSDR.deg               159.72:  VERT SEC DIRECT
 GVFD.g                   1.00:  GRAVITY FIELD
 MFLD.nT              50318.00:  MAGNETIC FIELD
 MDIP.deg                59.57:  MAGNETIC DIP
 MDEC.deg                 6.44:  MAGNETIC DECL
 GRDC.deg                 0.15:  GRID CORRECTION
 AZTC.deg                 6.29:  AZM TOTAL CORR
 EPD .m                   0.00:  ELEVATION
 EGL .m                   0.00:  GROUND ELEVATION
 WDMS.m                 169.80:  WD ELEV
 APD .m                  43.00:  DEPTH ABOVE PD
 AGAP.m                  43.00:  AIR GAP
 VSEW.m                 -14.24:  VERT SEC E/W
 VSNS.m                   7.72:  VERT SEC N/S
 DEP .m                 342.45:  DEPTH
 EKB .m                   0.00:  KB ELEVATION
 EDF .m                  43.00:  DF ELEVATION
 TDL .m                 237.00:  TOTAL DEPTH (LOGGER)
 VSC .                       0:  VS TO CLOSURE
 MAGU.                 1851428:  MAGUTM CHECKSUM
~Parameter Information Block
#MNEM.UNIT       Value        Description
#---------     -----------    ---------------------------
 AV  .mps                 1.50:  Ann Velocity 
 AVMX.mps                 2.90:  Max Ann Veloc 
 AZIF.deg               115.59:  Azm, Final 
 BHAT.        Rotary Steerable:  BHA Type 
 BROT.°/30m               0.50:  Build Rotating 
 BS  .in                  8.50:  Bit Size 
 BTPL.psig              580.00:  Bit Press Loss 
 CABU.                     Yes:  Customer Abuse 
 COMM.                     ì©q:  Run Comments 1 
 TCS .hr                 89.79:  Time Ciculation Ended 
 CV  .mps                 3.22:  Crit Velocity 
 CVMX.mps                 4.37:  Max Crit Veloc 
 DD1 .          Rashad Habibov:  Direct Drillr 1 
 DDSV.               Geo-Pilot:  DD Service 
 DEFF.%                  95.00:  % Det Eff 
 DLRX.°/30m               1.94:  Dogleg Rot Max 
 DLSO.°/30m               0.70:  Dogleg Oriented 
 DLSX.°/30m               1.94:  Dogleg Str Max 
 DRET.      04.45.00 25-Dec-20:  Drill End Time 
 DRST.      10.00.00 24-Dec-20:  Drill Start Tim 
 DTIM.hr                 16.64:  Time Drilling 
 EDEP.m                4999.01:  End Depth 
 ENG1.         Elchin Mammadov:  Engineer 1 
 ENG2.          Ruslan Safarov:  Engineer 2 
 ENG3.          Rustam Safarov:  Engineer 3 
 ETIM.      09.00.00 29-Dec-20:  End Time 
 FLOI.gpm               500.00:  Flow In 
 FLON.gpm               400.00:  Flow In Min 
 FLOS.cptm                0.00:  Fluid Loss 
 FLOX.gpm               500.00:  Flow In Max 
 HFLO.                      No:  High Flow 
 HPRE.                      No:  High Pressure 
 HTEM.                      No:  High Temp 
 HYDO.m                   2.00:  Hydro Offset 
 IFIN.deg                66.79:  Inc, Final 
 IMAX.deg                67.66:  Inc Max 
 IMIN.deg                66.39:  Inc Min 
 IMND.m                4949.37:  Inc Min Depth 
 IMXD.m                4778.63:  Inc Max Depth 
 JARR.                     Yes:  Jarring 
 LETM.      04.45.00 25-Dec-20:  Log End Time 
 LOST.hr                     0:  Lost Rig Time 
 LSTM.      10.00.00 24-Dec-20:  Log Start Time 
 MDCL.ppm             39000.00:  Mud Chlorides 
 MDES.     Inversion Oil/Synthetic:  Mud Desc 
 DFD .sg                  1.33:  Mud Density 
 MDMN.sg                  1.33:  Dens Mud Min 
 MDMX.sg                  1.33:  Dens Mud Max 
 MOIL.                      70:  Run Mud Oil % 
 MOWR.                   70:30:  Run Mud OWR 
 MSND.                       0:  Run Mud Sand % 
 MSOL.                    17.4:  Run Mud Solids% 
 DFV .spqt               84.00:  Mud Viscosity 
 MWOD.in                  6.75:  MWD Tool OD 
 MWSI.                     Yes:  Serv Intrp, MWD 
 OTIM.hr                168.14:  Time Operating 
 PCON.           Look Like New:  Pad Condition 
 PMAX.psia            10822.93:  Press Op, Max 
 PV  .cP                 30.00:  Mud PV 
 RUN .                     900:  Run Number 
 ROPA.m/hr               18.00:  ROP Avg 
 ROPN.m/hr               12.00:  ROP Min 
 ROPX.m/hr               25.00:  ROP Max 
 RPMA.rpm               120.00:  RPM Surface Avg 
 RPMN.rpm               100.00:  RPM Surface Min 
 RPMX.rpm               120.00:  RPM Surface Max 
 RRUN.                    0900:  Rig Run Number 
 SAZI.deg               115.08:  Azm, Start 
 SDEP.m                4762.01:  Start Depth 
 SIDD.                      No:  Serv Intrp, DD 
 SINC.deg                66.14:  Inc, Start 
 SPPA.psig             3700.00:  SPP Avg 
 SPPN.psig             3620.00:  SPP Min 
 SPPX.psig             3900.00:  SPP Max 
 STIM.      09.30.00 22-Dec-20:  Start Time 
 SVCS.                 DD, MWD:  Services 
 SVER.                    9.20:  Sperry Version 
 TDAT.m                 237.00:  Tot Depth Attmp 
 TDDF.                      No:  Trip for DD 
 TDLG.m                 237.00:  Tot Depth Loggd 
 TFF .                      No:  Trip for Fail 
 TQAA.f-kp               18.00:  Torque Abs Avg 
 TQAN.f-kp               17.00:  Torque Abs Min 
 TQAX.f-kp               20.00:  Torque Abs Max 
 TRRT.°/30m               0.60:  Turn Rotating 
 MRT .                    HCIM:  Maximum Recorded Temperature 
 TTMX.degC               94.12:  Max Tool Temp 
 VS01.                90627809:  Virtual Str1 SN 
 VS02.                90527813:  Virtual Str2 SN 
 VS03.                90545417:  Virtual Str3 SN 
 VS04.                12460870:  Virtual Str4 SN 
 VS05.                90516706:  Virtual Str5 SN 
 VS06.                90632007:  Virtual Str6 SN 
 WBMN.klb                 0.00:  WOB Min 
 WOBA.klb                14.00:  WOB Avg 
 WOBX.klb                25.00:  WOB Max 
 YP  .lhf2               32.00:  Yield Point 
~Curve Information Block
#MNEM.UNIT                 API CODE     Curve Description
#---------               -----------    ---------------------------
 TIME.HHMMSS            00 000 000 000:  GT Time & Date
 GTDEPTH.m              00 000 000 000:  GT Depth
 GTPQH.psia             00 000 000 000:  GT HR Quartz Pressure
 GTTQ.degC              00 000 000 000:  GT Quartz Temperature
 GTTN.NONE              00 000 000 000:  GT Test Number
 GTET.sec               00 000 000 000:  GT Elapsed Test Time
 GTTVD.m                00 000 000 000:  GT True Vertical Depth
#Other Information
#
#WARRANTY: Halliburton will use its best efforts to furnish customers with 
#accurate information and interpretations that are part of, and incident to, the services 
#provided.  However, Halliburton cannot and does not warrant the accuracy 
#or correctness of such information and interpretations.  Under no circumstances should any 
#such information or interpretation be relied upon as the sole basis for any drilling, 
#completion, production, or financial decision or any procedure involving any risk to the 
#safety of any drilling venture, drilling rig or its crew or any other third party.  The 
#Customer has full responsibility for all drilling, completion and production operation.  
#Halliburton makes no representations or warranties, either expressed or 
#implied, including, but not limited to, the implied warranties of merchantability or fitness 
#for a particular purpose, with respect to the services rendered.  In no event will 
#Halliburton be liable for failure to obtain any particular results or for 
#any damages, including, but not limited to, indirect, special or consequential damages, 
#resulting from the use of any information or interpretation provided by Halliburton.
#
~A           TIME           GTDEPTH  GTPQH  GTTQ  GTTN  GTET   GTTVD  
# ...
   14:06:44.000.25-Dec-2020 4920.01 5518.62 65.70 3.00 460.00 2546.09
   14:06:44.200.25-Dec-2020 4920.01 5516.79 65.70 3.00 460.20 2546.09
   14:06:44.400.25-Dec-2020 4920.01 5517.08 65.70 3.00 460.40 2546.09
   14:06:44.600.25-Dec-2020 4920.01 5517.75 65.70 3.00 460.60 2546.09
   14:06:44.800.25-Dec-2020 4920.01 5516.72 65.70 3.00 460.80 2546.09
   14:06:45.000.25-Dec-2020 4920.01 5516.75 65.71 3.00 461.00 2546.09
   14:06:45.200.25-Dec-2020 4920.01 5516.75 65.71 3.00 461.20 2546.09
   14:06:45.400.25-Dec-2020 4920.01 5519.47 65.71 3.00 461.40 2546.09
   14:06:45.600.25-Dec-2020 4920.01 5518.96 65.71 3.00 461.60 2546.09
   14:06:45.800.25-Dec-2020 4920.01 5521.54 65.71 3.00 461.80 2546.09
   14:06:46.000.25-Dec-2020 4920.01 5518.97 65.71 3.00 462.00 2546.09
   14:06:46.200.25-Dec-2020 4920.01 5518.97 65.71 3.00 462.20 2546.09
   14:06:46.400.25-Dec-2020 4920.01 5519.81 65.71 3.00 462.40 2546.09
   14:06:46.600.25-Dec-2020 4920.01 5519.74 65.72 3.00 462.60 2546.09
   14:06:46.800.25-Dec-2020 4920.01 5518.40 65.72 3.00 462.80 2546.09
   14:06:47.000.25-Dec-2020 4920.01 5519.73 65.72 3.00 463.00 2546.09
   14:06:47.200.25-Dec-2020 4920.01 5519.73 65.72 3.00 463.20 2546.09
   14:06:47.400.25-Dec-2020 4920.01 5519.94 65.72 3.00 463.40 2546.09
   14:06:47.600.25-Dec-2020 4920.01 5520.16 65.72 3.00 463.60 2546.09
   14:06:47.800.25-Dec-2020 4920.01 5529.69 65.72 3.00 463.80 2546.09
   14:06:48.000.25-Dec-2020 4920.01 5520.43 65.72 3.00 464.00 2546.09
   14:06:48.200.25-Dec-2020 4920.01 5520.43 65.72 3.00 464.20 2546.09
   14:06:48.400.25-Dec-2020 4920.01 5519.73 65.72 3.00 464.40 2546.09
   14:06:48.600.25-Dec-2020 4920.01 5521.63 65.72 3.00 464.60 2546.09
   14:06:48.800.25-Dec-2020 4920.01 5526.22 65.72 3.00 464.80 2546.09
   14:06:49.000.25-Dec-2020 4920.01 5522.46 65.72 3.00 465.00 2546.09
   14:06:49.200.25-Dec-2020 4920.01 5522.46 65.72 3.00 465.20 2546.09
   14:06:49.400.25-Dec-2020 4920.01 5532.41 65.72 3.00 465.40 2546.09
   14:06:49.600.25-Dec-2020 4920.01 5522.70 65.72 3.00 465.60 2546.09
   14:06:49.800.25-Dec-2020 4920.01 5522.22 65.73 3.00 465.80 2546.09
   14:06:50.000.25-Dec-2020 4920.01 5529.90 65.73 3.00 466.00 2546.09
   14:06:50.200.25-Dec-2020 4920.01 5529.90 65.73 3.00 466.20 2546.09
   14:06:50.400.25-Dec-2020 4920.01 5521.63 65.73 3.00 466.40 2546.09
   14:06:50.600.25-Dec-2020 4920.01 5520.28 65.73 3.00 466.60 2546.09
   14:06:50.800.25-Dec-2020 4920.01 5518.96 65.73 3.00 466.80 2546.09
   14:06:51.000.25-Dec-2020 4920.01 5518.06 65.73 3.00 467.00 2546.09
   14:06:51.200.25-Dec-2020 4920.01 5518.06 65.73 3.00 467.20 2546.09
   14:06:51.400.25-Dec-2020 4920.01 5517.06 65.73 3.00 467.40 2546.09
   14:06:51.600.25-Dec-2020 4920.01 5517.27 65.73 3.00 467.60 2546.09
   14:06:51.800.25-Dec-2020 4920.01 5517.90 65.73 3.00 467.80 2546.09
   14:06:52.000.25-Dec-2020 4920.01 5517.42 65.73 3.00 468.00 2546.09
   14:06:52.200.25-Dec-2020 4920.01 5517.13 65.73 3.00 468.20 2546.09
   14:06:52.400.25-Dec-2020 4920.01 5528.45 65.73 3.00 468.40 2546.09
   14:06:52.600.25-Dec-2020 4920.01 5518.16 65.73 3.00 468.60 2546.09
   14:06:52.800.25-Dec-2020 4920.01 5520.64 65.73 3.00 468.80 2546.09
   14:06:53.000.25-Dec-2020 4920.01 5517.46 65.73 3.00 469.00 2546.09
   14:06:53.200.25-Dec-2020 4920.01 5517.46 65.73 3.00 469.20 2546.09
   14:06:53.400.25-Dec-2020 4920.01 5519.26 65.73 3.00 469.40 2546.09
   14:06:53.600.25-Dec-2020 4920.01 5519.10 65.73 3.00 469.60 2546.09
   14:06:53.800.25-Dec-2020 4920.01 5519.38 65.73 3.00 469.80 2546.09
   14:06:54.000.25-Dec-2020 4920.01 5519.07 65.73 3.00 470.00 2546.09
   14:06:54.200.25-Dec-2020 4920.01 5519.07 65.73 3.00 470.20 2546.09
   14:06:54.400.25-Dec-2020 4920.01 5520.24 65.73 3.00 470.40 2546.09
   14:06:54.600.25-Dec-2020 4920.01 5520.42 65.73 3.00 470.60 2546.09
   14:06:54.800.25-Dec-2020 4920.01 5519.76 65.73 3.00 470.80 2546.09
   14:06:55.000.25-Dec-2020 4920.01 5519.50 65.73 3.00 471.00 2546.09
   14:06:55.200.25-Dec-2020 4920.01 5519.50 65.73 3.00 471.20 2546.09
   14:06:55.400.25-Dec-2020 4920.01 5521.31 65.73 3.00 471.40 2546.09
   14:06:55.600.25-Dec-2020 4920.01 5521.04 65.73 3.00 471.60 2546.09
   14:06:55.800.25-Dec-2020 4920.01 5523.32 65.73 3.00 471.80 2546.09
   14:06:56.000.25-Dec-2020 4920.01 5531.56 65.73 3.00 472.00 2546.09
   14:06:56.200.25-Dec-2020 4920.01 5521.66 65.72 3.00 472.20 2546.09
   14:06:56.400.25-Dec-2020 4920.01 5522.48 65.72 3.00 472.40 2546.09
   14:06:56.600.25-Dec-2020 4920.01 5521.86 65.72 3.00 472.60 2546.09
   14:06:56.800.25-Dec-2020 4920.01 5524.26 65.72 3.00 472.80 2546.09
   14:06:57.000.25-Dec-2020 4920.01 5522.26 65.72 3.00 473.00 2546.09
   14:06:57.200.25-Dec-2020 4920.01 5522.26 65.72 3.00 473.20 2546.09
   14:06:57.400.25-Dec-2020 4920.01 5521.17 65.72 3.00 473.40 2546.09
   14:06:57.600.25-Dec-2020 4920.01 5522.13 65.72 3.00 473.60 2546.09
   14:06:57.800.25-Dec-2020 4920.01 5522.95 65.72 3.00 473.80 2546.09
   14:06:58.000.25-Dec-2020 4920.01 5519.81 65.72 3.00 474.00 2546.09
   14:06:58.200.25-Dec-2020 4920.01 5519.81 65.72 3.00 474.20 2546.09
   14:06:58.400.25-Dec-2020 4920.01 5520.82 65.72 3.00 474.40 2546.09
   14:06:58.600.25-Dec-2020 4920.01 5516.79 65.72 3.00 474.60 2546.09
   14:06:58.800.25-Dec-2020 4920.01 5516.96 65.72 3.00 474.80 2546.09
   14:06:59.000.25-Dec-2020 4920.01 5516.96 65.72 3.00 475.00 2546.09
   14:06:59.200.25-Dec-2020 4920.01 5516.96 65.72 3.00 475.20 2546.09
   14:06:59.400.25-Dec-2020 4920.01 5515.66 65.72 3.00 475.40 2546.09
   14:06:59.600.25-Dec-2020 4920.01 5516.05 65.72 3.00 475.60 2546.09
   14:06:59.800.25-Dec-2020 4920.01 5516.21 65.72 3.00 475.80 2546.09
   14:07:00.000.25-Dec-2020 4920.01 5515.68 65.72 3.00 476.00 2546.09
   14:07:00.200.25-Dec-2020 4920.01 5515.68 65.72 3.00 476.20 2546.09
   14:07:00.400.25-Dec-2020 4920.01 5519.44 65.72 3.00 476.40 2546.09
   14:07:00.600.25-Dec-2020 4920.01 5519.63 65.72 3.00 476.60 2546.09
   14:07:00.800.25-Dec-2020 4920.01 5522.42 65.72 3.00 476.80 2546.09
   14:07:01.000.25-Dec-2020 4920.01 5518.41 65.72 3.00 477.00 2546.09
   14:07:01.200.25-Dec-2020 4920.01 5518.41 65.72 3.00 477.20 2546.09
   14:07:01.400.25-Dec-2020 4920.01 5519.13 65.72 3.00 477.40 2546.09
   14:07:01.600.25-Dec-2020 4920.01 5519.81 65.72 3.00 477.60 2546.09
   14:07:01.800.25-Dec-2020 4920.01 5518.87 65.72 3.00 477.80 2546.09
   14:07:02.000.25-Dec-2020 4920.01 5518.61 65.72 3.00 478.00 2546.09
   14:07:02.200.25-Dec-2020 4920.01 5518.61 65.72 3.00 478.20 2546.09
   14:07:02.400.25-Dec-2020 4920.01 5517.94 65.72 3.00 478.40 2546.09
   14:07:02.600.25-Dec-2020 4920.01 5518.18 65.72 3.00 478.60 2546.09
   14:07:02.800.25-Dec-2020 4920.01 5528.77 65.72 3.00 478.80 2546.09
   14:07:03.000.25-Dec-2020 4920.01 5519.32 65.72 3.00 479.00 2546.09
   14:07:03.200.25-Dec-2020 4920.01 5519.32 65.72 3.00 479.20 2546.09
   14:07:03.400.25-Dec-2020 4920.01 5519.03 65.72 3.00 479.40 2546.09
   14:07:03.600.25-Dec-2020 4920.01 5520.74 65.72 3.00 479.60 2546.09
   14:07:03.800.25-Dec-2020 4920.01 5527.72 65.71 3.00 479.80 2546.09
   14:07:04.000.25-Dec-2020 4920.01 5519.43 65.71 3.00 480.00 2546.09
   14:07:04.200.25-Dec-2020 4920.01 5522.15 65.71 3.00 480.20 2546.09
   14:07:04.400.25-Dec-2020 4920.01 5531.51 65.71 3.00 480.40 2546.09
   14:07:04.600.25-Dec-2020 4920.01 5520.97 65.71 3.00 480.60 2546.09
   14:07:04.800.25-Dec-2020 4920.01 5520.03 65.71 3.00 480.80 2546.09
   14:07:05.000.25-Dec-2020 4920.01 5528.18 65.71 3.00 481.00 2546.09
   14:07:05.200.25-Dec-2020 4920.01 5528.18 65.71 3.00 481.20 2546.09
   14:07:05.400.25-Dec-2020 4920.01 5519.11 65.71 3.00 481.40 2546.09
   14:07:05.600.25-Dec-2020 4920.01 5519.35 65.71 3.00 481.60 2546.09
   14:07:05.800.25-Dec-2020 4920.01 5519.76 65.71 3.00 481.80 2546.09
   14:07:06.000.25-Dec-2020 4920.01 5517.70 65.71 3.00 482.00 2546.09
   14:07:06.200.25-Dec-2020 4920.01 5517.70 65.71 3.00 482.20 2546.09
   14:07:06.400.25-Dec-2020 4920.01 5516.34 65.71 3.00 482.40 2546.09
   14:07:06.600.25-Dec-2020 4920.01 5516.25 65.71 3.00 482.60 2546.09
   14:07:06.800.25-Dec-2020 4920.01 5517.51 65.71 3.00 482.80 2546.09
