~Version Information
 VERS.                  2.0:   CWLS log ASCII Standard -VERSION 2.0
 WRAP.                   NO:   One line per depth step
~Well Information Block
#MNEM.UNIT     VALUE/NAME     DESCRIPTION
#---------     -----------    ---------------------------
 STRT.S             15:24:16 25-Dec-20: START TIME 15:24:16 25-Dec-20
 STOP.S             15:32:36 25-Dec-20: STOP TIME  15:32:36 25-Dec-20
 STEP.S                   0.00: STEP TIME
 NULL.                 -999.25: NULL VALUE
 DFWT.                        :  DIST FWL TEXT
 DFST.                        :  DIST FSL TEXT
 DMF .             Drill Floor:  DRILL MEAS FROM
 STIM.      04.54.24 22-Sep-20:  START TIME
 DATE.      04.54.24 21-Nov-20:  END TIME
 SPUD.               21-Nov-20:  SPUD DATE
 NREF.                    Grid:  NORTH REFERENCE
 HPTY.       Minimum Curvature:  HOLE POS TYPE
 DMOD.             Drill Model:  DRILL MOD DESC
 SVYD.                  Survey:  SURVEY DESC
 ILTD.               Lithology:  INTERP LTH DESC
 FTOP.          Formation Tops:  FORM TOPS DESC
 SON .        AZ-XX-0906571587:  JOB NUMBER
 COMP.     BP Exploration (Caspian Sea) Ltd:  COMPANY
 UWI .                     N/A:  UNIQUE WELL IDENTIFIER
 API .                     N/A:  API NUMBER
 BASE.              Azerbaijan:  LOGGING EQUIPMENT BASE LOCATION
 REGN.                   EESSA:  REGION
 PROV.                    Baku:  PROVINCE
 STAT.                    Baku:  STATE NAME
 CTRY.              Azerbaijan:  COUNTRY NAME
 FLD .                     ACG:  FIELD NAME
 SRVC.     TURAN Drilling & Engineering:  CONTRACTOR
 WELL.                     J27:  WELL NAME
 RIG .             West Chirag:  RIG NAME
 DOE .                     N/A:  DOE NUMBER
 DCON.         Sperry Drilling:  DIRECTNL CONTR
 PDAT.          Mean Sea Level:  PERMANENT DATUM
 WTYP.                Deviated:  WELL TYPE
 MWDS.                    Baku:  MWD SHOP
 JOBN.        AZ-XX-0906571587:  JOB TICKET NUMB
 UNIT.                     N/A:  LOGGING EQUIPMENT ID
 MDS .        Operator Entered:  MAG DATA SOURCE
 CNTY.                        :  COUNTY
 LOC .                        :  LOCATION
 LMF .             Drill Floor:  LOG MEASURED FROM
 TVDS.m                  43.00:  TVDSS CORRECTN
 LATI.deg                40.13:  LATITUDE
 LONG.deg                51.22:  LONGITUDE
 WHNS.m                   7.72:  WELL HEAD N/S
 WHEW.m                 -14.24:  WELL HEAD E/W
 UTMX.m              519005.06:  UTM X
 UTMY.m             4443793.85:  UTM Y
 DFWL.m                   0.00:  DISTANCE FWL
 DFSL.m                   0.00:  DISTANCE FSL
 SDEP.m                 347.00:  START DEPTH
 TDD .m                 581.00:  TOTAL DEPTH (DRILLER)
 VSDR.deg               159.72:  VERT SEC DIRECT
 GVFD.g                   1.00:  GRAVITY FIELD
 MFLD.nT              50318.00:  MAGNETIC FIELD
 MDIP.deg                59.57:  MAGNETIC DIP
 MDEC.deg                 6.44:  MAGNETIC DECL
 GRDC.deg                 0.15:  GRID CORRECTION
 AZTC.deg                 6.29:  AZM TOTAL CORR
 EPD .m                   0.00:  ELEVATION
 EGL .m                   0.00:  GROUND ELEVATION
 WDMS.m                 169.80:  WD ELEV
 APD .m                  43.00:  DEPTH ABOVE PD
 AGAP.m                  43.00:  AIR GAP
 VSEW.m                 -14.24:  VERT SEC E/W
 VSNS.m                   7.72:  VERT SEC N/S
 DEP .m                 342.45:  DEPTH
 EKB .m                   0.00:  KB ELEVATION
 EDF .m                  43.00:  DF ELEVATION
 TDL .m                 237.00:  TOTAL DEPTH (LOGGER)
 VSC .                       0:  VS TO CLOSURE
 MAGU.                 1851428:  MAGUTM CHECKSUM
~Parameter Information Block
#MNEM.UNIT       Value        Description
#---------     -----------    ---------------------------
 AV  .mps                 1.50:  Ann Velocity 
 AVMX.mps                 2.90:  Max Ann Veloc 
 AZIF.deg               115.59:  Azm, Final 
 BHAT.        Rotary Steerable:  BHA Type 
 BROT.°/30m               0.50:  Build Rotating 
 BS  .in                  8.50:  Bit Size 
 BTPL.psig              580.00:  Bit Press Loss 
 CABU.                     Yes:  Customer Abuse 
 TCS .hr                 89.79:  Time Ciculation Ended 
 CV  .mps                 3.22:  Crit Velocity 
 CVMX.mps                 4.37:  Max Crit Veloc 
 DD1 .          Rashad Habibov:  Direct Drillr 1 
 DDSV.               Geo-Pilot:  DD Service 
 DEFF.%                  95.00:  % Det Eff 
 DLRX.°/30m               1.94:  Dogleg Rot Max 
 DLSO.°/30m               0.70:  Dogleg Oriented 
 DLSX.°/30m               1.94:  Dogleg Str Max 
 DRET.      04.45.00 25-Dec-20:  Drill End Time 
 DRST.      10.00.00 24-Dec-20:  Drill Start Tim 
 DTIM.hr                 16.64:  Time Drilling 
 EDEP.m                4999.01:  End Depth 
 ENG1.         Elchin Mammadov:  Engineer 1 
 ENG2.          Ruslan Safarov:  Engineer 2 
 ENG3.          Rustam Safarov:  Engineer 3 
 ETIM.      09.00.00 29-Dec-20:  End Time 
 FLOI.gpm               500.00:  Flow In 
 FLON.gpm               400.00:  Flow In Min 
 FLOS.cptm                0.00:  Fluid Loss 
 FLOX.gpm               500.00:  Flow In Max 
 HFLO.                      No:  High Flow 
 HPRE.                      No:  High Pressure 
 HTEM.                      No:  High Temp 
 HYDO.m                   2.00:  Hydro Offset 
 IFIN.deg                66.79:  Inc, Final 
 IMAX.deg                67.66:  Inc Max 
 IMIN.deg                66.39:  Inc Min 
 IMND.m                4949.37:  Inc Min Depth 
 IMXD.m                4778.63:  Inc Max Depth 
 JARR.                     Yes:  Jarring 
 LETM.      04.45.00 25-Dec-20:  Log End Time 
 LOST.hr                     0:  Lost Rig Time 
 LSTM.      10.00.00 24-Dec-20:  Log Start Time 
 MDCL.ppm             39000.00:  Mud Chlorides 
 MDES.     Inversion Oil/Synthetic:  Mud Desc 
 DFD .sg                  1.33:  Mud Density 
 MDMN.sg                  1.33:  Dens Mud Min 
 MDMX.sg                  1.33:  Dens Mud Max 
 MOIL.                      70:  Run Mud Oil % 
 MOWR.                   70:30:  Run Mud OWR 
 MSND.                       0:  Run Mud Sand % 
 MSOL.                    17.4:  Run Mud Solids% 
 DFV .spqt               84.00:  Mud Viscosity 
 MWOD.in                  6.75:  MWD Tool OD 
 MWSI.                     Yes:  Serv Intrp, MWD 
 OTIM.hr                168.14:  Time Operating 
 PCON.           Look Like New:  Pad Condition 
 PMAX.psia            10822.93:  Press Op, Max 
 PV  .cP                 30.00:  Mud PV 
 RUN .                     900:  Run Number 
 ROPA.m/hr               18.00:  ROP Avg 
 ROPN.m/hr               12.00:  ROP Min 
 ROPX.m/hr               25.00:  ROP Max 
 RPMA.rpm               120.00:  RPM Surface Avg 
 RPMN.rpm               100.00:  RPM Surface Min 
 RPMX.rpm               120.00:  RPM Surface Max 
 RRUN.                    0900:  Rig Run Number 
 SAZI.deg               115.08:  Azm, Start 
 SDEP.m                4762.01:  Start Depth 
 SIDD.                      No:  Serv Intrp, DD 
 SINC.deg                66.14:  Inc, Start 
 SPPA.psig             3700.00:  SPP Avg 
 SPPN.psig             3620.00:  SPP Min 
 SPPX.psig             3900.00:  SPP Max 
 STIM.      09.30.00 22-Dec-20:  Start Time 
 SVCS.                 DD, MWD:  Services 
 SVER.                    9.20:  Sperry Version 
 TDAT.m                 237.00:  Tot Depth Attmp 
 TDDF.                      No:  Trip for DD 
 TDLG.m                 237.00:  Tot Depth Loggd 
 TFF .                      No:  Trip for Fail 
 TQAA.f-kp               18.00:  Torque Abs Avg 
 TQAN.f-kp               17.00:  Torque Abs Min 
 TQAX.f-kp               20.00:  Torque Abs Max 
 TRRT.°/30m               0.60:  Turn Rotating 
 MRT .                    HCIM:  Maximum Recorded Temperature 
 TTMX.degC               94.12:  Max Tool Temp 
 VS01.                90627809:  Virtual Str1 SN 
 VS02.                90527813:  Virtual Str2 SN 
 VS03.                90545417:  Virtual Str3 SN 
 VS04.                12460870:  Virtual Str4 SN 
 VS05.                90516706:  Virtual Str5 SN 
 VS06.                90632007:  Virtual Str6 SN 
 WBMN.klb                 0.00:  WOB Min 
 WOBA.klb                14.00:  WOB Avg 
 WOBX.klb                25.00:  WOB Max 
 YP  .lhf2               32.00:  Yield Point 
~Curve Information Block
#MNEM.UNIT                 API CODE     Curve Description
#---------               -----------    ---------------------------
 TIME.HHMMSS            00 000 000 000:  GT Time & Date
 GTDEPTH.m              00 000 000 000:  GT Depth
 GTPQH.psia             00 000 000 000:  GT HR Quartz Pressure
 GTTQ.degC              00 000 000 000:  GT Quartz Temperature
 GTTN.NONE              00 000 000 000:  GT Test Number
 GTET.sec               00 000 000 000:  GT Elapsed Test Time
 GTTVD.m                00 000 000 000:  GT True Vertical Depth
#Other Information
#
#WARRANTY: Halliburton will use its best efforts to furnish customers with 
#accurate information and interpretations that are part of, and incident to, the services 
#provided.  However, Halliburton cannot and does not warrant the accuracy 
#or correctness of such information and interpretations.  Under no circumstances should any 
#such information or interpretation be relied upon as the sole basis for any drilling, 
#completion, production, or financial decision or any procedure involving any risk to the 
#safety of any drilling venture, drilling rig or its crew or any other third party.  The 
#Customer has full responsibility for all drilling, completion and production operation.  
#Halliburton makes no representations or warranties, either expressed or 
#implied, including, but not limited to, the implied warranties of merchantability or fitness 
#for a particular purpose, with respect to the services rendered.  In no event will 
#Halliburton be liable for failure to obtain any particular results or for 
#any damages, including, but not limited to, indirect, special or consequential damages, 
#resulting from the use of any information or interpretation provided by Halliburton.
#
~A           TIME           GTDEPTH  GTPQH  GTTQ  GTTN  GTET   GTTVD  
# ...
   15:31:56.876.25-Dec-2020 4892.01 5496.65 65.33 4.00 460.12 2535.10
   15:31:57.076.25-Dec-2020 4892.01 5496.65 65.33 4.00 460.32 2535.10
   15:31:57.276.25-Dec-2020 4892.01 5496.13 65.33 4.00 460.52 2535.10
   15:31:57.476.25-Dec-2020 4892.01 5496.48 65.33 4.00 460.72 2535.10
   15:31:57.676.25-Dec-2020 4892.01 5496.02 65.33 4.00 460.92 2535.10
   15:31:57.876.25-Dec-2020 4892.01 5495.61 65.34 4.00 461.12 2535.10
   15:31:58.076.25-Dec-2020 4892.01 5495.61 65.34 4.00 461.32 2535.10
   15:31:58.276.25-Dec-2020 4892.01 5502.33 65.34 4.00 461.52 2535.10
   15:31:58.476.25-Dec-2020 4892.01 5494.79 65.34 4.00 461.72 2535.10
   15:31:58.676.25-Dec-2020 4892.01 5501.38 65.34 4.00 461.92 2535.10
   15:31:58.876.25-Dec-2020 4892.01 5496.50 65.34 4.00 462.12 2535.10
   15:31:59.076.25-Dec-2020 4892.01 5496.50 65.34 4.00 462.32 2535.10
   15:31:59.276.25-Dec-2020 4892.01 5504.04 65.35 4.00 462.52 2535.10
   15:31:59.476.25-Dec-2020 4892.01 5497.32 65.35 4.00 462.72 2535.10
   15:31:59.676.25-Dec-2020 4892.01 5497.30 65.35 4.00 462.92 2535.10
   15:31:59.877.25-Dec-2020 4892.01 5505.46 65.35 4.00 463.12 2535.10
   15:32:00.077.25-Dec-2020 4892.01 5505.46 65.35 4.00 463.33 2535.10
   15:32:00.277.25-Dec-2020 4892.01 5503.51 65.35 4.00 463.53 2535.10
   15:32:00.477.25-Dec-2020 4892.01 5493.83 65.35 4.00 463.73 2535.10
   15:32:00.677.25-Dec-2020 4892.01 5500.63 65.36 4.00 463.93 2535.10
   15:32:00.877.25-Dec-2020 4892.01 5502.45 65.36 4.00 464.13 2535.10
   15:32:01.077.25-Dec-2020 4892.01 5502.45 65.36 4.00 464.33 2535.10
   15:32:01.277.25-Dec-2020 4892.01 5497.26 65.36 4.00 464.53 2535.10
   15:32:01.477.25-Dec-2020 4892.01 5500.13 65.36 4.00 464.73 2535.10
   15:32:01.677.25-Dec-2020 4892.01 5495.10 65.36 4.00 464.93 2535.10
   15:32:01.877.25-Dec-2020 4892.01 5495.97 65.36 4.00 465.13 2535.10
   15:32:02.077.25-Dec-2020 4892.01 5495.97 65.36 4.00 465.33 2535.10
   15:32:02.277.25-Dec-2020 4892.01 5495.14 65.36 4.00 465.53 2535.10
   15:32:02.477.25-Dec-2020 4892.01 5495.61 65.36 4.00 465.73 2535.10
   15:32:02.677.25-Dec-2020 4892.01 5495.31 65.36 4.00 465.93 2535.10
   15:32:02.877.25-Dec-2020 4892.01 5495.16 65.36 4.00 466.13 2535.10
   15:32:03.077.25-Dec-2020 4892.01 5495.16 65.36 4.00 466.33 2535.10
   15:32:03.277.25-Dec-2020 4892.01 5502.68 65.37 4.00 466.53 2535.10
   15:32:03.478.25-Dec-2020 4892.01 5495.50 65.37 4.00 466.73 2535.10
   15:32:03.678.25-Dec-2020 4892.01 5502.42 65.37 4.00 466.93 2535.10
   15:32:03.878.25-Dec-2020 4892.01 5497.80 65.37 4.00 467.13 2535.10
   15:32:04.078.25-Dec-2020 4892.01 5496.88 65.37 4.00 467.33 2535.10
   15:32:04.278.25-Dec-2020 4892.01 5500.03 65.37 4.00 467.53 2535.10
   15:32:04.478.25-Dec-2020 4892.01 5495.83 65.37 4.00 467.73 2535.10
   15:32:04.678.25-Dec-2020 4892.01 5497.23 65.37 4.00 467.93 2535.10
   15:32:04.878.25-Dec-2020 4892.01 5497.79 65.37 4.00 468.13 2535.10
   15:32:05.078.25-Dec-2020 4892.01 5497.79 65.37 4.00 468.33 2535.10
   15:32:05.278.25-Dec-2020 4892.01 5497.12 65.37 4.00 468.53 2535.10
   15:32:05.478.25-Dec-2020 4892.01 5496.20 65.37 4.00 468.73 2535.10
   15:32:05.678.25-Dec-2020 4892.01 5496.06 65.37 4.00 468.93 2535.10
   15:32:05.878.25-Dec-2020 4892.01 5499.19 65.37 4.00 469.13 2535.10
   15:32:06.078.25-Dec-2020 4892.01 5499.19 65.37 4.00 469.33 2535.10
   15:32:06.278.25-Dec-2020 4892.01 5502.69 65.37 4.00 469.53 2535.10
   15:32:06.478.25-Dec-2020 4892.01 5494.37 65.37 4.00 469.73 2535.10
   15:32:06.678.25-Dec-2020 4892.01 5511.87 65.37 4.00 469.93 2535.10
   15:32:06.878.25-Dec-2020 4892.01 5493.02 65.37 4.00 470.13 2535.10
   15:32:07.078.25-Dec-2020 4892.01 5493.02 65.37 4.00 470.33 2535.10
   15:32:07.279.25-Dec-2020 4892.01 5497.31 65.37 4.00 470.53 2535.10
   15:32:07.479.25-Dec-2020 4892.01 5498.22 65.37 4.00 470.73 2535.10
   15:32:07.679.25-Dec-2020 4892.01 5507.43 65.37 4.00 470.93 2535.10
   15:32:07.879.25-Dec-2020 4892.01 5492.57 65.37 4.00 471.13 2535.10
   15:32:08.079.25-Dec-2020 4892.01 5502.99 65.37 4.00 471.33 2535.10
   15:32:08.279.25-Dec-2020 4892.01 5506.00 65.37 4.00 471.53 2535.10
   15:32:08.479.25-Dec-2020 4892.01 5494.91 65.37 4.00 471.73 2535.10
   15:32:08.679.25-Dec-2020 4892.01 5502.14 65.37 4.00 471.93 2535.10
   15:32:08.879.25-Dec-2020 4892.01 5494.64 65.37 4.00 472.13 2535.10
   15:32:09.079.25-Dec-2020 4892.01 5494.64 65.37 4.00 472.33 2535.10
   15:32:09.279.25-Dec-2020 4892.01 5495.24 65.37 4.00 472.53 2535.10
   15:32:09.479.25-Dec-2020 4892.01 5494.69 65.37 4.00 472.73 2535.10
   15:32:09.679.25-Dec-2020 4892.01 5495.37 65.37 4.00 472.93 2535.10
   15:32:09.879.25-Dec-2020 4892.01 5494.52 65.37 4.00 473.13 2535.10
   15:32:10.079.25-Dec-2020 4892.01 5494.52 65.37 4.00 473.33 2535.10
   15:32:10.279.25-Dec-2020 4892.01 5495.03 65.37 4.00 473.53 2535.10
   15:32:10.479.25-Dec-2020 4892.01 5494.86 65.37 4.00 473.73 2535.10
   15:32:10.679.25-Dec-2020 4892.01 5498.46 65.37 4.00 473.93 2535.10
   15:32:10.880.25-Dec-2020 4892.01 5497.72 65.37 4.00 474.13 2535.10
   15:32:11.080.25-Dec-2020 4892.01 5497.72 65.37 4.00 474.33 2535.10
   15:32:11.280.25-Dec-2020 4892.01 5493.83 65.37 4.00 474.53 2535.10
   15:32:11.480.25-Dec-2020 4892.01 5501.02 65.37 4.00 474.73 2535.10
   15:32:11.680.25-Dec-2020 4892.01 5496.35 65.37 4.00 474.93 2535.10
   15:32:11.880.25-Dec-2020 4892.01 5495.87 65.37 4.00 475.13 2535.10
   15:32:12.080.25-Dec-2020 4892.01 5496.43 65.37 4.00 475.33 2535.10
   15:32:12.280.25-Dec-2020 4892.01 5496.32 65.37 4.00 475.53 2535.10
   15:32:12.480.25-Dec-2020 4892.01 5496.82 65.36 4.00 475.73 2535.10
   15:32:12.680.25-Dec-2020 4892.01 5496.33 65.36 4.00 475.93 2535.10
   15:32:12.880.25-Dec-2020 4892.01 5496.32 65.36 4.00 476.13 2535.10
   15:32:13.080.25-Dec-2020 4892.01 5496.32 65.36 4.00 476.33 2535.10
   15:32:13.280.25-Dec-2020 4892.01 5495.59 65.36 4.00 476.53 2535.10
   15:32:13.480.25-Dec-2020 4892.01 5506.66 65.36 4.00 476.73 2535.10
   15:32:13.680.25-Dec-2020 4892.01 5492.33 65.36 4.00 476.93 2535.10
   15:32:13.880.25-Dec-2020 4892.01 5501.82 65.36 4.00 477.13 2535.10
   15:32:14.080.25-Dec-2020 4892.01 5501.82 65.36 4.00 477.33 2535.10
   15:32:14.280.25-Dec-2020 4892.01 5507.34 65.36 4.00 477.53 2535.10
   15:32:14.480.25-Dec-2020 4892.01 5494.02 65.36 4.00 477.73 2535.10
   15:32:14.681.25-Dec-2020 4892.01 5500.56 65.36 4.00 477.93 2535.10
   15:32:14.881.25-Dec-2020 4892.01 5496.24 65.36 4.00 478.13 2535.10
   15:32:15.081.25-Dec-2020 4892.01 5496.24 65.36 4.00 478.33 2535.10
   15:32:15.281.25-Dec-2020 4892.01 5500.78 65.36 4.00 478.53 2535.10
   15:32:15.481.25-Dec-2020 4892.01 5497.50 65.36 4.00 478.73 2535.10
   15:32:15.681.25-Dec-2020 4892.01 5502.34 65.36 4.00 478.93 2535.10
   15:32:15.881.25-Dec-2020 4892.01 5501.82 65.36 4.00 479.13 2535.10
   15:32:16.081.25-Dec-2020 4892.01 5497.53 65.36 4.00 479.33 2535.10
   15:32:16.281.25-Dec-2020 4892.01 5497.53 65.36 4.00 479.53 2535.10
   15:32:16.481.25-Dec-2020 4892.01 5489.79 65.36 4.00 479.73 2535.10
   15:32:16.681.25-Dec-2020 4892.01 5500.37 65.36 4.00 479.93 2535.10
   15:32:16.881.25-Dec-2020 4892.01 5494.75 65.36 4.00 480.13 2535.10
   15:32:17.081.25-Dec-2020 4892.01 5494.75 65.36 4.00 480.33 2535.10
   15:32:17.281.25-Dec-2020 4892.01 5495.29 65.36 4.00 480.53 2535.10
   15:32:17.481.25-Dec-2020 4892.01 5494.41 65.36 4.00 480.73 2535.10
   15:32:17.681.25-Dec-2020 4892.01 5494.17 65.36 4.00 480.93 2535.10
   15:32:17.881.25-Dec-2020 4892.01 5493.71 65.36 4.00 481.13 2535.10
   15:32:18.081.25-Dec-2020 4892.01 5493.71 65.36 4.00 481.33 2535.10
   15:32:18.282.25-Dec-2020 4892.01 5493.70 65.36 4.00 481.53 2535.10
   15:32:18.482.25-Dec-2020 4892.01 5500.31 65.36 4.00 481.73 2535.10
   15:32:18.682.25-Dec-2020 4892.01 5497.45 65.36 4.00 481.93 2535.10
   15:32:18.882.25-Dec-2020 4892.01 5496.08 65.36 4.00 482.13 2535.10
   15:32:19.082.25-Dec-2020 4892.01 5496.08 65.36 4.00 482.33 2535.10
   15:32:19.282.25-Dec-2020 4892.01 5494.83 65.36 4.00 482.53 2535.10
   15:32:19.482.25-Dec-2020 4892.01 5496.55 65.36 4.00 482.73 2535.10
   15:32:19.682.25-Dec-2020 4892.01 5496.02 65.36 4.00 482.93 2535.10
