~Version Information
 VERS.                  2.0:   CWLS log ASCII Standard -VERSION 2.0
 WRAP.                   NO:   One line per depth step
~Well Information Block
#MNEM.UNIT     VALUE/NAME     DESCRIPTION
#---------     -----------    ---------------------------
 STRT.S             12:53:37 25-Dec-20: START TIME 12:53:37 25-Dec-20
 STOP.S             13:01:52 25-Dec-20: STOP TIME  13:01:52 25-Dec-20
 STEP.S                   0.00: STEP TIME
 NULL.                 -999.25: NULL VALUE
 DFWT.                        :  DIST FWL TEXT
 DFST.                        :  DIST FSL TEXT
 DMF .             Drill Floor:  DRILL MEAS FROM
 STIM.      04.54.24 22-Sep-20:  START TIME
 DATE.      04.54.24 21-Nov-20:  END TIME
 SPUD.               21-Nov-20:  SPUD DATE
 NREF.                    Grid:  NORTH REFERENCE
 HPTY.       Minimum Curvature:  HOLE POS TYPE
 DMOD.             Drill Model:  DRILL MOD DESC
 SVYD.                  Survey:  SURVEY DESC
 ILTD.               Lithology:  INTERP LTH DESC
 FTOP.          Formation Tops:  FORM TOPS DESC
 SON .        AZ-XX-0906571587:  JOB NUMBER
 COMP.     BP Exploration (Caspian Sea) Ltd:  COMPANY
 UWI .                     N/A:  UNIQUE WELL IDENTIFIER
 API .                     N/A:  API NUMBER
 BASE.              Azerbaijan:  LOGGING EQUIPMENT BASE LOCATION
 REGN.                   EESSA:  REGION
 PROV.                    Baku:  PROVINCE
 STAT.                    Baku:  STATE NAME
 CTRY.              Azerbaijan:  COUNTRY NAME
 FLD .                     ACG:  FIELD NAME
 SRVC.     TURAN Drilling & Engineering:  CONTRACTOR
 WELL.                     J27:  WELL NAME
 RIG .             West Chirag:  RIG NAME
 DOE .                     N/A:  DOE NUMBER
 DCON.         Sperry Drilling:  DIRECTNL CONTR
 PDAT.          Mean Sea Level:  PERMANENT DATUM
 WTYP.                Deviated:  WELL TYPE
 MWDS.                    Baku:  MWD SHOP
 JOBN.        AZ-XX-0906571587:  JOB TICKET NUMB
 UNIT.                     N/A:  LOGGING EQUIPMENT ID
 MDS .        Operator Entered:  MAG DATA SOURCE
 CNTY.                        :  COUNTY
 LOC .                        :  LOCATION
 LMF .             Drill Floor:  LOG MEASURED FROM
 TVDS.m                  43.00:  TVDSS CORRECTN
 LATI.deg                40.13:  LATITUDE
 LONG.deg                51.22:  LONGITUDE
 WHNS.m                   7.72:  WELL HEAD N/S
 WHEW.m                 -14.24:  WELL HEAD E/W
 UTMX.m              519005.06:  UTM X
 UTMY.m             4443793.85:  UTM Y
 DFWL.m                   0.00:  DISTANCE FWL
 DFSL.m                   0.00:  DISTANCE FSL
 SDEP.m                 347.00:  START DEPTH
 TDD .m                 581.00:  TOTAL DEPTH (DRILLER)
 VSDR.deg               159.72:  VERT SEC DIRECT
 GVFD.g                   1.00:  GRAVITY FIELD
 MFLD.nT              50318.00:  MAGNETIC FIELD
 MDIP.deg                59.57:  MAGNETIC DIP
 MDEC.deg                 6.44:  MAGNETIC DECL
 GRDC.deg                 0.15:  GRID CORRECTION
 AZTC.deg                 6.29:  AZM TOTAL CORR
 EPD .m                   0.00:  ELEVATION
 EGL .m                   0.00:  GROUND ELEVATION
 WDMS.m                 169.80:  WD ELEV
 APD .m                  43.00:  DEPTH ABOVE PD
 AGAP.m                  43.00:  AIR GAP
 VSEW.m                 -14.24:  VERT SEC E/W
 VSNS.m                   7.72:  VERT SEC N/S
 DEP .m                 342.45:  DEPTH
 EKB .m                   0.00:  KB ELEVATION
 EDF .m                  43.00:  DF ELEVATION
 TDL .m                 237.00:  TOTAL DEPTH (LOGGER)
 VSC .                       0:  VS TO CLOSURE
 MAGU.                 1851428:  MAGUTM CHECKSUM
~Parameter Information Block
#MNEM.UNIT       Value        Description
#---------     -----------    ---------------------------
 AV  .mps                 1.50:  Ann Velocity 
 AVMX.mps                 2.90:  Max Ann Veloc 
 AZIF.deg               115.59:  Azm, Final 
 BHAT.        Rotary Steerable:  BHA Type 
 BROT.°/30m               0.50:  Build Rotating 
 BS  .in                  8.50:  Bit Size 
 BTPL.psig              580.00:  Bit Press Loss 
 CABU.                     Yes:  Customer Abuse 
 COMM.                     LÓw:  Run Comments 1 
 TCS .hr                 89.79:  Time Ciculation Ended 
 CV  .mps                 3.22:  Crit Velocity 
 CVMX.mps                 4.37:  Max Crit Veloc 
 DD1 .          Rashad Habibov:  Direct Drillr 1 
 DDSV.               Geo-Pilot:  DD Service 
 DEFF.%                  95.00:  % Det Eff 
 DLRX.°/30m               1.94:  Dogleg Rot Max 
 DLSO.°/30m               0.70:  Dogleg Oriented 
 DLSX.°/30m               1.94:  Dogleg Str Max 
 DRET.      04.45.00 25-Dec-20:  Drill End Time 
 DRST.      10.00.00 24-Dec-20:  Drill Start Tim 
 DTIM.hr                 16.64:  Time Drilling 
 EDEP.m                4999.01:  End Depth 
 ENG1.         Elchin Mammadov:  Engineer 1 
 ENG2.          Ruslan Safarov:  Engineer 2 
 ENG3.          Rustam Safarov:  Engineer 3 
 ETIM.      09.00.00 29-Dec-20:  End Time 
 FLOI.gpm               500.00:  Flow In 
 FLON.gpm               400.00:  Flow In Min 
 FLOS.cptm                0.00:  Fluid Loss 
 FLOX.gpm               500.00:  Flow In Max 
 HFLO.                      No:  High Flow 
 HPRE.                      No:  High Pressure 
 HTEM.                      No:  High Temp 
 HYDO.m                   2.00:  Hydro Offset 
 IFIN.deg                66.79:  Inc, Final 
 IMAX.deg                67.66:  Inc Max 
 IMIN.deg                66.39:  Inc Min 
 IMND.m                4949.37:  Inc Min Depth 
 IMXD.m                4778.63:  Inc Max Depth 
 JARR.                     Yes:  Jarring 
 LETM.      04.45.00 25-Dec-20:  Log End Time 
 LOST.hr                     0:  Lost Rig Time 
 LSTM.      10.00.00 24-Dec-20:  Log Start Time 
 MDCL.ppm             39000.00:  Mud Chlorides 
 MDES.     Inversion Oil/Synthetic:  Mud Desc 
 DFD .sg                  1.33:  Mud Density 
 MDMN.sg                  1.33:  Dens Mud Min 
 MDMX.sg                  1.33:  Dens Mud Max 
 MOIL.                      70:  Run Mud Oil % 
 MOWR.                   70:30:  Run Mud OWR 
 MSND.                       0:  Run Mud Sand % 
 MSOL.                    17.4:  Run Mud Solids% 
 DFV .spqt               84.00:  Mud Viscosity 
 MWOD.in                  6.75:  MWD Tool OD 
 MWSI.                     Yes:  Serv Intrp, MWD 
 OTIM.hr                168.14:  Time Operating 
 PCON.           Look Like New:  Pad Condition 
 PMAX.psia            10822.93:  Press Op, Max 
 PV  .cP                 30.00:  Mud PV 
 RUN .                     900:  Run Number 
 ROPA.m/hr               18.00:  ROP Avg 
 ROPN.m/hr               12.00:  ROP Min 
 ROPX.m/hr               25.00:  ROP Max 
 RPMA.rpm               120.00:  RPM Surface Avg 
 RPMN.rpm               100.00:  RPM Surface Min 
 RPMX.rpm               120.00:  RPM Surface Max 
 RRUN.                    0900:  Rig Run Number 
 SAZI.deg               115.08:  Azm, Start 
 SDEP.m                4762.01:  Start Depth 
 SIDD.                      No:  Serv Intrp, DD 
 SINC.deg                66.14:  Inc, Start 
 SPPA.psig             3700.00:  SPP Avg 
 SPPN.psig             3620.00:  SPP Min 
 SPPX.psig             3900.00:  SPP Max 
 STIM.      09.30.00 22-Dec-20:  Start Time 
 SVCS.                 DD, MWD:  Services 
 SVER.                    9.20:  Sperry Version 
 TDAT.m                 237.00:  Tot Depth Attmp 
 TDDF.                      No:  Trip for DD 
 TDLG.m                 237.00:  Tot Depth Loggd 
 TFF .                      No:  Trip for Fail 
 TQAA.f-kp               18.00:  Torque Abs Avg 
 TQAN.f-kp               17.00:  Torque Abs Min 
 TQAX.f-kp               20.00:  Torque Abs Max 
 TRRT.°/30m               0.60:  Turn Rotating 
 MRT .                    HCIM:  Maximum Recorded Temperature 
 TTMX.degC               94.12:  Max Tool Temp 
 VS01.                90627809:  Virtual Str1 SN 
 VS02.                90527813:  Virtual Str2 SN 
 VS03.                90545417:  Virtual Str3 SN 
 VS04.                12460870:  Virtual Str4 SN 
 VS05.                90516706:  Virtual Str5 SN 
 VS06.                90632007:  Virtual Str6 SN 
 WBMN.klb                 0.00:  WOB Min 
 WOBA.klb                14.00:  WOB Avg 
 WOBX.klb                25.00:  WOB Max 
 YP  .lhf2               32.00:  Yield Point 
~Curve Information Block
#MNEM.UNIT                 API CODE     Curve Description
#---------               -----------    ---------------------------
 TIME.HHMMSS            00 000 000 000:  GT Time & Date
 GTDEPTH.m              00 000 000 000:  GT Depth
 GTPQH.psia             00 000 000 000:  GT HR Quartz Pressure
 GTTQ.degC              00 000 000 000:  GT Quartz Temperature
 GTTN.NONE              00 000 000 000:  GT Test Number
 GTET.sec               00 000 000 000:  GT Elapsed Test Time
 GTTVD.m                00 000 000 000:  GT True Vertical Depth
#Other Information
#
#WARRANTY: Halliburton will use its best efforts to furnish customers with 
#accurate information and interpretations that are part of, and incident to, the services 
#provided.  However, Halliburton cannot and does not warrant the accuracy 
#or correctness of such information and interpretations.  Under no circumstances should any 
#such information or interpretation be relied upon as the sole basis for any drilling, 
#completion, production, or financial decision or any procedure involving any risk to the 
#safety of any drilling venture, drilling rig or its crew or any other third party.  The 
#Customer has full responsibility for all drilling, completion and production operation.  
#Halliburton makes no representations or warranties, either expressed or 
#implied, including, but not limited to, the implied warranties of merchantability or fitness 
#for a particular purpose, with respect to the services rendered.  In no event will 
#Halliburton be liable for failure to obtain any particular results or for 
#any damages, including, but not limited to, indirect, special or consequential damages, 
#resulting from the use of any information or interpretation provided by Halliburton.
#
~A           TIME           GTDEPTH  GTPQH  GTTQ  GTTN  GTET   GTTVD  
# ...
   12:58:59.330.25-Dec-2020 4950.51 1410.33 66.57 1.00 322.15 2558.08
   12:58:59.530.25-Dec-2020 4950.51 1410.33 66.57 1.00 322.35 2558.08
   12:58:59.730.25-Dec-2020 4950.51 1755.57 66.57 1.00 322.55 2558.08
   12:58:59.930.25-Dec-2020 4950.51 1858.84 66.57 1.00 322.75 2558.08
   12:59:00.130.25-Dec-2020 4950.51 1928.48 66.57 1.00 322.95 2558.08
   12:59:00.330.25-Dec-2020 4950.51 1974.97 66.57 1.00 323.15 2558.08
   12:59:00.530.25-Dec-2020 4950.51 1974.97 66.57 1.00 323.35 2558.08
   12:59:00.730.25-Dec-2020 4950.51 2028.98 66.57 1.00 323.55 2558.08
   12:59:00.930.25-Dec-2020 4950.51 2044.25 66.57 1.00 323.75 2558.08
   12:59:01.131.25-Dec-2020 4950.51 2054.77 66.57 1.00 323.95 2558.08
   12:59:01.331.25-Dec-2020 4950.51 2062.26 66.57 1.00 324.15 2558.08
   12:59:01.531.25-Dec-2020 4950.51 2062.26 66.57 1.00 324.35 2558.08
   12:59:01.731.25-Dec-2020 4950.51 2072.11 66.57 1.00 324.55 2558.08
   12:59:01.931.25-Dec-2020 4950.51 2075.57 66.57 1.00 324.75 2558.08
   12:59:02.131.25-Dec-2020 4950.51 2077.63 66.57 1.00 324.95 2558.08
   12:59:02.331.25-Dec-2020 4950.51 2079.13 66.57 1.00 325.15 2558.08
   12:59:02.531.25-Dec-2020 4950.51 2079.13 66.57 1.00 325.35 2558.08
   12:59:02.731.25-Dec-2020 4950.51 2082.16 66.57 1.00 325.55 2558.08
   12:59:02.931.25-Dec-2020 4950.51 2082.62 66.57 1.00 325.75 2558.08
   12:59:03.131.25-Dec-2020 4950.51 2083.11 66.57 1.00 325.95 2558.08
   12:59:03.332.25-Dec-2020 4950.51 2083.47 66.57 1.00 326.15 2558.08
   12:59:03.532.25-Dec-2020 4950.51 2083.47 66.57 1.00 326.35 2558.08
   12:59:03.732.25-Dec-2020 4950.51 2084.39 66.57 1.00 326.55 2558.08
   12:59:03.932.25-Dec-2020 4950.51 2084.59 66.57 1.00 326.75 2558.08
   12:59:04.132.25-Dec-2020 4950.51 2084.88 66.57 1.00 326.95 2558.08
   12:59:04.332.25-Dec-2020 4950.51 2085.14 66.57 1.00 327.15 2558.08
   12:59:04.532.25-Dec-2020 4950.51 2085.14 66.57 1.00 327.35 2558.08
   12:59:04.732.25-Dec-2020 4950.51 2085.44 66.57 1.00 327.55 2558.08
   12:59:04.932.25-Dec-2020 4950.51 2085.27 66.57 1.00 327.75 2558.08
   12:59:05.132.25-Dec-2020 4950.51 2086.61 66.57 1.00 327.95 2558.08
   12:59:05.332.25-Dec-2020 4950.51 2086.44 66.58 1.00 328.15 2558.08
   12:59:05.533.25-Dec-2020 4950.51 2086.44 66.58 1.00 328.35 2558.08
   12:59:05.733.25-Dec-2020 4950.51 2086.64 66.58 1.00 328.55 2558.08
   12:59:05.933.25-Dec-2020 4950.51 2086.74 66.58 1.00 328.75 2558.08
   12:59:06.133.25-Dec-2020 4950.51 2086.85 66.58 1.00 328.95 2558.08
   12:59:06.333.25-Dec-2020 4950.51 2086.90 66.58 1.00 329.15 2558.08
   12:59:06.533.25-Dec-2020 4950.51 2086.90 66.58 1.00 329.35 2558.08
   12:59:06.733.25-Dec-2020 4950.51 2087.02 66.58 1.00 329.55 2558.08
   12:59:06.933.25-Dec-2020 4950.51 2087.06 66.58 1.00 329.75 2558.08
   12:59:07.133.25-Dec-2020 4950.51 2087.09 66.58 1.00 329.95 2558.08
   12:59:07.333.25-Dec-2020 4950.51 2087.11 66.58 1.00 330.15 2558.08
   12:59:07.533.25-Dec-2020 4950.51 2087.11 66.58 1.00 330.35 2558.08
   12:59:07.734.25-Dec-2020 4950.51 2087.91 66.58 1.00 330.55 2558.08
   12:59:07.934.25-Dec-2020 4950.51 2087.91 66.58 1.00 330.75 2558.08
   12:59:08.134.25-Dec-2020 4950.51 2087.80 66.58 1.00 330.95 2558.08
   12:59:08.334.25-Dec-2020 4950.51 2087.92 66.58 1.00 331.15 2558.08
   12:59:08.534.25-Dec-2020 4950.51 2087.92 66.58 1.00 331.35 2558.08
   12:59:08.734.25-Dec-2020 4950.51 2088.59 66.58 1.00 331.55 2558.08
   12:59:08.934.25-Dec-2020 4950.51 2088.36 66.58 1.00 331.75 2558.08
   12:59:09.134.25-Dec-2020 4950.51 2088.27 66.58 1.00 331.95 2558.08
   12:59:09.334.25-Dec-2020 4950.51 2087.83 66.58 1.00 332.15 2558.08
   12:59:09.534.25-Dec-2020 4950.51 2087.83 66.58 1.00 332.35 2558.08
   12:59:09.734.25-Dec-2020 4950.51 2088.28 66.58 1.00 332.55 2558.08
   12:59:09.935.25-Dec-2020 4950.51 2088.58 66.58 1.00 332.75 2558.08
   12:59:10.135.25-Dec-2020 4950.51 2088.56 66.58 1.00 332.95 2558.08
   12:59:10.335.25-Dec-2020 4950.51 2088.11 66.58 1.00 333.15 2558.08
   12:59:10.535.25-Dec-2020 4950.51 2088.11 66.58 1.00 333.35 2558.08
   12:59:10.735.25-Dec-2020 4950.51 2088.67 66.58 1.00 333.55 2558.08
   12:59:10.935.25-Dec-2020 4950.51 2088.93 66.58 1.00 333.75 2558.08
   12:59:11.135.25-Dec-2020 4950.51 2088.72 66.58 1.00 333.95 2558.08
   12:59:11.335.25-Dec-2020 4950.51 2088.68 66.58 1.00 334.15 2558.08
   12:59:11.535.25-Dec-2020 4950.51 2088.68 66.58 1.00 334.35 2558.08
   12:59:11.735.25-Dec-2020 4950.51 2088.74 66.58 1.00 334.55 2558.08
   12:59:11.935.25-Dec-2020 4950.51 2088.74 66.59 1.00 334.75 2558.08
   12:59:12.136.25-Dec-2020 4950.51 2088.78 66.59 1.00 334.95 2558.08
   12:59:12.336.25-Dec-2020 4950.51 2088.79 66.59 1.00 335.15 2558.08
   12:59:12.536.25-Dec-2020 4950.51 2088.79 66.59 1.00 335.35 2558.08
   12:59:12.736.25-Dec-2020 4950.51 2088.75 66.59 1.00 335.55 2558.08
   12:59:12.936.25-Dec-2020 4950.51 2088.80 66.59 1.00 335.75 2558.08
   12:59:13.136.25-Dec-2020 4950.51 2089.29 66.59 1.00 335.95 2558.08
   12:59:13.336.25-Dec-2020 4950.51 2089.30 66.59 1.00 336.15 2558.08
   12:59:13.536.25-Dec-2020 4950.51 2089.30 66.59 1.00 336.35 2558.08
   12:59:13.736.25-Dec-2020 4950.51 2089.16 66.59 1.00 336.55 2558.08
   12:59:13.936.25-Dec-2020 4950.51 2089.19 66.59 1.00 336.75 2558.08
   12:59:14.136.25-Dec-2020 4950.51 2089.25 66.59 1.00 336.95 2558.08
   12:59:14.337.25-Dec-2020 4950.51 2089.21 66.59 1.00 337.15 2558.08
   12:59:14.537.25-Dec-2020 4950.51 2089.21 66.59 1.00 337.35 2558.08
   12:59:14.737.25-Dec-2020 4950.51 2089.22 66.59 1.00 337.55 2558.08
   12:59:14.937.25-Dec-2020 4950.51 2089.22 66.59 1.00 337.75 2558.08
   12:59:15.137.25-Dec-2020 4950.51 2089.22 66.59 1.00 337.95 2558.08
   12:59:15.337.25-Dec-2020 4950.51 2088.73 66.59 1.00 338.15 2558.08
   12:59:15.537.25-Dec-2020 4950.51 2088.73 66.59 1.00 338.35 2558.08
   12:59:15.737.25-Dec-2020 4950.51 2089.57 66.59 1.00 338.55 2558.08
   12:59:15.937.25-Dec-2020 4950.51 2089.14 66.59 1.00 338.75 2558.08
   12:59:16.137.25-Dec-2020 4950.51 2089.65 66.59 1.00 338.95 2558.08
   12:59:16.337.25-Dec-2020 4950.51 2089.35 66.59 1.00 339.15 2558.08
   12:59:16.538.25-Dec-2020 4950.51 2089.35 66.59 1.00 339.35 2558.08
   12:59:16.738.25-Dec-2020 4950.51 2089.95 66.59 1.00 339.55 2558.08
   12:59:16.938.25-Dec-2020 4950.51 2089.60 66.59 1.00 339.75 2558.08
   12:59:17.138.25-Dec-2020 4950.51 2089.61 66.59 1.00 339.95 2558.08
   12:59:17.338.25-Dec-2020 4950.51 2089.71 66.59 1.00 340.15 2558.08
   12:59:17.538.25-Dec-2020 4950.51 2089.71 66.59 1.00 340.35 2558.08
   12:59:17.738.25-Dec-2020 4950.51 2089.86 66.59 1.00 340.55 2558.08
   12:59:17.938.25-Dec-2020 4950.51 2089.69 66.59 1.00 340.75 2558.08
   12:59:18.138.25-Dec-2020 4950.51 2089.87 66.59 1.00 340.95 2558.08
   12:59:18.338.25-Dec-2020 4950.51 2089.78 66.59 1.00 341.15 2558.08
   12:59:18.538.25-Dec-2020 4950.51 2089.78 66.59 1.00 341.35 2558.08
   12:59:18.739.25-Dec-2020 4950.51 2089.78 66.59 1.00 341.55 2558.08
   12:59:18.939.25-Dec-2020 4950.51 2089.73 66.59 1.00 341.75 2558.08
   12:59:19.139.25-Dec-2020 4950.51 2089.63 66.59 1.00 341.95 2558.08
   12:59:19.339.25-Dec-2020 4950.51 2089.73 66.59 1.00 342.15 2558.08
   12:59:19.539.25-Dec-2020 4950.51 2089.73 66.59 1.00 342.35 2558.08
   12:59:19.739.25-Dec-2020 4950.51 2089.73 66.59 1.00 342.55 2558.08
   12:59:19.939.25-Dec-2020 4950.51 2089.61 66.59 1.00 342.75 2558.08
   12:59:20.139.25-Dec-2020 4950.51 2089.55 66.59 1.00 342.95 2558.08
   12:59:20.339.25-Dec-2020 4950.51 2090.02 66.59 1.00 343.15 2558.08
   12:59:20.539.25-Dec-2020 4950.51 2090.02 66.59 1.00 343.35 2558.08
   12:59:20.739.25-Dec-2020 4950.51 2089.87 66.59 1.00 343.55 2558.08
   12:59:20.940.25-Dec-2020 4950.51 2090.04 66.59 1.00 343.75 2558.08
   12:59:21.140.25-Dec-2020 4950.51 2089.92 66.59 1.00 343.96 2558.08
   12:59:21.340.25-Dec-2020 4950.51 2089.93 66.59 1.00 344.16 2558.08
   12:59:21.540.25-Dec-2020 4950.51 2089.93 66.59 1.00 344.36 2558.08
   12:59:21.740.25-Dec-2020 4950.51 2089.95 66.58 1.00 344.56 2558.08
   12:59:21.940.25-Dec-2020 4950.51 2089.96 66.58 1.00 344.76 2558.08
   12:59:22.140.25-Dec-2020 4950.51 2089.90 66.58 1.00 344.96 2558.08
