~Version Information
 VERS.                  2.0:   CWLS log ASCII Standard -VERSION 2.0
 WRAP.                   NO:   One line per depth step
~Well Information Block
#MNEM.UNIT     VALUE/NAME     DESCRIPTION
#---------     -----------    ---------------------------
 STRT.S             17:56:34 25-Dec-20: START TIME 17:56:34 25-Dec-20
 STOP.S             18:04:57 25-Dec-20: STOP TIME  18:04:57 25-Dec-20
 STEP.S                   0.00: STEP TIME
 NULL.                 -999.25: NULL VALUE
 DFWT.                        :  DIST FWL TEXT
 DFST.                        :  DIST FSL TEXT
 DMF .             Drill Floor:  DRILL MEAS FROM
 STIM.      04.54.24 22-Sep-20:  START TIME
 DATE.      04.54.24 21-Nov-20:  END TIME
 SPUD.               21-Nov-20:  SPUD DATE
 NREF.                    Grid:  NORTH REFERENCE
 HPTY.       Minimum Curvature:  HOLE POS TYPE
 DMOD.             Drill Model:  DRILL MOD DESC
 SVYD.                  Survey:  SURVEY DESC
 ILTD.               Lithology:  INTERP LTH DESC
 FTOP.          Formation Tops:  FORM TOPS DESC
 SON .        AZ-XX-0906571587:  JOB NUMBER
 COMP.     BP Exploration (Caspian Sea) Ltd:  COMPANY
 UWI .                     N/A:  UNIQUE WELL IDENTIFIER
 API .                     N/A:  API NUMBER
 BASE.              Azerbaijan:  LOGGING EQUIPMENT BASE LOCATION
 REGN.                   EESSA:  REGION
 PROV.                    Baku:  PROVINCE
 STAT.                    Baku:  STATE NAME
 CTRY.              Azerbaijan:  COUNTRY NAME
 FLD .                     ACG:  FIELD NAME
 SRVC.     TURAN Drilling & Engineering:  CONTRACTOR
 WELL.                     J27:  WELL NAME
 RIG .             West Chirag:  RIG NAME
 DOE .                     N/A:  DOE NUMBER
 DCON.         Sperry Drilling:  DIRECTNL CONTR
 PDAT.          Mean Sea Level:  PERMANENT DATUM
 WTYP.                Deviated:  WELL TYPE
 MWDS.                    Baku:  MWD SHOP
 JOBN.        AZ-XX-0906571587:  JOB TICKET NUMB
 UNIT.                     N/A:  LOGGING EQUIPMENT ID
 MDS .        Operator Entered:  MAG DATA SOURCE
 CNTY.                        :  COUNTY
 LOC .                        :  LOCATION
 LMF .             Drill Floor:  LOG MEASURED FROM
 TVDS.m                  43.00:  TVDSS CORRECTN
 LATI.deg                40.13:  LATITUDE
 LONG.deg                51.22:  LONGITUDE
 WHNS.m                   7.72:  WELL HEAD N/S
 WHEW.m                 -14.24:  WELL HEAD E/W
 UTMX.m              519005.06:  UTM X
 UTMY.m             4443793.85:  UTM Y
 DFWL.m                   0.00:  DISTANCE FWL
 DFSL.m                   0.00:  DISTANCE FSL
 SDEP.m                 347.00:  START DEPTH
 TDD .m                 581.00:  TOTAL DEPTH (DRILLER)
 VSDR.deg               159.72:  VERT SEC DIRECT
 GVFD.g                   1.00:  GRAVITY FIELD
 MFLD.nT              50318.00:  MAGNETIC FIELD
 MDIP.deg                59.57:  MAGNETIC DIP
 MDEC.deg                 6.44:  MAGNETIC DECL
 GRDC.deg                 0.15:  GRID CORRECTION
 AZTC.deg                 6.29:  AZM TOTAL CORR
 EPD .m                   0.00:  ELEVATION
 EGL .m                   0.00:  GROUND ELEVATION
 WDMS.m                 169.80:  WD ELEV
 APD .m                  43.00:  DEPTH ABOVE PD
 AGAP.m                  43.00:  AIR GAP
 VSEW.m                 -14.24:  VERT SEC E/W
 VSNS.m                   7.72:  VERT SEC N/S
 DEP .m                 342.45:  DEPTH
 EKB .m                   0.00:  KB ELEVATION
 EDF .m                  43.00:  DF ELEVATION
 TDL .m                 237.00:  TOTAL DEPTH (LOGGER)
 VSC .                       0:  VS TO CLOSURE
 MAGU.                 1851428:  MAGUTM CHECKSUM
~Parameter Information Block
#MNEM.UNIT       Value        Description
#---------     -----------    ---------------------------
 AV  .mps                 1.50:  Ann Velocity 
 AVMX.mps                 2.90:  Max Ann Veloc 
 AZIF.deg               115.59:  Azm, Final 
 BHAT.        Rotary Steerable:  BHA Type 
 BROT.∞/30m               0.50:  Build Rotating 
 BS  .in                  8.50:  Bit Size 
 BTPL.psig              580.00:  Bit Press Loss 
 CABU.                     Yes:  Customer Abuse 
 COMM.                     ‰E:  Run Comments 1 
 TCS .hr                 89.79:  Time Ciculation Ended 
 CV  .mps                 3.22:  Crit Velocity 
 CVMX.mps                 4.37:  Max Crit Veloc 
 DD1 .          Rashad Habibov:  Direct Drillr 1 
 DDSV.               Geo-Pilot:  DD Service 
 DEFF.%                  95.00:  % Det Eff 
 DLRX.∞/30m               1.94:  Dogleg Rot Max 
 DLSO.∞/30m               0.70:  Dogleg Oriented 
 DLSX.∞/30m               1.94:  Dogleg Str Max 
 DRET.      04.45.00 25-Dec-20:  Drill End Time 
 DRST.      10.00.00 24-Dec-20:  Drill Start Tim 
 DTIM.hr                 16.64:  Time Drilling 
 EDEP.m                4999.01:  End Depth 
 ENG1.         Elchin Mammadov:  Engineer 1 
 ENG2.          Ruslan Safarov:  Engineer 2 
 ENG3.          Rustam Safarov:  Engineer 3 
 ETIM.      09.00.00 29-Dec-20:  End Time 
 FLOI.gpm               500.00:  Flow In 
 FLON.gpm               400.00:  Flow In Min 
 FLOS.cptm                0.00:  Fluid Loss 
 FLOX.gpm               500.00:  Flow In Max 
 HFLO.                      No:  High Flow 
 HPRE.                      No:  High Pressure 
 HTEM.                      No:  High Temp 
 HYDO.m                   2.00:  Hydro Offset 
 IFIN.deg                66.79:  Inc, Final 
 IMAX.deg                67.66:  Inc Max 
 IMIN.deg                66.39:  Inc Min 
 IMND.m                4949.37:  Inc Min Depth 
 IMXD.m                4778.63:  Inc Max Depth 
 JARR.                     Yes:  Jarring 
 LETM.      04.45.00 25-Dec-20:  Log End Time 
 LOST.hr                     0:  Lost Rig Time 
 LSTM.      10.00.00 24-Dec-20:  Log Start Time 
 MDCL.ppm             39000.00:  Mud Chlorides 
 MDES.     Inversion Oil/Synthetic:  Mud Desc 
 DFD .sg                  1.33:  Mud Density 
 MDMN.sg                  1.33:  Dens Mud Min 
 MDMX.sg                  1.33:  Dens Mud Max 
 MOIL.                      70:  Run Mud Oil % 
 MOWR.                   70:30:  Run Mud OWR 
 MSND.                       0:  Run Mud Sand % 
 MSOL.                    17.4:  Run Mud Solids% 
 DFV .spqt               84.00:  Mud Viscosity 
 MWOD.in                  6.75:  MWD Tool OD 
 MWSI.                     Yes:  Serv Intrp, MWD 
 OTIM.hr                168.14:  Time Operating 
 PCON.           Look Like New:  Pad Condition 
 PMAX.psia            10822.93:  Press Op, Max 
 PV  .cP                 30.00:  Mud PV 
 RUN .                     900:  Run Number 
 ROPA.m/hr               18.00:  ROP Avg 
 ROPN.m/hr               12.00:  ROP Min 
 ROPX.m/hr               25.00:  ROP Max 
 RPMA.rpm               120.00:  RPM Surface Avg 
 RPMN.rpm               100.00:  RPM Surface Min 
 RPMX.rpm               120.00:  RPM Surface Max 
 RRUN.                    0900:  Rig Run Number 
 SAZI.deg               115.08:  Azm, Start 
 SDEP.m                4762.01:  Start Depth 
 SIDD.                      No:  Serv Intrp, DD 
 SINC.deg                66.14:  Inc, Start 
 SPPA.psig             3700.00:  SPP Avg 
 SPPN.psig             3620.00:  SPP Min 
 SPPX.psig             3900.00:  SPP Max 
 STIM.      09.30.00 22-Dec-20:  Start Time 
 SVCS.                 DD, MWD:  Services 
 SVER.                    9.20:  Sperry Version 
 TDAT.m                 237.00:  Tot Depth Attmp 
 TDDF.                      No:  Trip for DD 
 TDLG.m                 237.00:  Tot Depth Loggd 
 TFF .                      No:  Trip for Fail 
 TQAA.f-kp               18.00:  Torque Abs Avg 
 TQAN.f-kp               17.00:  Torque Abs Min 
 TQAX.f-kp               20.00:  Torque Abs Max 
 TRRT.∞/30m               0.60:  Turn Rotating 
 MRT .                    HCIM:  Maximum Recorded Temperature 
 TTMX.degC               94.12:  Max Tool Temp 
 VS01.                90627809:  Virtual Str1 SN 
 VS02.                90527813:  Virtual Str2 SN 
 VS03.                90545417:  Virtual Str3 SN 
 VS04.                12460870:  Virtual Str4 SN 
 VS05.                90516706:  Virtual Str5 SN 
 VS06.                90632007:  Virtual Str6 SN 
 WBMN.klb                 0.00:  WOB Min 
 WOBA.klb                14.00:  WOB Avg 
 WOBX.klb                25.00:  WOB Max 
 YP  .lhf2               32.00:  Yield Point 
~Curve Information Block
#MNEM.UNIT                 API CODE     Curve Description
#---------               -----------    ---------------------------
 TIME.HHMMSS            00 000 000 000:  GT Time & Date
 GTDEPTH.m              00 000 000 000:  GT Depth
 GTPQH.psia             00 000 000 000:  GT HR Quartz Pressure
 GTTQ.degC              00 000 000 000:  GT Quartz Temperature
 GTTN.NONE              00 000 000 000:  GT Test Number
 GTET.sec               00 000 000 000:  GT Elapsed Test Time
 GTTVD.m                00 000 000 000:  GT True Vertical Depth
#Other Information
#
#WARRANTY: Halliburton will use its best efforts to furnish customers with 
#accurate information and interpretations that are part of, and incident to, the services 
#provided.  However, Halliburton cannot and does not warrant the accuracy 
#or correctness of such information and interpretations.  Under no circumstances should any 
#such information or interpretation be relied upon as the sole basis for any drilling, 
#completion, production, or financial decision or any procedure involving any risk to the 
#safety of any drilling venture, drilling rig or its crew or any other third party.  The 
#Customer has full responsibility for all drilling, completion and production operation.  
#Halliburton makes no representations or warranties, either expressed or 
#implied, including, but not limited to, the implied warranties of merchantability or fitness 
#for a particular purpose, with respect to the services rendered.  In no event will 
#Halliburton be liable for failure to obtain any particular results or for 
#any damages, including, but not limited to, indirect, special or consequential damages, 
#resulting from the use of any information or interpretation provided by Halliburton.
#
~A           TIME           GTDEPTH  GTPQH  GTTQ  GTTN  GTET   GTTVD  
# ...
   18:02:19.588.25-Dec-2020 4856.51 3913.86 64.22 5.00 344.86 2521.01
   18:02:19.788.25-Dec-2020 4856.51 3913.86 64.22 5.00 345.06 2521.01
   18:02:19.988.25-Dec-2020 4856.51 3913.80 64.23 5.00 345.26 2521.01
   18:02:20.188.25-Dec-2020 4856.51 3913.92 64.23 5.00 345.46 2521.01
   18:02:20.388.25-Dec-2020 4856.51 3914.07 64.23 5.00 345.66 2521.01
   18:02:20.588.25-Dec-2020 4856.51 3914.51 64.23 5.00 345.86 2521.01
   18:02:20.788.25-Dec-2020 4856.51 3914.51 64.23 5.00 346.06 2521.01
   18:02:20.988.25-Dec-2020 4856.51 3914.93 64.23 5.00 346.26 2521.01
   18:02:21.188.25-Dec-2020 4856.51 3915.22 64.23 5.00 346.46 2521.01
   18:02:21.388.25-Dec-2020 4856.51 3915.39 64.23 5.00 346.66 2521.01
   18:02:21.588.25-Dec-2020 4856.51 3915.60 64.23 5.00 346.86 2521.01
   18:02:21.788.25-Dec-2020 4856.51 3915.60 64.23 5.00 347.06 2521.01
   18:02:21.988.25-Dec-2020 4856.51 3915.89 64.23 5.00 347.26 2521.01
   18:02:22.187.25-Dec-2020 4856.51 3916.10 64.23 5.00 347.46 2521.01
   18:02:22.387.25-Dec-2020 4856.51 3916.15 64.23 5.00 347.66 2521.01
   18:02:22.587.25-Dec-2020 4856.51 3915.45 64.23 5.00 347.86 2521.01
   18:02:22.787.25-Dec-2020 4856.51 3915.45 64.23 5.00 348.06 2521.01
   18:02:22.987.25-Dec-2020 4856.51 3915.77 64.23 5.00 348.26 2521.01
   18:02:23.187.25-Dec-2020 4856.51 3916.02 64.23 5.00 348.46 2521.01
   18:02:23.387.25-Dec-2020 4856.51 3916.04 64.23 5.00 348.66 2521.01
   18:02:23.587.25-Dec-2020 4856.51 3916.27 64.23 5.00 348.86 2521.01
   18:02:23.787.25-Dec-2020 4856.51 3916.27 64.23 5.00 349.06 2521.01
   18:02:23.987.25-Dec-2020 4856.51 3916.44 64.23 5.00 349.26 2521.01
   18:02:24.187.25-Dec-2020 4856.51 3916.48 64.23 5.00 349.46 2521.01
   18:02:24.387.25-Dec-2020 4856.51 3916.51 64.23 5.00 349.66 2521.01
   18:02:24.587.25-Dec-2020 4856.51 3916.71 64.23 5.00 349.86 2521.01
   18:02:24.786.25-Dec-2020 4856.51 3916.71 64.23 5.00 350.06 2521.01
   18:02:24.986.25-Dec-2020 4856.51 3916.58 64.23 5.00 350.26 2521.01
   18:02:25.186.25-Dec-2020 4856.51 3916.40 64.23 5.00 350.46 2521.01
   18:02:25.386.25-Dec-2020 4856.51 3916.27 64.23 5.00 350.66 2521.01
   18:02:25.586.25-Dec-2020 4856.51 3915.60 64.23 5.00 350.86 2521.01
   18:02:25.786.25-Dec-2020 4856.51 3915.60 64.23 5.00 351.06 2521.01
   18:02:25.986.25-Dec-2020 4856.51 3915.86 64.23 5.00 351.26 2521.01
   18:02:26.186.25-Dec-2020 4856.51 3916.15 64.23 5.00 351.46 2521.01
   18:02:26.386.25-Dec-2020 4856.51 3916.25 64.23 5.00 351.66 2521.01
   18:02:26.586.25-Dec-2020 4856.51 3915.61 64.23 5.00 351.86 2521.01
   18:02:26.786.25-Dec-2020 4856.51 3915.61 64.23 5.00 352.06 2521.01
   18:02:26.986.25-Dec-2020 4856.51 3915.76 64.23 5.00 352.26 2521.01
   18:02:27.185.25-Dec-2020 4856.51 3915.22 64.23 5.00 352.46 2521.01
   18:02:27.385.25-Dec-2020 4856.51 3915.70 64.23 5.00 352.66 2521.01
   18:02:27.585.25-Dec-2020 4856.51 3915.71 64.23 5.00 352.86 2521.01
   18:02:27.785.25-Dec-2020 4856.51 3915.71 64.23 5.00 353.06 2521.01
   18:02:27.985.25-Dec-2020 4856.51 3916.24 64.23 5.00 353.26 2521.01
   18:02:28.185.25-Dec-2020 4856.51 3916.62 64.23 5.00 353.46 2521.01
   18:02:28.385.25-Dec-2020 4856.51 3916.64 64.23 5.00 353.66 2521.01
   18:02:28.585.25-Dec-2020 4856.51 3916.88 64.23 5.00 353.86 2521.01
   18:02:28.785.25-Dec-2020 4856.51 3916.88 64.23 5.00 354.06 2521.01
   18:02:28.985.25-Dec-2020 4856.51 3917.23 64.23 5.00 354.26 2521.01
   18:02:29.185.25-Dec-2020 4856.51 3917.41 64.23 5.00 354.46 2521.01
   18:02:29.385.25-Dec-2020 4856.51 3917.41 64.23 5.00 354.66 2521.01
   18:02:29.585.25-Dec-2020 4856.51 3917.55 64.23 5.00 354.86 2521.01
   18:02:29.784.25-Dec-2020 4856.51 3917.55 64.23 5.00 355.06 2521.01
   18:02:29.984.25-Dec-2020 4856.51 3917.38 64.23 5.00 355.26 2521.01
   18:02:30.184.25-Dec-2020 4856.51 3917.16 64.23 5.00 355.46 2521.01
   18:02:30.384.25-Dec-2020 4856.51 3917.25 64.23 5.00 355.66 2521.01
   18:02:30.584.25-Dec-2020 4856.51 3917.55 64.23 5.00 355.86 2521.01
   18:02:30.784.25-Dec-2020 4856.51 3917.55 64.23 5.00 356.06 2521.01
   18:02:30.984.25-Dec-2020 4856.51 3917.66 64.23 5.00 356.26 2521.01
   18:02:31.184.25-Dec-2020 4856.51 3917.87 64.23 5.00 356.46 2521.01
   18:02:31.384.25-Dec-2020 4856.51 3917.91 64.23 5.00 356.66 2521.01
   18:02:31.584.25-Dec-2020 4856.51 3917.96 64.23 5.00 356.86 2521.01
   18:02:31.784.25-Dec-2020 4856.51 3917.96 64.23 5.00 357.06 2521.01
   18:02:31.984.25-Dec-2020 4856.51 3917.94 64.23 5.00 357.26 2521.01
   18:02:32.184.25-Dec-2020 4856.51 3918.05 64.23 5.00 357.46 2521.01
   18:02:32.383.25-Dec-2020 4856.51 3917.31 64.23 5.00 357.66 2521.01
   18:02:32.583.25-Dec-2020 4856.51 3917.46 64.23 5.00 357.86 2521.01
   18:02:32.783.25-Dec-2020 4856.51 3917.46 64.23 5.00 358.06 2521.01
   18:02:32.983.25-Dec-2020 4856.51 3916.58 64.23 5.00 358.26 2521.01
   18:02:33.183.25-Dec-2020 4856.51 3917.02 64.23 5.00 358.46 2521.01
   18:02:33.383.25-Dec-2020 4856.51 3916.77 64.23 5.00 358.66 2521.01
   18:02:33.583.25-Dec-2020 4856.51 3916.94 64.23 5.00 358.86 2521.01
   18:02:33.783.25-Dec-2020 4856.51 3916.94 64.23 5.00 359.06 2521.01
   18:02:33.983.25-Dec-2020 4856.51 3916.42 64.23 5.00 359.26 2521.01
   18:02:34.183.25-Dec-2020 4856.51 3916.53 64.23 5.00 359.46 2521.01
   18:02:34.383.25-Dec-2020 4856.51 3917.02 64.23 5.00 359.66 2521.01
   18:02:34.583.25-Dec-2020 4856.51 3917.22 64.23 5.00 359.86 2521.01
   18:02:34.782.25-Dec-2020 4856.51 3917.22 64.23 5.00 360.06 2521.01
   18:02:34.982.25-Dec-2020 4856.51 3916.45 64.23 5.00 360.26 2521.01
   18:02:35.182.25-Dec-2020 4856.51 3916.51 64.23 5.00 360.46 2521.01
   18:02:35.382.25-Dec-2020 4856.51 3917.01 64.23 5.00 360.66 2521.01
   18:02:35.582.25-Dec-2020 4856.51 3917.14 64.23 5.00 360.86 2521.01
   18:02:35.782.25-Dec-2020 4856.51 3917.14 64.23 5.00 361.06 2521.01
   18:02:35.982.25-Dec-2020 4856.51 3917.69 64.23 5.00 361.26 2521.01
   18:02:36.182.25-Dec-2020 4856.51 3917.93 64.23 5.00 361.46 2521.01
   18:02:36.382.25-Dec-2020 4856.51 3918.03 64.23 5.00 361.66 2521.01
   18:02:36.582.25-Dec-2020 4856.51 3918.17 64.23 5.00 361.86 2521.01
   18:02:36.782.25-Dec-2020 4856.51 3918.17 64.23 5.00 362.06 2521.01
   18:02:36.982.25-Dec-2020 4856.51 3918.34 64.23 5.00 362.26 2521.01
   18:02:37.182.25-Dec-2020 4856.51 3918.47 64.23 5.00 362.46 2521.01
   18:02:37.381.25-Dec-2020 4856.51 3917.58 64.23 5.00 362.66 2521.01
   18:02:37.581.25-Dec-2020 4856.51 3918.22 64.23 5.00 362.86 2521.01
   18:02:37.781.25-Dec-2020 4856.51 3918.22 64.23 5.00 363.06 2521.01
   18:02:37.981.25-Dec-2020 4856.51 3917.81 64.23 5.00 363.26 2521.01
   18:02:38.181.25-Dec-2020 4856.51 3918.00 64.23 5.00 363.46 2521.01
   18:02:38.381.25-Dec-2020 4856.51 3918.23 64.23 5.00 363.66 2521.01
   18:02:38.581.25-Dec-2020 4856.51 3918.31 64.23 5.00 363.86 2521.01
   18:02:38.781.25-Dec-2020 4856.51 3918.31 64.23 5.00 364.06 2521.01
   18:02:38.981.25-Dec-2020 4856.51 3918.56 64.23 5.00 364.26 2521.01
   18:02:39.181.25-Dec-2020 4856.51 3918.61 64.23 5.00 364.46 2521.01
   18:02:39.381.25-Dec-2020 4856.51 3918.62 64.23 5.00 364.66 2521.01
   18:02:39.581.25-Dec-2020 4856.51 3918.67 64.23 5.00 364.86 2521.01
   18:02:39.781.25-Dec-2020 4856.51 3918.67 64.23 5.00 365.06 2521.01
   18:02:39.980.25-Dec-2020 4856.51 3917.94 64.23 5.00 365.26 2521.01
   18:02:40.180.25-Dec-2020 4856.51 3918.42 64.23 5.00 365.46 2521.01
   18:02:40.380.25-Dec-2020 4856.51 3918.08 64.23 5.00 365.66 2521.01
   18:02:40.580.25-Dec-2020 4856.51 3917.23 64.23 5.00 365.86 2521.01
   18:02:40.780.25-Dec-2020 4856.51 3917.23 64.23 5.00 366.06 2521.01
   18:02:40.980.25-Dec-2020 4856.51 3917.06 64.23 5.00 366.26 2521.01
   18:02:41.180.25-Dec-2020 4856.51 3917.33 64.23 5.00 366.46 2521.01
   18:02:41.380.25-Dec-2020 4856.51 3917.63 64.23 5.00 366.66 2521.01
   18:02:41.580.25-Dec-2020 4856.51 3916.93 64.23 5.00 366.86 2521.01
   18:02:41.780.25-Dec-2020 4856.51 3916.93 64.23 5.00 367.06 2521.01
   18:02:41.980.25-Dec-2020 4856.51 3917.35 64.23 5.00 367.26 2521.01
   18:02:42.180.25-Dec-2020 4856.51 3917.76 64.23 5.00 367.46 2521.01
   18:02:42.380.25-Dec-2020 4856.51 3917.83 64.23 5.00 367.66 2521.01
