~Version Information
 VERS.                  2.0:   CWLS log ASCII Standard -VERSION 2.0
 WRAP.                   NO:   One line per depth step
~Well Information Block
#MNEM.UNIT     VALUE/NAME     DESCRIPTION
#---------     -----------    ---------------------------
 STRT.S             20:22:11 25-Dec-20: START TIME 20:22:11 25-Dec-20
 STOP.S             20:30:35 25-Dec-20: STOP TIME  20:30:35 25-Dec-20
 STEP.S                   0.00: STEP TIME
 NULL.                 -999.25: NULL VALUE
 DFWT.                        :  DIST FWL TEXT
 DFST.                        :  DIST FSL TEXT
 DMF .             Drill Floor:  DRILL MEAS FROM
 STIM.      04.54.24 22-Sep-20:  START TIME
 DATE.      04.54.24 21-Nov-20:  END TIME
 SPUD.               21-Nov-20:  SPUD DATE
 NREF.                    Grid:  NORTH REFERENCE
 HPTY.       Minimum Curvature:  HOLE POS TYPE
 DMOD.             Drill Model:  DRILL MOD DESC
 SVYD.                  Survey:  SURVEY DESC
 ILTD.               Lithology:  INTERP LTH DESC
 FTOP.          Formation Tops:  FORM TOPS DESC
 SON .        AZ-XX-0906571587:  JOB NUMBER
 COMP.     BP Exploration (Caspian Sea) Ltd:  COMPANY
 UWI .                     N/A:  UNIQUE WELL IDENTIFIER
 API .                     N/A:  API NUMBER
 BASE.              Azerbaijan:  LOGGING EQUIPMENT BASE LOCATION
 REGN.                   EESSA:  REGION
 PROV.                    Baku:  PROVINCE
 STAT.                    Baku:  STATE NAME
 CTRY.              Azerbaijan:  COUNTRY NAME
 FLD .                     ACG:  FIELD NAME
 SRVC.     TURAN Drilling & Engineering:  CONTRACTOR
 WELL.                     J27:  WELL NAME
 RIG .             West Chirag:  RIG NAME
 DOE .                     N/A:  DOE NUMBER
 DCON.         Sperry Drilling:  DIRECTNL CONTR
 PDAT.          Mean Sea Level:  PERMANENT DATUM
 WTYP.                Deviated:  WELL TYPE
 MWDS.                    Baku:  MWD SHOP
 JOBN.        AZ-XX-0906571587:  JOB TICKET NUMB
 UNIT.                     N/A:  LOGGING EQUIPMENT ID
 MDS .        Operator Entered:  MAG DATA SOURCE
 CNTY.                        :  COUNTY
 LOC .                        :  LOCATION
 LMF .             Drill Floor:  LOG MEASURED FROM
 TVDS.m                  43.00:  TVDSS CORRECTN
 LATI.deg                40.13:  LATITUDE
 LONG.deg                51.22:  LONGITUDE
 WHNS.m                   7.72:  WELL HEAD N/S
 WHEW.m                 -14.24:  WELL HEAD E/W
 UTMX.m              519005.06:  UTM X
 UTMY.m             4443793.85:  UTM Y
 DFWL.m                   0.00:  DISTANCE FWL
 DFSL.m                   0.00:  DISTANCE FSL
 SDEP.m                 347.00:  START DEPTH
 TDD .m                 581.00:  TOTAL DEPTH (DRILLER)
 VSDR.deg               159.72:  VERT SEC DIRECT
 GVFD.g                   1.00:  GRAVITY FIELD
 MFLD.nT              50318.00:  MAGNETIC FIELD
 MDIP.deg                59.57:  MAGNETIC DIP
 MDEC.deg                 6.44:  MAGNETIC DECL
 GRDC.deg                 0.15:  GRID CORRECTION
 AZTC.deg                 6.29:  AZM TOTAL CORR
 EPD .m                   0.00:  ELEVATION
 EGL .m                   0.00:  GROUND ELEVATION
 WDMS.m                 169.80:  WD ELEV
 APD .m                  43.00:  DEPTH ABOVE PD
 AGAP.m                  43.00:  AIR GAP
 VSEW.m                 -14.24:  VERT SEC E/W
 VSNS.m                   7.72:  VERT SEC N/S
 DEP .m                 342.45:  DEPTH
 EKB .m                   0.00:  KB ELEVATION
 EDF .m                  43.00:  DF ELEVATION
 TDL .m                 237.00:  TOTAL DEPTH (LOGGER)
 VSC .                       0:  VS TO CLOSURE
 MAGU.                 1851428:  MAGUTM CHECKSUM
~Parameter Information Block
#MNEM.UNIT       Value        Description
#---------     -----------    ---------------------------
 AV  .mps                 1.50:  Ann Velocity 
 AVMX.mps                 2.90:  Max Ann Veloc 
 AZIF.deg               115.59:  Azm, Final 
 BHAT.        Rotary Steerable:  BHA Type 
 BROT.°/30m               0.50:  Build Rotating 
 BS  .in                  8.50:  Bit Size 
 BTPL.psig              580.00:  Bit Press Loss 
 CABU.                     Yes:  Customer Abuse 
 COMM.                     ”Cf:  Run Comments 1 
 TCS .hr                 89.79:  Time Ciculation Ended 
 CV  .mps                 3.22:  Crit Velocity 
 CVMX.mps                 4.37:  Max Crit Veloc 
 DD1 .          Rashad Habibov:  Direct Drillr 1 
 DDSV.               Geo-Pilot:  DD Service 
 DEFF.%                  95.00:  % Det Eff 
 DLRX.°/30m               1.94:  Dogleg Rot Max 
 DLSO.°/30m               0.70:  Dogleg Oriented 
 DLSX.°/30m               1.94:  Dogleg Str Max 
 DRET.      04.45.00 25-Dec-20:  Drill End Time 
 DRST.      10.00.00 24-Dec-20:  Drill Start Tim 
 DTIM.hr                 16.64:  Time Drilling 
 EDEP.m                4999.01:  End Depth 
 ENG1.         Elchin Mammadov:  Engineer 1 
 ENG2.          Ruslan Safarov:  Engineer 2 
 ENG3.          Rustam Safarov:  Engineer 3 
 ETIM.      09.00.00 29-Dec-20:  End Time 
 FLOI.gpm               500.00:  Flow In 
 FLON.gpm               400.00:  Flow In Min 
 FLOS.cptm                0.00:  Fluid Loss 
 FLOX.gpm               500.00:  Flow In Max 
 HFLO.                      No:  High Flow 
 HPRE.                      No:  High Pressure 
 HTEM.                      No:  High Temp 
 HYDO.m                   2.00:  Hydro Offset 
 IFIN.deg                66.79:  Inc, Final 
 IMAX.deg                67.66:  Inc Max 
 IMIN.deg                66.39:  Inc Min 
 IMND.m                4949.37:  Inc Min Depth 
 IMXD.m                4778.63:  Inc Max Depth 
 JARR.                     Yes:  Jarring 
 LETM.      04.45.00 25-Dec-20:  Log End Time 
 LOST.hr                     0:  Lost Rig Time 
 LSTM.      10.00.00 24-Dec-20:  Log Start Time 
 MDCL.ppm             39000.00:  Mud Chlorides 
 MDES.     Inversion Oil/Synthetic:  Mud Desc 
 DFD .sg                  1.33:  Mud Density 
 MDMN.sg                  1.33:  Dens Mud Min 
 MDMX.sg                  1.33:  Dens Mud Max 
 MOIL.                      70:  Run Mud Oil % 
 MOWR.                   70:30:  Run Mud OWR 
 MSND.                       0:  Run Mud Sand % 
 MSOL.                    17.4:  Run Mud Solids% 
 DFV .spqt               84.00:  Mud Viscosity 
 MWOD.in                  6.75:  MWD Tool OD 
 MWSI.                     Yes:  Serv Intrp, MWD 
 OTIM.hr                168.14:  Time Operating 
 PCON.           Look Like New:  Pad Condition 
 PMAX.psia            10822.93:  Press Op, Max 
 PV  .cP                 30.00:  Mud PV 
 RUN .                     900:  Run Number 
 ROPA.m/hr               18.00:  ROP Avg 
 ROPN.m/hr               12.00:  ROP Min 
 ROPX.m/hr               25.00:  ROP Max 
 RPMA.rpm               120.00:  RPM Surface Avg 
 RPMN.rpm               100.00:  RPM Surface Min 
 RPMX.rpm               120.00:  RPM Surface Max 
 RRUN.                    0900:  Rig Run Number 
 SAZI.deg               115.08:  Azm, Start 
 SDEP.m                4762.01:  Start Depth 
 SIDD.                      No:  Serv Intrp, DD 
 SINC.deg                66.14:  Inc, Start 
 SPPA.psig             3700.00:  SPP Avg 
 SPPN.psig             3620.00:  SPP Min 
 SPPX.psig             3900.00:  SPP Max 
 STIM.      09.30.00 22-Dec-20:  Start Time 
 SVCS.                 DD, MWD:  Services 
 SVER.                    9.20:  Sperry Version 
 TDAT.m                 237.00:  Tot Depth Attmp 
 TDDF.                      No:  Trip for DD 
 TDLG.m                 237.00:  Tot Depth Loggd 
 TFF .                      No:  Trip for Fail 
 TQAA.f-kp               18.00:  Torque Abs Avg 
 TQAN.f-kp               17.00:  Torque Abs Min 
 TQAX.f-kp               20.00:  Torque Abs Max 
 TRRT.°/30m               0.60:  Turn Rotating 
 MRT .                    HCIM:  Maximum Recorded Temperature 
 TTMX.degC               94.12:  Max Tool Temp 
 VS01.                90627809:  Virtual Str1 SN 
 VS02.                90527813:  Virtual Str2 SN 
 VS03.                90545417:  Virtual Str3 SN 
 VS04.                12460870:  Virtual Str4 SN 
 VS05.                90516706:  Virtual Str5 SN 
 VS06.                90632007:  Virtual Str6 SN 
 WBMN.klb                 0.00:  WOB Min 
 WOBA.klb                14.00:  WOB Avg 
 WOBX.klb                25.00:  WOB Max 
 YP  .lhf2               32.00:  Yield Point 
~Curve Information Block
#MNEM.UNIT                 API CODE     Curve Description
#---------               -----------    ---------------------------
 TIME.HHMMSS            00 000 000 000:  GT Time & Date
 GTDEPTH.m              00 000 000 000:  GT Depth
 GTPQH.psia             00 000 000 000:  GT HR Quartz Pressure
 GTTQ.degC              00 000 000 000:  GT Quartz Temperature
 GTTN.NONE              00 000 000 000:  GT Test Number
 GTET.sec               00 000 000 000:  GT Elapsed Test Time
 GTTVD.m                00 000 000 000:  GT True Vertical Depth
#Other Information
#
#WARRANTY: Halliburton will use its best efforts to furnish customers with 
#accurate information and interpretations that are part of, and incident to, the services 
#provided.  However, Halliburton cannot and does not warrant the accuracy 
#or correctness of such information and interpretations.  Under no circumstances should any 
#such information or interpretation be relied upon as the sole basis for any drilling, 
#completion, production, or financial decision or any procedure involving any risk to the 
#safety of any drilling venture, drilling rig or its crew or any other third party.  The 
#Customer has full responsibility for all drilling, completion and production operation.  
#Halliburton makes no representations or warranties, either expressed or 
#implied, including, but not limited to, the implied warranties of merchantability or fitness 
#for a particular purpose, with respect to the services rendered.  In no event will 
#Halliburton be liable for failure to obtain any particular results or for 
#any damages, including, but not limited to, indirect, special or consequential damages, 
#resulting from the use of any information or interpretation provided by Halliburton.
#
~A           TIME           GTDEPTH  GTPQH  GTTQ  GTTN  GTET   GTTVD  
# ...
   20:24:52.868.25-Dec-2020 4794.01 2302.84 63.89 8.00 160.99 2496.73
   20:24:53.068.25-Dec-2020 4794.01 2303.81 63.89 8.00 161.19 2496.73
   20:24:53.268.25-Dec-2020 4794.01 2303.20 63.89 8.00 161.39 2496.73
   20:24:53.468.25-Dec-2020 4794.01 2303.17 63.89 8.00 161.59 2496.73
   20:24:53.668.25-Dec-2020 4794.01 2303.25 63.89 8.00 161.79 2496.73
   20:24:53.868.25-Dec-2020 4794.01 2303.29 63.89 8.00 161.99 2496.73
   20:24:54.068.25-Dec-2020 4794.01 2303.29 63.89 8.00 162.19 2496.73
   20:24:54.268.25-Dec-2020 4794.01 2303.44 63.89 8.00 162.39 2496.73
   20:24:54.468.25-Dec-2020 4794.01 2303.24 63.89 8.00 162.59 2496.73
   20:24:54.668.25-Dec-2020 4794.01 2303.33 63.89 8.00 162.79 2496.73
   20:24:54.868.25-Dec-2020 4794.01 2303.24 63.89 8.00 162.99 2496.73
   20:24:55.068.25-Dec-2020 4794.01 2303.24 63.89 8.00 163.19 2496.73
   20:24:55.268.25-Dec-2020 4794.01 2303.14 63.89 8.00 163.39 2496.73
   20:24:55.468.25-Dec-2020 4794.01 2303.45 63.89 8.00 163.59 2496.73
   20:24:55.668.25-Dec-2020 4794.01 2303.22 63.89 8.00 163.79 2496.73
   20:24:55.868.25-Dec-2020 4794.01 2303.22 63.89 8.00 163.99 2496.73
   20:24:56.068.25-Dec-2020 4794.01 2303.23 63.89 8.00 164.19 2496.73
   20:24:56.268.25-Dec-2020 4794.01 2303.24 63.89 8.00 164.39 2496.73
   20:24:56.468.25-Dec-2020 4794.01 2303.23 63.89 8.00 164.59 2496.73
   20:24:56.668.25-Dec-2020 4794.01 2303.25 63.89 8.00 164.79 2496.73
   20:24:56.868.25-Dec-2020 4794.01 2303.25 63.89 8.00 164.99 2496.73
   20:24:57.068.25-Dec-2020 4794.01 2303.23 63.89 8.00 165.19 2496.73
   20:24:57.268.25-Dec-2020 4794.01 2303.28 63.89 8.00 165.39 2496.73
   20:24:57.468.25-Dec-2020 4794.01 2302.74 63.89 8.00 165.59 2496.73
   20:24:57.668.25-Dec-2020 4794.01 2303.89 63.89 8.00 165.79 2496.73
   20:24:57.868.25-Dec-2020 4794.01 2303.17 63.89 8.00 165.99 2496.73
   20:24:58.068.25-Dec-2020 4794.01 2303.17 63.89 8.00 166.19 2496.73
   20:24:58.268.25-Dec-2020 4794.01 2303.29 63.89 8.00 166.39 2496.73
   20:24:58.468.25-Dec-2020 4794.01 2303.23 63.89 8.00 166.59 2496.73
   20:24:58.668.25-Dec-2020 4794.01 2303.24 63.89 8.00 166.79 2496.73
   20:24:58.868.25-Dec-2020 4794.01 2303.25 63.89 8.00 166.99 2496.73
   20:24:59.068.25-Dec-2020 4794.01 2303.25 63.89 8.00 167.19 2496.73
   20:24:59.268.25-Dec-2020 4794.01 2303.28 63.89 8.00 167.39 2496.73
   20:24:59.468.25-Dec-2020 4794.01 2303.24 63.89 8.00 167.59 2496.73
   20:24:59.668.25-Dec-2020 4794.01 2303.27 63.89 8.00 167.79 2496.73
   20:24:59.868.25-Dec-2020 4794.01 2302.92 63.89 8.00 167.99 2496.73
   20:25:00.068.25-Dec-2020 4794.01 2302.92 63.89 8.00 168.19 2496.73
   20:25:00.268.25-Dec-2020 4794.01 2303.12 63.89 8.00 168.39 2496.73
   20:25:00.468.25-Dec-2020 4794.01 2303.44 63.89 8.00 168.59 2496.73
   20:25:00.668.25-Dec-2020 4794.01 2303.14 63.89 8.00 168.79 2496.73
   20:25:00.868.25-Dec-2020 4794.01 2303.27 63.89 8.00 168.99 2496.73
   20:25:01.067.25-Dec-2020 4794.01 2302.91 63.89 8.00 169.19 2496.73
   20:25:01.267.25-Dec-2020 4794.01 2303.59 63.89 8.00 169.39 2496.73
   20:25:01.467.25-Dec-2020 4794.01 2303.19 63.89 8.00 169.59 2496.73
   20:25:01.667.25-Dec-2020 4794.01 2303.20 63.89 8.00 169.79 2496.73
   20:25:01.867.25-Dec-2020 4794.01 2303.32 63.89 8.00 169.99 2496.73
   20:25:02.067.25-Dec-2020 4794.01 2303.32 63.89 8.00 170.19 2496.73
   20:25:02.267.25-Dec-2020 4794.01 2303.27 63.89 8.00 170.39 2496.73
   20:25:02.467.25-Dec-2020 4794.01 2303.05 63.89 8.00 170.59 2496.73
   20:25:02.667.25-Dec-2020 4794.01 2303.49 63.89 8.00 170.79 2496.73
   20:25:02.867.25-Dec-2020 4794.01 2303.25 63.89 8.00 170.99 2496.73
   20:25:03.067.25-Dec-2020 4794.01 2303.25 63.89 8.00 171.19 2496.73
   20:25:03.267.25-Dec-2020 4794.01 2303.72 63.89 8.00 171.39 2496.73
   20:25:03.467.25-Dec-2020 4794.01 2303.02 63.89 8.00 171.59 2496.73
   20:25:03.667.25-Dec-2020 4794.01 2303.44 63.89 8.00 171.79 2496.73
   20:25:03.867.25-Dec-2020 4794.01 2303.13 63.89 8.00 171.99 2496.73
   20:25:04.067.25-Dec-2020 4794.01 2303.13 63.89 8.00 172.19 2496.73
   20:25:04.267.25-Dec-2020 4794.01 2303.27 63.89 8.00 172.39 2496.73
   20:25:04.467.25-Dec-2020 4794.01 2303.20 63.89 8.00 172.59 2496.73
   20:25:04.667.25-Dec-2020 4794.01 2303.23 63.89 8.00 172.79 2496.73
   20:25:04.867.25-Dec-2020 4794.01 2303.24 63.89 8.00 172.99 2496.73
   20:25:05.067.25-Dec-2020 4794.01 2303.19 63.89 8.00 173.19 2496.73
   20:25:05.267.25-Dec-2020 4794.01 2303.26 63.89 8.00 173.39 2496.73
   20:25:05.467.25-Dec-2020 4794.01 2303.24 63.89 8.00 173.59 2496.73
   20:25:05.667.25-Dec-2020 4794.01 2302.92 63.89 8.00 173.79 2496.73
   20:25:05.867.25-Dec-2020 4794.01 2303.64 63.89 8.00 173.99 2496.73
   20:25:06.067.25-Dec-2020 4794.01 2303.64 63.89 8.00 174.19 2496.73
   20:25:06.267.25-Dec-2020 4794.01 2303.25 63.89 8.00 174.39 2496.73
   20:25:06.467.25-Dec-2020 4794.01 2303.27 63.89 8.00 174.59 2496.73
   20:25:06.667.25-Dec-2020 4794.01 2303.15 63.89 8.00 174.79 2496.73
   20:25:06.867.25-Dec-2020 4794.01 2303.27 63.89 8.00 174.99 2496.73
   20:25:07.067.25-Dec-2020 4794.01 2303.27 63.89 8.00 175.19 2496.73
   20:25:07.267.25-Dec-2020 4794.01 2303.24 63.89 8.00 175.39 2496.73
   20:25:07.467.25-Dec-2020 4794.01 2303.27 63.89 8.00 175.59 2496.73
   20:25:07.667.25-Dec-2020 4794.01 2303.23 63.89 8.00 175.79 2496.73
   20:25:07.867.25-Dec-2020 4794.01 2303.28 63.89 8.00 175.99 2496.73
   20:25:08.067.25-Dec-2020 4794.01 2303.28 63.89 8.00 176.19 2496.73
   20:25:08.267.25-Dec-2020 4794.01 2303.88 63.89 8.00 176.39 2496.73
   20:25:08.467.25-Dec-2020 4794.01 2303.12 63.89 8.00 176.59 2496.73
   20:25:08.667.25-Dec-2020 4794.01 2303.17 63.89 8.00 176.79 2496.73
   20:25:08.867.25-Dec-2020 4794.01 2303.28 63.89 8.00 176.99 2496.73
   20:25:09.067.25-Dec-2020 4794.01 2303.28 63.89 8.00 177.19 2496.73
   20:25:09.267.25-Dec-2020 4794.01 2303.03 63.89 8.00 177.39 2496.73
   20:25:09.467.25-Dec-2020 4794.01 2303.33 63.89 8.00 177.59 2496.73
   20:25:09.667.25-Dec-2020 4794.01 2303.23 63.89 8.00 177.79 2496.73
   20:25:09.867.25-Dec-2020 4794.01 2303.35 63.89 8.00 177.99 2496.73
   20:25:10.067.25-Dec-2020 4794.01 2303.35 63.89 8.00 178.19 2496.73
   20:25:10.267.25-Dec-2020 4794.01 2302.88 63.89 8.00 178.39 2496.73
   20:25:10.467.25-Dec-2020 4794.01 2303.66 63.89 8.00 178.59 2496.73
   20:25:10.667.25-Dec-2020 4794.01 2302.95 63.89 8.00 178.79 2496.73
   20:25:10.867.25-Dec-2020 4794.01 2303.48 63.89 8.00 178.99 2496.73
   20:25:11.067.25-Dec-2020 4794.01 2303.48 63.89 8.00 179.19 2496.73
   20:25:11.267.25-Dec-2020 4794.01 2302.77 63.89 8.00 179.39 2496.73
   20:25:11.467.25-Dec-2020 4794.01 2303.85 63.89 8.00 179.59 2496.73
   20:25:11.667.25-Dec-2020 4794.01 2303.02 63.89 8.00 179.79 2496.73
   20:25:11.867.25-Dec-2020 4794.01 2303.24 63.89 8.00 179.99 2496.73
   20:25:12.067.25-Dec-2020 4794.01 2303.16 63.88 8.00 180.19 2496.73
   20:25:12.267.25-Dec-2020 4794.01 2303.21 63.89 8.00 180.39 2496.73
   20:25:12.467.25-Dec-2020 4794.01 2303.19 63.88 8.00 180.59 2496.73
   20:25:12.667.25-Dec-2020 4794.01 2303.18 63.88 8.00 180.79 2496.73
   20:25:12.867.25-Dec-2020 4794.01 2303.24 63.88 8.00 180.99 2496.73
   20:25:13.067.25-Dec-2020 4794.01 2303.17 63.88 8.00 181.19 2496.73
   20:25:13.267.25-Dec-2020 4794.01 2303.20 63.88 8.00 181.39 2496.73
   20:25:13.467.25-Dec-2020 4794.01 2303.24 63.88 8.00 181.59 2496.73
   20:25:13.667.25-Dec-2020 4794.01 2303.21 63.88 8.00 181.79 2496.73
   20:25:13.867.25-Dec-2020 4794.01 2303.10 63.88 8.00 181.99 2496.73
   20:25:14.067.25-Dec-2020 4794.01 2303.10 63.88 8.00 182.19 2496.73
   20:25:14.267.25-Dec-2020 4794.01 2303.25 63.88 8.00 182.39 2496.73
   20:25:14.467.25-Dec-2020 4794.01 2272.77 63.88 8.00 182.59 2496.73
   20:25:14.667.25-Dec-2020 4794.01 2137.23 63.88 8.00 182.79 2496.73
   20:25:14.867.25-Dec-2020 4794.01 2081.13 63.88 8.00 182.99 2496.73
   20:25:15.067.25-Dec-2020 4794.01 2081.13 63.88 8.00 183.19 2496.73
   20:25:15.267.25-Dec-2020 4794.01 2074.06 63.88 8.00 183.39 2496.73
   20:25:15.467.25-Dec-2020 4794.01 2081.86 63.88 8.00 183.59 2496.73
   20:25:15.667.25-Dec-2020 4794.01 2085.36 63.88 8.00 183.79 2496.73
