~Version Information
 VERS.                  2.0:   CWLS log ASCII Standard -VERSION 2.0
 WRAP.                   NO:   One line per depth step
~Well Information Block
#MNEM.UNIT     VALUE/NAME     DESCRIPTION
#---------     -----------    ---------------------------
 STRT.S             15:24:16 25-Dec-20: START TIME 15:24:16 25-Dec-20
 STOP.S             15:32:36 25-Dec-20: STOP TIME  15:32:36 25-Dec-20
 STEP.S                   0.00: STEP TIME
 NULL.                 -999.25: NULL VALUE
 DFWT.                        :  DIST FWL TEXT
 DFST.                        :  DIST FSL TEXT
 DMF .             Drill Floor:  DRILL MEAS FROM
 STIM.      04.54.24 22-Sep-20:  START TIME
 DATE.      04.54.24 21-Nov-20:  END TIME
 SPUD.               21-Nov-20:  SPUD DATE
 NREF.                    Grid:  NORTH REFERENCE
 HPTY.       Minimum Curvature:  HOLE POS TYPE
 DMOD.             Drill Model:  DRILL MOD DESC
 SVYD.                  Survey:  SURVEY DESC
 ILTD.               Lithology:  INTERP LTH DESC
 FTOP.          Formation Tops:  FORM TOPS DESC
 SON .        AZ-XX-0906571587:  JOB NUMBER
 COMP.     BP Exploration (Caspian Sea) Ltd:  COMPANY
 UWI .                     N/A:  UNIQUE WELL IDENTIFIER
 API .                     N/A:  API NUMBER
 BASE.              Azerbaijan:  LOGGING EQUIPMENT BASE LOCATION
 REGN.                   EESSA:  REGION
 PROV.                    Baku:  PROVINCE
 STAT.                    Baku:  STATE NAME
 CTRY.              Azerbaijan:  COUNTRY NAME
 FLD .                     ACG:  FIELD NAME
 SRVC.     TURAN Drilling & Engineering:  CONTRACTOR
 WELL.                     J27:  WELL NAME
 RIG .             West Chirag:  RIG NAME
 DOE .                     N/A:  DOE NUMBER
 DCON.         Sperry Drilling:  DIRECTNL CONTR
 PDAT.          Mean Sea Level:  PERMANENT DATUM
 WTYP.                Deviated:  WELL TYPE
 MWDS.                    Baku:  MWD SHOP
 JOBN.        AZ-XX-0906571587:  JOB TICKET NUMB
 UNIT.                     N/A:  LOGGING EQUIPMENT ID
 MDS .        Operator Entered:  MAG DATA SOURCE
 CNTY.                        :  COUNTY
 LOC .                        :  LOCATION
 LMF .             Drill Floor:  LOG MEASURED FROM
 TVDS.m                  43.00:  TVDSS CORRECTN
 LATI.deg                40.13:  LATITUDE
 LONG.deg                51.22:  LONGITUDE
 WHNS.m                   7.72:  WELL HEAD N/S
 WHEW.m                 -14.24:  WELL HEAD E/W
 UTMX.m              519005.06:  UTM X
 UTMY.m             4443793.85:  UTM Y
 DFWL.m                   0.00:  DISTANCE FWL
 DFSL.m                   0.00:  DISTANCE FSL
 SDEP.m                 347.00:  START DEPTH
 TDD .m                 581.00:  TOTAL DEPTH (DRILLER)
 VSDR.deg               159.72:  VERT SEC DIRECT
 GVFD.g                   1.00:  GRAVITY FIELD
 MFLD.nT              50318.00:  MAGNETIC FIELD
 MDIP.deg                59.57:  MAGNETIC DIP
 MDEC.deg                 6.44:  MAGNETIC DECL
 GRDC.deg                 0.15:  GRID CORRECTION
 AZTC.deg                 6.29:  AZM TOTAL CORR
 EPD .m                   0.00:  ELEVATION
 EGL .m                   0.00:  GROUND ELEVATION
 WDMS.m                 169.80:  WD ELEV
 APD .m                  43.00:  DEPTH ABOVE PD
 AGAP.m                  43.00:  AIR GAP
 VSEW.m                 -14.24:  VERT SEC E/W
 VSNS.m                   7.72:  VERT SEC N/S
 DEP .m                 342.45:  DEPTH
 EKB .m                   0.00:  KB ELEVATION
 EDF .m                  43.00:  DF ELEVATION
 TDL .m                 237.00:  TOTAL DEPTH (LOGGER)
 VSC .                       0:  VS TO CLOSURE
 MAGU.                 1851428:  MAGUTM CHECKSUM
~Parameter Information Block
#MNEM.UNIT       Value        Description
#---------     -----------    ---------------------------
 AV  .mps                 1.50:  Ann Velocity 
 AVMX.mps                 2.90:  Max Ann Veloc 
 AZIF.deg               115.59:  Azm, Final 
 BHAT.        Rotary Steerable:  BHA Type 
 BROT.°/30m               0.50:  Build Rotating 
 BS  .in                  8.50:  Bit Size 
 BTPL.psig              580.00:  Bit Press Loss 
 CABU.                     Yes:  Customer Abuse 
 TCS .hr                 89.79:  Time Ciculation Ended 
 CV  .mps                 3.22:  Crit Velocity 
 CVMX.mps                 4.37:  Max Crit Veloc 
 DD1 .          Rashad Habibov:  Direct Drillr 1 
 DDSV.               Geo-Pilot:  DD Service 
 DEFF.%                  95.00:  % Det Eff 
 DLRX.°/30m               1.94:  Dogleg Rot Max 
 DLSO.°/30m               0.70:  Dogleg Oriented 
 DLSX.°/30m               1.94:  Dogleg Str Max 
 DRET.      04.45.00 25-Dec-20:  Drill End Time 
 DRST.      10.00.00 24-Dec-20:  Drill Start Tim 
 DTIM.hr                 16.64:  Time Drilling 
 EDEP.m                4999.01:  End Depth 
 ENG1.         Elchin Mammadov:  Engineer 1 
 ENG2.          Ruslan Safarov:  Engineer 2 
 ENG3.          Rustam Safarov:  Engineer 3 
 ETIM.      09.00.00 29-Dec-20:  End Time 
 FLOI.gpm               500.00:  Flow In 
 FLON.gpm               400.00:  Flow In Min 
 FLOS.cptm                0.00:  Fluid Loss 
 FLOX.gpm               500.00:  Flow In Max 
 HFLO.                      No:  High Flow 
 HPRE.                      No:  High Pressure 
 HTEM.                      No:  High Temp 
 HYDO.m                   2.00:  Hydro Offset 
 IFIN.deg                66.79:  Inc, Final 
 IMAX.deg                67.66:  Inc Max 
 IMIN.deg                66.39:  Inc Min 
 IMND.m                4949.37:  Inc Min Depth 
 IMXD.m                4778.63:  Inc Max Depth 
 JARR.                     Yes:  Jarring 
 LETM.      04.45.00 25-Dec-20:  Log End Time 
 LOST.hr                     0:  Lost Rig Time 
 LSTM.      10.00.00 24-Dec-20:  Log Start Time 
 MDCL.ppm             39000.00:  Mud Chlorides 
 MDES.     Inversion Oil/Synthetic:  Mud Desc 
 DFD .sg                  1.33:  Mud Density 
 MDMN.sg                  1.33:  Dens Mud Min 
 MDMX.sg                  1.33:  Dens Mud Max 
 MOIL.                      70:  Run Mud Oil % 
 MOWR.                   70:30:  Run Mud OWR 
 MSND.                       0:  Run Mud Sand % 
 MSOL.                    17.4:  Run Mud Solids% 
 DFV .spqt               84.00:  Mud Viscosity 
 MWOD.in                  6.75:  MWD Tool OD 
 MWSI.                     Yes:  Serv Intrp, MWD 
 OTIM.hr                168.14:  Time Operating 
 PCON.           Look Like New:  Pad Condition 
 PMAX.psia            10822.93:  Press Op, Max 
 PV  .cP                 30.00:  Mud PV 
 RUN .                     900:  Run Number 
 ROPA.m/hr               18.00:  ROP Avg 
 ROPN.m/hr               12.00:  ROP Min 
 ROPX.m/hr               25.00:  ROP Max 
 RPMA.rpm               120.00:  RPM Surface Avg 
 RPMN.rpm               100.00:  RPM Surface Min 
 RPMX.rpm               120.00:  RPM Surface Max 
 RRUN.                    0900:  Rig Run Number 
 SAZI.deg               115.08:  Azm, Start 
 SDEP.m                4762.01:  Start Depth 
 SIDD.                      No:  Serv Intrp, DD 
 SINC.deg                66.14:  Inc, Start 
 SPPA.psig             3700.00:  SPP Avg 
 SPPN.psig             3620.00:  SPP Min 
 SPPX.psig             3900.00:  SPP Max 
 STIM.      09.30.00 22-Dec-20:  Start Time 
 SVCS.                 DD, MWD:  Services 
 SVER.                    9.20:  Sperry Version 
 TDAT.m                 237.00:  Tot Depth Attmp 
 TDDF.                      No:  Trip for DD 
 TDLG.m                 237.00:  Tot Depth Loggd 
 TFF .                      No:  Trip for Fail 
 TQAA.f-kp               18.00:  Torque Abs Avg 
 TQAN.f-kp               17.00:  Torque Abs Min 
 TQAX.f-kp               20.00:  Torque Abs Max 
 TRRT.°/30m               0.60:  Turn Rotating 
 MRT .                    HCIM:  Maximum Recorded Temperature 
 TTMX.degC               94.12:  Max Tool Temp 
 VS01.                90627809:  Virtual Str1 SN 
 VS02.                90527813:  Virtual Str2 SN 
 VS03.                90545417:  Virtual Str3 SN 
 VS04.                12460870:  Virtual Str4 SN 
 VS05.                90516706:  Virtual Str5 SN 
 VS06.                90632007:  Virtual Str6 SN 
 WBMN.klb                 0.00:  WOB Min 
 WOBA.klb                14.00:  WOB Avg 
 WOBX.klb                25.00:  WOB Max 
 YP  .lhf2               32.00:  Yield Point 
~Curve Information Block
#MNEM.UNIT                 API CODE     Curve Description
#---------               -----------    ---------------------------
 TIME.HHMMSS            00 000 000 000:  GT Time & Date
 GTDEPTH.m              00 000 000 000:  GT Depth
 GTPQH.psia             00 000 000 000:  GT HR Quartz Pressure
 GTTQ.degC              00 000 000 000:  GT Quartz Temperature
 GTTN.NONE              00 000 000 000:  GT Test Number
 GTET.sec               00 000 000 000:  GT Elapsed Test Time
 GTTVD.m                00 000 000 000:  GT True Vertical Depth
#Other Information
#
#WARRANTY: Halliburton will use its best efforts to furnish customers with 
#accurate information and interpretations that are part of, and incident to, the services 
#provided.  However, Halliburton cannot and does not warrant the accuracy 
#or correctness of such information and interpretations.  Under no circumstances should any 
#such information or interpretation be relied upon as the sole basis for any drilling, 
#completion, production, or financial decision or any procedure involving any risk to the 
#safety of any drilling venture, drilling rig or its crew or any other third party.  The 
#Customer has full responsibility for all drilling, completion and production operation.  
#Halliburton makes no representations or warranties, either expressed or 
#implied, including, but not limited to, the implied warranties of merchantability or fitness 
#for a particular purpose, with respect to the services rendered.  In no event will 
#Halliburton be liable for failure to obtain any particular results or for 
#any damages, including, but not limited to, indirect, special or consequential damages, 
#resulting from the use of any information or interpretation provided by Halliburton.
#
~A           TIME           GTDEPTH  GTPQH  GTTQ  GTTN  GTET   GTTVD  
# ...
   15:26:57.795.25-Dec-2020 4892.01 2718.66 65.37 4.00 161.04 2535.10
   15:26:57.995.25-Dec-2020 4892.01 2718.66 65.37 4.00 161.24 2535.10
   15:26:58.195.25-Dec-2020 4892.01 2718.62 65.37 4.00 161.44 2535.10
   15:26:58.395.25-Dec-2020 4892.01 2718.52 65.37 4.00 161.64 2535.10
   15:26:58.595.25-Dec-2020 4892.01 2718.40 65.37 4.00 161.84 2535.10
   15:26:58.795.25-Dec-2020 4892.01 2718.52 65.37 4.00 162.04 2535.10
   15:26:58.995.25-Dec-2020 4892.01 2718.52 65.37 4.00 162.24 2535.10
   15:26:59.195.25-Dec-2020 4892.01 2718.59 65.37 4.00 162.44 2535.10
   15:26:59.395.25-Dec-2020 4892.01 2718.57 65.37 4.00 162.64 2535.10
   15:26:59.596.25-Dec-2020 4892.01 2718.37 65.37 4.00 162.84 2535.10
   15:26:59.796.25-Dec-2020 4892.01 2718.62 65.37 4.00 163.04 2535.10
   15:26:59.996.25-Dec-2020 4892.01 2718.62 65.37 4.00 163.24 2535.10
   15:27:00.196.25-Dec-2020 4892.01 2718.44 65.37 4.00 163.44 2535.10
   15:27:00.396.25-Dec-2020 4892.01 2718.53 65.37 4.00 163.64 2535.10
   15:27:00.596.25-Dec-2020 4892.01 2718.46 65.37 4.00 163.84 2535.10
   15:27:00.796.25-Dec-2020 4892.01 2718.50 65.37 4.00 164.04 2535.10
   15:27:00.996.25-Dec-2020 4892.01 2718.50 65.37 4.00 164.24 2535.10
   15:27:01.196.25-Dec-2020 4892.01 2718.50 65.37 4.00 164.44 2535.10
   15:27:01.396.25-Dec-2020 4892.01 2718.50 65.37 4.00 164.64 2535.10
   15:27:01.596.25-Dec-2020 4892.01 2718.51 65.37 4.00 164.84 2535.10
   15:27:01.796.25-Dec-2020 4892.01 2718.51 65.37 4.00 165.04 2535.10
   15:27:01.996.25-Dec-2020 4892.01 2718.51 65.37 4.00 165.24 2535.10
   15:27:02.196.25-Dec-2020 4892.01 2718.50 65.37 4.00 165.44 2535.10
   15:27:02.396.25-Dec-2020 4892.01 2718.57 65.37 4.00 165.64 2535.10
   15:27:02.596.25-Dec-2020 4892.01 2718.59 65.37 4.00 165.84 2535.10
   15:27:02.796.25-Dec-2020 4892.01 2718.45 65.37 4.00 166.04 2535.10
   15:27:02.996.25-Dec-2020 4892.01 2718.45 65.37 4.00 166.24 2535.10
   15:27:03.196.25-Dec-2020 4892.01 2718.52 65.37 4.00 166.44 2535.10
   15:27:03.397.25-Dec-2020 4892.01 2718.51 65.37 4.00 166.64 2535.10
   15:27:03.597.25-Dec-2020 4892.01 2718.54 65.37 4.00 166.85 2535.10
   15:27:03.797.25-Dec-2020 4892.01 2718.50 65.37 4.00 167.05 2535.10
   15:27:03.997.25-Dec-2020 4892.01 2718.51 65.37 4.00 167.25 2535.10
   15:27:04.197.25-Dec-2020 4892.01 2718.51 65.37 4.00 167.45 2535.10
   15:27:04.397.25-Dec-2020 4892.01 2718.64 65.37 4.00 167.65 2535.10
   15:27:04.597.25-Dec-2020 4892.01 2718.38 65.37 4.00 167.85 2535.10
   15:27:04.797.25-Dec-2020 4892.01 2718.61 65.37 4.00 168.05 2535.10
   15:27:04.997.25-Dec-2020 4892.01 2718.61 65.37 4.00 168.25 2535.10
   15:27:05.197.25-Dec-2020 4892.01 2718.44 65.37 4.00 168.45 2535.10
   15:27:05.397.25-Dec-2020 4892.01 2718.53 65.37 4.00 168.65 2535.10
   15:27:05.597.25-Dec-2020 4892.01 2718.45 65.37 4.00 168.85 2535.10
   15:27:05.797.25-Dec-2020 4892.01 2718.56 65.37 4.00 169.05 2535.10
   15:27:05.997.25-Dec-2020 4892.01 2718.56 65.37 4.00 169.25 2535.10
   15:27:06.197.25-Dec-2020 4892.01 2718.61 65.37 4.00 169.45 2535.10
   15:27:06.397.25-Dec-2020 4892.01 2718.61 65.37 4.00 169.65 2535.10
   15:27:06.597.25-Dec-2020 4892.01 2718.34 65.37 4.00 169.85 2535.10
   15:27:06.797.25-Dec-2020 4892.01 2718.58 65.37 4.00 170.05 2535.10
   15:27:06.998.25-Dec-2020 4892.01 2718.58 65.37 4.00 170.25 2535.10
   15:27:07.198.25-Dec-2020 4892.01 2718.41 65.37 4.00 170.45 2535.10
   15:27:07.398.25-Dec-2020 4892.01 2718.58 65.37 4.00 170.65 2535.10
   15:27:07.598.25-Dec-2020 4892.01 2718.55 65.37 4.00 170.85 2535.10
   15:27:07.798.25-Dec-2020 4892.01 2718.42 65.37 4.00 171.05 2535.10
   15:27:07.998.25-Dec-2020 4892.01 2718.50 65.37 4.00 171.25 2535.10
   15:27:08.198.25-Dec-2020 4892.01 2718.48 65.37 4.00 171.45 2535.10
   15:27:08.398.25-Dec-2020 4892.01 2718.48 65.37 4.00 171.65 2535.10
   15:27:08.598.25-Dec-2020 4892.01 2718.51 65.37 4.00 171.85 2535.10
   15:27:08.798.25-Dec-2020 4892.01 2718.48 65.37 4.00 172.05 2535.10
   15:27:08.998.25-Dec-2020 4892.01 2718.48 65.37 4.00 172.25 2535.10
   15:27:09.198.25-Dec-2020 4892.01 2718.50 65.37 4.00 172.45 2535.10
   15:27:09.398.25-Dec-2020 4892.01 2718.37 65.37 4.00 172.65 2535.10
   15:27:09.598.25-Dec-2020 4892.01 2718.70 65.37 4.00 172.85 2535.10
   15:27:09.798.25-Dec-2020 4892.01 2718.61 65.37 4.00 173.05 2535.10
   15:27:09.998.25-Dec-2020 4892.01 2718.61 65.37 4.00 173.25 2535.10
   15:27:10.198.25-Dec-2020 4892.01 2718.62 65.37 4.00 173.45 2535.10
   15:27:10.398.25-Dec-2020 4892.01 2718.47 65.37 4.00 173.65 2535.10
   15:27:10.598.25-Dec-2020 4892.01 2718.45 65.37 4.00 173.85 2535.10
   15:27:10.799.25-Dec-2020 4892.01 2718.53 65.37 4.00 174.05 2535.10
   15:27:10.999.25-Dec-2020 4892.01 2718.53 65.37 4.00 174.25 2535.10
   15:27:11.199.25-Dec-2020 4892.01 2718.50 65.37 4.00 174.45 2535.10
   15:27:11.399.25-Dec-2020 4892.01 2718.49 65.37 4.00 174.65 2535.10
   15:27:11.599.25-Dec-2020 4892.01 2718.50 65.37 4.00 174.85 2535.10
   15:27:11.799.25-Dec-2020 4892.01 2718.49 65.37 4.00 175.05 2535.10
   15:27:11.999.25-Dec-2020 4892.01 2718.48 65.37 4.00 175.25 2535.10
   15:27:12.199.25-Dec-2020 4892.01 2718.48 65.37 4.00 175.45 2535.10
   15:27:12.399.25-Dec-2020 4892.01 2718.55 65.37 4.00 175.65 2535.10
   15:27:12.599.25-Dec-2020 4892.01 2718.57 65.37 4.00 175.85 2535.10
   15:27:12.799.25-Dec-2020 4892.01 2718.31 65.37 4.00 176.05 2535.10
   15:27:12.999.25-Dec-2020 4892.01 2718.31 65.37 4.00 176.25 2535.10
   15:27:13.199.25-Dec-2020 4892.01 2718.61 65.37 4.00 176.45 2535.10
   15:27:13.399.25-Dec-2020 4892.01 2718.31 65.37 4.00 176.65 2535.10
   15:27:13.599.25-Dec-2020 4892.01 2718.62 65.37 4.00 176.85 2535.10
   15:27:13.799.25-Dec-2020 4892.01 2718.64 65.37 4.00 177.05 2535.10
   15:27:13.999.25-Dec-2020 4892.01 2718.64 65.37 4.00 177.25 2535.10
   15:27:14.199.25-Dec-2020 4892.01 2718.30 65.37 4.00 177.45 2535.10
   15:27:14.400.25-Dec-2020 4892.01 2718.35 65.37 4.00 177.65 2535.10
   15:27:14.600.25-Dec-2020 4892.01 2718.67 65.37 4.00 177.85 2535.10
   15:27:14.800.25-Dec-2020 4892.01 2718.53 65.37 4.00 178.05 2535.10
   15:27:15.000.25-Dec-2020 4892.01 2718.53 65.37 4.00 178.25 2535.10
   15:27:15.200.25-Dec-2020 4892.01 2718.58 65.37 4.00 178.45 2535.10
   15:27:15.400.25-Dec-2020 4892.01 2718.45 65.37 4.00 178.65 2535.10
   15:27:15.600.25-Dec-2020 4892.01 2718.43 65.37 4.00 178.85 2535.10
   15:27:15.800.25-Dec-2020 4892.01 2718.50 65.37 4.00 179.05 2535.10
   15:27:16.000.25-Dec-2020 4892.01 2718.48 65.37 4.00 179.25 2535.10
   15:27:16.200.25-Dec-2020 4892.01 2675.48 65.37 4.00 179.45 2535.10
   15:27:16.400.25-Dec-2020 4892.01 2646.84 65.37 4.00 179.65 2535.10
   15:27:16.600.25-Dec-2020 4892.01 2639.34 65.37 4.00 179.85 2535.10
   15:27:16.800.25-Dec-2020 4892.01 2633.04 65.37 4.00 180.05 2535.10
   15:27:17.000.25-Dec-2020 4892.01 2633.04 65.37 4.00 180.25 2535.10
   15:27:17.200.25-Dec-2020 4892.01 2632.10 65.37 4.00 180.45 2535.10
   15:27:17.400.25-Dec-2020 4892.01 2627.38 65.37 4.00 180.65 2535.10
   15:27:17.600.25-Dec-2020 4892.01 2627.13 65.37 4.00 180.85 2535.10
   15:27:17.800.25-Dec-2020 4892.01 2624.65 65.37 4.00 181.05 2535.10
   15:27:18.000.25-Dec-2020 4892.01 2624.65 65.37 4.00 181.25 2535.10
   15:27:18.201.25-Dec-2020 4892.01 2621.09 65.37 4.00 181.45 2535.10
   15:27:18.401.25-Dec-2020 4892.01 2618.82 65.37 4.00 181.65 2535.10
   15:27:18.601.25-Dec-2020 4892.01 2618.13 65.37 4.00 181.85 2535.10
   15:27:18.801.25-Dec-2020 4892.01 2615.99 65.37 4.00 182.05 2535.10
   15:27:19.001.25-Dec-2020 4892.01 2615.99 65.37 4.00 182.25 2535.10
   15:27:19.201.25-Dec-2020 4892.01 2614.74 65.37 4.00 182.45 2535.10
   15:27:19.401.25-Dec-2020 4892.01 2615.01 65.37 4.00 182.65 2535.10
   15:27:19.601.25-Dec-2020 4892.01 2623.77 65.37 4.00 182.85 2535.10
   15:27:19.801.25-Dec-2020 4892.01 2618.97 65.37 4.00 183.05 2535.10
   15:27:20.001.25-Dec-2020 4892.01 2618.97 65.37 4.00 183.25 2535.10
   15:27:20.201.25-Dec-2020 4892.01 2612.24 65.37 4.00 183.45 2535.10
   15:27:20.401.25-Dec-2020 4892.01 2610.04 65.37 4.00 183.65 2535.10
   15:27:20.601.25-Dec-2020 4892.01 2611.40 65.37 4.00 183.85 2535.10
