~Version Information
 VERS.                  2.0:   CWLS log ASCII Standard -VERSION 2.0
 WRAP.                   NO:   One line per depth step
~Well Information Block
#MNEM.UNIT     VALUE/NAME     DESCRIPTION
#---------     -----------    ---------------------------
 STRT.S             19:12:01 25-Dec-20: START TIME 19:12:01 25-Dec-20
 STOP.S             19:20:19 25-Dec-20: STOP TIME  19:20:19 25-Dec-20
 STEP.S                   0.00: STEP TIME
 NULL.                 -999.25: NULL VALUE
 DFWT.                        :  DIST FWL TEXT
 DFST.                        :  DIST FSL TEXT
 DMF .             Drill Floor:  DRILL MEAS FROM
 STIM.      04.54.24 22-Sep-20:  START TIME
 DATE.      04.54.24 21-Nov-20:  END TIME
 SPUD.               21-Nov-20:  SPUD DATE
 NREF.                    Grid:  NORTH REFERENCE
 HPTY.       Minimum Curvature:  HOLE POS TYPE
 DMOD.             Drill Model:  DRILL MOD DESC
 SVYD.                  Survey:  SURVEY DESC
 ILTD.               Lithology:  INTERP LTH DESC
 FTOP.          Formation Tops:  FORM TOPS DESC
 SON .        AZ-XX-0906571587:  JOB NUMBER
 COMP.     BP Exploration (Caspian Sea) Ltd:  COMPANY
 UWI .                     N/A:  UNIQUE WELL IDENTIFIER
 API .                     N/A:  API NUMBER
 BASE.              Azerbaijan:  LOGGING EQUIPMENT BASE LOCATION
 REGN.                   EESSA:  REGION
 PROV.                    Baku:  PROVINCE
 STAT.                    Baku:  STATE NAME
 CTRY.              Azerbaijan:  COUNTRY NAME
 FLD .                     ACG:  FIELD NAME
 SRVC.     TURAN Drilling & Engineering:  CONTRACTOR
 WELL.                     J27:  WELL NAME
 RIG .             West Chirag:  RIG NAME
 DOE .                     N/A:  DOE NUMBER
 DCON.         Sperry Drilling:  DIRECTNL CONTR
 PDAT.          Mean Sea Level:  PERMANENT DATUM
 WTYP.                Deviated:  WELL TYPE
 MWDS.                    Baku:  MWD SHOP
 JOBN.        AZ-XX-0906571587:  JOB TICKET NUMB
 UNIT.                     N/A:  LOGGING EQUIPMENT ID
 MDS .        Operator Entered:  MAG DATA SOURCE
 CNTY.                        :  COUNTY
 LOC .                        :  LOCATION
 LMF .             Drill Floor:  LOG MEASURED FROM
 TVDS.m                  43.00:  TVDSS CORRECTN
 LATI.deg                40.13:  LATITUDE
 LONG.deg                51.22:  LONGITUDE
 WHNS.m                   7.72:  WELL HEAD N/S
 WHEW.m                 -14.24:  WELL HEAD E/W
 UTMX.m              519005.06:  UTM X
 UTMY.m             4443793.85:  UTM Y
 DFWL.m                   0.00:  DISTANCE FWL
 DFSL.m                   0.00:  DISTANCE FSL
 SDEP.m                 347.00:  START DEPTH
 TDD .m                 581.00:  TOTAL DEPTH (DRILLER)
 VSDR.deg               159.72:  VERT SEC DIRECT
 GVFD.g                   1.00:  GRAVITY FIELD
 MFLD.nT              50318.00:  MAGNETIC FIELD
 MDIP.deg                59.57:  MAGNETIC DIP
 MDEC.deg                 6.44:  MAGNETIC DECL
 GRDC.deg                 0.15:  GRID CORRECTION
 AZTC.deg                 6.29:  AZM TOTAL CORR
 EPD .m                   0.00:  ELEVATION
 EGL .m                   0.00:  GROUND ELEVATION
 WDMS.m                 169.80:  WD ELEV
 APD .m                  43.00:  DEPTH ABOVE PD
 AGAP.m                  43.00:  AIR GAP
 VSEW.m                 -14.24:  VERT SEC E/W
 VSNS.m                   7.72:  VERT SEC N/S
 DEP .m                 342.45:  DEPTH
 EKB .m                   0.00:  KB ELEVATION
 EDF .m                  43.00:  DF ELEVATION
 TDL .m                 237.00:  TOTAL DEPTH (LOGGER)
 VSC .                       0:  VS TO CLOSURE
 MAGU.                 1851428:  MAGUTM CHECKSUM
~Parameter Information Block
#MNEM.UNIT       Value        Description
#---------     -----------    ---------------------------
 AV  .mps                 1.50:  Ann Velocity 
 AVMX.mps                 2.90:  Max Ann Veloc 
 AZIF.deg               115.59:  Azm, Final 
 BHAT.        Rotary Steerable:  BHA Type 
 BROT.°/30m               0.50:  Build Rotating 
 BS  .in                  8.50:  Bit Size 
 BTPL.psig              580.00:  Bit Press Loss 
 CABU.                     Yes:  Customer Abuse 
 COMM.                     Ìt:  Run Comments 1 
 TCS .hr                 89.79:  Time Ciculation Ended 
 CV  .mps                 3.22:  Crit Velocity 
 CVMX.mps                 4.37:  Max Crit Veloc 
 DD1 .          Rashad Habibov:  Direct Drillr 1 
 DDSV.               Geo-Pilot:  DD Service 
 DEFF.%                  95.00:  % Det Eff 
 DLRX.°/30m               1.94:  Dogleg Rot Max 
 DLSO.°/30m               0.70:  Dogleg Oriented 
 DLSX.°/30m               1.94:  Dogleg Str Max 
 DRET.      04.45.00 25-Dec-20:  Drill End Time 
 DRST.      10.00.00 24-Dec-20:  Drill Start Tim 
 DTIM.hr                 16.64:  Time Drilling 
 EDEP.m                4999.01:  End Depth 
 ENG1.         Elchin Mammadov:  Engineer 1 
 ENG2.          Ruslan Safarov:  Engineer 2 
 ENG3.          Rustam Safarov:  Engineer 3 
 ETIM.      09.00.00 29-Dec-20:  End Time 
 FLOI.gpm               500.00:  Flow In 
 FLON.gpm               400.00:  Flow In Min 
 FLOS.cptm                0.00:  Fluid Loss 
 FLOX.gpm               500.00:  Flow In Max 
 HFLO.                      No:  High Flow 
 HPRE.                      No:  High Pressure 
 HTEM.                      No:  High Temp 
 HYDO.m                   2.00:  Hydro Offset 
 IFIN.deg                66.79:  Inc, Final 
 IMAX.deg                67.66:  Inc Max 
 IMIN.deg                66.39:  Inc Min 
 IMND.m                4949.37:  Inc Min Depth 
 IMXD.m                4778.63:  Inc Max Depth 
 JARR.                     Yes:  Jarring 
 LETM.      04.45.00 25-Dec-20:  Log End Time 
 LOST.hr                     0:  Lost Rig Time 
 LSTM.      10.00.00 24-Dec-20:  Log Start Time 
 MDCL.ppm             39000.00:  Mud Chlorides 
 MDES.     Inversion Oil/Synthetic:  Mud Desc 
 DFD .sg                  1.33:  Mud Density 
 MDMN.sg                  1.33:  Dens Mud Min 
 MDMX.sg                  1.33:  Dens Mud Max 
 MOIL.                      70:  Run Mud Oil % 
 MOWR.                   70:30:  Run Mud OWR 
 MSND.                       0:  Run Mud Sand % 
 MSOL.                    17.4:  Run Mud Solids% 
 DFV .spqt               84.00:  Mud Viscosity 
 MWOD.in                  6.75:  MWD Tool OD 
 MWSI.                     Yes:  Serv Intrp, MWD 
 OTIM.hr                168.14:  Time Operating 
 PCON.           Look Like New:  Pad Condition 
 PMAX.psia            10822.93:  Press Op, Max 
 PV  .cP                 30.00:  Mud PV 
 RUN .                     900:  Run Number 
 ROPA.m/hr               18.00:  ROP Avg 
 ROPN.m/hr               12.00:  ROP Min 
 ROPX.m/hr               25.00:  ROP Max 
 RPMA.rpm               120.00:  RPM Surface Avg 
 RPMN.rpm               100.00:  RPM Surface Min 
 RPMX.rpm               120.00:  RPM Surface Max 
 RRUN.                    0900:  Rig Run Number 
 SAZI.deg               115.08:  Azm, Start 
 SDEP.m                4762.01:  Start Depth 
 SIDD.                      No:  Serv Intrp, DD 
 SINC.deg                66.14:  Inc, Start 
 SPPA.psig             3700.00:  SPP Avg 
 SPPN.psig             3620.00:  SPP Min 
 SPPX.psig             3900.00:  SPP Max 
 STIM.      09.30.00 22-Dec-20:  Start Time 
 SVCS.                 DD, MWD:  Services 
 SVER.                    9.20:  Sperry Version 
 TDAT.m                 237.00:  Tot Depth Attmp 
 TDDF.                      No:  Trip for DD 
 TDLG.m                 237.00:  Tot Depth Loggd 
 TFF .                      No:  Trip for Fail 
 TQAA.f-kp               18.00:  Torque Abs Avg 
 TQAN.f-kp               17.00:  Torque Abs Min 
 TQAX.f-kp               20.00:  Torque Abs Max 
 TRRT.°/30m               0.60:  Turn Rotating 
 MRT .                    HCIM:  Maximum Recorded Temperature 
 TTMX.degC               94.12:  Max Tool Temp 
 VS01.                90627809:  Virtual Str1 SN 
 VS02.                90527813:  Virtual Str2 SN 
 VS03.                90545417:  Virtual Str3 SN 
 VS04.                12460870:  Virtual Str4 SN 
 VS05.                90516706:  Virtual Str5 SN 
 VS06.                90632007:  Virtual Str6 SN 
 WBMN.klb                 0.00:  WOB Min 
 WOBA.klb                14.00:  WOB Avg 
 WOBX.klb                25.00:  WOB Max 
 YP  .lhf2               32.00:  Yield Point 
~Curve Information Block
#MNEM.UNIT                 API CODE     Curve Description
#---------               -----------    ---------------------------
 TIME.HHMMSS            00 000 000 000:  GT Time & Date
 GTDEPTH.m              00 000 000 000:  GT Depth
 GTPQH.psia             00 000 000 000:  GT HR Quartz Pressure
 GTTQ.degC              00 000 000 000:  GT Quartz Temperature
 GTTN.NONE              00 000 000 000:  GT Test Number
 GTET.sec               00 000 000 000:  GT Elapsed Test Time
 GTTVD.m                00 000 000 000:  GT True Vertical Depth
#Other Information
#
#WARRANTY: Halliburton will use its best efforts to furnish customers with 
#accurate information and interpretations that are part of, and incident to, the services 
#provided.  However, Halliburton cannot and does not warrant the accuracy 
#or correctness of such information and interpretations.  Under no circumstances should any 
#such information or interpretation be relied upon as the sole basis for any drilling, 
#completion, production, or financial decision or any procedure involving any risk to the 
#safety of any drilling venture, drilling rig or its crew or any other third party.  The 
#Customer has full responsibility for all drilling, completion and production operation.  
#Halliburton makes no representations or warranties, either expressed or 
#implied, including, but not limited to, the implied warranties of merchantability or fitness 
#for a particular purpose, with respect to the services rendered.  In no event will 
#Halliburton be liable for failure to obtain any particular results or for 
#any damages, including, but not limited to, indirect, special or consequential damages, 
#resulting from the use of any information or interpretation provided by Halliburton.
#
~A           TIME           GTDEPTH  GTPQH  GTTQ  GTTN  GTET   GTTVD  
# ...
   19:16:14.321.25-Dec-2020 4808.01 2305.02 63.87 7.00 253.20 2502.07
   19:16:14.521.25-Dec-2020 4808.01 2305.02 63.87 7.00 253.40 2502.07
   19:16:14.721.25-Dec-2020 4808.01 2305.07 63.87 7.00 253.60 2502.07
   19:16:14.921.25-Dec-2020 4808.01 2304.90 63.87 7.00 253.80 2502.07
   19:16:15.121.25-Dec-2020 4808.01 2304.96 63.87 7.00 254.00 2502.07
   19:16:15.322.25-Dec-2020 4808.01 2304.99 63.87 7.00 254.20 2502.07
   19:16:15.522.25-Dec-2020 4808.01 2304.99 63.87 7.00 254.40 2502.07
   19:16:15.722.25-Dec-2020 4808.01 2305.02 63.87 7.00 254.60 2502.07
   19:16:15.922.25-Dec-2020 4808.01 2304.95 63.87 7.00 254.80 2502.07
   19:16:16.122.25-Dec-2020 4808.01 2304.97 63.87 7.00 255.00 2502.07
   19:16:16.322.25-Dec-2020 4808.01 2305.04 63.87 7.00 255.20 2502.07
   19:16:16.523.25-Dec-2020 4808.01 2305.04 63.87 7.00 255.40 2502.07
   19:16:16.723.25-Dec-2020 4808.01 2304.28 63.87 7.00 255.60 2502.07
   19:16:16.923.25-Dec-2020 4808.01 2305.20 63.87 7.00 255.80 2502.07
   19:16:17.123.25-Dec-2020 4808.01 2304.45 63.87 7.00 256.00 2502.07
   19:16:17.323.25-Dec-2020 4808.01 2305.05 63.87 7.00 256.20 2502.07
   19:16:17.523.25-Dec-2020 4808.01 2305.05 63.87 7.00 256.40 2502.07
   19:16:17.723.25-Dec-2020 4808.01 2304.24 63.87 7.00 256.60 2502.07
   19:16:17.924.25-Dec-2020 4808.01 2305.36 63.87 7.00 256.80 2502.07
   19:16:18.124.25-Dec-2020 4808.01 2304.87 63.87 7.00 257.00 2502.07
   19:16:18.324.25-Dec-2020 4808.01 2304.10 63.87 7.00 257.20 2502.07
   19:16:18.524.25-Dec-2020 4808.01 2304.10 63.87 7.00 257.40 2502.07
   19:16:18.724.25-Dec-2020 4808.01 2304.81 63.87 7.00 257.60 2502.07
   19:16:18.924.25-Dec-2020 4808.01 2304.90 63.87 7.00 257.80 2502.07
   19:16:19.125.25-Dec-2020 4808.01 2304.94 63.87 7.00 258.00 2502.07
   19:16:19.325.25-Dec-2020 4808.01 2304.98 63.87 7.00 258.20 2502.07
   19:16:19.525.25-Dec-2020 4808.01 2304.98 63.87 7.00 258.40 2502.07
   19:16:19.725.25-Dec-2020 4808.01 2305.01 63.87 7.00 258.60 2502.07
   19:16:19.925.25-Dec-2020 4808.01 2304.97 63.87 7.00 258.80 2502.07
   19:16:20.125.25-Dec-2020 4808.01 2304.92 63.87 7.00 259.00 2502.07
   19:16:20.326.25-Dec-2020 4808.01 2305.01 63.87 7.00 259.20 2502.07
   19:16:20.526.25-Dec-2020 4808.01 2305.01 63.87 7.00 259.40 2502.07
   19:16:20.726.25-Dec-2020 4808.01 2304.97 63.87 7.00 259.61 2502.07
   19:16:20.926.25-Dec-2020 4808.01 2304.17 63.87 7.00 259.81 2502.07
   19:16:21.126.25-Dec-2020 4808.01 2305.12 63.87 7.00 260.01 2502.07
   19:16:21.326.25-Dec-2020 4808.01 2305.07 63.87 7.00 260.21 2502.07
   19:16:21.526.25-Dec-2020 4808.01 2305.07 63.87 7.00 260.41 2502.07
   19:16:21.727.25-Dec-2020 4808.01 2304.96 63.87 7.00 260.61 2502.07
   19:16:21.927.25-Dec-2020 4808.01 2304.98 63.87 7.00 260.81 2502.07
   19:16:22.127.25-Dec-2020 4808.01 2304.99 63.87 7.00 261.01 2502.07
   19:16:22.327.25-Dec-2020 4808.01 2305.03 63.87 7.00 261.21 2502.07
   19:16:22.527.25-Dec-2020 4808.01 2305.03 63.87 7.00 261.41 2502.07
   19:16:22.727.25-Dec-2020 4808.01 2304.97 63.87 7.00 261.61 2502.07
   19:16:22.928.25-Dec-2020 4808.01 2305.04 63.87 7.00 261.81 2502.07
   19:16:23.128.25-Dec-2020 4808.01 2304.98 63.87 7.00 262.01 2502.07
   19:16:23.328.25-Dec-2020 4808.01 2304.13 63.87 7.00 262.21 2502.07
   19:16:23.528.25-Dec-2020 4808.01 2304.13 63.87 7.00 262.41 2502.07
   19:16:23.728.25-Dec-2020 4808.01 2304.98 63.87 7.00 262.61 2502.07
   19:16:23.928.25-Dec-2020 4808.01 2304.31 63.87 7.00 262.81 2502.07
   19:16:24.129.25-Dec-2020 4808.01 2305.25 63.87 7.00 263.01 2502.07
   19:16:24.329.25-Dec-2020 4808.01 2305.11 63.87 7.00 263.21 2502.07
   19:16:24.529.25-Dec-2020 4808.01 2305.11 63.87 7.00 263.41 2502.07
   19:16:24.729.25-Dec-2020 4808.01 2305.23 63.87 7.00 263.61 2502.07
   19:16:24.929.25-Dec-2020 4808.01 2304.76 63.87 7.00 263.81 2502.07
   19:16:25.129.25-Dec-2020 4808.01 2305.07 63.87 7.00 264.01 2502.07
   19:16:25.329.25-Dec-2020 4808.01 2305.04 63.87 7.00 264.21 2502.07
   19:16:25.530.25-Dec-2020 4808.01 2305.04 63.87 7.00 264.41 2502.07
   19:16:25.730.25-Dec-2020 4808.01 2304.95 63.87 7.00 264.61 2502.07
   19:16:25.930.25-Dec-2020 4808.01 2305.06 63.87 7.00 264.81 2502.07
   19:16:26.130.25-Dec-2020 4808.01 2304.96 63.87 7.00 265.01 2502.07
   19:16:26.330.25-Dec-2020 4808.01 2305.01 63.87 7.00 265.21 2502.07
   19:16:26.530.25-Dec-2020 4808.01 2305.01 63.87 7.00 265.41 2502.07
   19:16:26.731.25-Dec-2020 4808.01 2304.97 63.87 7.00 265.61 2502.07
   19:16:26.931.25-Dec-2020 4808.01 2305.00 63.87 7.00 265.81 2502.07
   19:16:27.131.25-Dec-2020 4808.01 2304.99 63.87 7.00 266.01 2502.07
   19:16:27.331.25-Dec-2020 4808.01 2305.01 63.87 7.00 266.21 2502.07
   19:16:27.531.25-Dec-2020 4808.01 2305.01 63.87 7.00 266.41 2502.07
   19:16:27.731.25-Dec-2020 4808.01 2305.35 63.87 7.00 266.61 2502.07
   19:16:27.932.25-Dec-2020 4808.01 2304.89 63.87 7.00 266.81 2502.07
   19:16:28.132.25-Dec-2020 4808.01 2304.99 63.87 7.00 267.01 2502.07
   19:16:28.332.25-Dec-2020 4808.01 2305.02 63.87 7.00 267.21 2502.07
   19:16:28.532.25-Dec-2020 4808.01 2305.02 63.87 7.00 267.41 2502.07
   19:16:28.732.25-Dec-2020 4808.01 2305.02 63.87 7.00 267.61 2502.07
   19:16:28.932.25-Dec-2020 4808.01 2305.06 63.87 7.00 267.81 2502.07
   19:16:29.132.25-Dec-2020 4808.01 2304.99 63.87 7.00 268.01 2502.07
   19:16:29.333.25-Dec-2020 4808.01 2304.99 63.87 7.00 268.21 2502.07
   19:16:29.533.25-Dec-2020 4808.01 2304.99 63.87 7.00 268.41 2502.07
   19:16:29.733.25-Dec-2020 4808.01 2305.01 63.87 7.00 268.61 2502.07
   19:16:29.933.25-Dec-2020 4808.01 2304.47 63.87 7.00 268.81 2502.07
   19:16:30.133.25-Dec-2020 4808.01 2305.07 63.87 7.00 269.01 2502.07
   19:16:30.333.25-Dec-2020 4808.01 2305.02 63.87 7.00 269.21 2502.07
   19:16:30.534.25-Dec-2020 4808.01 2304.27 63.87 7.00 269.41 2502.07
   19:16:30.734.25-Dec-2020 4808.01 2305.32 63.87 7.00 269.61 2502.07
   19:16:30.934.25-Dec-2020 4808.01 2304.87 63.87 7.00 269.81 2502.07
   19:16:31.134.25-Dec-2020 4808.01 2304.29 63.87 7.00 270.01 2502.07
   19:16:31.334.25-Dec-2020 4808.01 2305.12 63.87 7.00 270.21 2502.07
   19:16:31.534.25-Dec-2020 4808.01 2305.12 63.87 7.00 270.41 2502.07
   19:16:31.735.25-Dec-2020 4808.01 2304.37 63.87 7.00 270.61 2502.07
   19:16:31.935.25-Dec-2020 4808.01 2305.56 63.87 7.00 270.81 2502.07
   19:16:32.135.25-Dec-2020 4808.01 2305.29 63.87 7.00 271.01 2502.07
   19:16:32.335.25-Dec-2020 4808.01 2305.13 63.87 7.00 271.21 2502.07
   19:16:32.535.25-Dec-2020 4808.01 2305.13 63.87 7.00 271.41 2502.07
   19:16:32.735.25-Dec-2020 4808.01 2305.05 63.87 7.00 271.61 2502.07
   19:16:32.935.25-Dec-2020 4808.01 2305.06 63.87 7.00 271.81 2502.07
   19:16:33.136.25-Dec-2020 4808.01 2305.05 63.87 7.00 272.01 2502.07
   19:16:33.336.25-Dec-2020 4808.01 2305.04 63.87 7.00 272.21 2502.07
   19:16:33.536.25-Dec-2020 4808.01 2305.04 63.87 7.00 272.42 2502.07
   19:16:33.736.25-Dec-2020 4808.01 2305.05 63.87 7.00 272.62 2502.07
   19:16:33.936.25-Dec-2020 4808.01 2305.07 63.87 7.00 272.82 2502.07
   19:16:34.136.25-Dec-2020 4808.01 2304.43 63.87 7.00 273.02 2502.07
   19:16:34.337.25-Dec-2020 4808.01 2305.02 63.87 7.00 273.22 2502.07
   19:16:34.537.25-Dec-2020 4808.01 2305.02 63.87 7.00 273.42 2502.07
   19:16:34.737.25-Dec-2020 4808.01 2305.07 63.87 7.00 273.62 2502.07
   19:16:34.937.25-Dec-2020 4808.01 2305.00 63.87 7.00 273.82 2502.07
   19:16:35.137.25-Dec-2020 4808.01 2304.99 63.87 7.00 274.02 2502.07
   19:16:35.337.25-Dec-2020 4808.01 2305.00 63.87 7.00 274.22 2502.07
   19:16:35.538.25-Dec-2020 4808.01 2305.00 63.87 7.00 274.42 2502.07
   19:16:35.738.25-Dec-2020 4808.01 2305.01 63.87 7.00 274.62 2502.07
   19:16:35.938.25-Dec-2020 4808.01 2305.02 63.87 7.00 274.82 2502.07
   19:16:36.138.25-Dec-2020 4808.01 2305.00 63.87 7.00 275.02 2502.07
   19:16:36.338.25-Dec-2020 4808.01 2305.03 63.87 7.00 275.22 2502.07
   19:16:36.538.25-Dec-2020 4808.01 2305.03 63.87 7.00 275.42 2502.07
   19:16:36.738.25-Dec-2020 4808.01 2304.24 63.87 7.00 275.62 2502.07
   19:16:36.939.25-Dec-2020 4808.01 2305.27 63.87 7.00 275.82 2502.07
   19:16:37.139.25-Dec-2020 4808.01 2304.48 63.87 7.00 276.02 2502.07
