~Version Information
 VERS.                  2.0:   CWLS log ASCII Standard -VERSION 2.0
 WRAP.                   NO:   One line per depth step
~Well Information Block
#MNEM.UNIT     VALUE/NAME     DESCRIPTION
#---------     -----------    ---------------------------
 STRT.S             15:24:16 25-Dec-20: START TIME 15:24:16 25-Dec-20
 STOP.S             15:32:36 25-Dec-20: STOP TIME  15:32:36 25-Dec-20
 STEP.S                   0.00: STEP TIME
 NULL.                 -999.25: NULL VALUE
 DFWT.                        :  DIST FWL TEXT
 DFST.                        :  DIST FSL TEXT
 DMF .             Drill Floor:  DRILL MEAS FROM
 STIM.      04.54.24 22-Sep-20:  START TIME
 DATE.      04.54.24 21-Nov-20:  END TIME
 SPUD.               21-Nov-20:  SPUD DATE
 NREF.                    Grid:  NORTH REFERENCE
 HPTY.       Minimum Curvature:  HOLE POS TYPE
 DMOD.             Drill Model:  DRILL MOD DESC
 SVYD.                  Survey:  SURVEY DESC
 ILTD.               Lithology:  INTERP LTH DESC
 FTOP.          Formation Tops:  FORM TOPS DESC
 SON .        AZ-XX-0906571587:  JOB NUMBER
 COMP.     BP Exploration (Caspian Sea) Ltd:  COMPANY
 UWI .                     N/A:  UNIQUE WELL IDENTIFIER
 API .                     N/A:  API NUMBER
 BASE.              Azerbaijan:  LOGGING EQUIPMENT BASE LOCATION
 REGN.                   EESSA:  REGION
 PROV.                    Baku:  PROVINCE
 STAT.                    Baku:  STATE NAME
 CTRY.              Azerbaijan:  COUNTRY NAME
 FLD .                     ACG:  FIELD NAME
 SRVC.     TURAN Drilling & Engineering:  CONTRACTOR
 WELL.                     J27:  WELL NAME
 RIG .             West Chirag:  RIG NAME
 DOE .                     N/A:  DOE NUMBER
 DCON.         Sperry Drilling:  DIRECTNL CONTR
 PDAT.          Mean Sea Level:  PERMANENT DATUM
 WTYP.                Deviated:  WELL TYPE
 MWDS.                    Baku:  MWD SHOP
 JOBN.        AZ-XX-0906571587:  JOB TICKET NUMB
 UNIT.                     N/A:  LOGGING EQUIPMENT ID
 MDS .        Operator Entered:  MAG DATA SOURCE
 CNTY.                        :  COUNTY
 LOC .                        :  LOCATION
 LMF .             Drill Floor:  LOG MEASURED FROM
 TVDS.m                  43.00:  TVDSS CORRECTN
 LATI.deg                40.13:  LATITUDE
 LONG.deg                51.22:  LONGITUDE
 WHNS.m                   7.72:  WELL HEAD N/S
 WHEW.m                 -14.24:  WELL HEAD E/W
 UTMX.m              519005.06:  UTM X
 UTMY.m             4443793.85:  UTM Y
 DFWL.m                   0.00:  DISTANCE FWL
 DFSL.m                   0.00:  DISTANCE FSL
 SDEP.m                 347.00:  START DEPTH
 TDD .m                 581.00:  TOTAL DEPTH (DRILLER)
 VSDR.deg               159.72:  VERT SEC DIRECT
 GVFD.g                   1.00:  GRAVITY FIELD
 MFLD.nT              50318.00:  MAGNETIC FIELD
 MDIP.deg                59.57:  MAGNETIC DIP
 MDEC.deg                 6.44:  MAGNETIC DECL
 GRDC.deg                 0.15:  GRID CORRECTION
 AZTC.deg                 6.29:  AZM TOTAL CORR
 EPD .m                   0.00:  ELEVATION
 EGL .m                   0.00:  GROUND ELEVATION
 WDMS.m                 169.80:  WD ELEV
 APD .m                  43.00:  DEPTH ABOVE PD
 AGAP.m                  43.00:  AIR GAP
 VSEW.m                 -14.24:  VERT SEC E/W
 VSNS.m                   7.72:  VERT SEC N/S
 DEP .m                 342.45:  DEPTH
 EKB .m                   0.00:  KB ELEVATION
 EDF .m                  43.00:  DF ELEVATION
 TDL .m                 237.00:  TOTAL DEPTH (LOGGER)
 VSC .                       0:  VS TO CLOSURE
 MAGU.                 1851428:  MAGUTM CHECKSUM
~Parameter Information Block
#MNEM.UNIT       Value        Description
#---------     -----------    ---------------------------
 AV  .mps                 1.50:  Ann Velocity 
 AVMX.mps                 2.90:  Max Ann Veloc 
 AZIF.deg               115.59:  Azm, Final 
 BHAT.        Rotary Steerable:  BHA Type 
 BROT.°/30m               0.50:  Build Rotating 
 BS  .in                  8.50:  Bit Size 
 BTPL.psig              580.00:  Bit Press Loss 
 CABU.                     Yes:  Customer Abuse 
 TCS .hr                 89.79:  Time Ciculation Ended 
 CV  .mps                 3.22:  Crit Velocity 
 CVMX.mps                 4.37:  Max Crit Veloc 
 DD1 .          Rashad Habibov:  Direct Drillr 1 
 DDSV.               Geo-Pilot:  DD Service 
 DEFF.%                  95.00:  % Det Eff 
 DLRX.°/30m               1.94:  Dogleg Rot Max 
 DLSO.°/30m               0.70:  Dogleg Oriented 
 DLSX.°/30m               1.94:  Dogleg Str Max 
 DRET.      04.45.00 25-Dec-20:  Drill End Time 
 DRST.      10.00.00 24-Dec-20:  Drill Start Tim 
 DTIM.hr                 16.64:  Time Drilling 
 EDEP.m                4999.01:  End Depth 
 ENG1.         Elchin Mammadov:  Engineer 1 
 ENG2.          Ruslan Safarov:  Engineer 2 
 ENG3.          Rustam Safarov:  Engineer 3 
 ETIM.      09.00.00 29-Dec-20:  End Time 
 FLOI.gpm               500.00:  Flow In 
 FLON.gpm               400.00:  Flow In Min 
 FLOS.cptm                0.00:  Fluid Loss 
 FLOX.gpm               500.00:  Flow In Max 
 HFLO.                      No:  High Flow 
 HPRE.                      No:  High Pressure 
 HTEM.                      No:  High Temp 
 HYDO.m                   2.00:  Hydro Offset 
 IFIN.deg                66.79:  Inc, Final 
 IMAX.deg                67.66:  Inc Max 
 IMIN.deg                66.39:  Inc Min 
 IMND.m                4949.37:  Inc Min Depth 
 IMXD.m                4778.63:  Inc Max Depth 
 JARR.                     Yes:  Jarring 
 LETM.      04.45.00 25-Dec-20:  Log End Time 
 LOST.hr                     0:  Lost Rig Time 
 LSTM.      10.00.00 24-Dec-20:  Log Start Time 
 MDCL.ppm             39000.00:  Mud Chlorides 
 MDES.     Inversion Oil/Synthetic:  Mud Desc 
 DFD .sg                  1.33:  Mud Density 
 MDMN.sg                  1.33:  Dens Mud Min 
 MDMX.sg                  1.33:  Dens Mud Max 
 MOIL.                      70:  Run Mud Oil % 
 MOWR.                   70:30:  Run Mud OWR 
 MSND.                       0:  Run Mud Sand % 
 MSOL.                    17.4:  Run Mud Solids% 
 DFV .spqt               84.00:  Mud Viscosity 
 MWOD.in                  6.75:  MWD Tool OD 
 MWSI.                     Yes:  Serv Intrp, MWD 
 OTIM.hr                168.14:  Time Operating 
 PCON.           Look Like New:  Pad Condition 
 PMAX.psia            10822.93:  Press Op, Max 
 PV  .cP                 30.00:  Mud PV 
 RUN .                     900:  Run Number 
 ROPA.m/hr               18.00:  ROP Avg 
 ROPN.m/hr               12.00:  ROP Min 
 ROPX.m/hr               25.00:  ROP Max 
 RPMA.rpm               120.00:  RPM Surface Avg 
 RPMN.rpm               100.00:  RPM Surface Min 
 RPMX.rpm               120.00:  RPM Surface Max 
 RRUN.                    0900:  Rig Run Number 
 SAZI.deg               115.08:  Azm, Start 
 SDEP.m                4762.01:  Start Depth 
 SIDD.                      No:  Serv Intrp, DD 
 SINC.deg                66.14:  Inc, Start 
 SPPA.psig             3700.00:  SPP Avg 
 SPPN.psig             3620.00:  SPP Min 
 SPPX.psig             3900.00:  SPP Max 
 STIM.      09.30.00 22-Dec-20:  Start Time 
 SVCS.                 DD, MWD:  Services 
 SVER.                    9.20:  Sperry Version 
 TDAT.m                 237.00:  Tot Depth Attmp 
 TDDF.                      No:  Trip for DD 
 TDLG.m                 237.00:  Tot Depth Loggd 
 TFF .                      No:  Trip for Fail 
 TQAA.f-kp               18.00:  Torque Abs Avg 
 TQAN.f-kp               17.00:  Torque Abs Min 
 TQAX.f-kp               20.00:  Torque Abs Max 
 TRRT.°/30m               0.60:  Turn Rotating 
 MRT .                    HCIM:  Maximum Recorded Temperature 
 TTMX.degC               94.12:  Max Tool Temp 
 VS01.                90627809:  Virtual Str1 SN 
 VS02.                90527813:  Virtual Str2 SN 
 VS03.                90545417:  Virtual Str3 SN 
 VS04.                12460870:  Virtual Str4 SN 
 VS05.                90516706:  Virtual Str5 SN 
 VS06.                90632007:  Virtual Str6 SN 
 WBMN.klb                 0.00:  WOB Min 
 WOBA.klb                14.00:  WOB Avg 
 WOBX.klb                25.00:  WOB Max 
 YP  .lhf2               32.00:  Yield Point 
~Curve Information Block
#MNEM.UNIT                 API CODE     Curve Description
#---------               -----------    ---------------------------
 TIME.HHMMSS            00 000 000 000:  GT Time & Date
 GTDEPTH.m              00 000 000 000:  GT Depth
 GTPQH.psia             00 000 000 000:  GT HR Quartz Pressure
 GTTQ.degC              00 000 000 000:  GT Quartz Temperature
 GTTN.NONE              00 000 000 000:  GT Test Number
 GTET.sec               00 000 000 000:  GT Elapsed Test Time
 GTTVD.m                00 000 000 000:  GT True Vertical Depth
#Other Information
#
#WARRANTY: Halliburton will use its best efforts to furnish customers with 
#accurate information and interpretations that are part of, and incident to, the services 
#provided.  However, Halliburton cannot and does not warrant the accuracy 
#or correctness of such information and interpretations.  Under no circumstances should any 
#such information or interpretation be relied upon as the sole basis for any drilling, 
#completion, production, or financial decision or any procedure involving any risk to the 
#safety of any drilling venture, drilling rig or its crew or any other third party.  The 
#Customer has full responsibility for all drilling, completion and production operation.  
#Halliburton makes no representations or warranties, either expressed or 
#implied, including, but not limited to, the implied warranties of merchantability or fitness 
#for a particular purpose, with respect to the services rendered.  In no event will 
#Halliburton be liable for failure to obtain any particular results or for 
#any damages, including, but not limited to, indirect, special or consequential damages, 
#resulting from the use of any information or interpretation provided by Halliburton.
#
~A           TIME           GTDEPTH  GTPQH  GTTQ  GTTN  GTET   GTTVD  
# ...
   15:24:39.758.25-Dec-2020 4892.01 5456.92 65.47 4.00  23.01 2535.10
   15:24:39.958.25-Dec-2020 4892.01 5456.92 65.47 4.00  23.21 2535.10
   15:24:40.158.25-Dec-2020 4892.01 5466.82 65.47 4.00  23.41 2535.10
   15:24:40.358.25-Dec-2020 4892.01 5456.52 65.47 4.00  23.61 2535.10
   15:24:40.558.25-Dec-2020 4892.01 5465.30 65.47 4.00  23.81 2535.10
   15:24:40.758.25-Dec-2020 4892.01 5468.50 65.47 4.00  24.01 2535.10
   15:24:40.958.25-Dec-2020 4892.01 5468.50 65.47 4.00  24.21 2535.10
   15:24:41.158.25-Dec-2020 4892.01 5464.28 65.47 4.00  24.41 2535.10
   15:24:41.358.25-Dec-2020 4892.01 5457.38 65.47 4.00  24.61 2535.10
   15:24:41.558.25-Dec-2020 4892.01 5458.74 65.47 4.00  24.81 2535.10
   15:24:41.758.25-Dec-2020 4892.01 5459.29 65.47 4.00  25.01 2535.10
   15:24:41.958.25-Dec-2020 4892.01 5459.29 65.47 4.00  25.21 2535.10
   15:24:42.158.25-Dec-2020 4892.01 5458.35 65.47 4.00  25.41 2535.10
   15:24:42.358.25-Dec-2020 4892.01 5457.19 65.47 4.00  25.61 2535.10
   15:24:42.559.25-Dec-2020 4892.01 5458.21 65.47 4.00  25.81 2535.10
   15:24:42.759.25-Dec-2020 4892.01 5458.66 65.47 4.00  26.01 2535.10
   15:24:42.959.25-Dec-2020 4892.01 5458.66 65.47 4.00  26.21 2535.10
   15:24:43.159.25-Dec-2020 4892.01 5468.47 65.47 4.00  26.41 2535.10
   15:24:43.359.25-Dec-2020 4892.01 5457.36 65.47 4.00  26.61 2535.10
   15:24:43.559.25-Dec-2020 4892.01 5466.35 65.47 4.00  26.81 2535.10
   15:24:43.759.25-Dec-2020 4892.01 5459.01 65.47 4.00  27.01 2535.10
   15:24:43.959.25-Dec-2020 4892.01 5461.66 65.47 4.00  27.21 2535.10
   15:24:44.159.25-Dec-2020 4892.01 5460.87 65.47 4.00  27.41 2535.10
   15:24:44.359.25-Dec-2020 4892.01 5460.92 65.47 4.00  27.61 2535.10
   15:24:44.559.25-Dec-2020 4892.01 5461.86 65.47 4.00  27.81 2535.10
   15:24:44.759.25-Dec-2020 4892.01 5460.16 65.47 4.00  28.01 2535.10
   15:24:44.959.25-Dec-2020 4892.01 5460.16 65.47 4.00  28.21 2535.10
   15:24:45.159.25-Dec-2020 4892.01 5461.97 65.47 4.00  28.41 2535.10
   15:24:45.359.25-Dec-2020 4892.01 5461.91 65.47 4.00  28.61 2535.10
   15:24:45.559.25-Dec-2020 4892.01 5462.08 65.47 4.00  28.81 2535.10
   15:24:45.759.25-Dec-2020 4892.01 5461.58 65.47 4.00  29.01 2535.10
   15:24:45.959.25-Dec-2020 4892.01 5461.58 65.47 4.00  29.21 2535.10
   15:24:46.159.25-Dec-2020 4892.01 5461.64 65.47 4.00  29.41 2535.10
   15:24:46.360.25-Dec-2020 4892.01 5467.99 65.47 4.00  29.61 2535.10
   15:24:46.560.25-Dec-2020 4892.01 5475.03 65.47 4.00  29.81 2535.10
   15:24:46.760.25-Dec-2020 4892.01 5458.95 65.47 4.00  30.01 2535.10
   15:24:46.960.25-Dec-2020 4892.01 5458.95 65.47 4.00  30.21 2535.10
   15:24:47.160.25-Dec-2020 4892.01 5463.69 65.47 4.00  30.41 2535.10
   15:24:47.360.25-Dec-2020 4892.01 5463.63 65.47 4.00  30.61 2535.10
   15:24:47.560.25-Dec-2020 4892.01 5471.36 65.47 4.00  30.81 2535.10
   15:24:47.760.25-Dec-2020 4892.01 5466.52 65.47 4.00  31.01 2535.10
   15:24:47.960.25-Dec-2020 4892.01 5467.03 65.46 4.00  31.21 2535.10
   15:24:48.160.25-Dec-2020 4892.01 5468.60 65.46 4.00  31.41 2535.10
   15:24:48.360.25-Dec-2020 4892.01 5467.01 65.46 4.00  31.61 2535.10
   15:24:48.560.25-Dec-2020 4892.01 5470.69 65.46 4.00  31.81 2535.10
   15:24:48.760.25-Dec-2020 4892.01 5470.69 65.46 4.00  32.01 2535.10
   15:24:48.960.25-Dec-2020 4892.01 5470.69 65.46 4.00  32.21 2535.10
   15:24:49.160.25-Dec-2020 4892.01 5469.96 65.46 4.00  32.41 2535.10
   15:24:49.360.25-Dec-2020 4892.01 5464.46 65.46 4.00  32.61 2535.10
   15:24:49.560.25-Dec-2020 4892.01 5464.67 65.46 4.00  32.81 2535.10
   15:24:49.760.25-Dec-2020 4892.01 5465.56 65.46 4.00  33.01 2535.10
   15:24:49.961.25-Dec-2020 4892.01 5465.56 65.46 4.00  33.21 2535.10
   15:24:50.161.25-Dec-2020 4892.01 5465.18 65.46 4.00  33.41 2535.10
   15:24:50.361.25-Dec-2020 4892.01 5464.53 65.46 4.00  33.61 2535.10
   15:24:50.561.25-Dec-2020 4892.01 5464.89 65.46 4.00  33.81 2535.10
   15:24:50.761.25-Dec-2020 4892.01 5464.60 65.46 4.00  34.01 2535.10
   15:24:50.961.25-Dec-2020 4892.01 5464.60 65.46 4.00  34.21 2535.10
   15:24:51.161.25-Dec-2020 4892.01 5475.00 65.46 4.00  34.41 2535.10
   15:24:51.361.25-Dec-2020 4892.01 5464.17 65.46 4.00  34.61 2535.10
   15:24:51.561.25-Dec-2020 4892.01 5473.72 65.46 4.00  34.81 2535.10
   15:24:51.761.25-Dec-2020 4892.01 5466.18 65.46 4.00  35.01 2535.10
   15:24:51.961.25-Dec-2020 4892.01 5468.13 65.46 4.00  35.21 2535.10
   15:24:52.161.25-Dec-2020 4892.01 5467.12 65.46 4.00  35.41 2535.10
   15:24:52.361.25-Dec-2020 4892.01 5467.63 65.46 4.00  35.61 2535.10
   15:24:52.561.25-Dec-2020 4892.01 5469.12 65.46 4.00  35.81 2535.10
   15:24:52.761.25-Dec-2020 4892.01 5467.65 65.46 4.00  36.01 2535.10
   15:24:52.961.25-Dec-2020 4892.01 5467.65 65.46 4.00  36.21 2535.10
   15:24:53.161.25-Dec-2020 4892.01 5529.48 65.46 4.00  36.41 2535.10
   15:24:53.361.25-Dec-2020 4892.01 5636.58 65.46 4.00  36.61 2535.10
   15:24:53.561.25-Dec-2020 4892.01 5682.06 65.46 4.00  36.81 2535.10
   15:24:53.762.25-Dec-2020 4892.01 5693.46 65.46 4.00  37.01 2535.10
   15:24:53.962.25-Dec-2020 4892.01 5693.46 65.46 4.00  37.21 2535.10
   15:24:54.162.25-Dec-2020 4892.01 5716.21 65.46 4.00  37.41 2535.10
   15:24:54.362.25-Dec-2020 4892.01 5722.95 65.46 4.00  37.61 2535.10
   15:24:54.562.25-Dec-2020 4892.01 5722.95 65.46 4.00  37.81 2535.10
   15:24:54.762.25-Dec-2020 4892.01 5737.80 65.46 4.00  38.01 2535.10
   15:24:54.962.25-Dec-2020 4892.01 5737.80 65.46 4.00  38.21 2535.10
   15:24:55.162.25-Dec-2020 4892.01 5754.16 65.46 4.00  38.41 2535.10
   15:24:55.362.25-Dec-2020 4892.01 5755.36 65.46 4.00  38.61 2535.10
   15:24:55.562.25-Dec-2020 4892.01 5763.07 65.46 4.00  38.81 2535.10
   15:24:55.762.25-Dec-2020 4892.01 5774.23 65.46 4.00  39.01 2535.10
   15:24:55.962.25-Dec-2020 4892.01 5782.85 65.46 4.00  39.21 2535.10
   15:24:56.162.25-Dec-2020 4892.01 5785.76 65.46 4.00  39.41 2535.10
   15:24:56.362.25-Dec-2020 4892.01 5778.57 65.46 4.00  39.61 2535.10
   15:24:56.562.25-Dec-2020 4892.01 5764.93 65.46 4.00  39.81 2535.10
   15:24:56.762.25-Dec-2020 4892.01 5756.59 65.46 4.00  40.01 2535.10
   15:24:56.962.25-Dec-2020 4892.01 5756.59 65.46 4.00  40.21 2535.10
   15:24:57.162.25-Dec-2020 4892.01 5816.90 65.46 4.00  40.41 2535.10
   15:24:57.363.25-Dec-2020 4892.01 5800.99 65.46 4.00  40.61 2535.10
   15:24:57.563.25-Dec-2020 4892.01 5750.21 65.46 4.00  40.81 2535.10
   15:24:57.763.25-Dec-2020 4892.01 5680.92 65.46 4.00  41.01 2535.10
   15:24:57.963.25-Dec-2020 4892.01 5680.92 65.46 4.00  41.21 2535.10
   15:24:58.163.25-Dec-2020 4892.01 5549.91 65.46 4.00  41.41 2535.10
   15:24:58.363.25-Dec-2020 4892.01 5501.96 65.46 4.00  41.61 2535.10
   15:24:58.563.25-Dec-2020 4892.01 5449.27 65.46 4.00  41.81 2535.10
   15:24:58.763.25-Dec-2020 4892.01 5399.68 65.46 4.00  42.01 2535.10
   15:24:58.963.25-Dec-2020 4892.01 5399.68 65.46 4.00  42.21 2535.10
   15:24:59.163.25-Dec-2020 4892.01 5315.82 65.46 4.00  42.41 2535.10
   15:24:59.363.25-Dec-2020 4892.01 5279.97 65.46 4.00  42.61 2535.10
   15:24:59.563.25-Dec-2020 4892.01 5264.62 65.46 4.00  42.81 2535.10
   15:24:59.763.25-Dec-2020 4892.01 5294.39 65.46 4.00  43.01 2535.10
   15:24:59.963.25-Dec-2020 4892.01 5316.20 65.46 4.00  43.21 2535.10
   15:25:00.163.25-Dec-2020 4892.01 5294.94 65.46 4.00  43.41 2535.10
   15:25:00.363.25-Dec-2020 4892.01 4855.41 65.46 4.00  43.61 2535.10
   15:25:00.563.25-Dec-2020 4892.01 4196.25 65.46 4.00  43.81 2535.10
   15:25:00.763.25-Dec-2020 4892.01 3610.54 65.46 4.00  44.01 2535.10
   15:25:00.963.25-Dec-2020 4892.01 3610.54 65.46 4.00  44.21 2535.10
   15:25:01.164.25-Dec-2020 4892.01 3275.29 65.46 4.00  44.41 2535.10
   15:25:01.364.25-Dec-2020 4892.01 3167.23 65.46 4.00  44.61 2535.10
   15:25:01.564.25-Dec-2020 4892.01 3067.91 65.46 4.00  44.81 2535.10
   15:25:01.764.25-Dec-2020 4892.01 2738.98 65.45 4.00  45.01 2535.10
   15:25:01.964.25-Dec-2020 4892.01 2738.98 65.45 4.00  45.21 2535.10
   15:25:02.164.25-Dec-2020 4892.01 2589.79 65.45 4.00  45.41 2535.10
   15:25:02.364.25-Dec-2020 4892.01 2583.83 65.45 4.00  45.61 2535.10
   15:25:02.564.25-Dec-2020 4892.01 2557.49 65.45 4.00  45.81 2535.10
