~Version Information
 VERS.                  2.0:   CWLS log ASCII Standard -VERSION 2.0
 WRAP.                   NO:   One line per depth step
~Well Information Block
#MNEM.UNIT     VALUE/NAME     DESCRIPTION
#---------     -----------    ---------------------------
 STRT.S             20:22:11 25-Dec-20: START TIME 20:22:11 25-Dec-20
 STOP.S             20:30:35 25-Dec-20: STOP TIME  20:30:35 25-Dec-20
 STEP.S                   0.00: STEP TIME
 NULL.                 -999.25: NULL VALUE
 DFWT.                        :  DIST FWL TEXT
 DFST.                        :  DIST FSL TEXT
 DMF .             Drill Floor:  DRILL MEAS FROM
 STIM.      04.54.24 22-Sep-20:  START TIME
 DATE.      04.54.24 21-Nov-20:  END TIME
 SPUD.               21-Nov-20:  SPUD DATE
 NREF.                    Grid:  NORTH REFERENCE
 HPTY.       Minimum Curvature:  HOLE POS TYPE
 DMOD.             Drill Model:  DRILL MOD DESC
 SVYD.                  Survey:  SURVEY DESC
 ILTD.               Lithology:  INTERP LTH DESC
 FTOP.          Formation Tops:  FORM TOPS DESC
 SON .        AZ-XX-0906571587:  JOB NUMBER
 COMP.     BP Exploration (Caspian Sea) Ltd:  COMPANY
 UWI .                     N/A:  UNIQUE WELL IDENTIFIER
 API .                     N/A:  API NUMBER
 BASE.              Azerbaijan:  LOGGING EQUIPMENT BASE LOCATION
 REGN.                   EESSA:  REGION
 PROV.                    Baku:  PROVINCE
 STAT.                    Baku:  STATE NAME
 CTRY.              Azerbaijan:  COUNTRY NAME
 FLD .                     ACG:  FIELD NAME
 SRVC.     TURAN Drilling & Engineering:  CONTRACTOR
 WELL.                     J27:  WELL NAME
 RIG .             West Chirag:  RIG NAME
 DOE .                     N/A:  DOE NUMBER
 DCON.         Sperry Drilling:  DIRECTNL CONTR
 PDAT.          Mean Sea Level:  PERMANENT DATUM
 WTYP.                Deviated:  WELL TYPE
 MWDS.                    Baku:  MWD SHOP
 JOBN.        AZ-XX-0906571587:  JOB TICKET NUMB
 UNIT.                     N/A:  LOGGING EQUIPMENT ID
 MDS .        Operator Entered:  MAG DATA SOURCE
 CNTY.                        :  COUNTY
 LOC .                        :  LOCATION
 LMF .             Drill Floor:  LOG MEASURED FROM
 TVDS.m                  43.00:  TVDSS CORRECTN
 LATI.deg                40.13:  LATITUDE
 LONG.deg                51.22:  LONGITUDE
 WHNS.m                   7.72:  WELL HEAD N/S
 WHEW.m                 -14.24:  WELL HEAD E/W
 UTMX.m              519005.06:  UTM X
 UTMY.m             4443793.85:  UTM Y
 DFWL.m                   0.00:  DISTANCE FWL
 DFSL.m                   0.00:  DISTANCE FSL
 SDEP.m                 347.00:  START DEPTH
 TDD .m                 581.00:  TOTAL DEPTH (DRILLER)
 VSDR.deg               159.72:  VERT SEC DIRECT
 GVFD.g                   1.00:  GRAVITY FIELD
 MFLD.nT              50318.00:  MAGNETIC FIELD
 MDIP.deg                59.57:  MAGNETIC DIP
 MDEC.deg                 6.44:  MAGNETIC DECL
 GRDC.deg                 0.15:  GRID CORRECTION
 AZTC.deg                 6.29:  AZM TOTAL CORR
 EPD .m                   0.00:  ELEVATION
 EGL .m                   0.00:  GROUND ELEVATION
 WDMS.m                 169.80:  WD ELEV
 APD .m                  43.00:  DEPTH ABOVE PD
 AGAP.m                  43.00:  AIR GAP
 VSEW.m                 -14.24:  VERT SEC E/W
 VSNS.m                   7.72:  VERT SEC N/S
 DEP .m                 342.45:  DEPTH
 EKB .m                   0.00:  KB ELEVATION
 EDF .m                  43.00:  DF ELEVATION
 TDL .m                 237.00:  TOTAL DEPTH (LOGGER)
 VSC .                       0:  VS TO CLOSURE
 MAGU.                 1851428:  MAGUTM CHECKSUM
~Parameter Information Block
#MNEM.UNIT       Value        Description
#---------     -----------    ---------------------------
 AV  .mps                 1.50:  Ann Velocity 
 AVMX.mps                 2.90:  Max Ann Veloc 
 AZIF.deg               115.59:  Azm, Final 
 BHAT.        Rotary Steerable:  BHA Type 
 BROT.°/30m               0.50:  Build Rotating 
 BS  .in                  8.50:  Bit Size 
 BTPL.psig              580.00:  Bit Press Loss 
 CABU.                     Yes:  Customer Abuse 
 COMM.                     ”Cf:  Run Comments 1 
 TCS .hr                 89.79:  Time Ciculation Ended 
 CV  .mps                 3.22:  Crit Velocity 
 CVMX.mps                 4.37:  Max Crit Veloc 
 DD1 .          Rashad Habibov:  Direct Drillr 1 
 DDSV.               Geo-Pilot:  DD Service 
 DEFF.%                  95.00:  % Det Eff 
 DLRX.°/30m               1.94:  Dogleg Rot Max 
 DLSO.°/30m               0.70:  Dogleg Oriented 
 DLSX.°/30m               1.94:  Dogleg Str Max 
 DRET.      04.45.00 25-Dec-20:  Drill End Time 
 DRST.      10.00.00 24-Dec-20:  Drill Start Tim 
 DTIM.hr                 16.64:  Time Drilling 
 EDEP.m                4999.01:  End Depth 
 ENG1.         Elchin Mammadov:  Engineer 1 
 ENG2.          Ruslan Safarov:  Engineer 2 
 ENG3.          Rustam Safarov:  Engineer 3 
 ETIM.      09.00.00 29-Dec-20:  End Time 
 FLOI.gpm               500.00:  Flow In 
 FLON.gpm               400.00:  Flow In Min 
 FLOS.cptm                0.00:  Fluid Loss 
 FLOX.gpm               500.00:  Flow In Max 
 HFLO.                      No:  High Flow 
 HPRE.                      No:  High Pressure 
 HTEM.                      No:  High Temp 
 HYDO.m                   2.00:  Hydro Offset 
 IFIN.deg                66.79:  Inc, Final 
 IMAX.deg                67.66:  Inc Max 
 IMIN.deg                66.39:  Inc Min 
 IMND.m                4949.37:  Inc Min Depth 
 IMXD.m                4778.63:  Inc Max Depth 
 JARR.                     Yes:  Jarring 
 LETM.      04.45.00 25-Dec-20:  Log End Time 
 LOST.hr                     0:  Lost Rig Time 
 LSTM.      10.00.00 24-Dec-20:  Log Start Time 
 MDCL.ppm             39000.00:  Mud Chlorides 
 MDES.     Inversion Oil/Synthetic:  Mud Desc 
 DFD .sg                  1.33:  Mud Density 
 MDMN.sg                  1.33:  Dens Mud Min 
 MDMX.sg                  1.33:  Dens Mud Max 
 MOIL.                      70:  Run Mud Oil % 
 MOWR.                   70:30:  Run Mud OWR 
 MSND.                       0:  Run Mud Sand % 
 MSOL.                    17.4:  Run Mud Solids% 
 DFV .spqt               84.00:  Mud Viscosity 
 MWOD.in                  6.75:  MWD Tool OD 
 MWSI.                     Yes:  Serv Intrp, MWD 
 OTIM.hr                168.14:  Time Operating 
 PCON.           Look Like New:  Pad Condition 
 PMAX.psia            10822.93:  Press Op, Max 
 PV  .cP                 30.00:  Mud PV 
 RUN .                     900:  Run Number 
 ROPA.m/hr               18.00:  ROP Avg 
 ROPN.m/hr               12.00:  ROP Min 
 ROPX.m/hr               25.00:  ROP Max 
 RPMA.rpm               120.00:  RPM Surface Avg 
 RPMN.rpm               100.00:  RPM Surface Min 
 RPMX.rpm               120.00:  RPM Surface Max 
 RRUN.                    0900:  Rig Run Number 
 SAZI.deg               115.08:  Azm, Start 
 SDEP.m                4762.01:  Start Depth 
 SIDD.                      No:  Serv Intrp, DD 
 SINC.deg                66.14:  Inc, Start 
 SPPA.psig             3700.00:  SPP Avg 
 SPPN.psig             3620.00:  SPP Min 
 SPPX.psig             3900.00:  SPP Max 
 STIM.      09.30.00 22-Dec-20:  Start Time 
 SVCS.                 DD, MWD:  Services 
 SVER.                    9.20:  Sperry Version 
 TDAT.m                 237.00:  Tot Depth Attmp 
 TDDF.                      No:  Trip for DD 
 TDLG.m                 237.00:  Tot Depth Loggd 
 TFF .                      No:  Trip for Fail 
 TQAA.f-kp               18.00:  Torque Abs Avg 
 TQAN.f-kp               17.00:  Torque Abs Min 
 TQAX.f-kp               20.00:  Torque Abs Max 
 TRRT.°/30m               0.60:  Turn Rotating 
 MRT .                    HCIM:  Maximum Recorded Temperature 
 TTMX.degC               94.12:  Max Tool Temp 
 VS01.                90627809:  Virtual Str1 SN 
 VS02.                90527813:  Virtual Str2 SN 
 VS03.                90545417:  Virtual Str3 SN 
 VS04.                12460870:  Virtual Str4 SN 
 VS05.                90516706:  Virtual Str5 SN 
 VS06.                90632007:  Virtual Str6 SN 
 WBMN.klb                 0.00:  WOB Min 
 WOBA.klb                14.00:  WOB Avg 
 WOBX.klb                25.00:  WOB Max 
 YP  .lhf2               32.00:  Yield Point 
~Curve Information Block
#MNEM.UNIT                 API CODE     Curve Description
#---------               -----------    ---------------------------
 TIME.HHMMSS            00 000 000 000:  GT Time & Date
 GTDEPTH.m              00 000 000 000:  GT Depth
 GTPQH.psia             00 000 000 000:  GT HR Quartz Pressure
 GTTQ.degC              00 000 000 000:  GT Quartz Temperature
 GTTN.NONE              00 000 000 000:  GT Test Number
 GTET.sec               00 000 000 000:  GT Elapsed Test Time
 GTTVD.m                00 000 000 000:  GT True Vertical Depth
#Other Information
#
#WARRANTY: Halliburton will use its best efforts to furnish customers with 
#accurate information and interpretations that are part of, and incident to, the services 
#provided.  However, Halliburton cannot and does not warrant the accuracy 
#or correctness of such information and interpretations.  Under no circumstances should any 
#such information or interpretation be relied upon as the sole basis for any drilling, 
#completion, production, or financial decision or any procedure involving any risk to the 
#safety of any drilling venture, drilling rig or its crew or any other third party.  The 
#Customer has full responsibility for all drilling, completion and production operation.  
#Halliburton makes no representations or warranties, either expressed or 
#implied, including, but not limited to, the implied warranties of merchantability or fitness 
#for a particular purpose, with respect to the services rendered.  In no event will 
#Halliburton be liable for failure to obtain any particular results or for 
#any damages, including, but not limited to, indirect, special or consequential damages, 
#resulting from the use of any information or interpretation provided by Halliburton.
#
~A           TIME           GTDEPTH  GTPQH  GTTQ  GTTN  GTET   GTTVD  
# ...
   20:23:43.873.25-Dec-2020 4794.01 2303.54 63.90 8.00  91.99 2496.73
   20:23:44.073.25-Dec-2020 4794.01 2303.54 63.90 8.00  92.19 2496.73
   20:23:44.273.25-Dec-2020 4794.01 2303.68 63.90 8.00  92.39 2496.73
   20:23:44.473.25-Dec-2020 4794.01 2303.29 63.90 8.00  92.59 2496.73
   20:23:44.673.25-Dec-2020 4794.01 2303.35 63.90 8.00  92.79 2496.73
   20:23:44.873.25-Dec-2020 4794.01 2303.45 63.90 8.00  92.99 2496.73
   20:23:45.073.25-Dec-2020 4794.01 2303.33 63.90 8.00  93.19 2496.73
   20:23:45.272.25-Dec-2020 4794.01 2303.48 63.90 8.00  93.39 2496.73
   20:23:45.472.25-Dec-2020 4794.01 2303.42 63.90 8.00  93.59 2496.73
   20:23:45.672.25-Dec-2020 4794.01 2303.44 63.90 8.00  93.79 2496.73
   20:23:45.872.25-Dec-2020 4794.01 2303.52 63.90 8.00  93.99 2496.73
   20:23:46.072.25-Dec-2020 4794.01 2303.52 63.90 8.00  94.19 2496.73
   20:23:46.272.25-Dec-2020 4794.01 2303.57 63.90 8.00  94.39 2496.73
   20:23:46.472.25-Dec-2020 4794.01 2303.01 63.90 8.00  94.59 2496.73
   20:23:46.672.25-Dec-2020 4794.01 2303.91 63.90 8.00  94.79 2496.73
   20:23:46.872.25-Dec-2020 4794.01 2303.30 63.90 8.00  94.99 2496.73
   20:23:47.072.25-Dec-2020 4794.01 2303.30 63.90 8.00  95.19 2496.73
   20:23:47.272.25-Dec-2020 4794.01 2303.43 63.90 8.00  95.39 2496.73
   20:23:47.472.25-Dec-2020 4794.01 2303.40 63.90 8.00  95.59 2496.73
   20:23:47.672.25-Dec-2020 4794.01 2303.12 63.90 8.00  95.79 2496.73
   20:23:47.872.25-Dec-2020 4794.01 2303.44 63.90 8.00  95.99 2496.73
   20:23:48.072.25-Dec-2020 4794.01 2303.44 63.90 8.00  96.19 2496.73
   20:23:48.272.25-Dec-2020 4794.01 2303.46 63.90 8.00  96.39 2496.73
   20:23:48.472.25-Dec-2020 4794.01 2303.38 63.90 8.00  96.59 2496.73
   20:23:48.672.25-Dec-2020 4794.01 2303.04 63.90 8.00  96.79 2496.73
   20:23:48.872.25-Dec-2020 4794.01 2303.79 63.90 8.00  96.99 2496.73
   20:23:49.072.25-Dec-2020 4794.01 2303.79 63.90 8.00  97.19 2496.73
   20:23:49.272.25-Dec-2020 4794.01 2303.60 63.90 8.00  97.39 2496.73
   20:23:49.472.25-Dec-2020 4794.01 2303.28 63.90 8.00  97.59 2496.73
   20:23:49.672.25-Dec-2020 4794.01 2302.89 63.90 8.00  97.79 2496.73
   20:23:49.872.25-Dec-2020 4794.01 2303.96 63.90 8.00  97.99 2496.73
   20:23:50.072.25-Dec-2020 4794.01 2303.96 63.90 8.00  98.19 2496.73
   20:23:50.272.25-Dec-2020 4794.01 2303.37 63.90 8.00  98.39 2496.73
   20:23:50.472.25-Dec-2020 4794.01 2303.32 63.90 8.00  98.59 2496.73
   20:23:50.672.25-Dec-2020 4794.01 2303.35 63.90 8.00  98.79 2496.73
   20:23:50.872.25-Dec-2020 4794.01 2303.41 63.90 8.00  98.99 2496.73
   20:23:51.072.25-Dec-2020 4794.01 2303.41 63.90 8.00  99.19 2496.73
   20:23:51.272.25-Dec-2020 4794.01 2303.41 63.90 8.00  99.39 2496.73
   20:23:51.472.25-Dec-2020 4794.01 2303.43 63.90 8.00  99.59 2496.73
   20:23:51.672.25-Dec-2020 4794.01 2303.39 63.90 8.00  99.79 2496.73
   20:23:51.872.25-Dec-2020 4794.01 2303.49 63.90 8.00  99.99 2496.73
   20:23:52.072.25-Dec-2020 4794.01 2303.46 63.90 8.00 100.19 2496.73
   20:23:52.272.25-Dec-2020 4794.01 2303.25 63.90 8.00 100.39 2496.73
   20:23:52.472.25-Dec-2020 4794.01 2303.46 63.90 8.00 100.59 2496.73
   20:23:52.672.25-Dec-2020 4794.01 2303.39 63.90 8.00 100.79 2496.73
   20:23:52.872.25-Dec-2020 4794.01 2303.47 63.90 8.00 100.99 2496.73
   20:23:53.072.25-Dec-2020 4794.01 2303.35 63.90 8.00 101.19 2496.73
   20:23:53.272.25-Dec-2020 4794.01 2303.41 63.90 8.00 101.39 2496.73
   20:23:53.472.25-Dec-2020 4794.01 2303.41 63.90 8.00 101.59 2496.73
   20:23:53.672.25-Dec-2020 4794.01 2303.36 63.90 8.00 101.79 2496.73
   20:23:53.872.25-Dec-2020 4794.01 2303.47 63.90 8.00 101.99 2496.73
   20:23:54.072.25-Dec-2020 4794.01 2303.47 63.90 8.00 102.19 2496.73
   20:23:54.272.25-Dec-2020 4794.01 2303.51 63.90 8.00 102.39 2496.73
   20:23:54.472.25-Dec-2020 4794.01 2303.51 63.90 8.00 102.59 2496.73
   20:23:54.672.25-Dec-2020 4794.01 2303.11 63.90 8.00 102.79 2496.73
   20:23:54.872.25-Dec-2020 4794.01 2303.73 63.90 8.00 102.99 2496.73
   20:23:55.072.25-Dec-2020 4794.01 2303.73 63.90 8.00 103.19 2496.73
   20:23:55.272.25-Dec-2020 4794.01 2303.38 63.90 8.00 103.39 2496.73
   20:23:55.472.25-Dec-2020 4794.01 2303.43 63.90 8.00 103.59 2496.73
   20:23:55.672.25-Dec-2020 4794.01 2303.32 63.90 8.00 103.79 2496.73
   20:23:55.872.25-Dec-2020 4794.01 2303.43 63.90 8.00 103.99 2496.73
   20:23:56.072.25-Dec-2020 4794.01 2303.14 63.90 8.00 104.19 2496.73
   20:23:56.272.25-Dec-2020 4794.01 2303.58 63.90 8.00 104.39 2496.73
   20:23:56.472.25-Dec-2020 4794.01 2303.38 63.90 8.00 104.59 2496.73
   20:23:56.672.25-Dec-2020 4794.01 2303.34 63.90 8.00 104.79 2496.73
   20:23:56.872.25-Dec-2020 4794.01 2303.04 63.90 8.00 104.99 2496.73
   20:23:57.072.25-Dec-2020 4794.01 2303.85 63.90 8.00 105.19 2496.73
   20:23:57.272.25-Dec-2020 4794.01 2303.24 63.90 8.00 105.39 2496.73
   20:23:57.472.25-Dec-2020 4794.01 2303.33 63.90 8.00 105.59 2496.73
   20:23:57.672.25-Dec-2020 4794.01 2303.34 63.90 8.00 105.79 2496.73
   20:23:57.872.25-Dec-2020 4794.01 2303.15 63.90 8.00 105.99 2496.73
   20:23:58.072.25-Dec-2020 4794.01 2303.15 63.90 8.00 106.19 2496.73
   20:23:58.272.25-Dec-2020 4794.01 2303.28 63.90 8.00 106.39 2496.73
   20:23:58.472.25-Dec-2020 4794.01 2303.33 63.90 8.00 106.59 2496.73
   20:23:58.672.25-Dec-2020 4794.01 2303.37 63.90 8.00 106.79 2496.73
   20:23:58.872.25-Dec-2020 4794.01 2303.32 63.90 8.00 106.99 2496.73
   20:23:59.072.25-Dec-2020 4794.01 2303.32 63.90 8.00 107.19 2496.73
   20:23:59.272.25-Dec-2020 4794.01 2303.39 63.90 8.00 107.39 2496.73
   20:23:59.472.25-Dec-2020 4794.01 2303.41 63.90 8.00 107.59 2496.73
   20:23:59.672.25-Dec-2020 4794.01 2303.39 63.90 8.00 107.79 2496.73
   20:23:59.872.25-Dec-2020 4794.01 2303.42 63.90 8.00 107.99 2496.73
   20:24:00.072.25-Dec-2020 4794.01 2303.42 63.90 8.00 108.19 2496.73
   20:24:00.272.25-Dec-2020 4794.01 2303.44 63.90 8.00 108.39 2496.73
   20:24:00.471.25-Dec-2020 4794.01 2303.40 63.90 8.00 108.59 2496.73
   20:24:00.671.25-Dec-2020 4794.01 2303.16 63.90 8.00 108.79 2496.73
   20:24:00.871.25-Dec-2020 4794.01 2303.64 63.90 8.00 108.99 2496.73
   20:24:01.071.25-Dec-2020 4794.01 2303.33 63.90 8.00 109.19 2496.73
   20:24:01.271.25-Dec-2020 4794.01 2303.37 63.90 8.00 109.39 2496.73
   20:24:01.471.25-Dec-2020 4794.01 2303.44 63.90 8.00 109.59 2496.73
   20:24:01.671.25-Dec-2020 4794.01 2303.33 63.90 8.00 109.79 2496.73
   20:24:01.871.25-Dec-2020 4794.01 2303.43 63.90 8.00 109.99 2496.73
   20:24:02.071.25-Dec-2020 4794.01 2303.43 63.90 8.00 110.19 2496.73
   20:24:02.271.25-Dec-2020 4794.01 2303.43 63.90 8.00 110.39 2496.73
   20:24:02.471.25-Dec-2020 4794.01 2303.49 63.90 8.00 110.59 2496.73
   20:24:02.671.25-Dec-2020 4794.01 2303.43 63.90 8.00 110.79 2496.73
   20:24:02.871.25-Dec-2020 4794.01 2303.26 63.90 8.00 110.99 2496.73
   20:24:03.071.25-Dec-2020 4794.01 2303.26 63.90 8.00 111.19 2496.73
   20:24:03.271.25-Dec-2020 4794.01 2303.43 63.90 8.00 111.39 2496.73
   20:24:03.471.25-Dec-2020 4794.01 2303.47 63.90 8.00 111.59 2496.73
   20:24:03.671.25-Dec-2020 4794.01 2303.33 63.90 8.00 111.79 2496.73
   20:24:03.871.25-Dec-2020 4794.01 2303.04 63.90 8.00 111.99 2496.73
   20:24:04.071.25-Dec-2020 4794.01 2303.04 63.90 8.00 112.19 2496.73
   20:24:04.271.25-Dec-2020 4794.01 2303.15 63.90 8.00 112.39 2496.73
   20:24:04.471.25-Dec-2020 4794.01 2303.64 63.90 8.00 112.59 2496.73
   20:24:04.671.25-Dec-2020 4794.01 2303.24 63.90 8.00 112.79 2496.73
   20:24:04.871.25-Dec-2020 4794.01 2303.43 63.90 8.00 112.99 2496.73
   20:24:05.071.25-Dec-2020 4794.01 2303.09 63.90 8.00 113.19 2496.73
   20:24:05.271.25-Dec-2020 4794.01 2303.62 63.90 8.00 113.39 2496.73
   20:24:05.471.25-Dec-2020 4794.01 2303.36 63.90 8.00 113.59 2496.73
   20:24:05.671.25-Dec-2020 4794.01 2303.28 63.90 8.00 113.79 2496.73
   20:24:05.871.25-Dec-2020 4794.01 2303.42 63.90 8.00 113.99 2496.73
   20:24:06.071.25-Dec-2020 4794.01 2303.42 63.90 8.00 114.19 2496.73
   20:24:06.271.25-Dec-2020 4794.01 2303.45 63.90 8.00 114.39 2496.73
   20:24:06.471.25-Dec-2020 4794.01 2303.43 63.90 8.00 114.59 2496.73
   20:24:06.671.25-Dec-2020 4794.01 2303.33 63.90 8.00 114.79 2496.73
