~Version Information
 VERS.                  2.0:   CWLS log ASCII Standard -VERSION 2.0
 WRAP.                   NO:   One line per depth step
~Well Information Block
#MNEM.UNIT     VALUE/NAME     DESCRIPTION
#---------     -----------    ---------------------------
 STRT.S             13:36:27 25-Dec-20: START TIME 13:36:27 25-Dec-20
 STOP.S             13:44:49 25-Dec-20: STOP TIME  13:44:49 25-Dec-20
 STEP.S                   0.00: STEP TIME
 NULL.                 -999.25: NULL VALUE
 DFWT.                        :  DIST FWL TEXT
 DFST.                        :  DIST FSL TEXT
 DMF .             Drill Floor:  DRILL MEAS FROM
 STIM.      04.54.24 22-Sep-20:  START TIME
 DATE.      04.54.24 21-Nov-20:  END TIME
 SPUD.               21-Nov-20:  SPUD DATE
 NREF.                    Grid:  NORTH REFERENCE
 HPTY.       Minimum Curvature:  HOLE POS TYPE
 DMOD.             Drill Model:  DRILL MOD DESC
 SVYD.                  Survey:  SURVEY DESC
 ILTD.               Lithology:  INTERP LTH DESC
 FTOP.          Formation Tops:  FORM TOPS DESC
 SON .        AZ-XX-0906571587:  JOB NUMBER
 COMP.     BP Exploration (Caspian Sea) Ltd:  COMPANY
 UWI .                     N/A:  UNIQUE WELL IDENTIFIER
 API .                     N/A:  API NUMBER
 BASE.              Azerbaijan:  LOGGING EQUIPMENT BASE LOCATION
 REGN.                   EESSA:  REGION
 PROV.                    Baku:  PROVINCE
 STAT.                    Baku:  STATE NAME
 CTRY.              Azerbaijan:  COUNTRY NAME
 FLD .                     ACG:  FIELD NAME
 SRVC.     TURAN Drilling & Engineering:  CONTRACTOR
 WELL.                     J27:  WELL NAME
 RIG .             West Chirag:  RIG NAME
 DOE .                     N/A:  DOE NUMBER
 DCON.         Sperry Drilling:  DIRECTNL CONTR
 PDAT.          Mean Sea Level:  PERMANENT DATUM
 WTYP.                Deviated:  WELL TYPE
 MWDS.                    Baku:  MWD SHOP
 JOBN.        AZ-XX-0906571587:  JOB TICKET NUMB
 UNIT.                     N/A:  LOGGING EQUIPMENT ID
 MDS .        Operator Entered:  MAG DATA SOURCE
 CNTY.                        :  COUNTY
 LOC .                        :  LOCATION
 LMF .             Drill Floor:  LOG MEASURED FROM
 TVDS.m                  43.00:  TVDSS CORRECTN
 LATI.deg                40.13:  LATITUDE
 LONG.deg                51.22:  LONGITUDE
 WHNS.m                   7.72:  WELL HEAD N/S
 WHEW.m                 -14.24:  WELL HEAD E/W
 UTMX.m              519005.06:  UTM X
 UTMY.m             4443793.85:  UTM Y
 DFWL.m                   0.00:  DISTANCE FWL
 DFSL.m                   0.00:  DISTANCE FSL
 SDEP.m                 347.00:  START DEPTH
 TDD .m                 581.00:  TOTAL DEPTH (DRILLER)
 VSDR.deg               159.72:  VERT SEC DIRECT
 GVFD.g                   1.00:  GRAVITY FIELD
 MFLD.nT              50318.00:  MAGNETIC FIELD
 MDIP.deg                59.57:  MAGNETIC DIP
 MDEC.deg                 6.44:  MAGNETIC DECL
 GRDC.deg                 0.15:  GRID CORRECTION
 AZTC.deg                 6.29:  AZM TOTAL CORR
 EPD .m                   0.00:  ELEVATION
 EGL .m                   0.00:  GROUND ELEVATION
 WDMS.m                 169.80:  WD ELEV
 APD .m                  43.00:  DEPTH ABOVE PD
 AGAP.m                  43.00:  AIR GAP
 VSEW.m                 -14.24:  VERT SEC E/W
 VSNS.m                   7.72:  VERT SEC N/S
 DEP .m                 342.45:  DEPTH
 EKB .m                   0.00:  KB ELEVATION
 EDF .m                  43.00:  DF ELEVATION
 TDL .m                 237.00:  TOTAL DEPTH (LOGGER)
 VSC .                       0:  VS TO CLOSURE
 MAGU.                 1851428:  MAGUTM CHECKSUM
~Parameter Information Block
#MNEM.UNIT       Value        Description
#---------     -----------    ---------------------------
 AV  .mps                 1.50:  Ann Velocity 
 AVMX.mps                 2.90:  Max Ann Veloc 
 AZIF.deg               115.59:  Azm, Final 
 BHAT.        Rotary Steerable:  BHA Type 
 BROT.°/30m               0.50:  Build Rotating 
 BS  .in                  8.50:  Bit Size 
 BTPL.psig              580.00:  Bit Press Loss 
 CABU.                     Yes:  Customer Abuse 
 COMM.                     lW:  Run Comments 1 
 TCS .hr                 89.79:  Time Ciculation Ended 
 CV  .mps                 3.22:  Crit Velocity 
 CVMX.mps                 4.37:  Max Crit Veloc 
 DD1 .          Rashad Habibov:  Direct Drillr 1 
 DDSV.               Geo-Pilot:  DD Service 
 DEFF.%                  95.00:  % Det Eff 
 DLRX.°/30m               1.94:  Dogleg Rot Max 
 DLSO.°/30m               0.70:  Dogleg Oriented 
 DLSX.°/30m               1.94:  Dogleg Str Max 
 DRET.      04.45.00 25-Dec-20:  Drill End Time 
 DRST.      10.00.00 24-Dec-20:  Drill Start Tim 
 DTIM.hr                 16.64:  Time Drilling 
 EDEP.m                4999.01:  End Depth 
 ENG1.         Elchin Mammadov:  Engineer 1 
 ENG2.          Ruslan Safarov:  Engineer 2 
 ENG3.          Rustam Safarov:  Engineer 3 
 ETIM.      09.00.00 29-Dec-20:  End Time 
 FLOI.gpm               500.00:  Flow In 
 FLON.gpm               400.00:  Flow In Min 
 FLOS.cptm                0.00:  Fluid Loss 
 FLOX.gpm               500.00:  Flow In Max 
 HFLO.                      No:  High Flow 
 HPRE.                      No:  High Pressure 
 HTEM.                      No:  High Temp 
 HYDO.m                   2.00:  Hydro Offset 
 IFIN.deg                66.79:  Inc, Final 
 IMAX.deg                67.66:  Inc Max 
 IMIN.deg                66.39:  Inc Min 
 IMND.m                4949.37:  Inc Min Depth 
 IMXD.m                4778.63:  Inc Max Depth 
 JARR.                     Yes:  Jarring 
 LETM.      04.45.00 25-Dec-20:  Log End Time 
 LOST.hr                     0:  Lost Rig Time 
 LSTM.      10.00.00 24-Dec-20:  Log Start Time 
 MDCL.ppm             39000.00:  Mud Chlorides 
 MDES.     Inversion Oil/Synthetic:  Mud Desc 
 DFD .sg                  1.33:  Mud Density 
 MDMN.sg                  1.33:  Dens Mud Min 
 MDMX.sg                  1.33:  Dens Mud Max 
 MOIL.                      70:  Run Mud Oil % 
 MOWR.                   70:30:  Run Mud OWR 
 MSND.                       0:  Run Mud Sand % 
 MSOL.                    17.4:  Run Mud Solids% 
 DFV .spqt               84.00:  Mud Viscosity 
 MWOD.in                  6.75:  MWD Tool OD 
 MWSI.                     Yes:  Serv Intrp, MWD 
 OTIM.hr                168.14:  Time Operating 
 PCON.           Look Like New:  Pad Condition 
 PMAX.psia            10822.93:  Press Op, Max 
 PV  .cP                 30.00:  Mud PV 
 RUN .                     900:  Run Number 
 ROPA.m/hr               18.00:  ROP Avg 
 ROPN.m/hr               12.00:  ROP Min 
 ROPX.m/hr               25.00:  ROP Max 
 RPMA.rpm               120.00:  RPM Surface Avg 
 RPMN.rpm               100.00:  RPM Surface Min 
 RPMX.rpm               120.00:  RPM Surface Max 
 RRUN.                    0900:  Rig Run Number 
 SAZI.deg               115.08:  Azm, Start 
 SDEP.m                4762.01:  Start Depth 
 SIDD.                      No:  Serv Intrp, DD 
 SINC.deg                66.14:  Inc, Start 
 SPPA.psig             3700.00:  SPP Avg 
 SPPN.psig             3620.00:  SPP Min 
 SPPX.psig             3900.00:  SPP Max 
 STIM.      09.30.00 22-Dec-20:  Start Time 
 SVCS.                 DD, MWD:  Services 
 SVER.                    9.20:  Sperry Version 
 TDAT.m                 237.00:  Tot Depth Attmp 
 TDDF.                      No:  Trip for DD 
 TDLG.m                 237.00:  Tot Depth Loggd 
 TFF .                      No:  Trip for Fail 
 TQAA.f-kp               18.00:  Torque Abs Avg 
 TQAN.f-kp               17.00:  Torque Abs Min 
 TQAX.f-kp               20.00:  Torque Abs Max 
 TRRT.°/30m               0.60:  Turn Rotating 
 MRT .                    HCIM:  Maximum Recorded Temperature 
 TTMX.degC               94.12:  Max Tool Temp 
 VS01.                90627809:  Virtual Str1 SN 
 VS02.                90527813:  Virtual Str2 SN 
 VS03.                90545417:  Virtual Str3 SN 
 VS04.                12460870:  Virtual Str4 SN 
 VS05.                90516706:  Virtual Str5 SN 
 VS06.                90632007:  Virtual Str6 SN 
 WBMN.klb                 0.00:  WOB Min 
 WOBA.klb                14.00:  WOB Avg 
 WOBX.klb                25.00:  WOB Max 
 YP  .lhf2               32.00:  Yield Point 
~Curve Information Block
#MNEM.UNIT                 API CODE     Curve Description
#---------               -----------    ---------------------------
 TIME.HHMMSS            00 000 000 000:  GT Time & Date
 GTDEPTH.m              00 000 000 000:  GT Depth
 GTPQH.psia             00 000 000 000:  GT HR Quartz Pressure
 GTTQ.degC              00 000 000 000:  GT Quartz Temperature
 GTTN.NONE              00 000 000 000:  GT Test Number
 GTET.sec               00 000 000 000:  GT Elapsed Test Time
 GTTVD.m                00 000 000 000:  GT True Vertical Depth
#Other Information
#
#WARRANTY: Halliburton will use its best efforts to furnish customers with 
#accurate information and interpretations that are part of, and incident to, the services 
#provided.  However, Halliburton cannot and does not warrant the accuracy 
#or correctness of such information and interpretations.  Under no circumstances should any 
#such information or interpretation be relied upon as the sole basis for any drilling, 
#completion, production, or financial decision or any procedure involving any risk to the 
#safety of any drilling venture, drilling rig or its crew or any other third party.  The 
#Customer has full responsibility for all drilling, completion and production operation.  
#Halliburton makes no representations or warranties, either expressed or 
#implied, including, but not limited to, the implied warranties of merchantability or fitness 
#for a particular purpose, with respect to the services rendered.  In no event will 
#Halliburton be liable for failure to obtain any particular results or for 
#any damages, including, but not limited to, indirect, special or consequential damages, 
#resulting from the use of any information or interpretation provided by Halliburton.
#
~A           TIME           GTDEPTH  GTPQH  GTTQ  GTTN  GTET   GTTVD  
# ...
   13:39:31.000.25-Dec-2020 4921.01   82.26 66.25 2.00 184.00 2546.48
   13:39:31.200.25-Dec-2020 4921.01   82.26 66.25 2.00 184.20 2546.48
   13:39:31.400.25-Dec-2020 4921.01   75.83 66.25 2.00 184.40 2546.48
   13:39:31.600.25-Dec-2020 4921.01   73.05 66.25 2.00 184.60 2546.48
   13:39:31.800.25-Dec-2020 4921.01   70.50 66.25 2.00 184.80 2546.48
   13:39:32.000.25-Dec-2020 4921.01   68.24 66.25 2.00 185.00 2546.48
   13:39:32.200.25-Dec-2020 4921.01   68.24 66.25 2.00 185.20 2546.48
   13:39:32.400.25-Dec-2020 4921.01   64.24 66.25 2.00 185.40 2546.48
   13:39:32.600.25-Dec-2020 4921.01   62.43 66.25 2.00 185.60 2546.48
   13:39:32.800.25-Dec-2020 4921.01   60.77 66.25 2.00 185.80 2546.48
   13:39:33.000.25-Dec-2020 4921.01   59.21 66.25 2.00 186.00 2546.48
   13:39:33.200.25-Dec-2020 4921.01   57.74 66.25 2.00 186.20 2546.48
   13:39:33.400.25-Dec-2020 4921.01   56.39 66.25 2.00 186.40 2546.48
   13:39:33.600.25-Dec-2020 4921.01   55.11 66.25 2.00 186.60 2546.48
   13:39:33.800.25-Dec-2020 4921.01   53.90 66.25 2.00 186.80 2546.48
   13:39:34.000.25-Dec-2020 4921.01   52.79 66.25 2.00 187.00 2546.48
   13:39:34.200.25-Dec-2020 4921.01   51.70 66.25 2.00 187.20 2546.48
   13:39:34.400.25-Dec-2020 4921.01   50.68 66.25 2.00 187.40 2546.48
   13:39:34.600.25-Dec-2020 4921.01   49.74 66.25 2.00 187.60 2546.48
   13:39:34.800.25-Dec-2020 4921.01   48.84 66.25 2.00 187.80 2546.48
   13:39:35.000.25-Dec-2020 4921.01   47.99 66.25 2.00 188.00 2546.48
   13:39:35.200.25-Dec-2020 4921.01   47.99 66.25 2.00 188.20 2546.48
   13:39:35.400.25-Dec-2020 4921.01   46.39 66.25 2.00 188.40 2546.48
   13:39:35.600.25-Dec-2020 4921.01   45.62 66.25 2.00 188.60 2546.48
   13:39:35.800.25-Dec-2020 4921.01   44.90 66.25 2.00 188.80 2546.48
   13:39:36.000.25-Dec-2020 4921.01   44.24 66.25 2.00 189.00 2546.48
   13:39:36.200.25-Dec-2020 4921.01   44.24 66.25 2.00 189.20 2546.48
   13:39:36.400.25-Dec-2020 4921.01   42.95 66.25 2.00 189.40 2546.48
   13:39:36.600.25-Dec-2020 4921.01   42.32 66.25 2.00 189.60 2546.48
   13:39:36.800.25-Dec-2020 4921.01   41.76 66.25 2.00 189.80 2546.48
   13:39:37.000.25-Dec-2020 4921.01   41.21 66.25 2.00 190.00 2546.48
   13:39:37.200.25-Dec-2020 4921.01   40.68 66.25 2.00 190.20 2546.48
   13:39:37.400.25-Dec-2020 4921.01   40.14 66.25 2.00 190.40 2546.48
   13:39:37.600.25-Dec-2020 4921.01   39.64 66.25 2.00 190.60 2546.48
   13:39:37.800.25-Dec-2020 4921.01   39.18 66.25 2.00 190.80 2546.48
   13:39:38.000.25-Dec-2020 4921.01   38.72 66.25 2.00 191.00 2546.48
   13:39:38.200.25-Dec-2020 4921.01   38.23 66.25 2.00 191.20 2546.48
   13:39:38.400.25-Dec-2020 4921.01   37.82 66.25 2.00 191.40 2546.48
   13:39:38.600.25-Dec-2020 4921.01   37.46 66.25 2.00 191.60 2546.48
   13:39:38.800.25-Dec-2020 4921.01   37.33 66.25 2.00 191.80 2546.48
   13:39:39.000.25-Dec-2020 4921.01   37.39 66.25 2.00 192.00 2546.48
   13:39:39.200.25-Dec-2020 4921.01   37.39 66.25 2.00 192.20 2546.48
   13:39:39.400.25-Dec-2020 4921.01   37.56 66.25 2.00 192.40 2546.48
   13:39:39.600.25-Dec-2020 4921.01   37.62 66.25 2.00 192.60 2546.48
   13:39:39.800.25-Dec-2020 4921.01   37.69 66.25 2.00 192.80 2546.48
   13:39:40.000.25-Dec-2020 4921.01   37.78 66.25 2.00 193.00 2546.48
   13:39:40.200.25-Dec-2020 4921.01   37.78 66.25 2.00 193.20 2546.48
   13:39:40.400.25-Dec-2020 4921.01   37.91 66.25 2.00 193.40 2546.48
   13:39:40.600.25-Dec-2020 4921.01   37.98 66.25 2.00 193.60 2546.48
   13:39:40.800.25-Dec-2020 4921.01   38.04 66.25 2.00 193.80 2546.48
   13:39:41.000.25-Dec-2020 4921.01   38.10 66.25 2.00 194.00 2546.48
   13:39:41.200.25-Dec-2020 4921.01   38.17 66.25 2.00 194.20 2546.48
   13:39:41.400.25-Dec-2020 4921.01   38.23 66.25 2.00 194.40 2546.48
   13:39:41.600.25-Dec-2020 4921.01   38.28 66.25 2.00 194.60 2546.48
   13:39:41.800.25-Dec-2020 4921.01   38.36 66.25 2.00 194.80 2546.48
   13:39:42.000.25-Dec-2020 4921.01   38.43 66.25 2.00 195.00 2546.48
   13:39:42.200.25-Dec-2020 4921.01   38.43 66.25 2.00 195.20 2546.48
   13:39:42.400.25-Dec-2020 4921.01   38.54 66.25 2.00 195.40 2546.48
   13:39:42.600.25-Dec-2020 4921.01   38.60 66.25 2.00 195.60 2546.48
   13:39:42.800.25-Dec-2020 4921.01   38.65 66.25 2.00 195.80 2546.48
   13:39:43.000.25-Dec-2020 4921.01   38.71 66.25 2.00 196.00 2546.48
   13:39:43.200.25-Dec-2020 4921.01   38.71 66.25 2.00 196.20 2546.48
   13:39:43.400.25-Dec-2020 4921.01   38.82 66.25 2.00 196.40 2546.48
   13:39:43.600.25-Dec-2020 4921.01   38.88 66.25 2.00 196.60 2546.48
   13:39:43.800.25-Dec-2020 4921.01   38.93 66.25 2.00 196.80 2546.48
   13:39:44.000.25-Dec-2020 4921.01   38.99 66.25 2.00 197.00 2546.48
   13:39:44.200.25-Dec-2020 4921.01   38.99 66.25 2.00 197.20 2546.48
   13:39:44.400.25-Dec-2020 4921.01   39.11 66.25 2.00 197.40 2546.48
   13:39:44.600.25-Dec-2020 4921.01   39.16 66.25 2.00 197.60 2546.48
   13:39:44.800.25-Dec-2020 4921.01   39.18 66.25 2.00 197.80 2546.48
   13:39:45.000.25-Dec-2020 4921.01   39.27 66.25 2.00 198.00 2546.48
   13:39:45.200.25-Dec-2020 4921.01   39.27 66.25 2.00 198.20 2546.48
   13:39:45.400.25-Dec-2020 4921.01   39.35 66.25 2.00 198.40 2546.48
   13:39:45.600.25-Dec-2020 4921.01   39.39 66.25 2.00 198.60 2546.48
   13:39:45.800.25-Dec-2020 4921.01   39.46 66.25 2.00 198.80 2546.48
   13:39:46.000.25-Dec-2020 4921.01   39.50 66.25 2.00 199.00 2546.48
   13:39:46.200.25-Dec-2020 4921.01   39.54 66.25 2.00 199.20 2546.48
   13:39:46.400.25-Dec-2020 4921.01   39.58 66.25 2.00 199.40 2546.48
   13:39:46.600.25-Dec-2020 4921.01   39.64 66.25 2.00 199.60 2546.48
   13:39:46.800.25-Dec-2020 4921.01   39.69 66.25 2.00 199.80 2546.48
   13:39:47.000.25-Dec-2020 4921.01   39.73 66.25 2.00 200.00 2546.48
   13:39:47.200.25-Dec-2020 4921.01   39.73 66.25 2.00 200.20 2546.48
   13:39:47.400.25-Dec-2020 4921.01   39.81 66.25 2.00 200.40 2546.48
   13:39:47.600.25-Dec-2020 4921.01   39.86 66.25 2.00 200.60 2546.48
   13:39:47.800.25-Dec-2020 4921.01   39.89 66.25 2.00 200.80 2546.48
   13:39:48.000.25-Dec-2020 4921.01   39.94 66.25 2.00 201.00 2546.48
   13:39:48.200.25-Dec-2020 4921.01   39.94 66.25 2.00 201.20 2546.48
   13:39:48.400.25-Dec-2020 4921.01   40.02 66.25 2.00 201.40 2546.48
   13:39:48.600.25-Dec-2020 4921.01   40.07 66.25 2.00 201.60 2546.48
   13:39:48.800.25-Dec-2020 4921.01   40.09 66.25 2.00 201.80 2546.48
   13:39:49.000.25-Dec-2020 4921.01   40.16 66.25 2.00 202.00 2546.48
   13:39:49.200.25-Dec-2020 4921.01   40.19 66.25 2.00 202.20 2546.48
   13:39:49.400.25-Dec-2020 4921.01   40.24 66.25 2.00 202.40 2546.48
   13:39:49.600.25-Dec-2020 4921.01   40.27 66.25 2.00 202.60 2546.48
   13:39:49.800.25-Dec-2020 4921.01   40.31 66.25 2.00 202.80 2546.48
   13:39:50.000.25-Dec-2020 4921.01   40.35 66.25 2.00 203.00 2546.48
   13:39:50.200.25-Dec-2020 4921.01   40.35 66.25 2.00 203.20 2546.48
   13:39:50.400.25-Dec-2020 4921.01   40.42 66.25 2.00 203.40 2546.48
   13:39:50.600.25-Dec-2020 4921.01   40.47 66.25 2.00 203.60 2546.48
   13:39:50.800.25-Dec-2020 4921.01   40.50 66.25 2.00 203.80 2546.48
   13:39:51.000.25-Dec-2020 4921.01   40.53 66.25 2.00 204.00 2546.48
   13:39:51.200.25-Dec-2020 4921.01   40.53 66.25 2.00 204.20 2546.48
   13:39:51.400.25-Dec-2020 4921.01   40.63 66.25 2.00 204.40 2546.48
   13:39:51.600.25-Dec-2020 4921.01   40.66 66.25 2.00 204.60 2546.48
   13:39:51.800.25-Dec-2020 4921.01   40.69 66.25 2.00 204.80 2546.48
   13:39:52.000.25-Dec-2020 4921.01   40.71 66.25 2.00 205.00 2546.48
   13:39:52.200.25-Dec-2020 4921.01   40.71 66.25 2.00 205.20 2546.48
   13:39:52.400.25-Dec-2020 4921.01   40.80 66.25 2.00 205.40 2546.48
   13:39:52.600.25-Dec-2020 4921.01   40.82 66.25 2.00 205.60 2546.48
   13:39:52.800.25-Dec-2020 4921.01   40.88 66.25 2.00 205.80 2546.48
   13:39:53.000.25-Dec-2020 4921.01   40.92 66.25 2.00 206.00 2546.48
   13:39:53.200.25-Dec-2020 4921.01   40.94 66.25 2.00 206.20 2546.48
   13:39:53.400.25-Dec-2020 4921.01   40.97 66.25 2.00 206.40 2546.48
   13:39:53.600.25-Dec-2020 4921.01   41.02 66.25 2.00 206.60 2546.48
   13:39:53.800.25-Dec-2020 4921.01   41.06 66.25 2.00 206.80 2546.48
