~Version Information
 VERS.                  2.0:   CWLS log ASCII Standard -VERSION 2.0
 WRAP.                   NO:   One line per depth step
~Well Information Block
#MNEM.UNIT     VALUE/NAME     DESCRIPTION
#---------     -----------    ---------------------------
 STRT.S             21:28:23 25-Dec-20: START TIME 21:28:23 25-Dec-20
 STOP.S             21:36:48 25-Dec-20: STOP TIME  21:36:48 25-Dec-20
 STEP.S                   0.00: STEP TIME
 NULL.                 -999.25: NULL VALUE
 DFWT.                        :  DIST FWL TEXT
 DFST.                        :  DIST FSL TEXT
 DMF .             Drill Floor:  DRILL MEAS FROM
 STIM.      04.54.24 22-Sep-20:  START TIME
 DATE.      04.54.24 21-Nov-20:  END TIME
 SPUD.               21-Nov-20:  SPUD DATE
 NREF.                    Grid:  NORTH REFERENCE
 HPTY.       Minimum Curvature:  HOLE POS TYPE
 DMOD.             Drill Model:  DRILL MOD DESC
 SVYD.                  Survey:  SURVEY DESC
 ILTD.               Lithology:  INTERP LTH DESC
 FTOP.          Formation Tops:  FORM TOPS DESC
 SON .        AZ-XX-0906571587:  JOB NUMBER
 COMP.     BP Exploration (Caspian Sea) Ltd:  COMPANY
 UWI .                     N/A:  UNIQUE WELL IDENTIFIER
 API .                     N/A:  API NUMBER
 BASE.              Azerbaijan:  LOGGING EQUIPMENT BASE LOCATION
 REGN.                   EESSA:  REGION
 PROV.                    Baku:  PROVINCE
 STAT.                    Baku:  STATE NAME
 CTRY.              Azerbaijan:  COUNTRY NAME
 FLD .                     ACG:  FIELD NAME
 SRVC.     TURAN Drilling & Engineering:  CONTRACTOR
 WELL.                     J27:  WELL NAME
 RIG .             West Chirag:  RIG NAME
 DOE .                     N/A:  DOE NUMBER
 DCON.         Sperry Drilling:  DIRECTNL CONTR
 PDAT.          Mean Sea Level:  PERMANENT DATUM
 WTYP.                Deviated:  WELL TYPE
 MWDS.                    Baku:  MWD SHOP
 JOBN.        AZ-XX-0906571587:  JOB TICKET NUMB
 UNIT.                     N/A:  LOGGING EQUIPMENT ID
 MDS .        Operator Entered:  MAG DATA SOURCE
 CNTY.                        :  COUNTY
 LOC .                        :  LOCATION
 LMF .             Drill Floor:  LOG MEASURED FROM
 TVDS.m                  43.00:  TVDSS CORRECTN
 LATI.deg                40.13:  LATITUDE
 LONG.deg                51.22:  LONGITUDE
 WHNS.m                   7.72:  WELL HEAD N/S
 WHEW.m                 -14.24:  WELL HEAD E/W
 UTMX.m              519005.06:  UTM X
 UTMY.m             4443793.85:  UTM Y
 DFWL.m                   0.00:  DISTANCE FWL
 DFSL.m                   0.00:  DISTANCE FSL
 SDEP.m                 347.00:  START DEPTH
 TDD .m                 581.00:  TOTAL DEPTH (DRILLER)
 VSDR.deg               159.72:  VERT SEC DIRECT
 GVFD.g                   1.00:  GRAVITY FIELD
 MFLD.nT              50318.00:  MAGNETIC FIELD
 MDIP.deg                59.57:  MAGNETIC DIP
 MDEC.deg                 6.44:  MAGNETIC DECL
 GRDC.deg                 0.15:  GRID CORRECTION
 AZTC.deg                 6.29:  AZM TOTAL CORR
 EPD .m                   0.00:  ELEVATION
 EGL .m                   0.00:  GROUND ELEVATION
 WDMS.m                 169.80:  WD ELEV
 APD .m                  43.00:  DEPTH ABOVE PD
 AGAP.m                  43.00:  AIR GAP
 VSEW.m                 -14.24:  VERT SEC E/W
 VSNS.m                   7.72:  VERT SEC N/S
 DEP .m                 342.45:  DEPTH
 EKB .m                   0.00:  KB ELEVATION
 EDF .m                  43.00:  DF ELEVATION
 TDL .m                 237.00:  TOTAL DEPTH (LOGGER)
 VSC .                       0:  VS TO CLOSURE
 MAGU.                 1851428:  MAGUTM CHECKSUM
~Parameter Information Block
#MNEM.UNIT       Value        Description
#---------     -----------    ---------------------------
 AV  .mps                 1.50:  Ann Velocity 
 AVMX.mps                 2.90:  Max Ann Veloc 
 AZIF.deg               115.59:  Azm, Final 
 BHAT.        Rotary Steerable:  BHA Type 
 BROT.°/30m               0.50:  Build Rotating 
 BS  .in                  8.50:  Bit Size 
 BTPL.psig              580.00:  Bit Press Loss 
 CABU.                     Yes:  Customer Abuse 
 COMM.                     Üc{:  Run Comments 1 
 TCS .hr                 89.79:  Time Ciculation Ended 
 CV  .mps                 3.22:  Crit Velocity 
 CVMX.mps                 4.37:  Max Crit Veloc 
 DD1 .          Rashad Habibov:  Direct Drillr 1 
 DDSV.               Geo-Pilot:  DD Service 
 DEFF.%                  95.00:  % Det Eff 
 DLRX.°/30m               1.94:  Dogleg Rot Max 
 DLSO.°/30m               0.70:  Dogleg Oriented 
 DLSX.°/30m               1.94:  Dogleg Str Max 
 DRET.      04.45.00 25-Dec-20:  Drill End Time 
 DRST.      10.00.00 24-Dec-20:  Drill Start Tim 
 DTIM.hr                 16.64:  Time Drilling 
 EDEP.m                4999.01:  End Depth 
 ENG1.         Elchin Mammadov:  Engineer 1 
 ENG2.          Ruslan Safarov:  Engineer 2 
 ENG3.          Rustam Safarov:  Engineer 3 
 ETIM.      09.00.00 29-Dec-20:  End Time 
 FLOI.gpm               500.00:  Flow In 
 FLON.gpm               400.00:  Flow In Min 
 FLOS.cptm                0.00:  Fluid Loss 
 FLOX.gpm               500.00:  Flow In Max 
 HFLO.                      No:  High Flow 
 HPRE.                      No:  High Pressure 
 HTEM.                      No:  High Temp 
 HYDO.m                   2.00:  Hydro Offset 
 IFIN.deg                66.79:  Inc, Final 
 IMAX.deg                67.66:  Inc Max 
 IMIN.deg                66.39:  Inc Min 
 IMND.m                4949.37:  Inc Min Depth 
 IMXD.m                4778.63:  Inc Max Depth 
 JARR.                     Yes:  Jarring 
 LETM.      04.45.00 25-Dec-20:  Log End Time 
 LOST.hr                     0:  Lost Rig Time 
 LSTM.      10.00.00 24-Dec-20:  Log Start Time 
 MDCL.ppm             39000.00:  Mud Chlorides 
 MDES.     Inversion Oil/Synthetic:  Mud Desc 
 DFD .sg                  1.33:  Mud Density 
 MDMN.sg                  1.33:  Dens Mud Min 
 MDMX.sg                  1.33:  Dens Mud Max 
 MOIL.                      70:  Run Mud Oil % 
 MOWR.                   70:30:  Run Mud OWR 
 MSND.                       0:  Run Mud Sand % 
 MSOL.                    17.4:  Run Mud Solids% 
 DFV .spqt               84.00:  Mud Viscosity 
 MWOD.in                  6.75:  MWD Tool OD 
 MWSI.                     Yes:  Serv Intrp, MWD 
 OTIM.hr                168.14:  Time Operating 
 PCON.           Look Like New:  Pad Condition 
 PMAX.psia            10822.93:  Press Op, Max 
 PV  .cP                 30.00:  Mud PV 
 RUN .                     900:  Run Number 
 ROPA.m/hr               18.00:  ROP Avg 
 ROPN.m/hr               12.00:  ROP Min 
 ROPX.m/hr               25.00:  ROP Max 
 RPMA.rpm               120.00:  RPM Surface Avg 
 RPMN.rpm               100.00:  RPM Surface Min 
 RPMX.rpm               120.00:  RPM Surface Max 
 RRUN.                    0900:  Rig Run Number 
 SAZI.deg               115.08:  Azm, Start 
 SDEP.m                4762.01:  Start Depth 
 SIDD.                      No:  Serv Intrp, DD 
 SINC.deg                66.14:  Inc, Start 
 SPPA.psig             3700.00:  SPP Avg 
 SPPN.psig             3620.00:  SPP Min 
 SPPX.psig             3900.00:  SPP Max 
 STIM.      09.30.00 22-Dec-20:  Start Time 
 SVCS.                 DD, MWD:  Services 
 SVER.                    9.20:  Sperry Version 
 TDAT.m                 237.00:  Tot Depth Attmp 
 TDDF.                      No:  Trip for DD 
 TDLG.m                 237.00:  Tot Depth Loggd 
 TFF .                      No:  Trip for Fail 
 TQAA.f-kp               18.00:  Torque Abs Avg 
 TQAN.f-kp               17.00:  Torque Abs Min 
 TQAX.f-kp               20.00:  Torque Abs Max 
 TRRT.°/30m               0.60:  Turn Rotating 
 MRT .                    HCIM:  Maximum Recorded Temperature 
 TTMX.degC               94.12:  Max Tool Temp 
 VS01.                90627809:  Virtual Str1 SN 
 VS02.                90527813:  Virtual Str2 SN 
 VS03.                90545417:  Virtual Str3 SN 
 VS04.                12460870:  Virtual Str4 SN 
 VS05.                90516706:  Virtual Str5 SN 
 VS06.                90632007:  Virtual Str6 SN 
 WBMN.klb                 0.00:  WOB Min 
 WOBA.klb                14.00:  WOB Avg 
 WOBX.klb                25.00:  WOB Max 
 YP  .lhf2               32.00:  Yield Point 
~Curve Information Block
#MNEM.UNIT                 API CODE     Curve Description
#---------               -----------    ---------------------------
 TIME.HHMMSS            00 000 000 000:  GT Time & Date
 GTDEPTH.m              00 000 000 000:  GT Depth
 GTPQH.psia             00 000 000 000:  GT HR Quartz Pressure
 GTTQ.degC              00 000 000 000:  GT Quartz Temperature
 GTTN.NONE              00 000 000 000:  GT Test Number
 GTET.sec               00 000 000 000:  GT Elapsed Test Time
 GTTVD.m                00 000 000 000:  GT True Vertical Depth
#Other Information
#
#WARRANTY: Halliburton will use its best efforts to furnish customers with 
#accurate information and interpretations that are part of, and incident to, the services 
#provided.  However, Halliburton cannot and does not warrant the accuracy 
#or correctness of such information and interpretations.  Under no circumstances should any 
#such information or interpretation be relied upon as the sole basis for any drilling, 
#completion, production, or financial decision or any procedure involving any risk to the 
#safety of any drilling venture, drilling rig or its crew or any other third party.  The 
#Customer has full responsibility for all drilling, completion and production operation.  
#Halliburton makes no representations or warranties, either expressed or 
#implied, including, but not limited to, the implied warranties of merchantability or fitness 
#for a particular purpose, with respect to the services rendered.  In no event will 
#Halliburton be liable for failure to obtain any particular results or for 
#any damages, including, but not limited to, indirect, special or consequential damages, 
#resulting from the use of any information or interpretation provided by Halliburton.
#
~A           TIME           GTDEPTH  GTPQH  GTTQ  GTTN  GTET   GTTVD  
# ...
   21:34:54.591.25-Dec-2020 4768.01 3246.54 63.79 9.00 390.97 2486.78
   21:34:54.791.25-Dec-2020 4768.01 3245.77 63.79 9.00 391.17 2486.78
   21:34:54.991.25-Dec-2020 4768.01 3246.45 63.79 9.00 391.37 2486.78
   21:34:55.191.25-Dec-2020 4768.01 3246.56 63.79 9.00 391.57 2486.78
   21:34:55.391.25-Dec-2020 4768.01 3246.72 63.79 9.00 391.77 2486.78
   21:34:55.591.25-Dec-2020 4768.01 3246.50 63.79 9.00 391.97 2486.78
   21:34:55.791.25-Dec-2020 4768.01 3246.50 63.79 9.00 392.17 2486.78
   21:34:55.991.25-Dec-2020 4768.01 3246.59 63.79 9.00 392.37 2486.78
   21:34:56.191.25-Dec-2020 4768.01 3246.68 63.79 9.00 392.57 2486.78
   21:34:56.391.25-Dec-2020 4768.01 3246.64 63.79 9.00 392.77 2486.78
   21:34:56.591.25-Dec-2020 4768.01 3246.61 63.79 9.00 392.97 2486.78
   21:34:56.791.25-Dec-2020 4768.01 3246.61 63.79 9.00 393.17 2486.78
   21:34:56.991.25-Dec-2020 4768.01 3246.63 63.79 9.00 393.37 2486.78
   21:34:57.191.25-Dec-2020 4768.01 3246.28 63.79 9.00 393.57 2486.78
   21:34:57.391.25-Dec-2020 4768.01 3246.22 63.79 9.00 393.77 2486.78
   21:34:57.591.25-Dec-2020 4768.01 3246.47 63.79 9.00 393.97 2486.78
   21:34:57.791.25-Dec-2020 4768.01 3247.07 63.79 9.00 394.17 2486.78
   21:34:57.991.25-Dec-2020 4768.01 3246.73 63.78 9.00 394.37 2486.78
   21:34:58.191.25-Dec-2020 4768.01 3246.73 63.79 9.00 394.57 2486.78
   21:34:58.391.25-Dec-2020 4768.01 3246.82 63.78 9.00 394.77 2486.78
   21:34:58.591.25-Dec-2020 4768.01 3246.84 63.78 9.00 394.97 2486.78
   21:34:58.791.25-Dec-2020 4768.01 3246.84 63.78 9.00 395.17 2486.78
   21:34:58.991.25-Dec-2020 4768.01 3246.83 63.78 9.00 395.37 2486.78
   21:34:59.191.25-Dec-2020 4768.01 3246.91 63.78 9.00 395.57 2486.78
   21:34:59.391.25-Dec-2020 4768.01 3246.92 63.78 9.00 395.77 2486.78
   21:34:59.591.25-Dec-2020 4768.01 3246.87 63.78 9.00 395.97 2486.78
   21:34:59.791.25-Dec-2020 4768.01 3246.87 63.78 9.00 396.17 2486.78
   21:34:59.991.25-Dec-2020 4768.01 3247.27 63.78 9.00 396.37 2486.78
   21:35:00.190.25-Dec-2020 4768.01 3246.77 63.78 9.00 396.57 2486.78
   21:35:00.390.25-Dec-2020 4768.01 3247.14 63.78 9.00 396.77 2486.78
   21:35:00.590.25-Dec-2020 4768.01 3246.97 63.78 9.00 396.97 2486.78
   21:35:00.790.25-Dec-2020 4768.01 3246.97 63.78 9.00 397.17 2486.78
   21:35:00.990.25-Dec-2020 4768.01 3246.64 63.78 9.00 397.37 2486.78
   21:35:01.190.25-Dec-2020 4768.01 3247.01 63.78 9.00 397.57 2486.78
   21:35:01.390.25-Dec-2020 4768.01 3247.03 63.78 9.00 397.77 2486.78
   21:35:01.590.25-Dec-2020 4768.01 3246.74 63.78 9.00 397.97 2486.78
   21:35:01.790.25-Dec-2020 4768.01 3246.74 63.78 9.00 398.17 2486.78
   21:35:01.990.25-Dec-2020 4768.01 3247.42 63.78 9.00 398.37 2486.78
   21:35:02.190.25-Dec-2020 4768.01 3246.18 63.78 9.00 398.57 2486.78
   21:35:02.390.25-Dec-2020 4768.01 3247.59 63.78 9.00 398.77 2486.78
   21:35:02.590.25-Dec-2020 4768.01 3246.97 63.78 9.00 398.97 2486.78
   21:35:02.790.25-Dec-2020 4768.01 3247.48 63.78 9.00 399.17 2486.78
   21:35:02.990.25-Dec-2020 4768.01 3247.19 63.78 9.00 399.37 2486.78
   21:35:03.190.25-Dec-2020 4768.01 3247.18 63.78 9.00 399.57 2486.78
   21:35:03.390.25-Dec-2020 4768.01 3247.30 63.78 9.00 399.77 2486.78
   21:35:03.590.25-Dec-2020 4768.01 3247.23 63.78 9.00 399.97 2486.78
   21:35:03.790.25-Dec-2020 4768.01 3247.23 63.78 9.00 400.17 2486.78
   21:35:03.990.25-Dec-2020 4768.01 3247.27 63.78 9.00 400.37 2486.78
   21:35:04.190.25-Dec-2020 4768.01 3247.30 63.78 9.00 400.57 2486.78
   21:35:04.390.25-Dec-2020 4768.01 3247.35 63.78 9.00 400.77 2486.78
   21:35:04.590.25-Dec-2020 4768.01 3247.28 63.78 9.00 400.97 2486.78
   21:35:04.790.25-Dec-2020 4768.01 3247.28 63.78 9.00 401.17 2486.78
   21:35:04.990.25-Dec-2020 4768.01 3247.17 63.78 9.00 401.37 2486.78
   21:35:05.190.25-Dec-2020 4768.01 3247.57 63.78 9.00 401.57 2486.78
   21:35:05.390.25-Dec-2020 4768.01 3247.48 63.78 9.00 401.77 2486.78
   21:35:05.590.25-Dec-2020 4768.01 3247.29 63.78 9.00 401.97 2486.78
   21:35:05.790.25-Dec-2020 4768.01 3247.47 63.78 9.00 402.17 2486.78
   21:35:05.990.25-Dec-2020 4768.01 3247.49 63.78 9.00 402.37 2486.78
   21:35:06.190.25-Dec-2020 4768.01 3247.47 63.78 9.00 402.57 2486.78
   21:35:06.390.25-Dec-2020 4768.01 3247.55 63.78 9.00 402.77 2486.78
   21:35:06.590.25-Dec-2020 4768.01 3247.47 63.78 9.00 402.97 2486.78
   21:35:06.790.25-Dec-2020 4768.01 3247.58 63.78 9.00 403.17 2486.78
   21:35:06.990.25-Dec-2020 4768.01 3247.50 63.78 9.00 403.37 2486.78
   21:35:07.190.25-Dec-2020 4768.01 3246.40 63.78 9.00 403.57 2486.78
   21:35:07.390.25-Dec-2020 4768.01 3247.99 63.78 9.00 403.77 2486.78
   21:35:07.590.25-Dec-2020 4768.01 3247.32 63.78 9.00 403.97 2486.78
   21:35:07.790.25-Dec-2020 4768.01 3247.32 63.78 9.00 404.17 2486.78
   21:35:07.990.25-Dec-2020 4768.01 3247.63 63.78 9.00 404.37 2486.78
   21:35:08.190.25-Dec-2020 4768.01 3247.58 63.78 9.00 404.57 2486.78
   21:35:08.390.25-Dec-2020 4768.01 3246.84 63.78 9.00 404.77 2486.78
   21:35:08.590.25-Dec-2020 4768.01 3247.77 63.78 9.00 404.97 2486.78
   21:35:08.790.25-Dec-2020 4768.01 3247.77 63.78 9.00 405.17 2486.78
   21:35:08.990.25-Dec-2020 4768.01 3247.06 63.78 9.00 405.37 2486.78
   21:35:09.190.25-Dec-2020 4768.01 3247.76 63.78 9.00 405.57 2486.78
   21:35:09.390.25-Dec-2020 4768.01 3247.79 63.78 9.00 405.77 2486.78
   21:35:09.590.25-Dec-2020 4768.01 3247.02 63.78 9.00 405.97 2486.78
   21:35:09.790.25-Dec-2020 4768.01 3247.02 63.78 9.00 406.17 2486.78
   21:35:09.990.25-Dec-2020 4768.01 3248.01 63.78 9.00 406.37 2486.78
   21:35:10.190.25-Dec-2020 4768.01 3247.90 63.78 9.00 406.57 2486.78
   21:35:10.390.25-Dec-2020 4768.01 3247.83 63.78 9.00 406.77 2486.78
   21:35:10.590.25-Dec-2020 4768.01 3247.74 63.78 9.00 406.97 2486.78
   21:35:10.790.25-Dec-2020 4768.01 3247.89 63.78 9.00 407.17 2486.78
   21:35:10.990.25-Dec-2020 4768.01 3247.84 63.78 9.00 407.37 2486.78
   21:35:11.190.25-Dec-2020 4768.01 3247.84 63.78 9.00 407.57 2486.78
   21:35:11.390.25-Dec-2020 4768.01 3247.93 63.78 9.00 407.77 2486.78
   21:35:11.590.25-Dec-2020 4768.01 3247.84 63.78 9.00 407.97 2486.78
   21:35:11.790.25-Dec-2020 4768.01 3247.84 63.78 9.00 408.17 2486.78
   21:35:11.990.25-Dec-2020 4768.01 3246.75 63.78 9.00 408.37 2486.78
   21:35:12.190.25-Dec-2020 4768.01 3248.20 63.78 9.00 408.57 2486.78
   21:35:12.390.25-Dec-2020 4768.01 3247.78 63.78 9.00 408.77 2486.78
   21:35:12.590.25-Dec-2020 4768.01 3247.96 63.78 9.00 408.97 2486.78
   21:35:12.790.25-Dec-2020 4768.01 3247.96 63.78 9.00 409.17 2486.78
   21:35:12.990.25-Dec-2020 4768.01 3247.95 63.78 9.00 409.37 2486.78
   21:35:13.190.25-Dec-2020 4768.01 3247.91 63.78 9.00 409.57 2486.78
   21:35:13.390.25-Dec-2020 4768.01 3248.10 63.78 9.00 409.77 2486.78
   21:35:13.590.25-Dec-2020 4768.01 3247.99 63.78 9.00 409.97 2486.78
   21:35:13.790.25-Dec-2020 4768.01 3247.99 63.78 9.00 410.17 2486.78
   21:35:13.990.25-Dec-2020 4768.01 3248.05 63.78 9.00 410.37 2486.78
   21:35:14.190.25-Dec-2020 4768.01 3248.03 63.78 9.00 410.57 2486.78
   21:35:14.390.25-Dec-2020 4768.01 3248.12 63.78 9.00 410.77 2486.78
   21:35:14.590.25-Dec-2020 4768.01 3247.07 63.78 9.00 410.97 2486.78
   21:35:14.790.25-Dec-2020 4768.01 3248.13 63.78 9.00 411.17 2486.78
   21:35:14.990.25-Dec-2020 4768.01 3248.05 63.78 9.00 411.37 2486.78
   21:35:15.190.25-Dec-2020 4768.01 3248.22 63.78 9.00 411.57 2486.78
   21:35:15.389.25-Dec-2020 4768.01 3248.18 63.78 9.00 411.77 2486.78
   21:35:15.589.25-Dec-2020 4768.01 3247.62 63.78 9.00 411.97 2486.78
   21:35:15.789.25-Dec-2020 4768.01 3247.62 63.78 9.00 412.17 2486.78
   21:35:15.989.25-Dec-2020 4768.01 3248.14 63.78 9.00 412.37 2486.78
   21:35:16.189.25-Dec-2020 4768.01 3248.48 63.78 9.00 412.57 2486.78
   21:35:16.389.25-Dec-2020 4768.01 3247.61 63.78 9.00 412.77 2486.78
   21:35:16.589.25-Dec-2020 4768.01 3248.16 63.78 9.00 412.97 2486.78
   21:35:16.789.25-Dec-2020 4768.01 3248.16 63.78 9.00 413.17 2486.78
   21:35:16.989.25-Dec-2020 4768.01 3247.69 63.78 9.00 413.37 2486.78
   21:35:17.189.25-Dec-2020 4768.01 3248.28 63.78 9.00 413.57 2486.78
   21:35:17.389.25-Dec-2020 4768.01 3248.34 63.78 9.00 413.77 2486.78
