~Version Information
 VERS.                  2.0:   CWLS log ASCII Standard -VERSION 2.0
 WRAP.                   NO:   One line per depth step
~Well Information Block
#MNEM.UNIT     VALUE/NAME     DESCRIPTION
#---------     -----------    ---------------------------
 STRT.S             15:24:16 25-Dec-20: START TIME 15:24:16 25-Dec-20
 STOP.S             15:32:36 25-Dec-20: STOP TIME  15:32:36 25-Dec-20
 STEP.S                   0.00: STEP TIME
 NULL.                 -999.25: NULL VALUE
 DFWT.                        :  DIST FWL TEXT
 DFST.                        :  DIST FSL TEXT
 DMF .             Drill Floor:  DRILL MEAS FROM
 STIM.      04.54.24 22-Sep-20:  START TIME
 DATE.      04.54.24 21-Nov-20:  END TIME
 SPUD.               21-Nov-20:  SPUD DATE
 NREF.                    Grid:  NORTH REFERENCE
 HPTY.       Minimum Curvature:  HOLE POS TYPE
 DMOD.             Drill Model:  DRILL MOD DESC
 SVYD.                  Survey:  SURVEY DESC
 ILTD.               Lithology:  INTERP LTH DESC
 FTOP.          Formation Tops:  FORM TOPS DESC
 SON .        AZ-XX-0906571587:  JOB NUMBER
 COMP.     BP Exploration (Caspian Sea) Ltd:  COMPANY
 UWI .                     N/A:  UNIQUE WELL IDENTIFIER
 API .                     N/A:  API NUMBER
 BASE.              Azerbaijan:  LOGGING EQUIPMENT BASE LOCATION
 REGN.                   EESSA:  REGION
 PROV.                    Baku:  PROVINCE
 STAT.                    Baku:  STATE NAME
 CTRY.              Azerbaijan:  COUNTRY NAME
 FLD .                     ACG:  FIELD NAME
 SRVC.     TURAN Drilling & Engineering:  CONTRACTOR
 WELL.                     J27:  WELL NAME
 RIG .             West Chirag:  RIG NAME
 DOE .                     N/A:  DOE NUMBER
 DCON.         Sperry Drilling:  DIRECTNL CONTR
 PDAT.          Mean Sea Level:  PERMANENT DATUM
 WTYP.                Deviated:  WELL TYPE
 MWDS.                    Baku:  MWD SHOP
 JOBN.        AZ-XX-0906571587:  JOB TICKET NUMB
 UNIT.                     N/A:  LOGGING EQUIPMENT ID
 MDS .        Operator Entered:  MAG DATA SOURCE
 CNTY.                        :  COUNTY
 LOC .                        :  LOCATION
 LMF .             Drill Floor:  LOG MEASURED FROM
 TVDS.m                  43.00:  TVDSS CORRECTN
 LATI.deg                40.13:  LATITUDE
 LONG.deg                51.22:  LONGITUDE
 WHNS.m                   7.72:  WELL HEAD N/S
 WHEW.m                 -14.24:  WELL HEAD E/W
 UTMX.m              519005.06:  UTM X
 UTMY.m             4443793.85:  UTM Y
 DFWL.m                   0.00:  DISTANCE FWL
 DFSL.m                   0.00:  DISTANCE FSL
 SDEP.m                 347.00:  START DEPTH
 TDD .m                 581.00:  TOTAL DEPTH (DRILLER)
 VSDR.deg               159.72:  VERT SEC DIRECT
 GVFD.g                   1.00:  GRAVITY FIELD
 MFLD.nT              50318.00:  MAGNETIC FIELD
 MDIP.deg                59.57:  MAGNETIC DIP
 MDEC.deg                 6.44:  MAGNETIC DECL
 GRDC.deg                 0.15:  GRID CORRECTION
 AZTC.deg                 6.29:  AZM TOTAL CORR
 EPD .m                   0.00:  ELEVATION
 EGL .m                   0.00:  GROUND ELEVATION
 WDMS.m                 169.80:  WD ELEV
 APD .m                  43.00:  DEPTH ABOVE PD
 AGAP.m                  43.00:  AIR GAP
 VSEW.m                 -14.24:  VERT SEC E/W
 VSNS.m                   7.72:  VERT SEC N/S
 DEP .m                 342.45:  DEPTH
 EKB .m                   0.00:  KB ELEVATION
 EDF .m                  43.00:  DF ELEVATION
 TDL .m                 237.00:  TOTAL DEPTH (LOGGER)
 VSC .                       0:  VS TO CLOSURE
 MAGU.                 1851428:  MAGUTM CHECKSUM
~Parameter Information Block
#MNEM.UNIT       Value        Description
#---------     -----------    ---------------------------
 AV  .mps                 1.50:  Ann Velocity 
 AVMX.mps                 2.90:  Max Ann Veloc 
 AZIF.deg               115.59:  Azm, Final 
 BHAT.        Rotary Steerable:  BHA Type 
 BROT.°/30m               0.50:  Build Rotating 
 BS  .in                  8.50:  Bit Size 
 BTPL.psig              580.00:  Bit Press Loss 
 CABU.                     Yes:  Customer Abuse 
 TCS .hr                 89.79:  Time Ciculation Ended 
 CV  .mps                 3.22:  Crit Velocity 
 CVMX.mps                 4.37:  Max Crit Veloc 
 DD1 .          Rashad Habibov:  Direct Drillr 1 
 DDSV.               Geo-Pilot:  DD Service 
 DEFF.%                  95.00:  % Det Eff 
 DLRX.°/30m               1.94:  Dogleg Rot Max 
 DLSO.°/30m               0.70:  Dogleg Oriented 
 DLSX.°/30m               1.94:  Dogleg Str Max 
 DRET.      04.45.00 25-Dec-20:  Drill End Time 
 DRST.      10.00.00 24-Dec-20:  Drill Start Tim 
 DTIM.hr                 16.64:  Time Drilling 
 EDEP.m                4999.01:  End Depth 
 ENG1.         Elchin Mammadov:  Engineer 1 
 ENG2.          Ruslan Safarov:  Engineer 2 
 ENG3.          Rustam Safarov:  Engineer 3 
 ETIM.      09.00.00 29-Dec-20:  End Time 
 FLOI.gpm               500.00:  Flow In 
 FLON.gpm               400.00:  Flow In Min 
 FLOS.cptm                0.00:  Fluid Loss 
 FLOX.gpm               500.00:  Flow In Max 
 HFLO.                      No:  High Flow 
 HPRE.                      No:  High Pressure 
 HTEM.                      No:  High Temp 
 HYDO.m                   2.00:  Hydro Offset 
 IFIN.deg                66.79:  Inc, Final 
 IMAX.deg                67.66:  Inc Max 
 IMIN.deg                66.39:  Inc Min 
 IMND.m                4949.37:  Inc Min Depth 
 IMXD.m                4778.63:  Inc Max Depth 
 JARR.                     Yes:  Jarring 
 LETM.      04.45.00 25-Dec-20:  Log End Time 
 LOST.hr                     0:  Lost Rig Time 
 LSTM.      10.00.00 24-Dec-20:  Log Start Time 
 MDCL.ppm             39000.00:  Mud Chlorides 
 MDES.     Inversion Oil/Synthetic:  Mud Desc 
 DFD .sg                  1.33:  Mud Density 
 MDMN.sg                  1.33:  Dens Mud Min 
 MDMX.sg                  1.33:  Dens Mud Max 
 MOIL.                      70:  Run Mud Oil % 
 MOWR.                   70:30:  Run Mud OWR 
 MSND.                       0:  Run Mud Sand % 
 MSOL.                    17.4:  Run Mud Solids% 
 DFV .spqt               84.00:  Mud Viscosity 
 MWOD.in                  6.75:  MWD Tool OD 
 MWSI.                     Yes:  Serv Intrp, MWD 
 OTIM.hr                168.14:  Time Operating 
 PCON.           Look Like New:  Pad Condition 
 PMAX.psia            10822.93:  Press Op, Max 
 PV  .cP                 30.00:  Mud PV 
 RUN .                     900:  Run Number 
 ROPA.m/hr               18.00:  ROP Avg 
 ROPN.m/hr               12.00:  ROP Min 
 ROPX.m/hr               25.00:  ROP Max 
 RPMA.rpm               120.00:  RPM Surface Avg 
 RPMN.rpm               100.00:  RPM Surface Min 
 RPMX.rpm               120.00:  RPM Surface Max 
 RRUN.                    0900:  Rig Run Number 
 SAZI.deg               115.08:  Azm, Start 
 SDEP.m                4762.01:  Start Depth 
 SIDD.                      No:  Serv Intrp, DD 
 SINC.deg                66.14:  Inc, Start 
 SPPA.psig             3700.00:  SPP Avg 
 SPPN.psig             3620.00:  SPP Min 
 SPPX.psig             3900.00:  SPP Max 
 STIM.      09.30.00 22-Dec-20:  Start Time 
 SVCS.                 DD, MWD:  Services 
 SVER.                    9.20:  Sperry Version 
 TDAT.m                 237.00:  Tot Depth Attmp 
 TDDF.                      No:  Trip for DD 
 TDLG.m                 237.00:  Tot Depth Loggd 
 TFF .                      No:  Trip for Fail 
 TQAA.f-kp               18.00:  Torque Abs Avg 
 TQAN.f-kp               17.00:  Torque Abs Min 
 TQAX.f-kp               20.00:  Torque Abs Max 
 TRRT.°/30m               0.60:  Turn Rotating 
 MRT .                    HCIM:  Maximum Recorded Temperature 
 TTMX.degC               94.12:  Max Tool Temp 
 VS01.                90627809:  Virtual Str1 SN 
 VS02.                90527813:  Virtual Str2 SN 
 VS03.                90545417:  Virtual Str3 SN 
 VS04.                12460870:  Virtual Str4 SN 
 VS05.                90516706:  Virtual Str5 SN 
 VS06.                90632007:  Virtual Str6 SN 
 WBMN.klb                 0.00:  WOB Min 
 WOBA.klb                14.00:  WOB Avg 
 WOBX.klb                25.00:  WOB Max 
 YP  .lhf2               32.00:  Yield Point 
~Curve Information Block
#MNEM.UNIT                 API CODE     Curve Description
#---------               -----------    ---------------------------
 TIME.HHMMSS            00 000 000 000:  GT Time & Date
 GTDEPTH.m              00 000 000 000:  GT Depth
 GTPQH.psia             00 000 000 000:  GT HR Quartz Pressure
 GTTQ.degC              00 000 000 000:  GT Quartz Temperature
 GTTN.NONE              00 000 000 000:  GT Test Number
 GTET.sec               00 000 000 000:  GT Elapsed Test Time
 GTTVD.m                00 000 000 000:  GT True Vertical Depth
#Other Information
#
#WARRANTY: Halliburton will use its best efforts to furnish customers with 
#accurate information and interpretations that are part of, and incident to, the services 
#provided.  However, Halliburton cannot and does not warrant the accuracy 
#or correctness of such information and interpretations.  Under no circumstances should any 
#such information or interpretation be relied upon as the sole basis for any drilling, 
#completion, production, or financial decision or any procedure involving any risk to the 
#safety of any drilling venture, drilling rig or its crew or any other third party.  The 
#Customer has full responsibility for all drilling, completion and production operation.  
#Halliburton makes no representations or warranties, either expressed or 
#implied, including, but not limited to, the implied warranties of merchantability or fitness 
#for a particular purpose, with respect to the services rendered.  In no event will 
#Halliburton be liable for failure to obtain any particular results or for 
#any damages, including, but not limited to, indirect, special or consequential damages, 
#resulting from the use of any information or interpretation provided by Halliburton.
#
~A           TIME           GTDEPTH  GTPQH  GTTQ  GTTN  GTET   GTTVD  
# ...
   15:25:48.776.25-Dec-2020 4892.01 2718.76 65.38 4.00  92.02 2535.10
   15:25:48.976.25-Dec-2020 4892.01 2718.76 65.38 4.00  92.22 2535.10
   15:25:49.177.25-Dec-2020 4892.01 2718.66 65.38 4.00  92.42 2535.10
   15:25:49.377.25-Dec-2020 4892.01 2718.57 65.38 4.00  92.62 2535.10
   15:25:49.577.25-Dec-2020 4892.01 2718.52 65.38 4.00  92.83 2535.10
   15:25:49.777.25-Dec-2020 4892.01 2718.60 65.38 4.00  93.03 2535.10
   15:25:49.977.25-Dec-2020 4892.01 2718.60 65.38 4.00  93.23 2535.10
   15:25:50.177.25-Dec-2020 4892.01 2718.63 65.38 4.00  93.43 2535.10
   15:25:50.377.25-Dec-2020 4892.01 2718.54 65.38 4.00  93.63 2535.10
   15:25:50.577.25-Dec-2020 4892.01 2718.63 65.38 4.00  93.83 2535.10
   15:25:50.777.25-Dec-2020 4892.01 2718.66 65.38 4.00  94.03 2535.10
   15:25:50.977.25-Dec-2020 4892.01 2718.66 65.38 4.00  94.23 2535.10
   15:25:51.177.25-Dec-2020 4892.01 2718.65 65.38 4.00  94.43 2535.10
   15:25:51.377.25-Dec-2020 4892.01 2718.51 65.38 4.00  94.63 2535.10
   15:25:51.577.25-Dec-2020 4892.01 2718.47 65.38 4.00  94.83 2535.10
   15:25:51.777.25-Dec-2020 4892.01 2718.64 65.38 4.00  95.03 2535.10
   15:25:51.977.25-Dec-2020 4892.01 2718.62 65.38 4.00  95.23 2535.10
   15:25:52.177.25-Dec-2020 4892.01 2718.48 65.38 4.00  95.43 2535.10
   15:25:52.377.25-Dec-2020 4892.01 2718.57 65.38 4.00  95.63 2535.10
   15:25:52.577.25-Dec-2020 4892.01 2718.57 65.38 4.00  95.83 2535.10
   15:25:52.777.25-Dec-2020 4892.01 2718.58 65.38 4.00  96.03 2535.10
   15:25:52.978.25-Dec-2020 4892.01 2718.58 65.38 4.00  96.23 2535.10
   15:25:53.178.25-Dec-2020 4892.01 2718.60 65.38 4.00  96.43 2535.10
   15:25:53.378.25-Dec-2020 4892.01 2718.62 65.38 4.00  96.63 2535.10
   15:25:53.578.25-Dec-2020 4892.01 2718.63 65.38 4.00  96.83 2535.10
   15:25:53.778.25-Dec-2020 4892.01 2718.52 65.38 4.00  97.03 2535.10
   15:25:53.978.25-Dec-2020 4892.01 2718.52 65.38 4.00  97.23 2535.10
   15:25:54.178.25-Dec-2020 4892.01 2718.68 65.38 4.00  97.43 2535.10
   15:25:54.378.25-Dec-2020 4892.01 2718.43 65.38 4.00  97.63 2535.10
   15:25:54.578.25-Dec-2020 4892.01 2718.69 65.38 4.00  97.83 2535.10
   15:25:54.778.25-Dec-2020 4892.01 2718.56 65.38 4.00  98.03 2535.10
   15:25:54.978.25-Dec-2020 4892.01 2718.56 65.38 4.00  98.23 2535.10
   15:25:55.178.25-Dec-2020 4892.01 2718.63 65.38 4.00  98.43 2535.10
   15:25:55.378.25-Dec-2020 4892.01 2718.61 65.38 4.00  98.63 2535.10
   15:25:55.578.25-Dec-2020 4892.01 2718.63 65.38 4.00  98.83 2535.10
   15:25:55.778.25-Dec-2020 4892.01 2718.63 65.38 4.00  99.03 2535.10
   15:25:55.978.25-Dec-2020 4892.01 2718.63 65.38 4.00  99.23 2535.10
   15:25:56.178.25-Dec-2020 4892.01 2718.64 65.38 4.00  99.43 2535.10
   15:25:56.378.25-Dec-2020 4892.01 2718.57 65.38 4.00  99.63 2535.10
   15:25:56.578.25-Dec-2020 4892.01 2718.56 65.38 4.00  99.83 2535.10
   15:25:56.779.25-Dec-2020 4892.01 2718.66 65.38 4.00 100.03 2535.10
   15:25:56.979.25-Dec-2020 4892.01 2718.66 65.38 4.00 100.23 2535.10
   15:25:57.179.25-Dec-2020 4892.01 2718.41 65.38 4.00 100.43 2535.10
   15:25:57.379.25-Dec-2020 4892.01 2718.77 65.38 4.00 100.63 2535.10
   15:25:57.579.25-Dec-2020 4892.01 2718.68 65.38 4.00 100.83 2535.10
   15:25:57.779.25-Dec-2020 4892.01 2718.40 65.38 4.00 101.03 2535.10
   15:25:57.979.25-Dec-2020 4892.01 2718.40 65.38 4.00 101.23 2535.10
   15:25:58.179.25-Dec-2020 4892.01 2718.69 65.38 4.00 101.43 2535.10
   15:25:58.379.25-Dec-2020 4892.01 2718.63 65.38 4.00 101.63 2535.10
   15:25:58.579.25-Dec-2020 4892.01 2718.39 65.38 4.00 101.83 2535.10
   15:25:58.779.25-Dec-2020 4892.01 2718.41 65.38 4.00 102.03 2535.10
   15:25:58.979.25-Dec-2020 4892.01 2718.41 65.38 4.00 102.23 2535.10
   15:25:59.179.25-Dec-2020 4892.01 2718.59 65.38 4.00 102.43 2535.10
   15:25:59.379.25-Dec-2020 4892.01 2718.40 65.38 4.00 102.63 2535.10
   15:25:59.579.25-Dec-2020 4892.01 2718.65 65.38 4.00 102.83 2535.10
   15:25:59.779.25-Dec-2020 4892.01 2718.53 65.38 4.00 103.03 2535.10
   15:25:59.979.25-Dec-2020 4892.01 2718.52 65.38 4.00 103.23 2535.10
   15:26:00.179.25-Dec-2020 4892.01 2718.57 65.38 4.00 103.43 2535.10
   15:26:00.380.25-Dec-2020 4892.01 2718.57 65.38 4.00 103.63 2535.10
   15:26:00.580.25-Dec-2020 4892.01 2718.59 65.38 4.00 103.83 2535.10
   15:26:00.780.25-Dec-2020 4892.01 2718.68 65.38 4.00 104.03 2535.10
   15:26:00.980.25-Dec-2020 4892.01 2718.68 65.38 4.00 104.23 2535.10
   15:26:01.180.25-Dec-2020 4892.01 2718.62 65.38 4.00 104.43 2535.10
   15:26:01.380.25-Dec-2020 4892.01 2718.59 65.38 4.00 104.63 2535.10
   15:26:01.580.25-Dec-2020 4892.01 2718.78 65.38 4.00 104.83 2535.10
   15:26:01.780.25-Dec-2020 4892.01 2718.72 65.38 4.00 105.03 2535.10
   15:26:01.980.25-Dec-2020 4892.01 2718.72 65.38 4.00 105.23 2535.10
   15:26:02.180.25-Dec-2020 4892.01 2718.59 65.38 4.00 105.43 2535.10
   15:26:02.380.25-Dec-2020 4892.01 2718.58 65.38 4.00 105.63 2535.10
   15:26:02.580.25-Dec-2020 4892.01 2718.55 65.38 4.00 105.83 2535.10
   15:26:02.780.25-Dec-2020 4892.01 2718.61 65.38 4.00 106.03 2535.10
   15:26:02.980.25-Dec-2020 4892.01 2718.61 65.38 4.00 106.23 2535.10
   15:26:03.180.25-Dec-2020 4892.01 2718.61 65.38 4.00 106.43 2535.10
   15:26:03.380.25-Dec-2020 4892.01 2718.61 65.38 4.00 106.63 2535.10
   15:26:03.580.25-Dec-2020 4892.01 2718.62 65.38 4.00 106.83 2535.10
   15:26:03.780.25-Dec-2020 4892.01 2718.50 65.38 4.00 107.03 2535.10
   15:26:03.980.25-Dec-2020 4892.01 2718.78 65.38 4.00 107.23 2535.10
   15:26:04.181.25-Dec-2020 4892.01 2718.68 65.38 4.00 107.43 2535.10
   15:26:04.381.25-Dec-2020 4892.01 2718.43 65.38 4.00 107.63 2535.10
   15:26:04.581.25-Dec-2020 4892.01 2718.70 65.38 4.00 107.83 2535.10
   15:26:04.781.25-Dec-2020 4892.01 2718.56 65.38 4.00 108.03 2535.10
   15:26:04.981.25-Dec-2020 4892.01 2718.56 65.38 4.00 108.23 2535.10
   15:26:05.181.25-Dec-2020 4892.01 2718.74 65.38 4.00 108.43 2535.10
   15:26:05.381.25-Dec-2020 4892.01 2718.37 65.38 4.00 108.63 2535.10
   15:26:05.581.25-Dec-2020 4892.01 2718.87 65.38 4.00 108.83 2535.10
   15:26:05.781.25-Dec-2020 4892.01 2718.39 65.38 4.00 109.03 2535.10
   15:26:05.981.25-Dec-2020 4892.01 2718.39 65.38 4.00 109.23 2535.10
   15:26:06.181.25-Dec-2020 4892.01 2718.54 65.38 4.00 109.43 2535.10
   15:26:06.381.25-Dec-2020 4892.01 2718.44 65.38 4.00 109.63 2535.10
   15:26:06.581.25-Dec-2020 4892.01 2718.75 65.38 4.00 109.83 2535.10
   15:26:06.781.25-Dec-2020 4892.01 2718.66 65.38 4.00 110.03 2535.10
   15:26:06.981.25-Dec-2020 4892.01 2718.66 65.38 4.00 110.23 2535.10
   15:26:07.181.25-Dec-2020 4892.01 2718.56 65.38 4.00 110.43 2535.10
   15:26:07.381.25-Dec-2020 4892.01 2718.55 65.38 4.00 110.63 2535.10
   15:26:07.581.25-Dec-2020 4892.01 2718.52 65.38 4.00 110.83 2535.10
   15:26:07.782.25-Dec-2020 4892.01 2718.56 65.38 4.00 111.03 2535.10
   15:26:07.982.25-Dec-2020 4892.01 2718.57 65.38 4.00 111.23 2535.10
   15:26:08.182.25-Dec-2020 4892.01 2718.58 65.38 4.00 111.43 2535.10
   15:26:08.382.25-Dec-2020 4892.01 2718.59 65.38 4.00 111.63 2535.10
   15:26:08.582.25-Dec-2020 4892.01 2718.59 65.38 4.00 111.83 2535.10
   15:26:08.782.25-Dec-2020 4892.01 2718.61 65.38 4.00 112.03 2535.10
   15:26:08.982.25-Dec-2020 4892.01 2718.61 65.38 4.00 112.23 2535.10
   15:26:09.182.25-Dec-2020 4892.01 2718.44 65.38 4.00 112.43 2535.10
   15:26:09.382.25-Dec-2020 4892.01 2718.64 65.38 4.00 112.63 2535.10
   15:26:09.582.25-Dec-2020 4892.01 2718.53 65.38 4.00 112.83 2535.10
   15:26:09.782.25-Dec-2020 4892.01 2718.52 65.38 4.00 113.03 2535.10
   15:26:09.982.25-Dec-2020 4892.01 2718.52 65.38 4.00 113.23 2535.10
   15:26:10.182.25-Dec-2020 4892.01 2718.55 65.38 4.00 113.43 2535.10
   15:26:10.382.25-Dec-2020 4892.01 2718.60 65.38 4.00 113.63 2535.10
   15:26:10.582.25-Dec-2020 4892.01 2718.60 65.38 4.00 113.83 2535.10
   15:26:10.782.25-Dec-2020 4892.01 2718.60 65.38 4.00 114.03 2535.10
   15:26:10.982.25-Dec-2020 4892.01 2718.60 65.38 4.00 114.23 2535.10
   15:26:11.182.25-Dec-2020 4892.01 2718.60 65.38 4.00 114.43 2535.10
   15:26:11.382.25-Dec-2020 4892.01 2718.57 65.38 4.00 114.63 2535.10
   15:26:11.583.25-Dec-2020 4892.01 2718.78 65.38 4.00 114.83 2535.10
