~Version Information
 VERS.                  2.0:   CWLS log ASCII Standard -VERSION 2.0
 WRAP.                   NO:   One line per depth step
~Well Information Block
#MNEM.UNIT     VALUE/NAME     DESCRIPTION
#---------     -----------    ---------------------------
 STRT.S             15:24:16 25-Dec-20: START TIME 15:24:16 25-Dec-20
 STOP.S             15:32:36 25-Dec-20: STOP TIME  15:32:36 25-Dec-20
 STEP.S                   0.00: STEP TIME
 NULL.                 -999.25: NULL VALUE
 DFWT.                        :  DIST FWL TEXT
 DFST.                        :  DIST FSL TEXT
 DMF .             Drill Floor:  DRILL MEAS FROM
 STIM.      04.54.24 22-Sep-20:  START TIME
 DATE.      04.54.24 21-Nov-20:  END TIME
 SPUD.               21-Nov-20:  SPUD DATE
 NREF.                    Grid:  NORTH REFERENCE
 HPTY.       Minimum Curvature:  HOLE POS TYPE
 DMOD.             Drill Model:  DRILL MOD DESC
 SVYD.                  Survey:  SURVEY DESC
 ILTD.               Lithology:  INTERP LTH DESC
 FTOP.          Formation Tops:  FORM TOPS DESC
 SON .        AZ-XX-0906571587:  JOB NUMBER
 COMP.     BP Exploration (Caspian Sea) Ltd:  COMPANY
 UWI .                     N/A:  UNIQUE WELL IDENTIFIER
 API .                     N/A:  API NUMBER
 BASE.              Azerbaijan:  LOGGING EQUIPMENT BASE LOCATION
 REGN.                   EESSA:  REGION
 PROV.                    Baku:  PROVINCE
 STAT.                    Baku:  STATE NAME
 CTRY.              Azerbaijan:  COUNTRY NAME
 FLD .                     ACG:  FIELD NAME
 SRVC.     TURAN Drilling & Engineering:  CONTRACTOR
 WELL.                     J27:  WELL NAME
 RIG .             West Chirag:  RIG NAME
 DOE .                     N/A:  DOE NUMBER
 DCON.         Sperry Drilling:  DIRECTNL CONTR
 PDAT.          Mean Sea Level:  PERMANENT DATUM
 WTYP.                Deviated:  WELL TYPE
 MWDS.                    Baku:  MWD SHOP
 JOBN.        AZ-XX-0906571587:  JOB TICKET NUMB
 UNIT.                     N/A:  LOGGING EQUIPMENT ID
 MDS .        Operator Entered:  MAG DATA SOURCE
 CNTY.                        :  COUNTY
 LOC .                        :  LOCATION
 LMF .             Drill Floor:  LOG MEASURED FROM
 TVDS.m                  43.00:  TVDSS CORRECTN
 LATI.deg                40.13:  LATITUDE
 LONG.deg                51.22:  LONGITUDE
 WHNS.m                   7.72:  WELL HEAD N/S
 WHEW.m                 -14.24:  WELL HEAD E/W
 UTMX.m              519005.06:  UTM X
 UTMY.m             4443793.85:  UTM Y
 DFWL.m                   0.00:  DISTANCE FWL
 DFSL.m                   0.00:  DISTANCE FSL
 SDEP.m                 347.00:  START DEPTH
 TDD .m                 581.00:  TOTAL DEPTH (DRILLER)
 VSDR.deg               159.72:  VERT SEC DIRECT
 GVFD.g                   1.00:  GRAVITY FIELD
 MFLD.nT              50318.00:  MAGNETIC FIELD
 MDIP.deg                59.57:  MAGNETIC DIP
 MDEC.deg                 6.44:  MAGNETIC DECL
 GRDC.deg                 0.15:  GRID CORRECTION
 AZTC.deg                 6.29:  AZM TOTAL CORR
 EPD .m                   0.00:  ELEVATION
 EGL .m                   0.00:  GROUND ELEVATION
 WDMS.m                 169.80:  WD ELEV
 APD .m                  43.00:  DEPTH ABOVE PD
 AGAP.m                  43.00:  AIR GAP
 VSEW.m                 -14.24:  VERT SEC E/W
 VSNS.m                   7.72:  VERT SEC N/S
 DEP .m                 342.45:  DEPTH
 EKB .m                   0.00:  KB ELEVATION
 EDF .m                  43.00:  DF ELEVATION
 TDL .m                 237.00:  TOTAL DEPTH (LOGGER)
 VSC .                       0:  VS TO CLOSURE
 MAGU.                 1851428:  MAGUTM CHECKSUM
~Parameter Information Block
#MNEM.UNIT       Value        Description
#---------     -----------    ---------------------------
 AV  .mps                 1.50:  Ann Velocity 
 AVMX.mps                 2.90:  Max Ann Veloc 
 AZIF.deg               115.59:  Azm, Final 
 BHAT.        Rotary Steerable:  BHA Type 
 BROT.°/30m               0.50:  Build Rotating 
 BS  .in                  8.50:  Bit Size 
 BTPL.psig              580.00:  Bit Press Loss 
 CABU.                     Yes:  Customer Abuse 
 TCS .hr                 89.79:  Time Ciculation Ended 
 CV  .mps                 3.22:  Crit Velocity 
 CVMX.mps                 4.37:  Max Crit Veloc 
 DD1 .          Rashad Habibov:  Direct Drillr 1 
 DDSV.               Geo-Pilot:  DD Service 
 DEFF.%                  95.00:  % Det Eff 
 DLRX.°/30m               1.94:  Dogleg Rot Max 
 DLSO.°/30m               0.70:  Dogleg Oriented 
 DLSX.°/30m               1.94:  Dogleg Str Max 
 DRET.      04.45.00 25-Dec-20:  Drill End Time 
 DRST.      10.00.00 24-Dec-20:  Drill Start Tim 
 DTIM.hr                 16.64:  Time Drilling 
 EDEP.m                4999.01:  End Depth 
 ENG1.         Elchin Mammadov:  Engineer 1 
 ENG2.          Ruslan Safarov:  Engineer 2 
 ENG3.          Rustam Safarov:  Engineer 3 
 ETIM.      09.00.00 29-Dec-20:  End Time 
 FLOI.gpm               500.00:  Flow In 
 FLON.gpm               400.00:  Flow In Min 
 FLOS.cptm                0.00:  Fluid Loss 
 FLOX.gpm               500.00:  Flow In Max 
 HFLO.                      No:  High Flow 
 HPRE.                      No:  High Pressure 
 HTEM.                      No:  High Temp 
 HYDO.m                   2.00:  Hydro Offset 
 IFIN.deg                66.79:  Inc, Final 
 IMAX.deg                67.66:  Inc Max 
 IMIN.deg                66.39:  Inc Min 
 IMND.m                4949.37:  Inc Min Depth 
 IMXD.m                4778.63:  Inc Max Depth 
 JARR.                     Yes:  Jarring 
 LETM.      04.45.00 25-Dec-20:  Log End Time 
 LOST.hr                     0:  Lost Rig Time 
 LSTM.      10.00.00 24-Dec-20:  Log Start Time 
 MDCL.ppm             39000.00:  Mud Chlorides 
 MDES.     Inversion Oil/Synthetic:  Mud Desc 
 DFD .sg                  1.33:  Mud Density 
 MDMN.sg                  1.33:  Dens Mud Min 
 MDMX.sg                  1.33:  Dens Mud Max 
 MOIL.                      70:  Run Mud Oil % 
 MOWR.                   70:30:  Run Mud OWR 
 MSND.                       0:  Run Mud Sand % 
 MSOL.                    17.4:  Run Mud Solids% 
 DFV .spqt               84.00:  Mud Viscosity 
 MWOD.in                  6.75:  MWD Tool OD 
 MWSI.                     Yes:  Serv Intrp, MWD 
 OTIM.hr                168.14:  Time Operating 
 PCON.           Look Like New:  Pad Condition 
 PMAX.psia            10822.93:  Press Op, Max 
 PV  .cP                 30.00:  Mud PV 
 RUN .                     900:  Run Number 
 ROPA.m/hr               18.00:  ROP Avg 
 ROPN.m/hr               12.00:  ROP Min 
 ROPX.m/hr               25.00:  ROP Max 
 RPMA.rpm               120.00:  RPM Surface Avg 
 RPMN.rpm               100.00:  RPM Surface Min 
 RPMX.rpm               120.00:  RPM Surface Max 
 RRUN.                    0900:  Rig Run Number 
 SAZI.deg               115.08:  Azm, Start 
 SDEP.m                4762.01:  Start Depth 
 SIDD.                      No:  Serv Intrp, DD 
 SINC.deg                66.14:  Inc, Start 
 SPPA.psig             3700.00:  SPP Avg 
 SPPN.psig             3620.00:  SPP Min 
 SPPX.psig             3900.00:  SPP Max 
 STIM.      09.30.00 22-Dec-20:  Start Time 
 SVCS.                 DD, MWD:  Services 
 SVER.                    9.20:  Sperry Version 
 TDAT.m                 237.00:  Tot Depth Attmp 
 TDDF.                      No:  Trip for DD 
 TDLG.m                 237.00:  Tot Depth Loggd 
 TFF .                      No:  Trip for Fail 
 TQAA.f-kp               18.00:  Torque Abs Avg 
 TQAN.f-kp               17.00:  Torque Abs Min 
 TQAX.f-kp               20.00:  Torque Abs Max 
 TRRT.°/30m               0.60:  Turn Rotating 
 MRT .                    HCIM:  Maximum Recorded Temperature 
 TTMX.degC               94.12:  Max Tool Temp 
 VS01.                90627809:  Virtual Str1 SN 
 VS02.                90527813:  Virtual Str2 SN 
 VS03.                90545417:  Virtual Str3 SN 
 VS04.                12460870:  Virtual Str4 SN 
 VS05.                90516706:  Virtual Str5 SN 
 VS06.                90632007:  Virtual Str6 SN 
 WBMN.klb                 0.00:  WOB Min 
 WOBA.klb                14.00:  WOB Avg 
 WOBX.klb                25.00:  WOB Max 
 YP  .lhf2               32.00:  Yield Point 
~Curve Information Block
#MNEM.UNIT                 API CODE     Curve Description
#---------               -----------    ---------------------------
 TIME.HHMMSS            00 000 000 000:  GT Time & Date
 GTDEPTH.m              00 000 000 000:  GT Depth
 GTPQH.psia             00 000 000 000:  GT HR Quartz Pressure
 GTTQ.degC              00 000 000 000:  GT Quartz Temperature
 GTTN.NONE              00 000 000 000:  GT Test Number
 GTET.sec               00 000 000 000:  GT Elapsed Test Time
 GTTVD.m                00 000 000 000:  GT True Vertical Depth
#Other Information
#
#WARRANTY: Halliburton will use its best efforts to furnish customers with 
#accurate information and interpretations that are part of, and incident to, the services 
#provided.  However, Halliburton cannot and does not warrant the accuracy 
#or correctness of such information and interpretations.  Under no circumstances should any 
#such information or interpretation be relied upon as the sole basis for any drilling, 
#completion, production, or financial decision or any procedure involving any risk to the 
#safety of any drilling venture, drilling rig or its crew or any other third party.  The 
#Customer has full responsibility for all drilling, completion and production operation.  
#Halliburton makes no representations or warranties, either expressed or 
#implied, including, but not limited to, the implied warranties of merchantability or fitness 
#for a particular purpose, with respect to the services rendered.  In no event will 
#Halliburton be liable for failure to obtain any particular results or for 
#any damages, including, but not limited to, indirect, special or consequential damages, 
#resulting from the use of any information or interpretation provided by Halliburton.
#
~A           TIME           GTDEPTH  GTPQH  GTTQ  GTTN  GTET   GTTVD  
# ...
   15:27:20.801.25-Dec-2020 4892.01 2611.22 65.37 4.00 184.05 2535.10
   15:27:21.001.25-Dec-2020 4892.01 2611.22 65.37 4.00 184.25 2535.10
   15:27:21.201.25-Dec-2020 4892.01 2611.62 65.37 4.00 184.45 2535.10
   15:27:21.401.25-Dec-2020 4892.01 2612.68 65.37 4.00 184.65 2535.10
   15:27:21.601.25-Dec-2020 4892.01 2619.52 65.37 4.00 184.85 2535.10
   15:27:21.801.25-Dec-2020 4892.01 2615.01 65.36 4.00 185.05 2535.10
   15:27:22.002.25-Dec-2020 4892.01 2615.01 65.36 4.00 185.25 2535.10
   15:27:22.202.25-Dec-2020 4892.01 2613.64 65.36 4.00 185.45 2535.10
   15:27:22.402.25-Dec-2020 4892.01 2614.59 65.36 4.00 185.65 2535.10
   15:27:22.602.25-Dec-2020 4892.01 2613.47 65.36 4.00 185.85 2535.10
   15:27:22.802.25-Dec-2020 4892.01 2609.57 65.36 4.00 186.05 2535.10
   15:27:23.002.25-Dec-2020 4892.01 2609.57 65.36 4.00 186.25 2535.10
   15:27:23.202.25-Dec-2020 4892.01 2608.78 65.36 4.00 186.45 2535.10
   15:27:23.402.25-Dec-2020 4892.01 2605.77 65.36 4.00 186.65 2535.10
   15:27:23.602.25-Dec-2020 4892.01 2607.91 65.36 4.00 186.85 2535.10
   15:27:23.802.25-Dec-2020 4892.01 2606.18 65.36 4.00 187.05 2535.10
   15:27:24.002.25-Dec-2020 4892.01 2608.75 65.36 4.00 187.25 2535.10
   15:27:24.202.25-Dec-2020 4892.01 2610.41 65.36 4.00 187.45 2535.10
   15:27:24.402.25-Dec-2020 4892.01 2613.41 65.36 4.00 187.65 2535.10
   15:27:24.602.25-Dec-2020 4892.01 2621.34 65.36 4.00 187.85 2535.10
   15:27:24.802.25-Dec-2020 4892.01 2608.01 65.36 4.00 188.05 2535.10
   15:27:25.002.25-Dec-2020 4892.01 2608.01 65.36 4.00 188.25 2535.10
   15:27:25.202.25-Dec-2020 4892.01 2626.31 65.36 4.00 188.45 2535.10
   15:27:25.402.25-Dec-2020 4892.01 2625.03 65.36 4.00 188.65 2535.10
   15:27:25.603.25-Dec-2020 4892.01 2619.17 65.36 4.00 188.85 2535.10
   15:27:25.803.25-Dec-2020 4892.01 2617.34 65.36 4.00 189.05 2535.10
   15:27:26.003.25-Dec-2020 4892.01 2617.34 65.36 4.00 189.25 2535.10
   15:27:26.203.25-Dec-2020 4892.01 2625.30 65.36 4.00 189.45 2535.10
   15:27:26.403.25-Dec-2020 4892.01 2707.01 65.36 4.00 189.65 2535.10
   15:27:26.603.25-Dec-2020 4892.01 2717.05 65.36 4.00 189.85 2535.10
   15:27:26.803.25-Dec-2020 4892.01 2717.44 65.36 4.00 190.05 2535.10
   15:27:27.003.25-Dec-2020 4892.01 2717.44 65.36 4.00 190.25 2535.10
   15:27:27.203.25-Dec-2020 4892.01 2718.00 65.36 4.00 190.45 2535.10
   15:27:27.403.25-Dec-2020 4892.01 2717.98 65.36 4.00 190.65 2535.10
   15:27:27.603.25-Dec-2020 4892.01 2717.70 65.36 4.00 190.85 2535.10
   15:27:27.803.25-Dec-2020 4892.01 2718.12 65.36 4.00 191.05 2535.10
   15:27:28.003.25-Dec-2020 4892.01 2718.15 65.36 4.00 191.25 2535.10
   15:27:28.203.25-Dec-2020 4892.01 2717.77 65.36 4.00 191.45 2535.10
   15:27:28.403.25-Dec-2020 4892.01 2717.95 65.36 4.00 191.65 2535.10
   15:27:28.603.25-Dec-2020 4892.01 2718.26 65.36 4.00 191.85 2535.10
   15:27:28.803.25-Dec-2020 4892.01 2718.19 65.36 4.00 192.05 2535.10
   15:27:29.003.25-Dec-2020 4892.01 2718.19 65.36 4.00 192.25 2535.10
   15:27:29.203.25-Dec-2020 4892.01 2718.22 65.36 4.00 192.45 2535.10
   15:27:29.404.25-Dec-2020 4892.01 2718.14 65.36 4.00 192.65 2535.10
   15:27:29.604.25-Dec-2020 4892.01 2718.22 65.36 4.00 192.85 2535.10
   15:27:29.804.25-Dec-2020 4892.01 2718.27 65.36 4.00 193.05 2535.10
   15:27:30.004.25-Dec-2020 4892.01 2718.27 65.36 4.00 193.25 2535.10
   15:27:30.204.25-Dec-2020 4892.01 2718.26 65.36 4.00 193.45 2535.10
   15:27:30.404.25-Dec-2020 4892.01 2718.23 65.36 4.00 193.65 2535.10
   15:27:30.604.25-Dec-2020 4892.01 2718.18 65.36 4.00 193.85 2535.10
   15:27:30.804.25-Dec-2020 4892.01 2718.24 65.36 4.00 194.05 2535.10
   15:27:31.004.25-Dec-2020 4892.01 2718.24 65.36 4.00 194.25 2535.10
   15:27:31.204.25-Dec-2020 4892.01 2718.24 65.36 4.00 194.45 2535.10
   15:27:31.404.25-Dec-2020 4892.01 2718.23 65.36 4.00 194.65 2535.10
   15:27:31.604.25-Dec-2020 4892.01 2718.13 65.36 4.00 194.85 2535.10
   15:27:31.804.25-Dec-2020 4892.01 2718.41 65.36 4.00 195.05 2535.10
   15:27:32.004.25-Dec-2020 4892.01 2718.38 65.36 4.00 195.25 2535.10
   15:27:32.204.25-Dec-2020 4892.01 2718.13 65.36 4.00 195.45 2535.10
   15:27:32.404.25-Dec-2020 4892.01 2718.42 65.36 4.00 195.65 2535.10
   15:27:32.604.25-Dec-2020 4892.01 2718.28 65.36 4.00 195.85 2535.10
   15:27:32.804.25-Dec-2020 4892.01 2718.28 65.36 4.00 196.05 2535.10
   15:27:33.005.25-Dec-2020 4892.01 2718.28 65.36 4.00 196.25 2535.10
   15:27:33.205.25-Dec-2020 4892.01 2718.27 65.36 4.00 196.45 2535.10
   15:27:33.405.25-Dec-2020 4892.01 2718.29 65.36 4.00 196.65 2535.10
   15:27:33.605.25-Dec-2020 4892.01 2718.31 65.36 4.00 196.85 2535.10
   15:27:33.805.25-Dec-2020 4892.01 2718.30 65.36 4.00 197.05 2535.10
   15:27:34.005.25-Dec-2020 4892.01 2718.30 65.36 4.00 197.25 2535.10
   15:27:34.205.25-Dec-2020 4892.01 2718.27 65.36 4.00 197.45 2535.10
   15:27:34.405.25-Dec-2020 4892.01 2718.30 65.36 4.00 197.65 2535.10
   15:27:34.605.25-Dec-2020 4892.01 2718.37 65.36 4.00 197.85 2535.10
   15:27:34.805.25-Dec-2020 4892.01 2718.64 65.36 4.00 198.05 2535.10
   15:27:35.005.25-Dec-2020 4892.01 2718.64 65.36 4.00 198.25 2535.10
   15:27:35.205.25-Dec-2020 4892.01 2718.42 65.36 4.00 198.45 2535.10
   15:27:35.405.25-Dec-2020 4892.01 2718.29 65.36 4.00 198.65 2535.10
   15:27:35.605.25-Dec-2020 4892.01 2718.46 65.36 4.00 198.85 2535.10
   15:27:35.805.25-Dec-2020 4892.01 2718.25 65.36 4.00 199.05 2535.10
   15:27:36.005.25-Dec-2020 4892.01 2718.36 65.36 4.00 199.25 2535.10
   15:27:36.205.25-Dec-2020 4892.01 2718.28 65.36 4.00 199.45 2535.10
   15:27:36.405.25-Dec-2020 4892.01 2718.24 65.36 4.00 199.65 2535.10
   15:27:36.605.25-Dec-2020 4892.01 2718.33 65.36 4.00 199.85 2535.10
   15:27:36.806.25-Dec-2020 4892.01 2718.37 65.36 4.00 200.05 2535.10
   15:27:37.006.25-Dec-2020 4892.01 2718.37 65.36 4.00 200.25 2535.10
   15:27:37.206.25-Dec-2020 4892.01 2718.26 65.36 4.00 200.45 2535.10
   15:27:37.406.25-Dec-2020 4892.01 2718.38 65.36 4.00 200.65 2535.10
   15:27:37.606.25-Dec-2020 4892.01 2718.36 65.36 4.00 200.85 2535.10
   15:27:37.806.25-Dec-2020 4892.01 2718.31 65.36 4.00 201.05 2535.10
   15:27:38.006.25-Dec-2020 4892.01 2718.31 65.36 4.00 201.25 2535.10
   15:27:38.206.25-Dec-2020 4892.01 2718.35 65.36 4.00 201.45 2535.10
   15:27:38.406.25-Dec-2020 4892.01 2718.34 65.36 4.00 201.65 2535.10
   15:27:38.606.25-Dec-2020 4892.01 2718.34 65.36 4.00 201.85 2535.10
   15:27:38.806.25-Dec-2020 4892.01 2718.22 65.36 4.00 202.05 2535.10
   15:27:39.006.25-Dec-2020 4892.01 2718.22 65.36 4.00 202.25 2535.10
   15:27:39.206.25-Dec-2020 4892.01 2718.46 65.36 4.00 202.45 2535.10
   15:27:39.406.25-Dec-2020 4892.01 2718.20 65.36 4.00 202.65 2535.10
   15:27:39.606.25-Dec-2020 4892.01 2718.48 65.36 4.00 202.85 2535.10
   15:27:39.806.25-Dec-2020 4892.01 2718.35 65.36 4.00 203.05 2535.10
   15:27:40.006.25-Dec-2020 4892.01 2718.35 65.36 4.00 203.25 2535.10
   15:27:40.206.25-Dec-2020 4892.01 2718.37 65.36 4.00 203.45 2535.10
   15:27:40.407.25-Dec-2020 4892.01 2718.34 65.36 4.00 203.65 2535.10
   15:27:40.607.25-Dec-2020 4892.01 2718.37 65.36 4.00 203.86 2535.10
   15:27:40.807.25-Dec-2020 4892.01 2718.37 65.36 4.00 204.06 2535.10
   15:27:41.007.25-Dec-2020 4892.01 2718.37 65.36 4.00 204.26 2535.10
   15:27:41.207.25-Dec-2020 4892.01 2718.35 65.36 4.00 204.46 2535.10
   15:27:41.407.25-Dec-2020 4892.01 2718.32 65.36 4.00 204.66 2535.10
   15:27:41.607.25-Dec-2020 4892.01 2718.34 65.36 4.00 204.86 2535.10
   15:27:41.807.25-Dec-2020 4892.01 2718.41 65.36 4.00 205.06 2535.10
   15:27:42.007.25-Dec-2020 4892.01 2718.41 65.36 4.00 205.26 2535.10
   15:27:42.207.25-Dec-2020 4892.01 2718.19 65.36 4.00 205.46 2535.10
   15:27:42.407.25-Dec-2020 4892.01 2718.57 65.36 4.00 205.66 2535.10
   15:27:42.607.25-Dec-2020 4892.01 2718.47 65.36 4.00 205.86 2535.10
   15:27:42.807.25-Dec-2020 4892.01 2718.17 65.36 4.00 206.06 2535.10
   15:27:43.007.25-Dec-2020 4892.01 2718.17 65.36 4.00 206.26 2535.10
   15:27:43.207.25-Dec-2020 4892.01 2718.52 65.36 4.00 206.46 2535.10
   15:27:43.407.25-Dec-2020 4892.01 2718.45 65.36 4.00 206.66 2535.10
   15:27:43.607.25-Dec-2020 4892.01 2718.19 65.36 4.00 206.86 2535.10
