~Version Information
 VERS.                  2.0:   CWLS log ASCII Standard -VERSION 2.0
 WRAP.                   NO:   One line per depth step
~Well Information Block
#MNEM.UNIT     VALUE/NAME     DESCRIPTION
#---------     -----------    ---------------------------
 STRT.S             18:45:29 25-Dec-20: START TIME 18:45:29 25-Dec-20
 STOP.S             18:53:50 25-Dec-20: STOP TIME  18:53:50 25-Dec-20
 STEP.S                   0.00: STEP TIME
 NULL.                 -999.25: NULL VALUE
 DFWT.                        :  DIST FWL TEXT
 DFST.                        :  DIST FSL TEXT
 DMF .             Drill Floor:  DRILL MEAS FROM
 STIM.      04.54.24 22-Sep-20:  START TIME
 DATE.      04.54.24 21-Nov-20:  END TIME
 SPUD.               21-Nov-20:  SPUD DATE
 NREF.                    Grid:  NORTH REFERENCE
 HPTY.       Minimum Curvature:  HOLE POS TYPE
 DMOD.             Drill Model:  DRILL MOD DESC
 SVYD.                  Survey:  SURVEY DESC
 ILTD.               Lithology:  INTERP LTH DESC
 FTOP.          Formation Tops:  FORM TOPS DESC
 SON .        AZ-XX-0906571587:  JOB NUMBER
 COMP.     BP Exploration (Caspian Sea) Ltd:  COMPANY
 UWI .                     N/A:  UNIQUE WELL IDENTIFIER
 API .                     N/A:  API NUMBER
 BASE.              Azerbaijan:  LOGGING EQUIPMENT BASE LOCATION
 REGN.                   EESSA:  REGION
 PROV.                    Baku:  PROVINCE
 STAT.                    Baku:  STATE NAME
 CTRY.              Azerbaijan:  COUNTRY NAME
 FLD .                     ACG:  FIELD NAME
 SRVC.     TURAN Drilling & Engineering:  CONTRACTOR
 WELL.                     J27:  WELL NAME
 RIG .             West Chirag:  RIG NAME
 DOE .                     N/A:  DOE NUMBER
 DCON.         Sperry Drilling:  DIRECTNL CONTR
 PDAT.          Mean Sea Level:  PERMANENT DATUM
 WTYP.                Deviated:  WELL TYPE
 MWDS.                    Baku:  MWD SHOP
 JOBN.        AZ-XX-0906571587:  JOB TICKET NUMB
 UNIT.                     N/A:  LOGGING EQUIPMENT ID
 MDS .        Operator Entered:  MAG DATA SOURCE
 CNTY.                        :  COUNTY
 LOC .                        :  LOCATION
 LMF .             Drill Floor:  LOG MEASURED FROM
 TVDS.m                  43.00:  TVDSS CORRECTN
 LATI.deg                40.13:  LATITUDE
 LONG.deg                51.22:  LONGITUDE
 WHNS.m                   7.72:  WELL HEAD N/S
 WHEW.m                 -14.24:  WELL HEAD E/W
 UTMX.m              519005.06:  UTM X
 UTMY.m             4443793.85:  UTM Y
 DFWL.m                   0.00:  DISTANCE FWL
 DFSL.m                   0.00:  DISTANCE FSL
 SDEP.m                 347.00:  START DEPTH
 TDD .m                 581.00:  TOTAL DEPTH (DRILLER)
 VSDR.deg               159.72:  VERT SEC DIRECT
 GVFD.g                   1.00:  GRAVITY FIELD
 MFLD.nT              50318.00:  MAGNETIC FIELD
 MDIP.deg                59.57:  MAGNETIC DIP
 MDEC.deg                 6.44:  MAGNETIC DECL
 GRDC.deg                 0.15:  GRID CORRECTION
 AZTC.deg                 6.29:  AZM TOTAL CORR
 EPD .m                   0.00:  ELEVATION
 EGL .m                   0.00:  GROUND ELEVATION
 WDMS.m                 169.80:  WD ELEV
 APD .m                  43.00:  DEPTH ABOVE PD
 AGAP.m                  43.00:  AIR GAP
 VSEW.m                 -14.24:  VERT SEC E/W
 VSNS.m                   7.72:  VERT SEC N/S
 DEP .m                 342.45:  DEPTH
 EKB .m                   0.00:  KB ELEVATION
 EDF .m                  43.00:  DF ELEVATION
 TDL .m                 237.00:  TOTAL DEPTH (LOGGER)
 VSC .                       0:  VS TO CLOSURE
 MAGU.                 1851428:  MAGUTM CHECKSUM
~Parameter Information Block
#MNEM.UNIT       Value        Description
#---------     -----------    ---------------------------
 AV  .mps                 1.50:  Ann Velocity 
 AVMX.mps                 2.90:  Max Ann Veloc 
 AZIF.deg               115.59:  Azm, Final 
 BHAT.        Rotary Steerable:  BHA Type 
 BROT.°/30m               0.50:  Build Rotating 
 BS  .in                  8.50:  Bit Size 
 BTPL.psig              580.00:  Bit Press Loss 
 CABU.                     Yes:  Customer Abuse 
 TCS .hr                 89.79:  Time Ciculation Ended 
 CV  .mps                 3.22:  Crit Velocity 
 CVMX.mps                 4.37:  Max Crit Veloc 
 DD1 .          Rashad Habibov:  Direct Drillr 1 
 DDSV.               Geo-Pilot:  DD Service 
 DEFF.%                  95.00:  % Det Eff 
 DLRX.°/30m               1.94:  Dogleg Rot Max 
 DLSO.°/30m               0.70:  Dogleg Oriented 
 DLSX.°/30m               1.94:  Dogleg Str Max 
 DRET.      04.45.00 25-Dec-20:  Drill End Time 
 DRST.      10.00.00 24-Dec-20:  Drill Start Tim 
 DTIM.hr                 16.64:  Time Drilling 
 EDEP.m                4999.01:  End Depth 
 ENG1.         Elchin Mammadov:  Engineer 1 
 ENG2.          Ruslan Safarov:  Engineer 2 
 ENG3.          Rustam Safarov:  Engineer 3 
 ETIM.      09.00.00 29-Dec-20:  End Time 
 FLOI.gpm               500.00:  Flow In 
 FLON.gpm               400.00:  Flow In Min 
 FLOS.cptm                0.00:  Fluid Loss 
 FLOX.gpm               500.00:  Flow In Max 
 HFLO.                      No:  High Flow 
 HPRE.                      No:  High Pressure 
 HTEM.                      No:  High Temp 
 HYDO.m                   2.00:  Hydro Offset 
 IFIN.deg                66.79:  Inc, Final 
 IMAX.deg                67.66:  Inc Max 
 IMIN.deg                66.39:  Inc Min 
 IMND.m                4949.37:  Inc Min Depth 
 IMXD.m                4778.63:  Inc Max Depth 
 JARR.                     Yes:  Jarring 
 LETM.      04.45.00 25-Dec-20:  Log End Time 
 LOST.hr                     0:  Lost Rig Time 
 LSTM.      10.00.00 24-Dec-20:  Log Start Time 
 MDCL.ppm             39000.00:  Mud Chlorides 
 MDES.     Inversion Oil/Synthetic:  Mud Desc 
 DFD .sg                  1.33:  Mud Density 
 MDMN.sg                  1.33:  Dens Mud Min 
 MDMX.sg                  1.33:  Dens Mud Max 
 MOIL.                      70:  Run Mud Oil % 
 MOWR.                   70:30:  Run Mud OWR 
 MSND.                       0:  Run Mud Sand % 
 MSOL.                    17.4:  Run Mud Solids% 
 DFV .spqt               84.00:  Mud Viscosity 
 MWOD.in                  6.75:  MWD Tool OD 
 MWSI.                     Yes:  Serv Intrp, MWD 
 OTIM.hr                168.14:  Time Operating 
 PCON.           Look Like New:  Pad Condition 
 PMAX.psia            10822.93:  Press Op, Max 
 PV  .cP                 30.00:  Mud PV 
 RUN .                     900:  Run Number 
 ROPA.m/hr               18.00:  ROP Avg 
 ROPN.m/hr               12.00:  ROP Min 
 ROPX.m/hr               25.00:  ROP Max 
 RPMA.rpm               120.00:  RPM Surface Avg 
 RPMN.rpm               100.00:  RPM Surface Min 
 RPMX.rpm               120.00:  RPM Surface Max 
 RRUN.                    0900:  Rig Run Number 
 SAZI.deg               115.08:  Azm, Start 
 SDEP.m                4762.01:  Start Depth 
 SIDD.                      No:  Serv Intrp, DD 
 SINC.deg                66.14:  Inc, Start 
 SPPA.psig             3700.00:  SPP Avg 
 SPPN.psig             3620.00:  SPP Min 
 SPPX.psig             3900.00:  SPP Max 
 STIM.      09.30.00 22-Dec-20:  Start Time 
 SVCS.                 DD, MWD:  Services 
 SVER.                    9.20:  Sperry Version 
 TDAT.m                 237.00:  Tot Depth Attmp 
 TDDF.                      No:  Trip for DD 
 TDLG.m                 237.00:  Tot Depth Loggd 
 TFF .                      No:  Trip for Fail 
 TQAA.f-kp               18.00:  Torque Abs Avg 
 TQAN.f-kp               17.00:  Torque Abs Min 
 TQAX.f-kp               20.00:  Torque Abs Max 
 TRRT.°/30m               0.60:  Turn Rotating 
 MRT .                    HCIM:  Maximum Recorded Temperature 
 TTMX.degC               94.12:  Max Tool Temp 
 VS01.                90627809:  Virtual Str1 SN 
 VS02.                90527813:  Virtual Str2 SN 
 VS03.                90545417:  Virtual Str3 SN 
 VS04.                12460870:  Virtual Str4 SN 
 VS05.                90516706:  Virtual Str5 SN 
 VS06.                90632007:  Virtual Str6 SN 
 WBMN.klb                 0.00:  WOB Min 
 WOBA.klb                14.00:  WOB Avg 
 WOBX.klb                25.00:  WOB Max 
 YP  .lhf2               32.00:  Yield Point 
~Curve Information Block
#MNEM.UNIT                 API CODE     Curve Description
#---------               -----------    ---------------------------
 TIME.HHMMSS            00 000 000 000:  GT Time & Date
 GTDEPTH.m              00 000 000 000:  GT Depth
 GTPQH.psia             00 000 000 000:  GT HR Quartz Pressure
 GTTQ.degC              00 000 000 000:  GT Quartz Temperature
 GTTN.NONE              00 000 000 000:  GT Test Number
 GTET.sec               00 000 000 000:  GT Elapsed Test Time
 GTTVD.m                00 000 000 000:  GT True Vertical Depth
#Other Information
#
#WARRANTY: Halliburton will use its best efforts to furnish customers with 
#accurate information and interpretations that are part of, and incident to, the services 
#provided.  However, Halliburton cannot and does not warrant the accuracy 
#or correctness of such information and interpretations.  Under no circumstances should any 
#such information or interpretation be relied upon as the sole basis for any drilling, 
#completion, production, or financial decision or any procedure involving any risk to the 
#safety of any drilling venture, drilling rig or its crew or any other third party.  The 
#Customer has full responsibility for all drilling, completion and production operation.  
#Halliburton makes no representations or warranties, either expressed or 
#implied, including, but not limited to, the implied warranties of merchantability or fitness 
#for a particular purpose, with respect to the services rendered.  In no event will 
#Halliburton be liable for failure to obtain any particular results or for 
#any damages, including, but not limited to, indirect, special or consequential damages, 
#resulting from the use of any information or interpretation provided by Halliburton.
#
~A           TIME           GTDEPTH  GTPQH  GTTQ  GTTN  GTET   GTTVD  
# ...
   18:52:24.191.25-Dec-2020 4831.01 3416.03 64.19 6.00 414.33 2510.98
   18:52:24.392.25-Dec-2020 4831.01 3416.03 64.19 6.00 414.53 2510.98
   18:52:24.592.25-Dec-2020 4831.01 3415.98 64.19 6.00 414.73 2510.98
   18:52:24.792.25-Dec-2020 4831.01 3416.01 64.19 6.00 414.93 2510.98
   18:52:24.992.25-Dec-2020 4831.01 3415.97 64.19 6.00 415.13 2510.98
   18:52:25.192.25-Dec-2020 4831.01 3415.99 64.19 6.00 415.33 2510.98
   18:52:25.392.25-Dec-2020 4831.01 3415.99 64.19 6.00 415.53 2510.98
   18:52:25.592.25-Dec-2020 4831.01 3416.15 64.19 6.00 415.73 2510.98
   18:52:25.793.25-Dec-2020 4831.01 3416.30 64.19 6.00 415.93 2510.98
   18:52:25.993.25-Dec-2020 4831.01 3416.06 64.19 6.00 416.13 2510.98
   18:52:26.193.25-Dec-2020 4831.01 3416.05 64.19 6.00 416.33 2510.98
   18:52:26.393.25-Dec-2020 4831.01 3416.05 64.19 6.00 416.53 2510.98
   18:52:26.593.25-Dec-2020 4831.01 3415.99 64.19 6.00 416.73 2510.98
   18:52:26.793.25-Dec-2020 4831.01 3416.06 64.19 6.00 416.93 2510.98
   18:52:26.994.25-Dec-2020 4831.01 3416.00 64.19 6.00 417.13 2510.98
   18:52:27.194.25-Dec-2020 4831.01 3416.00 64.19 6.00 417.33 2510.98
   18:52:27.394.25-Dec-2020 4831.01 3416.00 64.19 6.00 417.53 2510.98
   18:52:27.594.25-Dec-2020 4831.01 3415.96 64.19 6.00 417.73 2510.98
   18:52:27.794.25-Dec-2020 4831.01 3415.58 64.19 6.00 417.93 2510.98
   18:52:27.994.25-Dec-2020 4831.01 3415.97 64.19 6.00 418.13 2510.98
   18:52:28.195.25-Dec-2020 4831.01 3416.12 64.19 6.00 418.33 2510.98
   18:52:28.395.25-Dec-2020 4831.01 3416.12 64.19 6.00 418.53 2510.98
   18:52:28.595.25-Dec-2020 4831.01 3416.65 64.19 6.00 418.73 2510.98
   18:52:28.795.25-Dec-2020 4831.01 3416.09 64.19 6.00 418.93 2510.98
   18:52:28.995.25-Dec-2020 4831.01 3415.98 64.19 6.00 419.13 2510.98
   18:52:29.195.25-Dec-2020 4831.01 3416.02 64.19 6.00 419.33 2510.98
   18:52:29.395.25-Dec-2020 4831.01 3416.02 64.19 6.00 419.53 2510.98
   18:52:29.596.25-Dec-2020 4831.01 3415.48 64.19 6.00 419.73 2510.98
   18:52:29.796.25-Dec-2020 4831.01 3416.23 64.19 6.00 419.93 2510.98
   18:52:29.996.25-Dec-2020 4831.01 3416.10 64.19 6.00 420.13 2510.98
   18:52:30.196.25-Dec-2020 4831.01 3416.10 64.19 6.00 420.33 2510.98
   18:52:30.396.25-Dec-2020 4831.01 3415.22 64.19 6.00 420.53 2510.98
   18:52:30.596.25-Dec-2020 4831.01 3416.45 64.19 6.00 420.73 2510.98
   18:52:30.797.25-Dec-2020 4831.01 3416.09 64.19 6.00 420.93 2510.98
   18:52:30.997.25-Dec-2020 4831.01 3416.04 64.19 6.00 421.13 2510.98
   18:52:31.197.25-Dec-2020 4831.01 3415.99 64.19 6.00 421.33 2510.98
   18:52:31.397.25-Dec-2020 4831.01 3415.99 64.19 6.00 421.53 2510.98
   18:52:31.597.25-Dec-2020 4831.01 3416.01 64.19 6.00 421.73 2510.98
   18:52:31.797.25-Dec-2020 4831.01 3416.01 64.19 6.00 421.93 2510.98
   18:52:31.998.25-Dec-2020 4831.01 3416.00 64.19 6.00 422.13 2510.98
   18:52:32.198.25-Dec-2020 4831.01 3415.98 64.19 6.00 422.33 2510.98
   18:52:32.398.25-Dec-2020 4831.01 3415.98 64.19 6.00 422.53 2510.98
   18:52:32.598.25-Dec-2020 4831.01 3415.96 64.19 6.00 422.73 2510.98
   18:52:32.798.25-Dec-2020 4831.01 3415.99 64.19 6.00 422.93 2510.98
   18:52:32.998.25-Dec-2020 4831.01 3415.51 64.19 6.00 423.13 2510.98
   18:52:33.198.25-Dec-2020 4831.01 3416.16 64.19 6.00 423.33 2510.98
   18:52:33.399.25-Dec-2020 4831.01 3416.16 64.19 6.00 423.53 2510.98
   18:52:33.599.25-Dec-2020 4831.01 3416.07 64.19 6.00 423.73 2510.98
   18:52:33.799.25-Dec-2020 4831.01 3416.01 64.19 6.00 423.93 2510.98
   18:52:33.999.25-Dec-2020 4831.01 3416.02 64.19 6.00 424.13 2510.98
   18:52:34.199.25-Dec-2020 4831.01 3416.01 64.19 6.00 424.34 2510.98
   18:52:34.399.25-Dec-2020 4831.01 3416.05 64.19 6.00 424.54 2510.98
   18:52:34.600.25-Dec-2020 4831.01 3415.97 64.19 6.00 424.74 2510.98
   18:52:34.800.25-Dec-2020 4831.01 3415.98 64.19 6.00 424.94 2510.98
   18:52:35.000.25-Dec-2020 4831.01 3415.99 64.19 6.00 425.14 2510.98
   18:52:35.200.25-Dec-2020 4831.01 3415.96 64.19 6.00 425.34 2510.98
   18:52:35.400.25-Dec-2020 4831.01 3415.96 64.19 6.00 425.54 2510.98
   18:52:35.600.25-Dec-2020 4831.01 3415.38 64.19 6.00 425.74 2510.98
   18:52:35.801.25-Dec-2020 4831.01 3416.14 64.19 6.00 425.94 2510.98
   18:52:36.001.25-Dec-2020 4831.01 3415.78 64.19 6.00 426.14 2510.98
   18:52:36.201.25-Dec-2020 4831.01 3415.97 64.19 6.00 426.34 2510.98
   18:52:36.401.25-Dec-2020 4831.01 3415.97 64.19 6.00 426.54 2510.98
   18:52:36.601.25-Dec-2020 4831.01 3416.15 64.19 6.00 426.74 2510.98
   18:52:36.801.25-Dec-2020 4831.01 3416.00 64.19 6.00 426.94 2510.98
   18:52:37.001.25-Dec-2020 4831.01 3416.03 64.19 6.00 427.14 2510.98
   18:52:37.202.25-Dec-2020 4831.01 3415.34 64.19 6.00 427.34 2510.98
   18:52:37.402.25-Dec-2020 4831.01 3415.34 64.19 6.00 427.54 2510.98
   18:52:37.602.25-Dec-2020 4831.01 3415.97 64.19 6.00 427.74 2510.98
   18:52:37.802.25-Dec-2020 4831.01 3416.06 64.19 6.00 427.94 2510.98
   18:52:38.002.25-Dec-2020 4831.01 3415.55 64.19 6.00 428.14 2510.98
   18:52:38.202.25-Dec-2020 4831.01 3415.83 64.19 6.00 428.34 2510.98
   18:52:38.403.25-Dec-2020 4831.01 3416.16 64.19 6.00 428.54 2510.98
   18:52:38.603.25-Dec-2020 4831.01 3416.14 64.19 6.00 428.74 2510.98
   18:52:38.803.25-Dec-2020 4831.01 3415.98 64.19 6.00 428.94 2510.98
   18:52:39.003.25-Dec-2020 4831.01 3416.02 64.19 6.00 429.14 2510.98
   18:52:39.203.25-Dec-2020 4831.01 3416.00 64.19 6.00 429.34 2510.98
   18:52:39.403.25-Dec-2020 4831.01 3416.00 64.19 6.00 429.54 2510.98
   18:52:39.604.25-Dec-2020 4831.01 3416.00 64.19 6.00 429.74 2510.98
   18:52:39.804.25-Dec-2020 4831.01 3415.98 64.19 6.00 429.94 2510.98
   18:52:40.004.25-Dec-2020 4831.01 3416.00 64.19 6.00 430.14 2510.98
   18:52:40.204.25-Dec-2020 4831.01 3415.96 64.19 6.00 430.34 2510.98
   18:52:40.404.25-Dec-2020 4831.01 3415.96 64.19 6.00 430.54 2510.98
   18:52:40.604.25-Dec-2020 4831.01 3415.33 64.19 6.00 430.74 2510.98
   18:52:40.804.25-Dec-2020 4831.01 3416.43 64.19 6.00 430.94 2510.98
   18:52:41.005.25-Dec-2020 4831.01 3416.01 64.19 6.00 431.14 2510.98
   18:52:41.205.25-Dec-2020 4831.01 3416.06 64.19 6.00 431.34 2510.98
   18:52:41.405.25-Dec-2020 4831.01 3416.06 64.19 6.00 431.54 2510.98
   18:52:41.605.25-Dec-2020 4831.01 3415.99 64.19 6.00 431.74 2510.98
   18:52:41.805.25-Dec-2020 4831.01 3416.01 64.19 6.00 431.94 2510.98
   18:52:42.005.25-Dec-2020 4831.01 3416.03 64.19 6.00 432.14 2510.98
   18:52:42.206.25-Dec-2020 4831.01 3415.97 64.19 6.00 432.34 2510.98
   18:52:42.406.25-Dec-2020 4831.01 3416.01 64.19 6.00 432.54 2510.98
   18:52:42.606.25-Dec-2020 4831.01 3415.98 64.19 6.00 432.74 2510.98
   18:52:42.806.25-Dec-2020 4831.01 3415.95 64.19 6.00 432.94 2510.98
   18:52:43.006.25-Dec-2020 4831.01 3416.00 64.19 6.00 433.14 2510.98
   18:52:43.206.25-Dec-2020 4831.01 3415.44 64.19 6.00 433.34 2510.98
   18:52:43.407.25-Dec-2020 4831.01 3415.44 64.19 6.00 433.54 2510.98
   18:52:43.607.25-Dec-2020 4831.01 3416.06 64.19 6.00 433.74 2510.98
   18:52:43.807.25-Dec-2020 4831.01 3415.50 64.19 6.00 433.94 2510.98
   18:52:44.007.25-Dec-2020 4831.01 3416.16 64.19 6.00 434.14 2510.98
   18:52:44.207.25-Dec-2020 4831.01 3416.21 64.19 6.00 434.34 2510.98
   18:52:44.407.25-Dec-2020 4831.01 3416.21 64.19 6.00 434.54 2510.98
   18:52:44.607.25-Dec-2020 4831.01 3416.01 64.19 6.00 434.74 2510.98
   18:52:44.808.25-Dec-2020 4831.01 3415.13 64.19 6.00 434.94 2510.98
   18:52:45.008.25-Dec-2020 4831.01 3416.60 64.19 6.00 435.14 2510.98
   18:52:45.208.25-Dec-2020 4831.01 3416.02 64.19 6.00 435.34 2510.98
   18:52:45.408.25-Dec-2020 4831.01 3416.02 64.19 6.00 435.54 2510.98
   18:52:45.608.25-Dec-2020 4831.01 3415.97 64.19 6.00 435.74 2510.98
   18:52:45.808.25-Dec-2020 4831.01 3415.28 64.19 6.00 435.94 2510.98
   18:52:46.009.25-Dec-2020 4831.01 3416.14 64.19 6.00 436.14 2510.98
   18:52:46.209.25-Dec-2020 4831.01 3416.19 64.19 6.00 436.34 2510.98
   18:52:46.409.25-Dec-2020 4831.01 3416.19 64.19 6.00 436.54 2510.98
   18:52:46.609.25-Dec-2020 4831.01 3415.98 64.19 6.00 436.74 2510.98
   18:52:46.809.25-Dec-2020 4831.01 3415.99 64.19 6.00 436.95 2510.98
   18:52:47.009.25-Dec-2020 4831.01 3416.01 64.19 6.00 437.15 2510.98
