~Version Information
 VERS.                  2.0:   CWLS log ASCII Standard -VERSION 2.0
 WRAP.                   NO:   One line per depth step
~Well Information Block
#MNEM.UNIT     VALUE/NAME     DESCRIPTION
#---------     -----------    ---------------------------
 STRT.S             20:22:11 25-Dec-20: START TIME 20:22:11 25-Dec-20
 STOP.S             20:30:35 25-Dec-20: STOP TIME  20:30:35 25-Dec-20
 STEP.S                   0.00: STEP TIME
 NULL.                 -999.25: NULL VALUE
 DFWT.                        :  DIST FWL TEXT
 DFST.                        :  DIST FSL TEXT
 DMF .             Drill Floor:  DRILL MEAS FROM
 STIM.      04.54.24 22-Sep-20:  START TIME
 DATE.      04.54.24 21-Nov-20:  END TIME
 SPUD.               21-Nov-20:  SPUD DATE
 NREF.                    Grid:  NORTH REFERENCE
 HPTY.       Minimum Curvature:  HOLE POS TYPE
 DMOD.             Drill Model:  DRILL MOD DESC
 SVYD.                  Survey:  SURVEY DESC
 ILTD.               Lithology:  INTERP LTH DESC
 FTOP.          Formation Tops:  FORM TOPS DESC
 SON .        AZ-XX-0906571587:  JOB NUMBER
 COMP.     BP Exploration (Caspian Sea) Ltd:  COMPANY
 UWI .                     N/A:  UNIQUE WELL IDENTIFIER
 API .                     N/A:  API NUMBER
 BASE.              Azerbaijan:  LOGGING EQUIPMENT BASE LOCATION
 REGN.                   EESSA:  REGION
 PROV.                    Baku:  PROVINCE
 STAT.                    Baku:  STATE NAME
 CTRY.              Azerbaijan:  COUNTRY NAME
 FLD .                     ACG:  FIELD NAME
 SRVC.     TURAN Drilling & Engineering:  CONTRACTOR
 WELL.                     J27:  WELL NAME
 RIG .             West Chirag:  RIG NAME
 DOE .                     N/A:  DOE NUMBER
 DCON.         Sperry Drilling:  DIRECTNL CONTR
 PDAT.          Mean Sea Level:  PERMANENT DATUM
 WTYP.                Deviated:  WELL TYPE
 MWDS.                    Baku:  MWD SHOP
 JOBN.        AZ-XX-0906571587:  JOB TICKET NUMB
 UNIT.                     N/A:  LOGGING EQUIPMENT ID
 MDS .        Operator Entered:  MAG DATA SOURCE
 CNTY.                        :  COUNTY
 LOC .                        :  LOCATION
 LMF .             Drill Floor:  LOG MEASURED FROM
 TVDS.m                  43.00:  TVDSS CORRECTN
 LATI.deg                40.13:  LATITUDE
 LONG.deg                51.22:  LONGITUDE
 WHNS.m                   7.72:  WELL HEAD N/S
 WHEW.m                 -14.24:  WELL HEAD E/W
 UTMX.m              519005.06:  UTM X
 UTMY.m             4443793.85:  UTM Y
 DFWL.m                   0.00:  DISTANCE FWL
 DFSL.m                   0.00:  DISTANCE FSL
 SDEP.m                 347.00:  START DEPTH
 TDD .m                 581.00:  TOTAL DEPTH (DRILLER)
 VSDR.deg               159.72:  VERT SEC DIRECT
 GVFD.g                   1.00:  GRAVITY FIELD
 MFLD.nT              50318.00:  MAGNETIC FIELD
 MDIP.deg                59.57:  MAGNETIC DIP
 MDEC.deg                 6.44:  MAGNETIC DECL
 GRDC.deg                 0.15:  GRID CORRECTION
 AZTC.deg                 6.29:  AZM TOTAL CORR
 EPD .m                   0.00:  ELEVATION
 EGL .m                   0.00:  GROUND ELEVATION
 WDMS.m                 169.80:  WD ELEV
 APD .m                  43.00:  DEPTH ABOVE PD
 AGAP.m                  43.00:  AIR GAP
 VSEW.m                 -14.24:  VERT SEC E/W
 VSNS.m                   7.72:  VERT SEC N/S
 DEP .m                 342.45:  DEPTH
 EKB .m                   0.00:  KB ELEVATION
 EDF .m                  43.00:  DF ELEVATION
 TDL .m                 237.00:  TOTAL DEPTH (LOGGER)
 VSC .                       0:  VS TO CLOSURE
 MAGU.                 1851428:  MAGUTM CHECKSUM
~Parameter Information Block
#MNEM.UNIT       Value        Description
#---------     -----------    ---------------------------
 AV  .mps                 1.50:  Ann Velocity 
 AVMX.mps                 2.90:  Max Ann Veloc 
 AZIF.deg               115.59:  Azm, Final 
 BHAT.        Rotary Steerable:  BHA Type 
 BROT.°/30m               0.50:  Build Rotating 
 BS  .in                  8.50:  Bit Size 
 BTPL.psig              580.00:  Bit Press Loss 
 CABU.                     Yes:  Customer Abuse 
 COMM.                     ”Cf:  Run Comments 1 
 TCS .hr                 89.79:  Time Ciculation Ended 
 CV  .mps                 3.22:  Crit Velocity 
 CVMX.mps                 4.37:  Max Crit Veloc 
 DD1 .          Rashad Habibov:  Direct Drillr 1 
 DDSV.               Geo-Pilot:  DD Service 
 DEFF.%                  95.00:  % Det Eff 
 DLRX.°/30m               1.94:  Dogleg Rot Max 
 DLSO.°/30m               0.70:  Dogleg Oriented 
 DLSX.°/30m               1.94:  Dogleg Str Max 
 DRET.      04.45.00 25-Dec-20:  Drill End Time 
 DRST.      10.00.00 24-Dec-20:  Drill Start Tim 
 DTIM.hr                 16.64:  Time Drilling 
 EDEP.m                4999.01:  End Depth 
 ENG1.         Elchin Mammadov:  Engineer 1 
 ENG2.          Ruslan Safarov:  Engineer 2 
 ENG3.          Rustam Safarov:  Engineer 3 
 ETIM.      09.00.00 29-Dec-20:  End Time 
 FLOI.gpm               500.00:  Flow In 
 FLON.gpm               400.00:  Flow In Min 
 FLOS.cptm                0.00:  Fluid Loss 
 FLOX.gpm               500.00:  Flow In Max 
 HFLO.                      No:  High Flow 
 HPRE.                      No:  High Pressure 
 HTEM.                      No:  High Temp 
 HYDO.m                   2.00:  Hydro Offset 
 IFIN.deg                66.79:  Inc, Final 
 IMAX.deg                67.66:  Inc Max 
 IMIN.deg                66.39:  Inc Min 
 IMND.m                4949.37:  Inc Min Depth 
 IMXD.m                4778.63:  Inc Max Depth 
 JARR.                     Yes:  Jarring 
 LETM.      04.45.00 25-Dec-20:  Log End Time 
 LOST.hr                     0:  Lost Rig Time 
 LSTM.      10.00.00 24-Dec-20:  Log Start Time 
 MDCL.ppm             39000.00:  Mud Chlorides 
 MDES.     Inversion Oil/Synthetic:  Mud Desc 
 DFD .sg                  1.33:  Mud Density 
 MDMN.sg                  1.33:  Dens Mud Min 
 MDMX.sg                  1.33:  Dens Mud Max 
 MOIL.                      70:  Run Mud Oil % 
 MOWR.                   70:30:  Run Mud OWR 
 MSND.                       0:  Run Mud Sand % 
 MSOL.                    17.4:  Run Mud Solids% 
 DFV .spqt               84.00:  Mud Viscosity 
 MWOD.in                  6.75:  MWD Tool OD 
 MWSI.                     Yes:  Serv Intrp, MWD 
 OTIM.hr                168.14:  Time Operating 
 PCON.           Look Like New:  Pad Condition 
 PMAX.psia            10822.93:  Press Op, Max 
 PV  .cP                 30.00:  Mud PV 
 RUN .                     900:  Run Number 
 ROPA.m/hr               18.00:  ROP Avg 
 ROPN.m/hr               12.00:  ROP Min 
 ROPX.m/hr               25.00:  ROP Max 
 RPMA.rpm               120.00:  RPM Surface Avg 
 RPMN.rpm               100.00:  RPM Surface Min 
 RPMX.rpm               120.00:  RPM Surface Max 
 RRUN.                    0900:  Rig Run Number 
 SAZI.deg               115.08:  Azm, Start 
 SDEP.m                4762.01:  Start Depth 
 SIDD.                      No:  Serv Intrp, DD 
 SINC.deg                66.14:  Inc, Start 
 SPPA.psig             3700.00:  SPP Avg 
 SPPN.psig             3620.00:  SPP Min 
 SPPX.psig             3900.00:  SPP Max 
 STIM.      09.30.00 22-Dec-20:  Start Time 
 SVCS.                 DD, MWD:  Services 
 SVER.                    9.20:  Sperry Version 
 TDAT.m                 237.00:  Tot Depth Attmp 
 TDDF.                      No:  Trip for DD 
 TDLG.m                 237.00:  Tot Depth Loggd 
 TFF .                      No:  Trip for Fail 
 TQAA.f-kp               18.00:  Torque Abs Avg 
 TQAN.f-kp               17.00:  Torque Abs Min 
 TQAX.f-kp               20.00:  Torque Abs Max 
 TRRT.°/30m               0.60:  Turn Rotating 
 MRT .                    HCIM:  Maximum Recorded Temperature 
 TTMX.degC               94.12:  Max Tool Temp 
 VS01.                90627809:  Virtual Str1 SN 
 VS02.                90527813:  Virtual Str2 SN 
 VS03.                90545417:  Virtual Str3 SN 
 VS04.                12460870:  Virtual Str4 SN 
 VS05.                90516706:  Virtual Str5 SN 
 VS06.                90632007:  Virtual Str6 SN 
 WBMN.klb                 0.00:  WOB Min 
 WOBA.klb                14.00:  WOB Avg 
 WOBX.klb                25.00:  WOB Max 
 YP  .lhf2               32.00:  Yield Point 
~Curve Information Block
#MNEM.UNIT                 API CODE     Curve Description
#---------               -----------    ---------------------------
 TIME.HHMMSS            00 000 000 000:  GT Time & Date
 GTDEPTH.m              00 000 000 000:  GT Depth
 GTPQH.psia             00 000 000 000:  GT HR Quartz Pressure
 GTTQ.degC              00 000 000 000:  GT Quartz Temperature
 GTTN.NONE              00 000 000 000:  GT Test Number
 GTET.sec               00 000 000 000:  GT Elapsed Test Time
 GTTVD.m                00 000 000 000:  GT True Vertical Depth
#Other Information
#
#WARRANTY: Halliburton will use its best efforts to furnish customers with 
#accurate information and interpretations that are part of, and incident to, the services 
#provided.  However, Halliburton cannot and does not warrant the accuracy 
#or correctness of such information and interpretations.  Under no circumstances should any 
#such information or interpretation be relied upon as the sole basis for any drilling, 
#completion, production, or financial decision or any procedure involving any risk to the 
#safety of any drilling venture, drilling rig or its crew or any other third party.  The 
#Customer has full responsibility for all drilling, completion and production operation.  
#Halliburton makes no representations or warranties, either expressed or 
#implied, including, but not limited to, the implied warranties of merchantability or fitness 
#for a particular purpose, with respect to the services rendered.  In no event will 
#Halliburton be liable for failure to obtain any particular results or for 
#any damages, including, but not limited to, indirect, special or consequential damages, 
#resulting from the use of any information or interpretation provided by Halliburton.
#
~A           TIME           GTDEPTH  GTPQH  GTTQ  GTTN  GTET   GTTVD  
   20:22:11.879.25-Dec-2020 4794.01 5353.15 64.04 8.00   0.00 2496.73
   20:22:12.079.25-Dec-2020 4794.01 5353.28 64.04 8.00   0.20 2496.73
   20:22:12.279.25-Dec-2020 4794.01 5351.14 64.04 8.00   0.40 2496.73
   20:22:12.479.25-Dec-2020 4794.01 5356.93 64.04 8.00   0.60 2496.73
   20:22:12.679.25-Dec-2020 4794.01 5355.82 64.03 8.00   0.80 2496.73
   20:22:12.879.25-Dec-2020 4794.01 5352.15 64.03 8.00   1.00 2496.73
   20:22:13.079.25-Dec-2020 4794.01 5357.54 64.03 8.00   1.20 2496.73
   20:22:13.279.25-Dec-2020 4794.01 5354.03 64.03 8.00   1.40 2496.73
   20:22:13.479.25-Dec-2020 4794.01 5353.55 64.03 8.00   1.60 2496.73
   20:22:13.679.25-Dec-2020 4794.01 5361.42 64.03 8.00   1.80 2496.73
   20:22:13.879.25-Dec-2020 4794.01 5356.53 64.03 8.00   2.00 2496.73
   20:22:14.079.25-Dec-2020 4794.01 5356.53 64.03 8.00   2.20 2496.73
   20:22:14.278.25-Dec-2020 4794.01 5358.50 64.03 8.00   2.40 2496.73
   20:22:14.478.25-Dec-2020 4794.01 5359.14 64.03 8.00   2.60 2496.73
   20:22:14.678.25-Dec-2020 4794.01 5356.95 64.03 8.00   2.80 2496.73
   20:22:14.878.25-Dec-2020 4794.01 5360.65 64.03 8.00   3.00 2496.73
   20:22:15.078.25-Dec-2020 4794.01 5360.65 64.03 8.00   3.20 2496.73
   20:22:15.278.25-Dec-2020 4794.01 5360.42 64.03 8.00   3.40 2496.73
   20:22:15.478.25-Dec-2020 4794.01 5361.15 64.03 8.00   3.60 2496.73
   20:22:15.678.25-Dec-2020 4794.01 5361.20 64.03 8.00   3.80 2496.73
   20:22:15.878.25-Dec-2020 4794.01 5362.76 64.03 8.00   4.00 2496.73
   20:22:16.078.25-Dec-2020 4794.01 5362.40 64.03 8.00   4.20 2496.73
   20:22:16.278.25-Dec-2020 4794.01 5364.20 64.03 8.00   4.40 2496.73
   20:22:16.478.25-Dec-2020 4794.01 5368.58 64.03 8.00   4.60 2496.73
   20:22:16.678.25-Dec-2020 4794.01 5368.43 64.03 8.00   4.80 2496.73
   20:22:16.878.25-Dec-2020 4794.01 5365.36 64.03 8.00   5.00 2496.73
   20:22:17.078.25-Dec-2020 4794.01 5369.93 64.03 8.00   5.20 2496.73
   20:22:17.278.25-Dec-2020 4794.01 5366.43 64.03 8.00   5.40 2496.73
   20:22:17.478.25-Dec-2020 4794.01 5365.80 64.03 8.00   5.60 2496.73
   20:22:17.678.25-Dec-2020 4794.01 5366.99 64.03 8.00   5.80 2496.73
   20:22:17.878.25-Dec-2020 4794.01 5366.41 64.03 8.00   6.00 2496.73
   20:22:18.078.25-Dec-2020 4794.01 5366.41 64.03 8.00   6.20 2496.73
   20:22:18.278.25-Dec-2020 4794.01 5366.33 64.03 8.00   6.40 2496.73
   20:22:18.478.25-Dec-2020 4794.01 5365.99 64.03 8.00   6.60 2496.73
   20:22:18.678.25-Dec-2020 4794.01 5365.90 64.03 8.00   6.80 2496.73
   20:22:18.878.25-Dec-2020 4794.01 5367.13 64.03 8.00   7.00 2496.73
   20:22:19.078.25-Dec-2020 4794.01 5367.13 64.03 8.00   7.20 2496.73
   20:22:19.278.25-Dec-2020 4794.01 5364.52 64.03 8.00   7.40 2496.73
   20:22:19.478.25-Dec-2020 4794.01 5368.54 64.03 8.00   7.60 2496.73
   20:22:19.678.25-Dec-2020 4794.01 5371.74 64.03 8.00   7.80 2496.73
   20:22:19.878.25-Dec-2020 4794.01 5369.27 64.03 8.00   8.00 2496.73
   20:22:20.078.25-Dec-2020 4794.01 5369.27 64.03 8.00   8.20 2496.73
   20:22:20.278.25-Dec-2020 4794.01 5367.07 64.03 8.00   8.40 2496.73
   20:22:20.478.25-Dec-2020 4794.01 5372.65 64.03 8.00   8.60 2496.73
   20:22:20.678.25-Dec-2020 4794.01 5373.80 64.03 8.00   8.80 2496.73
   20:22:20.878.25-Dec-2020 4794.01 5377.23 64.03 8.00   9.00 2496.73
   20:22:21.078.25-Dec-2020 4794.01 5372.28 64.03 8.00   9.20 2496.73
   20:22:21.278.25-Dec-2020 4794.01 5373.03 64.03 8.00   9.40 2496.73
   20:22:21.478.25-Dec-2020 4794.01 5373.24 64.03 8.00   9.60 2496.73
   20:22:21.678.25-Dec-2020 4794.01 5384.01 64.03 8.00   9.80 2496.73
   20:22:21.878.25-Dec-2020 4794.01 5368.86 64.03 8.00  10.00 2496.73
   20:22:22.078.25-Dec-2020 4794.01 5368.86 64.03 8.00  10.20 2496.73
   20:22:22.278.25-Dec-2020 4794.01 5382.68 64.03 8.00  10.40 2496.73
   20:22:22.478.25-Dec-2020 4794.01 5375.43 64.03 8.00  10.60 2496.73
   20:22:22.678.25-Dec-2020 4794.01 5375.49 64.03 8.00  10.80 2496.73
   20:22:22.878.25-Dec-2020 4794.01 5375.56 64.02 8.00  11.00 2496.73
   20:22:23.078.25-Dec-2020 4794.01 5377.10 64.02 8.00  11.20 2496.73
   20:22:23.278.25-Dec-2020 4794.01 5383.17 64.02 8.00  11.40 2496.73
   20:22:23.478.25-Dec-2020 4794.01 5373.43 64.02 8.00  11.60 2496.73
   20:22:23.678.25-Dec-2020 4794.01 5375.14 64.02 8.00  11.80 2496.73
   20:22:23.878.25-Dec-2020 4794.01 5379.81 64.02 8.00  12.00 2496.73
   20:22:24.078.25-Dec-2020 4794.01 5379.81 64.02 8.00  12.20 2496.73
   20:22:24.278.25-Dec-2020 4794.01 5376.12 64.02 8.00  12.40 2496.73
   20:22:24.478.25-Dec-2020 4794.01 5376.59 64.02 8.00  12.60 2496.73
   20:22:24.678.25-Dec-2020 4794.01 5376.38 64.02 8.00  12.80 2496.73
   20:22:24.878.25-Dec-2020 4794.01 5376.75 64.02 8.00  13.00 2496.73
   20:22:25.078.25-Dec-2020 4794.01 5376.22 64.02 8.00  13.20 2496.73
   20:22:25.278.25-Dec-2020 4794.01 5376.53 64.02 8.00  13.40 2496.73
   20:22:25.478.25-Dec-2020 4794.01 5376.96 64.02 8.00  13.60 2496.73
   20:22:25.678.25-Dec-2020 4794.01 5381.85 64.02 8.00  13.80 2496.73
   20:22:25.878.25-Dec-2020 4794.01 5382.44 64.02 8.00  14.00 2496.73
   20:22:26.078.25-Dec-2020 4794.01 5382.44 64.02 8.00  14.20 2496.73
   20:22:26.278.25-Dec-2020 4794.01 5383.99 64.02 8.00  14.40 2496.73
   20:22:26.478.25-Dec-2020 4794.01 5377.38 64.02 8.00  14.60 2496.73
   20:22:26.678.25-Dec-2020 4794.01 5378.15 64.02 8.00  14.80 2496.73
   20:22:26.878.25-Dec-2020 4794.01 5378.14 64.02 8.00  15.00 2496.73
   20:22:27.078.25-Dec-2020 4794.01 5378.14 64.02 8.00  15.20 2496.73
   20:22:27.278.25-Dec-2020 4794.01 5378.14 64.02 8.00  15.40 2496.73
   20:22:27.478.25-Dec-2020 4794.01 5378.29 64.02 8.00  15.60 2496.73
   20:22:27.678.25-Dec-2020 4794.01 5377.40 64.02 8.00  15.80 2496.73
   20:22:27.878.25-Dec-2020 4794.01 5382.44 64.02 8.00  16.00 2496.73
   20:22:28.078.25-Dec-2020 4794.01 5378.65 64.02 8.00  16.20 2496.73
   20:22:28.278.25-Dec-2020 4794.01 5378.65 64.02 8.00  16.40 2496.73
   20:22:28.478.25-Dec-2020 4794.01 5385.80 64.02 8.00  16.60 2496.73
   20:22:28.678.25-Dec-2020 4794.01 5379.58 64.02 8.00  16.80 2496.73
   20:22:28.878.25-Dec-2020 4794.01 5379.11 64.02 8.00  17.00 2496.73
   20:22:29.078.25-Dec-2020 4794.01 5384.07 64.02 8.00  17.20 2496.73
   20:22:29.278.25-Dec-2020 4794.01 5379.87 64.02 8.00  17.40 2496.73
   20:22:29.477.25-Dec-2020 4794.01 5383.42 64.02 8.00  17.60 2496.73
   20:22:29.677.25-Dec-2020 4794.01 5384.51 64.02 8.00  17.80 2496.73
   20:22:29.877.25-Dec-2020 4794.01 5379.21 64.02 8.00  18.00 2496.73
   20:22:30.077.25-Dec-2020 4794.01 5379.21 64.02 8.00  18.20 2496.73
   20:22:30.277.25-Dec-2020 4794.01 5380.46 64.02 8.00  18.40 2496.73
   20:22:30.477.25-Dec-2020 4794.01 5385.60 64.02 8.00  18.60 2496.73
   20:22:30.677.25-Dec-2020 4794.01 5385.20 64.02 8.00  18.80 2496.73
   20:22:30.877.25-Dec-2020 4794.01 5376.27 64.02 8.00  19.00 2496.73
   20:22:31.077.25-Dec-2020 4794.01 5376.27 64.02 8.00  19.20 2496.73
   20:22:31.277.25-Dec-2020 4794.01 5390.08 64.02 8.00  19.40 2496.73
   20:22:31.477.25-Dec-2020 4794.01 5380.00 64.02 8.00  19.60 2496.73
   20:22:31.677.25-Dec-2020 4794.01 5381.59 64.02 8.00  19.80 2496.73
   20:22:31.877.25-Dec-2020 4794.01 5385.74 64.02 8.00  20.00 2496.73
   20:22:32.077.25-Dec-2020 4794.01 5382.38 64.02 8.00  20.20 2496.73
   20:22:32.277.25-Dec-2020 4794.01 5380.96 64.02 8.00  20.40 2496.73
   20:22:32.477.25-Dec-2020 4794.01 5381.93 64.02 8.00  20.60 2496.73
   20:22:32.677.25-Dec-2020 4794.01 5381.66 64.02 8.00  20.80 2496.73
   20:22:32.877.25-Dec-2020 4794.01 5381.77 64.01 8.00  21.00 2496.73
   20:22:33.077.25-Dec-2020 4794.01 5381.97 64.01 8.00  21.20 2496.73
   20:22:33.277.25-Dec-2020 4794.01 5381.49 64.01 8.00  21.40 2496.73
   20:22:33.477.25-Dec-2020 4794.01 5382.43 64.01 8.00  21.60 2496.73
   20:22:33.677.25-Dec-2020 4794.01 5387.18 64.01 8.00  21.80 2496.73
   20:22:33.877.25-Dec-2020 4794.01 5388.02 64.01 8.00  22.00 2496.73
   20:22:34.077.25-Dec-2020 4794.01 5388.02 64.01 8.00  22.20 2496.73
   20:22:34.277.25-Dec-2020 4794.01 5390.01 64.01 8.00  22.40 2496.73
   20:22:34.477.25-Dec-2020 4794.01 5384.22 64.01 8.00  22.60 2496.73
   20:22:34.677.25-Dec-2020 4794.01 5384.65 64.01 8.00  22.80 2496.73
