~Version Information
 VERS.                  2.0:   CWLS log ASCII Standard -VERSION 2.0
 WRAP.                   NO:   One line per depth step
~Well Information Block
#MNEM.UNIT     VALUE/NAME     DESCRIPTION
#---------     -----------    ---------------------------
 STRT.S             13:59:04 25-Dec-20: START TIME 13:59:04 25-Dec-20
 STOP.S             14:07:22 25-Dec-20: STOP TIME  14:07:22 25-Dec-20
 STEP.S                   0.00: STEP TIME
 NULL.                 -999.25: NULL VALUE
 DFWT.                        :  DIST FWL TEXT
 DFST.                        :  DIST FSL TEXT
 DMF .             Drill Floor:  DRILL MEAS FROM
 STIM.      04.54.24 22-Sep-20:  START TIME
 DATE.      04.54.24 21-Nov-20:  END TIME
 SPUD.               21-Nov-20:  SPUD DATE
 NREF.                    Grid:  NORTH REFERENCE
 HPTY.       Minimum Curvature:  HOLE POS TYPE
 DMOD.             Drill Model:  DRILL MOD DESC
 SVYD.                  Survey:  SURVEY DESC
 ILTD.               Lithology:  INTERP LTH DESC
 FTOP.          Formation Tops:  FORM TOPS DESC
 SON .        AZ-XX-0906571587:  JOB NUMBER
 COMP.     BP Exploration (Caspian Sea) Ltd:  COMPANY
 UWI .                     N/A:  UNIQUE WELL IDENTIFIER
 API .                     N/A:  API NUMBER
 BASE.              Azerbaijan:  LOGGING EQUIPMENT BASE LOCATION
 REGN.                   EESSA:  REGION
 PROV.                    Baku:  PROVINCE
 STAT.                    Baku:  STATE NAME
 CTRY.              Azerbaijan:  COUNTRY NAME
 FLD .                     ACG:  FIELD NAME
 SRVC.     TURAN Drilling & Engineering:  CONTRACTOR
 WELL.                     J27:  WELL NAME
 RIG .             West Chirag:  RIG NAME
 DOE .                     N/A:  DOE NUMBER
 DCON.         Sperry Drilling:  DIRECTNL CONTR
 PDAT.          Mean Sea Level:  PERMANENT DATUM
 WTYP.                Deviated:  WELL TYPE
 MWDS.                    Baku:  MWD SHOP
 JOBN.        AZ-XX-0906571587:  JOB TICKET NUMB
 UNIT.                     N/A:  LOGGING EQUIPMENT ID
 MDS .        Operator Entered:  MAG DATA SOURCE
 CNTY.                        :  COUNTY
 LOC .                        :  LOCATION
 LMF .             Drill Floor:  LOG MEASURED FROM
 TVDS.m                  43.00:  TVDSS CORRECTN
 LATI.deg                40.13:  LATITUDE
 LONG.deg                51.22:  LONGITUDE
 WHNS.m                   7.72:  WELL HEAD N/S
 WHEW.m                 -14.24:  WELL HEAD E/W
 UTMX.m              519005.06:  UTM X
 UTMY.m             4443793.85:  UTM Y
 DFWL.m                   0.00:  DISTANCE FWL
 DFSL.m                   0.00:  DISTANCE FSL
 SDEP.m                 347.00:  START DEPTH
 TDD .m                 581.00:  TOTAL DEPTH (DRILLER)
 VSDR.deg               159.72:  VERT SEC DIRECT
 GVFD.g                   1.00:  GRAVITY FIELD
 MFLD.nT              50318.00:  MAGNETIC FIELD
 MDIP.deg                59.57:  MAGNETIC DIP
 MDEC.deg                 6.44:  MAGNETIC DECL
 GRDC.deg                 0.15:  GRID CORRECTION
 AZTC.deg                 6.29:  AZM TOTAL CORR
 EPD .m                   0.00:  ELEVATION
 EGL .m                   0.00:  GROUND ELEVATION
 WDMS.m                 169.80:  WD ELEV
 APD .m                  43.00:  DEPTH ABOVE PD
 AGAP.m                  43.00:  AIR GAP
 VSEW.m                 -14.24:  VERT SEC E/W
 VSNS.m                   7.72:  VERT SEC N/S
 DEP .m                 342.45:  DEPTH
 EKB .m                   0.00:  KB ELEVATION
 EDF .m                  43.00:  DF ELEVATION
 TDL .m                 237.00:  TOTAL DEPTH (LOGGER)
 VSC .                       0:  VS TO CLOSURE
 MAGU.                 1851428:  MAGUTM CHECKSUM
~Parameter Information Block
#MNEM.UNIT       Value        Description
#---------     -----------    ---------------------------
 AV  .mps                 1.50:  Ann Velocity 
 AVMX.mps                 2.90:  Max Ann Veloc 
 AZIF.deg               115.59:  Azm, Final 
 BHAT.        Rotary Steerable:  BHA Type 
 BROT.°/30m               0.50:  Build Rotating 
 BS  .in                  8.50:  Bit Size 
 BTPL.psig              580.00:  Bit Press Loss 
 CABU.                     Yes:  Customer Abuse 
 COMM.                     ì©q:  Run Comments 1 
 TCS .hr                 89.79:  Time Ciculation Ended 
 CV  .mps                 3.22:  Crit Velocity 
 CVMX.mps                 4.37:  Max Crit Veloc 
 DD1 .          Rashad Habibov:  Direct Drillr 1 
 DDSV.               Geo-Pilot:  DD Service 
 DEFF.%                  95.00:  % Det Eff 
 DLRX.°/30m               1.94:  Dogleg Rot Max 
 DLSO.°/30m               0.70:  Dogleg Oriented 
 DLSX.°/30m               1.94:  Dogleg Str Max 
 DRET.      04.45.00 25-Dec-20:  Drill End Time 
 DRST.      10.00.00 24-Dec-20:  Drill Start Tim 
 DTIM.hr                 16.64:  Time Drilling 
 EDEP.m                4999.01:  End Depth 
 ENG1.         Elchin Mammadov:  Engineer 1 
 ENG2.          Ruslan Safarov:  Engineer 2 
 ENG3.          Rustam Safarov:  Engineer 3 
 ETIM.      09.00.00 29-Dec-20:  End Time 
 FLOI.gpm               500.00:  Flow In 
 FLON.gpm               400.00:  Flow In Min 
 FLOS.cptm                0.00:  Fluid Loss 
 FLOX.gpm               500.00:  Flow In Max 
 HFLO.                      No:  High Flow 
 HPRE.                      No:  High Pressure 
 HTEM.                      No:  High Temp 
 HYDO.m                   2.00:  Hydro Offset 
 IFIN.deg                66.79:  Inc, Final 
 IMAX.deg                67.66:  Inc Max 
 IMIN.deg                66.39:  Inc Min 
 IMND.m                4949.37:  Inc Min Depth 
 IMXD.m                4778.63:  Inc Max Depth 
 JARR.                     Yes:  Jarring 
 LETM.      04.45.00 25-Dec-20:  Log End Time 
 LOST.hr                     0:  Lost Rig Time 
 LSTM.      10.00.00 24-Dec-20:  Log Start Time 
 MDCL.ppm             39000.00:  Mud Chlorides 
 MDES.     Inversion Oil/Synthetic:  Mud Desc 
 DFD .sg                  1.33:  Mud Density 
 MDMN.sg                  1.33:  Dens Mud Min 
 MDMX.sg                  1.33:  Dens Mud Max 
 MOIL.                      70:  Run Mud Oil % 
 MOWR.                   70:30:  Run Mud OWR 
 MSND.                       0:  Run Mud Sand % 
 MSOL.                    17.4:  Run Mud Solids% 
 DFV .spqt               84.00:  Mud Viscosity 
 MWOD.in                  6.75:  MWD Tool OD 
 MWSI.                     Yes:  Serv Intrp, MWD 
 OTIM.hr                168.14:  Time Operating 
 PCON.           Look Like New:  Pad Condition 
 PMAX.psia            10822.93:  Press Op, Max 
 PV  .cP                 30.00:  Mud PV 
 RUN .                     900:  Run Number 
 ROPA.m/hr               18.00:  ROP Avg 
 ROPN.m/hr               12.00:  ROP Min 
 ROPX.m/hr               25.00:  ROP Max 
 RPMA.rpm               120.00:  RPM Surface Avg 
 RPMN.rpm               100.00:  RPM Surface Min 
 RPMX.rpm               120.00:  RPM Surface Max 
 RRUN.                    0900:  Rig Run Number 
 SAZI.deg               115.08:  Azm, Start 
 SDEP.m                4762.01:  Start Depth 
 SIDD.                      No:  Serv Intrp, DD 
 SINC.deg                66.14:  Inc, Start 
 SPPA.psig             3700.00:  SPP Avg 
 SPPN.psig             3620.00:  SPP Min 
 SPPX.psig             3900.00:  SPP Max 
 STIM.      09.30.00 22-Dec-20:  Start Time 
 SVCS.                 DD, MWD:  Services 
 SVER.                    9.20:  Sperry Version 
 TDAT.m                 237.00:  Tot Depth Attmp 
 TDDF.                      No:  Trip for DD 
 TDLG.m                 237.00:  Tot Depth Loggd 
 TFF .                      No:  Trip for Fail 
 TQAA.f-kp               18.00:  Torque Abs Avg 
 TQAN.f-kp               17.00:  Torque Abs Min 
 TQAX.f-kp               20.00:  Torque Abs Max 
 TRRT.°/30m               0.60:  Turn Rotating 
 MRT .                    HCIM:  Maximum Recorded Temperature 
 TTMX.degC               94.12:  Max Tool Temp 
 VS01.                90627809:  Virtual Str1 SN 
 VS02.                90527813:  Virtual Str2 SN 
 VS03.                90545417:  Virtual Str3 SN 
 VS04.                12460870:  Virtual Str4 SN 
 VS05.                90516706:  Virtual Str5 SN 
 VS06.                90632007:  Virtual Str6 SN 
 WBMN.klb                 0.00:  WOB Min 
 WOBA.klb                14.00:  WOB Avg 
 WOBX.klb                25.00:  WOB Max 
 YP  .lhf2               32.00:  Yield Point 
~Curve Information Block
#MNEM.UNIT                 API CODE     Curve Description
#---------               -----------    ---------------------------
 TIME.HHMMSS            00 000 000 000:  GT Time & Date
 GTDEPTH.m              00 000 000 000:  GT Depth
 GTPQH.psia             00 000 000 000:  GT HR Quartz Pressure
 GTTQ.degC              00 000 000 000:  GT Quartz Temperature
 GTTN.NONE              00 000 000 000:  GT Test Number
 GTET.sec               00 000 000 000:  GT Elapsed Test Time
 GTTVD.m                00 000 000 000:  GT True Vertical Depth
#Other Information
#
#WARRANTY: Halliburton will use its best efforts to furnish customers with 
#accurate information and interpretations that are part of, and incident to, the services 
#provided.  However, Halliburton cannot and does not warrant the accuracy 
#or correctness of such information and interpretations.  Under no circumstances should any 
#such information or interpretation be relied upon as the sole basis for any drilling, 
#completion, production, or financial decision or any procedure involving any risk to the 
#safety of any drilling venture, drilling rig or its crew or any other third party.  The 
#Customer has full responsibility for all drilling, completion and production operation.  
#Halliburton makes no representations or warranties, either expressed or 
#implied, including, but not limited to, the implied warranties of merchantability or fitness 
#for a particular purpose, with respect to the services rendered.  In no event will 
#Halliburton be liable for failure to obtain any particular results or for 
#any damages, including, but not limited to, indirect, special or consequential damages, 
#resulting from the use of any information or interpretation provided by Halliburton.
#
~A           TIME           GTDEPTH  GTPQH  GTTQ  GTTN  GTET   GTTVD  
# ...
   14:02:08.000.25-Dec-2020 4920.01 2478.96 65.73 3.00 184.00 2546.09
   14:02:08.200.25-Dec-2020 4920.01 2478.96 65.73 3.00 184.20 2546.09
   14:02:08.400.25-Dec-2020 4920.01 2478.29 65.73 3.00 184.40 2546.09
   14:02:08.600.25-Dec-2020 4920.01 2478.64 65.73 3.00 184.60 2546.09
   14:02:08.800.25-Dec-2020 4920.01 2474.80 65.73 3.00 184.80 2546.09
   14:02:09.000.25-Dec-2020 4920.01 2476.23 65.73 3.00 185.00 2546.09
   14:02:09.200.25-Dec-2020 4920.01 2476.23 65.73 3.00 185.20 2546.09
   14:02:09.400.25-Dec-2020 4920.01 2474.70 65.73 3.00 185.40 2546.09
   14:02:09.600.25-Dec-2020 4920.01 2478.38 65.73 3.00 185.60 2546.09
   14:02:09.800.25-Dec-2020 4920.01 2474.73 65.73 3.00 185.80 2546.09
   14:02:10.000.25-Dec-2020 4920.01 2477.05 65.73 3.00 186.00 2546.09
   14:02:10.200.25-Dec-2020 4920.01 2477.05 65.73 3.00 186.20 2546.09
   14:02:10.400.25-Dec-2020 4920.01 2475.43 65.73 3.00 186.40 2546.09
   14:02:10.600.25-Dec-2020 4920.01 2475.79 65.73 3.00 186.60 2546.09
   14:02:10.800.25-Dec-2020 4920.01 2471.90 65.73 3.00 186.80 2546.09
   14:02:11.000.25-Dec-2020 4920.01 2474.12 65.73 3.00 187.00 2546.09
   14:02:11.200.25-Dec-2020 4920.01 2481.47 65.73 3.00 187.20 2546.09
   14:02:11.400.25-Dec-2020 4920.01 2477.83 65.73 3.00 187.40 2546.09
   14:02:11.600.25-Dec-2020 4920.01 2473.85 65.73 3.00 187.60 2546.09
   14:02:11.800.25-Dec-2020 4920.01 2531.05 65.73 3.00 187.80 2546.09
   14:02:12.000.25-Dec-2020 4920.01 2642.11 65.73 3.00 188.00 2546.09
   14:02:12.200.25-Dec-2020 4920.01 2660.30 65.73 3.00 188.20 2546.09
   14:02:12.400.25-Dec-2020 4920.01 2662.56 65.73 3.00 188.40 2546.09
   14:02:12.600.25-Dec-2020 4920.01 2662.94 65.73 3.00 188.60 2546.09
   14:02:12.800.25-Dec-2020 4920.01 2663.10 65.73 3.00 188.80 2546.09
   14:02:13.000.25-Dec-2020 4920.01 2663.06 65.73 3.00 189.00 2546.09
   14:02:13.200.25-Dec-2020 4920.01 2663.06 65.73 3.00 189.20 2546.09
   14:02:13.400.25-Dec-2020 4920.01 2663.64 65.73 3.00 189.40 2546.09
   14:02:13.600.25-Dec-2020 4920.01 2663.81 65.73 3.00 189.60 2546.09
   14:02:13.800.25-Dec-2020 4920.01 2663.89 65.73 3.00 189.80 2546.09
   14:02:14.000.25-Dec-2020 4920.01 2663.66 65.73 3.00 190.00 2546.09
   14:02:14.200.25-Dec-2020 4920.01 2663.66 65.73 3.00 190.20 2546.09
   14:02:14.400.25-Dec-2020 4920.01 2663.87 65.73 3.00 190.40 2546.09
   14:02:14.600.25-Dec-2020 4920.01 2663.80 65.73 3.00 190.60 2546.09
   14:02:14.800.25-Dec-2020 4920.01 2664.40 65.73 3.00 190.80 2546.09
   14:02:15.000.25-Dec-2020 4920.01 2664.02 65.73 3.00 191.00 2546.09
   14:02:15.200.25-Dec-2020 4920.01 2664.19 65.73 3.00 191.20 2546.09
   14:02:15.400.25-Dec-2020 4920.01 2664.18 65.73 3.00 191.40 2546.09
   14:02:15.600.25-Dec-2020 4920.01 2664.02 65.73 3.00 191.60 2546.09
   14:02:15.800.25-Dec-2020 4920.01 2664.22 65.73 3.00 191.80 2546.09
   14:02:16.000.25-Dec-2020 4920.01 2664.40 65.73 3.00 192.00 2546.09
   14:02:16.200.25-Dec-2020 4920.01 2664.28 65.73 3.00 192.20 2546.09
   14:02:16.400.25-Dec-2020 4920.01 2664.24 65.73 3.00 192.40 2546.09
   14:02:16.600.25-Dec-2020 4920.01 2664.22 65.73 3.00 192.60 2546.09
   14:02:16.800.25-Dec-2020 4920.01 2664.27 65.73 3.00 192.80 2546.09
   14:02:17.000.25-Dec-2020 4920.01 2664.25 65.73 3.00 193.00 2546.09
   14:02:17.200.25-Dec-2020 4920.01 2664.25 65.73 3.00 193.20 2546.09
   14:02:17.400.25-Dec-2020 4920.01 2664.25 65.73 3.00 193.40 2546.09
   14:02:17.600.25-Dec-2020 4920.01 2664.24 65.73 3.00 193.60 2546.09
   14:02:17.800.25-Dec-2020 4920.01 2664.26 65.73 3.00 193.80 2546.09
   14:02:18.000.25-Dec-2020 4920.01 2663.78 65.73 3.00 194.00 2546.09
   14:02:18.200.25-Dec-2020 4920.01 2663.78 65.73 3.00 194.20 2546.09
   14:02:18.400.25-Dec-2020 4920.01 2664.23 65.73 3.00 194.40 2546.09
   14:02:18.600.25-Dec-2020 4920.01 2664.25 65.73 3.00 194.60 2546.09
   14:02:18.800.25-Dec-2020 4920.01 2664.36 65.73 3.00 194.80 2546.09
   14:02:19.000.25-Dec-2020 4920.01 2664.32 65.73 3.00 195.00 2546.09
   14:02:19.200.25-Dec-2020 4920.01 2664.30 65.73 3.00 195.20 2546.09
   14:02:19.400.25-Dec-2020 4920.01 2664.36 65.73 3.00 195.40 2546.09
   14:02:19.600.25-Dec-2020 4920.01 2664.34 65.73 3.00 195.60 2546.09
   14:02:19.800.25-Dec-2020 4920.01 2664.34 65.73 3.00 195.80 2546.09
   14:02:20.000.25-Dec-2020 4920.01 2664.31 65.73 3.00 196.00 2546.09
   14:02:20.200.25-Dec-2020 4920.01 2664.31 65.73 3.00 196.20 2546.09
   14:02:20.400.25-Dec-2020 4920.01 2664.32 65.73 3.00 196.40 2546.09
   14:02:20.600.25-Dec-2020 4920.01 2664.19 65.73 3.00 196.60 2546.09
   14:02:20.800.25-Dec-2020 4920.01 2664.38 65.73 3.00 196.80 2546.09
   14:02:21.000.25-Dec-2020 4920.01 2664.56 65.73 3.00 197.00 2546.09
   14:02:21.200.25-Dec-2020 4920.01 2664.56 65.73 3.00 197.20 2546.09
   14:02:21.400.25-Dec-2020 4920.01 2664.35 65.73 3.00 197.40 2546.09
   14:02:21.600.25-Dec-2020 4920.01 2664.10 65.73 3.00 197.60 2546.09
   14:02:21.800.25-Dec-2020 4920.01 2664.87 65.73 3.00 197.80 2546.09
   14:02:22.000.25-Dec-2020 4920.01 2664.27 65.73 3.00 198.00 2546.09
   14:02:22.200.25-Dec-2020 4920.01 2664.27 65.73 3.00 198.20 2546.09
   14:02:22.400.25-Dec-2020 4920.01 2664.87 65.73 3.00 198.40 2546.09
   14:02:22.600.25-Dec-2020 4920.01 2664.17 65.73 3.00 198.60 2546.09
   14:02:22.800.25-Dec-2020 4920.01 2664.32 65.73 3.00 198.80 2546.09
   14:02:23.000.25-Dec-2020 4920.01 2664.40 65.73 3.00 199.00 2546.09
   14:02:23.200.25-Dec-2020 4920.01 2664.40 65.73 3.00 199.20 2546.09
   14:02:23.400.25-Dec-2020 4920.01 2664.83 65.73 3.00 199.40 2546.09
   14:02:23.600.25-Dec-2020 4920.01 2664.30 65.73 3.00 199.60 2546.09
   14:02:23.800.25-Dec-2020 4920.01 2664.38 65.73 3.00 199.80 2546.09
   14:02:24.000.25-Dec-2020 4920.01 2664.37 65.73 3.00 200.00 2546.09
   14:02:24.200.25-Dec-2020 4920.01 2664.35 65.73 3.00 200.20 2546.09
   14:02:24.400.25-Dec-2020 4920.01 2664.41 65.73 3.00 200.40 2546.09
   14:02:24.600.25-Dec-2020 4920.01 2664.40 65.73 3.00 200.60 2546.09
   14:02:24.800.25-Dec-2020 4920.01 2664.41 65.73 3.00 200.80 2546.09
   14:02:25.000.25-Dec-2020 4920.01 2664.39 65.73 3.00 201.00 2546.09
   14:02:25.200.25-Dec-2020 4920.01 2664.39 65.73 3.00 201.20 2546.09
   14:02:25.400.25-Dec-2020 4920.01 2664.42 65.73 3.00 201.40 2546.09
   14:02:25.600.25-Dec-2020 4920.01 2664.38 65.73 3.00 201.60 2546.09
   14:02:25.800.25-Dec-2020 4920.01 2664.40 65.73 3.00 201.80 2546.09
   14:02:26.000.25-Dec-2020 4920.01 2664.58 65.73 3.00 202.00 2546.09
   14:02:26.200.25-Dec-2020 4920.01 2664.58 65.73 3.00 202.20 2546.09
   14:02:26.400.25-Dec-2020 4920.01 2664.85 65.73 3.00 202.40 2546.09
   14:02:26.600.25-Dec-2020 4920.01 2664.75 65.73 3.00 202.60 2546.09
   14:02:26.800.25-Dec-2020 4920.01 2664.77 65.73 3.00 202.80 2546.09
   14:02:27.000.25-Dec-2020 4920.01 2664.84 65.73 3.00 203.00 2546.09
   14:02:27.200.25-Dec-2020 4920.01 2664.82 65.73 3.00 203.20 2546.09
   14:02:27.400.25-Dec-2020 4920.01 2664.80 65.73 3.00 203.40 2546.09
   14:02:27.600.25-Dec-2020 4920.01 2664.79 65.73 3.00 203.60 2546.09
   14:02:27.800.25-Dec-2020 4920.01 2664.80 65.73 3.00 203.80 2546.09
   14:02:28.000.25-Dec-2020 4920.01 2664.77 65.73 3.00 204.00 2546.09
   14:02:28.200.25-Dec-2020 4920.01 2664.77 65.73 3.00 204.20 2546.09
   14:02:28.400.25-Dec-2020 4920.01 2665.28 65.73 3.00 204.40 2546.09
   14:02:28.600.25-Dec-2020 4920.01 2664.70 65.73 3.00 204.60 2546.09
   14:02:28.800.25-Dec-2020 4920.01 2664.79 65.73 3.00 204.80 2546.09
   14:02:29.000.25-Dec-2020 4920.01 2664.80 65.73 3.00 205.00 2546.09
   14:02:29.200.25-Dec-2020 4920.01 2664.80 65.73 3.00 205.20 2546.09
   14:02:29.400.25-Dec-2020 4920.01 2664.81 65.73 3.00 205.40 2546.09
   14:02:29.600.25-Dec-2020 4920.01 2664.84 65.73 3.00 205.60 2546.09
   14:02:29.800.25-Dec-2020 4920.01 2664.63 65.73 3.00 205.80 2546.09
   14:02:30.000.25-Dec-2020 4920.01 2665.22 65.73 3.00 206.00 2546.09
   14:02:30.200.25-Dec-2020 4920.01 2665.22 65.73 3.00 206.20 2546.09
   14:02:30.400.25-Dec-2020 4920.01 2664.65 65.73 3.00 206.40 2546.09
   14:02:30.600.25-Dec-2020 4920.01 2665.28 65.73 3.00 206.60 2546.09
   14:02:30.800.25-Dec-2020 4920.01 2664.65 65.73 3.00 206.80 2546.09
