~Version Information
 VERS.                  2.0:   CWLS log ASCII Standard -VERSION 2.0
 WRAP.                   NO:   One line per depth step
~Well Information Block
#MNEM.UNIT     VALUE/NAME     DESCRIPTION
#---------     -----------    ---------------------------
 STRT.S             17:56:34 25-Dec-20: START TIME 17:56:34 25-Dec-20
 STOP.S             18:04:57 25-Dec-20: STOP TIME  18:04:57 25-Dec-20
 STEP.S                   0.00: STEP TIME
 NULL.                 -999.25: NULL VALUE
 DFWT.                        :  DIST FWL TEXT
 DFST.                        :  DIST FSL TEXT
 DMF .             Drill Floor:  DRILL MEAS FROM
 STIM.      04.54.24 22-Sep-20:  START TIME
 DATE.      04.54.24 21-Nov-20:  END TIME
 SPUD.               21-Nov-20:  SPUD DATE
 NREF.                    Grid:  NORTH REFERENCE
 HPTY.       Minimum Curvature:  HOLE POS TYPE
 DMOD.             Drill Model:  DRILL MOD DESC
 SVYD.                  Survey:  SURVEY DESC
 ILTD.               Lithology:  INTERP LTH DESC
 FTOP.          Formation Tops:  FORM TOPS DESC
 SON .        AZ-XX-0906571587:  JOB NUMBER
 COMP.     BP Exploration (Caspian Sea) Ltd:  COMPANY
 UWI .                     N/A:  UNIQUE WELL IDENTIFIER
 API .                     N/A:  API NUMBER
 BASE.              Azerbaijan:  LOGGING EQUIPMENT BASE LOCATION
 REGN.                   EESSA:  REGION
 PROV.                    Baku:  PROVINCE
 STAT.                    Baku:  STATE NAME
 CTRY.              Azerbaijan:  COUNTRY NAME
 FLD .                     ACG:  FIELD NAME
 SRVC.     TURAN Drilling & Engineering:  CONTRACTOR
 WELL.                     J27:  WELL NAME
 RIG .             West Chirag:  RIG NAME
 DOE .                     N/A:  DOE NUMBER
 DCON.         Sperry Drilling:  DIRECTNL CONTR
 PDAT.          Mean Sea Level:  PERMANENT DATUM
 WTYP.                Deviated:  WELL TYPE
 MWDS.                    Baku:  MWD SHOP
 JOBN.        AZ-XX-0906571587:  JOB TICKET NUMB
 UNIT.                     N/A:  LOGGING EQUIPMENT ID
 MDS .        Operator Entered:  MAG DATA SOURCE
 CNTY.                        :  COUNTY
 LOC .                        :  LOCATION
 LMF .             Drill Floor:  LOG MEASURED FROM
 TVDS.m                  43.00:  TVDSS CORRECTN
 LATI.deg                40.13:  LATITUDE
 LONG.deg                51.22:  LONGITUDE
 WHNS.m                   7.72:  WELL HEAD N/S
 WHEW.m                 -14.24:  WELL HEAD E/W
 UTMX.m              519005.06:  UTM X
 UTMY.m             4443793.85:  UTM Y
 DFWL.m                   0.00:  DISTANCE FWL
 DFSL.m                   0.00:  DISTANCE FSL
 SDEP.m                 347.00:  START DEPTH
 TDD .m                 581.00:  TOTAL DEPTH (DRILLER)
 VSDR.deg               159.72:  VERT SEC DIRECT
 GVFD.g                   1.00:  GRAVITY FIELD
 MFLD.nT              50318.00:  MAGNETIC FIELD
 MDIP.deg                59.57:  MAGNETIC DIP
 MDEC.deg                 6.44:  MAGNETIC DECL
 GRDC.deg                 0.15:  GRID CORRECTION
 AZTC.deg                 6.29:  AZM TOTAL CORR
 EPD .m                   0.00:  ELEVATION
 EGL .m                   0.00:  GROUND ELEVATION
 WDMS.m                 169.80:  WD ELEV
 APD .m                  43.00:  DEPTH ABOVE PD
 AGAP.m                  43.00:  AIR GAP
 VSEW.m                 -14.24:  VERT SEC E/W
 VSNS.m                   7.72:  VERT SEC N/S
 DEP .m                 342.45:  DEPTH
 EKB .m                   0.00:  KB ELEVATION
 EDF .m                  43.00:  DF ELEVATION
 TDL .m                 237.00:  TOTAL DEPTH (LOGGER)
 VSC .                       0:  VS TO CLOSURE
 MAGU.                 1851428:  MAGUTM CHECKSUM
~Parameter Information Block
#MNEM.UNIT       Value        Description
#---------     -----------    ---------------------------
 AV  .mps                 1.50:  Ann Velocity 
 AVMX.mps                 2.90:  Max Ann Veloc 
 AZIF.deg               115.59:  Azm, Final 
 BHAT.        Rotary Steerable:  BHA Type 
 BROT.∞/30m               0.50:  Build Rotating 
 BS  .in                  8.50:  Bit Size 
 BTPL.psig              580.00:  Bit Press Loss 
 CABU.                     Yes:  Customer Abuse 
 COMM.                     ‰E:  Run Comments 1 
 TCS .hr                 89.79:  Time Ciculation Ended 
 CV  .mps                 3.22:  Crit Velocity 
 CVMX.mps                 4.37:  Max Crit Veloc 
 DD1 .          Rashad Habibov:  Direct Drillr 1 
 DDSV.               Geo-Pilot:  DD Service 
 DEFF.%                  95.00:  % Det Eff 
 DLRX.∞/30m               1.94:  Dogleg Rot Max 
 DLSO.∞/30m               0.70:  Dogleg Oriented 
 DLSX.∞/30m               1.94:  Dogleg Str Max 
 DRET.      04.45.00 25-Dec-20:  Drill End Time 
 DRST.      10.00.00 24-Dec-20:  Drill Start Tim 
 DTIM.hr                 16.64:  Time Drilling 
 EDEP.m                4999.01:  End Depth 
 ENG1.         Elchin Mammadov:  Engineer 1 
 ENG2.          Ruslan Safarov:  Engineer 2 
 ENG3.          Rustam Safarov:  Engineer 3 
 ETIM.      09.00.00 29-Dec-20:  End Time 
 FLOI.gpm               500.00:  Flow In 
 FLON.gpm               400.00:  Flow In Min 
 FLOS.cptm                0.00:  Fluid Loss 
 FLOX.gpm               500.00:  Flow In Max 
 HFLO.                      No:  High Flow 
 HPRE.                      No:  High Pressure 
 HTEM.                      No:  High Temp 
 HYDO.m                   2.00:  Hydro Offset 
 IFIN.deg                66.79:  Inc, Final 
 IMAX.deg                67.66:  Inc Max 
 IMIN.deg                66.39:  Inc Min 
 IMND.m                4949.37:  Inc Min Depth 
 IMXD.m                4778.63:  Inc Max Depth 
 JARR.                     Yes:  Jarring 
 LETM.      04.45.00 25-Dec-20:  Log End Time 
 LOST.hr                     0:  Lost Rig Time 
 LSTM.      10.00.00 24-Dec-20:  Log Start Time 
 MDCL.ppm             39000.00:  Mud Chlorides 
 MDES.     Inversion Oil/Synthetic:  Mud Desc 
 DFD .sg                  1.33:  Mud Density 
 MDMN.sg                  1.33:  Dens Mud Min 
 MDMX.sg                  1.33:  Dens Mud Max 
 MOIL.                      70:  Run Mud Oil % 
 MOWR.                   70:30:  Run Mud OWR 
 MSND.                       0:  Run Mud Sand % 
 MSOL.                    17.4:  Run Mud Solids% 
 DFV .spqt               84.00:  Mud Viscosity 
 MWOD.in                  6.75:  MWD Tool OD 
 MWSI.                     Yes:  Serv Intrp, MWD 
 OTIM.hr                168.14:  Time Operating 
 PCON.           Look Like New:  Pad Condition 
 PMAX.psia            10822.93:  Press Op, Max 
 PV  .cP                 30.00:  Mud PV 
 RUN .                     900:  Run Number 
 ROPA.m/hr               18.00:  ROP Avg 
 ROPN.m/hr               12.00:  ROP Min 
 ROPX.m/hr               25.00:  ROP Max 
 RPMA.rpm               120.00:  RPM Surface Avg 
 RPMN.rpm               100.00:  RPM Surface Min 
 RPMX.rpm               120.00:  RPM Surface Max 
 RRUN.                    0900:  Rig Run Number 
 SAZI.deg               115.08:  Azm, Start 
 SDEP.m                4762.01:  Start Depth 
 SIDD.                      No:  Serv Intrp, DD 
 SINC.deg                66.14:  Inc, Start 
 SPPA.psig             3700.00:  SPP Avg 
 SPPN.psig             3620.00:  SPP Min 
 SPPX.psig             3900.00:  SPP Max 
 STIM.      09.30.00 22-Dec-20:  Start Time 
 SVCS.                 DD, MWD:  Services 
 SVER.                    9.20:  Sperry Version 
 TDAT.m                 237.00:  Tot Depth Attmp 
 TDDF.                      No:  Trip for DD 
 TDLG.m                 237.00:  Tot Depth Loggd 
 TFF .                      No:  Trip for Fail 
 TQAA.f-kp               18.00:  Torque Abs Avg 
 TQAN.f-kp               17.00:  Torque Abs Min 
 TQAX.f-kp               20.00:  Torque Abs Max 
 TRRT.∞/30m               0.60:  Turn Rotating 
 MRT .                    HCIM:  Maximum Recorded Temperature 
 TTMX.degC               94.12:  Max Tool Temp 
 VS01.                90627809:  Virtual Str1 SN 
 VS02.                90527813:  Virtual Str2 SN 
 VS03.                90545417:  Virtual Str3 SN 
 VS04.                12460870:  Virtual Str4 SN 
 VS05.                90516706:  Virtual Str5 SN 
 VS06.                90632007:  Virtual Str6 SN 
 WBMN.klb                 0.00:  WOB Min 
 WOBA.klb                14.00:  WOB Avg 
 WOBX.klb                25.00:  WOB Max 
 YP  .lhf2               32.00:  Yield Point 
~Curve Information Block
#MNEM.UNIT                 API CODE     Curve Description
#---------               -----------    ---------------------------
 TIME.HHMMSS            00 000 000 000:  GT Time & Date
 GTDEPTH.m              00 000 000 000:  GT Depth
 GTPQH.psia             00 000 000 000:  GT HR Quartz Pressure
 GTTQ.degC              00 000 000 000:  GT Quartz Temperature
 GTTN.NONE              00 000 000 000:  GT Test Number
 GTET.sec               00 000 000 000:  GT Elapsed Test Time
 GTTVD.m                00 000 000 000:  GT True Vertical Depth
#Other Information
#
#WARRANTY: Halliburton will use its best efforts to furnish customers with 
#accurate information and interpretations that are part of, and incident to, the services 
#provided.  However, Halliburton cannot and does not warrant the accuracy 
#or correctness of such information and interpretations.  Under no circumstances should any 
#such information or interpretation be relied upon as the sole basis for any drilling, 
#completion, production, or financial decision or any procedure involving any risk to the 
#safety of any drilling venture, drilling rig or its crew or any other third party.  The 
#Customer has full responsibility for all drilling, completion and production operation.  
#Halliburton makes no representations or warranties, either expressed or 
#implied, including, but not limited to, the implied warranties of merchantability or fitness 
#for a particular purpose, with respect to the services rendered.  In no event will 
#Halliburton be liable for failure to obtain any particular results or for 
#any damages, including, but not limited to, indirect, special or consequential damages, 
#resulting from the use of any information or interpretation provided by Halliburton.
#
~A           TIME           GTDEPTH  GTPQH  GTTQ  GTTN  GTET   GTTVD  
# ...
   17:56:57.715.25-Dec-2020 4856.51 5444.46 64.25 5.00  22.99 2521.01
   17:56:57.915.25-Dec-2020 4856.51 5444.46 64.25 5.00  23.19 2521.01
   17:56:58.115.25-Dec-2020 4856.51 5443.11 64.25 5.00  23.39 2521.01
   17:56:58.315.25-Dec-2020 4856.51 5437.09 64.25 5.00  23.59 2521.01
   17:56:58.515.25-Dec-2020 4856.51 5432.34 64.25 5.00  23.79 2521.01
   17:56:58.715.25-Dec-2020 4856.51 5438.55 64.25 5.00  23.99 2521.01
   17:56:58.915.25-Dec-2020 4856.51 5438.55 64.25 5.00  24.19 2521.01
   17:56:59.115.25-Dec-2020 4856.51 5441.11 64.25 5.00  24.39 2521.01
   17:56:59.315.25-Dec-2020 4856.51 5435.74 64.25 5.00  24.59 2521.01
   17:56:59.515.25-Dec-2020 4856.51 5435.69 64.25 5.00  24.79 2521.01
   17:56:59.714.25-Dec-2020 4856.51 5435.66 64.25 5.00  24.99 2521.01
   17:56:59.914.25-Dec-2020 4856.51 5434.38 64.25 5.00  25.19 2521.01
   17:57:00.114.25-Dec-2020 4856.51 5434.08 64.25 5.00  25.39 2521.01
   17:57:00.314.25-Dec-2020 4856.51 5434.77 64.25 5.00  25.59 2521.01
   17:57:00.514.25-Dec-2020 4856.51 5434.87 64.25 5.00  25.79 2521.01
   17:57:00.714.25-Dec-2020 4856.51 5435.32 64.25 5.00  25.99 2521.01
   17:57:00.914.25-Dec-2020 4856.51 5435.32 64.25 5.00  26.19 2521.01
   17:57:01.114.25-Dec-2020 4856.51 5435.19 64.25 5.00  26.39 2521.01
   17:57:01.314.25-Dec-2020 4856.51 5442.87 64.25 5.00  26.59 2521.01
   17:57:01.514.25-Dec-2020 4856.51 5441.09 64.25 5.00  26.79 2521.01
   17:57:01.714.25-Dec-2020 4856.51 5433.71 64.25 5.00  26.99 2521.01
   17:57:01.914.25-Dec-2020 4856.51 5433.71 64.25 5.00  27.19 2521.01
   17:57:02.114.25-Dec-2020 4856.51 5437.55 64.25 5.00  27.39 2521.01
   17:57:02.313.25-Dec-2020 4856.51 5436.73 64.25 5.00  27.59 2521.01
   17:57:02.513.25-Dec-2020 4856.51 5438.14 64.25 5.00  27.79 2521.01
   17:57:02.713.25-Dec-2020 4856.51 5437.90 64.25 5.00  27.99 2521.01
   17:57:02.913.25-Dec-2020 4856.51 5437.90 64.25 5.00  28.19 2521.01
   17:57:03.113.25-Dec-2020 4856.51 5438.22 64.25 5.00  28.39 2521.01
   17:57:03.313.25-Dec-2020 4856.51 5438.35 64.25 5.00  28.59 2521.01
   17:57:03.513.25-Dec-2020 4856.51 5437.96 64.25 5.00  28.79 2521.01
   17:57:03.713.25-Dec-2020 4856.51 5438.18 64.25 5.00  28.99 2521.01
   17:57:03.913.25-Dec-2020 4856.51 5447.39 64.25 5.00  29.19 2521.01
   17:57:04.113.25-Dec-2020 4856.51 5432.19 64.25 5.00  29.39 2521.01
   17:57:04.313.25-Dec-2020 4856.51 5447.77 64.25 5.00  29.59 2521.01
   17:57:04.513.25-Dec-2020 4856.51 5442.70 64.25 5.00  29.79 2521.01
   17:57:04.712.25-Dec-2020 4856.51 5447.07 64.25 5.00  29.99 2521.01
   17:57:04.912.25-Dec-2020 4856.51 5447.07 64.25 5.00  30.19 2521.01
   17:57:05.112.25-Dec-2020 4856.51 5441.14 64.25 5.00  30.39 2521.01
   17:57:05.312.25-Dec-2020 4856.51 5447.71 64.25 5.00  30.59 2521.01
   17:57:05.512.25-Dec-2020 4856.51 5444.10 64.25 5.00  30.79 2521.01
   17:57:05.712.25-Dec-2020 4856.51 5447.95 64.25 5.00  30.99 2521.01
   17:57:05.912.25-Dec-2020 4856.51 5447.95 64.25 5.00  31.19 2521.01
   17:57:06.112.25-Dec-2020 4856.51 5443.08 64.25 5.00  31.39 2521.01
   17:57:06.312.25-Dec-2020 4856.51 5442.54 64.25 5.00  31.59 2521.01
   17:57:06.512.25-Dec-2020 4856.51 5449.35 64.25 5.00  31.79 2521.01
   17:57:06.712.25-Dec-2020 4856.51 5447.22 64.25 5.00  31.99 2521.01
   17:57:06.912.25-Dec-2020 4856.51 5447.22 64.25 5.00  32.19 2521.01
   17:57:07.112.25-Dec-2020 4856.51 5447.28 64.25 5.00  32.39 2521.01
   17:57:07.311.25-Dec-2020 4856.51 5442.35 64.25 5.00  32.59 2521.01
   17:57:07.511.25-Dec-2020 4856.51 5441.25 64.25 5.00  32.79 2521.01
   17:57:07.711.25-Dec-2020 4856.51 5442.73 64.25 5.00  32.99 2521.01
   17:57:07.911.25-Dec-2020 4856.51 5441.89 64.25 5.00  33.19 2521.01
   17:57:08.111.25-Dec-2020 4856.51 5442.18 64.25 5.00  33.39 2521.01
   17:57:08.311.25-Dec-2020 4856.51 5442.55 64.25 5.00  33.59 2521.01
   17:57:08.511.25-Dec-2020 4856.51 5442.07 64.25 5.00  33.79 2521.01
   17:57:08.711.25-Dec-2020 4856.51 5442.36 64.25 5.00  33.99 2521.01
   17:57:08.911.25-Dec-2020 4856.51 5442.36 64.25 5.00  34.19 2521.01
   17:57:09.111.25-Dec-2020 4856.51 5445.36 64.25 5.00  34.39 2521.01
   17:57:09.311.25-Dec-2020 4856.51 5445.24 64.25 5.00  34.59 2521.01
   17:57:09.511.25-Dec-2020 4856.51 5450.78 64.25 5.00  34.79 2521.01
   17:57:09.711.25-Dec-2020 4856.51 5444.55 64.25 5.00  34.99 2521.01
   17:57:09.910.25-Dec-2020 4856.51 5444.55 64.25 5.00  35.19 2521.01
   17:57:10.110.25-Dec-2020 4856.51 5444.86 64.25 5.00  35.39 2521.01
   17:57:10.310.25-Dec-2020 4856.51 5445.19 64.25 5.00  35.59 2521.01
   17:57:10.510.25-Dec-2020 4856.51 5444.92 64.25 5.00  35.79 2521.01
   17:57:10.710.25-Dec-2020 4856.51 5441.55 64.25 5.00  35.99 2521.01
   17:57:10.910.25-Dec-2020 4856.51 5441.55 64.25 5.00  36.19 2521.01
   17:57:11.110.25-Dec-2020 4856.51 5288.59 64.25 5.00  36.39 2521.01
   17:57:11.310.25-Dec-2020 4856.51 5276.62 64.25 5.00  36.59 2521.01
   17:57:11.510.25-Dec-2020 4856.51 5316.00 64.25 5.00  36.79 2521.01
   17:57:11.710.25-Dec-2020 4856.51 5379.36 64.25 5.00  36.99 2521.01
   17:57:11.910.25-Dec-2020 4856.51 5439.38 64.25 5.00  37.19 2521.01
   17:57:12.110.25-Dec-2020 4856.51 5451.75 64.25 5.00  37.39 2521.01
   17:57:12.310.25-Dec-2020 4856.51 5492.39 64.25 5.00  37.59 2521.01
   17:57:12.509.25-Dec-2020 4856.51 5512.03 64.25 5.00  37.79 2521.01
   17:57:12.709.25-Dec-2020 4856.51 5524.97 64.25 5.00  37.99 2521.01
   17:57:12.909.25-Dec-2020 4856.51 5524.97 64.25 5.00  38.18 2521.01
   17:57:13.109.25-Dec-2020 4856.51 5540.75 64.25 5.00  38.38 2521.01
   17:57:13.309.25-Dec-2020 4856.51 5542.02 64.25 5.00  38.58 2521.01
   17:57:13.509.25-Dec-2020 4856.51 5543.61 64.25 5.00  38.78 2521.01
   17:57:13.709.25-Dec-2020 4856.51 5559.59 64.25 5.00  38.98 2521.01
   17:57:13.909.25-Dec-2020 4856.51 5559.59 64.25 5.00  39.18 2521.01
   17:57:14.109.25-Dec-2020 4856.51 5568.54 64.25 5.00  39.38 2521.01
   17:57:14.309.25-Dec-2020 4856.51 5586.13 64.25 5.00  39.58 2521.01
   17:57:14.509.25-Dec-2020 4856.51 5597.50 64.25 5.00  39.78 2521.01
   17:57:14.709.25-Dec-2020 4856.51 5593.24 64.25 5.00  39.98 2521.01
   17:57:14.908.25-Dec-2020 4856.51 5593.24 64.25 5.00  40.18 2521.01
   17:57:15.108.25-Dec-2020 4856.51 5618.09 64.25 5.00  40.38 2521.01
   17:57:15.308.25-Dec-2020 4856.51 5618.92 64.25 5.00  40.58 2521.01
   17:57:15.508.25-Dec-2020 4856.51 5619.53 64.25 5.00  40.78 2521.01
   17:57:15.708.25-Dec-2020 4856.51 5632.24 64.25 5.00  40.98 2521.01
   17:57:15.908.25-Dec-2020 4856.51 5632.24 64.25 5.00  41.18 2521.01
   17:57:16.108.25-Dec-2020 4856.51 5643.00 64.25 5.00  41.38 2521.01
   17:57:16.308.25-Dec-2020 4856.51 5645.33 64.25 5.00  41.58 2521.01
   17:57:16.508.25-Dec-2020 4856.51 5654.54 64.25 5.00  41.78 2521.01
   17:57:16.708.25-Dec-2020 4856.51 5669.84 64.25 5.00  41.98 2521.01
   17:57:16.908.25-Dec-2020 4856.51 5669.84 64.25 5.00  42.18 2521.01
   17:57:17.108.25-Dec-2020 4856.51 5699.58 64.25 5.00  42.38 2521.01
   17:57:17.308.25-Dec-2020 4856.51 5677.35 64.25 5.00  42.58 2521.01
   17:57:17.507.25-Dec-2020 4856.51 5604.17 64.25 5.00  42.78 2521.01
   17:57:17.707.25-Dec-2020 4856.51 5521.10 64.25 5.00  42.98 2521.01
   17:57:17.907.25-Dec-2020 4856.51 5521.10 64.25 5.00  43.18 2521.01
   17:57:18.107.25-Dec-2020 4856.51 5369.60 64.25 5.00  43.38 2521.01
   17:57:18.307.25-Dec-2020 4856.51 5306.60 64.25 5.00  43.58 2521.01
   17:57:18.507.25-Dec-2020 4856.51 5258.39 64.25 5.00  43.78 2521.01
   17:57:18.707.25-Dec-2020 4856.51 5227.50 64.25 5.00  43.98 2521.01
   17:57:18.907.25-Dec-2020 4856.51 5227.50 64.25 5.00  44.18 2521.01
   17:57:19.107.25-Dec-2020 4856.51 5152.71 64.25 5.00  44.38 2521.01
   17:57:19.307.25-Dec-2020 4856.51 5116.61 64.25 5.00  44.58 2521.01
   17:57:19.507.25-Dec-2020 4856.51 5086.13 64.25 5.00  44.78 2521.01
   17:57:19.707.25-Dec-2020 4856.51 5058.79 64.25 5.00  44.98 2521.01
   17:57:19.907.25-Dec-2020 4856.51 5033.92 64.25 5.00  45.18 2521.01
   17:57:20.106.25-Dec-2020 4856.51 5010.23 64.25 5.00  45.38 2521.01
   17:57:20.306.25-Dec-2020 4856.51 4988.78 64.25 5.00  45.58 2521.01
   17:57:20.506.25-Dec-2020 4856.51 4967.95 64.25 5.00  45.78 2521.01
