~Version Information
 VERS.                  2.0:   CWLS log ASCII Standard -VERSION 2.0
 WRAP.                   NO:   One line per depth step
~Well Information Block
#MNEM.UNIT     VALUE/NAME     DESCRIPTION
#---------     -----------    ---------------------------
 STRT.S             21:28:23 25-Dec-20: START TIME 21:28:23 25-Dec-20
 STOP.S             21:36:48 25-Dec-20: STOP TIME  21:36:48 25-Dec-20
 STEP.S                   0.00: STEP TIME
 NULL.                 -999.25: NULL VALUE
 DFWT.                        :  DIST FWL TEXT
 DFST.                        :  DIST FSL TEXT
 DMF .             Drill Floor:  DRILL MEAS FROM
 STIM.      04.54.24 22-Sep-20:  START TIME
 DATE.      04.54.24 21-Nov-20:  END TIME
 SPUD.               21-Nov-20:  SPUD DATE
 NREF.                    Grid:  NORTH REFERENCE
 HPTY.       Minimum Curvature:  HOLE POS TYPE
 DMOD.             Drill Model:  DRILL MOD DESC
 SVYD.                  Survey:  SURVEY DESC
 ILTD.               Lithology:  INTERP LTH DESC
 FTOP.          Formation Tops:  FORM TOPS DESC
 SON .        AZ-XX-0906571587:  JOB NUMBER
 COMP.     BP Exploration (Caspian Sea) Ltd:  COMPANY
 UWI .                     N/A:  UNIQUE WELL IDENTIFIER
 API .                     N/A:  API NUMBER
 BASE.              Azerbaijan:  LOGGING EQUIPMENT BASE LOCATION
 REGN.                   EESSA:  REGION
 PROV.                    Baku:  PROVINCE
 STAT.                    Baku:  STATE NAME
 CTRY.              Azerbaijan:  COUNTRY NAME
 FLD .                     ACG:  FIELD NAME
 SRVC.     TURAN Drilling & Engineering:  CONTRACTOR
 WELL.                     J27:  WELL NAME
 RIG .             West Chirag:  RIG NAME
 DOE .                     N/A:  DOE NUMBER
 DCON.         Sperry Drilling:  DIRECTNL CONTR
 PDAT.          Mean Sea Level:  PERMANENT DATUM
 WTYP.                Deviated:  WELL TYPE
 MWDS.                    Baku:  MWD SHOP
 JOBN.        AZ-XX-0906571587:  JOB TICKET NUMB
 UNIT.                     N/A:  LOGGING EQUIPMENT ID
 MDS .        Operator Entered:  MAG DATA SOURCE
 CNTY.                        :  COUNTY
 LOC .                        :  LOCATION
 LMF .             Drill Floor:  LOG MEASURED FROM
 TVDS.m                  43.00:  TVDSS CORRECTN
 LATI.deg                40.13:  LATITUDE
 LONG.deg                51.22:  LONGITUDE
 WHNS.m                   7.72:  WELL HEAD N/S
 WHEW.m                 -14.24:  WELL HEAD E/W
 UTMX.m              519005.06:  UTM X
 UTMY.m             4443793.85:  UTM Y
 DFWL.m                   0.00:  DISTANCE FWL
 DFSL.m                   0.00:  DISTANCE FSL
 SDEP.m                 347.00:  START DEPTH
 TDD .m                 581.00:  TOTAL DEPTH (DRILLER)
 VSDR.deg               159.72:  VERT SEC DIRECT
 GVFD.g                   1.00:  GRAVITY FIELD
 MFLD.nT              50318.00:  MAGNETIC FIELD
 MDIP.deg                59.57:  MAGNETIC DIP
 MDEC.deg                 6.44:  MAGNETIC DECL
 GRDC.deg                 0.15:  GRID CORRECTION
 AZTC.deg                 6.29:  AZM TOTAL CORR
 EPD .m                   0.00:  ELEVATION
 EGL .m                   0.00:  GROUND ELEVATION
 WDMS.m                 169.80:  WD ELEV
 APD .m                  43.00:  DEPTH ABOVE PD
 AGAP.m                  43.00:  AIR GAP
 VSEW.m                 -14.24:  VERT SEC E/W
 VSNS.m                   7.72:  VERT SEC N/S
 DEP .m                 342.45:  DEPTH
 EKB .m                   0.00:  KB ELEVATION
 EDF .m                  43.00:  DF ELEVATION
 TDL .m                 237.00:  TOTAL DEPTH (LOGGER)
 VSC .                       0:  VS TO CLOSURE
 MAGU.                 1851428:  MAGUTM CHECKSUM
~Parameter Information Block
#MNEM.UNIT       Value        Description
#---------     -----------    ---------------------------
 AV  .mps                 1.50:  Ann Velocity 
 AVMX.mps                 2.90:  Max Ann Veloc 
 AZIF.deg               115.59:  Azm, Final 
 BHAT.        Rotary Steerable:  BHA Type 
 BROT.°/30m               0.50:  Build Rotating 
 BS  .in                  8.50:  Bit Size 
 BTPL.psig              580.00:  Bit Press Loss 
 CABU.                     Yes:  Customer Abuse 
 COMM.                     Üc{:  Run Comments 1 
 TCS .hr                 89.79:  Time Ciculation Ended 
 CV  .mps                 3.22:  Crit Velocity 
 CVMX.mps                 4.37:  Max Crit Veloc 
 DD1 .          Rashad Habibov:  Direct Drillr 1 
 DDSV.               Geo-Pilot:  DD Service 
 DEFF.%                  95.00:  % Det Eff 
 DLRX.°/30m               1.94:  Dogleg Rot Max 
 DLSO.°/30m               0.70:  Dogleg Oriented 
 DLSX.°/30m               1.94:  Dogleg Str Max 
 DRET.      04.45.00 25-Dec-20:  Drill End Time 
 DRST.      10.00.00 24-Dec-20:  Drill Start Tim 
 DTIM.hr                 16.64:  Time Drilling 
 EDEP.m                4999.01:  End Depth 
 ENG1.         Elchin Mammadov:  Engineer 1 
 ENG2.          Ruslan Safarov:  Engineer 2 
 ENG3.          Rustam Safarov:  Engineer 3 
 ETIM.      09.00.00 29-Dec-20:  End Time 
 FLOI.gpm               500.00:  Flow In 
 FLON.gpm               400.00:  Flow In Min 
 FLOS.cptm                0.00:  Fluid Loss 
 FLOX.gpm               500.00:  Flow In Max 
 HFLO.                      No:  High Flow 
 HPRE.                      No:  High Pressure 
 HTEM.                      No:  High Temp 
 HYDO.m                   2.00:  Hydro Offset 
 IFIN.deg                66.79:  Inc, Final 
 IMAX.deg                67.66:  Inc Max 
 IMIN.deg                66.39:  Inc Min 
 IMND.m                4949.37:  Inc Min Depth 
 IMXD.m                4778.63:  Inc Max Depth 
 JARR.                     Yes:  Jarring 
 LETM.      04.45.00 25-Dec-20:  Log End Time 
 LOST.hr                     0:  Lost Rig Time 
 LSTM.      10.00.00 24-Dec-20:  Log Start Time 
 MDCL.ppm             39000.00:  Mud Chlorides 
 MDES.     Inversion Oil/Synthetic:  Mud Desc 
 DFD .sg                  1.33:  Mud Density 
 MDMN.sg                  1.33:  Dens Mud Min 
 MDMX.sg                  1.33:  Dens Mud Max 
 MOIL.                      70:  Run Mud Oil % 
 MOWR.                   70:30:  Run Mud OWR 
 MSND.                       0:  Run Mud Sand % 
 MSOL.                    17.4:  Run Mud Solids% 
 DFV .spqt               84.00:  Mud Viscosity 
 MWOD.in                  6.75:  MWD Tool OD 
 MWSI.                     Yes:  Serv Intrp, MWD 
 OTIM.hr                168.14:  Time Operating 
 PCON.           Look Like New:  Pad Condition 
 PMAX.psia            10822.93:  Press Op, Max 
 PV  .cP                 30.00:  Mud PV 
 RUN .                     900:  Run Number 
 ROPA.m/hr               18.00:  ROP Avg 
 ROPN.m/hr               12.00:  ROP Min 
 ROPX.m/hr               25.00:  ROP Max 
 RPMA.rpm               120.00:  RPM Surface Avg 
 RPMN.rpm               100.00:  RPM Surface Min 
 RPMX.rpm               120.00:  RPM Surface Max 
 RRUN.                    0900:  Rig Run Number 
 SAZI.deg               115.08:  Azm, Start 
 SDEP.m                4762.01:  Start Depth 
 SIDD.                      No:  Serv Intrp, DD 
 SINC.deg                66.14:  Inc, Start 
 SPPA.psig             3700.00:  SPP Avg 
 SPPN.psig             3620.00:  SPP Min 
 SPPX.psig             3900.00:  SPP Max 
 STIM.      09.30.00 22-Dec-20:  Start Time 
 SVCS.                 DD, MWD:  Services 
 SVER.                    9.20:  Sperry Version 
 TDAT.m                 237.00:  Tot Depth Attmp 
 TDDF.                      No:  Trip for DD 
 TDLG.m                 237.00:  Tot Depth Loggd 
 TFF .                      No:  Trip for Fail 
 TQAA.f-kp               18.00:  Torque Abs Avg 
 TQAN.f-kp               17.00:  Torque Abs Min 
 TQAX.f-kp               20.00:  Torque Abs Max 
 TRRT.°/30m               0.60:  Turn Rotating 
 MRT .                    HCIM:  Maximum Recorded Temperature 
 TTMX.degC               94.12:  Max Tool Temp 
 VS01.                90627809:  Virtual Str1 SN 
 VS02.                90527813:  Virtual Str2 SN 
 VS03.                90545417:  Virtual Str3 SN 
 VS04.                12460870:  Virtual Str4 SN 
 VS05.                90516706:  Virtual Str5 SN 
 VS06.                90632007:  Virtual Str6 SN 
 WBMN.klb                 0.00:  WOB Min 
 WOBA.klb                14.00:  WOB Avg 
 WOBX.klb                25.00:  WOB Max 
 YP  .lhf2               32.00:  Yield Point 
~Curve Information Block
#MNEM.UNIT                 API CODE     Curve Description
#---------               -----------    ---------------------------
 TIME.HHMMSS            00 000 000 000:  GT Time & Date
 GTDEPTH.m              00 000 000 000:  GT Depth
 GTPQH.psia             00 000 000 000:  GT HR Quartz Pressure
 GTTQ.degC              00 000 000 000:  GT Quartz Temperature
 GTTN.NONE              00 000 000 000:  GT Test Number
 GTET.sec               00 000 000 000:  GT Elapsed Test Time
 GTTVD.m                00 000 000 000:  GT True Vertical Depth
#Other Information
#
#WARRANTY: Halliburton will use its best efforts to furnish customers with 
#accurate information and interpretations that are part of, and incident to, the services 
#provided.  However, Halliburton cannot and does not warrant the accuracy 
#or correctness of such information and interpretations.  Under no circumstances should any 
#such information or interpretation be relied upon as the sole basis for any drilling, 
#completion, production, or financial decision or any procedure involving any risk to the 
#safety of any drilling venture, drilling rig or its crew or any other third party.  The 
#Customer has full responsibility for all drilling, completion and production operation.  
#Halliburton makes no representations or warranties, either expressed or 
#implied, including, but not limited to, the implied warranties of merchantability or fitness 
#for a particular purpose, with respect to the services rendered.  In no event will 
#Halliburton be liable for failure to obtain any particular results or for 
#any damages, including, but not limited to, indirect, special or consequential damages, 
#resulting from the use of any information or interpretation provided by Halliburton.
#
~A           TIME           GTDEPTH  GTPQH  GTTQ  GTTN  GTET   GTTVD  
# ...
   21:29:55.611.25-Dec-2020 4768.01 3242.37 63.86 9.00  91.99 2486.78
   21:29:55.811.25-Dec-2020 4768.01 3242.37 63.86 9.00  92.19 2486.78
   21:29:56.011.25-Dec-2020 4768.01 3242.34 63.86 9.00  92.39 2486.78
   21:29:56.211.25-Dec-2020 4768.01 3242.59 63.86 9.00  92.59 2486.78
   21:29:56.411.25-Dec-2020 4768.01 3242.37 63.86 9.00  92.79 2486.78
   21:29:56.611.25-Dec-2020 4768.01 3241.94 63.86 9.00  92.99 2486.78
   21:29:56.811.25-Dec-2020 4768.01 3241.94 63.86 9.00  93.19 2486.78
   21:29:57.010.25-Dec-2020 4768.01 3242.46 63.86 9.00  93.39 2486.78
   21:29:57.210.25-Dec-2020 4768.01 3242.82 63.86 9.00  93.59 2486.78
   21:29:57.410.25-Dec-2020 4768.01 3242.47 63.86 9.00  93.79 2486.78
   21:29:57.610.25-Dec-2020 4768.01 3242.47 63.86 9.00  93.99 2486.78
   21:29:57.810.25-Dec-2020 4768.01 3242.47 63.86 9.00  94.19 2486.78
   21:29:58.010.25-Dec-2020 4768.01 3242.47 63.86 9.00  94.39 2486.78
   21:29:58.210.25-Dec-2020 4768.01 3242.51 63.86 9.00  94.59 2486.78
   21:29:58.410.25-Dec-2020 4768.01 3242.50 63.86 9.00  94.79 2486.78
   21:29:58.610.25-Dec-2020 4768.01 3242.45 63.86 9.00  94.99 2486.78
   21:29:58.810.25-Dec-2020 4768.01 3242.45 63.86 9.00  95.19 2486.78
   21:29:59.010.25-Dec-2020 4768.01 3242.50 63.86 9.00  95.39 2486.78
   21:29:59.210.25-Dec-2020 4768.01 3241.35 63.86 9.00  95.59 2486.78
   21:29:59.410.25-Dec-2020 4768.01 3243.53 63.86 9.00  95.79 2486.78
   21:29:59.610.25-Dec-2020 4768.01 3242.49 63.86 9.00  95.99 2486.78
   21:29:59.810.25-Dec-2020 4768.01 3242.49 63.86 9.00  96.19 2486.78
   21:30:00.010.25-Dec-2020 4768.01 3242.71 63.86 9.00  96.39 2486.78
   21:30:00.210.25-Dec-2020 4768.01 3242.75 63.86 9.00  96.59 2486.78
   21:30:00.410.25-Dec-2020 4768.01 3242.81 63.86 9.00  96.79 2486.78
   21:30:00.610.25-Dec-2020 4768.01 3242.72 63.86 9.00  96.99 2486.78
   21:30:00.810.25-Dec-2020 4768.01 3242.72 63.86 9.00  97.19 2486.78
   21:30:01.010.25-Dec-2020 4768.01 3242.75 63.86 9.00  97.39 2486.78
   21:30:01.210.25-Dec-2020 4768.01 3242.79 63.86 9.00  97.59 2486.78
   21:30:01.410.25-Dec-2020 4768.01 3242.86 63.86 9.00  97.79 2486.78
   21:30:01.610.25-Dec-2020 4768.01 3242.80 63.86 9.00  97.99 2486.78
   21:30:01.810.25-Dec-2020 4768.01 3242.80 63.86 9.00  98.19 2486.78
   21:30:02.010.25-Dec-2020 4768.01 3243.11 63.86 9.00  98.39 2486.78
   21:30:02.210.25-Dec-2020 4768.01 3243.26 63.86 9.00  98.59 2486.78
   21:30:02.410.25-Dec-2020 4768.01 3243.05 63.86 9.00  98.79 2486.78
   21:30:02.610.25-Dec-2020 4768.01 3242.96 63.86 9.00  98.99 2486.78
   21:30:02.810.25-Dec-2020 4768.01 3241.89 63.86 9.00  99.19 2486.78
   21:30:03.010.25-Dec-2020 4768.01 3243.99 63.86 9.00  99.39 2486.78
   21:30:03.210.25-Dec-2020 4768.01 3243.04 63.86 9.00  99.59 2486.78
   21:30:03.410.25-Dec-2020 4768.01 3242.49 63.86 9.00  99.79 2486.78
   21:30:03.610.25-Dec-2020 4768.01 3243.71 63.86 9.00  99.99 2486.78
   21:30:03.810.25-Dec-2020 4768.01 3243.71 63.86 9.00 100.19 2486.78
   21:30:04.010.25-Dec-2020 4768.01 3242.34 63.86 9.00 100.39 2486.78
   21:30:04.210.25-Dec-2020 4768.01 3244.26 63.86 9.00 100.59 2486.78
   21:30:04.410.25-Dec-2020 4768.01 3243.54 63.86 9.00 100.79 2486.78
   21:30:04.610.25-Dec-2020 4768.01 3243.69 63.86 9.00 100.99 2486.78
   21:30:04.810.25-Dec-2020 4768.01 3243.69 63.86 9.00 101.19 2486.78
   21:30:05.010.25-Dec-2020 4768.01 3243.53 63.86 9.00 101.39 2486.78
   21:30:05.210.25-Dec-2020 4768.01 3243.50 63.86 9.00 101.59 2486.78
   21:30:05.410.25-Dec-2020 4768.01 3243.59 63.86 9.00 101.79 2486.78
   21:30:05.610.25-Dec-2020 4768.01 3243.46 63.86 9.00 101.99 2486.78
   21:30:05.810.25-Dec-2020 4768.01 3243.46 63.86 9.00 102.19 2486.78
   21:30:06.010.25-Dec-2020 4768.01 3243.50 63.86 9.00 102.39 2486.78
   21:30:06.210.25-Dec-2020 4768.01 3243.49 63.86 9.00 102.59 2486.78
   21:30:06.410.25-Dec-2020 4768.01 3243.58 63.86 9.00 102.79 2486.78
   21:30:06.610.25-Dec-2020 4768.01 3242.59 63.86 9.00 102.99 2486.78
   21:30:06.810.25-Dec-2020 4768.01 3242.59 63.86 9.00 103.19 2486.78
   21:30:07.010.25-Dec-2020 4768.01 3243.98 63.86 9.00 103.39 2486.78
   21:30:07.210.25-Dec-2020 4768.01 3243.68 63.86 9.00 103.59 2486.78
   21:30:07.410.25-Dec-2020 4768.01 3243.74 63.86 9.00 103.79 2486.78
   21:30:07.610.25-Dec-2020 4768.01 3243.57 63.86 9.00 103.99 2486.78
   21:30:07.810.25-Dec-2020 4768.01 3243.57 63.86 9.00 104.19 2486.78
   21:30:08.010.25-Dec-2020 4768.01 3243.73 63.86 9.00 104.39 2486.78
   21:30:08.210.25-Dec-2020 4768.01 3243.68 63.86 9.00 104.59 2486.78
   21:30:08.410.25-Dec-2020 4768.01 3243.79 63.86 9.00 104.79 2486.78
   21:30:08.610.25-Dec-2020 4768.01 3243.69 63.86 9.00 104.99 2486.78
   21:30:08.810.25-Dec-2020 4768.01 3243.69 63.86 9.00 105.19 2486.78
   21:30:09.010.25-Dec-2020 4768.01 3242.61 63.86 9.00 105.39 2486.78
   21:30:09.210.25-Dec-2020 4768.01 3244.37 63.86 9.00 105.59 2486.78
   21:30:09.410.25-Dec-2020 4768.01 3243.90 63.86 9.00 105.79 2486.78
   21:30:09.610.25-Dec-2020 4768.01 3243.95 63.86 9.00 105.99 2486.78
   21:30:09.810.25-Dec-2020 4768.01 3243.95 63.86 9.00 106.19 2486.78
   21:30:10.010.25-Dec-2020 4768.01 3243.90 63.86 9.00 106.39 2486.78
   21:30:10.210.25-Dec-2020 4768.01 3242.86 63.86 9.00 106.59 2486.78
   21:30:10.410.25-Dec-2020 4768.01 3244.46 63.86 9.00 106.79 2486.78
   21:30:10.610.25-Dec-2020 4768.01 3243.62 63.86 9.00 106.99 2486.78
   21:30:10.810.25-Dec-2020 4768.01 3243.62 63.86 9.00 107.19 2486.78
   21:30:11.010.25-Dec-2020 4768.01 3244.20 63.86 9.00 107.39 2486.78
   21:30:11.210.25-Dec-2020 4768.01 3244.41 63.86 9.00 107.59 2486.78
   21:30:11.410.25-Dec-2020 4768.01 3243.11 63.86 9.00 107.79 2486.78
   21:30:11.610.25-Dec-2020 4768.01 3245.00 63.86 9.00 107.99 2486.78
   21:30:11.810.25-Dec-2020 4768.01 3245.00 63.86 9.00 108.19 2486.78
   21:30:12.010.25-Dec-2020 4768.01 3244.57 63.86 9.00 108.39 2486.78
   21:30:12.209.25-Dec-2020 4768.01 3244.32 63.86 9.00 108.59 2486.78
   21:30:12.409.25-Dec-2020 4768.01 3244.31 63.86 9.00 108.79 2486.78
   21:30:12.609.25-Dec-2020 4768.01 3244.28 63.86 9.00 108.99 2486.78
   21:30:12.809.25-Dec-2020 4768.01 3244.28 63.86 9.00 109.19 2486.78
   21:30:13.009.25-Dec-2020 4768.01 3244.32 63.86 9.00 109.39 2486.78
   21:30:13.209.25-Dec-2020 4768.01 3244.24 63.86 9.00 109.59 2486.78
   21:30:13.409.25-Dec-2020 4768.01 3244.33 63.86 9.00 109.79 2486.78
   21:30:13.609.25-Dec-2020 4768.01 3244.24 63.86 9.00 109.99 2486.78
   21:30:13.809.25-Dec-2020 4768.01 3244.24 63.86 9.00 110.19 2486.78
   21:30:14.009.25-Dec-2020 4768.01 3243.47 63.86 9.00 110.39 2486.78
   21:30:14.209.25-Dec-2020 4768.01 3244.40 63.86 9.00 110.59 2486.78
   21:30:14.409.25-Dec-2020 4768.01 3244.80 63.86 9.00 110.79 2486.78
   21:30:14.609.25-Dec-2020 4768.01 3244.38 63.86 9.00 110.99 2486.78
   21:30:14.809.25-Dec-2020 4768.01 3244.36 63.86 9.00 111.19 2486.78
   21:30:15.009.25-Dec-2020 4768.01 3244.43 63.86 9.00 111.39 2486.78
   21:30:15.209.25-Dec-2020 4768.01 3244.43 63.86 9.00 111.59 2486.78
   21:30:15.409.25-Dec-2020 4768.01 3244.50 63.86 9.00 111.79 2486.78
   21:30:15.609.25-Dec-2020 4768.01 3244.44 63.86 9.00 111.99 2486.78
   21:30:15.809.25-Dec-2020 4768.01 3244.44 63.86 9.00 112.19 2486.78
   21:30:16.009.25-Dec-2020 4768.01 3244.51 63.86 9.00 112.39 2486.78
   21:30:16.209.25-Dec-2020 4768.01 3244.42 63.86 9.00 112.59 2486.78
   21:30:16.409.25-Dec-2020 4768.01 3243.39 63.86 9.00 112.79 2486.78
   21:30:16.609.25-Dec-2020 4768.01 3245.13 63.86 9.00 112.99 2486.78
   21:30:16.809.25-Dec-2020 4768.01 3245.13 63.86 9.00 113.19 2486.78
   21:30:17.009.25-Dec-2020 4768.01 3244.80 63.86 9.00 113.39 2486.78
   21:30:17.209.25-Dec-2020 4768.01 3244.57 63.86 9.00 113.59 2486.78
   21:30:17.409.25-Dec-2020 4768.01 3244.65 63.86 9.00 113.79 2486.78
   21:30:17.609.25-Dec-2020 4768.01 3243.64 63.86 9.00 113.99 2486.78
   21:30:17.809.25-Dec-2020 4768.01 3243.64 63.86 9.00 114.19 2486.78
   21:30:18.009.25-Dec-2020 4768.01 3244.82 63.86 9.00 114.39 2486.78
   21:30:18.209.25-Dec-2020 4768.01 3243.95 63.86 9.00 114.59 2486.78
   21:30:18.409.25-Dec-2020 4768.01 3245.01 63.86 9.00 114.79 2486.78
