~Version Information
 VERS.                  2.0:   CWLS log ASCII Standard -VERSION 2.0
 WRAP.                   NO:   One line per depth step
~Well Information Block
#MNEM.UNIT     VALUE/NAME     DESCRIPTION
#---------     -----------    ---------------------------
 STRT.S             19:12:01 25-Dec-20: START TIME 19:12:01 25-Dec-20
 STOP.S             19:20:19 25-Dec-20: STOP TIME  19:20:19 25-Dec-20
 STEP.S                   0.00: STEP TIME
 NULL.                 -999.25: NULL VALUE
 DFWT.                        :  DIST FWL TEXT
 DFST.                        :  DIST FSL TEXT
 DMF .             Drill Floor:  DRILL MEAS FROM
 STIM.      04.54.24 22-Sep-20:  START TIME
 DATE.      04.54.24 21-Nov-20:  END TIME
 SPUD.               21-Nov-20:  SPUD DATE
 NREF.                    Grid:  NORTH REFERENCE
 HPTY.       Minimum Curvature:  HOLE POS TYPE
 DMOD.             Drill Model:  DRILL MOD DESC
 SVYD.                  Survey:  SURVEY DESC
 ILTD.               Lithology:  INTERP LTH DESC
 FTOP.          Formation Tops:  FORM TOPS DESC
 SON .        AZ-XX-0906571587:  JOB NUMBER
 COMP.     BP Exploration (Caspian Sea) Ltd:  COMPANY
 UWI .                     N/A:  UNIQUE WELL IDENTIFIER
 API .                     N/A:  API NUMBER
 BASE.              Azerbaijan:  LOGGING EQUIPMENT BASE LOCATION
 REGN.                   EESSA:  REGION
 PROV.                    Baku:  PROVINCE
 STAT.                    Baku:  STATE NAME
 CTRY.              Azerbaijan:  COUNTRY NAME
 FLD .                     ACG:  FIELD NAME
 SRVC.     TURAN Drilling & Engineering:  CONTRACTOR
 WELL.                     J27:  WELL NAME
 RIG .             West Chirag:  RIG NAME
 DOE .                     N/A:  DOE NUMBER
 DCON.         Sperry Drilling:  DIRECTNL CONTR
 PDAT.          Mean Sea Level:  PERMANENT DATUM
 WTYP.                Deviated:  WELL TYPE
 MWDS.                    Baku:  MWD SHOP
 JOBN.        AZ-XX-0906571587:  JOB TICKET NUMB
 UNIT.                     N/A:  LOGGING EQUIPMENT ID
 MDS .        Operator Entered:  MAG DATA SOURCE
 CNTY.                        :  COUNTY
 LOC .                        :  LOCATION
 LMF .             Drill Floor:  LOG MEASURED FROM
 TVDS.m                  43.00:  TVDSS CORRECTN
 LATI.deg                40.13:  LATITUDE
 LONG.deg                51.22:  LONGITUDE
 WHNS.m                   7.72:  WELL HEAD N/S
 WHEW.m                 -14.24:  WELL HEAD E/W
 UTMX.m              519005.06:  UTM X
 UTMY.m             4443793.85:  UTM Y
 DFWL.m                   0.00:  DISTANCE FWL
 DFSL.m                   0.00:  DISTANCE FSL
 SDEP.m                 347.00:  START DEPTH
 TDD .m                 581.00:  TOTAL DEPTH (DRILLER)
 VSDR.deg               159.72:  VERT SEC DIRECT
 GVFD.g                   1.00:  GRAVITY FIELD
 MFLD.nT              50318.00:  MAGNETIC FIELD
 MDIP.deg                59.57:  MAGNETIC DIP
 MDEC.deg                 6.44:  MAGNETIC DECL
 GRDC.deg                 0.15:  GRID CORRECTION
 AZTC.deg                 6.29:  AZM TOTAL CORR
 EPD .m                   0.00:  ELEVATION
 EGL .m                   0.00:  GROUND ELEVATION
 WDMS.m                 169.80:  WD ELEV
 APD .m                  43.00:  DEPTH ABOVE PD
 AGAP.m                  43.00:  AIR GAP
 VSEW.m                 -14.24:  VERT SEC E/W
 VSNS.m                   7.72:  VERT SEC N/S
 DEP .m                 342.45:  DEPTH
 EKB .m                   0.00:  KB ELEVATION
 EDF .m                  43.00:  DF ELEVATION
 TDL .m                 237.00:  TOTAL DEPTH (LOGGER)
 VSC .                       0:  VS TO CLOSURE
 MAGU.                 1851428:  MAGUTM CHECKSUM
~Parameter Information Block
#MNEM.UNIT       Value        Description
#---------     -----------    ---------------------------
 AV  .mps                 1.50:  Ann Velocity 
 AVMX.mps                 2.90:  Max Ann Veloc 
 AZIF.deg               115.59:  Azm, Final 
 BHAT.        Rotary Steerable:  BHA Type 
 BROT.°/30m               0.50:  Build Rotating 
 BS  .in                  8.50:  Bit Size 
 BTPL.psig              580.00:  Bit Press Loss 
 CABU.                     Yes:  Customer Abuse 
 COMM.                     Ìt:  Run Comments 1 
 TCS .hr                 89.79:  Time Ciculation Ended 
 CV  .mps                 3.22:  Crit Velocity 
 CVMX.mps                 4.37:  Max Crit Veloc 
 DD1 .          Rashad Habibov:  Direct Drillr 1 
 DDSV.               Geo-Pilot:  DD Service 
 DEFF.%                  95.00:  % Det Eff 
 DLRX.°/30m               1.94:  Dogleg Rot Max 
 DLSO.°/30m               0.70:  Dogleg Oriented 
 DLSX.°/30m               1.94:  Dogleg Str Max 
 DRET.      04.45.00 25-Dec-20:  Drill End Time 
 DRST.      10.00.00 24-Dec-20:  Drill Start Tim 
 DTIM.hr                 16.64:  Time Drilling 
 EDEP.m                4999.01:  End Depth 
 ENG1.         Elchin Mammadov:  Engineer 1 
 ENG2.          Ruslan Safarov:  Engineer 2 
 ENG3.          Rustam Safarov:  Engineer 3 
 ETIM.      09.00.00 29-Dec-20:  End Time 
 FLOI.gpm               500.00:  Flow In 
 FLON.gpm               400.00:  Flow In Min 
 FLOS.cptm                0.00:  Fluid Loss 
 FLOX.gpm               500.00:  Flow In Max 
 HFLO.                      No:  High Flow 
 HPRE.                      No:  High Pressure 
 HTEM.                      No:  High Temp 
 HYDO.m                   2.00:  Hydro Offset 
 IFIN.deg                66.79:  Inc, Final 
 IMAX.deg                67.66:  Inc Max 
 IMIN.deg                66.39:  Inc Min 
 IMND.m                4949.37:  Inc Min Depth 
 IMXD.m                4778.63:  Inc Max Depth 
 JARR.                     Yes:  Jarring 
 LETM.      04.45.00 25-Dec-20:  Log End Time 
 LOST.hr                     0:  Lost Rig Time 
 LSTM.      10.00.00 24-Dec-20:  Log Start Time 
 MDCL.ppm             39000.00:  Mud Chlorides 
 MDES.     Inversion Oil/Synthetic:  Mud Desc 
 DFD .sg                  1.33:  Mud Density 
 MDMN.sg                  1.33:  Dens Mud Min 
 MDMX.sg                  1.33:  Dens Mud Max 
 MOIL.                      70:  Run Mud Oil % 
 MOWR.                   70:30:  Run Mud OWR 
 MSND.                       0:  Run Mud Sand % 
 MSOL.                    17.4:  Run Mud Solids% 
 DFV .spqt               84.00:  Mud Viscosity 
 MWOD.in                  6.75:  MWD Tool OD 
 MWSI.                     Yes:  Serv Intrp, MWD 
 OTIM.hr                168.14:  Time Operating 
 PCON.           Look Like New:  Pad Condition 
 PMAX.psia            10822.93:  Press Op, Max 
 PV  .cP                 30.00:  Mud PV 
 RUN .                     900:  Run Number 
 ROPA.m/hr               18.00:  ROP Avg 
 ROPN.m/hr               12.00:  ROP Min 
 ROPX.m/hr               25.00:  ROP Max 
 RPMA.rpm               120.00:  RPM Surface Avg 
 RPMN.rpm               100.00:  RPM Surface Min 
 RPMX.rpm               120.00:  RPM Surface Max 
 RRUN.                    0900:  Rig Run Number 
 SAZI.deg               115.08:  Azm, Start 
 SDEP.m                4762.01:  Start Depth 
 SIDD.                      No:  Serv Intrp, DD 
 SINC.deg                66.14:  Inc, Start 
 SPPA.psig             3700.00:  SPP Avg 
 SPPN.psig             3620.00:  SPP Min 
 SPPX.psig             3900.00:  SPP Max 
 STIM.      09.30.00 22-Dec-20:  Start Time 
 SVCS.                 DD, MWD:  Services 
 SVER.                    9.20:  Sperry Version 
 TDAT.m                 237.00:  Tot Depth Attmp 
 TDDF.                      No:  Trip for DD 
 TDLG.m                 237.00:  Tot Depth Loggd 
 TFF .                      No:  Trip for Fail 
 TQAA.f-kp               18.00:  Torque Abs Avg 
 TQAN.f-kp               17.00:  Torque Abs Min 
 TQAX.f-kp               20.00:  Torque Abs Max 
 TRRT.°/30m               0.60:  Turn Rotating 
 MRT .                    HCIM:  Maximum Recorded Temperature 
 TTMX.degC               94.12:  Max Tool Temp 
 VS01.                90627809:  Virtual Str1 SN 
 VS02.                90527813:  Virtual Str2 SN 
 VS03.                90545417:  Virtual Str3 SN 
 VS04.                12460870:  Virtual Str4 SN 
 VS05.                90516706:  Virtual Str5 SN 
 VS06.                90632007:  Virtual Str6 SN 
 WBMN.klb                 0.00:  WOB Min 
 WOBA.klb                14.00:  WOB Avg 
 WOBX.klb                25.00:  WOB Max 
 YP  .lhf2               32.00:  Yield Point 
~Curve Information Block
#MNEM.UNIT                 API CODE     Curve Description
#---------               -----------    ---------------------------
 TIME.HHMMSS            00 000 000 000:  GT Time & Date
 GTDEPTH.m              00 000 000 000:  GT Depth
 GTPQH.psia             00 000 000 000:  GT HR Quartz Pressure
 GTTQ.degC              00 000 000 000:  GT Quartz Temperature
 GTTN.NONE              00 000 000 000:  GT Test Number
 GTET.sec               00 000 000 000:  GT Elapsed Test Time
 GTTVD.m                00 000 000 000:  GT True Vertical Depth
#Other Information
#
#WARRANTY: Halliburton will use its best efforts to furnish customers with 
#accurate information and interpretations that are part of, and incident to, the services 
#provided.  However, Halliburton cannot and does not warrant the accuracy 
#or correctness of such information and interpretations.  Under no circumstances should any 
#such information or interpretation be relied upon as the sole basis for any drilling, 
#completion, production, or financial decision or any procedure involving any risk to the 
#safety of any drilling venture, drilling rig or its crew or any other third party.  The 
#Customer has full responsibility for all drilling, completion and production operation.  
#Halliburton makes no representations or warranties, either expressed or 
#implied, including, but not limited to, the implied warranties of merchantability or fitness 
#for a particular purpose, with respect to the services rendered.  In no event will 
#Halliburton be liable for failure to obtain any particular results or for 
#any damages, including, but not limited to, indirect, special or consequential damages, 
#resulting from the use of any information or interpretation provided by Halliburton.
#
~A           TIME           GTDEPTH  GTPQH  GTTQ  GTTN  GTET   GTTVD  
# ...
   19:20:04.503.25-Dec-2020 4808.01 5440.88 63.95 7.00 483.38 2502.07
   19:20:04.703.25-Dec-2020 4808.01 5440.88 63.95 7.00 483.58 2502.07
   19:20:04.903.25-Dec-2020 4808.01 5443.32 63.95 7.00 483.78 2502.07
   19:20:05.103.25-Dec-2020 4808.01 5437.68 63.95 7.00 483.98 2502.07
   19:20:05.303.25-Dec-2020 4808.01 5443.62 63.95 7.00 484.18 2502.07
   19:20:05.503.25-Dec-2020 4808.01 5451.58 63.95 7.00 484.38 2502.07
   19:20:05.704.25-Dec-2020 4808.01 5451.58 63.95 7.00 484.58 2502.07
   19:20:05.904.25-Dec-2020 4808.01 5438.75 63.94 7.00 484.78 2502.07
   19:20:06.104.25-Dec-2020 4808.01 5440.42 63.94 7.00 484.98 2502.07
   19:20:06.304.25-Dec-2020 4808.01 5451.75 63.94 7.00 485.18 2502.07
   19:20:06.504.25-Dec-2020 4808.01 5435.43 63.94 7.00 485.38 2502.07
   19:20:06.704.25-Dec-2020 4808.01 5435.43 63.94 7.00 485.58 2502.07
   19:20:06.904.25-Dec-2020 4808.01 5440.10 63.94 7.00 485.78 2502.07
   19:20:07.105.25-Dec-2020 4808.01 5437.71 63.94 7.00 485.98 2502.07
   19:20:07.305.25-Dec-2020 4808.01 5437.39 63.94 7.00 486.18 2502.07
   19:20:07.505.25-Dec-2020 4808.01 5437.22 63.94 7.00 486.38 2502.07
   19:20:07.705.25-Dec-2020 4808.01 5437.22 63.94 7.00 486.58 2502.07
   19:20:07.905.25-Dec-2020 4808.01 5436.79 63.94 7.00 486.78 2502.07
   19:20:08.105.25-Dec-2020 4808.01 5437.57 63.94 7.00 486.98 2502.07
   19:20:08.306.25-Dec-2020 4808.01 5436.52 63.94 7.00 487.18 2502.07
   19:20:08.506.25-Dec-2020 4808.01 5436.41 63.94 7.00 487.38 2502.07
   19:20:08.706.25-Dec-2020 4808.01 5436.41 63.94 7.00 487.59 2502.07
   19:20:08.906.25-Dec-2020 4808.01 5440.89 63.94 7.00 487.79 2502.07
   19:20:09.106.25-Dec-2020 4808.01 5436.76 63.94 7.00 487.99 2502.07
   19:20:09.306.25-Dec-2020 4808.01 5443.16 63.94 7.00 488.19 2502.07
   19:20:09.507.25-Dec-2020 4808.01 5438.23 63.94 7.00 488.39 2502.07
   19:20:09.707.25-Dec-2020 4808.01 5438.23 63.94 7.00 488.59 2502.07
   19:20:09.907.25-Dec-2020 4808.01 5438.94 63.94 7.00 488.79 2502.07
   19:20:10.107.25-Dec-2020 4808.01 5438.97 63.94 7.00 488.99 2502.07
   19:20:10.307.25-Dec-2020 4808.01 5439.04 63.94 7.00 489.19 2502.07
   19:20:10.507.25-Dec-2020 4808.01 5438.79 63.94 7.00 489.39 2502.07
   19:20:10.707.25-Dec-2020 4808.01 5438.79 63.94 7.00 489.59 2502.07
   19:20:10.908.25-Dec-2020 4808.01 5437.83 63.94 7.00 489.79 2502.07
   19:20:11.108.25-Dec-2020 4808.01 5437.78 63.94 7.00 489.99 2502.07
   19:20:11.308.25-Dec-2020 4808.01 5437.69 63.94 7.00 490.19 2502.07
   19:20:11.508.25-Dec-2020 4808.01 5444.41 63.94 7.00 490.39 2502.07
   19:20:11.708.25-Dec-2020 4808.01 5444.41 63.94 7.00 490.59 2502.07
   19:20:11.908.25-Dec-2020 4808.01 5438.53 63.94 7.00 490.79 2502.07
   19:20:12.109.25-Dec-2020 4808.01 5439.11 63.94 7.00 490.99 2502.07
   19:20:12.309.25-Dec-2020 4808.01 5444.95 63.94 7.00 491.19 2502.07
   19:20:12.509.25-Dec-2020 4808.01 5443.53 63.94 7.00 491.39 2502.07
   19:20:12.709.25-Dec-2020 4808.01 5443.53 63.94 7.00 491.59 2502.07
   19:20:12.909.25-Dec-2020 4808.01 5439.90 63.94 7.00 491.79 2502.07
   19:20:13.109.25-Dec-2020 4808.01 5445.65 63.94 7.00 491.99 2502.07
   19:20:13.310.25-Dec-2020 4808.01 5443.96 63.94 7.00 492.19 2502.07
   19:20:13.510.25-Dec-2020 4808.01 5437.09 63.94 7.00 492.39 2502.07
   19:20:13.710.25-Dec-2020 4808.01 5437.09 63.94 7.00 492.59 2502.07
   19:20:13.910.25-Dec-2020 4808.01 5443.33 63.94 7.00 492.79 2502.07
   19:20:14.110.25-Dec-2020 4808.01 5435.41 63.94 7.00 492.99 2502.07
   19:20:14.310.25-Dec-2020 4808.01 5442.80 63.94 7.00 493.19 2502.07
   19:20:14.510.25-Dec-2020 4808.01 5437.08 63.94 7.00 493.39 2502.07
   19:20:14.711.25-Dec-2020 4808.01 5437.08 63.94 7.00 493.59 2502.07
   19:20:14.911.25-Dec-2020 4808.01 5437.28 63.94 7.00 493.79 2502.07
   19:20:15.111.25-Dec-2020 4808.01 5436.03 63.94 7.00 493.99 2502.07
   19:20:15.311.25-Dec-2020 4808.01 5436.52 63.93 7.00 494.19 2502.07
   19:20:15.511.25-Dec-2020 4808.01 5436.34 63.93 7.00 494.39 2502.07
   19:20:15.711.25-Dec-2020 4808.01 5436.34 63.93 7.00 494.59 2502.07
   19:20:15.912.25-Dec-2020 4808.01 5436.23 63.93 7.00 494.79 2502.07
   19:20:16.112.25-Dec-2020 4808.01 5436.77 63.93 7.00 494.99 2502.07
   19:20:16.312.25-Dec-2020 4808.01 5445.90 63.93 7.00 495.19 2502.07
   19:20:16.512.25-Dec-2020 4808.01 5436.87 63.93 7.00 495.39 2502.07
   19:20:16.712.25-Dec-2020 4808.01 5436.87 63.93 7.00 495.59 2502.07
   19:20:16.912.25-Dec-2020 4808.01 5439.48 63.93 7.00 495.79 2502.07
   19:20:17.113.25-Dec-2020 4808.01 5439.17 63.93 7.00 495.99 2502.07
   19:20:17.313.25-Dec-2020 4808.01 5437.93 63.93 7.00 496.19 2502.07
   19:20:17.513.25-Dec-2020 4808.01 5437.57 63.93 7.00 496.39 2502.07
   19:20:17.713.25-Dec-2020 4808.01 5437.57 63.93 7.00 496.59 2502.07
   19:20:17.913.25-Dec-2020 4808.01 5437.95 63.93 7.00 496.79 2502.07
   19:20:18.113.25-Dec-2020 4808.01 5437.39 63.93 7.00 496.99 2502.07
   19:20:18.313.25-Dec-2020 4808.01 5437.62 63.93 7.00 497.19 2502.07
   19:20:18.514.25-Dec-2020 4808.01 5436.80 63.93 7.00 497.39 2502.07
   19:20:18.714.25-Dec-2020 4808.01 5436.80 63.93 7.00 497.59 2502.07
   19:20:18.914.25-Dec-2020 4808.01 5451.38 63.93 7.00 497.79 2502.07
   19:20:19.114.25-Dec-2020 4808.01 5434.17 63.93 7.00 497.99 2502.07
   19:20:19.314.25-Dec-2020 4808.01 5438.63 63.93 7.00 498.19 2502.07
