~Version Information
 VERS.                  2.0:   CWLS log ASCII Standard -VERSION 2.0
 WRAP.                   NO:   One line per depth step
~Well Information Block
#MNEM.UNIT     VALUE/NAME     DESCRIPTION
#---------     -----------    ---------------------------
 STRT.S             15:24:16 25-Dec-20: START TIME 15:24:16 25-Dec-20
 STOP.S             15:32:36 25-Dec-20: STOP TIME  15:32:36 25-Dec-20
 STEP.S                   0.00: STEP TIME
 NULL.                 -999.25: NULL VALUE
 DFWT.                        :  DIST FWL TEXT
 DFST.                        :  DIST FSL TEXT
 DMF .             Drill Floor:  DRILL MEAS FROM
 STIM.      04.54.24 22-Sep-20:  START TIME
 DATE.      04.54.24 21-Nov-20:  END TIME
 SPUD.               21-Nov-20:  SPUD DATE
 NREF.                    Grid:  NORTH REFERENCE
 HPTY.       Minimum Curvature:  HOLE POS TYPE
 DMOD.             Drill Model:  DRILL MOD DESC
 SVYD.                  Survey:  SURVEY DESC
 ILTD.               Lithology:  INTERP LTH DESC
 FTOP.          Formation Tops:  FORM TOPS DESC
 SON .        AZ-XX-0906571587:  JOB NUMBER
 COMP.     BP Exploration (Caspian Sea) Ltd:  COMPANY
 UWI .                     N/A:  UNIQUE WELL IDENTIFIER
 API .                     N/A:  API NUMBER
 BASE.              Azerbaijan:  LOGGING EQUIPMENT BASE LOCATION
 REGN.                   EESSA:  REGION
 PROV.                    Baku:  PROVINCE
 STAT.                    Baku:  STATE NAME
 CTRY.              Azerbaijan:  COUNTRY NAME
 FLD .                     ACG:  FIELD NAME
 SRVC.     TURAN Drilling & Engineering:  CONTRACTOR
 WELL.                     J27:  WELL NAME
 RIG .             West Chirag:  RIG NAME
 DOE .                     N/A:  DOE NUMBER
 DCON.         Sperry Drilling:  DIRECTNL CONTR
 PDAT.          Mean Sea Level:  PERMANENT DATUM
 WTYP.                Deviated:  WELL TYPE
 MWDS.                    Baku:  MWD SHOP
 JOBN.        AZ-XX-0906571587:  JOB TICKET NUMB
 UNIT.                     N/A:  LOGGING EQUIPMENT ID
 MDS .        Operator Entered:  MAG DATA SOURCE
 CNTY.                        :  COUNTY
 LOC .                        :  LOCATION
 LMF .             Drill Floor:  LOG MEASURED FROM
 TVDS.m                  43.00:  TVDSS CORRECTN
 LATI.deg                40.13:  LATITUDE
 LONG.deg                51.22:  LONGITUDE
 WHNS.m                   7.72:  WELL HEAD N/S
 WHEW.m                 -14.24:  WELL HEAD E/W
 UTMX.m              519005.06:  UTM X
 UTMY.m             4443793.85:  UTM Y
 DFWL.m                   0.00:  DISTANCE FWL
 DFSL.m                   0.00:  DISTANCE FSL
 SDEP.m                 347.00:  START DEPTH
 TDD .m                 581.00:  TOTAL DEPTH (DRILLER)
 VSDR.deg               159.72:  VERT SEC DIRECT
 GVFD.g                   1.00:  GRAVITY FIELD
 MFLD.nT              50318.00:  MAGNETIC FIELD
 MDIP.deg                59.57:  MAGNETIC DIP
 MDEC.deg                 6.44:  MAGNETIC DECL
 GRDC.deg                 0.15:  GRID CORRECTION
 AZTC.deg                 6.29:  AZM TOTAL CORR
 EPD .m                   0.00:  ELEVATION
 EGL .m                   0.00:  GROUND ELEVATION
 WDMS.m                 169.80:  WD ELEV
 APD .m                  43.00:  DEPTH ABOVE PD
 AGAP.m                  43.00:  AIR GAP
 VSEW.m                 -14.24:  VERT SEC E/W
 VSNS.m                   7.72:  VERT SEC N/S
 DEP .m                 342.45:  DEPTH
 EKB .m                   0.00:  KB ELEVATION
 EDF .m                  43.00:  DF ELEVATION
 TDL .m                 237.00:  TOTAL DEPTH (LOGGER)
 VSC .                       0:  VS TO CLOSURE
 MAGU.                 1851428:  MAGUTM CHECKSUM
~Parameter Information Block
#MNEM.UNIT       Value        Description
#---------     -----------    ---------------------------
 AV  .mps                 1.50:  Ann Velocity 
 AVMX.mps                 2.90:  Max Ann Veloc 
 AZIF.deg               115.59:  Azm, Final 
 BHAT.        Rotary Steerable:  BHA Type 
 BROT.°/30m               0.50:  Build Rotating 
 BS  .in                  8.50:  Bit Size 
 BTPL.psig              580.00:  Bit Press Loss 
 CABU.                     Yes:  Customer Abuse 
 TCS .hr                 89.79:  Time Ciculation Ended 
 CV  .mps                 3.22:  Crit Velocity 
 CVMX.mps                 4.37:  Max Crit Veloc 
 DD1 .          Rashad Habibov:  Direct Drillr 1 
 DDSV.               Geo-Pilot:  DD Service 
 DEFF.%                  95.00:  % Det Eff 
 DLRX.°/30m               1.94:  Dogleg Rot Max 
 DLSO.°/30m               0.70:  Dogleg Oriented 
 DLSX.°/30m               1.94:  Dogleg Str Max 
 DRET.      04.45.00 25-Dec-20:  Drill End Time 
 DRST.      10.00.00 24-Dec-20:  Drill Start Tim 
 DTIM.hr                 16.64:  Time Drilling 
 EDEP.m                4999.01:  End Depth 
 ENG1.         Elchin Mammadov:  Engineer 1 
 ENG2.          Ruslan Safarov:  Engineer 2 
 ENG3.          Rustam Safarov:  Engineer 3 
 ETIM.      09.00.00 29-Dec-20:  End Time 
 FLOI.gpm               500.00:  Flow In 
 FLON.gpm               400.00:  Flow In Min 
 FLOS.cptm                0.00:  Fluid Loss 
 FLOX.gpm               500.00:  Flow In Max 
 HFLO.                      No:  High Flow 
 HPRE.                      No:  High Pressure 
 HTEM.                      No:  High Temp 
 HYDO.m                   2.00:  Hydro Offset 
 IFIN.deg                66.79:  Inc, Final 
 IMAX.deg                67.66:  Inc Max 
 IMIN.deg                66.39:  Inc Min 
 IMND.m                4949.37:  Inc Min Depth 
 IMXD.m                4778.63:  Inc Max Depth 
 JARR.                     Yes:  Jarring 
 LETM.      04.45.00 25-Dec-20:  Log End Time 
 LOST.hr                     0:  Lost Rig Time 
 LSTM.      10.00.00 24-Dec-20:  Log Start Time 
 MDCL.ppm             39000.00:  Mud Chlorides 
 MDES.     Inversion Oil/Synthetic:  Mud Desc 
 DFD .sg                  1.33:  Mud Density 
 MDMN.sg                  1.33:  Dens Mud Min 
 MDMX.sg                  1.33:  Dens Mud Max 
 MOIL.                      70:  Run Mud Oil % 
 MOWR.                   70:30:  Run Mud OWR 
 MSND.                       0:  Run Mud Sand % 
 MSOL.                    17.4:  Run Mud Solids% 
 DFV .spqt               84.00:  Mud Viscosity 
 MWOD.in                  6.75:  MWD Tool OD 
 MWSI.                     Yes:  Serv Intrp, MWD 
 OTIM.hr                168.14:  Time Operating 
 PCON.           Look Like New:  Pad Condition 
 PMAX.psia            10822.93:  Press Op, Max 
 PV  .cP                 30.00:  Mud PV 
 RUN .                     900:  Run Number 
 ROPA.m/hr               18.00:  ROP Avg 
 ROPN.m/hr               12.00:  ROP Min 
 ROPX.m/hr               25.00:  ROP Max 
 RPMA.rpm               120.00:  RPM Surface Avg 
 RPMN.rpm               100.00:  RPM Surface Min 
 RPMX.rpm               120.00:  RPM Surface Max 
 RRUN.                    0900:  Rig Run Number 
 SAZI.deg               115.08:  Azm, Start 
 SDEP.m                4762.01:  Start Depth 
 SIDD.                      No:  Serv Intrp, DD 
 SINC.deg                66.14:  Inc, Start 
 SPPA.psig             3700.00:  SPP Avg 
 SPPN.psig             3620.00:  SPP Min 
 SPPX.psig             3900.00:  SPP Max 
 STIM.      09.30.00 22-Dec-20:  Start Time 
 SVCS.                 DD, MWD:  Services 
 SVER.                    9.20:  Sperry Version 
 TDAT.m                 237.00:  Tot Depth Attmp 
 TDDF.                      No:  Trip for DD 
 TDLG.m                 237.00:  Tot Depth Loggd 
 TFF .                      No:  Trip for Fail 
 TQAA.f-kp               18.00:  Torque Abs Avg 
 TQAN.f-kp               17.00:  Torque Abs Min 
 TQAX.f-kp               20.00:  Torque Abs Max 
 TRRT.°/30m               0.60:  Turn Rotating 
 MRT .                    HCIM:  Maximum Recorded Temperature 
 TTMX.degC               94.12:  Max Tool Temp 
 VS01.                90627809:  Virtual Str1 SN 
 VS02.                90527813:  Virtual Str2 SN 
 VS03.                90545417:  Virtual Str3 SN 
 VS04.                12460870:  Virtual Str4 SN 
 VS05.                90516706:  Virtual Str5 SN 
 VS06.                90632007:  Virtual Str6 SN 
 WBMN.klb                 0.00:  WOB Min 
 WOBA.klb                14.00:  WOB Avg 
 WOBX.klb                25.00:  WOB Max 
 YP  .lhf2               32.00:  Yield Point 
~Curve Information Block
#MNEM.UNIT                 API CODE     Curve Description
#---------               -----------    ---------------------------
 TIME.HHMMSS            00 000 000 000:  GT Time & Date
 GTDEPTH.m              00 000 000 000:  GT Depth
 GTPQH.psia             00 000 000 000:  GT HR Quartz Pressure
 GTTQ.degC              00 000 000 000:  GT Quartz Temperature
 GTTN.NONE              00 000 000 000:  GT Test Number
 GTET.sec               00 000 000 000:  GT Elapsed Test Time
 GTTVD.m                00 000 000 000:  GT True Vertical Depth
#Other Information
#
#WARRANTY: Halliburton will use its best efforts to furnish customers with 
#accurate information and interpretations that are part of, and incident to, the services 
#provided.  However, Halliburton cannot and does not warrant the accuracy 
#or correctness of such information and interpretations.  Under no circumstances should any 
#such information or interpretation be relied upon as the sole basis for any drilling, 
#completion, production, or financial decision or any procedure involving any risk to the 
#safety of any drilling venture, drilling rig or its crew or any other third party.  The 
#Customer has full responsibility for all drilling, completion and production operation.  
#Halliburton makes no representations or warranties, either expressed or 
#implied, including, but not limited to, the implied warranties of merchantability or fitness 
#for a particular purpose, with respect to the services rendered.  In no event will 
#Halliburton be liable for failure to obtain any particular results or for 
#any damages, including, but not limited to, indirect, special or consequential damages, 
#resulting from the use of any information or interpretation provided by Halliburton.
#
~A           TIME           GTDEPTH  GTPQH  GTTQ  GTTN  GTET   GTTVD  
# ...
   15:30:01.845.25-Dec-2020 4892.01 2718.24 65.33 4.00 345.09 2535.10
   15:30:02.045.25-Dec-2020 4892.01 2718.24 65.33 4.00 345.29 2535.10
   15:30:02.245.25-Dec-2020 4892.01 2718.24 65.33 4.00 345.49 2535.10
   15:30:02.445.25-Dec-2020 4892.01 2718.24 65.33 4.00 345.69 2535.10
   15:30:02.645.25-Dec-2020 4892.01 2718.24 65.33 4.00 345.89 2535.10
   15:30:02.845.25-Dec-2020 4892.01 2718.31 65.33 4.00 346.09 2535.10
   15:30:03.045.25-Dec-2020 4892.01 2718.31 65.33 4.00 346.29 2535.10
   15:30:03.245.25-Dec-2020 4892.01 2718.18 65.33 4.00 346.49 2535.10
   15:30:03.445.25-Dec-2020 4892.01 2718.30 65.33 4.00 346.69 2535.10
   15:30:03.645.25-Dec-2020 4892.01 2718.28 65.33 4.00 346.89 2535.10
   15:30:03.845.25-Dec-2020 4892.01 2718.24 65.33 4.00 347.09 2535.10
   15:30:04.045.25-Dec-2020 4892.01 2718.26 65.33 4.00 347.29 2535.10
   15:30:04.245.25-Dec-2020 4892.01 2718.24 65.33 4.00 347.49 2535.10
   15:30:04.445.25-Dec-2020 4892.01 2718.24 65.33 4.00 347.69 2535.10
   15:30:04.645.25-Dec-2020 4892.01 2718.24 65.33 4.00 347.89 2535.10
   15:30:04.845.25-Dec-2020 4892.01 2718.37 65.33 4.00 348.09 2535.10
   15:30:05.046.25-Dec-2020 4892.01 2718.37 65.33 4.00 348.29 2535.10
   15:30:05.246.25-Dec-2020 4892.01 2718.35 65.33 4.00 348.49 2535.10
   15:30:05.446.25-Dec-2020 4892.01 2718.26 65.33 4.00 348.69 2535.10
   15:30:05.646.25-Dec-2020 4892.01 2718.16 65.33 4.00 348.89 2535.10
   15:30:05.846.25-Dec-2020 4892.01 2718.29 65.33 4.00 349.09 2535.10
   15:30:06.046.25-Dec-2020 4892.01 2718.29 65.33 4.00 349.29 2535.10
   15:30:06.246.25-Dec-2020 4892.01 2718.29 65.33 4.00 349.49 2535.10
   15:30:06.446.25-Dec-2020 4892.01 2718.23 65.33 4.00 349.69 2535.10
   15:30:06.646.25-Dec-2020 4892.01 2718.29 65.33 4.00 349.89 2535.10
   15:30:06.846.25-Dec-2020 4892.01 2718.40 65.33 4.00 350.09 2535.10
   15:30:07.046.25-Dec-2020 4892.01 2718.40 65.33 4.00 350.29 2535.10
   15:30:07.246.25-Dec-2020 4892.01 2718.33 65.32 4.00 350.49 2535.10
   15:30:07.446.25-Dec-2020 4892.01 2718.20 65.32 4.00 350.69 2535.10
   15:30:07.646.25-Dec-2020 4892.01 2718.20 65.32 4.00 350.89 2535.10
   15:30:07.846.25-Dec-2020 4892.01 2718.33 65.32 4.00 351.09 2535.10
   15:30:08.046.25-Dec-2020 4892.01 2718.30 65.32 4.00 351.29 2535.10
   15:30:08.246.25-Dec-2020 4892.01 2718.17 65.32 4.00 351.49 2535.10
   15:30:08.446.25-Dec-2020 4892.01 2718.27 65.32 4.00 351.69 2535.10
   15:30:08.647.25-Dec-2020 4892.01 2718.24 65.32 4.00 351.89 2535.10
   15:30:08.847.25-Dec-2020 4892.01 2718.25 65.32 4.00 352.10 2535.10
   15:30:09.047.25-Dec-2020 4892.01 2718.25 65.32 4.00 352.30 2535.10
   15:30:09.247.25-Dec-2020 4892.01 2718.25 65.32 4.00 352.50 2535.10
   15:30:09.447.25-Dec-2020 4892.01 2718.24 65.32 4.00 352.70 2535.10
   15:30:09.647.25-Dec-2020 4892.01 2718.24 65.32 4.00 352.90 2535.10
   15:30:09.847.25-Dec-2020 4892.01 2718.13 65.32 4.00 353.10 2535.10
   15:30:10.047.25-Dec-2020 4892.01 2718.13 65.32 4.00 353.30 2535.10
   15:30:10.247.25-Dec-2020 4892.01 2718.36 65.32 4.00 353.50 2535.10
   15:30:10.447.25-Dec-2020 4892.01 2718.12 65.32 4.00 353.70 2535.10
   15:30:10.647.25-Dec-2020 4892.01 2718.38 65.32 4.00 353.90 2535.10
   15:30:10.847.25-Dec-2020 4892.01 2718.24 65.32 4.00 354.10 2535.10
   15:30:11.047.25-Dec-2020 4892.01 2718.24 65.32 4.00 354.30 2535.10
   15:30:11.247.25-Dec-2020 4892.01 2718.28 65.32 4.00 354.50 2535.10
   15:30:11.447.25-Dec-2020 4892.01 2718.26 65.32 4.00 354.70 2535.10
   15:30:11.647.25-Dec-2020 4892.01 2718.26 65.32 4.00 354.90 2535.10
   15:30:11.847.25-Dec-2020 4892.01 2718.25 65.32 4.00 355.10 2535.10
   15:30:12.047.25-Dec-2020 4892.01 2718.24 65.32 4.00 355.30 2535.10
   15:30:12.247.25-Dec-2020 4892.01 2718.24 65.32 4.00 355.50 2535.10
   15:30:12.448.25-Dec-2020 4892.01 2718.24 65.32 4.00 355.70 2535.10
   15:30:12.648.25-Dec-2020 4892.01 2718.23 65.32 4.00 355.90 2535.10
   15:30:12.848.25-Dec-2020 4892.01 2718.29 65.32 4.00 356.10 2535.10
   15:30:13.048.25-Dec-2020 4892.01 2718.29 65.32 4.00 356.30 2535.10
   15:30:13.248.25-Dec-2020 4892.01 2718.08 65.32 4.00 356.50 2535.10
   15:30:13.448.25-Dec-2020 4892.01 2718.43 65.32 4.00 356.70 2535.10
   15:30:13.648.25-Dec-2020 4892.01 2718.37 65.32 4.00 356.90 2535.10
   15:30:13.848.25-Dec-2020 4892.01 2718.09 65.32 4.00 357.10 2535.10
   15:30:14.048.25-Dec-2020 4892.01 2718.09 65.32 4.00 357.30 2535.10
   15:30:14.248.25-Dec-2020 4892.01 2718.37 65.32 4.00 357.50 2535.10
   15:30:14.448.25-Dec-2020 4892.01 2718.32 65.32 4.00 357.70 2535.10
   15:30:14.648.25-Dec-2020 4892.01 2718.09 65.32 4.00 357.90 2535.10
   15:30:14.848.25-Dec-2020 4892.01 2718.12 65.32 4.00 358.10 2535.10
   15:30:15.048.25-Dec-2020 4892.01 2718.12 65.32 4.00 358.30 2535.10
   15:30:15.248.25-Dec-2020 4892.01 2718.30 65.32 4.00 358.50 2535.10
   15:30:15.448.25-Dec-2020 4892.01 2718.09 65.32 4.00 358.70 2535.10
   15:30:15.648.25-Dec-2020 4892.01 2718.34 65.32 4.00 358.90 2535.10
   15:30:15.848.25-Dec-2020 4892.01 2718.21 65.32 4.00 359.10 2535.10
   15:30:16.049.25-Dec-2020 4892.01 2718.20 65.32 4.00 359.30 2535.10
   15:30:16.249.25-Dec-2020 4892.01 2718.25 65.32 4.00 359.50 2535.10
   15:30:16.449.25-Dec-2020 4892.01 2718.25 65.32 4.00 359.70 2535.10
   15:30:16.649.25-Dec-2020 4892.01 2718.25 65.32 4.00 359.90 2535.10
   15:30:16.849.25-Dec-2020 4892.01 2718.24 65.32 4.00 360.10 2535.10
   15:30:17.049.25-Dec-2020 4892.01 2718.24 65.32 4.00 360.30 2535.10
   15:30:17.249.25-Dec-2020 4892.01 2718.24 65.32 4.00 360.50 2535.10
   15:30:17.449.25-Dec-2020 4892.01 2718.24 65.32 4.00 360.70 2535.10
   15:30:17.649.25-Dec-2020 4892.01 2718.43 65.32 4.00 360.90 2535.10
   15:30:17.849.25-Dec-2020 4892.01 2718.39 65.32 4.00 361.10 2535.10
   15:30:18.049.25-Dec-2020 4892.01 2718.39 65.32 4.00 361.30 2535.10
   15:30:18.249.25-Dec-2020 4892.01 2718.27 65.32 4.00 361.50 2535.10
   15:30:18.449.25-Dec-2020 4892.01 2718.27 65.32 4.00 361.70 2535.10
   15:30:18.649.25-Dec-2020 4892.01 2718.21 65.32 4.00 361.90 2535.10
   15:30:18.849.25-Dec-2020 4892.01 2718.27 65.32 4.00 362.10 2535.10
   15:30:19.049.25-Dec-2020 4892.01 2718.27 65.32 4.00 362.30 2535.10
   15:30:19.249.25-Dec-2020 4892.01 2718.25 65.32 4.00 362.50 2535.10
   15:30:19.449.25-Dec-2020 4892.01 2718.26 65.32 4.00 362.70 2535.10
   15:30:19.649.25-Dec-2020 4892.01 2718.24 65.32 4.00 362.90 2535.10
   15:30:19.850.25-Dec-2020 4892.01 2718.13 65.32 4.00 363.10 2535.10
   15:30:20.050.25-Dec-2020 4892.01 2718.39 65.32 4.00 363.30 2535.10
   15:30:20.250.25-Dec-2020 4892.01 2718.35 65.32 4.00 363.50 2535.10
   15:30:20.450.25-Dec-2020 4892.01 2718.10 65.32 4.00 363.70 2535.10
   15:30:20.650.25-Dec-2020 4892.01 2718.37 65.32 4.00 363.90 2535.10
   15:30:20.850.25-Dec-2020 4892.01 2718.23 65.32 4.00 364.10 2535.10
   15:30:21.050.25-Dec-2020 4892.01 2718.23 65.32 4.00 364.30 2535.10
   15:30:21.250.25-Dec-2020 4892.01 2718.41 65.32 4.00 364.50 2535.10
   15:30:21.450.25-Dec-2020 4892.01 2718.06 65.32 4.00 364.70 2535.10
   15:30:21.650.25-Dec-2020 4892.01 2718.51 65.32 4.00 364.90 2535.10
   15:30:21.850.25-Dec-2020 4892.01 2718.09 65.32 4.00 365.10 2535.10
   15:30:22.050.25-Dec-2020 4892.01 2718.09 65.32 4.00 365.30 2535.10
   15:30:22.250.25-Dec-2020 4892.01 2718.20 65.32 4.00 365.50 2535.10
   15:30:22.450.25-Dec-2020 4892.01 2718.15 65.32 4.00 365.70 2535.10
   15:30:22.650.25-Dec-2020 4892.01 2718.41 65.32 4.00 365.90 2535.10
   15:30:22.850.25-Dec-2020 4892.01 2718.35 65.32 4.00 366.10 2535.10
   15:30:23.050.25-Dec-2020 4892.01 2718.35 65.32 4.00 366.30 2535.10
   15:30:23.250.25-Dec-2020 4892.01 2718.25 65.32 4.00 366.50 2535.10
   15:30:23.451.25-Dec-2020 4892.01 2718.22 65.32 4.00 366.70 2535.10
   15:30:23.651.25-Dec-2020 4892.01 2718.20 65.32 4.00 366.90 2535.10
   15:30:23.851.25-Dec-2020 4892.01 2718.24 65.32 4.00 367.10 2535.10
   15:30:24.051.25-Dec-2020 4892.01 2718.25 65.32 4.00 367.30 2535.10
   15:30:24.251.25-Dec-2020 4892.01 2718.25 65.32 4.00 367.50 2535.10
   15:30:24.451.25-Dec-2020 4892.01 2718.24 65.32 4.00 367.70 2535.10
   15:30:24.651.25-Dec-2020 4892.01 2718.24 65.32 4.00 367.90 2535.10
