~Version Information
 VERS.                  2.0:   CWLS log ASCII Standard -VERSION 2.0
 WRAP.                   NO:   One line per depth step
~Well Information Block
#MNEM.UNIT     VALUE/NAME     DESCRIPTION
#---------     -----------    ---------------------------
 STRT.S             17:56:34 25-Dec-20: START TIME 17:56:34 25-Dec-20
 STOP.S             18:04:57 25-Dec-20: STOP TIME  18:04:57 25-Dec-20
 STEP.S                   0.00: STEP TIME
 NULL.                 -999.25: NULL VALUE
 DFWT.                        :  DIST FWL TEXT
 DFST.                        :  DIST FSL TEXT
 DMF .             Drill Floor:  DRILL MEAS FROM
 STIM.      04.54.24 22-Sep-20:  START TIME
 DATE.      04.54.24 21-Nov-20:  END TIME
 SPUD.               21-Nov-20:  SPUD DATE
 NREF.                    Grid:  NORTH REFERENCE
 HPTY.       Minimum Curvature:  HOLE POS TYPE
 DMOD.             Drill Model:  DRILL MOD DESC
 SVYD.                  Survey:  SURVEY DESC
 ILTD.               Lithology:  INTERP LTH DESC
 FTOP.          Formation Tops:  FORM TOPS DESC
 SON .        AZ-XX-0906571587:  JOB NUMBER
 COMP.     BP Exploration (Caspian Sea) Ltd:  COMPANY
 UWI .                     N/A:  UNIQUE WELL IDENTIFIER
 API .                     N/A:  API NUMBER
 BASE.              Azerbaijan:  LOGGING EQUIPMENT BASE LOCATION
 REGN.                   EESSA:  REGION
 PROV.                    Baku:  PROVINCE
 STAT.                    Baku:  STATE NAME
 CTRY.              Azerbaijan:  COUNTRY NAME
 FLD .                     ACG:  FIELD NAME
 SRVC.     TURAN Drilling & Engineering:  CONTRACTOR
 WELL.                     J27:  WELL NAME
 RIG .             West Chirag:  RIG NAME
 DOE .                     N/A:  DOE NUMBER
 DCON.         Sperry Drilling:  DIRECTNL CONTR
 PDAT.          Mean Sea Level:  PERMANENT DATUM
 WTYP.                Deviated:  WELL TYPE
 MWDS.                    Baku:  MWD SHOP
 JOBN.        AZ-XX-0906571587:  JOB TICKET NUMB
 UNIT.                     N/A:  LOGGING EQUIPMENT ID
 MDS .        Operator Entered:  MAG DATA SOURCE
 CNTY.                        :  COUNTY
 LOC .                        :  LOCATION
 LMF .             Drill Floor:  LOG MEASURED FROM
 TVDS.m                  43.00:  TVDSS CORRECTN
 LATI.deg                40.13:  LATITUDE
 LONG.deg                51.22:  LONGITUDE
 WHNS.m                   7.72:  WELL HEAD N/S
 WHEW.m                 -14.24:  WELL HEAD E/W
 UTMX.m              519005.06:  UTM X
 UTMY.m             4443793.85:  UTM Y
 DFWL.m                   0.00:  DISTANCE FWL
 DFSL.m                   0.00:  DISTANCE FSL
 SDEP.m                 347.00:  START DEPTH
 TDD .m                 581.00:  TOTAL DEPTH (DRILLER)
 VSDR.deg               159.72:  VERT SEC DIRECT
 GVFD.g                   1.00:  GRAVITY FIELD
 MFLD.nT              50318.00:  MAGNETIC FIELD
 MDIP.deg                59.57:  MAGNETIC DIP
 MDEC.deg                 6.44:  MAGNETIC DECL
 GRDC.deg                 0.15:  GRID CORRECTION
 AZTC.deg                 6.29:  AZM TOTAL CORR
 EPD .m                   0.00:  ELEVATION
 EGL .m                   0.00:  GROUND ELEVATION
 WDMS.m                 169.80:  WD ELEV
 APD .m                  43.00:  DEPTH ABOVE PD
 AGAP.m                  43.00:  AIR GAP
 VSEW.m                 -14.24:  VERT SEC E/W
 VSNS.m                   7.72:  VERT SEC N/S
 DEP .m                 342.45:  DEPTH
 EKB .m                   0.00:  KB ELEVATION
 EDF .m                  43.00:  DF ELEVATION
 TDL .m                 237.00:  TOTAL DEPTH (LOGGER)
 VSC .                       0:  VS TO CLOSURE
 MAGU.                 1851428:  MAGUTM CHECKSUM
~Parameter Information Block
#MNEM.UNIT       Value        Description
#---------     -----------    ---------------------------
 AV  .mps                 1.50:  Ann Velocity 
 AVMX.mps                 2.90:  Max Ann Veloc 
 AZIF.deg               115.59:  Azm, Final 
 BHAT.        Rotary Steerable:  BHA Type 
 BROT.∞/30m               0.50:  Build Rotating 
 BS  .in                  8.50:  Bit Size 
 BTPL.psig              580.00:  Bit Press Loss 
 CABU.                     Yes:  Customer Abuse 
 COMM.                     ‰E:  Run Comments 1 
 TCS .hr                 89.79:  Time Ciculation Ended 
 CV  .mps                 3.22:  Crit Velocity 
 CVMX.mps                 4.37:  Max Crit Veloc 
 DD1 .          Rashad Habibov:  Direct Drillr 1 
 DDSV.               Geo-Pilot:  DD Service 
 DEFF.%                  95.00:  % Det Eff 
 DLRX.∞/30m               1.94:  Dogleg Rot Max 
 DLSO.∞/30m               0.70:  Dogleg Oriented 
 DLSX.∞/30m               1.94:  Dogleg Str Max 
 DRET.      04.45.00 25-Dec-20:  Drill End Time 
 DRST.      10.00.00 24-Dec-20:  Drill Start Tim 
 DTIM.hr                 16.64:  Time Drilling 
 EDEP.m                4999.01:  End Depth 
 ENG1.         Elchin Mammadov:  Engineer 1 
 ENG2.          Ruslan Safarov:  Engineer 2 
 ENG3.          Rustam Safarov:  Engineer 3 
 ETIM.      09.00.00 29-Dec-20:  End Time 
 FLOI.gpm               500.00:  Flow In 
 FLON.gpm               400.00:  Flow In Min 
 FLOS.cptm                0.00:  Fluid Loss 
 FLOX.gpm               500.00:  Flow In Max 
 HFLO.                      No:  High Flow 
 HPRE.                      No:  High Pressure 
 HTEM.                      No:  High Temp 
 HYDO.m                   2.00:  Hydro Offset 
 IFIN.deg                66.79:  Inc, Final 
 IMAX.deg                67.66:  Inc Max 
 IMIN.deg                66.39:  Inc Min 
 IMND.m                4949.37:  Inc Min Depth 
 IMXD.m                4778.63:  Inc Max Depth 
 JARR.                     Yes:  Jarring 
 LETM.      04.45.00 25-Dec-20:  Log End Time 
 LOST.hr                     0:  Lost Rig Time 
 LSTM.      10.00.00 24-Dec-20:  Log Start Time 
 MDCL.ppm             39000.00:  Mud Chlorides 
 MDES.     Inversion Oil/Synthetic:  Mud Desc 
 DFD .sg                  1.33:  Mud Density 
 MDMN.sg                  1.33:  Dens Mud Min 
 MDMX.sg                  1.33:  Dens Mud Max 
 MOIL.                      70:  Run Mud Oil % 
 MOWR.                   70:30:  Run Mud OWR 
 MSND.                       0:  Run Mud Sand % 
 MSOL.                    17.4:  Run Mud Solids% 
 DFV .spqt               84.00:  Mud Viscosity 
 MWOD.in                  6.75:  MWD Tool OD 
 MWSI.                     Yes:  Serv Intrp, MWD 
 OTIM.hr                168.14:  Time Operating 
 PCON.           Look Like New:  Pad Condition 
 PMAX.psia            10822.93:  Press Op, Max 
 PV  .cP                 30.00:  Mud PV 
 RUN .                     900:  Run Number 
 ROPA.m/hr               18.00:  ROP Avg 
 ROPN.m/hr               12.00:  ROP Min 
 ROPX.m/hr               25.00:  ROP Max 
 RPMA.rpm               120.00:  RPM Surface Avg 
 RPMN.rpm               100.00:  RPM Surface Min 
 RPMX.rpm               120.00:  RPM Surface Max 
 RRUN.                    0900:  Rig Run Number 
 SAZI.deg               115.08:  Azm, Start 
 SDEP.m                4762.01:  Start Depth 
 SIDD.                      No:  Serv Intrp, DD 
 SINC.deg                66.14:  Inc, Start 
 SPPA.psig             3700.00:  SPP Avg 
 SPPN.psig             3620.00:  SPP Min 
 SPPX.psig             3900.00:  SPP Max 
 STIM.      09.30.00 22-Dec-20:  Start Time 
 SVCS.                 DD, MWD:  Services 
 SVER.                    9.20:  Sperry Version 
 TDAT.m                 237.00:  Tot Depth Attmp 
 TDDF.                      No:  Trip for DD 
 TDLG.m                 237.00:  Tot Depth Loggd 
 TFF .                      No:  Trip for Fail 
 TQAA.f-kp               18.00:  Torque Abs Avg 
 TQAN.f-kp               17.00:  Torque Abs Min 
 TQAX.f-kp               20.00:  Torque Abs Max 
 TRRT.∞/30m               0.60:  Turn Rotating 
 MRT .                    HCIM:  Maximum Recorded Temperature 
 TTMX.degC               94.12:  Max Tool Temp 
 VS01.                90627809:  Virtual Str1 SN 
 VS02.                90527813:  Virtual Str2 SN 
 VS03.                90545417:  Virtual Str3 SN 
 VS04.                12460870:  Virtual Str4 SN 
 VS05.                90516706:  Virtual Str5 SN 
 VS06.                90632007:  Virtual Str6 SN 
 WBMN.klb                 0.00:  WOB Min 
 WOBA.klb                14.00:  WOB Avg 
 WOBX.klb                25.00:  WOB Max 
 YP  .lhf2               32.00:  Yield Point 
~Curve Information Block
#MNEM.UNIT                 API CODE     Curve Description
#---------               -----------    ---------------------------
 TIME.HHMMSS            00 000 000 000:  GT Time & Date
 GTDEPTH.m              00 000 000 000:  GT Depth
 GTPQH.psia             00 000 000 000:  GT HR Quartz Pressure
 GTTQ.degC              00 000 000 000:  GT Quartz Temperature
 GTTN.NONE              00 000 000 000:  GT Test Number
 GTET.sec               00 000 000 000:  GT Elapsed Test Time
 GTTVD.m                00 000 000 000:  GT True Vertical Depth
#Other Information
#
#WARRANTY: Halliburton will use its best efforts to furnish customers with 
#accurate information and interpretations that are part of, and incident to, the services 
#provided.  However, Halliburton cannot and does not warrant the accuracy 
#or correctness of such information and interpretations.  Under no circumstances should any 
#such information or interpretation be relied upon as the sole basis for any drilling, 
#completion, production, or financial decision or any procedure involving any risk to the 
#safety of any drilling venture, drilling rig or its crew or any other third party.  The 
#Customer has full responsibility for all drilling, completion and production operation.  
#Halliburton makes no representations or warranties, either expressed or 
#implied, including, but not limited to, the implied warranties of merchantability or fitness 
#for a particular purpose, with respect to the services rendered.  In no event will 
#Halliburton be liable for failure to obtain any particular results or for 
#any damages, including, but not limited to, indirect, special or consequential damages, 
#resulting from the use of any information or interpretation provided by Halliburton.
#
~A           TIME           GTDEPTH  GTPQH  GTTQ  GTTN  GTET   GTTVD  
# ...
   18:03:05.570.25-Dec-2020 4856.51 3918.43 64.22 5.00 390.85 2521.01
   18:03:05.770.25-Dec-2020 4856.51 3918.43 64.22 5.00 391.05 2521.01
   18:03:05.970.25-Dec-2020 4856.51 3919.22 64.22 5.00 391.25 2521.01
   18:03:06.170.25-Dec-2020 4856.51 3919.22 64.22 5.00 391.45 2521.01
   18:03:06.370.25-Dec-2020 4856.51 3919.43 64.22 5.00 391.65 2521.01
   18:03:06.570.25-Dec-2020 4856.51 3919.76 64.22 5.00 391.85 2521.01
   18:03:06.770.25-Dec-2020 4856.51 3919.76 64.22 5.00 392.05 2521.01
   18:03:06.970.25-Dec-2020 4856.51 3919.89 64.22 5.00 392.25 2521.01
   18:03:07.170.25-Dec-2020 4856.51 3919.96 64.22 5.00 392.45 2521.01
   18:03:07.370.25-Dec-2020 4856.51 3920.06 64.22 5.00 392.65 2521.01
   18:03:07.570.25-Dec-2020 4856.51 3920.13 64.22 5.00 392.85 2521.01
   18:03:07.770.25-Dec-2020 4856.51 3920.13 64.22 5.00 393.05 2521.01
   18:03:07.969.25-Dec-2020 4856.51 3919.35 64.22 5.00 393.25 2521.01
   18:03:08.169.25-Dec-2020 4856.51 3919.44 64.22 5.00 393.45 2521.01
   18:03:08.369.25-Dec-2020 4856.51 3919.56 64.22 5.00 393.64 2521.01
   18:03:08.569.25-Dec-2020 4856.51 3919.78 64.22 5.00 393.84 2521.01
   18:03:08.769.25-Dec-2020 4856.51 3919.78 64.22 5.00 394.04 2521.01
   18:03:08.969.25-Dec-2020 4856.51 3919.92 64.22 5.00 394.24 2521.01
   18:03:09.169.25-Dec-2020 4856.51 3920.00 64.22 5.00 394.44 2521.01
   18:03:09.369.25-Dec-2020 4856.51 3920.00 64.22 5.00 394.64 2521.01
   18:03:09.569.25-Dec-2020 4856.51 3920.06 64.22 5.00 394.84 2521.01
   18:03:09.769.25-Dec-2020 4856.51 3920.06 64.22 5.00 395.04 2521.01
   18:03:09.969.25-Dec-2020 4856.51 3920.09 64.22 5.00 395.24 2521.01
   18:03:10.169.25-Dec-2020 4856.51 3920.06 64.22 5.00 395.44 2521.01
   18:03:10.368.25-Dec-2020 4856.51 3919.66 64.22 5.00 395.64 2521.01
   18:03:10.568.25-Dec-2020 4856.51 3919.39 64.22 5.00 395.84 2521.01
   18:03:10.768.25-Dec-2020 4856.51 3919.39 64.22 5.00 396.04 2521.01
   18:03:10.968.25-Dec-2020 4856.51 3919.53 64.22 5.00 396.24 2521.01
   18:03:11.168.25-Dec-2020 4856.51 3918.32 64.22 5.00 396.44 2521.01
   18:03:11.368.25-Dec-2020 4856.51 3918.55 64.22 5.00 396.64 2521.01
   18:03:11.568.25-Dec-2020 4856.51 3919.05 64.22 5.00 396.84 2521.01
   18:03:11.768.25-Dec-2020 4856.51 3919.05 64.22 5.00 397.04 2521.01
   18:03:11.968.25-Dec-2020 4856.51 3918.80 64.22 5.00 397.24 2521.01
   18:03:12.168.25-Dec-2020 4856.51 3918.48 64.22 5.00 397.44 2521.01
   18:03:12.368.25-Dec-2020 4856.51 3918.75 64.22 5.00 397.64 2521.01
   18:03:12.568.25-Dec-2020 4856.51 3919.19 64.22 5.00 397.84 2521.01
   18:03:12.768.25-Dec-2020 4856.51 3919.19 64.22 5.00 398.04 2521.01
   18:03:12.967.25-Dec-2020 4856.51 3918.42 64.22 5.00 398.24 2521.01
   18:03:13.167.25-Dec-2020 4856.51 3918.67 64.22 5.00 398.44 2521.01
   18:03:13.367.25-Dec-2020 4856.51 3919.07 64.22 5.00 398.64 2521.01
   18:03:13.567.25-Dec-2020 4856.51 3919.52 64.22 5.00 398.84 2521.01
   18:03:13.767.25-Dec-2020 4856.51 3919.52 64.22 5.00 399.04 2521.01
   18:03:13.967.25-Dec-2020 4856.51 3919.64 64.22 5.00 399.24 2521.01
   18:03:14.167.25-Dec-2020 4856.51 3919.93 64.22 5.00 399.44 2521.01
   18:03:14.367.25-Dec-2020 4856.51 3919.95 64.22 5.00 399.64 2521.01
   18:03:14.567.25-Dec-2020 4856.51 3920.04 64.22 5.00 399.84 2521.01
   18:03:14.767.25-Dec-2020 4856.51 3920.04 64.22 5.00 400.04 2521.01
   18:03:14.967.25-Dec-2020 4856.51 3920.12 64.22 5.00 400.24 2521.01
   18:03:15.167.25-Dec-2020 4856.51 3920.23 64.22 5.00 400.44 2521.01
   18:03:15.367.25-Dec-2020 4856.51 3919.87 64.22 5.00 400.64 2521.01
   18:03:15.566.25-Dec-2020 4856.51 3919.63 64.22 5.00 400.84 2521.01
   18:03:15.766.25-Dec-2020 4856.51 3919.63 64.22 5.00 401.04 2521.01
   18:03:15.966.25-Dec-2020 4856.51 3919.88 64.22 5.00 401.24 2521.01
   18:03:16.166.25-Dec-2020 4856.51 3919.70 64.22 5.00 401.44 2521.01
   18:03:16.366.25-Dec-2020 4856.51 3919.67 64.22 5.00 401.64 2521.01
   18:03:16.566.25-Dec-2020 4856.51 3919.95 64.22 5.00 401.84 2521.01
   18:03:16.766.25-Dec-2020 4856.51 3919.95 64.22 5.00 402.04 2521.01
   18:03:16.966.25-Dec-2020 4856.51 3920.04 64.22 5.00 402.24 2521.01
   18:03:17.166.25-Dec-2020 4856.51 3920.12 64.22 5.00 402.44 2521.01
   18:03:17.366.25-Dec-2020 4856.51 3920.03 64.22 5.00 402.64 2521.01
   18:03:17.566.25-Dec-2020 4856.51 3920.08 64.22 5.00 402.84 2521.01
   18:03:17.766.25-Dec-2020 4856.51 3920.08 64.22 5.00 403.04 2521.01
   18:03:17.965.25-Dec-2020 4856.51 3919.22 64.22 5.00 403.24 2521.01
   18:03:18.165.25-Dec-2020 4856.51 3919.84 64.22 5.00 403.44 2521.01
   18:03:18.365.25-Dec-2020 4856.51 3919.54 64.22 5.00 403.64 2521.01
   18:03:18.565.25-Dec-2020 4856.51 3919.01 64.22 5.00 403.84 2521.01
   18:03:18.765.25-Dec-2020 4856.51 3919.01 64.22 5.00 404.04 2521.01
   18:03:18.965.25-Dec-2020 4856.51 3918.77 64.22 5.00 404.24 2521.01
   18:03:19.165.25-Dec-2020 4856.51 3919.23 64.22 5.00 404.44 2521.01
   18:03:19.365.25-Dec-2020 4856.51 3919.19 64.22 5.00 404.64 2521.01
   18:03:19.565.25-Dec-2020 4856.51 3918.40 64.22 5.00 404.84 2521.01
   18:03:19.765.25-Dec-2020 4856.51 3918.40 64.22 5.00 405.04 2521.01
   18:03:19.965.25-Dec-2020 4856.51 3918.92 64.22 5.00 405.24 2521.01
   18:03:20.165.25-Dec-2020 4856.51 3919.08 64.22 5.00 405.44 2521.01
   18:03:20.365.25-Dec-2020 4856.51 3918.79 64.22 5.00 405.64 2521.01
   18:03:20.564.25-Dec-2020 4856.51 3918.74 64.22 5.00 405.84 2521.01
   18:03:20.764.25-Dec-2020 4856.51 3918.74 64.22 5.00 406.04 2521.01
   18:03:20.964.25-Dec-2020 4856.51 3919.42 64.22 5.00 406.24 2521.01
   18:03:21.164.25-Dec-2020 4856.51 3919.50 64.22 5.00 406.44 2521.01
   18:03:21.364.25-Dec-2020 4856.51 3919.63 64.22 5.00 406.64 2521.01
   18:03:21.564.25-Dec-2020 4856.51 3919.95 64.22 5.00 406.84 2521.01
   18:03:21.764.25-Dec-2020 4856.51 3919.95 64.22 5.00 407.04 2521.01
   18:03:21.964.25-Dec-2020 4856.51 3920.09 64.22 5.00 407.24 2521.01
   18:03:22.164.25-Dec-2020 4856.51 3920.17 64.22 5.00 407.44 2521.01
   18:03:22.364.25-Dec-2020 4856.51 3920.14 64.22 5.00 407.64 2521.01
   18:03:22.564.25-Dec-2020 4856.51 3920.20 64.22 5.00 407.84 2521.01
   18:03:22.764.25-Dec-2020 4856.51 3920.20 64.22 5.00 408.04 2521.01
   18:03:22.964.25-Dec-2020 4856.51 3919.34 64.22 5.00 408.24 2521.01
   18:03:23.163.25-Dec-2020 4856.51 3920.11 64.22 5.00 408.44 2521.01
   18:03:23.363.25-Dec-2020 4856.51 3919.81 64.22 5.00 408.64 2521.01
   18:03:23.563.25-Dec-2020 4856.51 3919.73 64.22 5.00 408.84 2521.01
   18:03:23.763.25-Dec-2020 4856.51 3919.73 64.22 5.00 409.04 2521.01
   18:03:23.963.25-Dec-2020 4856.51 3919.99 64.22 5.00 409.24 2521.01
   18:03:24.163.25-Dec-2020 4856.51 3920.11 64.22 5.00 409.44 2521.01
   18:03:24.363.25-Dec-2020 4856.51 3920.10 64.22 5.00 409.64 2521.01
   18:03:24.563.25-Dec-2020 4856.51 3920.24 64.22 5.00 409.84 2521.01
   18:03:24.763.25-Dec-2020 4856.51 3920.24 64.22 5.00 410.04 2521.01
   18:03:24.963.25-Dec-2020 4856.51 3920.25 64.22 5.00 410.24 2521.01
   18:03:25.163.25-Dec-2020 4856.51 3920.33 64.22 5.00 410.44 2521.01
   18:03:25.363.25-Dec-2020 4856.51 3920.22 64.22 5.00 410.64 2521.01
   18:03:25.562.25-Dec-2020 4856.51 3919.45 64.22 5.00 410.84 2521.01
   18:03:25.762.25-Dec-2020 4856.51 3919.45 64.22 5.00 411.04 2521.01
   18:03:25.962.25-Dec-2020 4856.51 3919.60 64.22 5.00 411.24 2521.01
   18:03:26.162.25-Dec-2020 4856.51 3918.68 64.22 5.00 411.44 2521.01
   18:03:26.362.25-Dec-2020 4856.51 3919.09 64.22 5.00 411.64 2521.01
   18:03:26.562.25-Dec-2020 4856.51 3919.11 64.22 5.00 411.84 2521.01
   18:03:26.762.25-Dec-2020 4856.51 3919.11 64.22 5.00 412.04 2521.01
   18:03:26.962.25-Dec-2020 4856.51 3919.32 64.22 5.00 412.24 2521.01
   18:03:27.162.25-Dec-2020 4856.51 3918.61 64.22 5.00 412.44 2521.01
   18:03:27.362.25-Dec-2020 4856.51 3918.93 64.22 5.00 412.64 2521.01
   18:03:27.562.25-Dec-2020 4856.51 3919.01 64.22 5.00 412.84 2521.01
   18:03:27.762.25-Dec-2020 4856.51 3919.01 64.22 5.00 413.04 2521.01
   18:03:27.962.25-Dec-2020 4856.51 3918.51 64.22 5.00 413.24 2521.01
   18:03:28.161.25-Dec-2020 4856.51 3919.16 64.22 5.00 413.44 2521.01
   18:03:28.361.25-Dec-2020 4856.51 3919.16 64.22 5.00 413.64 2521.01
