~Version Information
 VERS.                  2.0:   CWLS log ASCII Standard -VERSION 2.0
 WRAP.                   NO:   One line per depth step
~Well Information Block
#MNEM.UNIT     VALUE/NAME     DESCRIPTION
#---------     -----------    ---------------------------
 STRT.S             13:59:04 25-Dec-20: START TIME 13:59:04 25-Dec-20
 STOP.S             14:07:22 25-Dec-20: STOP TIME  14:07:22 25-Dec-20
 STEP.S                   0.00: STEP TIME
 NULL.                 -999.25: NULL VALUE
 DFWT.                        :  DIST FWL TEXT
 DFST.                        :  DIST FSL TEXT
 DMF .             Drill Floor:  DRILL MEAS FROM
 STIM.      04.54.24 22-Sep-20:  START TIME
 DATE.      04.54.24 21-Nov-20:  END TIME
 SPUD.               21-Nov-20:  SPUD DATE
 NREF.                    Grid:  NORTH REFERENCE
 HPTY.       Minimum Curvature:  HOLE POS TYPE
 DMOD.             Drill Model:  DRILL MOD DESC
 SVYD.                  Survey:  SURVEY DESC
 ILTD.               Lithology:  INTERP LTH DESC
 FTOP.          Formation Tops:  FORM TOPS DESC
 SON .        AZ-XX-0906571587:  JOB NUMBER
 COMP.     BP Exploration (Caspian Sea) Ltd:  COMPANY
 UWI .                     N/A:  UNIQUE WELL IDENTIFIER
 API .                     N/A:  API NUMBER
 BASE.              Azerbaijan:  LOGGING EQUIPMENT BASE LOCATION
 REGN.                   EESSA:  REGION
 PROV.                    Baku:  PROVINCE
 STAT.                    Baku:  STATE NAME
 CTRY.              Azerbaijan:  COUNTRY NAME
 FLD .                     ACG:  FIELD NAME
 SRVC.     TURAN Drilling & Engineering:  CONTRACTOR
 WELL.                     J27:  WELL NAME
 RIG .             West Chirag:  RIG NAME
 DOE .                     N/A:  DOE NUMBER
 DCON.         Sperry Drilling:  DIRECTNL CONTR
 PDAT.          Mean Sea Level:  PERMANENT DATUM
 WTYP.                Deviated:  WELL TYPE
 MWDS.                    Baku:  MWD SHOP
 JOBN.        AZ-XX-0906571587:  JOB TICKET NUMB
 UNIT.                     N/A:  LOGGING EQUIPMENT ID
 MDS .        Operator Entered:  MAG DATA SOURCE
 CNTY.                        :  COUNTY
 LOC .                        :  LOCATION
 LMF .             Drill Floor:  LOG MEASURED FROM
 TVDS.m                  43.00:  TVDSS CORRECTN
 LATI.deg                40.13:  LATITUDE
 LONG.deg                51.22:  LONGITUDE
 WHNS.m                   7.72:  WELL HEAD N/S
 WHEW.m                 -14.24:  WELL HEAD E/W
 UTMX.m              519005.06:  UTM X
 UTMY.m             4443793.85:  UTM Y
 DFWL.m                   0.00:  DISTANCE FWL
 DFSL.m                   0.00:  DISTANCE FSL
 SDEP.m                 347.00:  START DEPTH
 TDD .m                 581.00:  TOTAL DEPTH (DRILLER)
 VSDR.deg               159.72:  VERT SEC DIRECT
 GVFD.g                   1.00:  GRAVITY FIELD
 MFLD.nT              50318.00:  MAGNETIC FIELD
 MDIP.deg                59.57:  MAGNETIC DIP
 MDEC.deg                 6.44:  MAGNETIC DECL
 GRDC.deg                 0.15:  GRID CORRECTION
 AZTC.deg                 6.29:  AZM TOTAL CORR
 EPD .m                   0.00:  ELEVATION
 EGL .m                   0.00:  GROUND ELEVATION
 WDMS.m                 169.80:  WD ELEV
 APD .m                  43.00:  DEPTH ABOVE PD
 AGAP.m                  43.00:  AIR GAP
 VSEW.m                 -14.24:  VERT SEC E/W
 VSNS.m                   7.72:  VERT SEC N/S
 DEP .m                 342.45:  DEPTH
 EKB .m                   0.00:  KB ELEVATION
 EDF .m                  43.00:  DF ELEVATION
 TDL .m                 237.00:  TOTAL DEPTH (LOGGER)
 VSC .                       0:  VS TO CLOSURE
 MAGU.                 1851428:  MAGUTM CHECKSUM
~Parameter Information Block
#MNEM.UNIT       Value        Description
#---------     -----------    ---------------------------
 AV  .mps                 1.50:  Ann Velocity 
 AVMX.mps                 2.90:  Max Ann Veloc 
 AZIF.deg               115.59:  Azm, Final 
 BHAT.        Rotary Steerable:  BHA Type 
 BROT.°/30m               0.50:  Build Rotating 
 BS  .in                  8.50:  Bit Size 
 BTPL.psig              580.00:  Bit Press Loss 
 CABU.                     Yes:  Customer Abuse 
 COMM.                     ì©q:  Run Comments 1 
 TCS .hr                 89.79:  Time Ciculation Ended 
 CV  .mps                 3.22:  Crit Velocity 
 CVMX.mps                 4.37:  Max Crit Veloc 
 DD1 .          Rashad Habibov:  Direct Drillr 1 
 DDSV.               Geo-Pilot:  DD Service 
 DEFF.%                  95.00:  % Det Eff 
 DLRX.°/30m               1.94:  Dogleg Rot Max 
 DLSO.°/30m               0.70:  Dogleg Oriented 
 DLSX.°/30m               1.94:  Dogleg Str Max 
 DRET.      04.45.00 25-Dec-20:  Drill End Time 
 DRST.      10.00.00 24-Dec-20:  Drill Start Tim 
 DTIM.hr                 16.64:  Time Drilling 
 EDEP.m                4999.01:  End Depth 
 ENG1.         Elchin Mammadov:  Engineer 1 
 ENG2.          Ruslan Safarov:  Engineer 2 
 ENG3.          Rustam Safarov:  Engineer 3 
 ETIM.      09.00.00 29-Dec-20:  End Time 
 FLOI.gpm               500.00:  Flow In 
 FLON.gpm               400.00:  Flow In Min 
 FLOS.cptm                0.00:  Fluid Loss 
 FLOX.gpm               500.00:  Flow In Max 
 HFLO.                      No:  High Flow 
 HPRE.                      No:  High Pressure 
 HTEM.                      No:  High Temp 
 HYDO.m                   2.00:  Hydro Offset 
 IFIN.deg                66.79:  Inc, Final 
 IMAX.deg                67.66:  Inc Max 
 IMIN.deg                66.39:  Inc Min 
 IMND.m                4949.37:  Inc Min Depth 
 IMXD.m                4778.63:  Inc Max Depth 
 JARR.                     Yes:  Jarring 
 LETM.      04.45.00 25-Dec-20:  Log End Time 
 LOST.hr                     0:  Lost Rig Time 
 LSTM.      10.00.00 24-Dec-20:  Log Start Time 
 MDCL.ppm             39000.00:  Mud Chlorides 
 MDES.     Inversion Oil/Synthetic:  Mud Desc 
 DFD .sg                  1.33:  Mud Density 
 MDMN.sg                  1.33:  Dens Mud Min 
 MDMX.sg                  1.33:  Dens Mud Max 
 MOIL.                      70:  Run Mud Oil % 
 MOWR.                   70:30:  Run Mud OWR 
 MSND.                       0:  Run Mud Sand % 
 MSOL.                    17.4:  Run Mud Solids% 
 DFV .spqt               84.00:  Mud Viscosity 
 MWOD.in                  6.75:  MWD Tool OD 
 MWSI.                     Yes:  Serv Intrp, MWD 
 OTIM.hr                168.14:  Time Operating 
 PCON.           Look Like New:  Pad Condition 
 PMAX.psia            10822.93:  Press Op, Max 
 PV  .cP                 30.00:  Mud PV 
 RUN .                     900:  Run Number 
 ROPA.m/hr               18.00:  ROP Avg 
 ROPN.m/hr               12.00:  ROP Min 
 ROPX.m/hr               25.00:  ROP Max 
 RPMA.rpm               120.00:  RPM Surface Avg 
 RPMN.rpm               100.00:  RPM Surface Min 
 RPMX.rpm               120.00:  RPM Surface Max 
 RRUN.                    0900:  Rig Run Number 
 SAZI.deg               115.08:  Azm, Start 
 SDEP.m                4762.01:  Start Depth 
 SIDD.                      No:  Serv Intrp, DD 
 SINC.deg                66.14:  Inc, Start 
 SPPA.psig             3700.00:  SPP Avg 
 SPPN.psig             3620.00:  SPP Min 
 SPPX.psig             3900.00:  SPP Max 
 STIM.      09.30.00 22-Dec-20:  Start Time 
 SVCS.                 DD, MWD:  Services 
 SVER.                    9.20:  Sperry Version 
 TDAT.m                 237.00:  Tot Depth Attmp 
 TDDF.                      No:  Trip for DD 
 TDLG.m                 237.00:  Tot Depth Loggd 
 TFF .                      No:  Trip for Fail 
 TQAA.f-kp               18.00:  Torque Abs Avg 
 TQAN.f-kp               17.00:  Torque Abs Min 
 TQAX.f-kp               20.00:  Torque Abs Max 
 TRRT.°/30m               0.60:  Turn Rotating 
 MRT .                    HCIM:  Maximum Recorded Temperature 
 TTMX.degC               94.12:  Max Tool Temp 
 VS01.                90627809:  Virtual Str1 SN 
 VS02.                90527813:  Virtual Str2 SN 
 VS03.                90545417:  Virtual Str3 SN 
 VS04.                12460870:  Virtual Str4 SN 
 VS05.                90516706:  Virtual Str5 SN 
 VS06.                90632007:  Virtual Str6 SN 
 WBMN.klb                 0.00:  WOB Min 
 WOBA.klb                14.00:  WOB Avg 
 WOBX.klb                25.00:  WOB Max 
 YP  .lhf2               32.00:  Yield Point 
~Curve Information Block
#MNEM.UNIT                 API CODE     Curve Description
#---------               -----------    ---------------------------
 TIME.HHMMSS            00 000 000 000:  GT Time & Date
 GTDEPTH.m              00 000 000 000:  GT Depth
 GTPQH.psia             00 000 000 000:  GT HR Quartz Pressure
 GTTQ.degC              00 000 000 000:  GT Quartz Temperature
 GTTN.NONE              00 000 000 000:  GT Test Number
 GTET.sec               00 000 000 000:  GT Elapsed Test Time
 GTTVD.m                00 000 000 000:  GT True Vertical Depth
#Other Information
#
#WARRANTY: Halliburton will use its best efforts to furnish customers with 
#accurate information and interpretations that are part of, and incident to, the services 
#provided.  However, Halliburton cannot and does not warrant the accuracy 
#or correctness of such information and interpretations.  Under no circumstances should any 
#such information or interpretation be relied upon as the sole basis for any drilling, 
#completion, production, or financial decision or any procedure involving any risk to the 
#safety of any drilling venture, drilling rig or its crew or any other third party.  The 
#Customer has full responsibility for all drilling, completion and production operation.  
#Halliburton makes no representations or warranties, either expressed or 
#implied, including, but not limited to, the implied warranties of merchantability or fitness 
#for a particular purpose, with respect to the services rendered.  In no event will 
#Halliburton be liable for failure to obtain any particular results or for 
#any damages, including, but not limited to, indirect, special or consequential damages, 
#resulting from the use of any information or interpretation provided by Halliburton.
#
~A           TIME           GTDEPTH  GTPQH  GTTQ  GTTN  GTET   GTTVD  
# ...
   14:01:22.000.25-Dec-2020 4920.01 2664.65 65.74 3.00 138.00 2546.09
   14:01:22.200.25-Dec-2020 4920.01 2664.65 65.74 3.00 138.20 2546.09
   14:01:22.400.25-Dec-2020 4920.01 2664.63 65.74 3.00 138.40 2546.09
   14:01:22.600.25-Dec-2020 4920.01 2664.40 65.74 3.00 138.60 2546.09
   14:01:22.800.25-Dec-2020 4920.01 2665.23 65.74 3.00 138.80 2546.09
   14:01:23.000.25-Dec-2020 4920.01 2664.47 65.74 3.00 139.00 2546.09
   14:01:23.200.25-Dec-2020 4920.01 2664.47 65.74 3.00 139.20 2546.09
   14:01:23.400.25-Dec-2020 4920.01 2664.58 65.74 3.00 139.40 2546.09
   14:01:23.600.25-Dec-2020 4920.01 2664.78 65.74 3.00 139.60 2546.09
   14:01:23.800.25-Dec-2020 4920.01 2664.63 65.74 3.00 139.80 2546.09
   14:01:24.000.25-Dec-2020 4920.01 2664.57 65.74 3.00 140.00 2546.09
   14:01:24.200.25-Dec-2020 4920.01 2664.37 65.74 3.00 140.20 2546.09
   14:01:24.400.25-Dec-2020 4920.01 2665.18 65.74 3.00 140.40 2546.09
   14:01:24.600.25-Dec-2020 4920.01 2664.47 65.74 3.00 140.60 2546.09
   14:01:24.800.25-Dec-2020 4920.01 2664.35 65.74 3.00 140.80 2546.09
   14:01:25.000.25-Dec-2020 4920.01 2665.18 65.74 3.00 141.00 2546.09
   14:01:25.200.25-Dec-2020 4920.01 2665.18 65.74 3.00 141.20 2546.09
   14:01:25.400.25-Dec-2020 4920.01 2664.57 65.74 3.00 141.40 2546.09
   14:01:25.600.25-Dec-2020 4920.01 2664.55 65.74 3.00 141.60 2546.09
   14:01:25.800.25-Dec-2020 4920.01 2664.60 65.74 3.00 141.80 2546.09
   14:01:26.000.25-Dec-2020 4920.01 2664.59 65.74 3.00 142.00 2546.09
   14:01:26.200.25-Dec-2020 4920.01 2664.59 65.74 3.00 142.20 2546.09
   14:01:26.400.25-Dec-2020 4920.01 2664.61 65.74 3.00 142.40 2546.09
   14:01:26.600.25-Dec-2020 4920.01 2664.59 65.74 3.00 142.60 2546.09
   14:01:26.800.25-Dec-2020 4920.01 2664.63 65.74 3.00 142.80 2546.09
   14:01:27.000.25-Dec-2020 4920.01 2664.62 65.74 3.00 143.00 2546.09
   14:01:27.200.25-Dec-2020 4920.01 2664.63 65.74 3.00 143.20 2546.09
   14:01:27.400.25-Dec-2020 4920.01 2664.60 65.74 3.00 143.40 2546.09
   14:01:27.600.25-Dec-2020 4920.01 2664.77 65.74 3.00 143.60 2546.09
   14:01:27.800.25-Dec-2020 4920.01 2664.67 65.74 3.00 143.80 2546.09
   14:01:28.000.25-Dec-2020 4920.01 2664.62 65.74 3.00 144.00 2546.09
   14:01:28.200.25-Dec-2020 4920.01 2664.62 65.74 3.00 144.20 2546.09
   14:01:28.400.25-Dec-2020 4920.01 2664.60 65.74 3.00 144.40 2546.09
   14:01:28.600.25-Dec-2020 4920.01 2664.62 65.74 3.00 144.60 2546.09
   14:01:28.800.25-Dec-2020 4920.01 2664.61 65.74 3.00 144.80 2546.09
   14:01:29.000.25-Dec-2020 4920.01 2664.63 65.74 3.00 145.00 2546.09
   14:01:29.200.25-Dec-2020 4920.01 2664.63 65.74 3.00 145.20 2546.09
   14:01:29.400.25-Dec-2020 4920.01 2664.65 65.74 3.00 145.40 2546.09
   14:01:29.600.25-Dec-2020 4920.01 2664.62 65.74 3.00 145.60 2546.09
   14:01:29.800.25-Dec-2020 4920.01 2664.39 65.74 3.00 145.80 2546.09
   14:01:30.000.25-Dec-2020 4920.01 2665.19 65.74 3.00 146.00 2546.09
   14:01:30.200.25-Dec-2020 4920.01 2665.19 65.74 3.00 146.20 2546.09
   14:01:30.400.25-Dec-2020 4920.01 2664.61 65.74 3.00 146.40 2546.09
   14:01:30.600.25-Dec-2020 4920.01 2664.58 65.74 3.00 146.60 2546.09
   14:01:30.800.25-Dec-2020 4920.01 2664.77 65.74 3.00 146.80 2546.09
   14:01:31.000.25-Dec-2020 4920.01 2664.58 65.74 3.00 147.00 2546.09
   14:01:31.200.25-Dec-2020 4920.01 2664.57 65.74 3.00 147.20 2546.09
   14:01:31.400.25-Dec-2020 4920.01 2664.35 65.74 3.00 147.40 2546.09
   14:01:31.600.25-Dec-2020 4920.01 2665.15 65.74 3.00 147.60 2546.09
   14:01:31.800.25-Dec-2020 4920.01 2664.49 65.74 3.00 147.80 2546.09
   14:01:32.000.25-Dec-2020 4920.01 2664.34 65.74 3.00 148.00 2546.09
   14:01:32.200.25-Dec-2020 4920.01 2665.19 65.74 3.00 148.20 2546.09
   14:01:32.400.25-Dec-2020 4920.01 2664.48 65.74 3.00 148.40 2546.09
   14:01:32.600.25-Dec-2020 4920.01 2664.54 65.74 3.00 148.60 2546.09
   14:01:32.800.25-Dec-2020 4920.01 2664.56 65.74 3.00 148.80 2546.09
   14:01:33.000.25-Dec-2020 4920.01 2664.57 65.74 3.00 149.00 2546.09
   14:01:33.200.25-Dec-2020 4920.01 2664.57 65.74 3.00 149.20 2546.09
   14:01:33.400.25-Dec-2020 4920.01 2664.60 65.74 3.00 149.40 2546.09
   14:01:33.600.25-Dec-2020 4920.01 2664.58 65.74 3.00 149.60 2546.09
   14:01:33.800.25-Dec-2020 4920.01 2664.61 65.74 3.00 149.80 2546.09
   14:01:34.000.25-Dec-2020 4920.01 2664.61 65.74 3.00 150.00 2546.09
   14:01:34.200.25-Dec-2020 4920.01 2664.61 65.74 3.00 150.20 2546.09
   14:01:34.400.25-Dec-2020 4920.01 2664.62 65.74 3.00 150.40 2546.09
   14:01:34.600.25-Dec-2020 4920.01 2664.54 65.74 3.00 150.60 2546.09
   14:01:34.800.25-Dec-2020 4920.01 2664.77 65.74 3.00 150.80 2546.09
   14:01:35.000.25-Dec-2020 4920.01 2664.66 65.74 3.00 151.00 2546.09
   14:01:35.200.25-Dec-2020 4920.01 2664.62 65.74 3.00 151.20 2546.09
   14:01:35.400.25-Dec-2020 4920.01 2664.60 65.74 3.00 151.40 2546.09
   14:01:35.600.25-Dec-2020 4920.01 2664.56 65.74 3.00 151.60 2546.09
   14:01:35.800.25-Dec-2020 4920.01 2664.62 65.74 3.00 151.80 2546.09
   14:01:36.000.25-Dec-2020 4920.01 2664.60 65.74 3.00 152.00 2546.09
   14:01:36.200.25-Dec-2020 4920.01 2664.61 65.74 3.00 152.20 2546.09
   14:01:36.400.25-Dec-2020 4920.01 2664.64 65.74 3.00 152.40 2546.09
   14:01:36.600.25-Dec-2020 4920.01 2664.60 65.74 3.00 152.60 2546.09
   14:01:36.800.25-Dec-2020 4920.01 2664.62 65.74 3.00 152.80 2546.09
   14:01:37.000.25-Dec-2020 4920.01 2664.36 65.74 3.00 153.00 2546.09
   14:01:37.200.25-Dec-2020 4920.01 2664.36 65.74 3.00 153.20 2546.09
   14:01:37.400.25-Dec-2020 4920.01 2664.46 65.74 3.00 153.40 2546.09
   14:01:37.600.25-Dec-2020 4920.01 2664.56 65.74 3.00 153.60 2546.09
   14:01:37.800.25-Dec-2020 4920.01 2664.58 65.74 3.00 153.80 2546.09
   14:01:38.000.25-Dec-2020 4920.01 2664.78 65.74 3.00 154.00 2546.09
   14:01:38.200.25-Dec-2020 4920.01 2664.78 65.74 3.00 154.20 2546.09
   14:01:38.400.25-Dec-2020 4920.01 2664.58 65.74 3.00 154.40 2546.09
   14:01:38.600.25-Dec-2020 4920.01 2664.33 65.74 3.00 154.60 2546.09
   14:01:38.800.25-Dec-2020 4920.01 2665.17 65.74 3.00 154.80 2546.09
   14:01:39.000.25-Dec-2020 4920.01 2664.47 65.74 3.00 155.00 2546.09
   14:01:39.200.25-Dec-2020 4920.01 2664.29 65.74 3.00 155.20 2546.09
   14:01:39.400.25-Dec-2020 4920.01 2665.21 65.74 3.00 155.40 2546.09
   14:01:39.600.25-Dec-2020 4920.01 2664.47 65.74 3.00 155.60 2546.09
   14:01:39.800.25-Dec-2020 4920.01 2664.56 65.74 3.00 155.80 2546.09
   14:01:40.000.25-Dec-2020 4920.01 2664.58 65.74 3.00 156.00 2546.09
   14:01:40.200.25-Dec-2020 4920.01 2664.58 65.74 3.00 156.20 2546.09
   14:01:40.400.25-Dec-2020 4920.01 2664.59 65.74 3.00 156.40 2546.09
   14:01:40.600.25-Dec-2020 4920.01 2664.57 65.74 3.00 156.60 2546.09
   14:01:40.800.25-Dec-2020 4920.01 2664.59 65.74 3.00 156.80 2546.09
   14:01:41.000.25-Dec-2020 4920.01 2664.60 65.74 3.00 157.00 2546.09
   14:01:41.200.25-Dec-2020 4920.01 2664.60 65.74 3.00 157.20 2546.09
   14:01:41.400.25-Dec-2020 4920.01 2664.61 65.74 3.00 157.40 2546.09
   14:01:41.600.25-Dec-2020 4920.01 2664.60 65.74 3.00 157.60 2546.09
   14:01:41.800.25-Dec-2020 4920.01 2664.56 65.74 3.00 157.80 2546.09
   14:01:42.000.25-Dec-2020 4920.01 2664.79 65.74 3.00 158.00 2546.09
   14:01:42.200.25-Dec-2020 4920.01 2664.79 65.74 3.00 158.20 2546.09
   14:01:42.400.25-Dec-2020 4920.01 2664.62 65.74 3.00 158.40 2546.09
   14:01:42.600.25-Dec-2020 4920.01 2664.59 65.74 3.00 158.60 2546.09
   14:01:42.800.25-Dec-2020 4920.01 2664.58 65.74 3.00 158.80 2546.09
   14:01:43.000.25-Dec-2020 4920.01 2664.62 65.74 3.00 159.00 2546.09
   14:01:43.200.25-Dec-2020 4920.01 2664.62 65.74 3.00 159.20 2546.09
   14:01:43.400.25-Dec-2020 4920.01 2664.61 65.74 3.00 159.40 2546.09
   14:01:43.600.25-Dec-2020 4920.01 2664.63 65.74 3.00 159.60 2546.09
   14:01:43.800.25-Dec-2020 4920.01 2664.60 65.74 3.00 159.80 2546.09
   14:01:44.000.25-Dec-2020 4920.01 2664.60 65.74 3.00 160.00 2546.09
   14:01:44.200.25-Dec-2020 4920.01 2664.31 65.74 3.00 160.20 2546.09
   14:01:44.400.25-Dec-2020 4920.01 2665.23 65.74 3.00 160.40 2546.09
   14:01:44.600.25-Dec-2020 4920.01 2664.46 65.74 3.00 160.60 2546.09
   14:01:44.800.25-Dec-2020 4920.01 2664.56 65.74 3.00 160.80 2546.09
