~Version Information
 VERS.                  2.0:   CWLS log ASCII Standard -VERSION 2.0
 WRAP.                   NO:   One line per depth step
~Well Information Block
#MNEM.UNIT     VALUE/NAME     DESCRIPTION
#---------     -----------    ---------------------------
 STRT.S             20:22:11 25-Dec-20: START TIME 20:22:11 25-Dec-20
 STOP.S             20:30:35 25-Dec-20: STOP TIME  20:30:35 25-Dec-20
 STEP.S                   0.00: STEP TIME
 NULL.                 -999.25: NULL VALUE
 DFWT.                        :  DIST FWL TEXT
 DFST.                        :  DIST FSL TEXT
 DMF .             Drill Floor:  DRILL MEAS FROM
 STIM.      04.54.24 22-Sep-20:  START TIME
 DATE.      04.54.24 21-Nov-20:  END TIME
 SPUD.               21-Nov-20:  SPUD DATE
 NREF.                    Grid:  NORTH REFERENCE
 HPTY.       Minimum Curvature:  HOLE POS TYPE
 DMOD.             Drill Model:  DRILL MOD DESC
 SVYD.                  Survey:  SURVEY DESC
 ILTD.               Lithology:  INTERP LTH DESC
 FTOP.          Formation Tops:  FORM TOPS DESC
 SON .        AZ-XX-0906571587:  JOB NUMBER
 COMP.     BP Exploration (Caspian Sea) Ltd:  COMPANY
 UWI .                     N/A:  UNIQUE WELL IDENTIFIER
 API .                     N/A:  API NUMBER
 BASE.              Azerbaijan:  LOGGING EQUIPMENT BASE LOCATION
 REGN.                   EESSA:  REGION
 PROV.                    Baku:  PROVINCE
 STAT.                    Baku:  STATE NAME
 CTRY.              Azerbaijan:  COUNTRY NAME
 FLD .                     ACG:  FIELD NAME
 SRVC.     TURAN Drilling & Engineering:  CONTRACTOR
 WELL.                     J27:  WELL NAME
 RIG .             West Chirag:  RIG NAME
 DOE .                     N/A:  DOE NUMBER
 DCON.         Sperry Drilling:  DIRECTNL CONTR
 PDAT.          Mean Sea Level:  PERMANENT DATUM
 WTYP.                Deviated:  WELL TYPE
 MWDS.                    Baku:  MWD SHOP
 JOBN.        AZ-XX-0906571587:  JOB TICKET NUMB
 UNIT.                     N/A:  LOGGING EQUIPMENT ID
 MDS .        Operator Entered:  MAG DATA SOURCE
 CNTY.                        :  COUNTY
 LOC .                        :  LOCATION
 LMF .             Drill Floor:  LOG MEASURED FROM
 TVDS.m                  43.00:  TVDSS CORRECTN
 LATI.deg                40.13:  LATITUDE
 LONG.deg                51.22:  LONGITUDE
 WHNS.m                   7.72:  WELL HEAD N/S
 WHEW.m                 -14.24:  WELL HEAD E/W
 UTMX.m              519005.06:  UTM X
 UTMY.m             4443793.85:  UTM Y
 DFWL.m                   0.00:  DISTANCE FWL
 DFSL.m                   0.00:  DISTANCE FSL
 SDEP.m                 347.00:  START DEPTH
 TDD .m                 581.00:  TOTAL DEPTH (DRILLER)
 VSDR.deg               159.72:  VERT SEC DIRECT
 GVFD.g                   1.00:  GRAVITY FIELD
 MFLD.nT              50318.00:  MAGNETIC FIELD
 MDIP.deg                59.57:  MAGNETIC DIP
 MDEC.deg                 6.44:  MAGNETIC DECL
 GRDC.deg                 0.15:  GRID CORRECTION
 AZTC.deg                 6.29:  AZM TOTAL CORR
 EPD .m                   0.00:  ELEVATION
 EGL .m                   0.00:  GROUND ELEVATION
 WDMS.m                 169.80:  WD ELEV
 APD .m                  43.00:  DEPTH ABOVE PD
 AGAP.m                  43.00:  AIR GAP
 VSEW.m                 -14.24:  VERT SEC E/W
 VSNS.m                   7.72:  VERT SEC N/S
 DEP .m                 342.45:  DEPTH
 EKB .m                   0.00:  KB ELEVATION
 EDF .m                  43.00:  DF ELEVATION
 TDL .m                 237.00:  TOTAL DEPTH (LOGGER)
 VSC .                       0:  VS TO CLOSURE
 MAGU.                 1851428:  MAGUTM CHECKSUM
~Parameter Information Block
#MNEM.UNIT       Value        Description
#---------     -----------    ---------------------------
 AV  .mps                 1.50:  Ann Velocity 
 AVMX.mps                 2.90:  Max Ann Veloc 
 AZIF.deg               115.59:  Azm, Final 
 BHAT.        Rotary Steerable:  BHA Type 
 BROT.°/30m               0.50:  Build Rotating 
 BS  .in                  8.50:  Bit Size 
 BTPL.psig              580.00:  Bit Press Loss 
 CABU.                     Yes:  Customer Abuse 
 COMM.                     ”Cf:  Run Comments 1 
 TCS .hr                 89.79:  Time Ciculation Ended 
 CV  .mps                 3.22:  Crit Velocity 
 CVMX.mps                 4.37:  Max Crit Veloc 
 DD1 .          Rashad Habibov:  Direct Drillr 1 
 DDSV.               Geo-Pilot:  DD Service 
 DEFF.%                  95.00:  % Det Eff 
 DLRX.°/30m               1.94:  Dogleg Rot Max 
 DLSO.°/30m               0.70:  Dogleg Oriented 
 DLSX.°/30m               1.94:  Dogleg Str Max 
 DRET.      04.45.00 25-Dec-20:  Drill End Time 
 DRST.      10.00.00 24-Dec-20:  Drill Start Tim 
 DTIM.hr                 16.64:  Time Drilling 
 EDEP.m                4999.01:  End Depth 
 ENG1.         Elchin Mammadov:  Engineer 1 
 ENG2.          Ruslan Safarov:  Engineer 2 
 ENG3.          Rustam Safarov:  Engineer 3 
 ETIM.      09.00.00 29-Dec-20:  End Time 
 FLOI.gpm               500.00:  Flow In 
 FLON.gpm               400.00:  Flow In Min 
 FLOS.cptm                0.00:  Fluid Loss 
 FLOX.gpm               500.00:  Flow In Max 
 HFLO.                      No:  High Flow 
 HPRE.                      No:  High Pressure 
 HTEM.                      No:  High Temp 
 HYDO.m                   2.00:  Hydro Offset 
 IFIN.deg                66.79:  Inc, Final 
 IMAX.deg                67.66:  Inc Max 
 IMIN.deg                66.39:  Inc Min 
 IMND.m                4949.37:  Inc Min Depth 
 IMXD.m                4778.63:  Inc Max Depth 
 JARR.                     Yes:  Jarring 
 LETM.      04.45.00 25-Dec-20:  Log End Time 
 LOST.hr                     0:  Lost Rig Time 
 LSTM.      10.00.00 24-Dec-20:  Log Start Time 
 MDCL.ppm             39000.00:  Mud Chlorides 
 MDES.     Inversion Oil/Synthetic:  Mud Desc 
 DFD .sg                  1.33:  Mud Density 
 MDMN.sg                  1.33:  Dens Mud Min 
 MDMX.sg                  1.33:  Dens Mud Max 
 MOIL.                      70:  Run Mud Oil % 
 MOWR.                   70:30:  Run Mud OWR 
 MSND.                       0:  Run Mud Sand % 
 MSOL.                    17.4:  Run Mud Solids% 
 DFV .spqt               84.00:  Mud Viscosity 
 MWOD.in                  6.75:  MWD Tool OD 
 MWSI.                     Yes:  Serv Intrp, MWD 
 OTIM.hr                168.14:  Time Operating 
 PCON.           Look Like New:  Pad Condition 
 PMAX.psia            10822.93:  Press Op, Max 
 PV  .cP                 30.00:  Mud PV 
 RUN .                     900:  Run Number 
 ROPA.m/hr               18.00:  ROP Avg 
 ROPN.m/hr               12.00:  ROP Min 
 ROPX.m/hr               25.00:  ROP Max 
 RPMA.rpm               120.00:  RPM Surface Avg 
 RPMN.rpm               100.00:  RPM Surface Min 
 RPMX.rpm               120.00:  RPM Surface Max 
 RRUN.                    0900:  Rig Run Number 
 SAZI.deg               115.08:  Azm, Start 
 SDEP.m                4762.01:  Start Depth 
 SIDD.                      No:  Serv Intrp, DD 
 SINC.deg                66.14:  Inc, Start 
 SPPA.psig             3700.00:  SPP Avg 
 SPPN.psig             3620.00:  SPP Min 
 SPPX.psig             3900.00:  SPP Max 
 STIM.      09.30.00 22-Dec-20:  Start Time 
 SVCS.                 DD, MWD:  Services 
 SVER.                    9.20:  Sperry Version 
 TDAT.m                 237.00:  Tot Depth Attmp 
 TDDF.                      No:  Trip for DD 
 TDLG.m                 237.00:  Tot Depth Loggd 
 TFF .                      No:  Trip for Fail 
 TQAA.f-kp               18.00:  Torque Abs Avg 
 TQAN.f-kp               17.00:  Torque Abs Min 
 TQAX.f-kp               20.00:  Torque Abs Max 
 TRRT.°/30m               0.60:  Turn Rotating 
 MRT .                    HCIM:  Maximum Recorded Temperature 
 TTMX.degC               94.12:  Max Tool Temp 
 VS01.                90627809:  Virtual Str1 SN 
 VS02.                90527813:  Virtual Str2 SN 
 VS03.                90545417:  Virtual Str3 SN 
 VS04.                12460870:  Virtual Str4 SN 
 VS05.                90516706:  Virtual Str5 SN 
 VS06.                90632007:  Virtual Str6 SN 
 WBMN.klb                 0.00:  WOB Min 
 WOBA.klb                14.00:  WOB Avg 
 WOBX.klb                25.00:  WOB Max 
 YP  .lhf2               32.00:  Yield Point 
~Curve Information Block
#MNEM.UNIT                 API CODE     Curve Description
#---------               -----------    ---------------------------
 TIME.HHMMSS            00 000 000 000:  GT Time & Date
 GTDEPTH.m              00 000 000 000:  GT Depth
 GTPQH.psia             00 000 000 000:  GT HR Quartz Pressure
 GTTQ.degC              00 000 000 000:  GT Quartz Temperature
 GTTN.NONE              00 000 000 000:  GT Test Number
 GTET.sec               00 000 000 000:  GT Elapsed Test Time
 GTTVD.m                00 000 000 000:  GT True Vertical Depth
#Other Information
#
#WARRANTY: Halliburton will use its best efforts to furnish customers with 
#accurate information and interpretations that are part of, and incident to, the services 
#provided.  However, Halliburton cannot and does not warrant the accuracy 
#or correctness of such information and interpretations.  Under no circumstances should any 
#such information or interpretation be relied upon as the sole basis for any drilling, 
#completion, production, or financial decision or any procedure involving any risk to the 
#safety of any drilling venture, drilling rig or its crew or any other third party.  The 
#Customer has full responsibility for all drilling, completion and production operation.  
#Halliburton makes no representations or warranties, either expressed or 
#implied, including, but not limited to, the implied warranties of merchantability or fitness 
#for a particular purpose, with respect to the services rendered.  In no event will 
#Halliburton be liable for failure to obtain any particular results or for 
#any damages, including, but not limited to, indirect, special or consequential damages, 
#resulting from the use of any information or interpretation provided by Halliburton.
#
~A           TIME           GTDEPTH  GTPQH  GTTQ  GTTN  GTET   GTTVD  
# ...
   20:27:56.856.25-Dec-2020 4794.01 2302.73 63.83 8.00 344.98 2496.73
   20:27:57.056.25-Dec-2020 4794.01 2302.76 63.83 8.00 345.18 2496.73
   20:27:57.256.25-Dec-2020 4794.01 2302.61 63.83 8.00 345.38 2496.73
   20:27:57.456.25-Dec-2020 4794.01 2302.91 63.83 8.00 345.58 2496.73
   20:27:57.656.25-Dec-2020 4794.01 2302.47 63.83 8.00 345.78 2496.73
   20:27:57.856.25-Dec-2020 4794.01 2302.93 63.83 8.00 345.98 2496.73
   20:27:58.056.25-Dec-2020 4794.01 2302.93 63.83 8.00 346.18 2496.73
   20:27:58.256.25-Dec-2020 4794.01 2302.67 63.83 8.00 346.38 2496.73
   20:27:58.456.25-Dec-2020 4794.01 2302.69 63.83 8.00 346.58 2496.73
   20:27:58.656.25-Dec-2020 4794.01 2302.87 63.83 8.00 346.78 2496.73
   20:27:58.856.25-Dec-2020 4794.01 2302.75 63.83 8.00 346.98 2496.73
   20:27:59.056.25-Dec-2020 4794.01 2302.75 63.83 8.00 347.18 2496.73
   20:27:59.256.25-Dec-2020 4794.01 2302.53 63.83 8.00 347.38 2496.73
   20:27:59.456.25-Dec-2020 4794.01 2303.06 63.83 8.00 347.58 2496.73
   20:27:59.656.25-Dec-2020 4794.01 2302.57 63.83 8.00 347.78 2496.73
   20:27:59.856.25-Dec-2020 4794.01 2302.93 63.83 8.00 347.98 2496.73
   20:28:00.056.25-Dec-2020 4794.01 2302.93 63.83 8.00 348.18 2496.73
   20:28:00.256.25-Dec-2020 4794.01 2302.75 63.83 8.00 348.38 2496.73
   20:28:00.456.25-Dec-2020 4794.01 2302.76 63.83 8.00 348.58 2496.73
   20:28:00.656.25-Dec-2020 4794.01 2302.72 63.83 8.00 348.78 2496.73
   20:28:00.856.25-Dec-2020 4794.01 2302.76 63.83 8.00 348.98 2496.73
   20:28:01.056.25-Dec-2020 4794.01 2302.72 63.83 8.00 349.18 2496.73
   20:28:01.256.25-Dec-2020 4794.01 2302.73 63.83 8.00 349.38 2496.73
   20:28:01.456.25-Dec-2020 4794.01 2302.78 63.83 8.00 349.58 2496.73
   20:28:01.656.25-Dec-2020 4794.01 2302.74 63.83 8.00 349.78 2496.73
   20:28:01.856.25-Dec-2020 4794.01 2302.66 63.83 8.00 349.98 2496.73
   20:28:02.056.25-Dec-2020 4794.01 2302.66 63.83 8.00 350.18 2496.73
   20:28:02.256.25-Dec-2020 4794.01 2302.66 63.83 8.00 350.38 2496.73
   20:28:02.456.25-Dec-2020 4794.01 2302.80 63.83 8.00 350.58 2496.73
   20:28:02.656.25-Dec-2020 4794.01 2302.78 63.83 8.00 350.78 2496.73
   20:28:02.856.25-Dec-2020 4794.01 2302.70 63.83 8.00 350.98 2496.73
   20:28:03.055.25-Dec-2020 4794.01 2302.70 63.83 8.00 351.18 2496.73
   20:28:03.255.25-Dec-2020 4794.01 2302.72 63.83 8.00 351.38 2496.73
   20:28:03.455.25-Dec-2020 4794.01 2302.78 63.83 8.00 351.58 2496.73
   20:28:03.655.25-Dec-2020 4794.01 2302.75 63.83 8.00 351.78 2496.73
   20:28:03.855.25-Dec-2020 4794.01 2302.73 63.83 8.00 351.98 2496.73
   20:28:04.055.25-Dec-2020 4794.01 2302.73 63.83 8.00 352.18 2496.73
   20:28:04.255.25-Dec-2020 4794.01 2302.49 63.83 8.00 352.38 2496.73
   20:28:04.455.25-Dec-2020 4794.01 2303.19 63.83 8.00 352.58 2496.73
   20:28:04.655.25-Dec-2020 4794.01 2302.64 63.83 8.00 352.78 2496.73
   20:28:04.855.25-Dec-2020 4794.01 2302.72 63.83 8.00 352.98 2496.73
   20:28:05.055.25-Dec-2020 4794.01 2302.81 63.83 8.00 353.18 2496.73
   20:28:05.255.25-Dec-2020 4794.01 2302.73 63.83 8.00 353.38 2496.73
   20:28:05.455.25-Dec-2020 4794.01 2302.73 63.83 8.00 353.58 2496.73
   20:28:05.655.25-Dec-2020 4794.01 2302.75 63.83 8.00 353.78 2496.73
   20:28:05.855.25-Dec-2020 4794.01 2302.80 63.83 8.00 353.98 2496.73
   20:28:06.055.25-Dec-2020 4794.01 2302.80 63.83 8.00 354.18 2496.73
   20:28:06.255.25-Dec-2020 4794.01 2302.69 63.83 8.00 354.38 2496.73
   20:28:06.455.25-Dec-2020 4794.01 2302.56 63.83 8.00 354.58 2496.73
   20:28:06.655.25-Dec-2020 4794.01 2303.17 63.83 8.00 354.78 2496.73
   20:28:06.855.25-Dec-2020 4794.01 2302.64 63.83 8.00 354.98 2496.73
   20:28:07.055.25-Dec-2020 4794.01 2302.64 63.83 8.00 355.18 2496.73
   20:28:07.255.25-Dec-2020 4794.01 2302.77 63.83 8.00 355.38 2496.73
   20:28:07.455.25-Dec-2020 4794.01 2302.88 63.83 8.00 355.58 2496.73
   20:28:07.655.25-Dec-2020 4794.01 2302.55 63.83 8.00 355.78 2496.73
   20:28:07.855.25-Dec-2020 4794.01 2302.97 63.83 8.00 355.98 2496.73
   20:28:08.055.25-Dec-2020 4794.01 2302.97 63.83 8.00 356.18 2496.73
   20:28:08.255.25-Dec-2020 4794.01 2302.75 63.83 8.00 356.38 2496.73
   20:28:08.455.25-Dec-2020 4794.01 2302.83 63.83 8.00 356.58 2496.73
   20:28:08.655.25-Dec-2020 4794.01 2302.73 63.83 8.00 356.78 2496.73
   20:28:08.855.25-Dec-2020 4794.01 2302.76 63.83 8.00 356.98 2496.73
   20:28:09.055.25-Dec-2020 4794.01 2302.76 63.83 8.00 357.18 2496.73
   20:28:09.255.25-Dec-2020 4794.01 2302.76 63.83 8.00 357.38 2496.73
   20:28:09.455.25-Dec-2020 4794.01 2302.80 63.83 8.00 357.58 2496.73
   20:28:09.655.25-Dec-2020 4794.01 2302.76 63.83 8.00 357.78 2496.73
   20:28:09.855.25-Dec-2020 4794.01 2302.54 63.83 8.00 357.98 2496.73
   20:28:10.055.25-Dec-2020 4794.01 2302.54 63.83 8.00 358.18 2496.73
   20:28:10.255.25-Dec-2020 4794.01 2302.66 63.83 8.00 358.38 2496.73
   20:28:10.455.25-Dec-2020 4794.01 2302.77 63.83 8.00 358.58 2496.73
   20:28:10.655.25-Dec-2020 4794.01 2302.79 63.83 8.00 358.78 2496.73
   20:28:10.855.25-Dec-2020 4794.01 2302.76 63.83 8.00 358.98 2496.73
   20:28:11.055.25-Dec-2020 4794.01 2302.76 63.83 8.00 359.18 2496.73
   20:28:11.255.25-Dec-2020 4794.01 2302.76 63.83 8.00 359.38 2496.73
   20:28:11.455.25-Dec-2020 4794.01 2302.78 63.83 8.00 359.58 2496.73
   20:28:11.655.25-Dec-2020 4794.01 2302.78 63.83 8.00 359.78 2496.73
   20:28:11.855.25-Dec-2020 4794.01 2302.77 63.83 8.00 359.98 2496.73
   20:28:12.055.25-Dec-2020 4794.01 2302.81 63.83 8.00 360.18 2496.73
   20:28:12.255.25-Dec-2020 4794.01 2302.52 63.83 8.00 360.38 2496.73
   20:28:12.455.25-Dec-2020 4794.01 2303.14 63.83 8.00 360.58 2496.73
   20:28:12.655.25-Dec-2020 4794.01 2302.63 63.83 8.00 360.78 2496.73
   20:28:12.855.25-Dec-2020 4794.01 2302.94 63.83 8.00 360.98 2496.73
   20:28:13.055.25-Dec-2020 4794.01 2302.73 63.83 8.00 361.18 2496.73
   20:28:13.255.25-Dec-2020 4794.01 2302.78 63.83 8.00 361.38 2496.73
   20:28:13.455.25-Dec-2020 4794.01 2302.68 63.83 8.00 361.58 2496.73
   20:28:13.655.25-Dec-2020 4794.01 2302.93 63.83 8.00 361.78 2496.73
   20:28:13.855.25-Dec-2020 4794.01 2302.73 63.83 8.00 361.98 2496.73
   20:28:14.055.25-Dec-2020 4794.01 2302.73 63.83 8.00 362.18 2496.73
   20:28:14.255.25-Dec-2020 4794.01 2302.79 63.83 8.00 362.38 2496.73
   20:28:14.455.25-Dec-2020 4794.01 2302.48 63.83 8.00 362.58 2496.73
   20:28:14.655.25-Dec-2020 4794.01 2303.20 63.83 8.00 362.78 2496.73
   20:28:14.855.25-Dec-2020 4794.01 2302.59 63.83 8.00 362.98 2496.73
   20:28:15.055.25-Dec-2020 4794.01 2302.59 63.83 8.00 363.18 2496.73
   20:28:15.255.25-Dec-2020 4794.01 2302.70 63.83 8.00 363.38 2496.73
   20:28:15.455.25-Dec-2020 4794.01 2302.78 63.83 8.00 363.58 2496.73
   20:28:15.655.25-Dec-2020 4794.01 2302.80 63.83 8.00 363.78 2496.73
   20:28:15.855.25-Dec-2020 4794.01 2302.80 63.83 8.00 363.98 2496.73
   20:28:16.055.25-Dec-2020 4794.01 2302.91 63.83 8.00 364.18 2496.73
   20:28:16.255.25-Dec-2020 4794.01 2302.73 63.83 8.00 364.38 2496.73
   20:28:16.455.25-Dec-2020 4794.01 2302.80 63.83 8.00 364.58 2496.73
   20:28:16.655.25-Dec-2020 4794.01 2302.84 63.83 8.00 364.78 2496.73
   20:28:16.855.25-Dec-2020 4794.01 2302.77 63.83 8.00 364.98 2496.73
   20:28:17.055.25-Dec-2020 4794.01 2302.81 63.83 8.00 365.18 2496.73
   20:28:17.255.25-Dec-2020 4794.01 2302.77 63.83 8.00 365.38 2496.73
   20:28:17.455.25-Dec-2020 4794.01 2302.80 63.83 8.00 365.58 2496.73
   20:28:17.655.25-Dec-2020 4794.01 2302.83 63.83 8.00 365.78 2496.73
   20:28:17.855.25-Dec-2020 4794.01 2302.55 63.83 8.00 365.98 2496.73
   20:28:18.055.25-Dec-2020 4794.01 2302.55 63.83 8.00 366.18 2496.73
   20:28:18.254.25-Dec-2020 4794.01 2302.60 63.83 8.00 366.38 2496.73
   20:28:18.454.25-Dec-2020 4794.01 2302.99 63.83 8.00 366.58 2496.73
   20:28:18.654.25-Dec-2020 4794.01 2302.74 63.83 8.00 366.78 2496.73
   20:28:18.854.25-Dec-2020 4794.01 2302.78 63.83 8.00 366.98 2496.73
   20:28:19.054.25-Dec-2020 4794.01 2302.78 63.83 8.00 367.18 2496.73
   20:28:19.254.25-Dec-2020 4794.01 2302.78 63.83 8.00 367.38 2496.73
   20:28:19.454.25-Dec-2020 4794.01 2302.82 63.83 8.00 367.58 2496.73
   20:28:19.654.25-Dec-2020 4794.01 2302.81 63.83 8.00 367.78 2496.73
