~Version Information
 VERS.                  2.0:   CWLS log ASCII Standard -VERSION 2.0
 WRAP.                   NO:   One line per depth step
~Well Information Block
#MNEM.UNIT     VALUE/NAME     DESCRIPTION
#---------     -----------    ---------------------------
 STRT.S             21:28:23 25-Dec-20: START TIME 21:28:23 25-Dec-20
 STOP.S             21:36:48 25-Dec-20: STOP TIME  21:36:48 25-Dec-20
 STEP.S                   0.00: STEP TIME
 NULL.                 -999.25: NULL VALUE
 DFWT.                        :  DIST FWL TEXT
 DFST.                        :  DIST FSL TEXT
 DMF .             Drill Floor:  DRILL MEAS FROM
 STIM.      04.54.24 22-Sep-20:  START TIME
 DATE.      04.54.24 21-Nov-20:  END TIME
 SPUD.               21-Nov-20:  SPUD DATE
 NREF.                    Grid:  NORTH REFERENCE
 HPTY.       Minimum Curvature:  HOLE POS TYPE
 DMOD.             Drill Model:  DRILL MOD DESC
 SVYD.                  Survey:  SURVEY DESC
 ILTD.               Lithology:  INTERP LTH DESC
 FTOP.          Formation Tops:  FORM TOPS DESC
 SON .        AZ-XX-0906571587:  JOB NUMBER
 COMP.     BP Exploration (Caspian Sea) Ltd:  COMPANY
 UWI .                     N/A:  UNIQUE WELL IDENTIFIER
 API .                     N/A:  API NUMBER
 BASE.              Azerbaijan:  LOGGING EQUIPMENT BASE LOCATION
 REGN.                   EESSA:  REGION
 PROV.                    Baku:  PROVINCE
 STAT.                    Baku:  STATE NAME
 CTRY.              Azerbaijan:  COUNTRY NAME
 FLD .                     ACG:  FIELD NAME
 SRVC.     TURAN Drilling & Engineering:  CONTRACTOR
 WELL.                     J27:  WELL NAME
 RIG .             West Chirag:  RIG NAME
 DOE .                     N/A:  DOE NUMBER
 DCON.         Sperry Drilling:  DIRECTNL CONTR
 PDAT.          Mean Sea Level:  PERMANENT DATUM
 WTYP.                Deviated:  WELL TYPE
 MWDS.                    Baku:  MWD SHOP
 JOBN.        AZ-XX-0906571587:  JOB TICKET NUMB
 UNIT.                     N/A:  LOGGING EQUIPMENT ID
 MDS .        Operator Entered:  MAG DATA SOURCE
 CNTY.                        :  COUNTY
 LOC .                        :  LOCATION
 LMF .             Drill Floor:  LOG MEASURED FROM
 TVDS.m                  43.00:  TVDSS CORRECTN
 LATI.deg                40.13:  LATITUDE
 LONG.deg                51.22:  LONGITUDE
 WHNS.m                   7.72:  WELL HEAD N/S
 WHEW.m                 -14.24:  WELL HEAD E/W
 UTMX.m              519005.06:  UTM X
 UTMY.m             4443793.85:  UTM Y
 DFWL.m                   0.00:  DISTANCE FWL
 DFSL.m                   0.00:  DISTANCE FSL
 SDEP.m                 347.00:  START DEPTH
 TDD .m                 581.00:  TOTAL DEPTH (DRILLER)
 VSDR.deg               159.72:  VERT SEC DIRECT
 GVFD.g                   1.00:  GRAVITY FIELD
 MFLD.nT              50318.00:  MAGNETIC FIELD
 MDIP.deg                59.57:  MAGNETIC DIP
 MDEC.deg                 6.44:  MAGNETIC DECL
 GRDC.deg                 0.15:  GRID CORRECTION
 AZTC.deg                 6.29:  AZM TOTAL CORR
 EPD .m                   0.00:  ELEVATION
 EGL .m                   0.00:  GROUND ELEVATION
 WDMS.m                 169.80:  WD ELEV
 APD .m                  43.00:  DEPTH ABOVE PD
 AGAP.m                  43.00:  AIR GAP
 VSEW.m                 -14.24:  VERT SEC E/W
 VSNS.m                   7.72:  VERT SEC N/S
 DEP .m                 342.45:  DEPTH
 EKB .m                   0.00:  KB ELEVATION
 EDF .m                  43.00:  DF ELEVATION
 TDL .m                 237.00:  TOTAL DEPTH (LOGGER)
 VSC .                       0:  VS TO CLOSURE
 MAGU.                 1851428:  MAGUTM CHECKSUM
~Parameter Information Block
#MNEM.UNIT       Value        Description
#---------     -----------    ---------------------------
 AV  .mps                 1.50:  Ann Velocity 
 AVMX.mps                 2.90:  Max Ann Veloc 
 AZIF.deg               115.59:  Azm, Final 
 BHAT.        Rotary Steerable:  BHA Type 
 BROT.°/30m               0.50:  Build Rotating 
 BS  .in                  8.50:  Bit Size 
 BTPL.psig              580.00:  Bit Press Loss 
 CABU.                     Yes:  Customer Abuse 
 COMM.                     Üc{:  Run Comments 1 
 TCS .hr                 89.79:  Time Ciculation Ended 
 CV  .mps                 3.22:  Crit Velocity 
 CVMX.mps                 4.37:  Max Crit Veloc 
 DD1 .          Rashad Habibov:  Direct Drillr 1 
 DDSV.               Geo-Pilot:  DD Service 
 DEFF.%                  95.00:  % Det Eff 
 DLRX.°/30m               1.94:  Dogleg Rot Max 
 DLSO.°/30m               0.70:  Dogleg Oriented 
 DLSX.°/30m               1.94:  Dogleg Str Max 
 DRET.      04.45.00 25-Dec-20:  Drill End Time 
 DRST.      10.00.00 24-Dec-20:  Drill Start Tim 
 DTIM.hr                 16.64:  Time Drilling 
 EDEP.m                4999.01:  End Depth 
 ENG1.         Elchin Mammadov:  Engineer 1 
 ENG2.          Ruslan Safarov:  Engineer 2 
 ENG3.          Rustam Safarov:  Engineer 3 
 ETIM.      09.00.00 29-Dec-20:  End Time 
 FLOI.gpm               500.00:  Flow In 
 FLON.gpm               400.00:  Flow In Min 
 FLOS.cptm                0.00:  Fluid Loss 
 FLOX.gpm               500.00:  Flow In Max 
 HFLO.                      No:  High Flow 
 HPRE.                      No:  High Pressure 
 HTEM.                      No:  High Temp 
 HYDO.m                   2.00:  Hydro Offset 
 IFIN.deg                66.79:  Inc, Final 
 IMAX.deg                67.66:  Inc Max 
 IMIN.deg                66.39:  Inc Min 
 IMND.m                4949.37:  Inc Min Depth 
 IMXD.m                4778.63:  Inc Max Depth 
 JARR.                     Yes:  Jarring 
 LETM.      04.45.00 25-Dec-20:  Log End Time 
 LOST.hr                     0:  Lost Rig Time 
 LSTM.      10.00.00 24-Dec-20:  Log Start Time 
 MDCL.ppm             39000.00:  Mud Chlorides 
 MDES.     Inversion Oil/Synthetic:  Mud Desc 
 DFD .sg                  1.33:  Mud Density 
 MDMN.sg                  1.33:  Dens Mud Min 
 MDMX.sg                  1.33:  Dens Mud Max 
 MOIL.                      70:  Run Mud Oil % 
 MOWR.                   70:30:  Run Mud OWR 
 MSND.                       0:  Run Mud Sand % 
 MSOL.                    17.4:  Run Mud Solids% 
 DFV .spqt               84.00:  Mud Viscosity 
 MWOD.in                  6.75:  MWD Tool OD 
 MWSI.                     Yes:  Serv Intrp, MWD 
 OTIM.hr                168.14:  Time Operating 
 PCON.           Look Like New:  Pad Condition 
 PMAX.psia            10822.93:  Press Op, Max 
 PV  .cP                 30.00:  Mud PV 
 RUN .                     900:  Run Number 
 ROPA.m/hr               18.00:  ROP Avg 
 ROPN.m/hr               12.00:  ROP Min 
 ROPX.m/hr               25.00:  ROP Max 
 RPMA.rpm               120.00:  RPM Surface Avg 
 RPMN.rpm               100.00:  RPM Surface Min 
 RPMX.rpm               120.00:  RPM Surface Max 
 RRUN.                    0900:  Rig Run Number 
 SAZI.deg               115.08:  Azm, Start 
 SDEP.m                4762.01:  Start Depth 
 SIDD.                      No:  Serv Intrp, DD 
 SINC.deg                66.14:  Inc, Start 
 SPPA.psig             3700.00:  SPP Avg 
 SPPN.psig             3620.00:  SPP Min 
 SPPX.psig             3900.00:  SPP Max 
 STIM.      09.30.00 22-Dec-20:  Start Time 
 SVCS.                 DD, MWD:  Services 
 SVER.                    9.20:  Sperry Version 
 TDAT.m                 237.00:  Tot Depth Attmp 
 TDDF.                      No:  Trip for DD 
 TDLG.m                 237.00:  Tot Depth Loggd 
 TFF .                      No:  Trip for Fail 
 TQAA.f-kp               18.00:  Torque Abs Avg 
 TQAN.f-kp               17.00:  Torque Abs Min 
 TQAX.f-kp               20.00:  Torque Abs Max 
 TRRT.°/30m               0.60:  Turn Rotating 
 MRT .                    HCIM:  Maximum Recorded Temperature 
 TTMX.degC               94.12:  Max Tool Temp 
 VS01.                90627809:  Virtual Str1 SN 
 VS02.                90527813:  Virtual Str2 SN 
 VS03.                90545417:  Virtual Str3 SN 
 VS04.                12460870:  Virtual Str4 SN 
 VS05.                90516706:  Virtual Str5 SN 
 VS06.                90632007:  Virtual Str6 SN 
 WBMN.klb                 0.00:  WOB Min 
 WOBA.klb                14.00:  WOB Avg 
 WOBX.klb                25.00:  WOB Max 
 YP  .lhf2               32.00:  Yield Point 
~Curve Information Block
#MNEM.UNIT                 API CODE     Curve Description
#---------               -----------    ---------------------------
 TIME.HHMMSS            00 000 000 000:  GT Time & Date
 GTDEPTH.m              00 000 000 000:  GT Depth
 GTPQH.psia             00 000 000 000:  GT HR Quartz Pressure
 GTTQ.degC              00 000 000 000:  GT Quartz Temperature
 GTTN.NONE              00 000 000 000:  GT Test Number
 GTET.sec               00 000 000 000:  GT Elapsed Test Time
 GTTVD.m                00 000 000 000:  GT True Vertical Depth
#Other Information
#
#WARRANTY: Halliburton will use its best efforts to furnish customers with 
#accurate information and interpretations that are part of, and incident to, the services 
#provided.  However, Halliburton cannot and does not warrant the accuracy 
#or correctness of such information and interpretations.  Under no circumstances should any 
#such information or interpretation be relied upon as the sole basis for any drilling, 
#completion, production, or financial decision or any procedure involving any risk to the 
#safety of any drilling venture, drilling rig or its crew or any other third party.  The 
#Customer has full responsibility for all drilling, completion and production operation.  
#Halliburton makes no representations or warranties, either expressed or 
#implied, including, but not limited to, the implied warranties of merchantability or fitness 
#for a particular purpose, with respect to the services rendered.  In no event will 
#Halliburton be liable for failure to obtain any particular results or for 
#any damages, including, but not limited to, indirect, special or consequential damages, 
#resulting from the use of any information or interpretation provided by Halliburton.
#
~A           TIME           GTDEPTH  GTPQH  GTTQ  GTTN  GTET   GTTVD  
# ...
   21:28:46.615.25-Dec-2020 4768.01 5375.27 63.94 9.00  23.00 2486.78
   21:28:46.815.25-Dec-2020 4768.01 5375.27 63.94 9.00  23.20 2486.78
   21:28:47.015.25-Dec-2020 4768.01 5377.25 63.94 9.00  23.40 2486.78
   21:28:47.215.25-Dec-2020 4768.01 5375.55 63.94 9.00  23.60 2486.78
   21:28:47.415.25-Dec-2020 4768.01 5378.40 63.94 9.00  23.80 2486.78
   21:28:47.615.25-Dec-2020 4768.01 5385.71 63.94 9.00  24.00 2486.78
   21:28:47.815.25-Dec-2020 4768.01 5385.71 63.94 9.00  24.20 2486.78
   21:28:48.015.25-Dec-2020 4768.01 5382.77 63.94 9.00  24.40 2486.78
   21:28:48.215.25-Dec-2020 4768.01 5381.20 63.94 9.00  24.60 2486.78
   21:28:48.415.25-Dec-2020 4768.01 5379.71 63.94 9.00  24.80 2486.78
   21:28:48.615.25-Dec-2020 4768.01 5379.03 63.94 9.00  25.00 2486.78
   21:28:48.815.25-Dec-2020 4768.01 5379.03 63.94 9.00  25.20 2486.78
   21:28:49.015.25-Dec-2020 4768.01 5380.31 63.94 9.00  25.40 2486.78
   21:28:49.215.25-Dec-2020 4768.01 5378.93 63.94 9.00  25.60 2486.78
   21:28:49.415.25-Dec-2020 4768.01 5381.12 63.94 9.00  25.80 2486.78
   21:28:49.615.25-Dec-2020 4768.01 5379.34 63.94 9.00  26.00 2486.78
   21:28:49.815.25-Dec-2020 4768.01 5379.34 63.94 9.00  26.20 2486.78
   21:28:50.015.25-Dec-2020 4768.01 5380.76 63.94 9.00  26.40 2486.78
   21:28:50.215.25-Dec-2020 4768.01 5391.38 63.94 9.00  26.60 2486.78
   21:28:50.415.25-Dec-2020 4768.01 5376.93 63.94 9.00  26.80 2486.78
   21:28:50.615.25-Dec-2020 4768.01 5381.68 63.94 9.00  27.00 2486.78
   21:28:50.815.25-Dec-2020 4768.01 5381.68 63.94 9.00  27.20 2486.78
   21:28:51.015.25-Dec-2020 4768.01 5380.80 63.94 9.00  27.40 2486.78
   21:28:51.215.25-Dec-2020 4768.01 5382.92 63.94 9.00  27.60 2486.78
   21:28:51.415.25-Dec-2020 4768.01 5392.68 63.94 9.00  27.80 2486.78
   21:28:51.615.25-Dec-2020 4768.01 5378.76 63.94 9.00  28.00 2486.78
   21:28:51.815.25-Dec-2020 4768.01 5378.76 63.94 9.00  28.20 2486.78
   21:28:52.015.25-Dec-2020 4768.01 5387.01 63.94 9.00  28.40 2486.78
   21:28:52.215.25-Dec-2020 4768.01 5380.83 63.94 9.00  28.60 2486.78
   21:28:52.415.25-Dec-2020 4768.01 5395.06 63.94 9.00  28.80 2486.78
   21:28:52.615.25-Dec-2020 4768.01 5378.86 63.94 9.00  29.00 2486.78
   21:28:52.815.25-Dec-2020 4768.01 5378.86 63.94 9.00  29.20 2486.78
   21:28:53.015.25-Dec-2020 4768.01 5390.27 63.94 9.00  29.40 2486.78
   21:28:53.215.25-Dec-2020 4768.01 5381.09 63.94 9.00  29.60 2486.78
   21:28:53.415.25-Dec-2020 4768.01 5395.10 63.94 9.00  29.80 2486.78
   21:28:53.615.25-Dec-2020 4768.01 5380.83 63.94 9.00  30.00 2486.78
   21:28:53.815.25-Dec-2020 4768.01 5380.83 63.94 9.00  30.20 2486.78
   21:28:54.015.25-Dec-2020 4768.01 5390.52 63.94 9.00  30.40 2486.78
   21:28:54.215.25-Dec-2020 4768.01 5382.72 63.94 9.00  30.60 2486.78
   21:28:54.415.25-Dec-2020 4768.01 5386.15 63.94 9.00  30.80 2486.78
   21:28:54.615.25-Dec-2020 4768.01 5384.50 63.94 9.00  31.00 2486.78
   21:28:54.815.25-Dec-2020 4768.01 5384.50 63.94 9.00  31.20 2486.78
   21:28:55.015.25-Dec-2020 4768.01 5385.50 63.94 9.00  31.40 2486.78
   21:28:55.215.25-Dec-2020 4768.01 5383.27 63.94 9.00  31.60 2486.78
   21:28:55.415.25-Dec-2020 4768.01 5385.55 63.94 9.00  31.80 2486.78
   21:28:55.615.25-Dec-2020 4768.01 5384.92 63.94 9.00  32.00 2486.78
   21:28:55.815.25-Dec-2020 4768.01 5384.92 63.94 9.00  32.20 2486.78
   21:28:56.015.25-Dec-2020 4768.01 5389.15 63.94 9.00  32.40 2486.78
   21:28:56.215.25-Dec-2020 4768.01 5384.15 63.94 9.00  32.60 2486.78
   21:28:56.414.25-Dec-2020 4768.01 5390.77 63.94 9.00  32.80 2486.78
   21:28:56.614.25-Dec-2020 4768.01 5387.76 63.94 9.00  33.00 2486.78
   21:28:56.814.25-Dec-2020 4768.01 5387.76 63.94 9.00  33.20 2486.78
   21:28:57.014.25-Dec-2020 4768.01 5387.65 63.93 9.00  33.40 2486.78
   21:28:57.214.25-Dec-2020 4768.01 5386.34 63.93 9.00  33.60 2486.78
   21:28:57.414.25-Dec-2020 4768.01 5386.77 63.93 9.00  33.80 2486.78
   21:28:57.614.25-Dec-2020 4768.01 5386.53 63.93 9.00  34.00 2486.78
   21:28:57.814.25-Dec-2020 4768.01 5386.53 63.93 9.00  34.20 2486.78
   21:28:58.014.25-Dec-2020 4768.01 5387.92 63.93 9.00  34.40 2486.78
   21:28:58.214.25-Dec-2020 4768.01 5386.36 63.93 9.00  34.60 2486.78
   21:28:58.414.25-Dec-2020 4768.01 5387.71 63.93 9.00  34.80 2486.78
   21:28:58.614.25-Dec-2020 4768.01 5399.52 63.93 9.00  35.00 2486.78
   21:28:58.814.25-Dec-2020 4768.01 5399.52 63.93 9.00  35.20 2486.78
   21:28:59.014.25-Dec-2020 4768.01 5390.68 63.93 9.00  35.40 2486.78
   21:28:59.214.25-Dec-2020 4768.01 5403.02 63.93 9.00  35.60 2486.78
   21:28:59.414.25-Dec-2020 4768.01 5385.03 63.93 9.00  35.80 2486.78
   21:28:59.614.25-Dec-2020 4768.01 5394.25 63.93 9.00  36.00 2486.78
   21:28:59.814.25-Dec-2020 4768.01 5394.25 63.93 9.00  36.20 2486.78
   21:29:00.014.25-Dec-2020 4768.01 5385.33 63.93 9.00  36.40 2486.78
   21:29:00.214.25-Dec-2020 4768.01 5390.90 63.93 9.00  36.60 2486.78
   21:29:00.414.25-Dec-2020 4768.01 5407.92 63.93 9.00  36.80 2486.78
   21:29:00.614.25-Dec-2020 4768.01 5384.88 63.93 9.00  37.00 2486.78
   21:29:00.814.25-Dec-2020 4768.01 5384.88 63.93 9.00  37.20 2486.78
   21:29:01.014.25-Dec-2020 4768.01 5398.49 63.93 9.00  37.40 2486.78
   21:29:01.214.25-Dec-2020 4768.01 5387.32 63.93 9.00  37.60 2486.78
   21:29:01.414.25-Dec-2020 4768.01 5391.74 63.93 9.00  37.80 2486.78
   21:29:01.614.25-Dec-2020 4768.01 5390.96 63.93 9.00  38.00 2486.78
   21:29:01.814.25-Dec-2020 4768.01 5390.96 63.93 9.00  38.20 2486.78
   21:29:02.014.25-Dec-2020 4768.01 5391.25 63.93 9.00  38.40 2486.78
   21:29:02.214.25-Dec-2020 4768.01 5389.07 63.93 9.00  38.60 2486.78
   21:29:02.414.25-Dec-2020 4768.01 5389.75 63.93 9.00  38.80 2486.78
   21:29:02.614.25-Dec-2020 4768.01 5389.28 63.93 9.00  39.00 2486.78
   21:29:02.814.25-Dec-2020 4768.01 5389.28 63.93 9.00  39.20 2486.78
   21:29:03.014.25-Dec-2020 4768.01 5193.99 63.93 9.00  39.40 2486.78
   21:29:03.214.25-Dec-2020 4768.01 5189.97 63.93 9.00  39.60 2486.78
   21:29:03.414.25-Dec-2020 4768.01 5214.33 63.93 9.00  39.80 2486.78
   21:29:03.614.25-Dec-2020 4768.01 5295.74 63.93 9.00  40.00 2486.78
   21:29:03.814.25-Dec-2020 4768.01 5295.74 63.93 9.00  40.20 2486.78
   21:29:04.014.25-Dec-2020 4768.01 5371.24 63.93 9.00  40.40 2486.78
   21:29:04.214.25-Dec-2020 4768.01 5472.12 63.93 9.00  40.60 2486.78
   21:29:04.414.25-Dec-2020 4768.01 5541.83 63.93 9.00  40.80 2486.78
   21:29:04.614.25-Dec-2020 4768.01 5605.14 63.93 9.00  41.00 2486.78
   21:29:04.814.25-Dec-2020 4768.01 5605.14 63.93 9.00  41.20 2486.78
   21:29:05.014.25-Dec-2020 4768.01 5714.29 63.93 9.00  41.40 2486.78
   21:29:05.214.25-Dec-2020 4768.01 5758.42 63.93 9.00  41.60 2486.78
   21:29:05.414.25-Dec-2020 4768.01 5801.84 63.93 9.00  41.80 2486.78
   21:29:05.614.25-Dec-2020 4768.01 5784.80 63.93 9.00  42.00 2486.78
   21:29:05.814.25-Dec-2020 4768.01 5784.80 63.93 9.00  42.20 2486.78
   21:29:06.014.25-Dec-2020 4768.01 5762.26 63.93 9.00  42.40 2486.78
   21:29:06.214.25-Dec-2020 4768.01 5730.28 63.93 9.00  42.60 2486.78
   21:29:06.414.25-Dec-2020 4768.01 5749.92 63.93 9.00  42.80 2486.78
   21:29:06.614.25-Dec-2020 4768.01 5731.67 63.93 9.00  43.00 2486.78
   21:29:06.814.25-Dec-2020 4768.01 5731.67 63.93 9.00  43.20 2486.78
   21:29:07.014.25-Dec-2020 4768.01 5824.61 63.93 9.00  43.40 2486.78
   21:29:07.214.25-Dec-2020 4768.01 5933.96 63.93 9.00  43.60 2486.78
   21:29:07.414.25-Dec-2020 4768.01 5849.70 63.93 9.00  43.80 2486.78
   21:29:07.614.25-Dec-2020 4768.01 5738.55 63.93 9.00  44.00 2486.78
   21:29:07.814.25-Dec-2020 4768.01 5738.55 63.93 9.00  44.20 2486.78
   21:29:08.014.25-Dec-2020 4768.01 5591.74 63.93 9.00  44.40 2486.78
   21:29:08.214.25-Dec-2020 4768.01 5575.83 63.93 9.00  44.60 2486.78
   21:29:08.414.25-Dec-2020 4768.01 5619.23 63.93 9.00  44.80 2486.78
   21:29:08.614.25-Dec-2020 4768.01 5644.60 63.93 9.00  45.00 2486.78
   21:29:08.814.25-Dec-2020 4768.01 5644.60 63.93 9.00  45.20 2486.78
   21:29:09.014.25-Dec-2020 4768.01 5674.71 63.93 9.00  45.40 2486.78
   21:29:09.214.25-Dec-2020 4768.01 5680.03 63.93 9.00  45.60 2486.78
   21:29:09.414.25-Dec-2020 4768.01 5685.19 63.93 9.00  45.80 2486.78
