~Version Information
 VERS.                  2.0:   CWLS log ASCII Standard -VERSION 2.0
 WRAP.                   NO:   One line per depth step
~Well Information Block
#MNEM.UNIT     VALUE/NAME     DESCRIPTION
#---------     -----------    ---------------------------
 STRT.S             19:12:01 25-Dec-20: START TIME 19:12:01 25-Dec-20
 STOP.S             19:20:19 25-Dec-20: STOP TIME  19:20:19 25-Dec-20
 STEP.S                   0.00: STEP TIME
 NULL.                 -999.25: NULL VALUE
 DFWT.                        :  DIST FWL TEXT
 DFST.                        :  DIST FSL TEXT
 DMF .             Drill Floor:  DRILL MEAS FROM
 STIM.      04.54.24 22-Sep-20:  START TIME
 DATE.      04.54.24 21-Nov-20:  END TIME
 SPUD.               21-Nov-20:  SPUD DATE
 NREF.                    Grid:  NORTH REFERENCE
 HPTY.       Minimum Curvature:  HOLE POS TYPE
 DMOD.             Drill Model:  DRILL MOD DESC
 SVYD.                  Survey:  SURVEY DESC
 ILTD.               Lithology:  INTERP LTH DESC
 FTOP.          Formation Tops:  FORM TOPS DESC
 SON .        AZ-XX-0906571587:  JOB NUMBER
 COMP.     BP Exploration (Caspian Sea) Ltd:  COMPANY
 UWI .                     N/A:  UNIQUE WELL IDENTIFIER
 API .                     N/A:  API NUMBER
 BASE.              Azerbaijan:  LOGGING EQUIPMENT BASE LOCATION
 REGN.                   EESSA:  REGION
 PROV.                    Baku:  PROVINCE
 STAT.                    Baku:  STATE NAME
 CTRY.              Azerbaijan:  COUNTRY NAME
 FLD .                     ACG:  FIELD NAME
 SRVC.     TURAN Drilling & Engineering:  CONTRACTOR
 WELL.                     J27:  WELL NAME
 RIG .             West Chirag:  RIG NAME
 DOE .                     N/A:  DOE NUMBER
 DCON.         Sperry Drilling:  DIRECTNL CONTR
 PDAT.          Mean Sea Level:  PERMANENT DATUM
 WTYP.                Deviated:  WELL TYPE
 MWDS.                    Baku:  MWD SHOP
 JOBN.        AZ-XX-0906571587:  JOB TICKET NUMB
 UNIT.                     N/A:  LOGGING EQUIPMENT ID
 MDS .        Operator Entered:  MAG DATA SOURCE
 CNTY.                        :  COUNTY
 LOC .                        :  LOCATION
 LMF .             Drill Floor:  LOG MEASURED FROM
 TVDS.m                  43.00:  TVDSS CORRECTN
 LATI.deg                40.13:  LATITUDE
 LONG.deg                51.22:  LONGITUDE
 WHNS.m                   7.72:  WELL HEAD N/S
 WHEW.m                 -14.24:  WELL HEAD E/W
 UTMX.m              519005.06:  UTM X
 UTMY.m             4443793.85:  UTM Y
 DFWL.m                   0.00:  DISTANCE FWL
 DFSL.m                   0.00:  DISTANCE FSL
 SDEP.m                 347.00:  START DEPTH
 TDD .m                 581.00:  TOTAL DEPTH (DRILLER)
 VSDR.deg               159.72:  VERT SEC DIRECT
 GVFD.g                   1.00:  GRAVITY FIELD
 MFLD.nT              50318.00:  MAGNETIC FIELD
 MDIP.deg                59.57:  MAGNETIC DIP
 MDEC.deg                 6.44:  MAGNETIC DECL
 GRDC.deg                 0.15:  GRID CORRECTION
 AZTC.deg                 6.29:  AZM TOTAL CORR
 EPD .m                   0.00:  ELEVATION
 EGL .m                   0.00:  GROUND ELEVATION
 WDMS.m                 169.80:  WD ELEV
 APD .m                  43.00:  DEPTH ABOVE PD
 AGAP.m                  43.00:  AIR GAP
 VSEW.m                 -14.24:  VERT SEC E/W
 VSNS.m                   7.72:  VERT SEC N/S
 DEP .m                 342.45:  DEPTH
 EKB .m                   0.00:  KB ELEVATION
 EDF .m                  43.00:  DF ELEVATION
 TDL .m                 237.00:  TOTAL DEPTH (LOGGER)
 VSC .                       0:  VS TO CLOSURE
 MAGU.                 1851428:  MAGUTM CHECKSUM
~Parameter Information Block
#MNEM.UNIT       Value        Description
#---------     -----------    ---------------------------
 AV  .mps                 1.50:  Ann Velocity 
 AVMX.mps                 2.90:  Max Ann Veloc 
 AZIF.deg               115.59:  Azm, Final 
 BHAT.        Rotary Steerable:  BHA Type 
 BROT.°/30m               0.50:  Build Rotating 
 BS  .in                  8.50:  Bit Size 
 BTPL.psig              580.00:  Bit Press Loss 
 CABU.                     Yes:  Customer Abuse 
 COMM.                     Ìt:  Run Comments 1 
 TCS .hr                 89.79:  Time Ciculation Ended 
 CV  .mps                 3.22:  Crit Velocity 
 CVMX.mps                 4.37:  Max Crit Veloc 
 DD1 .          Rashad Habibov:  Direct Drillr 1 
 DDSV.               Geo-Pilot:  DD Service 
 DEFF.%                  95.00:  % Det Eff 
 DLRX.°/30m               1.94:  Dogleg Rot Max 
 DLSO.°/30m               0.70:  Dogleg Oriented 
 DLSX.°/30m               1.94:  Dogleg Str Max 
 DRET.      04.45.00 25-Dec-20:  Drill End Time 
 DRST.      10.00.00 24-Dec-20:  Drill Start Tim 
 DTIM.hr                 16.64:  Time Drilling 
 EDEP.m                4999.01:  End Depth 
 ENG1.         Elchin Mammadov:  Engineer 1 
 ENG2.          Ruslan Safarov:  Engineer 2 
 ENG3.          Rustam Safarov:  Engineer 3 
 ETIM.      09.00.00 29-Dec-20:  End Time 
 FLOI.gpm               500.00:  Flow In 
 FLON.gpm               400.00:  Flow In Min 
 FLOS.cptm                0.00:  Fluid Loss 
 FLOX.gpm               500.00:  Flow In Max 
 HFLO.                      No:  High Flow 
 HPRE.                      No:  High Pressure 
 HTEM.                      No:  High Temp 
 HYDO.m                   2.00:  Hydro Offset 
 IFIN.deg                66.79:  Inc, Final 
 IMAX.deg                67.66:  Inc Max 
 IMIN.deg                66.39:  Inc Min 
 IMND.m                4949.37:  Inc Min Depth 
 IMXD.m                4778.63:  Inc Max Depth 
 JARR.                     Yes:  Jarring 
 LETM.      04.45.00 25-Dec-20:  Log End Time 
 LOST.hr                     0:  Lost Rig Time 
 LSTM.      10.00.00 24-Dec-20:  Log Start Time 
 MDCL.ppm             39000.00:  Mud Chlorides 
 MDES.     Inversion Oil/Synthetic:  Mud Desc 
 DFD .sg                  1.33:  Mud Density 
 MDMN.sg                  1.33:  Dens Mud Min 
 MDMX.sg                  1.33:  Dens Mud Max 
 MOIL.                      70:  Run Mud Oil % 
 MOWR.                   70:30:  Run Mud OWR 
 MSND.                       0:  Run Mud Sand % 
 MSOL.                    17.4:  Run Mud Solids% 
 DFV .spqt               84.00:  Mud Viscosity 
 MWOD.in                  6.75:  MWD Tool OD 
 MWSI.                     Yes:  Serv Intrp, MWD 
 OTIM.hr                168.14:  Time Operating 
 PCON.           Look Like New:  Pad Condition 
 PMAX.psia            10822.93:  Press Op, Max 
 PV  .cP                 30.00:  Mud PV 
 RUN .                     900:  Run Number 
 ROPA.m/hr               18.00:  ROP Avg 
 ROPN.m/hr               12.00:  ROP Min 
 ROPX.m/hr               25.00:  ROP Max 
 RPMA.rpm               120.00:  RPM Surface Avg 
 RPMN.rpm               100.00:  RPM Surface Min 
 RPMX.rpm               120.00:  RPM Surface Max 
 RRUN.                    0900:  Rig Run Number 
 SAZI.deg               115.08:  Azm, Start 
 SDEP.m                4762.01:  Start Depth 
 SIDD.                      No:  Serv Intrp, DD 
 SINC.deg                66.14:  Inc, Start 
 SPPA.psig             3700.00:  SPP Avg 
 SPPN.psig             3620.00:  SPP Min 
 SPPX.psig             3900.00:  SPP Max 
 STIM.      09.30.00 22-Dec-20:  Start Time 
 SVCS.                 DD, MWD:  Services 
 SVER.                    9.20:  Sperry Version 
 TDAT.m                 237.00:  Tot Depth Attmp 
 TDDF.                      No:  Trip for DD 
 TDLG.m                 237.00:  Tot Depth Loggd 
 TFF .                      No:  Trip for Fail 
 TQAA.f-kp               18.00:  Torque Abs Avg 
 TQAN.f-kp               17.00:  Torque Abs Min 
 TQAX.f-kp               20.00:  Torque Abs Max 
 TRRT.°/30m               0.60:  Turn Rotating 
 MRT .                    HCIM:  Maximum Recorded Temperature 
 TTMX.degC               94.12:  Max Tool Temp 
 VS01.                90627809:  Virtual Str1 SN 
 VS02.                90527813:  Virtual Str2 SN 
 VS03.                90545417:  Virtual Str3 SN 
 VS04.                12460870:  Virtual Str4 SN 
 VS05.                90516706:  Virtual Str5 SN 
 VS06.                90632007:  Virtual Str6 SN 
 WBMN.klb                 0.00:  WOB Min 
 WOBA.klb                14.00:  WOB Avg 
 WOBX.klb                25.00:  WOB Max 
 YP  .lhf2               32.00:  Yield Point 
~Curve Information Block
#MNEM.UNIT                 API CODE     Curve Description
#---------               -----------    ---------------------------
 TIME.HHMMSS            00 000 000 000:  GT Time & Date
 GTDEPTH.m              00 000 000 000:  GT Depth
 GTPQH.psia             00 000 000 000:  GT HR Quartz Pressure
 GTTQ.degC              00 000 000 000:  GT Quartz Temperature
 GTTN.NONE              00 000 000 000:  GT Test Number
 GTET.sec               00 000 000 000:  GT Elapsed Test Time
 GTTVD.m                00 000 000 000:  GT True Vertical Depth
#Other Information
#
#WARRANTY: Halliburton will use its best efforts to furnish customers with 
#accurate information and interpretations that are part of, and incident to, the services 
#provided.  However, Halliburton cannot and does not warrant the accuracy 
#or correctness of such information and interpretations.  Under no circumstances should any 
#such information or interpretation be relied upon as the sole basis for any drilling, 
#completion, production, or financial decision or any procedure involving any risk to the 
#safety of any drilling venture, drilling rig or its crew or any other third party.  The 
#Customer has full responsibility for all drilling, completion and production operation.  
#Halliburton makes no representations or warranties, either expressed or 
#implied, including, but not limited to, the implied warranties of merchantability or fitness 
#for a particular purpose, with respect to the services rendered.  In no event will 
#Halliburton be liable for failure to obtain any particular results or for 
#any damages, including, but not limited to, indirect, special or consequential damages, 
#resulting from the use of any information or interpretation provided by Halliburton.
#
~A           TIME           GTDEPTH  GTPQH  GTTQ  GTTN  GTET   GTTVD  
# ...
   19:14:19.230.25-Dec-2020 4808.01 2304.68 63.87 7.00 138.11 2502.07
   19:14:19.430.25-Dec-2020 4808.01 2306.31 63.87 7.00 138.31 2502.07
   19:14:19.630.25-Dec-2020 4808.01 2305.48 63.87 7.00 138.51 2502.07
   19:14:19.830.25-Dec-2020 4808.01 2304.86 63.87 7.00 138.71 2502.07
   19:14:20.031.25-Dec-2020 4808.01 2305.78 63.87 7.00 138.91 2502.07
   19:14:20.231.25-Dec-2020 4808.01 2305.57 63.87 7.00 139.11 2502.07
   19:14:20.431.25-Dec-2020 4808.01 2305.57 63.87 7.00 139.31 2502.07
   19:14:20.631.25-Dec-2020 4808.01 2305.61 63.87 7.00 139.51 2502.07
   19:14:20.831.25-Dec-2020 4808.01 2305.09 63.87 7.00 139.71 2502.07
   19:14:21.031.25-Dec-2020 4808.01 2305.72 63.87 7.00 139.91 2502.07
   19:14:21.231.25-Dec-2020 4808.01 2305.51 63.87 7.00 140.11 2502.07
   19:14:21.432.25-Dec-2020 4808.01 2305.51 63.87 7.00 140.31 2502.07
   19:14:21.632.25-Dec-2020 4808.01 2305.52 63.87 7.00 140.51 2502.07
   19:14:21.832.25-Dec-2020 4808.01 2305.58 63.87 7.00 140.71 2502.07
   19:14:22.032.25-Dec-2020 4808.01 2305.60 63.87 7.00 140.91 2502.07
   19:14:22.232.25-Dec-2020 4808.01 2305.55 63.87 7.00 141.11 2502.07
   19:14:22.432.25-Dec-2020 4808.01 2305.55 63.87 7.00 141.31 2502.07
   19:14:22.633.25-Dec-2020 4808.01 2305.56 63.87 7.00 141.51 2502.07
   19:14:22.833.25-Dec-2020 4808.01 2305.55 63.87 7.00 141.71 2502.07
   19:14:23.033.25-Dec-2020 4808.01 2305.62 63.87 7.00 141.91 2502.07
   19:14:23.233.25-Dec-2020 4808.01 2305.60 63.87 7.00 142.11 2502.07
   19:14:23.433.25-Dec-2020 4808.01 2304.80 63.87 7.00 142.31 2502.07
   19:14:23.633.25-Dec-2020 4808.01 2305.93 63.87 7.00 142.51 2502.07
   19:14:23.834.25-Dec-2020 4808.01 2305.36 63.87 7.00 142.71 2502.07
   19:14:24.034.25-Dec-2020 4808.01 2305.57 63.87 7.00 142.91 2502.07
   19:14:24.234.25-Dec-2020 4808.01 2305.55 63.87 7.00 143.11 2502.07
   19:14:24.434.25-Dec-2020 4808.01 2305.55 63.87 7.00 143.31 2502.07
   19:14:24.634.25-Dec-2020 4808.01 2305.59 63.87 7.00 143.51 2502.07
   19:14:24.834.25-Dec-2020 4808.01 2305.58 63.87 7.00 143.71 2502.07
   19:14:25.034.25-Dec-2020 4808.01 2305.57 63.87 7.00 143.91 2502.07
   19:14:25.235.25-Dec-2020 4808.01 2305.56 63.87 7.00 144.11 2502.07
   19:14:25.435.25-Dec-2020 4808.01 2305.56 63.87 7.00 144.31 2502.07
   19:14:25.635.25-Dec-2020 4808.01 2305.60 63.87 7.00 144.51 2502.07
   19:14:25.835.25-Dec-2020 4808.01 2304.98 63.87 7.00 144.71 2502.07
   19:14:26.035.25-Dec-2020 4808.01 2305.73 63.87 7.00 144.91 2502.07
   19:14:26.235.25-Dec-2020 4808.01 2305.50 63.87 7.00 145.11 2502.07
   19:14:26.436.25-Dec-2020 4808.01 2305.50 63.87 7.00 145.31 2502.07
   19:14:26.636.25-Dec-2020 4808.01 2305.92 63.87 7.00 145.51 2502.07
   19:14:26.836.25-Dec-2020 4808.01 2305.38 63.87 7.00 145.72 2502.07
   19:14:27.036.25-Dec-2020 4808.01 2304.88 63.87 7.00 145.92 2502.07
   19:14:27.236.25-Dec-2020 4808.01 2305.75 63.87 7.00 146.12 2502.07
   19:14:27.436.25-Dec-2020 4808.01 2305.75 63.87 7.00 146.32 2502.07
   19:14:27.637.25-Dec-2020 4808.01 2304.92 63.87 7.00 146.52 2502.07
   19:14:27.837.25-Dec-2020 4808.01 2305.53 63.87 7.00 146.72 2502.07
   19:14:28.037.25-Dec-2020 4808.01 2305.73 63.87 7.00 146.92 2502.07
   19:14:28.237.25-Dec-2020 4808.01 2305.50 63.87 7.00 147.12 2502.07
   19:14:28.437.25-Dec-2020 4808.01 2305.50 63.87 7.00 147.32 2502.07
   19:14:28.637.25-Dec-2020 4808.01 2305.59 63.87 7.00 147.52 2502.07
   19:14:28.837.25-Dec-2020 4808.01 2305.52 63.87 7.00 147.72 2502.07
   19:14:29.038.25-Dec-2020 4808.01 2305.59 63.87 7.00 147.92 2502.07
   19:14:29.238.25-Dec-2020 4808.01 2305.59 63.87 7.00 148.12 2502.07
   19:14:29.438.25-Dec-2020 4808.01 2305.59 63.87 7.00 148.32 2502.07
   19:14:29.638.25-Dec-2020 4808.01 2305.59 63.87 7.00 148.52 2502.07
   19:14:29.838.25-Dec-2020 4808.01 2305.57 63.87 7.00 148.72 2502.07
   19:14:30.038.25-Dec-2020 4808.01 2304.60 63.87 7.00 148.92 2502.07
   19:14:30.239.25-Dec-2020 4808.01 2306.22 63.87 7.00 149.12 2502.07
   19:14:30.439.25-Dec-2020 4808.01 2306.22 63.87 7.00 149.32 2502.07
   19:14:30.639.25-Dec-2020 4808.01 2305.46 63.87 7.00 149.52 2502.07
   19:14:30.839.25-Dec-2020 4808.01 2305.54 63.87 7.00 149.72 2502.07
   19:14:31.039.25-Dec-2020 4808.01 2305.52 63.87 7.00 149.92 2502.07
   19:14:31.239.25-Dec-2020 4808.01 2305.57 63.87 7.00 150.12 2502.07
   19:14:31.440.25-Dec-2020 4808.01 2305.54 63.87 7.00 150.32 2502.07
   19:14:31.640.25-Dec-2020 4808.01 2305.58 63.87 7.00 150.52 2502.07
   19:14:31.840.25-Dec-2020 4808.01 2305.53 63.87 7.00 150.72 2502.07
   19:14:32.040.25-Dec-2020 4808.01 2305.55 63.87 7.00 150.92 2502.07
   19:14:32.240.25-Dec-2020 4808.01 2305.59 63.87 7.00 151.12 2502.07
   19:14:32.440.25-Dec-2020 4808.01 2305.59 63.87 7.00 151.32 2502.07
   19:14:32.640.25-Dec-2020 4808.01 2304.93 63.87 7.00 151.52 2502.07
   19:14:32.841.25-Dec-2020 4808.01 2305.59 63.87 7.00 151.72 2502.07
   19:14:33.041.25-Dec-2020 4808.01 2304.74 63.87 7.00 151.92 2502.07
   19:14:33.241.25-Dec-2020 4808.01 2306.21 63.87 7.00 152.12 2502.07
   19:14:33.441.25-Dec-2020 4808.01 2306.21 63.87 7.00 152.32 2502.07
   19:14:33.641.25-Dec-2020 4808.01 2304.72 63.87 7.00 152.52 2502.07
   19:14:33.841.25-Dec-2020 4808.01 2305.95 63.87 7.00 152.72 2502.07
   19:14:34.042.25-Dec-2020 4808.01 2305.36 63.87 7.00 152.92 2502.07
   19:14:34.242.25-Dec-2020 4808.01 2304.84 63.87 7.00 153.12 2502.07
   19:14:34.442.25-Dec-2020 4808.01 2304.84 63.87 7.00 153.32 2502.07
   19:14:34.642.25-Dec-2020 4808.01 2305.59 63.87 7.00 153.52 2502.07
   19:14:34.842.25-Dec-2020 4808.01 2305.52 63.87 7.00 153.72 2502.07
   19:14:35.042.25-Dec-2020 4808.01 2305.53 63.87 7.00 153.92 2502.07
   19:14:35.243.25-Dec-2020 4808.01 2305.58 63.87 7.00 154.12 2502.07
   19:14:35.443.25-Dec-2020 4808.01 2305.50 63.87 7.00 154.32 2502.07
   19:14:35.643.25-Dec-2020 4808.01 2305.58 63.87 7.00 154.52 2502.07
   19:14:35.843.25-Dec-2020 4808.01 2305.56 63.87 7.00 154.72 2502.07
   19:14:36.043.25-Dec-2020 4808.01 2305.48 63.87 7.00 154.92 2502.07
   19:14:36.243.25-Dec-2020 4808.01 2305.59 63.87 7.00 155.12 2502.07
   19:14:36.443.25-Dec-2020 4808.01 2305.59 63.87 7.00 155.32 2502.07
   19:14:36.644.25-Dec-2020 4808.01 2304.96 63.87 7.00 155.52 2502.07
   19:14:36.844.25-Dec-2020 4808.01 2305.61 63.87 7.00 155.72 2502.07
   19:14:37.044.25-Dec-2020 4808.01 2305.42 63.87 7.00 155.92 2502.07
   19:14:37.244.25-Dec-2020 4808.01 2305.59 63.87 7.00 156.12 2502.07
   19:14:37.444.25-Dec-2020 4808.01 2305.59 63.87 7.00 156.32 2502.07
   19:14:37.644.25-Dec-2020 4808.01 2305.50 63.87 7.00 156.52 2502.07
   19:14:37.845.25-Dec-2020 4808.01 2305.53 63.87 7.00 156.72 2502.07
   19:14:38.045.25-Dec-2020 4808.01 2305.52 63.87 7.00 156.92 2502.07
   19:14:38.245.25-Dec-2020 4808.01 2305.57 63.87 7.00 157.12 2502.07
   19:14:38.445.25-Dec-2020 4808.01 2305.57 63.87 7.00 157.32 2502.07
   19:14:38.645.25-Dec-2020 4808.01 2305.50 63.87 7.00 157.52 2502.07
   19:14:38.845.25-Dec-2020 4808.01 2305.57 63.87 7.00 157.72 2502.07
   19:14:39.046.25-Dec-2020 4808.01 2305.53 63.87 7.00 157.92 2502.07
   19:14:39.246.25-Dec-2020 4808.01 2304.89 63.87 7.00 158.12 2502.07
   19:14:39.446.25-Dec-2020 4808.01 2304.89 63.87 7.00 158.33 2502.07
   19:14:39.646.25-Dec-2020 4808.01 2304.92 63.87 7.00 158.53 2502.07
   19:14:39.846.25-Dec-2020 4808.01 2305.63 63.87 7.00 158.73 2502.07
   19:14:40.046.25-Dec-2020 4808.01 2305.44 63.87 7.00 158.93 2502.07
   19:14:40.246.25-Dec-2020 4808.01 2304.63 63.87 7.00 159.13 2502.07
   19:14:40.447.25-Dec-2020 4808.01 2304.63 63.87 7.00 159.33 2502.07
   19:14:40.647.25-Dec-2020 4808.01 2305.34 63.87 7.00 159.53 2502.07
   19:14:40.847.25-Dec-2020 4808.01 2304.71 63.87 7.00 159.73 2502.07
   19:14:41.047.25-Dec-2020 4808.01 2305.82 63.87 7.00 159.93 2502.07
   19:14:41.247.25-Dec-2020 4808.01 2305.38 63.87 7.00 160.13 2502.07
   19:14:41.447.25-Dec-2020 4808.01 2305.38 63.87 7.00 160.33 2502.07
   19:14:41.648.25-Dec-2020 4808.01 2305.52 63.87 7.00 160.53 2502.07
   19:14:41.848.25-Dec-2020 4808.01 2305.56 63.87 7.00 160.73 2502.07
   19:14:42.048.25-Dec-2020 4808.01 2305.48 63.87 7.00 160.93 2502.07
