~Version Information
 VERS.                  2.0:   CWLS log ASCII Standard -VERSION 2.0
 WRAP.                   NO:   One line per depth step
~Well Information Block
#MNEM.UNIT     VALUE/NAME     DESCRIPTION
#---------     -----------    ---------------------------
 STRT.S             13:36:27 25-Dec-20: START TIME 13:36:27 25-Dec-20
 STOP.S             13:44:49 25-Dec-20: STOP TIME  13:44:49 25-Dec-20
 STEP.S                   0.00: STEP TIME
 NULL.                 -999.25: NULL VALUE
 DFWT.                        :  DIST FWL TEXT
 DFST.                        :  DIST FSL TEXT
 DMF .             Drill Floor:  DRILL MEAS FROM
 STIM.      04.54.24 22-Sep-20:  START TIME
 DATE.      04.54.24 21-Nov-20:  END TIME
 SPUD.               21-Nov-20:  SPUD DATE
 NREF.                    Grid:  NORTH REFERENCE
 HPTY.       Minimum Curvature:  HOLE POS TYPE
 DMOD.             Drill Model:  DRILL MOD DESC
 SVYD.                  Survey:  SURVEY DESC
 ILTD.               Lithology:  INTERP LTH DESC
 FTOP.          Formation Tops:  FORM TOPS DESC
 SON .        AZ-XX-0906571587:  JOB NUMBER
 COMP.     BP Exploration (Caspian Sea) Ltd:  COMPANY
 UWI .                     N/A:  UNIQUE WELL IDENTIFIER
 API .                     N/A:  API NUMBER
 BASE.              Azerbaijan:  LOGGING EQUIPMENT BASE LOCATION
 REGN.                   EESSA:  REGION
 PROV.                    Baku:  PROVINCE
 STAT.                    Baku:  STATE NAME
 CTRY.              Azerbaijan:  COUNTRY NAME
 FLD .                     ACG:  FIELD NAME
 SRVC.     TURAN Drilling & Engineering:  CONTRACTOR
 WELL.                     J27:  WELL NAME
 RIG .             West Chirag:  RIG NAME
 DOE .                     N/A:  DOE NUMBER
 DCON.         Sperry Drilling:  DIRECTNL CONTR
 PDAT.          Mean Sea Level:  PERMANENT DATUM
 WTYP.                Deviated:  WELL TYPE
 MWDS.                    Baku:  MWD SHOP
 JOBN.        AZ-XX-0906571587:  JOB TICKET NUMB
 UNIT.                     N/A:  LOGGING EQUIPMENT ID
 MDS .        Operator Entered:  MAG DATA SOURCE
 CNTY.                        :  COUNTY
 LOC .                        :  LOCATION
 LMF .             Drill Floor:  LOG MEASURED FROM
 TVDS.m                  43.00:  TVDSS CORRECTN
 LATI.deg                40.13:  LATITUDE
 LONG.deg                51.22:  LONGITUDE
 WHNS.m                   7.72:  WELL HEAD N/S
 WHEW.m                 -14.24:  WELL HEAD E/W
 UTMX.m              519005.06:  UTM X
 UTMY.m             4443793.85:  UTM Y
 DFWL.m                   0.00:  DISTANCE FWL
 DFSL.m                   0.00:  DISTANCE FSL
 SDEP.m                 347.00:  START DEPTH
 TDD .m                 581.00:  TOTAL DEPTH (DRILLER)
 VSDR.deg               159.72:  VERT SEC DIRECT
 GVFD.g                   1.00:  GRAVITY FIELD
 MFLD.nT              50318.00:  MAGNETIC FIELD
 MDIP.deg                59.57:  MAGNETIC DIP
 MDEC.deg                 6.44:  MAGNETIC DECL
 GRDC.deg                 0.15:  GRID CORRECTION
 AZTC.deg                 6.29:  AZM TOTAL CORR
 EPD .m                   0.00:  ELEVATION
 EGL .m                   0.00:  GROUND ELEVATION
 WDMS.m                 169.80:  WD ELEV
 APD .m                  43.00:  DEPTH ABOVE PD
 AGAP.m                  43.00:  AIR GAP
 VSEW.m                 -14.24:  VERT SEC E/W
 VSNS.m                   7.72:  VERT SEC N/S
 DEP .m                 342.45:  DEPTH
 EKB .m                   0.00:  KB ELEVATION
 EDF .m                  43.00:  DF ELEVATION
 TDL .m                 237.00:  TOTAL DEPTH (LOGGER)
 VSC .                       0:  VS TO CLOSURE
 MAGU.                 1851428:  MAGUTM CHECKSUM
~Parameter Information Block
#MNEM.UNIT       Value        Description
#---------     -----------    ---------------------------
 AV  .mps                 1.50:  Ann Velocity 
 AVMX.mps                 2.90:  Max Ann Veloc 
 AZIF.deg               115.59:  Azm, Final 
 BHAT.        Rotary Steerable:  BHA Type 
 BROT.°/30m               0.50:  Build Rotating 
 BS  .in                  8.50:  Bit Size 
 BTPL.psig              580.00:  Bit Press Loss 
 CABU.                     Yes:  Customer Abuse 
 COMM.                     lW:  Run Comments 1 
 TCS .hr                 89.79:  Time Ciculation Ended 
 CV  .mps                 3.22:  Crit Velocity 
 CVMX.mps                 4.37:  Max Crit Veloc 
 DD1 .          Rashad Habibov:  Direct Drillr 1 
 DDSV.               Geo-Pilot:  DD Service 
 DEFF.%                  95.00:  % Det Eff 
 DLRX.°/30m               1.94:  Dogleg Rot Max 
 DLSO.°/30m               0.70:  Dogleg Oriented 
 DLSX.°/30m               1.94:  Dogleg Str Max 
 DRET.      04.45.00 25-Dec-20:  Drill End Time 
 DRST.      10.00.00 24-Dec-20:  Drill Start Tim 
 DTIM.hr                 16.64:  Time Drilling 
 EDEP.m                4999.01:  End Depth 
 ENG1.         Elchin Mammadov:  Engineer 1 
 ENG2.          Ruslan Safarov:  Engineer 2 
 ENG3.          Rustam Safarov:  Engineer 3 
 ETIM.      09.00.00 29-Dec-20:  End Time 
 FLOI.gpm               500.00:  Flow In 
 FLON.gpm               400.00:  Flow In Min 
 FLOS.cptm                0.00:  Fluid Loss 
 FLOX.gpm               500.00:  Flow In Max 
 HFLO.                      No:  High Flow 
 HPRE.                      No:  High Pressure 
 HTEM.                      No:  High Temp 
 HYDO.m                   2.00:  Hydro Offset 
 IFIN.deg                66.79:  Inc, Final 
 IMAX.deg                67.66:  Inc Max 
 IMIN.deg                66.39:  Inc Min 
 IMND.m                4949.37:  Inc Min Depth 
 IMXD.m                4778.63:  Inc Max Depth 
 JARR.                     Yes:  Jarring 
 LETM.      04.45.00 25-Dec-20:  Log End Time 
 LOST.hr                     0:  Lost Rig Time 
 LSTM.      10.00.00 24-Dec-20:  Log Start Time 
 MDCL.ppm             39000.00:  Mud Chlorides 
 MDES.     Inversion Oil/Synthetic:  Mud Desc 
 DFD .sg                  1.33:  Mud Density 
 MDMN.sg                  1.33:  Dens Mud Min 
 MDMX.sg                  1.33:  Dens Mud Max 
 MOIL.                      70:  Run Mud Oil % 
 MOWR.                   70:30:  Run Mud OWR 
 MSND.                       0:  Run Mud Sand % 
 MSOL.                    17.4:  Run Mud Solids% 
 DFV .spqt               84.00:  Mud Viscosity 
 MWOD.in                  6.75:  MWD Tool OD 
 MWSI.                     Yes:  Serv Intrp, MWD 
 OTIM.hr                168.14:  Time Operating 
 PCON.           Look Like New:  Pad Condition 
 PMAX.psia            10822.93:  Press Op, Max 
 PV  .cP                 30.00:  Mud PV 
 RUN .                     900:  Run Number 
 ROPA.m/hr               18.00:  ROP Avg 
 ROPN.m/hr               12.00:  ROP Min 
 ROPX.m/hr               25.00:  ROP Max 
 RPMA.rpm               120.00:  RPM Surface Avg 
 RPMN.rpm               100.00:  RPM Surface Min 
 RPMX.rpm               120.00:  RPM Surface Max 
 RRUN.                    0900:  Rig Run Number 
 SAZI.deg               115.08:  Azm, Start 
 SDEP.m                4762.01:  Start Depth 
 SIDD.                      No:  Serv Intrp, DD 
 SINC.deg                66.14:  Inc, Start 
 SPPA.psig             3700.00:  SPP Avg 
 SPPN.psig             3620.00:  SPP Min 
 SPPX.psig             3900.00:  SPP Max 
 STIM.      09.30.00 22-Dec-20:  Start Time 
 SVCS.                 DD, MWD:  Services 
 SVER.                    9.20:  Sperry Version 
 TDAT.m                 237.00:  Tot Depth Attmp 
 TDDF.                      No:  Trip for DD 
 TDLG.m                 237.00:  Tot Depth Loggd 
 TFF .                      No:  Trip for Fail 
 TQAA.f-kp               18.00:  Torque Abs Avg 
 TQAN.f-kp               17.00:  Torque Abs Min 
 TQAX.f-kp               20.00:  Torque Abs Max 
 TRRT.°/30m               0.60:  Turn Rotating 
 MRT .                    HCIM:  Maximum Recorded Temperature 
 TTMX.degC               94.12:  Max Tool Temp 
 VS01.                90627809:  Virtual Str1 SN 
 VS02.                90527813:  Virtual Str2 SN 
 VS03.                90545417:  Virtual Str3 SN 
 VS04.                12460870:  Virtual Str4 SN 
 VS05.                90516706:  Virtual Str5 SN 
 VS06.                90632007:  Virtual Str6 SN 
 WBMN.klb                 0.00:  WOB Min 
 WOBA.klb                14.00:  WOB Avg 
 WOBX.klb                25.00:  WOB Max 
 YP  .lhf2               32.00:  Yield Point 
~Curve Information Block
#MNEM.UNIT                 API CODE     Curve Description
#---------               -----------    ---------------------------
 TIME.HHMMSS            00 000 000 000:  GT Time & Date
 GTDEPTH.m              00 000 000 000:  GT Depth
 GTPQH.psia             00 000 000 000:  GT HR Quartz Pressure
 GTTQ.degC              00 000 000 000:  GT Quartz Temperature
 GTTN.NONE              00 000 000 000:  GT Test Number
 GTET.sec               00 000 000 000:  GT Elapsed Test Time
 GTTVD.m                00 000 000 000:  GT True Vertical Depth
#Other Information
#
#WARRANTY: Halliburton will use its best efforts to furnish customers with 
#accurate information and interpretations that are part of, and incident to, the services 
#provided.  However, Halliburton cannot and does not warrant the accuracy 
#or correctness of such information and interpretations.  Under no circumstances should any 
#such information or interpretation be relied upon as the sole basis for any drilling, 
#completion, production, or financial decision or any procedure involving any risk to the 
#safety of any drilling venture, drilling rig or its crew or any other third party.  The 
#Customer has full responsibility for all drilling, completion and production operation.  
#Halliburton makes no representations or warranties, either expressed or 
#implied, including, but not limited to, the implied warranties of merchantability or fitness 
#for a particular purpose, with respect to the services rendered.  In no event will 
#Halliburton be liable for failure to obtain any particular results or for 
#any damages, including, but not limited to, indirect, special or consequential damages, 
#resulting from the use of any information or interpretation provided by Halliburton.
#
~A           TIME           GTDEPTH  GTPQH  GTTQ  GTTN  GTET   GTTVD  
# ...
   13:36:50.000.25-Dec-2020 4921.01 5490.68 66.38 2.00  23.00 2546.48
   13:36:50.200.25-Dec-2020 4921.01 5490.68 66.38 2.00  23.20 2546.48
   13:36:50.400.25-Dec-2020 4921.01 5488.82 66.38 2.00  23.40 2546.48
   13:36:50.600.25-Dec-2020 4921.01 5489.65 66.38 2.00  23.60 2546.48
   13:36:50.800.25-Dec-2020 4921.01 5488.06 66.38 2.00  23.80 2546.48
   13:36:51.000.25-Dec-2020 4921.01 5488.87 66.38 2.00  24.00 2546.48
   13:36:51.200.25-Dec-2020 4921.01 5488.87 66.38 2.00  24.20 2546.48
   13:36:51.400.25-Dec-2020 4921.01 5489.94 66.38 2.00  24.40 2546.48
   13:36:51.600.25-Dec-2020 4921.01 5490.41 66.38 2.00  24.60 2546.48
   13:36:51.800.25-Dec-2020 4921.01 5489.01 66.38 2.00  24.80 2546.48
   13:36:52.000.25-Dec-2020 4921.01 5497.75 66.38 2.00  25.00 2546.48
   13:36:52.200.25-Dec-2020 4921.01 5497.75 66.38 2.00  25.20 2546.48
   13:36:52.400.25-Dec-2020 4921.01 5490.61 66.38 2.00  25.40 2546.48
   13:36:52.600.25-Dec-2020 4921.01 5491.46 66.38 2.00  25.60 2546.48
   13:36:52.800.25-Dec-2020 4921.01 5502.00 66.38 2.00  25.80 2546.48
   13:36:53.000.25-Dec-2020 4921.01 5492.88 66.38 2.00  26.00 2546.48
   13:36:53.200.25-Dec-2020 4921.01 5492.88 66.38 2.00  26.20 2546.48
   13:36:53.400.25-Dec-2020 4921.01 5491.28 66.38 2.00  26.40 2546.48
   13:36:53.600.25-Dec-2020 4921.01 5493.77 66.38 2.00  26.60 2546.48
   13:36:53.800.25-Dec-2020 4921.01 5496.95 66.38 2.00  26.80 2546.48
   13:36:54.000.25-Dec-2020 4921.01 5493.85 66.38 2.00  27.00 2546.48
   13:36:54.200.25-Dec-2020 4921.01 5493.85 66.38 2.00  27.20 2546.48
   13:36:54.400.25-Dec-2020 4921.01 5499.92 66.38 2.00  27.40 2546.48
   13:36:54.600.25-Dec-2020 4921.01 5495.00 66.37 2.00  27.60 2546.48
   13:36:54.800.25-Dec-2020 4921.01 5495.33 66.37 2.00  27.80 2546.48
   13:36:55.000.25-Dec-2020 4921.01 5495.83 66.37 2.00  28.00 2546.48
   13:36:55.200.25-Dec-2020 4921.01 5495.83 66.37 2.00  28.20 2546.48
   13:36:55.400.25-Dec-2020 4921.01 5493.18 66.37 2.00  28.40 2546.48
   13:36:55.600.25-Dec-2020 4921.01 5492.83 66.37 2.00  28.60 2546.48
   13:36:55.800.25-Dec-2020 4921.01 5490.94 66.37 2.00  28.80 2546.48
   13:36:56.000.25-Dec-2020 4921.01 5493.04 66.37 2.00  29.00 2546.48
   13:36:56.200.25-Dec-2020 4921.01 5493.04 66.37 2.00  29.20 2546.48
   13:36:56.400.25-Dec-2020 4921.01 5491.46 66.37 2.00  29.40 2546.48
   13:36:56.600.25-Dec-2020 4921.01 5492.91 66.37 2.00  29.60 2546.48
   13:36:56.800.25-Dec-2020 4921.01 5498.68 66.37 2.00  29.80 2546.48
   13:36:57.000.25-Dec-2020 4921.01 5495.53 66.37 2.00  30.00 2546.48
   13:36:57.200.25-Dec-2020 4921.01 5495.53 66.37 2.00  30.20 2546.48
   13:36:57.400.25-Dec-2020 4921.01 5496.26 66.37 2.00  30.40 2546.48
   13:36:57.600.25-Dec-2020 4921.01 5496.25 66.37 2.00  30.60 2546.48
   13:36:57.800.25-Dec-2020 4921.01 5494.94 66.37 2.00  30.80 2546.48
   13:36:58.000.25-Dec-2020 4921.01 5494.62 66.37 2.00  31.00 2546.48
   13:36:58.200.25-Dec-2020 4921.01 5494.62 66.37 2.00  31.20 2546.48
   13:36:58.400.25-Dec-2020 4921.01 5494.79 66.37 2.00  31.40 2546.48
   13:36:58.600.25-Dec-2020 4921.01 5496.55 66.37 2.00  31.60 2546.48
   13:36:58.800.25-Dec-2020 4921.01 5495.51 66.37 2.00  31.80 2546.48
   13:36:59.000.25-Dec-2020 4921.01 5495.87 66.37 2.00  32.00 2546.48
   13:36:59.200.25-Dec-2020 4921.01 5495.87 66.37 2.00  32.20 2546.48
   13:36:59.400.25-Dec-2020 4921.01 5502.49 66.37 2.00  32.40 2546.48
   13:36:59.600.25-Dec-2020 4921.01 5498.30 66.37 2.00  32.60 2546.48
   13:36:59.800.25-Dec-2020 4921.01 5496.80 66.37 2.00  32.80 2546.48
   13:37:00.000.25-Dec-2020 4921.01 5497.40 66.37 2.00  33.00 2546.48
   13:37:00.200.25-Dec-2020 4921.01 5497.40 66.37 2.00  33.20 2546.48
   13:37:00.400.25-Dec-2020 4921.01 5496.21 66.37 2.00  33.40 2546.48
   13:37:00.600.25-Dec-2020 4921.01 5501.62 66.37 2.00  33.60 2546.48
   13:37:00.800.25-Dec-2020 4921.01 5496.47 66.37 2.00  33.80 2546.48
   13:37:01.000.25-Dec-2020 4921.01 5498.32 66.37 2.00  34.00 2546.48
   13:37:01.200.25-Dec-2020 4921.01 5498.32 66.37 2.00  34.20 2546.48
   13:37:01.400.25-Dec-2020 4921.01 5498.55 66.37 2.00  34.40 2546.48
   13:37:01.600.25-Dec-2020 4921.01 5499.97 66.37 2.00  34.60 2546.48
   13:37:01.800.25-Dec-2020 4921.01 5457.50 66.37 2.00  34.80 2546.48
   13:37:02.000.25-Dec-2020 4921.01 5487.51 66.37 2.00  35.00 2546.48
   13:37:02.200.25-Dec-2020 4921.01 5487.51 66.37 2.00  35.20 2546.48
   13:37:02.400.25-Dec-2020 4921.01 5561.79 66.37 2.00  35.40 2546.48
   13:37:02.600.25-Dec-2020 4921.01 5622.99 66.37 2.00  35.60 2546.48
   13:37:02.800.25-Dec-2020 4921.01 5650.80 66.37 2.00  35.80 2546.48
   13:37:03.000.25-Dec-2020 4921.01 5660.45 66.37 2.00  36.00 2546.48
   13:37:03.200.25-Dec-2020 4921.01 5660.45 66.37 2.00  36.20 2546.48
   13:37:03.400.25-Dec-2020 4921.01 5706.67 66.37 2.00  36.40 2546.48
   13:37:03.600.25-Dec-2020 4921.01 5718.87 66.37 2.00  36.60 2546.48
   13:37:03.800.25-Dec-2020 4921.01 5718.17 66.37 2.00  36.80 2546.48
   13:37:04.000.25-Dec-2020 4921.01 5715.97 66.37 2.00  37.00 2546.48
   13:37:04.200.25-Dec-2020 4921.01 5715.97 66.37 2.00  37.20 2546.48
   13:37:04.400.25-Dec-2020 4921.01 5615.09 66.37 2.00  37.40 2546.48
   13:37:04.600.25-Dec-2020 4921.01 5572.70 66.37 2.00  37.60 2546.48
   13:37:04.800.25-Dec-2020 4921.01 5542.07 66.37 2.00  37.80 2546.48
   13:37:05.000.25-Dec-2020 4921.01 5504.96 66.37 2.00  38.00 2546.48
   13:37:05.200.25-Dec-2020 4921.01 5504.96 66.37 2.00  38.20 2546.48
   13:37:05.400.25-Dec-2020 4921.01 5444.68 66.37 2.00  38.40 2546.48
   13:37:05.600.25-Dec-2020 4921.01 5412.80 66.37 2.00  38.60 2546.48
   13:37:05.800.25-Dec-2020 4921.01 5366.74 66.37 2.00  38.80 2546.48
   13:37:06.000.25-Dec-2020 4921.01 5304.08 66.37 2.00  39.00 2546.48
   13:37:06.200.25-Dec-2020 4921.01 5304.08 66.37 2.00  39.20 2546.48
   13:37:06.400.25-Dec-2020 4921.01 5186.72 66.37 2.00  39.40 2546.48
   13:37:06.600.25-Dec-2020 4921.01 5126.92 66.37 2.00  39.60 2546.48
   13:37:06.800.25-Dec-2020 4921.01 5086.52 66.37 2.00  39.80 2546.48
   13:37:07.000.25-Dec-2020 4921.01 5034.61 66.37 2.00  40.00 2546.48
   13:37:07.200.25-Dec-2020 4921.01 5034.61 66.37 2.00  40.20 2546.48
   13:37:07.400.25-Dec-2020 4921.01 4954.33 66.37 2.00  40.40 2546.48
   13:37:07.600.25-Dec-2020 4921.01 4942.05 66.37 2.00  40.60 2546.48
   13:37:07.800.25-Dec-2020 4921.01 4939.16 66.37 2.00  40.80 2546.48
   13:37:08.000.25-Dec-2020 4921.01 5039.89 66.36 2.00  41.00 2546.48
   13:37:08.200.25-Dec-2020 4921.01 5039.89 66.36 2.00  41.20 2546.48
   13:37:08.400.25-Dec-2020 4921.01 5970.55 66.36 2.00  41.40 2546.48
   13:37:08.600.25-Dec-2020 4921.01 5977.07 66.36 2.00  41.60 2546.48
   13:37:08.800.25-Dec-2020 4921.01 5905.53 66.36 2.00  41.80 2546.48
   13:37:09.000.25-Dec-2020 4921.01 5874.38 66.36 2.00  42.00 2546.48
   13:37:09.200.25-Dec-2020 4921.01 5874.38 66.36 2.00  42.20 2546.48
   13:37:09.400.25-Dec-2020 4921.01 5900.69 66.36 2.00  42.40 2546.48
   13:37:09.600.25-Dec-2020 4921.01 5846.75 66.36 2.00  42.60 2546.48
   13:37:09.800.25-Dec-2020 4921.01 5764.05 66.36 2.00  42.80 2546.48
   13:37:10.000.25-Dec-2020 4921.01 5692.67 66.36 2.00  43.00 2546.48
   13:37:10.200.25-Dec-2020 4921.01 5692.67 66.36 2.00  43.20 2546.48
   13:37:10.400.25-Dec-2020 4921.01 5740.96 66.36 2.00  43.40 2546.48
   13:37:10.600.25-Dec-2020 4921.01 5763.57 66.36 2.00  43.60 2546.48
   13:37:10.800.25-Dec-2020 4921.01 5781.97 66.36 2.00  43.80 2546.48
   13:37:11.000.25-Dec-2020 4921.01 5784.56 66.36 2.00  44.00 2546.48
   13:37:11.200.25-Dec-2020 4921.01 5784.56 66.36 2.00  44.20 2546.48
   13:37:11.400.25-Dec-2020 4921.01 5794.05 66.36 2.00  44.40 2546.48
   13:37:11.600.25-Dec-2020 4921.01 5798.28 66.36 2.00  44.60 2546.48
   13:37:11.800.25-Dec-2020 4921.01 5809.12 66.36 2.00  44.80 2546.48
   13:37:12.000.25-Dec-2020 4921.01 5804.82 66.36 2.00  45.00 2546.48
   13:37:12.200.25-Dec-2020 4921.01 5804.82 66.36 2.00  45.20 2546.48
   13:37:12.400.25-Dec-2020 4921.01 5809.10 66.36 2.00  45.40 2546.48
   13:37:12.600.25-Dec-2020 4921.01 5621.37 66.36 2.00  45.60 2546.48
   13:37:12.800.25-Dec-2020 4921.01 5441.09 66.36 2.00  45.80 2546.48
