~Version Information
 VERS.                  2.0:   CWLS log ASCII Standard -VERSION 2.0
 WRAP.                   NO:   One line per depth step
~Well Information Block
#MNEM.UNIT     VALUE/NAME     DESCRIPTION
#---------     -----------    ---------------------------
 STRT.S             12:53:37 25-Dec-20: START TIME 12:53:37 25-Dec-20
 STOP.S             13:01:52 25-Dec-20: STOP TIME  13:01:52 25-Dec-20
 STEP.S                   0.00: STEP TIME
 NULL.                 -999.25: NULL VALUE
 DFWT.                        :  DIST FWL TEXT
 DFST.                        :  DIST FSL TEXT
 DMF .             Drill Floor:  DRILL MEAS FROM
 STIM.      04.54.24 22-Sep-20:  START TIME
 DATE.      04.54.24 21-Nov-20:  END TIME
 SPUD.               21-Nov-20:  SPUD DATE
 NREF.                    Grid:  NORTH REFERENCE
 HPTY.       Minimum Curvature:  HOLE POS TYPE
 DMOD.             Drill Model:  DRILL MOD DESC
 SVYD.                  Survey:  SURVEY DESC
 ILTD.               Lithology:  INTERP LTH DESC
 FTOP.          Formation Tops:  FORM TOPS DESC
 SON .        AZ-XX-0906571587:  JOB NUMBER
 COMP.     BP Exploration (Caspian Sea) Ltd:  COMPANY
 UWI .                     N/A:  UNIQUE WELL IDENTIFIER
 API .                     N/A:  API NUMBER
 BASE.              Azerbaijan:  LOGGING EQUIPMENT BASE LOCATION
 REGN.                   EESSA:  REGION
 PROV.                    Baku:  PROVINCE
 STAT.                    Baku:  STATE NAME
 CTRY.              Azerbaijan:  COUNTRY NAME
 FLD .                     ACG:  FIELD NAME
 SRVC.     TURAN Drilling & Engineering:  CONTRACTOR
 WELL.                     J27:  WELL NAME
 RIG .             West Chirag:  RIG NAME
 DOE .                     N/A:  DOE NUMBER
 DCON.         Sperry Drilling:  DIRECTNL CONTR
 PDAT.          Mean Sea Level:  PERMANENT DATUM
 WTYP.                Deviated:  WELL TYPE
 MWDS.                    Baku:  MWD SHOP
 JOBN.        AZ-XX-0906571587:  JOB TICKET NUMB
 UNIT.                     N/A:  LOGGING EQUIPMENT ID
 MDS .        Operator Entered:  MAG DATA SOURCE
 CNTY.                        :  COUNTY
 LOC .                        :  LOCATION
 LMF .             Drill Floor:  LOG MEASURED FROM
 TVDS.m                  43.00:  TVDSS CORRECTN
 LATI.deg                40.13:  LATITUDE
 LONG.deg                51.22:  LONGITUDE
 WHNS.m                   7.72:  WELL HEAD N/S
 WHEW.m                 -14.24:  WELL HEAD E/W
 UTMX.m              519005.06:  UTM X
 UTMY.m             4443793.85:  UTM Y
 DFWL.m                   0.00:  DISTANCE FWL
 DFSL.m                   0.00:  DISTANCE FSL
 SDEP.m                 347.00:  START DEPTH
 TDD .m                 581.00:  TOTAL DEPTH (DRILLER)
 VSDR.deg               159.72:  VERT SEC DIRECT
 GVFD.g                   1.00:  GRAVITY FIELD
 MFLD.nT              50318.00:  MAGNETIC FIELD
 MDIP.deg                59.57:  MAGNETIC DIP
 MDEC.deg                 6.44:  MAGNETIC DECL
 GRDC.deg                 0.15:  GRID CORRECTION
 AZTC.deg                 6.29:  AZM TOTAL CORR
 EPD .m                   0.00:  ELEVATION
 EGL .m                   0.00:  GROUND ELEVATION
 WDMS.m                 169.80:  WD ELEV
 APD .m                  43.00:  DEPTH ABOVE PD
 AGAP.m                  43.00:  AIR GAP
 VSEW.m                 -14.24:  VERT SEC E/W
 VSNS.m                   7.72:  VERT SEC N/S
 DEP .m                 342.45:  DEPTH
 EKB .m                   0.00:  KB ELEVATION
 EDF .m                  43.00:  DF ELEVATION
 TDL .m                 237.00:  TOTAL DEPTH (LOGGER)
 VSC .                       0:  VS TO CLOSURE
 MAGU.                 1851428:  MAGUTM CHECKSUM
~Parameter Information Block
#MNEM.UNIT       Value        Description
#---------     -----------    ---------------------------
 AV  .mps                 1.50:  Ann Velocity 
 AVMX.mps                 2.90:  Max Ann Veloc 
 AZIF.deg               115.59:  Azm, Final 
 BHAT.        Rotary Steerable:  BHA Type 
 BROT.°/30m               0.50:  Build Rotating 
 BS  .in                  8.50:  Bit Size 
 BTPL.psig              580.00:  Bit Press Loss 
 CABU.                     Yes:  Customer Abuse 
 COMM.                     LÓw:  Run Comments 1 
 TCS .hr                 89.79:  Time Ciculation Ended 
 CV  .mps                 3.22:  Crit Velocity 
 CVMX.mps                 4.37:  Max Crit Veloc 
 DD1 .          Rashad Habibov:  Direct Drillr 1 
 DDSV.               Geo-Pilot:  DD Service 
 DEFF.%                  95.00:  % Det Eff 
 DLRX.°/30m               1.94:  Dogleg Rot Max 
 DLSO.°/30m               0.70:  Dogleg Oriented 
 DLSX.°/30m               1.94:  Dogleg Str Max 
 DRET.      04.45.00 25-Dec-20:  Drill End Time 
 DRST.      10.00.00 24-Dec-20:  Drill Start Tim 
 DTIM.hr                 16.64:  Time Drilling 
 EDEP.m                4999.01:  End Depth 
 ENG1.         Elchin Mammadov:  Engineer 1 
 ENG2.          Ruslan Safarov:  Engineer 2 
 ENG3.          Rustam Safarov:  Engineer 3 
 ETIM.      09.00.00 29-Dec-20:  End Time 
 FLOI.gpm               500.00:  Flow In 
 FLON.gpm               400.00:  Flow In Min 
 FLOS.cptm                0.00:  Fluid Loss 
 FLOX.gpm               500.00:  Flow In Max 
 HFLO.                      No:  High Flow 
 HPRE.                      No:  High Pressure 
 HTEM.                      No:  High Temp 
 HYDO.m                   2.00:  Hydro Offset 
 IFIN.deg                66.79:  Inc, Final 
 IMAX.deg                67.66:  Inc Max 
 IMIN.deg                66.39:  Inc Min 
 IMND.m                4949.37:  Inc Min Depth 
 IMXD.m                4778.63:  Inc Max Depth 
 JARR.                     Yes:  Jarring 
 LETM.      04.45.00 25-Dec-20:  Log End Time 
 LOST.hr                     0:  Lost Rig Time 
 LSTM.      10.00.00 24-Dec-20:  Log Start Time 
 MDCL.ppm             39000.00:  Mud Chlorides 
 MDES.     Inversion Oil/Synthetic:  Mud Desc 
 DFD .sg                  1.33:  Mud Density 
 MDMN.sg                  1.33:  Dens Mud Min 
 MDMX.sg                  1.33:  Dens Mud Max 
 MOIL.                      70:  Run Mud Oil % 
 MOWR.                   70:30:  Run Mud OWR 
 MSND.                       0:  Run Mud Sand % 
 MSOL.                    17.4:  Run Mud Solids% 
 DFV .spqt               84.00:  Mud Viscosity 
 MWOD.in                  6.75:  MWD Tool OD 
 MWSI.                     Yes:  Serv Intrp, MWD 
 OTIM.hr                168.14:  Time Operating 
 PCON.           Look Like New:  Pad Condition 
 PMAX.psia            10822.93:  Press Op, Max 
 PV  .cP                 30.00:  Mud PV 
 RUN .                     900:  Run Number 
 ROPA.m/hr               18.00:  ROP Avg 
 ROPN.m/hr               12.00:  ROP Min 
 ROPX.m/hr               25.00:  ROP Max 
 RPMA.rpm               120.00:  RPM Surface Avg 
 RPMN.rpm               100.00:  RPM Surface Min 
 RPMX.rpm               120.00:  RPM Surface Max 
 RRUN.                    0900:  Rig Run Number 
 SAZI.deg               115.08:  Azm, Start 
 SDEP.m                4762.01:  Start Depth 
 SIDD.                      No:  Serv Intrp, DD 
 SINC.deg                66.14:  Inc, Start 
 SPPA.psig             3700.00:  SPP Avg 
 SPPN.psig             3620.00:  SPP Min 
 SPPX.psig             3900.00:  SPP Max 
 STIM.      09.30.00 22-Dec-20:  Start Time 
 SVCS.                 DD, MWD:  Services 
 SVER.                    9.20:  Sperry Version 
 TDAT.m                 237.00:  Tot Depth Attmp 
 TDDF.                      No:  Trip for DD 
 TDLG.m                 237.00:  Tot Depth Loggd 
 TFF .                      No:  Trip for Fail 
 TQAA.f-kp               18.00:  Torque Abs Avg 
 TQAN.f-kp               17.00:  Torque Abs Min 
 TQAX.f-kp               20.00:  Torque Abs Max 
 TRRT.°/30m               0.60:  Turn Rotating 
 MRT .                    HCIM:  Maximum Recorded Temperature 
 TTMX.degC               94.12:  Max Tool Temp 
 VS01.                90627809:  Virtual Str1 SN 
 VS02.                90527813:  Virtual Str2 SN 
 VS03.                90545417:  Virtual Str3 SN 
 VS04.                12460870:  Virtual Str4 SN 
 VS05.                90516706:  Virtual Str5 SN 
 VS06.                90632007:  Virtual Str6 SN 
 WBMN.klb                 0.00:  WOB Min 
 WOBA.klb                14.00:  WOB Avg 
 WOBX.klb                25.00:  WOB Max 
 YP  .lhf2               32.00:  Yield Point 
~Curve Information Block
#MNEM.UNIT                 API CODE     Curve Description
#---------               -----------    ---------------------------
 TIME.HHMMSS            00 000 000 000:  GT Time & Date
 GTDEPTH.m              00 000 000 000:  GT Depth
 GTPQH.psia             00 000 000 000:  GT HR Quartz Pressure
 GTTQ.degC              00 000 000 000:  GT Quartz Temperature
 GTTN.NONE              00 000 000 000:  GT Test Number
 GTET.sec               00 000 000 000:  GT Elapsed Test Time
 GTTVD.m                00 000 000 000:  GT True Vertical Depth
#Other Information
#
#WARRANTY: Halliburton will use its best efforts to furnish customers with 
#accurate information and interpretations that are part of, and incident to, the services 
#provided.  However, Halliburton cannot and does not warrant the accuracy 
#or correctness of such information and interpretations.  Under no circumstances should any 
#such information or interpretation be relied upon as the sole basis for any drilling, 
#completion, production, or financial decision or any procedure involving any risk to the 
#safety of any drilling venture, drilling rig or its crew or any other third party.  The 
#Customer has full responsibility for all drilling, completion and production operation.  
#Halliburton makes no representations or warranties, either expressed or 
#implied, including, but not limited to, the implied warranties of merchantability or fitness 
#for a particular purpose, with respect to the services rendered.  In no event will 
#Halliburton be liable for failure to obtain any particular results or for 
#any damages, including, but not limited to, indirect, special or consequential damages, 
#resulting from the use of any information or interpretation provided by Halliburton.
#
~A           TIME           GTDEPTH  GTPQH  GTTQ  GTTN  GTET   GTTVD  
# ...
   12:54:00.195.25-Dec-2020 4950.51 5509.48 66.74 1.00  23.01 2558.08
   12:54:00.395.25-Dec-2020 4950.51 5509.48 66.74 1.00  23.21 2558.08
   12:54:00.595.25-Dec-2020 4950.51 5512.73 66.74 1.00  23.41 2558.08
   12:54:00.795.25-Dec-2020 4950.51 5510.21 66.74 1.00  23.61 2558.08
   12:54:00.995.25-Dec-2020 4950.51 5515.40 66.74 1.00  23.81 2558.08
   12:54:01.195.25-Dec-2020 4950.51 5511.60 66.74 1.00  24.01 2558.08
   12:54:01.395.25-Dec-2020 4950.51 5511.60 66.74 1.00  24.21 2558.08
   12:54:01.596.25-Dec-2020 4950.51 5512.21 66.74 1.00  24.41 2558.08
   12:54:01.796.25-Dec-2020 4950.51 5511.71 66.74 1.00  24.61 2558.08
   12:54:01.996.25-Dec-2020 4950.51 5512.02 66.74 1.00  24.81 2558.08
   12:54:02.196.25-Dec-2020 4950.51 5510.78 66.74 1.00  25.01 2558.08
   12:54:02.396.25-Dec-2020 4950.51 5510.78 66.74 1.00  25.21 2558.08
   12:54:02.596.25-Dec-2020 4950.51 5510.89 66.74 1.00  25.41 2558.08
   12:54:02.796.25-Dec-2020 4950.51 5510.96 66.74 1.00  25.61 2558.08
   12:54:02.996.25-Dec-2020 4950.51 5526.96 66.74 1.00  25.81 2558.08
   12:54:03.196.25-Dec-2020 4950.51 5507.32 66.74 1.00  26.01 2558.08
   12:54:03.396.25-Dec-2020 4950.51 5507.32 66.74 1.00  26.21 2558.08
   12:54:03.596.25-Dec-2020 4950.51 5519.61 66.74 1.00  26.41 2558.08
   12:54:03.797.25-Dec-2020 4950.51 5524.74 66.74 1.00  26.61 2558.08
   12:54:03.997.25-Dec-2020 4950.51 5513.22 66.74 1.00  26.81 2558.08
   12:54:04.197.25-Dec-2020 4950.51 5515.71 66.74 1.00  27.01 2558.08
   12:54:04.397.25-Dec-2020 4950.51 5515.71 66.74 1.00  27.21 2558.08
   12:54:04.597.25-Dec-2020 4950.51 5512.75 66.74 1.00  27.41 2558.08
   12:54:04.797.25-Dec-2020 4950.51 5514.14 66.74 1.00  27.61 2558.08
   12:54:04.997.25-Dec-2020 4950.51 5524.16 66.74 1.00  27.81 2558.08
   12:54:05.197.25-Dec-2020 4950.51 5515.55 66.74 1.00  28.01 2558.08
   12:54:05.397.25-Dec-2020 4950.51 5515.55 66.74 1.00  28.21 2558.08
   12:54:05.597.25-Dec-2020 4950.51 5528.40 66.74 1.00  28.41 2558.08
   12:54:05.797.25-Dec-2020 4950.51 5603.05 66.74 1.00  28.61 2558.08
   12:54:05.998.25-Dec-2020 4950.51 5755.08 66.74 1.00  28.81 2558.08
   12:54:06.198.25-Dec-2020 4950.51 5823.78 66.74 1.00  29.01 2558.08
   12:54:06.398.25-Dec-2020 4950.51 5823.78 66.74 1.00  29.21 2558.08
   12:54:06.598.25-Dec-2020 4950.51 5902.17 66.74 1.00  29.41 2558.08
   12:54:06.798.25-Dec-2020 4950.51 5916.93 66.74 1.00  29.61 2558.08
   12:54:06.998.25-Dec-2020 4950.51 5963.81 66.74 1.00  29.81 2558.08
   12:54:07.198.25-Dec-2020 4950.51 6058.76 66.74 1.00  30.01 2558.08
   12:54:07.398.25-Dec-2020 4950.51 6058.76 66.74 1.00  30.21 2558.08
   12:54:07.598.25-Dec-2020 4950.51 6181.22 66.74 1.00  30.41 2558.08
   12:54:07.798.25-Dec-2020 4950.51 6225.14 66.74 1.00  30.61 2558.08
   12:54:07.998.25-Dec-2020 4950.51 6268.09 66.74 1.00  30.81 2558.08
   12:54:08.199.25-Dec-2020 4950.51 6263.87 66.74 1.00  31.01 2558.08
   12:54:08.399.25-Dec-2020 4950.51 6263.87 66.74 1.00  31.21 2558.08
   12:54:08.599.25-Dec-2020 4950.51 6236.58 66.74 1.00  31.41 2558.08
   12:54:08.799.25-Dec-2020 4950.51 6230.80 66.74 1.00  31.61 2558.08
   12:54:08.999.25-Dec-2020 4950.51 6216.88 66.74 1.00  31.81 2558.08
   12:54:09.199.25-Dec-2020 4950.51 6200.33 66.74 1.00  32.01 2558.08
   12:54:09.399.25-Dec-2020 4950.51 6200.33 66.74 1.00  32.21 2558.08
   12:54:09.599.25-Dec-2020 4950.51 6227.79 66.74 1.00  32.41 2558.08
   12:54:09.799.25-Dec-2020 4950.51 6247.03 66.74 1.00  32.61 2558.08
   12:54:09.999.25-Dec-2020 4950.51 6259.85 66.74 1.00  32.81 2558.08
   12:54:10.199.25-Dec-2020 4950.51 6295.05 66.74 1.00  33.01 2558.08
   12:54:10.400.25-Dec-2020 4950.51 6295.05 66.74 1.00  33.21 2558.08
   12:54:10.600.25-Dec-2020 4950.51 6290.94 66.74 1.00  33.42 2558.08
   12:54:10.800.25-Dec-2020 4950.51 6319.33 66.74 1.00  33.62 2558.08
   12:54:11.000.25-Dec-2020 4950.51 6317.03 66.74 1.00  33.82 2558.08
   12:54:11.200.25-Dec-2020 4950.51 6350.02 66.74 1.00  34.02 2558.08
   12:54:11.400.25-Dec-2020 4950.51 6350.02 66.74 1.00  34.22 2558.08
   12:54:11.600.25-Dec-2020 4950.51 6346.43 66.74 1.00  34.42 2558.08
   12:54:11.800.25-Dec-2020 4950.51 6216.49 66.74 1.00  34.62 2558.08
   12:54:12.000.25-Dec-2020 4950.51 6295.47 66.74 1.00  34.82 2558.08
   12:54:12.200.25-Dec-2020 4950.51 6321.77 66.75 1.00  35.02 2558.08
   12:54:12.400.25-Dec-2020 4950.51 6321.77 66.75 1.00  35.22 2558.08
   12:54:12.601.25-Dec-2020 4950.51 6268.94 66.75 1.00  35.42 2558.08
   12:54:12.801.25-Dec-2020 4950.51 6171.99 66.75 1.00  35.62 2558.08
   12:54:13.001.25-Dec-2020 4950.51 6013.65 66.75 1.00  35.82 2558.08
   12:54:13.201.25-Dec-2020 4950.51 5894.99 66.75 1.00  36.02 2558.08
   12:54:13.401.25-Dec-2020 4950.51 5894.99 66.75 1.00  36.22 2558.08
   12:54:13.601.25-Dec-2020 4950.51 5682.98 66.75 1.00  36.42 2558.08
   12:54:13.801.25-Dec-2020 4950.51 5621.27 66.75 1.00  36.62 2558.08
   12:54:14.001.25-Dec-2020 4950.51 5560.52 66.75 1.00  36.82 2558.08
   12:54:14.201.25-Dec-2020 4950.51 5508.95 66.75 1.00  37.02 2558.08
   12:54:14.401.25-Dec-2020 4950.51 5508.95 66.75 1.00  37.22 2558.08
   12:54:14.601.25-Dec-2020 4950.51 5450.84 66.75 1.00  37.42 2558.08
   12:54:14.802.25-Dec-2020 4950.51 5417.74 66.75 1.00  37.62 2558.08
   12:54:15.002.25-Dec-2020 4950.51 5105.86 66.75 1.00  37.82 2558.08
   12:54:15.202.25-Dec-2020 4950.51 4403.97 66.75 1.00  38.02 2558.08
   12:54:15.402.25-Dec-2020 4950.51 4403.97 66.75 1.00  38.22 2558.08
   12:54:15.602.25-Dec-2020 4950.51 3392.55 66.75 1.00  38.42 2558.08
   12:54:15.802.25-Dec-2020 4950.51 3300.47 66.74 1.00  38.62 2558.08
   12:54:16.002.25-Dec-2020 4950.51 3297.35 66.74 1.00  38.82 2558.08
   12:54:16.202.25-Dec-2020 4950.51 3106.81 66.74 1.00  39.02 2558.08
   12:54:16.402.25-Dec-2020 4950.51 3106.81 66.74 1.00  39.22 2558.08
   12:54:16.602.25-Dec-2020 4950.51 2509.06 66.74 1.00  39.42 2558.08
   12:54:16.802.25-Dec-2020 4950.51 1962.19 66.74 1.00  39.62 2558.08
   12:54:17.003.25-Dec-2020 4950.51 1683.52 66.74 1.00  39.82 2558.08
   12:54:17.203.25-Dec-2020 4950.51 1479.61 66.73 1.00  40.02 2558.08
   12:54:17.403.25-Dec-2020 4950.51 1479.61 66.73 1.00  40.22 2558.08
   12:54:17.603.25-Dec-2020 4950.51 1328.60 66.73 1.00  40.42 2558.08
   12:54:17.803.25-Dec-2020 4950.51 1292.02 66.73 1.00  40.62 2558.08
   12:54:18.003.25-Dec-2020 4950.51 1265.31 66.73 1.00  40.82 2558.08
   12:54:18.203.25-Dec-2020 4950.51 1233.04 66.72 1.00  41.02 2558.08
   12:54:18.403.25-Dec-2020 4950.51 1233.04 66.72 1.00  41.22 2558.08
   12:54:18.603.25-Dec-2020 4950.51 1189.21 66.72 1.00  41.42 2558.08
   12:54:18.803.25-Dec-2020 4950.51 1168.35 66.71 1.00  41.62 2558.08
   12:54:19.003.25-Dec-2020 4950.51 1167.00 66.71 1.00  41.82 2558.08
   12:54:19.203.25-Dec-2020 4950.51 1157.88 66.71 1.00  42.02 2558.08
   12:54:19.404.25-Dec-2020 4950.51 1157.88 66.71 1.00  42.22 2558.08
   12:54:19.604.25-Dec-2020 4950.51 1149.04 66.70 1.00  42.42 2558.08
   12:54:19.804.25-Dec-2020 4950.51 1140.10 66.70 1.00  42.62 2558.08
   12:54:20.004.25-Dec-2020 4950.51 1138.43 66.69 1.00  42.82 2558.08
   12:54:20.204.25-Dec-2020 4950.51 1142.06 66.69 1.00  43.02 2558.08
   12:54:20.404.25-Dec-2020 4950.51 1142.06 66.69 1.00  43.22 2558.08
   12:54:20.604.25-Dec-2020 4950.51 1120.76 66.68 1.00  43.42 2558.08
   12:54:20.804.25-Dec-2020 4950.51 1122.24 66.68 1.00  43.62 2558.08
   12:54:21.004.25-Dec-2020 4950.51 1131.18 66.68 1.00  43.82 2558.08
   12:54:21.204.25-Dec-2020 4950.51 1126.84 66.67 1.00  44.02 2558.08
   12:54:21.404.25-Dec-2020 4950.51 1126.84 66.67 1.00  44.22 2558.08
   12:54:21.605.25-Dec-2020 4950.51 1140.81 66.67 1.00  44.42 2558.08
   12:54:21.805.25-Dec-2020 4950.51 1132.65 66.66 1.00  44.62 2558.08
   12:54:22.005.25-Dec-2020 4950.51 1134.65 66.66 1.00  44.82 2558.08
   12:54:22.205.25-Dec-2020 4950.51 1139.21 66.66 1.00  45.02 2558.08
   12:54:22.405.25-Dec-2020 4950.51 1139.21 66.66 1.00  45.22 2558.08
   12:54:22.605.25-Dec-2020 4950.51 1167.39 66.65 1.00  45.42 2558.08
   12:54:22.805.25-Dec-2020 4950.51 1161.31 66.65 1.00  45.62 2558.08
   12:54:23.005.25-Dec-2020 4950.51 1154.90 66.65 1.00  45.82 2558.08
