~Version Information
 VERS.                  2.0:   CWLS log ASCII Standard -VERSION 2.0
 WRAP.                   NO:   One line per depth step
~Well Information Block
#MNEM.UNIT     VALUE/NAME     DESCRIPTION
#---------     -----------    ---------------------------
 STRT.S             17:56:34 25-Dec-20: START TIME 17:56:34 25-Dec-20
 STOP.S             18:04:57 25-Dec-20: STOP TIME  18:04:57 25-Dec-20
 STEP.S                   0.00: STEP TIME
 NULL.                 -999.25: NULL VALUE
 DFWT.                        :  DIST FWL TEXT
 DFST.                        :  DIST FSL TEXT
 DMF .             Drill Floor:  DRILL MEAS FROM
 STIM.      04.54.24 22-Sep-20:  START TIME
 DATE.      04.54.24 21-Nov-20:  END TIME
 SPUD.               21-Nov-20:  SPUD DATE
 NREF.                    Grid:  NORTH REFERENCE
 HPTY.       Minimum Curvature:  HOLE POS TYPE
 DMOD.             Drill Model:  DRILL MOD DESC
 SVYD.                  Survey:  SURVEY DESC
 ILTD.               Lithology:  INTERP LTH DESC
 FTOP.          Formation Tops:  FORM TOPS DESC
 SON .        AZ-XX-0906571587:  JOB NUMBER
 COMP.     BP Exploration (Caspian Sea) Ltd:  COMPANY
 UWI .                     N/A:  UNIQUE WELL IDENTIFIER
 API .                     N/A:  API NUMBER
 BASE.              Azerbaijan:  LOGGING EQUIPMENT BASE LOCATION
 REGN.                   EESSA:  REGION
 PROV.                    Baku:  PROVINCE
 STAT.                    Baku:  STATE NAME
 CTRY.              Azerbaijan:  COUNTRY NAME
 FLD .                     ACG:  FIELD NAME
 SRVC.     TURAN Drilling & Engineering:  CONTRACTOR
 WELL.                     J27:  WELL NAME
 RIG .             West Chirag:  RIG NAME
 DOE .                     N/A:  DOE NUMBER
 DCON.         Sperry Drilling:  DIRECTNL CONTR
 PDAT.          Mean Sea Level:  PERMANENT DATUM
 WTYP.                Deviated:  WELL TYPE
 MWDS.                    Baku:  MWD SHOP
 JOBN.        AZ-XX-0906571587:  JOB TICKET NUMB
 UNIT.                     N/A:  LOGGING EQUIPMENT ID
 MDS .        Operator Entered:  MAG DATA SOURCE
 CNTY.                        :  COUNTY
 LOC .                        :  LOCATION
 LMF .             Drill Floor:  LOG MEASURED FROM
 TVDS.m                  43.00:  TVDSS CORRECTN
 LATI.deg                40.13:  LATITUDE
 LONG.deg                51.22:  LONGITUDE
 WHNS.m                   7.72:  WELL HEAD N/S
 WHEW.m                 -14.24:  WELL HEAD E/W
 UTMX.m              519005.06:  UTM X
 UTMY.m             4443793.85:  UTM Y
 DFWL.m                   0.00:  DISTANCE FWL
 DFSL.m                   0.00:  DISTANCE FSL
 SDEP.m                 347.00:  START DEPTH
 TDD .m                 581.00:  TOTAL DEPTH (DRILLER)
 VSDR.deg               159.72:  VERT SEC DIRECT
 GVFD.g                   1.00:  GRAVITY FIELD
 MFLD.nT              50318.00:  MAGNETIC FIELD
 MDIP.deg                59.57:  MAGNETIC DIP
 MDEC.deg                 6.44:  MAGNETIC DECL
 GRDC.deg                 0.15:  GRID CORRECTION
 AZTC.deg                 6.29:  AZM TOTAL CORR
 EPD .m                   0.00:  ELEVATION
 EGL .m                   0.00:  GROUND ELEVATION
 WDMS.m                 169.80:  WD ELEV
 APD .m                  43.00:  DEPTH ABOVE PD
 AGAP.m                  43.00:  AIR GAP
 VSEW.m                 -14.24:  VERT SEC E/W
 VSNS.m                   7.72:  VERT SEC N/S
 DEP .m                 342.45:  DEPTH
 EKB .m                   0.00:  KB ELEVATION
 EDF .m                  43.00:  DF ELEVATION
 TDL .m                 237.00:  TOTAL DEPTH (LOGGER)
 VSC .                       0:  VS TO CLOSURE
 MAGU.                 1851428:  MAGUTM CHECKSUM
~Parameter Information Block
#MNEM.UNIT       Value        Description
#---------     -----------    ---------------------------
 AV  .mps                 1.50:  Ann Velocity 
 AVMX.mps                 2.90:  Max Ann Veloc 
 AZIF.deg               115.59:  Azm, Final 
 BHAT.        Rotary Steerable:  BHA Type 
 BROT.∞/30m               0.50:  Build Rotating 
 BS  .in                  8.50:  Bit Size 
 BTPL.psig              580.00:  Bit Press Loss 
 CABU.                     Yes:  Customer Abuse 
 COMM.                     ‰E:  Run Comments 1 
 TCS .hr                 89.79:  Time Ciculation Ended 
 CV  .mps                 3.22:  Crit Velocity 
 CVMX.mps                 4.37:  Max Crit Veloc 
 DD1 .          Rashad Habibov:  Direct Drillr 1 
 DDSV.               Geo-Pilot:  DD Service 
 DEFF.%                  95.00:  % Det Eff 
 DLRX.∞/30m               1.94:  Dogleg Rot Max 
 DLSO.∞/30m               0.70:  Dogleg Oriented 
 DLSX.∞/30m               1.94:  Dogleg Str Max 
 DRET.      04.45.00 25-Dec-20:  Drill End Time 
 DRST.      10.00.00 24-Dec-20:  Drill Start Tim 
 DTIM.hr                 16.64:  Time Drilling 
 EDEP.m                4999.01:  End Depth 
 ENG1.         Elchin Mammadov:  Engineer 1 
 ENG2.          Ruslan Safarov:  Engineer 2 
 ENG3.          Rustam Safarov:  Engineer 3 
 ETIM.      09.00.00 29-Dec-20:  End Time 
 FLOI.gpm               500.00:  Flow In 
 FLON.gpm               400.00:  Flow In Min 
 FLOS.cptm                0.00:  Fluid Loss 
 FLOX.gpm               500.00:  Flow In Max 
 HFLO.                      No:  High Flow 
 HPRE.                      No:  High Pressure 
 HTEM.                      No:  High Temp 
 HYDO.m                   2.00:  Hydro Offset 
 IFIN.deg                66.79:  Inc, Final 
 IMAX.deg                67.66:  Inc Max 
 IMIN.deg                66.39:  Inc Min 
 IMND.m                4949.37:  Inc Min Depth 
 IMXD.m                4778.63:  Inc Max Depth 
 JARR.                     Yes:  Jarring 
 LETM.      04.45.00 25-Dec-20:  Log End Time 
 LOST.hr                     0:  Lost Rig Time 
 LSTM.      10.00.00 24-Dec-20:  Log Start Time 
 MDCL.ppm             39000.00:  Mud Chlorides 
 MDES.     Inversion Oil/Synthetic:  Mud Desc 
 DFD .sg                  1.33:  Mud Density 
 MDMN.sg                  1.33:  Dens Mud Min 
 MDMX.sg                  1.33:  Dens Mud Max 
 MOIL.                      70:  Run Mud Oil % 
 MOWR.                   70:30:  Run Mud OWR 
 MSND.                       0:  Run Mud Sand % 
 MSOL.                    17.4:  Run Mud Solids% 
 DFV .spqt               84.00:  Mud Viscosity 
 MWOD.in                  6.75:  MWD Tool OD 
 MWSI.                     Yes:  Serv Intrp, MWD 
 OTIM.hr                168.14:  Time Operating 
 PCON.           Look Like New:  Pad Condition 
 PMAX.psia            10822.93:  Press Op, Max 
 PV  .cP                 30.00:  Mud PV 
 RUN .                     900:  Run Number 
 ROPA.m/hr               18.00:  ROP Avg 
 ROPN.m/hr               12.00:  ROP Min 
 ROPX.m/hr               25.00:  ROP Max 
 RPMA.rpm               120.00:  RPM Surface Avg 
 RPMN.rpm               100.00:  RPM Surface Min 
 RPMX.rpm               120.00:  RPM Surface Max 
 RRUN.                    0900:  Rig Run Number 
 SAZI.deg               115.08:  Azm, Start 
 SDEP.m                4762.01:  Start Depth 
 SIDD.                      No:  Serv Intrp, DD 
 SINC.deg                66.14:  Inc, Start 
 SPPA.psig             3700.00:  SPP Avg 
 SPPN.psig             3620.00:  SPP Min 
 SPPX.psig             3900.00:  SPP Max 
 STIM.      09.30.00 22-Dec-20:  Start Time 
 SVCS.                 DD, MWD:  Services 
 SVER.                    9.20:  Sperry Version 
 TDAT.m                 237.00:  Tot Depth Attmp 
 TDDF.                      No:  Trip for DD 
 TDLG.m                 237.00:  Tot Depth Loggd 
 TFF .                      No:  Trip for Fail 
 TQAA.f-kp               18.00:  Torque Abs Avg 
 TQAN.f-kp               17.00:  Torque Abs Min 
 TQAX.f-kp               20.00:  Torque Abs Max 
 TRRT.∞/30m               0.60:  Turn Rotating 
 MRT .                    HCIM:  Maximum Recorded Temperature 
 TTMX.degC               94.12:  Max Tool Temp 
 VS01.                90627809:  Virtual Str1 SN 
 VS02.                90527813:  Virtual Str2 SN 
 VS03.                90545417:  Virtual Str3 SN 
 VS04.                12460870:  Virtual Str4 SN 
 VS05.                90516706:  Virtual Str5 SN 
 VS06.                90632007:  Virtual Str6 SN 
 WBMN.klb                 0.00:  WOB Min 
 WOBA.klb                14.00:  WOB Avg 
 WOBX.klb                25.00:  WOB Max 
 YP  .lhf2               32.00:  Yield Point 
~Curve Information Block
#MNEM.UNIT                 API CODE     Curve Description
#---------               -----------    ---------------------------
 TIME.HHMMSS            00 000 000 000:  GT Time & Date
 GTDEPTH.m              00 000 000 000:  GT Depth
 GTPQH.psia             00 000 000 000:  GT HR Quartz Pressure
 GTTQ.degC              00 000 000 000:  GT Quartz Temperature
 GTTN.NONE              00 000 000 000:  GT Test Number
 GTET.sec               00 000 000 000:  GT Elapsed Test Time
 GTTVD.m                00 000 000 000:  GT True Vertical Depth
#Other Information
#
#WARRANTY: Halliburton will use its best efforts to furnish customers with 
#accurate information and interpretations that are part of, and incident to, the services 
#provided.  However, Halliburton cannot and does not warrant the accuracy 
#or correctness of such information and interpretations.  Under no circumstances should any 
#such information or interpretation be relied upon as the sole basis for any drilling, 
#completion, production, or financial decision or any procedure involving any risk to the 
#safety of any drilling venture, drilling rig or its crew or any other third party.  The 
#Customer has full responsibility for all drilling, completion and production operation.  
#Halliburton makes no representations or warranties, either expressed or 
#implied, including, but not limited to, the implied warranties of merchantability or fitness 
#for a particular purpose, with respect to the services rendered.  In no event will 
#Halliburton be liable for failure to obtain any particular results or for 
#any damages, including, but not limited to, indirect, special or consequential damages, 
#resulting from the use of any information or interpretation provided by Halliburton.
#
~A           TIME           GTDEPTH  GTPQH  GTTQ  GTTN  GTET   GTTVD  
# ...
   18:00:24.634.25-Dec-2020 4856.51 3916.76 64.22 5.00 229.91 2521.01
   18:00:24.834.25-Dec-2020 4856.51 3916.76 64.22 5.00 230.11 2521.01
   18:00:25.034.25-Dec-2020 4856.51 3916.43 64.22 5.00 230.31 2521.01
   18:00:25.234.25-Dec-2020 4856.51 3916.92 64.22 5.00 230.51 2521.01
   18:00:25.433.25-Dec-2020 4856.51 3916.72 64.22 5.00 230.71 2521.01
   18:00:25.633.25-Dec-2020 4856.51 3916.97 64.22 5.00 230.91 2521.01
   18:00:25.833.25-Dec-2020 4856.51 3916.97 64.22 5.00 231.11 2521.01
   18:00:26.033.25-Dec-2020 4856.51 3917.65 64.22 5.00 231.31 2521.01
   18:00:26.233.25-Dec-2020 4856.51 3917.87 64.22 5.00 231.51 2521.01
   18:00:26.433.25-Dec-2020 4856.51 3918.12 64.22 5.00 231.71 2521.01
   18:00:26.633.25-Dec-2020 4856.51 3918.26 64.22 5.00 231.91 2521.01
   18:00:26.833.25-Dec-2020 4856.51 3918.26 64.22 5.00 232.11 2521.01
   18:00:27.033.25-Dec-2020 4856.51 3918.51 64.22 5.00 232.31 2521.01
   18:00:27.233.25-Dec-2020 4856.51 3918.51 64.22 5.00 232.51 2521.01
   18:00:27.433.25-Dec-2020 4856.51 3918.65 64.22 5.00 232.71 2521.01
   18:00:27.633.25-Dec-2020 4856.51 3918.06 64.22 5.00 232.91 2521.01
   18:00:27.832.25-Dec-2020 4856.51 3918.06 64.22 5.00 233.11 2521.01
   18:00:28.032.25-Dec-2020 4856.51 3917.77 64.22 5.00 233.31 2521.01
   18:00:28.232.25-Dec-2020 4856.51 3918.03 64.22 5.00 233.51 2521.01
   18:00:28.432.25-Dec-2020 4856.51 3918.14 64.22 5.00 233.71 2521.01
   18:00:28.632.25-Dec-2020 4856.51 3918.37 64.22 5.00 233.91 2521.01
   18:00:28.832.25-Dec-2020 4856.51 3918.37 64.22 5.00 234.11 2521.01
   18:00:29.032.25-Dec-2020 4856.51 3918.60 64.22 5.00 234.31 2521.01
   18:00:29.232.25-Dec-2020 4856.51 3918.64 64.22 5.00 234.51 2521.01
   18:00:29.432.25-Dec-2020 4856.51 3918.77 64.22 5.00 234.71 2521.01
   18:00:29.632.25-Dec-2020 4856.51 3918.83 64.22 5.00 234.91 2521.01
   18:00:29.832.25-Dec-2020 4856.51 3918.83 64.22 5.00 235.11 2521.01
   18:00:30.032.25-Dec-2020 4856.51 3918.96 64.22 5.00 235.31 2521.01
   18:00:30.232.25-Dec-2020 4856.51 3918.07 64.22 5.00 235.51 2521.01
   18:00:30.431.25-Dec-2020 4856.51 3917.96 64.22 5.00 235.71 2521.01
   18:00:30.631.25-Dec-2020 4856.51 3918.10 64.22 5.00 235.91 2521.01
   18:00:30.831.25-Dec-2020 4856.51 3918.10 64.22 5.00 236.11 2521.01
   18:00:31.031.25-Dec-2020 4856.51 3916.24 64.22 5.00 236.31 2521.01
   18:00:31.231.25-Dec-2020 4856.51 3916.84 64.22 5.00 236.51 2521.01
   18:00:31.431.25-Dec-2020 4856.51 3917.28 64.22 5.00 236.71 2521.01
   18:00:31.631.25-Dec-2020 4856.51 3916.93 64.22 5.00 236.91 2521.01
   18:00:31.831.25-Dec-2020 4856.51 3916.93 64.22 5.00 237.11 2521.01
   18:00:32.031.25-Dec-2020 4856.51 3916.67 64.22 5.00 237.31 2521.01
   18:00:32.231.25-Dec-2020 4856.51 3917.11 64.22 5.00 237.51 2521.01
   18:00:32.431.25-Dec-2020 4856.51 3917.20 64.22 5.00 237.71 2521.01
   18:00:32.631.25-Dec-2020 4856.51 3917.19 64.22 5.00 237.91 2521.01
   18:00:32.831.25-Dec-2020 4856.51 3917.19 64.22 5.00 238.11 2521.01
   18:00:33.030.25-Dec-2020 4856.51 3916.94 64.22 5.00 238.31 2521.01
   18:00:33.230.25-Dec-2020 4856.51 3917.39 64.22 5.00 238.51 2521.01
   18:00:33.430.25-Dec-2020 4856.51 3917.46 64.22 5.00 238.71 2521.01
   18:00:33.630.25-Dec-2020 4856.51 3917.84 64.22 5.00 238.91 2521.01
   18:00:33.830.25-Dec-2020 4856.51 3917.84 64.22 5.00 239.11 2521.01
   18:00:34.030.25-Dec-2020 4856.51 3918.44 64.22 5.00 239.31 2521.01
   18:00:34.230.25-Dec-2020 4856.51 3918.58 64.22 5.00 239.51 2521.01
   18:00:34.430.25-Dec-2020 4856.51 3918.68 64.22 5.00 239.71 2521.01
   18:00:34.630.25-Dec-2020 4856.51 3918.87 64.22 5.00 239.91 2521.01
   18:00:34.830.25-Dec-2020 4856.51 3918.87 64.22 5.00 240.11 2521.01
   18:00:35.030.25-Dec-2020 4856.51 3919.10 64.22 5.00 240.31 2521.01
   18:00:35.230.25-Dec-2020 4856.51 3918.19 64.22 5.00 240.51 2521.01
   18:00:35.430.25-Dec-2020 4856.51 3918.83 64.22 5.00 240.71 2521.01
   18:00:35.629.25-Dec-2020 4856.51 3918.43 64.22 5.00 240.91 2521.01
   18:00:35.829.25-Dec-2020 4856.51 3918.43 64.22 5.00 241.11 2521.01
   18:00:36.029.25-Dec-2020 4856.51 3918.42 64.22 5.00 241.30 2521.01
   18:00:36.229.25-Dec-2020 4856.51 3918.71 64.22 5.00 241.50 2521.01
   18:00:36.429.25-Dec-2020 4856.51 3918.78 64.22 5.00 241.70 2521.01
   18:00:36.629.25-Dec-2020 4856.51 3918.95 64.22 5.00 241.90 2521.01
   18:00:36.829.25-Dec-2020 4856.51 3918.95 64.22 5.00 242.10 2521.01
   18:00:37.029.25-Dec-2020 4856.51 3919.11 64.22 5.00 242.30 2521.01
   18:00:37.229.25-Dec-2020 4856.51 3919.13 64.22 5.00 242.50 2521.01
   18:00:37.429.25-Dec-2020 4856.51 3919.13 64.22 5.00 242.70 2521.01
   18:00:37.629.25-Dec-2020 4856.51 3919.28 64.22 5.00 242.90 2521.01
   18:00:37.829.25-Dec-2020 4856.51 3919.28 64.22 5.00 243.10 2521.01
   18:00:38.028.25-Dec-2020 4856.51 3918.79 64.22 5.00 243.30 2521.01
   18:00:38.228.25-Dec-2020 4856.51 3918.30 64.22 5.00 243.50 2521.01
   18:00:38.428.25-Dec-2020 4856.51 3917.32 64.22 5.00 243.70 2521.01
   18:00:38.628.25-Dec-2020 4856.51 3917.23 64.22 5.00 243.90 2521.01
   18:00:38.828.25-Dec-2020 4856.51 3917.23 64.22 5.00 244.10 2521.01
   18:00:39.028.25-Dec-2020 4856.51 3917.38 64.22 5.00 244.30 2521.01
   18:00:39.228.25-Dec-2020 4856.51 3917.69 64.22 5.00 244.50 2521.01
   18:00:39.428.25-Dec-2020 4856.51 3916.88 64.22 5.00 244.70 2521.01
   18:00:39.628.25-Dec-2020 4856.51 3916.96 64.22 5.00 244.90 2521.01
   18:00:39.828.25-Dec-2020 4856.51 3916.96 64.22 5.00 245.10 2521.01
   18:00:40.028.25-Dec-2020 4856.51 3917.60 64.22 5.00 245.30 2521.01
   18:00:40.228.25-Dec-2020 4856.51 3917.78 64.22 5.00 245.50 2521.01
   18:00:40.428.25-Dec-2020 4856.51 3917.03 64.22 5.00 245.70 2521.01
   18:00:40.627.25-Dec-2020 4856.51 3917.22 64.22 5.00 245.90 2521.01
   18:00:40.827.25-Dec-2020 4856.51 3917.22 64.22 5.00 246.10 2521.01
   18:00:41.027.25-Dec-2020 4856.51 3917.81 64.22 5.00 246.30 2521.01
   18:00:41.227.25-Dec-2020 4856.51 3918.01 64.22 5.00 246.50 2521.01
   18:00:41.427.25-Dec-2020 4856.51 3918.24 64.22 5.00 246.70 2521.01
   18:00:41.627.25-Dec-2020 4856.51 3918.65 64.22 5.00 246.90 2521.01
   18:00:41.827.25-Dec-2020 4856.51 3918.65 64.22 5.00 247.10 2521.01
   18:00:42.027.25-Dec-2020 4856.51 3918.98 64.22 5.00 247.30 2521.01
   18:00:42.227.25-Dec-2020 4856.51 3919.17 64.22 5.00 247.50 2521.01
   18:00:42.427.25-Dec-2020 4856.51 3919.16 64.22 5.00 247.70 2521.01
   18:00:42.627.25-Dec-2020 4856.51 3919.26 64.22 5.00 247.90 2521.01
   18:00:42.827.25-Dec-2020 4856.51 3919.26 64.22 5.00 248.10 2521.01
   18:00:43.027.25-Dec-2020 4856.51 3918.38 64.22 5.00 248.30 2521.01
   18:00:43.226.25-Dec-2020 4856.51 3918.54 64.22 5.00 248.50 2521.01
   18:00:43.426.25-Dec-2020 4856.51 3918.61 64.22 5.00 248.70 2521.01
   18:00:43.626.25-Dec-2020 4856.51 3918.79 64.22 5.00 248.90 2521.01
   18:00:43.826.25-Dec-2020 4856.51 3918.79 64.22 5.00 249.10 2521.01
   18:00:44.026.25-Dec-2020 4856.51 3919.06 64.22 5.00 249.30 2521.01
   18:00:44.226.25-Dec-2020 4856.51 3919.26 64.22 5.00 249.50 2521.01
   18:00:44.426.25-Dec-2020 4856.51 3919.23 64.22 5.00 249.70 2521.01
   18:00:44.626.25-Dec-2020 4856.51 3919.40 64.22 5.00 249.90 2521.01
   18:00:44.826.25-Dec-2020 4856.51 3919.40 64.22 5.00 250.10 2521.01
   18:00:45.026.25-Dec-2020 4856.51 3919.34 64.22 5.00 250.30 2521.01
   18:00:45.226.25-Dec-2020 4856.51 3919.49 64.22 5.00 250.50 2521.01
   18:00:45.426.25-Dec-2020 4856.51 3919.08 64.22 5.00 250.70 2521.01
   18:00:45.625.25-Dec-2020 4856.51 3918.76 64.22 5.00 250.90 2521.01
   18:00:45.825.25-Dec-2020 4856.51 3918.76 64.22 5.00 251.10 2521.01
   18:00:46.025.25-Dec-2020 4856.51 3918.76 64.22 5.00 251.30 2521.01
   18:00:46.225.25-Dec-2020 4856.51 3917.52 64.22 5.00 251.50 2521.01
   18:00:46.425.25-Dec-2020 4856.51 3917.65 64.22 5.00 251.70 2521.01
   18:00:46.625.25-Dec-2020 4856.51 3918.06 64.22 5.00 251.90 2521.01
   18:00:46.825.25-Dec-2020 4856.51 3918.06 64.22 5.00 252.10 2521.01
   18:00:47.025.25-Dec-2020 4856.51 3917.16 64.22 5.00 252.30 2521.01
   18:00:47.225.25-Dec-2020 4856.51 3917.97 64.22 5.00 252.50 2521.01
   18:00:47.425.25-Dec-2020 4856.51 3917.63 64.22 5.00 252.70 2521.01
