~Version Information
 VERS.                  2.0:   CWLS log ASCII Standard -VERSION 2.0
 WRAP.                   NO:   One line per depth step
~Well Information Block
#MNEM.UNIT     VALUE/NAME     DESCRIPTION
#---------     -----------    ---------------------------
 STRT.S             20:22:11 25-Dec-20: START TIME 20:22:11 25-Dec-20
 STOP.S             20:30:35 25-Dec-20: STOP TIME  20:30:35 25-Dec-20
 STEP.S                   0.00: STEP TIME
 NULL.                 -999.25: NULL VALUE
 DFWT.                        :  DIST FWL TEXT
 DFST.                        :  DIST FSL TEXT
 DMF .             Drill Floor:  DRILL MEAS FROM
 STIM.      04.54.24 22-Sep-20:  START TIME
 DATE.      04.54.24 21-Nov-20:  END TIME
 SPUD.               21-Nov-20:  SPUD DATE
 NREF.                    Grid:  NORTH REFERENCE
 HPTY.       Minimum Curvature:  HOLE POS TYPE
 DMOD.             Drill Model:  DRILL MOD DESC
 SVYD.                  Survey:  SURVEY DESC
 ILTD.               Lithology:  INTERP LTH DESC
 FTOP.          Formation Tops:  FORM TOPS DESC
 SON .        AZ-XX-0906571587:  JOB NUMBER
 COMP.     BP Exploration (Caspian Sea) Ltd:  COMPANY
 UWI .                     N/A:  UNIQUE WELL IDENTIFIER
 API .                     N/A:  API NUMBER
 BASE.              Azerbaijan:  LOGGING EQUIPMENT BASE LOCATION
 REGN.                   EESSA:  REGION
 PROV.                    Baku:  PROVINCE
 STAT.                    Baku:  STATE NAME
 CTRY.              Azerbaijan:  COUNTRY NAME
 FLD .                     ACG:  FIELD NAME
 SRVC.     TURAN Drilling & Engineering:  CONTRACTOR
 WELL.                     J27:  WELL NAME
 RIG .             West Chirag:  RIG NAME
 DOE .                     N/A:  DOE NUMBER
 DCON.         Sperry Drilling:  DIRECTNL CONTR
 PDAT.          Mean Sea Level:  PERMANENT DATUM
 WTYP.                Deviated:  WELL TYPE
 MWDS.                    Baku:  MWD SHOP
 JOBN.        AZ-XX-0906571587:  JOB TICKET NUMB
 UNIT.                     N/A:  LOGGING EQUIPMENT ID
 MDS .        Operator Entered:  MAG DATA SOURCE
 CNTY.                        :  COUNTY
 LOC .                        :  LOCATION
 LMF .             Drill Floor:  LOG MEASURED FROM
 TVDS.m                  43.00:  TVDSS CORRECTN
 LATI.deg                40.13:  LATITUDE
 LONG.deg                51.22:  LONGITUDE
 WHNS.m                   7.72:  WELL HEAD N/S
 WHEW.m                 -14.24:  WELL HEAD E/W
 UTMX.m              519005.06:  UTM X
 UTMY.m             4443793.85:  UTM Y
 DFWL.m                   0.00:  DISTANCE FWL
 DFSL.m                   0.00:  DISTANCE FSL
 SDEP.m                 347.00:  START DEPTH
 TDD .m                 581.00:  TOTAL DEPTH (DRILLER)
 VSDR.deg               159.72:  VERT SEC DIRECT
 GVFD.g                   1.00:  GRAVITY FIELD
 MFLD.nT              50318.00:  MAGNETIC FIELD
 MDIP.deg                59.57:  MAGNETIC DIP
 MDEC.deg                 6.44:  MAGNETIC DECL
 GRDC.deg                 0.15:  GRID CORRECTION
 AZTC.deg                 6.29:  AZM TOTAL CORR
 EPD .m                   0.00:  ELEVATION
 EGL .m                   0.00:  GROUND ELEVATION
 WDMS.m                 169.80:  WD ELEV
 APD .m                  43.00:  DEPTH ABOVE PD
 AGAP.m                  43.00:  AIR GAP
 VSEW.m                 -14.24:  VERT SEC E/W
 VSNS.m                   7.72:  VERT SEC N/S
 DEP .m                 342.45:  DEPTH
 EKB .m                   0.00:  KB ELEVATION
 EDF .m                  43.00:  DF ELEVATION
 TDL .m                 237.00:  TOTAL DEPTH (LOGGER)
 VSC .                       0:  VS TO CLOSURE
 MAGU.                 1851428:  MAGUTM CHECKSUM
~Parameter Information Block
#MNEM.UNIT       Value        Description
#---------     -----------    ---------------------------
 AV  .mps                 1.50:  Ann Velocity 
 AVMX.mps                 2.90:  Max Ann Veloc 
 AZIF.deg               115.59:  Azm, Final 
 BHAT.        Rotary Steerable:  BHA Type 
 BROT.°/30m               0.50:  Build Rotating 
 BS  .in                  8.50:  Bit Size 
 BTPL.psig              580.00:  Bit Press Loss 
 CABU.                     Yes:  Customer Abuse 
 COMM.                     ”Cf:  Run Comments 1 
 TCS .hr                 89.79:  Time Ciculation Ended 
 CV  .mps                 3.22:  Crit Velocity 
 CVMX.mps                 4.37:  Max Crit Veloc 
 DD1 .          Rashad Habibov:  Direct Drillr 1 
 DDSV.               Geo-Pilot:  DD Service 
 DEFF.%                  95.00:  % Det Eff 
 DLRX.°/30m               1.94:  Dogleg Rot Max 
 DLSO.°/30m               0.70:  Dogleg Oriented 
 DLSX.°/30m               1.94:  Dogleg Str Max 
 DRET.      04.45.00 25-Dec-20:  Drill End Time 
 DRST.      10.00.00 24-Dec-20:  Drill Start Tim 
 DTIM.hr                 16.64:  Time Drilling 
 EDEP.m                4999.01:  End Depth 
 ENG1.         Elchin Mammadov:  Engineer 1 
 ENG2.          Ruslan Safarov:  Engineer 2 
 ENG3.          Rustam Safarov:  Engineer 3 
 ETIM.      09.00.00 29-Dec-20:  End Time 
 FLOI.gpm               500.00:  Flow In 
 FLON.gpm               400.00:  Flow In Min 
 FLOS.cptm                0.00:  Fluid Loss 
 FLOX.gpm               500.00:  Flow In Max 
 HFLO.                      No:  High Flow 
 HPRE.                      No:  High Pressure 
 HTEM.                      No:  High Temp 
 HYDO.m                   2.00:  Hydro Offset 
 IFIN.deg                66.79:  Inc, Final 
 IMAX.deg                67.66:  Inc Max 
 IMIN.deg                66.39:  Inc Min 
 IMND.m                4949.37:  Inc Min Depth 
 IMXD.m                4778.63:  Inc Max Depth 
 JARR.                     Yes:  Jarring 
 LETM.      04.45.00 25-Dec-20:  Log End Time 
 LOST.hr                     0:  Lost Rig Time 
 LSTM.      10.00.00 24-Dec-20:  Log Start Time 
 MDCL.ppm             39000.00:  Mud Chlorides 
 MDES.     Inversion Oil/Synthetic:  Mud Desc 
 DFD .sg                  1.33:  Mud Density 
 MDMN.sg                  1.33:  Dens Mud Min 
 MDMX.sg                  1.33:  Dens Mud Max 
 MOIL.                      70:  Run Mud Oil % 
 MOWR.                   70:30:  Run Mud OWR 
 MSND.                       0:  Run Mud Sand % 
 MSOL.                    17.4:  Run Mud Solids% 
 DFV .spqt               84.00:  Mud Viscosity 
 MWOD.in                  6.75:  MWD Tool OD 
 MWSI.                     Yes:  Serv Intrp, MWD 
 OTIM.hr                168.14:  Time Operating 
 PCON.           Look Like New:  Pad Condition 
 PMAX.psia            10822.93:  Press Op, Max 
 PV  .cP                 30.00:  Mud PV 
 RUN .                     900:  Run Number 
 ROPA.m/hr               18.00:  ROP Avg 
 ROPN.m/hr               12.00:  ROP Min 
 ROPX.m/hr               25.00:  ROP Max 
 RPMA.rpm               120.00:  RPM Surface Avg 
 RPMN.rpm               100.00:  RPM Surface Min 
 RPMX.rpm               120.00:  RPM Surface Max 
 RRUN.                    0900:  Rig Run Number 
 SAZI.deg               115.08:  Azm, Start 
 SDEP.m                4762.01:  Start Depth 
 SIDD.                      No:  Serv Intrp, DD 
 SINC.deg                66.14:  Inc, Start 
 SPPA.psig             3700.00:  SPP Avg 
 SPPN.psig             3620.00:  SPP Min 
 SPPX.psig             3900.00:  SPP Max 
 STIM.      09.30.00 22-Dec-20:  Start Time 
 SVCS.                 DD, MWD:  Services 
 SVER.                    9.20:  Sperry Version 
 TDAT.m                 237.00:  Tot Depth Attmp 
 TDDF.                      No:  Trip for DD 
 TDLG.m                 237.00:  Tot Depth Loggd 
 TFF .                      No:  Trip for Fail 
 TQAA.f-kp               18.00:  Torque Abs Avg 
 TQAN.f-kp               17.00:  Torque Abs Min 
 TQAX.f-kp               20.00:  Torque Abs Max 
 TRRT.°/30m               0.60:  Turn Rotating 
 MRT .                    HCIM:  Maximum Recorded Temperature 
 TTMX.degC               94.12:  Max Tool Temp 
 VS01.                90627809:  Virtual Str1 SN 
 VS02.                90527813:  Virtual Str2 SN 
 VS03.                90545417:  Virtual Str3 SN 
 VS04.                12460870:  Virtual Str4 SN 
 VS05.                90516706:  Virtual Str5 SN 
 VS06.                90632007:  Virtual Str6 SN 
 WBMN.klb                 0.00:  WOB Min 
 WOBA.klb                14.00:  WOB Avg 
 WOBX.klb                25.00:  WOB Max 
 YP  .lhf2               32.00:  Yield Point 
~Curve Information Block
#MNEM.UNIT                 API CODE     Curve Description
#---------               -----------    ---------------------------
 TIME.HHMMSS            00 000 000 000:  GT Time & Date
 GTDEPTH.m              00 000 000 000:  GT Depth
 GTPQH.psia             00 000 000 000:  GT HR Quartz Pressure
 GTTQ.degC              00 000 000 000:  GT Quartz Temperature
 GTTN.NONE              00 000 000 000:  GT Test Number
 GTET.sec               00 000 000 000:  GT Elapsed Test Time
 GTTVD.m                00 000 000 000:  GT True Vertical Depth
#Other Information
#
#WARRANTY: Halliburton will use its best efforts to furnish customers with 
#accurate information and interpretations that are part of, and incident to, the services 
#provided.  However, Halliburton cannot and does not warrant the accuracy 
#or correctness of such information and interpretations.  Under no circumstances should any 
#such information or interpretation be relied upon as the sole basis for any drilling, 
#completion, production, or financial decision or any procedure involving any risk to the 
#safety of any drilling venture, drilling rig or its crew or any other third party.  The 
#Customer has full responsibility for all drilling, completion and production operation.  
#Halliburton makes no representations or warranties, either expressed or 
#implied, including, but not limited to, the implied warranties of merchantability or fitness 
#for a particular purpose, with respect to the services rendered.  In no event will 
#Halliburton be liable for failure to obtain any particular results or for 
#any damages, including, but not limited to, indirect, special or consequential damages, 
#resulting from the use of any information or interpretation provided by Halliburton.
#
~A           TIME           GTDEPTH  GTPQH  GTTQ  GTTN  GTET   GTTVD  
# ...
   20:25:15.867.25-Dec-2020 4794.01 2082.50 63.88 8.00 183.99 2496.73
   20:25:16.067.25-Dec-2020 4794.01 2081.25 63.88 8.00 184.19 2496.73
   20:25:16.266.25-Dec-2020 4794.01 2079.22 63.88 8.00 184.39 2496.73
   20:25:16.466.25-Dec-2020 4794.01 2075.18 63.88 8.00 184.59 2496.73
   20:25:16.666.25-Dec-2020 4794.01 2075.15 63.88 8.00 184.79 2496.73
   20:25:16.866.25-Dec-2020 4794.01 2077.02 63.88 8.00 184.99 2496.73
   20:25:17.066.25-Dec-2020 4794.01 2076.65 63.88 8.00 185.19 2496.73
   20:25:17.266.25-Dec-2020 4794.01 2075.03 63.88 8.00 185.39 2496.73
   20:25:17.466.25-Dec-2020 4794.01 2077.38 63.88 8.00 185.59 2496.73
   20:25:17.666.25-Dec-2020 4794.01 2069.78 63.88 8.00 185.79 2496.73
   20:25:17.866.25-Dec-2020 4794.01 2074.08 63.88 8.00 185.99 2496.73
   20:25:18.066.25-Dec-2020 4794.01 2074.08 63.88 8.00 186.19 2496.73
   20:25:18.266.25-Dec-2020 4794.01 2070.63 63.88 8.00 186.39 2496.73
   20:25:18.466.25-Dec-2020 4794.01 2074.99 63.88 8.00 186.59 2496.73
   20:25:18.666.25-Dec-2020 4794.01 2066.37 63.88 8.00 186.79 2496.73
   20:25:18.866.25-Dec-2020 4794.01 2069.43 63.88 8.00 186.99 2496.73
   20:25:19.066.25-Dec-2020 4794.01 2069.43 63.88 8.00 187.19 2496.73
   20:25:19.266.25-Dec-2020 4794.01 2067.72 63.88 8.00 187.39 2496.73
   20:25:19.466.25-Dec-2020 4794.01 2072.86 63.88 8.00 187.59 2496.73
   20:25:19.666.25-Dec-2020 4794.01 2065.50 63.88 8.00 187.79 2496.73
   20:25:19.866.25-Dec-2020 4794.01 2066.87 63.88 8.00 187.99 2496.73
   20:25:20.066.25-Dec-2020 4794.01 2066.87 63.88 8.00 188.19 2496.73
   20:25:20.266.25-Dec-2020 4794.01 2063.52 63.88 8.00 188.39 2496.73
   20:25:20.466.25-Dec-2020 4794.01 2067.37 63.88 8.00 188.59 2496.73
   20:25:20.666.25-Dec-2020 4794.01 2069.33 63.88 8.00 188.79 2496.73
   20:25:20.866.25-Dec-2020 4794.01 2068.07 63.88 8.00 188.99 2496.73
   20:25:21.066.25-Dec-2020 4794.01 2074.37 63.88 8.00 189.19 2496.73
   20:25:21.266.25-Dec-2020 4794.01 2074.36 63.88 8.00 189.39 2496.73
   20:25:21.466.25-Dec-2020 4794.01 2076.21 63.88 8.00 189.59 2496.73
   20:25:21.666.25-Dec-2020 4794.01 2076.24 63.88 8.00 189.79 2496.73
   20:25:21.866.25-Dec-2020 4794.01 2077.14 63.88 8.00 189.99 2496.73
   20:25:22.066.25-Dec-2020 4794.01 2077.14 63.88 8.00 190.19 2496.73
   20:25:22.266.25-Dec-2020 4794.01 2078.08 63.88 8.00 190.39 2496.73
   20:25:22.466.25-Dec-2020 4794.01 2082.75 63.88 8.00 190.59 2496.73
   20:25:22.666.25-Dec-2020 4794.01 2080.20 63.88 8.00 190.79 2496.73
   20:25:22.866.25-Dec-2020 4794.01 2075.12 63.88 8.00 190.99 2496.73
   20:25:23.066.25-Dec-2020 4794.01 2075.12 63.88 8.00 191.19 2496.73
   20:25:23.266.25-Dec-2020 4794.01 2083.54 63.88 8.00 191.39 2496.73
   20:25:23.466.25-Dec-2020 4794.01 2081.56 63.88 8.00 191.59 2496.73
   20:25:23.666.25-Dec-2020 4794.01 2082.32 63.88 8.00 191.79 2496.73
   20:25:23.866.25-Dec-2020 4794.01 2081.82 63.88 8.00 191.99 2496.73
   20:25:24.066.25-Dec-2020 4794.01 2081.82 63.88 8.00 192.19 2496.73
   20:25:24.266.25-Dec-2020 4794.01 2079.15 63.88 8.00 192.39 2496.73
   20:25:24.466.25-Dec-2020 4794.01 2078.12 63.88 8.00 192.59 2496.73
   20:25:24.666.25-Dec-2020 4794.01 2190.02 63.88 8.00 192.79 2496.73
   20:25:24.866.25-Dec-2020 4794.01 2276.46 63.88 8.00 192.99 2496.73
   20:25:25.066.25-Dec-2020 4794.01 2297.34 63.88 8.00 193.19 2496.73
   20:25:25.266.25-Dec-2020 4794.01 2299.82 63.88 8.00 193.39 2496.73
   20:25:25.466.25-Dec-2020 4794.01 2300.26 63.87 8.00 193.59 2496.73
   20:25:25.666.25-Dec-2020 4794.01 2301.72 63.87 8.00 193.79 2496.73
   20:25:25.866.25-Dec-2020 4794.01 2301.29 63.87 8.00 193.99 2496.73
   20:25:26.066.25-Dec-2020 4794.01 2301.29 63.87 8.00 194.19 2496.73
   20:25:26.266.25-Dec-2020 4794.01 2301.50 63.87 8.00 194.39 2496.73
   20:25:26.466.25-Dec-2020 4794.01 2301.75 63.87 8.00 194.59 2496.73
   20:25:26.666.25-Dec-2020 4794.01 2301.46 63.87 8.00 194.79 2496.73
   20:25:26.866.25-Dec-2020 4794.01 2302.27 63.87 8.00 194.99 2496.73
   20:25:27.066.25-Dec-2020 4794.01 2302.27 63.87 8.00 195.19 2496.73
   20:25:27.266.25-Dec-2020 4794.01 2302.08 63.88 8.00 195.39 2496.73
   20:25:27.466.25-Dec-2020 4794.01 2302.25 63.88 8.00 195.59 2496.73
   20:25:27.666.25-Dec-2020 4794.01 2301.93 63.87 8.00 195.79 2496.73
   20:25:27.866.25-Dec-2020 4794.01 2302.45 63.88 8.00 195.99 2496.73
   20:25:28.066.25-Dec-2020 4794.01 2302.45 63.88 8.00 196.19 2496.73
   20:25:28.266.25-Dec-2020 4794.01 2302.37 63.88 8.00 196.39 2496.73
   20:25:28.466.25-Dec-2020 4794.01 2302.39 63.88 8.00 196.59 2496.73
   20:25:28.666.25-Dec-2020 4794.01 2302.33 63.88 8.00 196.79 2496.73
   20:25:28.866.25-Dec-2020 4794.01 2302.40 63.88 8.00 196.99 2496.73
   20:25:29.066.25-Dec-2020 4794.01 2302.40 63.88 8.00 197.19 2496.73
   20:25:29.266.25-Dec-2020 4794.01 2302.36 63.88 8.00 197.39 2496.73
   20:25:29.466.25-Dec-2020 4794.01 2302.43 63.88 8.00 197.59 2496.73
   20:25:29.666.25-Dec-2020 4794.01 2302.39 63.88 8.00 197.79 2496.73
   20:25:29.866.25-Dec-2020 4794.01 2302.42 63.88 8.00 197.99 2496.73
   20:25:30.066.25-Dec-2020 4794.01 2302.42 63.88 8.00 198.19 2496.73
   20:25:30.266.25-Dec-2020 4794.01 2302.86 63.88 8.00 198.39 2496.73
   20:25:30.466.25-Dec-2020 4794.01 2302.47 63.88 8.00 198.59 2496.73
   20:25:30.666.25-Dec-2020 4794.01 2302.81 63.88 8.00 198.79 2496.73
   20:25:30.866.25-Dec-2020 4794.01 2302.52 63.88 8.00 198.99 2496.73
   20:25:31.066.25-Dec-2020 4794.01 2302.52 63.88 8.00 199.19 2496.73
   20:25:31.266.25-Dec-2020 4794.01 2302.57 63.88 8.00 199.39 2496.73
   20:25:31.465.25-Dec-2020 4794.01 2302.62 63.88 8.00 199.59 2496.73
   20:25:31.665.25-Dec-2020 4794.01 2302.59 63.88 8.00 199.79 2496.73
   20:25:31.865.25-Dec-2020 4794.01 2302.57 63.88 8.00 199.99 2496.73
   20:25:32.065.25-Dec-2020 4794.01 2302.63 63.88 8.00 200.19 2496.73
   20:25:32.265.25-Dec-2020 4794.01 2302.60 63.88 8.00 200.39 2496.73
   20:25:32.465.25-Dec-2020 4794.01 2302.63 63.88 8.00 200.59 2496.73
   20:25:32.665.25-Dec-2020 4794.01 2302.62 63.88 8.00 200.79 2496.73
   20:25:32.865.25-Dec-2020 4794.01 2302.55 63.88 8.00 200.99 2496.73
   20:25:33.065.25-Dec-2020 4794.01 2302.99 63.88 8.00 201.19 2496.73
   20:25:33.265.25-Dec-2020 4794.01 2302.29 63.88 8.00 201.39 2496.73
   20:25:33.465.25-Dec-2020 4794.01 2303.37 63.88 8.00 201.59 2496.73
   20:25:33.665.25-Dec-2020 4794.01 2302.69 63.88 8.00 201.79 2496.73
   20:25:33.865.25-Dec-2020 4794.01 2302.49 63.88 8.00 201.99 2496.73
   20:25:34.065.25-Dec-2020 4794.01 2302.49 63.88 8.00 202.19 2496.73
   20:25:34.265.25-Dec-2020 4794.01 2302.77 63.88 8.00 202.39 2496.73
   20:25:34.465.25-Dec-2020 4794.01 2302.86 63.88 8.00 202.59 2496.73
   20:25:34.665.25-Dec-2020 4794.01 2302.79 63.88 8.00 202.79 2496.73
   20:25:34.865.25-Dec-2020 4794.01 2302.28 63.88 8.00 202.99 2496.73
   20:25:35.065.25-Dec-2020 4794.01 2302.28 63.88 8.00 203.19 2496.73
   20:25:35.265.25-Dec-2020 4794.01 2302.66 63.88 8.00 203.39 2496.73
   20:25:35.465.25-Dec-2020 4794.01 2302.87 63.88 8.00 203.59 2496.73
   20:25:35.665.25-Dec-2020 4794.01 2302.86 63.88 8.00 203.79 2496.73
   20:25:35.865.25-Dec-2020 4794.01 2302.81 63.88 8.00 203.99 2496.73
   20:25:36.065.25-Dec-2020 4794.01 2302.84 63.88 8.00 204.19 2496.73
   20:25:36.265.25-Dec-2020 4794.01 2302.82 63.88 8.00 204.39 2496.73
   20:25:36.465.25-Dec-2020 4794.01 2302.82 63.88 8.00 204.59 2496.73
   20:25:36.665.25-Dec-2020 4794.01 2302.82 63.88 8.00 204.79 2496.73
   20:25:36.865.25-Dec-2020 4794.01 2302.79 63.88 8.00 204.99 2496.73
   20:25:37.065.25-Dec-2020 4794.01 2302.84 63.88 8.00 205.19 2496.73
   20:25:37.265.25-Dec-2020 4794.01 2302.79 63.88 8.00 205.39 2496.73
   20:25:37.465.25-Dec-2020 4794.01 2302.65 63.88 8.00 205.59 2496.73
   20:25:37.665.25-Dec-2020 4794.01 2302.99 63.88 8.00 205.79 2496.73
   20:25:37.865.25-Dec-2020 4794.01 2302.88 63.88 8.00 205.99 2496.73
   20:25:38.065.25-Dec-2020 4794.01 2302.88 63.88 8.00 206.19 2496.73
   20:25:38.265.25-Dec-2020 4794.01 2302.81 63.88 8.00 206.39 2496.73
   20:25:38.465.25-Dec-2020 4794.01 2302.82 63.88 8.00 206.59 2496.73
   20:25:38.665.25-Dec-2020 4794.01 2302.88 63.88 8.00 206.79 2496.73
