~Version Information
 VERS.                  2.0:   CWLS log ASCII Standard -VERSION 2.0
 WRAP.                   NO:   One line per depth step
~Well Information Block
#MNEM.UNIT     VALUE/NAME     DESCRIPTION
#---------     -----------    ---------------------------
 STRT.S             18:45:29 25-Dec-20: START TIME 18:45:29 25-Dec-20
 STOP.S             18:53:50 25-Dec-20: STOP TIME  18:53:50 25-Dec-20
 STEP.S                   0.00: STEP TIME
 NULL.                 -999.25: NULL VALUE
 DFWT.                        :  DIST FWL TEXT
 DFST.                        :  DIST FSL TEXT
 DMF .             Drill Floor:  DRILL MEAS FROM
 STIM.      04.54.24 22-Sep-20:  START TIME
 DATE.      04.54.24 21-Nov-20:  END TIME
 SPUD.               21-Nov-20:  SPUD DATE
 NREF.                    Grid:  NORTH REFERENCE
 HPTY.       Minimum Curvature:  HOLE POS TYPE
 DMOD.             Drill Model:  DRILL MOD DESC
 SVYD.                  Survey:  SURVEY DESC
 ILTD.               Lithology:  INTERP LTH DESC
 FTOP.          Formation Tops:  FORM TOPS DESC
 SON .        AZ-XX-0906571587:  JOB NUMBER
 COMP.     BP Exploration (Caspian Sea) Ltd:  COMPANY
 UWI .                     N/A:  UNIQUE WELL IDENTIFIER
 API .                     N/A:  API NUMBER
 BASE.              Azerbaijan:  LOGGING EQUIPMENT BASE LOCATION
 REGN.                   EESSA:  REGION
 PROV.                    Baku:  PROVINCE
 STAT.                    Baku:  STATE NAME
 CTRY.              Azerbaijan:  COUNTRY NAME
 FLD .                     ACG:  FIELD NAME
 SRVC.     TURAN Drilling & Engineering:  CONTRACTOR
 WELL.                     J27:  WELL NAME
 RIG .             West Chirag:  RIG NAME
 DOE .                     N/A:  DOE NUMBER
 DCON.         Sperry Drilling:  DIRECTNL CONTR
 PDAT.          Mean Sea Level:  PERMANENT DATUM
 WTYP.                Deviated:  WELL TYPE
 MWDS.                    Baku:  MWD SHOP
 JOBN.        AZ-XX-0906571587:  JOB TICKET NUMB
 UNIT.                     N/A:  LOGGING EQUIPMENT ID
 MDS .        Operator Entered:  MAG DATA SOURCE
 CNTY.                        :  COUNTY
 LOC .                        :  LOCATION
 LMF .             Drill Floor:  LOG MEASURED FROM
 TVDS.m                  43.00:  TVDSS CORRECTN
 LATI.deg                40.13:  LATITUDE
 LONG.deg                51.22:  LONGITUDE
 WHNS.m                   7.72:  WELL HEAD N/S
 WHEW.m                 -14.24:  WELL HEAD E/W
 UTMX.m              519005.06:  UTM X
 UTMY.m             4443793.85:  UTM Y
 DFWL.m                   0.00:  DISTANCE FWL
 DFSL.m                   0.00:  DISTANCE FSL
 SDEP.m                 347.00:  START DEPTH
 TDD .m                 581.00:  TOTAL DEPTH (DRILLER)
 VSDR.deg               159.72:  VERT SEC DIRECT
 GVFD.g                   1.00:  GRAVITY FIELD
 MFLD.nT              50318.00:  MAGNETIC FIELD
 MDIP.deg                59.57:  MAGNETIC DIP
 MDEC.deg                 6.44:  MAGNETIC DECL
 GRDC.deg                 0.15:  GRID CORRECTION
 AZTC.deg                 6.29:  AZM TOTAL CORR
 EPD .m                   0.00:  ELEVATION
 EGL .m                   0.00:  GROUND ELEVATION
 WDMS.m                 169.80:  WD ELEV
 APD .m                  43.00:  DEPTH ABOVE PD
 AGAP.m                  43.00:  AIR GAP
 VSEW.m                 -14.24:  VERT SEC E/W
 VSNS.m                   7.72:  VERT SEC N/S
 DEP .m                 342.45:  DEPTH
 EKB .m                   0.00:  KB ELEVATION
 EDF .m                  43.00:  DF ELEVATION
 TDL .m                 237.00:  TOTAL DEPTH (LOGGER)
 VSC .                       0:  VS TO CLOSURE
 MAGU.                 1851428:  MAGUTM CHECKSUM
~Parameter Information Block
#MNEM.UNIT       Value        Description
#---------     -----------    ---------------------------
 AV  .mps                 1.50:  Ann Velocity 
 AVMX.mps                 2.90:  Max Ann Veloc 
 AZIF.deg               115.59:  Azm, Final 
 BHAT.        Rotary Steerable:  BHA Type 
 BROT.°/30m               0.50:  Build Rotating 
 BS  .in                  8.50:  Bit Size 
 BTPL.psig              580.00:  Bit Press Loss 
 CABU.                     Yes:  Customer Abuse 
 TCS .hr                 89.79:  Time Ciculation Ended 
 CV  .mps                 3.22:  Crit Velocity 
 CVMX.mps                 4.37:  Max Crit Veloc 
 DD1 .          Rashad Habibov:  Direct Drillr 1 
 DDSV.               Geo-Pilot:  DD Service 
 DEFF.%                  95.00:  % Det Eff 
 DLRX.°/30m               1.94:  Dogleg Rot Max 
 DLSO.°/30m               0.70:  Dogleg Oriented 
 DLSX.°/30m               1.94:  Dogleg Str Max 
 DRET.      04.45.00 25-Dec-20:  Drill End Time 
 DRST.      10.00.00 24-Dec-20:  Drill Start Tim 
 DTIM.hr                 16.64:  Time Drilling 
 EDEP.m                4999.01:  End Depth 
 ENG1.         Elchin Mammadov:  Engineer 1 
 ENG2.          Ruslan Safarov:  Engineer 2 
 ENG3.          Rustam Safarov:  Engineer 3 
 ETIM.      09.00.00 29-Dec-20:  End Time 
 FLOI.gpm               500.00:  Flow In 
 FLON.gpm               400.00:  Flow In Min 
 FLOS.cptm                0.00:  Fluid Loss 
 FLOX.gpm               500.00:  Flow In Max 
 HFLO.                      No:  High Flow 
 HPRE.                      No:  High Pressure 
 HTEM.                      No:  High Temp 
 HYDO.m                   2.00:  Hydro Offset 
 IFIN.deg                66.79:  Inc, Final 
 IMAX.deg                67.66:  Inc Max 
 IMIN.deg                66.39:  Inc Min 
 IMND.m                4949.37:  Inc Min Depth 
 IMXD.m                4778.63:  Inc Max Depth 
 JARR.                     Yes:  Jarring 
 LETM.      04.45.00 25-Dec-20:  Log End Time 
 LOST.hr                     0:  Lost Rig Time 
 LSTM.      10.00.00 24-Dec-20:  Log Start Time 
 MDCL.ppm             39000.00:  Mud Chlorides 
 MDES.     Inversion Oil/Synthetic:  Mud Desc 
 DFD .sg                  1.33:  Mud Density 
 MDMN.sg                  1.33:  Dens Mud Min 
 MDMX.sg                  1.33:  Dens Mud Max 
 MOIL.                      70:  Run Mud Oil % 
 MOWR.                   70:30:  Run Mud OWR 
 MSND.                       0:  Run Mud Sand % 
 MSOL.                    17.4:  Run Mud Solids% 
 DFV .spqt               84.00:  Mud Viscosity 
 MWOD.in                  6.75:  MWD Tool OD 
 MWSI.                     Yes:  Serv Intrp, MWD 
 OTIM.hr                168.14:  Time Operating 
 PCON.           Look Like New:  Pad Condition 
 PMAX.psia            10822.93:  Press Op, Max 
 PV  .cP                 30.00:  Mud PV 
 RUN .                     900:  Run Number 
 ROPA.m/hr               18.00:  ROP Avg 
 ROPN.m/hr               12.00:  ROP Min 
 ROPX.m/hr               25.00:  ROP Max 
 RPMA.rpm               120.00:  RPM Surface Avg 
 RPMN.rpm               100.00:  RPM Surface Min 
 RPMX.rpm               120.00:  RPM Surface Max 
 RRUN.                    0900:  Rig Run Number 
 SAZI.deg               115.08:  Azm, Start 
 SDEP.m                4762.01:  Start Depth 
 SIDD.                      No:  Serv Intrp, DD 
 SINC.deg                66.14:  Inc, Start 
 SPPA.psig             3700.00:  SPP Avg 
 SPPN.psig             3620.00:  SPP Min 
 SPPX.psig             3900.00:  SPP Max 
 STIM.      09.30.00 22-Dec-20:  Start Time 
 SVCS.                 DD, MWD:  Services 
 SVER.                    9.20:  Sperry Version 
 TDAT.m                 237.00:  Tot Depth Attmp 
 TDDF.                      No:  Trip for DD 
 TDLG.m                 237.00:  Tot Depth Loggd 
 TFF .                      No:  Trip for Fail 
 TQAA.f-kp               18.00:  Torque Abs Avg 
 TQAN.f-kp               17.00:  Torque Abs Min 
 TQAX.f-kp               20.00:  Torque Abs Max 
 TRRT.°/30m               0.60:  Turn Rotating 
 MRT .                    HCIM:  Maximum Recorded Temperature 
 TTMX.degC               94.12:  Max Tool Temp 
 VS01.                90627809:  Virtual Str1 SN 
 VS02.                90527813:  Virtual Str2 SN 
 VS03.                90545417:  Virtual Str3 SN 
 VS04.                12460870:  Virtual Str4 SN 
 VS05.                90516706:  Virtual Str5 SN 
 VS06.                90632007:  Virtual Str6 SN 
 WBMN.klb                 0.00:  WOB Min 
 WOBA.klb                14.00:  WOB Avg 
 WOBX.klb                25.00:  WOB Max 
 YP  .lhf2               32.00:  Yield Point 
~Curve Information Block
#MNEM.UNIT                 API CODE     Curve Description
#---------               -----------    ---------------------------
 TIME.HHMMSS            00 000 000 000:  GT Time & Date
 GTDEPTH.m              00 000 000 000:  GT Depth
 GTPQH.psia             00 000 000 000:  GT HR Quartz Pressure
 GTTQ.degC              00 000 000 000:  GT Quartz Temperature
 GTTN.NONE              00 000 000 000:  GT Test Number
 GTET.sec               00 000 000 000:  GT Elapsed Test Time
 GTTVD.m                00 000 000 000:  GT True Vertical Depth
#Other Information
#
#WARRANTY: Halliburton will use its best efforts to furnish customers with 
#accurate information and interpretations that are part of, and incident to, the services 
#provided.  However, Halliburton cannot and does not warrant the accuracy 
#or correctness of such information and interpretations.  Under no circumstances should any 
#such information or interpretation be relied upon as the sole basis for any drilling, 
#completion, production, or financial decision or any procedure involving any risk to the 
#safety of any drilling venture, drilling rig or its crew or any other third party.  The 
#Customer has full responsibility for all drilling, completion and production operation.  
#Halliburton makes no representations or warranties, either expressed or 
#implied, including, but not limited to, the implied warranties of merchantability or fitness 
#for a particular purpose, with respect to the services rendered.  In no event will 
#Halliburton be liable for failure to obtain any particular results or for 
#any damages, including, but not limited to, indirect, special or consequential damages, 
#resulting from the use of any information or interpretation provided by Halliburton.
#
~A           TIME           GTDEPTH  GTPQH  GTTQ  GTTN  GTET   GTTVD  
   18:45:29.864.25-Dec-2020 4831.01 5379.27 64.32 6.00   0.00 2510.98
   18:45:30.064.25-Dec-2020 4831.01 5372.58 64.32 6.00   0.20 2510.98
   18:45:30.264.25-Dec-2020 4831.01 5373.62 64.32 6.00   0.40 2510.98
   18:45:30.465.25-Dec-2020 4831.01 5376.21 64.32 6.00   0.60 2510.98
   18:45:30.665.25-Dec-2020 4831.01 5381.63 64.32 6.00   0.80 2510.98
   18:45:30.865.25-Dec-2020 4831.01 5374.13 64.32 6.00   1.00 2510.98
   18:45:31.065.25-Dec-2020 4831.01 5374.13 64.32 6.00   1.20 2510.98
   18:45:31.265.25-Dec-2020 4831.01 5377.45 64.32 6.00   1.40 2510.98
   18:45:31.465.25-Dec-2020 4831.01 5379.26 64.32 6.00   1.60 2510.98
   18:45:31.666.25-Dec-2020 4831.01 5379.27 64.32 6.00   1.80 2510.98
   18:45:31.866.25-Dec-2020 4831.01 5377.87 64.32 6.00   2.00 2510.98
   18:45:32.066.25-Dec-2020 4831.01 5377.87 64.32 6.00   2.20 2510.98
   18:45:32.266.25-Dec-2020 4831.01 5383.19 64.32 6.00   2.40 2510.98
   18:45:32.466.25-Dec-2020 4831.01 5383.49 64.32 6.00   2.60 2510.98
   18:45:32.666.25-Dec-2020 4831.01 5381.72 64.32 6.00   2.80 2510.98
   18:45:32.867.25-Dec-2020 4831.01 5383.70 64.32 6.00   3.00 2510.98
   18:45:33.067.25-Dec-2020 4831.01 5383.70 64.32 6.00   3.20 2510.98
   18:45:33.267.25-Dec-2020 4831.01 5387.24 64.32 6.00   3.40 2510.98
   18:45:33.467.25-Dec-2020 4831.01 5388.57 64.32 6.00   3.60 2510.98
   18:45:33.667.25-Dec-2020 4831.01 5386.79 64.32 6.00   3.80 2510.98
   18:45:33.867.25-Dec-2020 4831.01 5387.31 64.32 6.00   4.00 2510.98
   18:45:34.067.25-Dec-2020 4831.01 5391.24 64.32 6.00   4.20 2510.98
   18:45:34.268.25-Dec-2020 4831.01 5392.37 64.32 6.00   4.40 2510.98
   18:45:34.468.25-Dec-2020 4831.01 5387.94 64.32 6.00   4.60 2510.98
   18:45:34.668.25-Dec-2020 4831.01 5390.03 64.32 6.00   4.80 2510.98
   18:45:34.868.25-Dec-2020 4831.01 5389.63 64.32 6.00   5.00 2510.98
   18:45:35.068.25-Dec-2020 4831.01 5389.63 64.32 6.00   5.20 2510.98
   18:45:35.268.25-Dec-2020 4831.01 5387.45 64.32 6.00   5.40 2510.98
   18:45:35.469.25-Dec-2020 4831.01 5387.46 64.31 6.00   5.60 2510.98
   18:45:35.669.25-Dec-2020 4831.01 5386.87 64.31 6.00   5.80 2510.98
   18:45:35.869.25-Dec-2020 4831.01 5386.71 64.31 6.00   6.00 2510.98
   18:45:36.069.25-Dec-2020 4831.01 5386.71 64.31 6.00   6.20 2510.98
   18:45:36.269.25-Dec-2020 4831.01 5387.16 64.31 6.00   6.41 2510.98
   18:45:36.469.25-Dec-2020 4831.01 5386.72 64.31 6.00   6.61 2510.98
   18:45:36.670.25-Dec-2020 4831.01 5390.76 64.31 6.00   6.81 2510.98
   18:45:36.870.25-Dec-2020 4831.01 5386.97 64.31 6.00   7.01 2510.98
   18:45:37.070.25-Dec-2020 4831.01 5386.97 64.31 6.00   7.21 2510.98
   18:45:37.270.25-Dec-2020 4831.01 5391.36 64.31 6.00   7.41 2510.98
   18:45:37.470.25-Dec-2020 4831.01 5389.27 64.31 6.00   7.61 2510.98
   18:45:37.670.25-Dec-2020 4831.01 5390.93 64.31 6.00   7.81 2510.98
   18:45:37.870.25-Dec-2020 4831.01 5390.98 64.31 6.00   8.01 2510.98
   18:45:38.071.25-Dec-2020 4831.01 5390.31 64.31 6.00   8.21 2510.98
   18:45:38.271.25-Dec-2020 4831.01 5391.46 64.31 6.00   8.41 2510.98
   18:45:38.471.25-Dec-2020 4831.01 5390.90 64.31 6.00   8.61 2510.98
   18:45:38.671.25-Dec-2020 4831.01 5391.47 64.31 6.00   8.81 2510.98
   18:45:38.871.25-Dec-2020 4831.01 5391.66 64.31 6.00   9.01 2510.98
   18:45:39.071.25-Dec-2020 4831.01 5391.66 64.31 6.00   9.21 2510.98
   18:45:39.272.25-Dec-2020 4831.01 5391.37 64.31 6.00   9.41 2510.98
   18:45:39.472.25-Dec-2020 4831.01 5398.41 64.31 6.00   9.61 2510.98
   18:45:39.672.25-Dec-2020 4831.01 5393.45 64.31 6.00   9.81 2510.98
   18:45:39.872.25-Dec-2020 4831.01 5392.18 64.31 6.00  10.01 2510.98
   18:45:40.072.25-Dec-2020 4831.01 5392.18 64.31 6.00  10.21 2510.98
   18:45:40.272.25-Dec-2020 4831.01 5404.21 64.31 6.00  10.41 2510.98
   18:45:40.473.25-Dec-2020 4831.01 5388.42 64.31 6.00  10.61 2510.98
   18:45:40.673.25-Dec-2020 4831.01 5397.35 64.31 6.00  10.81 2510.98
   18:45:40.873.25-Dec-2020 4831.01 5397.41 64.31 6.00  11.01 2510.98
   18:45:41.073.25-Dec-2020 4831.01 5397.41 64.31 6.00  11.21 2510.98
   18:45:41.273.25-Dec-2020 4831.01 5396.65 64.31 6.00  11.41 2510.98
   18:45:41.473.25-Dec-2020 4831.01 5399.58 64.31 6.00  11.61 2510.98
   18:45:41.673.25-Dec-2020 4831.01 5395.01 64.31 6.00  11.81 2510.98
   18:45:41.874.25-Dec-2020 4831.01 5395.60 64.31 6.00  12.01 2510.98
   18:45:42.074.25-Dec-2020 4831.01 5395.60 64.31 6.00  12.21 2510.98
   18:45:42.274.25-Dec-2020 4831.01 5396.45 64.31 6.00  12.41 2510.98
   18:45:42.474.25-Dec-2020 4831.01 5394.95 64.31 6.00  12.61 2510.98
   18:45:42.674.25-Dec-2020 4831.01 5401.70 64.31 6.00  12.81 2510.98
   18:45:42.874.25-Dec-2020 4831.01 5401.98 64.31 6.00  13.01 2510.98
   18:45:43.075.25-Dec-2020 4831.01 5401.98 64.31 6.00  13.21 2510.98
   18:45:43.275.25-Dec-2020 4831.01 5398.29 64.31 6.00  13.41 2510.98
   18:45:43.475.25-Dec-2020 4831.01 5398.14 64.31 6.00  13.61 2510.98
   18:45:43.675.25-Dec-2020 4831.01 5402.69 64.31 6.00  13.81 2510.98
   18:45:43.875.25-Dec-2020 4831.01 5397.42 64.31 6.00  14.01 2510.98
   18:45:44.075.25-Dec-2020 4831.01 5397.42 64.31 6.00  14.21 2510.98
   18:45:44.276.25-Dec-2020 4831.01 5399.52 64.31 6.00  14.41 2510.98
   18:45:44.476.25-Dec-2020 4831.01 5398.39 64.31 6.00  14.61 2510.98
   18:45:44.676.25-Dec-2020 4831.01 5396.44 64.31 6.00  14.81 2510.98
   18:45:44.876.25-Dec-2020 4831.01 5397.68 64.31 6.00  15.01 2510.98
   18:45:45.076.25-Dec-2020 4831.01 5397.68 64.31 6.00  15.21 2510.98
   18:45:45.276.25-Dec-2020 4831.01 5397.19 64.31 6.00  15.41 2510.98
   18:45:45.476.25-Dec-2020 4831.01 5397.35 64.31 6.00  15.61 2510.98
   18:45:45.677.25-Dec-2020 4831.01 5397.50 64.31 6.00  15.81 2510.98
   18:45:45.877.25-Dec-2020 4831.01 5398.02 64.31 6.00  16.01 2510.98
   18:45:46.077.25-Dec-2020 4831.01 5398.02 64.31 6.00  16.21 2510.98
   18:45:46.277.25-Dec-2020 4831.01 5397.14 64.31 6.00  16.41 2510.98
   18:45:46.477.25-Dec-2020 4831.01 5399.33 64.31 6.00  16.61 2510.98
   18:45:46.677.25-Dec-2020 4831.01 5402.55 64.31 6.00  16.81 2510.98
   18:45:46.878.25-Dec-2020 4831.01 5399.62 64.31 6.00  17.01 2510.98
   18:45:47.078.25-Dec-2020 4831.01 5399.62 64.31 6.00  17.21 2510.98
   18:45:47.278.25-Dec-2020 4831.01 5400.13 64.31 6.00  17.41 2510.98
   18:45:47.478.25-Dec-2020 4831.01 5399.91 64.31 6.00  17.61 2510.98
   18:45:47.678.25-Dec-2020 4831.01 5399.39 64.31 6.00  17.81 2510.98
   18:45:47.878.25-Dec-2020 4831.01 5400.43 64.31 6.00  18.01 2510.98
   18:45:48.079.25-Dec-2020 4831.01 5400.43 64.31 6.00  18.21 2510.98
   18:45:48.279.25-Dec-2020 4831.01 5400.15 64.31 6.00  18.41 2510.98
   18:45:48.479.25-Dec-2020 4831.01 5400.60 64.31 6.00  18.61 2510.98
   18:45:48.679.25-Dec-2020 4831.01 5400.87 64.31 6.00  18.81 2510.98
   18:45:48.879.25-Dec-2020 4831.01 5404.18 64.31 6.00  19.02 2510.98
   18:45:49.079.25-Dec-2020 4831.01 5404.18 64.31 6.00  19.22 2510.98
   18:45:49.279.25-Dec-2020 4831.01 5402.51 64.31 6.00  19.42 2510.98
   18:45:49.480.25-Dec-2020 4831.01 5410.38 64.31 6.00  19.62 2510.98
   18:45:49.680.25-Dec-2020 4831.01 5404.95 64.31 6.00  19.82 2510.98
   18:45:49.880.25-Dec-2020 4831.01 5401.97 64.31 6.00  20.02 2510.98
   18:45:50.080.25-Dec-2020 4831.01 5415.47 64.31 6.00  20.22 2510.98
   18:45:50.280.25-Dec-2020 4831.01 5403.38 64.31 6.00  20.42 2510.98
   18:45:50.480.25-Dec-2020 4831.01 5402.79 64.31 6.00  20.62 2510.98
   18:45:50.681.25-Dec-2020 4831.01 5406.37 64.30 6.00  20.82 2510.98
   18:45:50.881.25-Dec-2020 4831.01 5413.91 64.30 6.00  21.02 2510.98
   18:45:51.081.25-Dec-2020 4831.01 5413.91 64.30 6.00  21.22 2510.98
   18:45:51.281.25-Dec-2020 4831.01 5407.67 64.30 6.00  21.42 2510.98
   18:45:51.481.25-Dec-2020 4831.01 5407.28 64.30 6.00  21.62 2510.98
   18:45:51.681.25-Dec-2020 4831.01 5401.73 64.30 6.00  21.82 2510.98
   18:45:51.882.25-Dec-2020 4831.01 5403.61 64.30 6.00  22.02 2510.98
   18:45:52.082.25-Dec-2020 4831.01 5403.61 64.30 6.00  22.22 2510.98
   18:45:52.282.25-Dec-2020 4831.01 5402.30 64.30 6.00  22.42 2510.98
   18:45:52.482.25-Dec-2020 4831.01 5402.49 64.30 6.00  22.62 2510.98
   18:45:52.682.25-Dec-2020 4831.01 5403.05 64.30 6.00  22.82 2510.98
