~Version Information
 VERS.                  2.0:   CWLS log ASCII Standard -VERSION 2.0
 WRAP.                   NO:   One line per depth step
~Well Information Block
#MNEM.UNIT     VALUE/NAME     DESCRIPTION
#---------     -----------    ---------------------------
 STRT.S             15:24:16 25-Dec-20: START TIME 15:24:16 25-Dec-20
 STOP.S             15:32:36 25-Dec-20: STOP TIME  15:32:36 25-Dec-20
 STEP.S                   0.00: STEP TIME
 NULL.                 -999.25: NULL VALUE
 DFWT.                        :  DIST FWL TEXT
 DFST.                        :  DIST FSL TEXT
 DMF .             Drill Floor:  DRILL MEAS FROM
 STIM.      04.54.24 22-Sep-20:  START TIME
 DATE.      04.54.24 21-Nov-20:  END TIME
 SPUD.               21-Nov-20:  SPUD DATE
 NREF.                    Grid:  NORTH REFERENCE
 HPTY.       Minimum Curvature:  HOLE POS TYPE
 DMOD.             Drill Model:  DRILL MOD DESC
 SVYD.                  Survey:  SURVEY DESC
 ILTD.               Lithology:  INTERP LTH DESC
 FTOP.          Formation Tops:  FORM TOPS DESC
 SON .        AZ-XX-0906571587:  JOB NUMBER
 COMP.     BP Exploration (Caspian Sea) Ltd:  COMPANY
 UWI .                     N/A:  UNIQUE WELL IDENTIFIER
 API .                     N/A:  API NUMBER
 BASE.              Azerbaijan:  LOGGING EQUIPMENT BASE LOCATION
 REGN.                   EESSA:  REGION
 PROV.                    Baku:  PROVINCE
 STAT.                    Baku:  STATE NAME
 CTRY.              Azerbaijan:  COUNTRY NAME
 FLD .                     ACG:  FIELD NAME
 SRVC.     TURAN Drilling & Engineering:  CONTRACTOR
 WELL.                     J27:  WELL NAME
 RIG .             West Chirag:  RIG NAME
 DOE .                     N/A:  DOE NUMBER
 DCON.         Sperry Drilling:  DIRECTNL CONTR
 PDAT.          Mean Sea Level:  PERMANENT DATUM
 WTYP.                Deviated:  WELL TYPE
 MWDS.                    Baku:  MWD SHOP
 JOBN.        AZ-XX-0906571587:  JOB TICKET NUMB
 UNIT.                     N/A:  LOGGING EQUIPMENT ID
 MDS .        Operator Entered:  MAG DATA SOURCE
 CNTY.                        :  COUNTY
 LOC .                        :  LOCATION
 LMF .             Drill Floor:  LOG MEASURED FROM
 TVDS.m                  43.00:  TVDSS CORRECTN
 LATI.deg                40.13:  LATITUDE
 LONG.deg                51.22:  LONGITUDE
 WHNS.m                   7.72:  WELL HEAD N/S
 WHEW.m                 -14.24:  WELL HEAD E/W
 UTMX.m              519005.06:  UTM X
 UTMY.m             4443793.85:  UTM Y
 DFWL.m                   0.00:  DISTANCE FWL
 DFSL.m                   0.00:  DISTANCE FSL
 SDEP.m                 347.00:  START DEPTH
 TDD .m                 581.00:  TOTAL DEPTH (DRILLER)
 VSDR.deg               159.72:  VERT SEC DIRECT
 GVFD.g                   1.00:  GRAVITY FIELD
 MFLD.nT              50318.00:  MAGNETIC FIELD
 MDIP.deg                59.57:  MAGNETIC DIP
 MDEC.deg                 6.44:  MAGNETIC DECL
 GRDC.deg                 0.15:  GRID CORRECTION
 AZTC.deg                 6.29:  AZM TOTAL CORR
 EPD .m                   0.00:  ELEVATION
 EGL .m                   0.00:  GROUND ELEVATION
 WDMS.m                 169.80:  WD ELEV
 APD .m                  43.00:  DEPTH ABOVE PD
 AGAP.m                  43.00:  AIR GAP
 VSEW.m                 -14.24:  VERT SEC E/W
 VSNS.m                   7.72:  VERT SEC N/S
 DEP .m                 342.45:  DEPTH
 EKB .m                   0.00:  KB ELEVATION
 EDF .m                  43.00:  DF ELEVATION
 TDL .m                 237.00:  TOTAL DEPTH (LOGGER)
 VSC .                       0:  VS TO CLOSURE
 MAGU.                 1851428:  MAGUTM CHECKSUM
~Parameter Information Block
#MNEM.UNIT       Value        Description
#---------     -----------    ---------------------------
 AV  .mps                 1.50:  Ann Velocity 
 AVMX.mps                 2.90:  Max Ann Veloc 
 AZIF.deg               115.59:  Azm, Final 
 BHAT.        Rotary Steerable:  BHA Type 
 BROT.°/30m               0.50:  Build Rotating 
 BS  .in                  8.50:  Bit Size 
 BTPL.psig              580.00:  Bit Press Loss 
 CABU.                     Yes:  Customer Abuse 
 TCS .hr                 89.79:  Time Ciculation Ended 
 CV  .mps                 3.22:  Crit Velocity 
 CVMX.mps                 4.37:  Max Crit Veloc 
 DD1 .          Rashad Habibov:  Direct Drillr 1 
 DDSV.               Geo-Pilot:  DD Service 
 DEFF.%                  95.00:  % Det Eff 
 DLRX.°/30m               1.94:  Dogleg Rot Max 
 DLSO.°/30m               0.70:  Dogleg Oriented 
 DLSX.°/30m               1.94:  Dogleg Str Max 
 DRET.      04.45.00 25-Dec-20:  Drill End Time 
 DRST.      10.00.00 24-Dec-20:  Drill Start Tim 
 DTIM.hr                 16.64:  Time Drilling 
 EDEP.m                4999.01:  End Depth 
 ENG1.         Elchin Mammadov:  Engineer 1 
 ENG2.          Ruslan Safarov:  Engineer 2 
 ENG3.          Rustam Safarov:  Engineer 3 
 ETIM.      09.00.00 29-Dec-20:  End Time 
 FLOI.gpm               500.00:  Flow In 
 FLON.gpm               400.00:  Flow In Min 
 FLOS.cptm                0.00:  Fluid Loss 
 FLOX.gpm               500.00:  Flow In Max 
 HFLO.                      No:  High Flow 
 HPRE.                      No:  High Pressure 
 HTEM.                      No:  High Temp 
 HYDO.m                   2.00:  Hydro Offset 
 IFIN.deg                66.79:  Inc, Final 
 IMAX.deg                67.66:  Inc Max 
 IMIN.deg                66.39:  Inc Min 
 IMND.m                4949.37:  Inc Min Depth 
 IMXD.m                4778.63:  Inc Max Depth 
 JARR.                     Yes:  Jarring 
 LETM.      04.45.00 25-Dec-20:  Log End Time 
 LOST.hr                     0:  Lost Rig Time 
 LSTM.      10.00.00 24-Dec-20:  Log Start Time 
 MDCL.ppm             39000.00:  Mud Chlorides 
 MDES.     Inversion Oil/Synthetic:  Mud Desc 
 DFD .sg                  1.33:  Mud Density 
 MDMN.sg                  1.33:  Dens Mud Min 
 MDMX.sg                  1.33:  Dens Mud Max 
 MOIL.                      70:  Run Mud Oil % 
 MOWR.                   70:30:  Run Mud OWR 
 MSND.                       0:  Run Mud Sand % 
 MSOL.                    17.4:  Run Mud Solids% 
 DFV .spqt               84.00:  Mud Viscosity 
 MWOD.in                  6.75:  MWD Tool OD 
 MWSI.                     Yes:  Serv Intrp, MWD 
 OTIM.hr                168.14:  Time Operating 
 PCON.           Look Like New:  Pad Condition 
 PMAX.psia            10822.93:  Press Op, Max 
 PV  .cP                 30.00:  Mud PV 
 RUN .                     900:  Run Number 
 ROPA.m/hr               18.00:  ROP Avg 
 ROPN.m/hr               12.00:  ROP Min 
 ROPX.m/hr               25.00:  ROP Max 
 RPMA.rpm               120.00:  RPM Surface Avg 
 RPMN.rpm               100.00:  RPM Surface Min 
 RPMX.rpm               120.00:  RPM Surface Max 
 RRUN.                    0900:  Rig Run Number 
 SAZI.deg               115.08:  Azm, Start 
 SDEP.m                4762.01:  Start Depth 
 SIDD.                      No:  Serv Intrp, DD 
 SINC.deg                66.14:  Inc, Start 
 SPPA.psig             3700.00:  SPP Avg 
 SPPN.psig             3620.00:  SPP Min 
 SPPX.psig             3900.00:  SPP Max 
 STIM.      09.30.00 22-Dec-20:  Start Time 
 SVCS.                 DD, MWD:  Services 
 SVER.                    9.20:  Sperry Version 
 TDAT.m                 237.00:  Tot Depth Attmp 
 TDDF.                      No:  Trip for DD 
 TDLG.m                 237.00:  Tot Depth Loggd 
 TFF .                      No:  Trip for Fail 
 TQAA.f-kp               18.00:  Torque Abs Avg 
 TQAN.f-kp               17.00:  Torque Abs Min 
 TQAX.f-kp               20.00:  Torque Abs Max 
 TRRT.°/30m               0.60:  Turn Rotating 
 MRT .                    HCIM:  Maximum Recorded Temperature 
 TTMX.degC               94.12:  Max Tool Temp 
 VS01.                90627809:  Virtual Str1 SN 
 VS02.                90527813:  Virtual Str2 SN 
 VS03.                90545417:  Virtual Str3 SN 
 VS04.                12460870:  Virtual Str4 SN 
 VS05.                90516706:  Virtual Str5 SN 
 VS06.                90632007:  Virtual Str6 SN 
 WBMN.klb                 0.00:  WOB Min 
 WOBA.klb                14.00:  WOB Avg 
 WOBX.klb                25.00:  WOB Max 
 YP  .lhf2               32.00:  Yield Point 
~Curve Information Block
#MNEM.UNIT                 API CODE     Curve Description
#---------               -----------    ---------------------------
 TIME.HHMMSS            00 000 000 000:  GT Time & Date
 GTDEPTH.m              00 000 000 000:  GT Depth
 GTPQH.psia             00 000 000 000:  GT HR Quartz Pressure
 GTTQ.degC              00 000 000 000:  GT Quartz Temperature
 GTTN.NONE              00 000 000 000:  GT Test Number
 GTET.sec               00 000 000 000:  GT Elapsed Test Time
 GTTVD.m                00 000 000 000:  GT True Vertical Depth
#Other Information
#
#WARRANTY: Halliburton will use its best efforts to furnish customers with 
#accurate information and interpretations that are part of, and incident to, the services 
#provided.  However, Halliburton cannot and does not warrant the accuracy 
#or correctness of such information and interpretations.  Under no circumstances should any 
#such information or interpretation be relied upon as the sole basis for any drilling, 
#completion, production, or financial decision or any procedure involving any risk to the 
#safety of any drilling venture, drilling rig or its crew or any other third party.  The 
#Customer has full responsibility for all drilling, completion and production operation.  
#Halliburton makes no representations or warranties, either expressed or 
#implied, including, but not limited to, the implied warranties of merchantability or fitness 
#for a particular purpose, with respect to the services rendered.  In no event will 
#Halliburton be liable for failure to obtain any particular results or for 
#any damages, including, but not limited to, indirect, special or consequential damages, 
#resulting from the use of any information or interpretation provided by Halliburton.
#
~A           TIME           GTDEPTH  GTPQH  GTTQ  GTTN  GTET   GTTVD  
# ...
   15:28:29.820.25-Dec-2020 4892.01 2718.14 65.35 4.00 253.07 2535.10
   15:28:30.020.25-Dec-2020 4892.01 2718.14 65.35 4.00 253.27 2535.10
   15:28:30.220.25-Dec-2020 4892.01 2718.32 65.35 4.00 253.47 2535.10
   15:28:30.420.25-Dec-2020 4892.01 2718.30 65.35 4.00 253.67 2535.10
   15:28:30.620.25-Dec-2020 4892.01 2718.35 65.35 4.00 253.87 2535.10
   15:28:30.820.25-Dec-2020 4892.01 2718.34 65.35 4.00 254.07 2535.10
   15:28:31.020.25-Dec-2020 4892.01 2718.34 65.35 4.00 254.27 2535.10
   15:28:31.220.25-Dec-2020 4892.01 2718.34 65.35 4.00 254.47 2535.10
   15:28:31.420.25-Dec-2020 4892.01 2718.35 65.35 4.00 254.67 2535.10
   15:28:31.620.25-Dec-2020 4892.01 2718.35 65.35 4.00 254.87 2535.10
   15:28:31.820.25-Dec-2020 4892.01 2718.60 65.35 4.00 255.07 2535.10
   15:28:32.020.25-Dec-2020 4892.01 2718.22 65.35 4.00 255.27 2535.10
   15:28:32.221.25-Dec-2020 4892.01 2718.40 65.35 4.00 255.47 2535.10
   15:28:32.421.25-Dec-2020 4892.01 2718.32 65.35 4.00 255.67 2535.10
   15:28:32.621.25-Dec-2020 4892.01 2718.30 65.35 4.00 255.87 2535.10
   15:28:32.821.25-Dec-2020 4892.01 2718.35 65.35 4.00 256.07 2535.10
   15:28:33.021.25-Dec-2020 4892.01 2718.35 65.35 4.00 256.27 2535.10
   15:28:33.221.25-Dec-2020 4892.01 2718.36 65.35 4.00 256.47 2535.10
   15:28:33.421.25-Dec-2020 4892.01 2718.36 65.35 4.00 256.67 2535.10
   15:28:33.621.25-Dec-2020 4892.01 2718.36 65.35 4.00 256.87 2535.10
   15:28:33.821.25-Dec-2020 4892.01 2718.35 65.35 4.00 257.07 2535.10
   15:28:34.021.25-Dec-2020 4892.01 2718.35 65.35 4.00 257.27 2535.10
   15:28:34.221.25-Dec-2020 4892.01 2718.33 65.35 4.00 257.47 2535.10
   15:28:34.421.25-Dec-2020 4892.01 2718.52 65.35 4.00 257.67 2535.10
   15:28:34.621.25-Dec-2020 4892.01 2718.49 65.35 4.00 257.87 2535.10
   15:28:34.821.25-Dec-2020 4892.01 2718.15 65.35 4.00 258.07 2535.10
   15:28:35.021.25-Dec-2020 4892.01 2718.15 65.35 4.00 258.27 2535.10
   15:28:35.221.25-Dec-2020 4892.01 2718.62 65.35 4.00 258.47 2535.10
   15:28:35.421.25-Dec-2020 4892.01 2718.14 65.35 4.00 258.67 2535.10
   15:28:35.621.25-Dec-2020 4892.01 2718.42 65.35 4.00 258.87 2535.10
   15:28:35.821.25-Dec-2020 4892.01 2718.29 65.35 4.00 259.07 2535.10
   15:28:36.022.25-Dec-2020 4892.01 2718.42 65.35 4.00 259.27 2535.10
   15:28:36.222.25-Dec-2020 4892.01 2718.20 65.35 4.00 259.47 2535.10
   15:28:36.422.25-Dec-2020 4892.01 2718.38 65.35 4.00 259.67 2535.10
   15:28:36.622.25-Dec-2020 4892.01 2718.36 65.35 4.00 259.87 2535.10
   15:28:36.822.25-Dec-2020 4892.01 2718.51 65.35 4.00 260.07 2535.10
   15:28:37.022.25-Dec-2020 4892.01 2718.51 65.35 4.00 260.27 2535.10
   15:28:37.222.25-Dec-2020 4892.01 2718.38 65.35 4.00 260.47 2535.10
   15:28:37.422.25-Dec-2020 4892.01 2718.29 65.35 4.00 260.67 2535.10
   15:28:37.622.25-Dec-2020 4892.01 2718.30 65.35 4.00 260.87 2535.10
   15:28:37.822.25-Dec-2020 4892.01 2718.33 65.35 4.00 261.07 2535.10
   15:28:38.022.25-Dec-2020 4892.01 2718.33 65.35 4.00 261.27 2535.10
   15:28:38.222.25-Dec-2020 4892.01 2718.36 65.35 4.00 261.47 2535.10
   15:28:38.422.25-Dec-2020 4892.01 2718.34 65.35 4.00 261.67 2535.10
   15:28:38.622.25-Dec-2020 4892.01 2718.34 65.35 4.00 261.87 2535.10
   15:28:38.822.25-Dec-2020 4892.01 2718.35 65.35 4.00 262.07 2535.10
   15:28:39.022.25-Dec-2020 4892.01 2718.35 65.35 4.00 262.27 2535.10
   15:28:39.222.25-Dec-2020 4892.01 2718.35 65.35 4.00 262.47 2535.10
   15:28:39.422.25-Dec-2020 4892.01 2718.46 65.35 4.00 262.67 2535.10
   15:28:39.622.25-Dec-2020 4892.01 2718.23 65.35 4.00 262.87 2535.10
   15:28:39.823.25-Dec-2020 4892.01 2718.45 65.35 4.00 263.07 2535.10
   15:28:40.023.25-Dec-2020 4892.01 2718.45 65.35 4.00 263.27 2535.10
   15:28:40.223.25-Dec-2020 4892.01 2718.29 65.35 4.00 263.47 2535.10
   15:28:40.423.25-Dec-2020 4892.01 2718.39 65.35 4.00 263.67 2535.10
   15:28:40.623.25-Dec-2020 4892.01 2718.34 65.35 4.00 263.87 2535.10
   15:28:40.823.25-Dec-2020 4892.01 2718.37 65.35 4.00 264.07 2535.10
   15:28:41.023.25-Dec-2020 4892.01 2718.37 65.35 4.00 264.27 2535.10
   15:28:41.223.25-Dec-2020 4892.01 2718.34 65.35 4.00 264.47 2535.10
   15:28:41.423.25-Dec-2020 4892.01 2718.34 65.35 4.00 264.67 2535.10
   15:28:41.623.25-Dec-2020 4892.01 2718.35 65.35 4.00 264.87 2535.10
   15:28:41.823.25-Dec-2020 4892.01 2718.60 65.35 4.00 265.07 2535.10
   15:28:42.023.25-Dec-2020 4892.01 2718.60 65.35 4.00 265.27 2535.10
   15:28:42.223.25-Dec-2020 4892.01 2718.41 65.35 4.00 265.47 2535.10
   15:28:42.423.25-Dec-2020 4892.01 2718.31 65.35 4.00 265.67 2535.10
   15:28:42.623.25-Dec-2020 4892.01 2718.29 65.35 4.00 265.87 2535.10
   15:28:42.823.25-Dec-2020 4892.01 2718.48 65.35 4.00 266.07 2535.10
   15:28:43.023.25-Dec-2020 4892.01 2718.48 65.35 4.00 266.27 2535.10
   15:28:43.223.25-Dec-2020 4892.01 2718.46 65.35 4.00 266.47 2535.10
   15:28:43.424.25-Dec-2020 4892.01 2718.36 65.35 4.00 266.67 2535.10
   15:28:43.624.25-Dec-2020 4892.01 2718.23 65.35 4.00 266.87 2535.10
   15:28:43.824.25-Dec-2020 4892.01 2718.38 65.35 4.00 267.07 2535.10
   15:28:44.024.25-Dec-2020 4892.01 2718.36 65.35 4.00 267.27 2535.10
   15:28:44.224.25-Dec-2020 4892.01 2718.43 65.35 4.00 267.47 2535.10
   15:28:44.424.25-Dec-2020 4892.01 2718.39 65.35 4.00 267.67 2535.10
   15:28:44.624.25-Dec-2020 4892.01 2718.23 65.35 4.00 267.87 2535.10
   15:28:44.824.25-Dec-2020 4892.01 2718.46 65.35 4.00 268.07 2535.10
   15:28:45.024.25-Dec-2020 4892.01 2718.46 65.35 4.00 268.27 2535.10
   15:28:45.224.25-Dec-2020 4892.01 2718.28 65.35 4.00 268.47 2535.10
   15:28:45.424.25-Dec-2020 4892.01 2718.37 65.35 4.00 268.67 2535.10
   15:28:45.624.25-Dec-2020 4892.01 2718.31 65.35 4.00 268.87 2535.10
   15:28:45.824.25-Dec-2020 4892.01 2718.34 65.35 4.00 269.07 2535.10
   15:28:46.024.25-Dec-2020 4892.01 2718.34 65.35 4.00 269.27 2535.10
   15:28:46.224.25-Dec-2020 4892.01 2718.33 65.35 4.00 269.47 2535.10
   15:28:46.424.25-Dec-2020 4892.01 2718.34 65.35 4.00 269.67 2535.10
   15:28:46.624.25-Dec-2020 4892.01 2718.34 65.35 4.00 269.87 2535.10
   15:28:46.824.25-Dec-2020 4892.01 2718.34 65.35 4.00 270.07 2535.10
   15:28:47.024.25-Dec-2020 4892.01 2718.34 65.35 4.00 270.27 2535.10
   15:28:47.225.25-Dec-2020 4892.01 2718.34 65.35 4.00 270.47 2535.10
   15:28:47.425.25-Dec-2020 4892.01 2718.41 65.35 4.00 270.67 2535.10
   15:28:47.625.25-Dec-2020 4892.01 2718.44 65.35 4.00 270.87 2535.10
   15:28:47.825.25-Dec-2020 4892.01 2718.28 65.35 4.00 271.07 2535.10
   15:28:48.025.25-Dec-2020 4892.01 2718.37 65.34 4.00 271.27 2535.10
   15:28:48.225.25-Dec-2020 4892.01 2718.35 65.35 4.00 271.47 2535.10
   15:28:48.425.25-Dec-2020 4892.01 2718.35 65.34 4.00 271.67 2535.10
   15:28:48.625.25-Dec-2020 4892.01 2718.37 65.34 4.00 271.87 2535.10
   15:28:48.825.25-Dec-2020 4892.01 2718.34 65.34 4.00 272.07 2535.10
   15:28:49.025.25-Dec-2020 4892.01 2718.34 65.34 4.00 272.27 2535.10
   15:28:49.225.25-Dec-2020 4892.01 2718.34 65.34 4.00 272.47 2535.10
   15:28:49.425.25-Dec-2020 4892.01 2718.48 65.34 4.00 272.67 2535.10
   15:28:49.625.25-Dec-2020 4892.01 2718.21 65.34 4.00 272.87 2535.10
   15:28:49.825.25-Dec-2020 4892.01 2718.45 65.34 4.00 273.07 2535.10
   15:28:50.025.25-Dec-2020 4892.01 2718.45 65.34 4.00 273.27 2535.10
   15:28:50.225.25-Dec-2020 4892.01 2718.28 65.34 4.00 273.47 2535.10
   15:28:50.425.25-Dec-2020 4892.01 2718.37 65.34 4.00 273.67 2535.10
   15:28:50.625.25-Dec-2020 4892.01 2718.30 65.34 4.00 273.87 2535.10
   15:28:50.826.25-Dec-2020 4892.01 2718.40 65.34 4.00 274.07 2535.10
   15:28:51.026.25-Dec-2020 4892.01 2718.40 65.34 4.00 274.27 2535.10
   15:28:51.226.25-Dec-2020 4892.01 2718.42 65.34 4.00 274.47 2535.10
   15:28:51.426.25-Dec-2020 4892.01 2718.46 65.34 4.00 274.67 2535.10
   15:28:51.626.25-Dec-2020 4892.01 2718.19 65.34 4.00 274.87 2535.10
   15:28:51.826.25-Dec-2020 4892.01 2718.44 65.34 4.00 275.07 2535.10
   15:28:52.026.25-Dec-2020 4892.01 2718.29 65.34 4.00 275.27 2535.10
   15:28:52.226.25-Dec-2020 4892.01 2718.26 65.34 4.00 275.47 2535.10
   15:28:52.426.25-Dec-2020 4892.01 2718.41 65.34 4.00 275.67 2535.10
   15:28:52.626.25-Dec-2020 4892.01 2718.40 65.34 4.00 275.87 2535.10
