~Version Information
 VERS.                  2.0:   CWLS log ASCII Standard -VERSION 2.0
 WRAP.                   NO:   One line per depth step
~Well Information Block
#MNEM.UNIT     VALUE/NAME     DESCRIPTION
#---------     -----------    ---------------------------
 STRT.S             13:36:27 25-Dec-20: START TIME 13:36:27 25-Dec-20
 STOP.S             13:44:49 25-Dec-20: STOP TIME  13:44:49 25-Dec-20
 STEP.S                   0.00: STEP TIME
 NULL.                 -999.25: NULL VALUE
 DFWT.                        :  DIST FWL TEXT
 DFST.                        :  DIST FSL TEXT
 DMF .             Drill Floor:  DRILL MEAS FROM
 STIM.      04.54.24 22-Sep-20:  START TIME
 DATE.      04.54.24 21-Nov-20:  END TIME
 SPUD.               21-Nov-20:  SPUD DATE
 NREF.                    Grid:  NORTH REFERENCE
 HPTY.       Minimum Curvature:  HOLE POS TYPE
 DMOD.             Drill Model:  DRILL MOD DESC
 SVYD.                  Survey:  SURVEY DESC
 ILTD.               Lithology:  INTERP LTH DESC
 FTOP.          Formation Tops:  FORM TOPS DESC
 SON .        AZ-XX-0906571587:  JOB NUMBER
 COMP.     BP Exploration (Caspian Sea) Ltd:  COMPANY
 UWI .                     N/A:  UNIQUE WELL IDENTIFIER
 API .                     N/A:  API NUMBER
 BASE.              Azerbaijan:  LOGGING EQUIPMENT BASE LOCATION
 REGN.                   EESSA:  REGION
 PROV.                    Baku:  PROVINCE
 STAT.                    Baku:  STATE NAME
 CTRY.              Azerbaijan:  COUNTRY NAME
 FLD .                     ACG:  FIELD NAME
 SRVC.     TURAN Drilling & Engineering:  CONTRACTOR
 WELL.                     J27:  WELL NAME
 RIG .             West Chirag:  RIG NAME
 DOE .                     N/A:  DOE NUMBER
 DCON.         Sperry Drilling:  DIRECTNL CONTR
 PDAT.          Mean Sea Level:  PERMANENT DATUM
 WTYP.                Deviated:  WELL TYPE
 MWDS.                    Baku:  MWD SHOP
 JOBN.        AZ-XX-0906571587:  JOB TICKET NUMB
 UNIT.                     N/A:  LOGGING EQUIPMENT ID
 MDS .        Operator Entered:  MAG DATA SOURCE
 CNTY.                        :  COUNTY
 LOC .                        :  LOCATION
 LMF .             Drill Floor:  LOG MEASURED FROM
 TVDS.m                  43.00:  TVDSS CORRECTN
 LATI.deg                40.13:  LATITUDE
 LONG.deg                51.22:  LONGITUDE
 WHNS.m                   7.72:  WELL HEAD N/S
 WHEW.m                 -14.24:  WELL HEAD E/W
 UTMX.m              519005.06:  UTM X
 UTMY.m             4443793.85:  UTM Y
 DFWL.m                   0.00:  DISTANCE FWL
 DFSL.m                   0.00:  DISTANCE FSL
 SDEP.m                 347.00:  START DEPTH
 TDD .m                 581.00:  TOTAL DEPTH (DRILLER)
 VSDR.deg               159.72:  VERT SEC DIRECT
 GVFD.g                   1.00:  GRAVITY FIELD
 MFLD.nT              50318.00:  MAGNETIC FIELD
 MDIP.deg                59.57:  MAGNETIC DIP
 MDEC.deg                 6.44:  MAGNETIC DECL
 GRDC.deg                 0.15:  GRID CORRECTION
 AZTC.deg                 6.29:  AZM TOTAL CORR
 EPD .m                   0.00:  ELEVATION
 EGL .m                   0.00:  GROUND ELEVATION
 WDMS.m                 169.80:  WD ELEV
 APD .m                  43.00:  DEPTH ABOVE PD
 AGAP.m                  43.00:  AIR GAP
 VSEW.m                 -14.24:  VERT SEC E/W
 VSNS.m                   7.72:  VERT SEC N/S
 DEP .m                 342.45:  DEPTH
 EKB .m                   0.00:  KB ELEVATION
 EDF .m                  43.00:  DF ELEVATION
 TDL .m                 237.00:  TOTAL DEPTH (LOGGER)
 VSC .                       0:  VS TO CLOSURE
 MAGU.                 1851428:  MAGUTM CHECKSUM
~Parameter Information Block
#MNEM.UNIT       Value        Description
#---------     -----------    ---------------------------
 AV  .mps                 1.50:  Ann Velocity 
 AVMX.mps                 2.90:  Max Ann Veloc 
 AZIF.deg               115.59:  Azm, Final 
 BHAT.        Rotary Steerable:  BHA Type 
 BROT.°/30m               0.50:  Build Rotating 
 BS  .in                  8.50:  Bit Size 
 BTPL.psig              580.00:  Bit Press Loss 
 CABU.                     Yes:  Customer Abuse 
 COMM.                     lW:  Run Comments 1 
 TCS .hr                 89.79:  Time Ciculation Ended 
 CV  .mps                 3.22:  Crit Velocity 
 CVMX.mps                 4.37:  Max Crit Veloc 
 DD1 .          Rashad Habibov:  Direct Drillr 1 
 DDSV.               Geo-Pilot:  DD Service 
 DEFF.%                  95.00:  % Det Eff 
 DLRX.°/30m               1.94:  Dogleg Rot Max 
 DLSO.°/30m               0.70:  Dogleg Oriented 
 DLSX.°/30m               1.94:  Dogleg Str Max 
 DRET.      04.45.00 25-Dec-20:  Drill End Time 
 DRST.      10.00.00 24-Dec-20:  Drill Start Tim 
 DTIM.hr                 16.64:  Time Drilling 
 EDEP.m                4999.01:  End Depth 
 ENG1.         Elchin Mammadov:  Engineer 1 
 ENG2.          Ruslan Safarov:  Engineer 2 
 ENG3.          Rustam Safarov:  Engineer 3 
 ETIM.      09.00.00 29-Dec-20:  End Time 
 FLOI.gpm               500.00:  Flow In 
 FLON.gpm               400.00:  Flow In Min 
 FLOS.cptm                0.00:  Fluid Loss 
 FLOX.gpm               500.00:  Flow In Max 
 HFLO.                      No:  High Flow 
 HPRE.                      No:  High Pressure 
 HTEM.                      No:  High Temp 
 HYDO.m                   2.00:  Hydro Offset 
 IFIN.deg                66.79:  Inc, Final 
 IMAX.deg                67.66:  Inc Max 
 IMIN.deg                66.39:  Inc Min 
 IMND.m                4949.37:  Inc Min Depth 
 IMXD.m                4778.63:  Inc Max Depth 
 JARR.                     Yes:  Jarring 
 LETM.      04.45.00 25-Dec-20:  Log End Time 
 LOST.hr                     0:  Lost Rig Time 
 LSTM.      10.00.00 24-Dec-20:  Log Start Time 
 MDCL.ppm             39000.00:  Mud Chlorides 
 MDES.     Inversion Oil/Synthetic:  Mud Desc 
 DFD .sg                  1.33:  Mud Density 
 MDMN.sg                  1.33:  Dens Mud Min 
 MDMX.sg                  1.33:  Dens Mud Max 
 MOIL.                      70:  Run Mud Oil % 
 MOWR.                   70:30:  Run Mud OWR 
 MSND.                       0:  Run Mud Sand % 
 MSOL.                    17.4:  Run Mud Solids% 
 DFV .spqt               84.00:  Mud Viscosity 
 MWOD.in                  6.75:  MWD Tool OD 
 MWSI.                     Yes:  Serv Intrp, MWD 
 OTIM.hr                168.14:  Time Operating 
 PCON.           Look Like New:  Pad Condition 
 PMAX.psia            10822.93:  Press Op, Max 
 PV  .cP                 30.00:  Mud PV 
 RUN .                     900:  Run Number 
 ROPA.m/hr               18.00:  ROP Avg 
 ROPN.m/hr               12.00:  ROP Min 
 ROPX.m/hr               25.00:  ROP Max 
 RPMA.rpm               120.00:  RPM Surface Avg 
 RPMN.rpm               100.00:  RPM Surface Min 
 RPMX.rpm               120.00:  RPM Surface Max 
 RRUN.                    0900:  Rig Run Number 
 SAZI.deg               115.08:  Azm, Start 
 SDEP.m                4762.01:  Start Depth 
 SIDD.                      No:  Serv Intrp, DD 
 SINC.deg                66.14:  Inc, Start 
 SPPA.psig             3700.00:  SPP Avg 
 SPPN.psig             3620.00:  SPP Min 
 SPPX.psig             3900.00:  SPP Max 
 STIM.      09.30.00 22-Dec-20:  Start Time 
 SVCS.                 DD, MWD:  Services 
 SVER.                    9.20:  Sperry Version 
 TDAT.m                 237.00:  Tot Depth Attmp 
 TDDF.                      No:  Trip for DD 
 TDLG.m                 237.00:  Tot Depth Loggd 
 TFF .                      No:  Trip for Fail 
 TQAA.f-kp               18.00:  Torque Abs Avg 
 TQAN.f-kp               17.00:  Torque Abs Min 
 TQAX.f-kp               20.00:  Torque Abs Max 
 TRRT.°/30m               0.60:  Turn Rotating 
 MRT .                    HCIM:  Maximum Recorded Temperature 
 TTMX.degC               94.12:  Max Tool Temp 
 VS01.                90627809:  Virtual Str1 SN 
 VS02.                90527813:  Virtual Str2 SN 
 VS03.                90545417:  Virtual Str3 SN 
 VS04.                12460870:  Virtual Str4 SN 
 VS05.                90516706:  Virtual Str5 SN 
 VS06.                90632007:  Virtual Str6 SN 
 WBMN.klb                 0.00:  WOB Min 
 WOBA.klb                14.00:  WOB Avg 
 WOBX.klb                25.00:  WOB Max 
 YP  .lhf2               32.00:  Yield Point 
~Curve Information Block
#MNEM.UNIT                 API CODE     Curve Description
#---------               -----------    ---------------------------
 TIME.HHMMSS            00 000 000 000:  GT Time & Date
 GTDEPTH.m              00 000 000 000:  GT Depth
 GTPQH.psia             00 000 000 000:  GT HR Quartz Pressure
 GTTQ.degC              00 000 000 000:  GT Quartz Temperature
 GTTN.NONE              00 000 000 000:  GT Test Number
 GTET.sec               00 000 000 000:  GT Elapsed Test Time
 GTTVD.m                00 000 000 000:  GT True Vertical Depth
#Other Information
#
#WARRANTY: Halliburton will use its best efforts to furnish customers with 
#accurate information and interpretations that are part of, and incident to, the services 
#provided.  However, Halliburton cannot and does not warrant the accuracy 
#or correctness of such information and interpretations.  Under no circumstances should any 
#such information or interpretation be relied upon as the sole basis for any drilling, 
#completion, production, or financial decision or any procedure involving any risk to the 
#safety of any drilling venture, drilling rig or its crew or any other third party.  The 
#Customer has full responsibility for all drilling, completion and production operation.  
#Halliburton makes no representations or warranties, either expressed or 
#implied, including, but not limited to, the implied warranties of merchantability or fitness 
#for a particular purpose, with respect to the services rendered.  In no event will 
#Halliburton be liable for failure to obtain any particular results or for 
#any damages, including, but not limited to, indirect, special or consequential damages, 
#resulting from the use of any information or interpretation provided by Halliburton.
#
~A           TIME           GTDEPTH  GTPQH  GTTQ  GTTN  GTET   GTTVD  
# ...
   13:44:07.000.25-Dec-2020 4921.01 5515.86 66.19 2.00 460.00 2546.48
   13:44:07.200.25-Dec-2020 4921.01 5515.86 66.19 2.00 460.20 2546.48
   13:44:07.400.25-Dec-2020 4921.01 5517.39 66.20 2.00 460.40 2546.48
   13:44:07.600.25-Dec-2020 4921.01 5521.33 66.20 2.00 460.60 2546.48
   13:44:07.800.25-Dec-2020 4921.01 5521.12 66.20 2.00 460.80 2546.48
   13:44:08.000.25-Dec-2020 4921.01 5529.22 66.21 2.00 461.00 2546.48
   13:44:08.200.25-Dec-2020 4921.01 5529.22 66.21 2.00 461.20 2546.48
   13:44:08.400.25-Dec-2020 4921.01 5524.74 66.21 2.00 461.40 2546.48
   13:44:08.600.25-Dec-2020 4921.01 5529.12 66.22 2.00 461.60 2546.48
   13:44:08.800.25-Dec-2020 4921.01 5526.45 66.22 2.00 461.80 2546.48
   13:44:09.000.25-Dec-2020 4921.01 5526.44 66.23 2.00 462.00 2546.48
   13:44:09.200.25-Dec-2020 4921.01 5526.44 66.23 2.00 462.20 2546.48
   13:44:09.400.25-Dec-2020 4921.01 5526.55 66.23 2.00 462.40 2546.48
   13:44:09.600.25-Dec-2020 4921.01 5526.81 66.24 2.00 462.60 2546.48
   13:44:09.800.25-Dec-2020 4921.01 5527.20 66.24 2.00 462.80 2546.48
   13:44:10.000.25-Dec-2020 4921.01 5527.60 66.25 2.00 463.00 2546.48
   13:44:10.200.25-Dec-2020 4921.01 5527.60 66.25 2.00 463.20 2546.48
   13:44:10.400.25-Dec-2020 4921.01 5537.61 66.25 2.00 463.40 2546.48
   13:44:10.600.25-Dec-2020 4921.01 5529.75 66.26 2.00 463.60 2546.48
   13:44:10.800.25-Dec-2020 4921.01 5529.31 66.26 2.00 463.80 2546.48
   13:44:11.000.25-Dec-2020 4921.01 5529.71 66.26 2.00 464.00 2546.48
   13:44:11.200.25-Dec-2020 4921.01 5529.71 66.26 2.00 464.20 2546.48
   13:44:11.400.25-Dec-2020 4921.01 5528.74 66.27 2.00 464.40 2546.48
   13:44:11.600.25-Dec-2020 4921.01 5544.20 66.28 2.00 464.60 2546.48
   13:44:11.800.25-Dec-2020 4921.01 5532.19 66.28 2.00 464.80 2546.48
   13:44:12.000.25-Dec-2020 4921.01 5530.27 66.28 2.00 465.00 2546.48
   13:44:12.200.25-Dec-2020 4921.01 5530.27 66.28 2.00 465.20 2546.48
   13:44:12.400.25-Dec-2020 4921.01 5530.76 66.29 2.00 465.40 2546.48
   13:44:12.600.25-Dec-2020 4921.01 5542.04 66.29 2.00 465.60 2546.48
   13:44:12.800.25-Dec-2020 4921.01 5527.79 66.29 2.00 465.80 2546.48
   13:44:13.000.25-Dec-2020 4921.01 5531.96 66.30 2.00 466.00 2546.48
   13:44:13.200.25-Dec-2020 4921.01 5531.96 66.30 2.00 466.20 2546.48
   13:44:13.400.25-Dec-2020 4921.01 5528.32 66.30 2.00 466.40 2546.48
   13:44:13.600.25-Dec-2020 4921.01 5529.42 66.31 2.00 466.60 2546.48
   13:44:13.800.25-Dec-2020 4921.01 5528.84 66.31 2.00 466.80 2546.48
   13:44:14.000.25-Dec-2020 4921.01 5527.70 66.31 2.00 467.00 2546.48
   13:44:14.200.25-Dec-2020 4921.01 5527.70 66.31 2.00 467.20 2546.48
   13:44:14.400.25-Dec-2020 4921.01 5526.93 66.31 2.00 467.40 2546.48
   13:44:14.600.25-Dec-2020 4921.01 5528.34 66.32 2.00 467.60 2546.48
   13:44:14.800.25-Dec-2020 4921.01 5528.56 66.32 2.00 467.80 2546.48
   13:44:15.000.25-Dec-2020 4921.01 5535.90 66.32 2.00 468.00 2546.48
   13:44:15.200.25-Dec-2020 4921.01 5535.90 66.32 2.00 468.20 2546.48
   13:44:15.400.25-Dec-2020 4921.01 5528.83 66.32 2.00 468.40 2546.48
   13:44:15.600.25-Dec-2020 4921.01 5529.14 66.32 2.00 468.60 2546.48
   13:44:15.800.25-Dec-2020 4921.01 5531.25 66.33 2.00 468.80 2546.48
   13:44:16.000.25-Dec-2020 4921.01 5528.60 66.33 2.00 469.00 2546.48
   13:44:16.200.25-Dec-2020 4921.01 5528.60 66.33 2.00 469.20 2546.48
   13:44:16.400.25-Dec-2020 4921.01 5529.93 66.33 2.00 469.40 2546.48
   13:44:16.600.25-Dec-2020 4921.01 5529.39 66.33 2.00 469.60 2546.48
   13:44:16.800.25-Dec-2020 4921.01 5529.68 66.33 2.00 469.80 2546.48
   13:44:17.000.25-Dec-2020 4921.01 5529.16 66.33 2.00 470.00 2546.48
   13:44:17.200.25-Dec-2020 4921.01 5529.16 66.33 2.00 470.20 2546.48
   13:44:17.400.25-Dec-2020 4921.01 5529.28 66.33 2.00 470.40 2546.48
   13:44:17.600.25-Dec-2020 4921.01 5529.28 66.34 2.00 470.60 2546.48
   13:44:17.800.25-Dec-2020 4921.01 5540.15 66.34 2.00 470.80 2546.48
   13:44:18.000.25-Dec-2020 4921.01 5529.19 66.34 2.00 471.00 2546.48
   13:44:18.200.25-Dec-2020 4921.01 5529.19 66.34 2.00 471.20 2546.48
   13:44:18.400.25-Dec-2020 4921.01 5529.55 66.34 2.00 471.40 2546.48
   13:44:18.600.25-Dec-2020 4921.01 5543.15 66.34 2.00 471.60 2546.48
   13:44:18.800.25-Dec-2020 4921.01 5529.55 66.34 2.00 471.80 2546.48
   13:44:19.000.25-Dec-2020 4921.01 5530.82 66.34 2.00 472.00 2546.48
   13:44:19.200.25-Dec-2020 4921.01 5530.82 66.34 2.00 472.20 2546.48
   13:44:19.400.25-Dec-2020 4921.01 5537.05 66.34 2.00 472.40 2546.48
   13:44:19.600.25-Dec-2020 4921.01 5532.03 66.34 2.00 472.60 2546.48
   13:44:19.800.25-Dec-2020 4921.01 5530.54 66.34 2.00 472.80 2546.48
   13:44:20.000.25-Dec-2020 4921.01 5531.79 66.34 2.00 473.00 2546.48
   13:44:20.200.25-Dec-2020 4921.01 5531.79 66.34 2.00 473.20 2546.48
   13:44:20.400.25-Dec-2020 4921.01 5529.30 66.34 2.00 473.40 2546.48
   13:44:20.600.25-Dec-2020 4921.01 5528.89 66.34 2.00 473.60 2546.48
   13:44:20.800.25-Dec-2020 4921.01 5530.76 66.34 2.00 473.80 2546.48
   13:44:21.000.25-Dec-2020 4921.01 5529.12 66.34 2.00 474.00 2546.48
   13:44:21.200.25-Dec-2020 4921.01 5529.12 66.34 2.00 474.20 2546.48
   13:44:21.400.25-Dec-2020 4921.01 5527.14 66.34 2.00 474.40 2546.48
   13:44:21.600.25-Dec-2020 4921.01 5526.92 66.34 2.00 474.60 2546.48
   13:44:21.800.25-Dec-2020 4921.01 5528.98 66.34 2.00 474.80 2546.48
   13:44:22.000.25-Dec-2020 4921.01 5527.42 66.34 2.00 475.00 2546.48
   13:44:22.200.25-Dec-2020 4921.01 5527.42 66.34 2.00 475.20 2546.48
   13:44:22.400.25-Dec-2020 4921.01 5528.62 66.34 2.00 475.40 2546.48
   13:44:22.600.25-Dec-2020 4921.01 5529.40 66.34 2.00 475.60 2546.48
   13:44:22.800.25-Dec-2020 4921.01 5534.24 66.34 2.00 475.80 2546.48
   13:44:23.000.25-Dec-2020 4921.01 5529.33 66.34 2.00 476.00 2546.48
   13:44:23.200.25-Dec-2020 4921.01 5529.33 66.34 2.00 476.20 2546.48
   13:44:23.400.25-Dec-2020 4921.01 5533.76 66.34 2.00 476.40 2546.48
   13:44:23.600.25-Dec-2020 4921.01 5529.23 66.34 2.00 476.60 2546.48
   13:44:23.800.25-Dec-2020 4921.01 5530.98 66.34 2.00 476.80 2546.48
   13:44:24.000.25-Dec-2020 4921.01 5529.52 66.34 2.00 477.00 2546.48
   13:44:24.200.25-Dec-2020 4921.01 5529.52 66.34 2.00 477.20 2546.48
   13:44:24.400.25-Dec-2020 4921.01 5530.81 66.34 2.00 477.40 2546.48
   13:44:24.600.25-Dec-2020 4921.01 5529.22 66.34 2.00 477.60 2546.48
   13:44:24.800.25-Dec-2020 4921.01 5530.56 66.34 2.00 477.80 2546.48
   13:44:25.000.25-Dec-2020 4921.01 5528.48 66.34 2.00 478.00 2546.48
   13:44:25.200.25-Dec-2020 4921.01 5528.48 66.34 2.00 478.20 2546.48
   13:44:25.400.25-Dec-2020 4921.01 5541.52 66.33 2.00 478.40 2546.48
   13:44:25.600.25-Dec-2020 4921.01 5527.66 66.33 2.00 478.60 2546.48
   13:44:25.800.25-Dec-2020 4921.01 5532.96 66.33 2.00 478.80 2546.48
   13:44:26.000.25-Dec-2020 4921.01 5528.75 66.33 2.00 479.00 2546.48
   13:44:26.200.25-Dec-2020 4921.01 5528.75 66.33 2.00 479.20 2546.48
   13:44:26.400.25-Dec-2020 4921.01 5539.54 66.33 2.00 479.40 2546.48
   13:44:26.600.25-Dec-2020 4921.01 5528.25 66.33 2.00 479.60 2546.48
   13:44:26.800.25-Dec-2020 4921.01 5532.57 66.33 2.00 479.80 2546.48
   13:44:27.000.25-Dec-2020 4921.01 5529.87 66.33 2.00 480.00 2546.48
   13:44:27.200.25-Dec-2020 4921.01 5529.87 66.33 2.00 480.20 2546.48
   13:44:27.400.25-Dec-2020 4921.01 5529.98 66.33 2.00 480.40 2546.48
   13:44:27.600.25-Dec-2020 4921.01 5529.51 66.33 2.00 480.60 2546.48
   13:44:27.800.25-Dec-2020 4921.01 5541.41 66.33 2.00 480.80 2546.48
   13:44:28.000.25-Dec-2020 4921.01 5530.03 66.33 2.00 481.00 2546.48
   13:44:28.200.25-Dec-2020 4921.01 5530.03 66.33 2.00 481.20 2546.48
   13:44:28.400.25-Dec-2020 4921.01 5529.95 66.33 2.00 481.40 2546.48
   13:44:28.600.25-Dec-2020 4921.01 5529.37 66.33 2.00 481.60 2546.48
   13:44:28.800.25-Dec-2020 4921.01 5528.11 66.33 2.00 481.80 2546.48
   13:44:29.000.25-Dec-2020 4921.01 5525.82 66.33 2.00 482.00 2546.48
   13:44:29.200.25-Dec-2020 4921.01 5525.82 66.33 2.00 482.20 2546.48
   13:44:29.400.25-Dec-2020 4921.01 5528.17 66.32 2.00 482.40 2546.48
   13:44:29.600.25-Dec-2020 4921.01 5526.48 66.32 2.00 482.60 2546.48
   13:44:29.800.25-Dec-2020 4921.01 5528.10 66.32 2.00 482.80 2546.48
