~Version Information
 VERS.                  2.0:   CWLS log ASCII Standard -VERSION 2.0
 WRAP.                   NO:   One line per depth step
~Well Information Block
#MNEM.UNIT     VALUE/NAME     DESCRIPTION
#---------     -----------    ---------------------------
 STRT.S             18:45:29 25-Dec-20: START TIME 18:45:29 25-Dec-20
 STOP.S             18:53:50 25-Dec-20: STOP TIME  18:53:50 25-Dec-20
 STEP.S                   0.00: STEP TIME
 NULL.                 -999.25: NULL VALUE
 DFWT.                        :  DIST FWL TEXT
 DFST.                        :  DIST FSL TEXT
 DMF .             Drill Floor:  DRILL MEAS FROM
 STIM.      04.54.24 22-Sep-20:  START TIME
 DATE.      04.54.24 21-Nov-20:  END TIME
 SPUD.               21-Nov-20:  SPUD DATE
 NREF.                    Grid:  NORTH REFERENCE
 HPTY.       Minimum Curvature:  HOLE POS TYPE
 DMOD.             Drill Model:  DRILL MOD DESC
 SVYD.                  Survey:  SURVEY DESC
 ILTD.               Lithology:  INTERP LTH DESC
 FTOP.          Formation Tops:  FORM TOPS DESC
 SON .        AZ-XX-0906571587:  JOB NUMBER
 COMP.     BP Exploration (Caspian Sea) Ltd:  COMPANY
 UWI .                     N/A:  UNIQUE WELL IDENTIFIER
 API .                     N/A:  API NUMBER
 BASE.              Azerbaijan:  LOGGING EQUIPMENT BASE LOCATION
 REGN.                   EESSA:  REGION
 PROV.                    Baku:  PROVINCE
 STAT.                    Baku:  STATE NAME
 CTRY.              Azerbaijan:  COUNTRY NAME
 FLD .                     ACG:  FIELD NAME
 SRVC.     TURAN Drilling & Engineering:  CONTRACTOR
 WELL.                     J27:  WELL NAME
 RIG .             West Chirag:  RIG NAME
 DOE .                     N/A:  DOE NUMBER
 DCON.         Sperry Drilling:  DIRECTNL CONTR
 PDAT.          Mean Sea Level:  PERMANENT DATUM
 WTYP.                Deviated:  WELL TYPE
 MWDS.                    Baku:  MWD SHOP
 JOBN.        AZ-XX-0906571587:  JOB TICKET NUMB
 UNIT.                     N/A:  LOGGING EQUIPMENT ID
 MDS .        Operator Entered:  MAG DATA SOURCE
 CNTY.                        :  COUNTY
 LOC .                        :  LOCATION
 LMF .             Drill Floor:  LOG MEASURED FROM
 TVDS.m                  43.00:  TVDSS CORRECTN
 LATI.deg                40.13:  LATITUDE
 LONG.deg                51.22:  LONGITUDE
 WHNS.m                   7.72:  WELL HEAD N/S
 WHEW.m                 -14.24:  WELL HEAD E/W
 UTMX.m              519005.06:  UTM X
 UTMY.m             4443793.85:  UTM Y
 DFWL.m                   0.00:  DISTANCE FWL
 DFSL.m                   0.00:  DISTANCE FSL
 SDEP.m                 347.00:  START DEPTH
 TDD .m                 581.00:  TOTAL DEPTH (DRILLER)
 VSDR.deg               159.72:  VERT SEC DIRECT
 GVFD.g                   1.00:  GRAVITY FIELD
 MFLD.nT              50318.00:  MAGNETIC FIELD
 MDIP.deg                59.57:  MAGNETIC DIP
 MDEC.deg                 6.44:  MAGNETIC DECL
 GRDC.deg                 0.15:  GRID CORRECTION
 AZTC.deg                 6.29:  AZM TOTAL CORR
 EPD .m                   0.00:  ELEVATION
 EGL .m                   0.00:  GROUND ELEVATION
 WDMS.m                 169.80:  WD ELEV
 APD .m                  43.00:  DEPTH ABOVE PD
 AGAP.m                  43.00:  AIR GAP
 VSEW.m                 -14.24:  VERT SEC E/W
 VSNS.m                   7.72:  VERT SEC N/S
 DEP .m                 342.45:  DEPTH
 EKB .m                   0.00:  KB ELEVATION
 EDF .m                  43.00:  DF ELEVATION
 TDL .m                 237.00:  TOTAL DEPTH (LOGGER)
 VSC .                       0:  VS TO CLOSURE
 MAGU.                 1851428:  MAGUTM CHECKSUM
~Parameter Information Block
#MNEM.UNIT       Value        Description
#---------     -----------    ---------------------------
 AV  .mps                 1.50:  Ann Velocity 
 AVMX.mps                 2.90:  Max Ann Veloc 
 AZIF.deg               115.59:  Azm, Final 
 BHAT.        Rotary Steerable:  BHA Type 
 BROT.°/30m               0.50:  Build Rotating 
 BS  .in                  8.50:  Bit Size 
 BTPL.psig              580.00:  Bit Press Loss 
 CABU.                     Yes:  Customer Abuse 
 TCS .hr                 89.79:  Time Ciculation Ended 
 CV  .mps                 3.22:  Crit Velocity 
 CVMX.mps                 4.37:  Max Crit Veloc 
 DD1 .          Rashad Habibov:  Direct Drillr 1 
 DDSV.               Geo-Pilot:  DD Service 
 DEFF.%                  95.00:  % Det Eff 
 DLRX.°/30m               1.94:  Dogleg Rot Max 
 DLSO.°/30m               0.70:  Dogleg Oriented 
 DLSX.°/30m               1.94:  Dogleg Str Max 
 DRET.      04.45.00 25-Dec-20:  Drill End Time 
 DRST.      10.00.00 24-Dec-20:  Drill Start Tim 
 DTIM.hr                 16.64:  Time Drilling 
 EDEP.m                4999.01:  End Depth 
 ENG1.         Elchin Mammadov:  Engineer 1 
 ENG2.          Ruslan Safarov:  Engineer 2 
 ENG3.          Rustam Safarov:  Engineer 3 
 ETIM.      09.00.00 29-Dec-20:  End Time 
 FLOI.gpm               500.00:  Flow In 
 FLON.gpm               400.00:  Flow In Min 
 FLOS.cptm                0.00:  Fluid Loss 
 FLOX.gpm               500.00:  Flow In Max 
 HFLO.                      No:  High Flow 
 HPRE.                      No:  High Pressure 
 HTEM.                      No:  High Temp 
 HYDO.m                   2.00:  Hydro Offset 
 IFIN.deg                66.79:  Inc, Final 
 IMAX.deg                67.66:  Inc Max 
 IMIN.deg                66.39:  Inc Min 
 IMND.m                4949.37:  Inc Min Depth 
 IMXD.m                4778.63:  Inc Max Depth 
 JARR.                     Yes:  Jarring 
 LETM.      04.45.00 25-Dec-20:  Log End Time 
 LOST.hr                     0:  Lost Rig Time 
 LSTM.      10.00.00 24-Dec-20:  Log Start Time 
 MDCL.ppm             39000.00:  Mud Chlorides 
 MDES.     Inversion Oil/Synthetic:  Mud Desc 
 DFD .sg                  1.33:  Mud Density 
 MDMN.sg                  1.33:  Dens Mud Min 
 MDMX.sg                  1.33:  Dens Mud Max 
 MOIL.                      70:  Run Mud Oil % 
 MOWR.                   70:30:  Run Mud OWR 
 MSND.                       0:  Run Mud Sand % 
 MSOL.                    17.4:  Run Mud Solids% 
 DFV .spqt               84.00:  Mud Viscosity 
 MWOD.in                  6.75:  MWD Tool OD 
 MWSI.                     Yes:  Serv Intrp, MWD 
 OTIM.hr                168.14:  Time Operating 
 PCON.           Look Like New:  Pad Condition 
 PMAX.psia            10822.93:  Press Op, Max 
 PV  .cP                 30.00:  Mud PV 
 RUN .                     900:  Run Number 
 ROPA.m/hr               18.00:  ROP Avg 
 ROPN.m/hr               12.00:  ROP Min 
 ROPX.m/hr               25.00:  ROP Max 
 RPMA.rpm               120.00:  RPM Surface Avg 
 RPMN.rpm               100.00:  RPM Surface Min 
 RPMX.rpm               120.00:  RPM Surface Max 
 RRUN.                    0900:  Rig Run Number 
 SAZI.deg               115.08:  Azm, Start 
 SDEP.m                4762.01:  Start Depth 
 SIDD.                      No:  Serv Intrp, DD 
 SINC.deg                66.14:  Inc, Start 
 SPPA.psig             3700.00:  SPP Avg 
 SPPN.psig             3620.00:  SPP Min 
 SPPX.psig             3900.00:  SPP Max 
 STIM.      09.30.00 22-Dec-20:  Start Time 
 SVCS.                 DD, MWD:  Services 
 SVER.                    9.20:  Sperry Version 
 TDAT.m                 237.00:  Tot Depth Attmp 
 TDDF.                      No:  Trip for DD 
 TDLG.m                 237.00:  Tot Depth Loggd 
 TFF .                      No:  Trip for Fail 
 TQAA.f-kp               18.00:  Torque Abs Avg 
 TQAN.f-kp               17.00:  Torque Abs Min 
 TQAX.f-kp               20.00:  Torque Abs Max 
 TRRT.°/30m               0.60:  Turn Rotating 
 MRT .                    HCIM:  Maximum Recorded Temperature 
 TTMX.degC               94.12:  Max Tool Temp 
 VS01.                90627809:  Virtual Str1 SN 
 VS02.                90527813:  Virtual Str2 SN 
 VS03.                90545417:  Virtual Str3 SN 
 VS04.                12460870:  Virtual Str4 SN 
 VS05.                90516706:  Virtual Str5 SN 
 VS06.                90632007:  Virtual Str6 SN 
 WBMN.klb                 0.00:  WOB Min 
 WOBA.klb                14.00:  WOB Avg 
 WOBX.klb                25.00:  WOB Max 
 YP  .lhf2               32.00:  Yield Point 
~Curve Information Block
#MNEM.UNIT                 API CODE     Curve Description
#---------               -----------    ---------------------------
 TIME.HHMMSS            00 000 000 000:  GT Time & Date
 GTDEPTH.m              00 000 000 000:  GT Depth
 GTPQH.psia             00 000 000 000:  GT HR Quartz Pressure
 GTTQ.degC              00 000 000 000:  GT Quartz Temperature
 GTTN.NONE              00 000 000 000:  GT Test Number
 GTET.sec               00 000 000 000:  GT Elapsed Test Time
 GTTVD.m                00 000 000 000:  GT True Vertical Depth
#Other Information
#
#WARRANTY: Halliburton will use its best efforts to furnish customers with 
#accurate information and interpretations that are part of, and incident to, the services 
#provided.  However, Halliburton cannot and does not warrant the accuracy 
#or correctness of such information and interpretations.  Under no circumstances should any 
#such information or interpretation be relied upon as the sole basis for any drilling, 
#completion, production, or financial decision or any procedure involving any risk to the 
#safety of any drilling venture, drilling rig or its crew or any other third party.  The 
#Customer has full responsibility for all drilling, completion and production operation.  
#Halliburton makes no representations or warranties, either expressed or 
#implied, including, but not limited to, the implied warranties of merchantability or fitness 
#for a particular purpose, with respect to the services rendered.  In no event will 
#Halliburton be liable for failure to obtain any particular results or for 
#any damages, including, but not limited to, indirect, special or consequential damages, 
#resulting from the use of any information or interpretation provided by Halliburton.
#
~A           TIME           GTDEPTH  GTPQH  GTTQ  GTTN  GTET   GTTVD  
# ...
   18:46:38.919.25-Dec-2020 4831.01 3416.11 64.23 6.00  69.05 2510.98
   18:46:39.119.25-Dec-2020 4831.01 3416.11 64.23 6.00  69.25 2510.98
   18:46:39.319.25-Dec-2020 4831.01 3416.16 64.23 6.00  69.45 2510.98
   18:46:39.519.25-Dec-2020 4831.01 3416.12 64.23 6.00  69.66 2510.98
   18:46:39.719.25-Dec-2020 4831.01 3416.17 64.23 6.00  69.86 2510.98
   18:46:39.919.25-Dec-2020 4831.01 3416.16 64.23 6.00  70.06 2510.98
   18:46:40.120.25-Dec-2020 4831.01 3416.16 64.23 6.00  70.26 2510.98
   18:46:40.320.25-Dec-2020 4831.01 3416.21 64.23 6.00  70.46 2510.98
   18:46:40.520.25-Dec-2020 4831.01 3416.18 64.23 6.00  70.66 2510.98
   18:46:40.720.25-Dec-2020 4831.01 3416.24 64.23 6.00  70.86 2510.98
   18:46:40.920.25-Dec-2020 4831.01 3416.25 64.23 6.00  71.06 2510.98
   18:46:41.120.25-Dec-2020 4831.01 3416.25 64.23 6.00  71.26 2510.98
   18:46:41.321.25-Dec-2020 4831.01 3416.11 64.23 6.00  71.46 2510.98
   18:46:41.521.25-Dec-2020 4831.01 3416.13 64.23 6.00  71.66 2510.98
   18:46:41.721.25-Dec-2020 4831.01 3416.21 64.23 6.00  71.86 2510.98
   18:46:41.921.25-Dec-2020 4831.01 3416.13 64.23 6.00  72.06 2510.98
   18:46:42.121.25-Dec-2020 4831.01 3416.13 64.23 6.00  72.26 2510.98
   18:46:42.321.25-Dec-2020 4831.01 3416.21 64.23 6.00  72.46 2510.98
   18:46:42.522.25-Dec-2020 4831.01 3416.20 64.23 6.00  72.66 2510.98
   18:46:42.722.25-Dec-2020 4831.01 3416.23 64.23 6.00  72.86 2510.98
   18:46:42.922.25-Dec-2020 4831.01 3416.24 64.23 6.00  73.06 2510.98
   18:46:43.122.25-Dec-2020 4831.01 3416.24 64.23 6.00  73.26 2510.98
   18:46:43.322.25-Dec-2020 4831.01 3416.28 64.23 6.00  73.46 2510.98
   18:46:43.522.25-Dec-2020 4831.01 3416.26 64.23 6.00  73.66 2510.98
   18:46:43.722.25-Dec-2020 4831.01 3415.80 64.23 6.00  73.86 2510.98
   18:46:43.923.25-Dec-2020 4831.01 3416.03 64.23 6.00  74.06 2510.98
   18:46:44.123.25-Dec-2020 4831.01 3416.03 64.23 6.00  74.26 2510.98
   18:46:44.323.25-Dec-2020 4831.01 3416.47 64.23 6.00  74.46 2510.98
   18:46:44.523.25-Dec-2020 4831.01 3416.20 64.23 6.00  74.66 2510.98
   18:46:44.723.25-Dec-2020 4831.01 3416.35 64.23 6.00  74.86 2510.98
   18:46:44.923.25-Dec-2020 4831.01 3416.27 64.23 6.00  75.06 2510.98
   18:46:45.124.25-Dec-2020 4831.01 3416.27 64.23 6.00  75.26 2510.98
   18:46:45.324.25-Dec-2020 4831.01 3415.80 64.23 6.00  75.46 2510.98
   18:46:45.524.25-Dec-2020 4831.01 3416.52 64.23 6.00  75.66 2510.98
   18:46:45.724.25-Dec-2020 4831.01 3416.23 64.23 6.00  75.86 2510.98
   18:46:45.924.25-Dec-2020 4831.01 3416.32 64.23 6.00  76.06 2510.98
   18:46:46.124.25-Dec-2020 4831.01 3416.32 64.23 6.00  76.26 2510.98
   18:46:46.325.25-Dec-2020 4831.01 3416.30 64.23 6.00  76.46 2510.98
   18:46:46.525.25-Dec-2020 4831.01 3416.35 64.23 6.00  76.66 2510.98
   18:46:46.725.25-Dec-2020 4831.01 3416.47 64.23 6.00  76.86 2510.98
   18:46:46.925.25-Dec-2020 4831.01 3416.35 64.23 6.00  77.06 2510.98
   18:46:47.125.25-Dec-2020 4831.01 3416.35 64.23 6.00  77.26 2510.98
   18:46:47.325.25-Dec-2020 4831.01 3416.31 64.23 6.00  77.46 2510.98
   18:46:47.525.25-Dec-2020 4831.01 3416.25 64.23 6.00  77.66 2510.98
   18:46:47.726.25-Dec-2020 4831.01 3416.27 64.23 6.00  77.86 2510.98
   18:46:47.926.25-Dec-2020 4831.01 3416.28 64.23 6.00  78.06 2510.98
   18:46:48.126.25-Dec-2020 4831.01 3416.28 64.23 6.00  78.26 2510.98
   18:46:48.326.25-Dec-2020 4831.01 3416.28 64.23 6.00  78.46 2510.98
   18:46:48.526.25-Dec-2020 4831.01 3416.27 64.23 6.00  78.66 2510.98
   18:46:48.726.25-Dec-2020 4831.01 3415.66 64.23 6.00  78.86 2510.98
   18:46:48.927.25-Dec-2020 4831.01 3416.37 64.23 6.00  79.06 2510.98
   18:46:49.127.25-Dec-2020 4831.01 3416.37 64.23 6.00  79.26 2510.98
   18:46:49.327.25-Dec-2020 4831.01 3416.25 64.23 6.00  79.46 2510.98
   18:46:49.527.25-Dec-2020 4831.01 3416.20 64.23 6.00  79.66 2510.98
   18:46:49.727.25-Dec-2020 4831.01 3416.19 64.23 6.00  79.86 2510.98
   18:46:49.927.25-Dec-2020 4831.01 3416.24 64.23 6.00  80.06 2510.98
   18:46:50.128.25-Dec-2020 4831.01 3416.18 64.23 6.00  80.26 2510.98
   18:46:50.328.25-Dec-2020 4831.01 3416.23 64.23 6.00  80.46 2510.98
   18:46:50.528.25-Dec-2020 4831.01 3416.23 64.23 6.00  80.66 2510.98
   18:46:50.728.25-Dec-2020 4831.01 3416.22 64.23 6.00  80.86 2510.98
   18:46:50.928.25-Dec-2020 4831.01 3416.25 64.23 6.00  81.06 2510.98
   18:46:51.128.25-Dec-2020 4831.01 3416.25 64.23 6.00  81.26 2510.98
   18:46:51.328.25-Dec-2020 4831.01 3415.79 64.23 6.00  81.46 2510.98
   18:46:51.529.25-Dec-2020 4831.01 3415.96 64.23 6.00  81.66 2510.98
   18:46:51.729.25-Dec-2020 4831.01 3416.07 64.23 6.00  81.86 2510.98
   18:46:51.929.25-Dec-2020 4831.01 3415.80 64.23 6.00  82.06 2510.98
   18:46:52.129.25-Dec-2020 4831.01 3415.80 64.23 6.00  82.26 2510.98
   18:46:52.329.25-Dec-2020 4831.01 3416.11 64.23 6.00  82.47 2510.98
   18:46:52.529.25-Dec-2020 4831.01 3416.18 64.23 6.00  82.67 2510.98
   18:46:52.730.25-Dec-2020 4831.01 3416.11 64.23 6.00  82.87 2510.98
   18:46:52.930.25-Dec-2020 4831.01 3415.75 64.23 6.00  83.07 2510.98
   18:46:53.130.25-Dec-2020 4831.01 3415.75 64.23 6.00  83.27 2510.98
   18:46:53.330.25-Dec-2020 4831.01 3416.12 64.23 6.00  83.47 2510.98
   18:46:53.530.25-Dec-2020 4831.01 3415.59 64.23 6.00  83.67 2510.98
   18:46:53.730.25-Dec-2020 4831.01 3416.04 64.23 6.00  83.87 2510.98
   18:46:53.931.25-Dec-2020 4831.01 3415.91 64.23 6.00  84.07 2510.98
   18:46:54.131.25-Dec-2020 4831.01 3416.12 64.23 6.00  84.27 2510.98
   18:46:54.331.25-Dec-2020 4831.01 3416.11 64.23 6.00  84.47 2510.98
   18:46:54.531.25-Dec-2020 4831.01 3416.07 64.23 6.00  84.67 2510.98
   18:46:54.731.25-Dec-2020 4831.01 3416.06 64.23 6.00  84.87 2510.98
   18:46:54.931.25-Dec-2020 4831.01 3416.15 64.23 6.00  85.07 2510.98
   18:46:55.131.25-Dec-2020 4831.01 3416.15 64.23 6.00  85.27 2510.98
   18:46:55.332.25-Dec-2020 4831.01 3416.15 64.23 6.00  85.47 2510.98
   18:46:55.532.25-Dec-2020 4831.01 3416.17 64.23 6.00  85.67 2510.98
   18:46:55.732.25-Dec-2020 4831.01 3416.14 64.23 6.00  85.87 2510.98
   18:46:55.932.25-Dec-2020 4831.01 3416.20 64.23 6.00  86.07 2510.98
   18:46:56.132.25-Dec-2020 4831.01 3416.20 64.23 6.00  86.27 2510.98
   18:46:56.332.25-Dec-2020 4831.01 3415.91 64.23 6.00  86.47 2510.98
   18:46:56.533.25-Dec-2020 4831.01 3416.24 64.23 6.00  86.67 2510.98
   18:46:56.733.25-Dec-2020 4831.01 3416.08 64.23 6.00  86.87 2510.98
   18:46:56.933.25-Dec-2020 4831.01 3416.13 64.24 6.00  87.07 2510.98
   18:46:57.133.25-Dec-2020 4831.01 3416.13 64.24 6.00  87.27 2510.98
   18:46:57.333.25-Dec-2020 4831.01 3416.15 64.23 6.00  87.47 2510.98
   18:46:57.533.25-Dec-2020 4831.01 3416.20 64.24 6.00  87.67 2510.98
   18:46:57.734.25-Dec-2020 4831.01 3416.14 64.23 6.00  87.87 2510.98
   18:46:57.934.25-Dec-2020 4831.01 3416.22 64.24 6.00  88.07 2510.98
   18:46:58.134.25-Dec-2020 4831.01 3416.18 64.24 6.00  88.27 2510.98
   18:46:58.334.25-Dec-2020 4831.01 3416.20 64.23 6.00  88.47 2510.98
   18:46:58.534.25-Dec-2020 4831.01 3415.78 64.24 6.00  88.67 2510.98
   18:46:58.734.25-Dec-2020 4831.01 3415.94 64.24 6.00  88.87 2510.98
   18:46:58.934.25-Dec-2020 4831.01 3415.99 64.24 6.00  89.07 2510.98
   18:46:59.135.25-Dec-2020 4831.01 3415.99 64.24 6.00  89.27 2510.98
   18:46:59.335.25-Dec-2020 4831.01 3415.84 64.24 6.00  89.47 2510.98
   18:46:59.535.25-Dec-2020 4831.01 3415.94 64.24 6.00  89.67 2510.98
   18:46:59.735.25-Dec-2020 4831.01 3416.06 64.24 6.00  89.87 2510.98
   18:46:59.935.25-Dec-2020 4831.01 3416.08 64.24 6.00  90.07 2510.98
   18:47:00.135.25-Dec-2020 4831.01 3416.08 64.24 6.00  90.27 2510.98
   18:47:00.336.25-Dec-2020 4831.01 3415.70 64.24 6.00  90.47 2510.98
   18:47:00.536.25-Dec-2020 4831.01 3415.80 64.24 6.00  90.67 2510.98
   18:47:00.736.25-Dec-2020 4831.01 3416.08 64.24 6.00  90.87 2510.98
   18:47:00.936.25-Dec-2020 4831.01 3415.17 64.24 6.00  91.07 2510.98
   18:47:01.136.25-Dec-2020 4831.01 3415.17 64.24 6.00  91.27 2510.98
   18:47:01.336.25-Dec-2020 4831.01 3415.93 64.24 6.00  91.47 2510.98
   18:47:01.537.25-Dec-2020 4831.01 3415.98 64.24 6.00  91.67 2510.98
   18:47:01.737.25-Dec-2020 4831.01 3416.00 64.24 6.00  91.87 2510.98
