~Version Information
 VERS.                  2.0:   CWLS log ASCII Standard -VERSION 2.0
 WRAP.                   NO:   One line per depth step
~Well Information Block
#MNEM.UNIT     VALUE/NAME     DESCRIPTION
#---------     -----------    ---------------------------
 STRT.S             21:28:23 25-Dec-20: START TIME 21:28:23 25-Dec-20
 STOP.S             21:36:48 25-Dec-20: STOP TIME  21:36:48 25-Dec-20
 STEP.S                   0.00: STEP TIME
 NULL.                 -999.25: NULL VALUE
 DFWT.                        :  DIST FWL TEXT
 DFST.                        :  DIST FSL TEXT
 DMF .             Drill Floor:  DRILL MEAS FROM
 STIM.      04.54.24 22-Sep-20:  START TIME
 DATE.      04.54.24 21-Nov-20:  END TIME
 SPUD.               21-Nov-20:  SPUD DATE
 NREF.                    Grid:  NORTH REFERENCE
 HPTY.       Minimum Curvature:  HOLE POS TYPE
 DMOD.             Drill Model:  DRILL MOD DESC
 SVYD.                  Survey:  SURVEY DESC
 ILTD.               Lithology:  INTERP LTH DESC
 FTOP.          Formation Tops:  FORM TOPS DESC
 SON .        AZ-XX-0906571587:  JOB NUMBER
 COMP.     BP Exploration (Caspian Sea) Ltd:  COMPANY
 UWI .                     N/A:  UNIQUE WELL IDENTIFIER
 API .                     N/A:  API NUMBER
 BASE.              Azerbaijan:  LOGGING EQUIPMENT BASE LOCATION
 REGN.                   EESSA:  REGION
 PROV.                    Baku:  PROVINCE
 STAT.                    Baku:  STATE NAME
 CTRY.              Azerbaijan:  COUNTRY NAME
 FLD .                     ACG:  FIELD NAME
 SRVC.     TURAN Drilling & Engineering:  CONTRACTOR
 WELL.                     J27:  WELL NAME
 RIG .             West Chirag:  RIG NAME
 DOE .                     N/A:  DOE NUMBER
 DCON.         Sperry Drilling:  DIRECTNL CONTR
 PDAT.          Mean Sea Level:  PERMANENT DATUM
 WTYP.                Deviated:  WELL TYPE
 MWDS.                    Baku:  MWD SHOP
 JOBN.        AZ-XX-0906571587:  JOB TICKET NUMB
 UNIT.                     N/A:  LOGGING EQUIPMENT ID
 MDS .        Operator Entered:  MAG DATA SOURCE
 CNTY.                        :  COUNTY
 LOC .                        :  LOCATION
 LMF .             Drill Floor:  LOG MEASURED FROM
 TVDS.m                  43.00:  TVDSS CORRECTN
 LATI.deg                40.13:  LATITUDE
 LONG.deg                51.22:  LONGITUDE
 WHNS.m                   7.72:  WELL HEAD N/S
 WHEW.m                 -14.24:  WELL HEAD E/W
 UTMX.m              519005.06:  UTM X
 UTMY.m             4443793.85:  UTM Y
 DFWL.m                   0.00:  DISTANCE FWL
 DFSL.m                   0.00:  DISTANCE FSL
 SDEP.m                 347.00:  START DEPTH
 TDD .m                 581.00:  TOTAL DEPTH (DRILLER)
 VSDR.deg               159.72:  VERT SEC DIRECT
 GVFD.g                   1.00:  GRAVITY FIELD
 MFLD.nT              50318.00:  MAGNETIC FIELD
 MDIP.deg                59.57:  MAGNETIC DIP
 MDEC.deg                 6.44:  MAGNETIC DECL
 GRDC.deg                 0.15:  GRID CORRECTION
 AZTC.deg                 6.29:  AZM TOTAL CORR
 EPD .m                   0.00:  ELEVATION
 EGL .m                   0.00:  GROUND ELEVATION
 WDMS.m                 169.80:  WD ELEV
 APD .m                  43.00:  DEPTH ABOVE PD
 AGAP.m                  43.00:  AIR GAP
 VSEW.m                 -14.24:  VERT SEC E/W
 VSNS.m                   7.72:  VERT SEC N/S
 DEP .m                 342.45:  DEPTH
 EKB .m                   0.00:  KB ELEVATION
 EDF .m                  43.00:  DF ELEVATION
 TDL .m                 237.00:  TOTAL DEPTH (LOGGER)
 VSC .                       0:  VS TO CLOSURE
 MAGU.                 1851428:  MAGUTM CHECKSUM
~Parameter Information Block
#MNEM.UNIT       Value        Description
#---------     -----------    ---------------------------
 AV  .mps                 1.50:  Ann Velocity 
 AVMX.mps                 2.90:  Max Ann Veloc 
 AZIF.deg               115.59:  Azm, Final 
 BHAT.        Rotary Steerable:  BHA Type 
 BROT.°/30m               0.50:  Build Rotating 
 BS  .in                  8.50:  Bit Size 
 BTPL.psig              580.00:  Bit Press Loss 
 CABU.                     Yes:  Customer Abuse 
 COMM.                     Üc{:  Run Comments 1 
 TCS .hr                 89.79:  Time Ciculation Ended 
 CV  .mps                 3.22:  Crit Velocity 
 CVMX.mps                 4.37:  Max Crit Veloc 
 DD1 .          Rashad Habibov:  Direct Drillr 1 
 DDSV.               Geo-Pilot:  DD Service 
 DEFF.%                  95.00:  % Det Eff 
 DLRX.°/30m               1.94:  Dogleg Rot Max 
 DLSO.°/30m               0.70:  Dogleg Oriented 
 DLSX.°/30m               1.94:  Dogleg Str Max 
 DRET.      04.45.00 25-Dec-20:  Drill End Time 
 DRST.      10.00.00 24-Dec-20:  Drill Start Tim 
 DTIM.hr                 16.64:  Time Drilling 
 EDEP.m                4999.01:  End Depth 
 ENG1.         Elchin Mammadov:  Engineer 1 
 ENG2.          Ruslan Safarov:  Engineer 2 
 ENG3.          Rustam Safarov:  Engineer 3 
 ETIM.      09.00.00 29-Dec-20:  End Time 
 FLOI.gpm               500.00:  Flow In 
 FLON.gpm               400.00:  Flow In Min 
 FLOS.cptm                0.00:  Fluid Loss 
 FLOX.gpm               500.00:  Flow In Max 
 HFLO.                      No:  High Flow 
 HPRE.                      No:  High Pressure 
 HTEM.                      No:  High Temp 
 HYDO.m                   2.00:  Hydro Offset 
 IFIN.deg                66.79:  Inc, Final 
 IMAX.deg                67.66:  Inc Max 
 IMIN.deg                66.39:  Inc Min 
 IMND.m                4949.37:  Inc Min Depth 
 IMXD.m                4778.63:  Inc Max Depth 
 JARR.                     Yes:  Jarring 
 LETM.      04.45.00 25-Dec-20:  Log End Time 
 LOST.hr                     0:  Lost Rig Time 
 LSTM.      10.00.00 24-Dec-20:  Log Start Time 
 MDCL.ppm             39000.00:  Mud Chlorides 
 MDES.     Inversion Oil/Synthetic:  Mud Desc 
 DFD .sg                  1.33:  Mud Density 
 MDMN.sg                  1.33:  Dens Mud Min 
 MDMX.sg                  1.33:  Dens Mud Max 
 MOIL.                      70:  Run Mud Oil % 
 MOWR.                   70:30:  Run Mud OWR 
 MSND.                       0:  Run Mud Sand % 
 MSOL.                    17.4:  Run Mud Solids% 
 DFV .spqt               84.00:  Mud Viscosity 
 MWOD.in                  6.75:  MWD Tool OD 
 MWSI.                     Yes:  Serv Intrp, MWD 
 OTIM.hr                168.14:  Time Operating 
 PCON.           Look Like New:  Pad Condition 
 PMAX.psia            10822.93:  Press Op, Max 
 PV  .cP                 30.00:  Mud PV 
 RUN .                     900:  Run Number 
 ROPA.m/hr               18.00:  ROP Avg 
 ROPN.m/hr               12.00:  ROP Min 
 ROPX.m/hr               25.00:  ROP Max 
 RPMA.rpm               120.00:  RPM Surface Avg 
 RPMN.rpm               100.00:  RPM Surface Min 
 RPMX.rpm               120.00:  RPM Surface Max 
 RRUN.                    0900:  Rig Run Number 
 SAZI.deg               115.08:  Azm, Start 
 SDEP.m                4762.01:  Start Depth 
 SIDD.                      No:  Serv Intrp, DD 
 SINC.deg                66.14:  Inc, Start 
 SPPA.psig             3700.00:  SPP Avg 
 SPPN.psig             3620.00:  SPP Min 
 SPPX.psig             3900.00:  SPP Max 
 STIM.      09.30.00 22-Dec-20:  Start Time 
 SVCS.                 DD, MWD:  Services 
 SVER.                    9.20:  Sperry Version 
 TDAT.m                 237.00:  Tot Depth Attmp 
 TDDF.                      No:  Trip for DD 
 TDLG.m                 237.00:  Tot Depth Loggd 
 TFF .                      No:  Trip for Fail 
 TQAA.f-kp               18.00:  Torque Abs Avg 
 TQAN.f-kp               17.00:  Torque Abs Min 
 TQAX.f-kp               20.00:  Torque Abs Max 
 TRRT.°/30m               0.60:  Turn Rotating 
 MRT .                    HCIM:  Maximum Recorded Temperature 
 TTMX.degC               94.12:  Max Tool Temp 
 VS01.                90627809:  Virtual Str1 SN 
 VS02.                90527813:  Virtual Str2 SN 
 VS03.                90545417:  Virtual Str3 SN 
 VS04.                12460870:  Virtual Str4 SN 
 VS05.                90516706:  Virtual Str5 SN 
 VS06.                90632007:  Virtual Str6 SN 
 WBMN.klb                 0.00:  WOB Min 
 WOBA.klb                14.00:  WOB Avg 
 WOBX.klb                25.00:  WOB Max 
 YP  .lhf2               32.00:  Yield Point 
~Curve Information Block
#MNEM.UNIT                 API CODE     Curve Description
#---------               -----------    ---------------------------
 TIME.HHMMSS            00 000 000 000:  GT Time & Date
 GTDEPTH.m              00 000 000 000:  GT Depth
 GTPQH.psia             00 000 000 000:  GT HR Quartz Pressure
 GTTQ.degC              00 000 000 000:  GT Quartz Temperature
 GTTN.NONE              00 000 000 000:  GT Test Number
 GTET.sec               00 000 000 000:  GT Elapsed Test Time
 GTTVD.m                00 000 000 000:  GT True Vertical Depth
#Other Information
#
#WARRANTY: Halliburton will use its best efforts to furnish customers with 
#accurate information and interpretations that are part of, and incident to, the services 
#provided.  However, Halliburton cannot and does not warrant the accuracy 
#or correctness of such information and interpretations.  Under no circumstances should any 
#such information or interpretation be relied upon as the sole basis for any drilling, 
#completion, production, or financial decision or any procedure involving any risk to the 
#safety of any drilling venture, drilling rig or its crew or any other third party.  The 
#Customer has full responsibility for all drilling, completion and production operation.  
#Halliburton makes no representations or warranties, either expressed or 
#implied, including, but not limited to, the implied warranties of merchantability or fitness 
#for a particular purpose, with respect to the services rendered.  In no event will 
#Halliburton be liable for failure to obtain any particular results or for 
#any damages, including, but not limited to, indirect, special or consequential damages, 
#resulting from the use of any information or interpretation provided by Halliburton.
#
~A           TIME           GTDEPTH  GTPQH  GTTQ  GTTN  GTET   GTTVD  
# ...
   21:36:03.586.25-Dec-2020 4768.01 5419.28 63.77 9.00 459.97 2486.78
   21:36:03.786.25-Dec-2020 4768.01 5419.28 63.77 9.00 460.17 2486.78
   21:36:03.986.25-Dec-2020 4768.01 5414.66 63.77 9.00 460.37 2486.78
   21:36:04.186.25-Dec-2020 4768.01 5424.04 63.77 9.00 460.57 2486.78
   21:36:04.386.25-Dec-2020 4768.01 5423.44 63.77 9.00 460.77 2486.78
   21:36:04.586.25-Dec-2020 4768.01 5419.54 63.77 9.00 460.97 2486.78
   21:36:04.786.25-Dec-2020 4768.01 5419.54 63.77 9.00 461.17 2486.78
   21:36:04.986.25-Dec-2020 4768.01 5421.38 63.77 9.00 461.37 2486.78
   21:36:05.186.25-Dec-2020 4768.01 5421.63 63.77 9.00 461.57 2486.78
   21:36:05.386.25-Dec-2020 4768.01 5422.71 63.77 9.00 461.77 2486.78
   21:36:05.586.25-Dec-2020 4768.01 5422.29 63.77 9.00 461.97 2486.78
   21:36:05.786.25-Dec-2020 4768.01 5423.39 63.78 9.00 462.17 2486.78
   21:36:05.986.25-Dec-2020 4768.01 5421.97 63.78 9.00 462.37 2486.78
   21:36:06.186.25-Dec-2020 4768.01 5434.80 63.78 9.00 462.57 2486.78
   21:36:06.386.25-Dec-2020 4768.01 5419.34 63.78 9.00 462.77 2486.78
   21:36:06.586.25-Dec-2020 4768.01 5423.76 63.78 9.00 462.97 2486.78
   21:36:06.786.25-Dec-2020 4768.01 5431.72 63.78 9.00 463.17 2486.78
   21:36:06.986.25-Dec-2020 4768.01 5422.46 63.78 9.00 463.37 2486.78
   21:36:07.186.25-Dec-2020 4768.01 5432.44 63.79 9.00 463.57 2486.78
   21:36:07.386.25-Dec-2020 4768.01 5427.31 63.79 9.00 463.77 2486.78
   21:36:07.586.25-Dec-2020 4768.01 5423.58 63.79 9.00 463.97 2486.78
   21:36:07.786.25-Dec-2020 4768.01 5423.58 63.79 9.00 464.17 2486.78
   21:36:07.986.25-Dec-2020 4768.01 5437.07 63.79 9.00 464.37 2486.78
   21:36:08.186.25-Dec-2020 4768.01 5421.72 63.79 9.00 464.57 2486.78
   21:36:08.386.25-Dec-2020 4768.01 5428.03 63.79 9.00 464.77 2486.78
   21:36:08.586.25-Dec-2020 4768.01 5437.99 63.80 9.00 464.97 2486.78
   21:36:08.786.25-Dec-2020 4768.01 5437.99 63.80 9.00 465.17 2486.78
   21:36:08.986.25-Dec-2020 4768.01 5424.21 63.80 9.00 465.37 2486.78
   21:36:09.186.25-Dec-2020 4768.01 5432.86 63.80 9.00 465.57 2486.78
   21:36:09.386.25-Dec-2020 4768.01 5425.81 63.80 9.00 465.77 2486.78
   21:36:09.586.25-Dec-2020 4768.01 5425.30 63.80 9.00 465.97 2486.78
   21:36:09.786.25-Dec-2020 4768.01 5425.30 63.80 9.00 466.17 2486.78
   21:36:09.986.25-Dec-2020 4768.01 5424.10 63.80 9.00 466.37 2486.78
   21:36:10.186.25-Dec-2020 4768.01 5425.02 63.81 9.00 466.57 2486.78
   21:36:10.386.25-Dec-2020 4768.01 5425.08 63.81 9.00 466.77 2486.78
   21:36:10.586.25-Dec-2020 4768.01 5423.72 63.81 9.00 466.97 2486.78
   21:36:10.786.25-Dec-2020 4768.01 5425.45 63.81 9.00 467.17 2486.78
   21:36:10.986.25-Dec-2020 4768.01 5423.89 63.81 9.00 467.37 2486.78
   21:36:11.186.25-Dec-2020 4768.01 5437.86 63.81 9.00 467.57 2486.78
   21:36:11.386.25-Dec-2020 4768.01 5420.37 63.81 9.00 467.77 2486.78
   21:36:11.586.25-Dec-2020 4768.01 5426.17 63.81 9.00 467.97 2486.78
   21:36:11.786.25-Dec-2020 4768.01 5426.17 63.81 9.00 468.17 2486.78
   21:36:11.986.25-Dec-2020 4768.01 5424.31 63.81 9.00 468.37 2486.78
   21:36:12.186.25-Dec-2020 4768.01 5428.36 63.81 9.00 468.57 2486.78
   21:36:12.386.25-Dec-2020 4768.01 5428.96 63.82 9.00 468.77 2486.78
   21:36:12.586.25-Dec-2020 4768.01 5425.73 63.82 9.00 468.97 2486.78
   21:36:12.786.25-Dec-2020 4768.01 5425.73 63.82 9.00 469.17 2486.78
   21:36:12.986.25-Dec-2020 4768.01 5426.70 63.82 9.00 469.37 2486.78
   21:36:13.186.25-Dec-2020 4768.01 5427.14 63.82 9.00 469.57 2486.78
   21:36:13.386.25-Dec-2020 4768.01 5427.57 63.82 9.00 469.77 2486.78
   21:36:13.586.25-Dec-2020 4768.01 5425.66 63.82 9.00 469.97 2486.78
   21:36:13.786.25-Dec-2020 4768.01 5425.66 63.82 9.00 470.17 2486.78
   21:36:13.986.25-Dec-2020 4768.01 5421.39 63.82 9.00 470.37 2486.78
   21:36:14.186.25-Dec-2020 4768.01 5430.76 63.82 9.00 470.57 2486.78
   21:36:14.386.25-Dec-2020 4768.01 5442.80 63.82 9.00 470.77 2486.78
   21:36:14.586.25-Dec-2020 4768.01 5421.27 63.82 9.00 470.97 2486.78
   21:36:14.786.25-Dec-2020 4768.01 5433.49 63.82 9.00 471.17 2486.78
   21:36:14.986.25-Dec-2020 4768.01 5444.40 63.82 9.00 471.37 2486.78
   21:36:15.186.25-Dec-2020 4768.01 5420.96 63.82 9.00 471.57 2486.78
   21:36:15.386.25-Dec-2020 4768.01 5429.94 63.82 9.00 471.77 2486.78
   21:36:15.586.25-Dec-2020 4768.01 5434.45 63.82 9.00 471.97 2486.78
   21:36:15.786.25-Dec-2020 4768.01 5434.45 63.82 9.00 472.17 2486.78
   21:36:15.985.25-Dec-2020 4768.01 5434.29 63.82 9.00 472.37 2486.78
   21:36:16.185.25-Dec-2020 4768.01 5429.32 63.82 9.00 472.57 2486.78
   21:36:16.385.25-Dec-2020 4768.01 5425.95 63.82 9.00 472.77 2486.78
   21:36:16.585.25-Dec-2020 4768.01 5431.51 63.82 9.00 472.97 2486.78
   21:36:16.785.25-Dec-2020 4768.01 5431.51 63.82 9.00 473.17 2486.78
   21:36:16.985.25-Dec-2020 4768.01 5426.31 63.82 9.00 473.37 2486.78
   21:36:17.185.25-Dec-2020 4768.01 5425.77 63.82 9.00 473.57 2486.78
   21:36:17.385.25-Dec-2020 4768.01 5427.07 63.82 9.00 473.77 2486.78
   21:36:17.585.25-Dec-2020 4768.01 5423.91 63.82 9.00 473.97 2486.78
   21:36:17.785.25-Dec-2020 4768.01 5426.31 63.82 9.00 474.17 2486.78
   21:36:17.985.25-Dec-2020 4768.01 5425.10 63.82 9.00 474.37 2486.78
   21:36:18.185.25-Dec-2020 4768.01 5424.68 63.82 9.00 474.57 2486.78
   21:36:18.385.25-Dec-2020 4768.01 5427.17 63.82 9.00 474.77 2486.78
   21:36:18.585.25-Dec-2020 4768.01 5433.13 63.82 9.00 474.97 2486.78
   21:36:18.785.25-Dec-2020 4768.01 5433.13 63.82 9.00 475.17 2486.78
   21:36:18.985.25-Dec-2020 4768.01 5429.78 63.82 9.00 475.37 2486.78
   21:36:19.185.25-Dec-2020 4768.01 5429.88 63.82 9.00 475.57 2486.78
   21:36:19.385.25-Dec-2020 4768.01 5427.16 63.82 9.00 475.77 2486.78
   21:36:19.585.25-Dec-2020 4768.01 5425.60 63.82 9.00 475.97 2486.78
   21:36:19.785.25-Dec-2020 4768.01 5425.60 63.82 9.00 476.17 2486.78
   21:36:19.985.25-Dec-2020 4768.01 5426.07 63.82 9.00 476.37 2486.78
   21:36:20.185.25-Dec-2020 4768.01 5426.20 63.82 9.00 476.57 2486.78
   21:36:20.385.25-Dec-2020 4768.01 5428.04 63.82 9.00 476.77 2486.78
   21:36:20.585.25-Dec-2020 4768.01 5425.33 63.82 9.00 476.97 2486.78
   21:36:20.785.25-Dec-2020 4768.01 5425.33 63.82 9.00 477.17 2486.78
   21:36:20.985.25-Dec-2020 4768.01 5425.98 63.82 9.00 477.37 2486.78
   21:36:21.185.25-Dec-2020 4768.01 5436.75 63.82 9.00 477.57 2486.78
   21:36:21.385.25-Dec-2020 4768.01 5423.00 63.82 9.00 477.77 2486.78
   21:36:21.585.25-Dec-2020 4768.01 5426.00 63.82 9.00 477.97 2486.78
   21:36:21.785.25-Dec-2020 4768.01 5426.00 63.82 9.00 478.17 2486.78
   21:36:21.985.25-Dec-2020 4768.01 5437.21 63.82 9.00 478.37 2486.78
   21:36:22.185.25-Dec-2020 4768.01 5423.30 63.82 9.00 478.57 2486.78
   21:36:22.385.25-Dec-2020 4768.01 5429.15 63.82 9.00 478.77 2486.78
   21:36:22.585.25-Dec-2020 4768.01 5437.57 63.82 9.00 478.97 2486.78
   21:36:22.785.25-Dec-2020 4768.01 5428.75 63.82 9.00 479.17 2486.78
   21:36:22.985.25-Dec-2020 4768.01 5427.99 63.82 9.00 479.37 2486.78
   21:36:23.185.25-Dec-2020 4768.01 5430.73 63.82 9.00 479.57 2486.78
   21:36:23.385.25-Dec-2020 4768.01 5428.60 63.82 9.00 479.77 2486.78
   21:36:23.585.25-Dec-2020 4768.01 5437.93 63.82 9.00 479.97 2486.78
   21:36:23.785.25-Dec-2020 4768.01 5437.93 63.82 9.00 480.17 2486.78
   21:36:23.985.25-Dec-2020 4768.01 5429.19 63.82 9.00 480.37 2486.78
   21:36:24.185.25-Dec-2020 4768.01 5431.04 63.82 9.00 480.57 2486.78
   21:36:24.385.25-Dec-2020 4768.01 5424.58 63.82 9.00 480.77 2486.78
   21:36:24.585.25-Dec-2020 4768.01 5425.78 63.82 9.00 480.97 2486.78
   21:36:24.785.25-Dec-2020 4768.01 5425.78 63.82 9.00 481.17 2486.78
   21:36:24.985.25-Dec-2020 4768.01 5424.50 63.82 9.00 481.37 2486.78
   21:36:25.185.25-Dec-2020 4768.01 5424.99 63.82 9.00 481.57 2486.78
   21:36:25.385.25-Dec-2020 4768.01 5426.62 63.82 9.00 481.77 2486.78
   21:36:25.585.25-Dec-2020 4768.01 5424.59 63.82 9.00 481.97 2486.78
   21:36:25.785.25-Dec-2020 4768.01 5425.66 63.82 9.00 482.17 2486.78
   21:36:25.985.25-Dec-2020 4768.01 5438.36 63.82 9.00 482.37 2486.78
   21:36:26.185.25-Dec-2020 4768.01 5419.36 63.82 9.00 482.57 2486.78
   21:36:26.385.25-Dec-2020 4768.01 5428.10 63.82 9.00 482.77 2486.78
