~Version Information
 VERS.                  2.0:   CWLS log ASCII Standard -VERSION 2.0
 WRAP.                   NO:   One line per depth step
~Well Information Block
#MNEM.UNIT     VALUE/NAME     DESCRIPTION
#---------     -----------    ---------------------------
 STRT.S             21:28:23 25-Dec-20: START TIME 21:28:23 25-Dec-20
 STOP.S             21:36:48 25-Dec-20: STOP TIME  21:36:48 25-Dec-20
 STEP.S                   0.00: STEP TIME
 NULL.                 -999.25: NULL VALUE
 DFWT.                        :  DIST FWL TEXT
 DFST.                        :  DIST FSL TEXT
 DMF .             Drill Floor:  DRILL MEAS FROM
 STIM.      04.54.24 22-Sep-20:  START TIME
 DATE.      04.54.24 21-Nov-20:  END TIME
 SPUD.               21-Nov-20:  SPUD DATE
 NREF.                    Grid:  NORTH REFERENCE
 HPTY.       Minimum Curvature:  HOLE POS TYPE
 DMOD.             Drill Model:  DRILL MOD DESC
 SVYD.                  Survey:  SURVEY DESC
 ILTD.               Lithology:  INTERP LTH DESC
 FTOP.          Formation Tops:  FORM TOPS DESC
 SON .        AZ-XX-0906571587:  JOB NUMBER
 COMP.     BP Exploration (Caspian Sea) Ltd:  COMPANY
 UWI .                     N/A:  UNIQUE WELL IDENTIFIER
 API .                     N/A:  API NUMBER
 BASE.              Azerbaijan:  LOGGING EQUIPMENT BASE LOCATION
 REGN.                   EESSA:  REGION
 PROV.                    Baku:  PROVINCE
 STAT.                    Baku:  STATE NAME
 CTRY.              Azerbaijan:  COUNTRY NAME
 FLD .                     ACG:  FIELD NAME
 SRVC.     TURAN Drilling & Engineering:  CONTRACTOR
 WELL.                     J27:  WELL NAME
 RIG .             West Chirag:  RIG NAME
 DOE .                     N/A:  DOE NUMBER
 DCON.         Sperry Drilling:  DIRECTNL CONTR
 PDAT.          Mean Sea Level:  PERMANENT DATUM
 WTYP.                Deviated:  WELL TYPE
 MWDS.                    Baku:  MWD SHOP
 JOBN.        AZ-XX-0906571587:  JOB TICKET NUMB
 UNIT.                     N/A:  LOGGING EQUIPMENT ID
 MDS .        Operator Entered:  MAG DATA SOURCE
 CNTY.                        :  COUNTY
 LOC .                        :  LOCATION
 LMF .             Drill Floor:  LOG MEASURED FROM
 TVDS.m                  43.00:  TVDSS CORRECTN
 LATI.deg                40.13:  LATITUDE
 LONG.deg                51.22:  LONGITUDE
 WHNS.m                   7.72:  WELL HEAD N/S
 WHEW.m                 -14.24:  WELL HEAD E/W
 UTMX.m              519005.06:  UTM X
 UTMY.m             4443793.85:  UTM Y
 DFWL.m                   0.00:  DISTANCE FWL
 DFSL.m                   0.00:  DISTANCE FSL
 SDEP.m                 347.00:  START DEPTH
 TDD .m                 581.00:  TOTAL DEPTH (DRILLER)
 VSDR.deg               159.72:  VERT SEC DIRECT
 GVFD.g                   1.00:  GRAVITY FIELD
 MFLD.nT              50318.00:  MAGNETIC FIELD
 MDIP.deg                59.57:  MAGNETIC DIP
 MDEC.deg                 6.44:  MAGNETIC DECL
 GRDC.deg                 0.15:  GRID CORRECTION
 AZTC.deg                 6.29:  AZM TOTAL CORR
 EPD .m                   0.00:  ELEVATION
 EGL .m                   0.00:  GROUND ELEVATION
 WDMS.m                 169.80:  WD ELEV
 APD .m                  43.00:  DEPTH ABOVE PD
 AGAP.m                  43.00:  AIR GAP
 VSEW.m                 -14.24:  VERT SEC E/W
 VSNS.m                   7.72:  VERT SEC N/S
 DEP .m                 342.45:  DEPTH
 EKB .m                   0.00:  KB ELEVATION
 EDF .m                  43.00:  DF ELEVATION
 TDL .m                 237.00:  TOTAL DEPTH (LOGGER)
 VSC .                       0:  VS TO CLOSURE
 MAGU.                 1851428:  MAGUTM CHECKSUM
~Parameter Information Block
#MNEM.UNIT       Value        Description
#---------     -----------    ---------------------------
 AV  .mps                 1.50:  Ann Velocity 
 AVMX.mps                 2.90:  Max Ann Veloc 
 AZIF.deg               115.59:  Azm, Final 
 BHAT.        Rotary Steerable:  BHA Type 
 BROT.°/30m               0.50:  Build Rotating 
 BS  .in                  8.50:  Bit Size 
 BTPL.psig              580.00:  Bit Press Loss 
 CABU.                     Yes:  Customer Abuse 
 COMM.                     Üc{:  Run Comments 1 
 TCS .hr                 89.79:  Time Ciculation Ended 
 CV  .mps                 3.22:  Crit Velocity 
 CVMX.mps                 4.37:  Max Crit Veloc 
 DD1 .          Rashad Habibov:  Direct Drillr 1 
 DDSV.               Geo-Pilot:  DD Service 
 DEFF.%                  95.00:  % Det Eff 
 DLRX.°/30m               1.94:  Dogleg Rot Max 
 DLSO.°/30m               0.70:  Dogleg Oriented 
 DLSX.°/30m               1.94:  Dogleg Str Max 
 DRET.      04.45.00 25-Dec-20:  Drill End Time 
 DRST.      10.00.00 24-Dec-20:  Drill Start Tim 
 DTIM.hr                 16.64:  Time Drilling 
 EDEP.m                4999.01:  End Depth 
 ENG1.         Elchin Mammadov:  Engineer 1 
 ENG2.          Ruslan Safarov:  Engineer 2 
 ENG3.          Rustam Safarov:  Engineer 3 
 ETIM.      09.00.00 29-Dec-20:  End Time 
 FLOI.gpm               500.00:  Flow In 
 FLON.gpm               400.00:  Flow In Min 
 FLOS.cptm                0.00:  Fluid Loss 
 FLOX.gpm               500.00:  Flow In Max 
 HFLO.                      No:  High Flow 
 HPRE.                      No:  High Pressure 
 HTEM.                      No:  High Temp 
 HYDO.m                   2.00:  Hydro Offset 
 IFIN.deg                66.79:  Inc, Final 
 IMAX.deg                67.66:  Inc Max 
 IMIN.deg                66.39:  Inc Min 
 IMND.m                4949.37:  Inc Min Depth 
 IMXD.m                4778.63:  Inc Max Depth 
 JARR.                     Yes:  Jarring 
 LETM.      04.45.00 25-Dec-20:  Log End Time 
 LOST.hr                     0:  Lost Rig Time 
 LSTM.      10.00.00 24-Dec-20:  Log Start Time 
 MDCL.ppm             39000.00:  Mud Chlorides 
 MDES.     Inversion Oil/Synthetic:  Mud Desc 
 DFD .sg                  1.33:  Mud Density 
 MDMN.sg                  1.33:  Dens Mud Min 
 MDMX.sg                  1.33:  Dens Mud Max 
 MOIL.                      70:  Run Mud Oil % 
 MOWR.                   70:30:  Run Mud OWR 
 MSND.                       0:  Run Mud Sand % 
 MSOL.                    17.4:  Run Mud Solids% 
 DFV .spqt               84.00:  Mud Viscosity 
 MWOD.in                  6.75:  MWD Tool OD 
 MWSI.                     Yes:  Serv Intrp, MWD 
 OTIM.hr                168.14:  Time Operating 
 PCON.           Look Like New:  Pad Condition 
 PMAX.psia            10822.93:  Press Op, Max 
 PV  .cP                 30.00:  Mud PV 
 RUN .                     900:  Run Number 
 ROPA.m/hr               18.00:  ROP Avg 
 ROPN.m/hr               12.00:  ROP Min 
 ROPX.m/hr               25.00:  ROP Max 
 RPMA.rpm               120.00:  RPM Surface Avg 
 RPMN.rpm               100.00:  RPM Surface Min 
 RPMX.rpm               120.00:  RPM Surface Max 
 RRUN.                    0900:  Rig Run Number 
 SAZI.deg               115.08:  Azm, Start 
 SDEP.m                4762.01:  Start Depth 
 SIDD.                      No:  Serv Intrp, DD 
 SINC.deg                66.14:  Inc, Start 
 SPPA.psig             3700.00:  SPP Avg 
 SPPN.psig             3620.00:  SPP Min 
 SPPX.psig             3900.00:  SPP Max 
 STIM.      09.30.00 22-Dec-20:  Start Time 
 SVCS.                 DD, MWD:  Services 
 SVER.                    9.20:  Sperry Version 
 TDAT.m                 237.00:  Tot Depth Attmp 
 TDDF.                      No:  Trip for DD 
 TDLG.m                 237.00:  Tot Depth Loggd 
 TFF .                      No:  Trip for Fail 
 TQAA.f-kp               18.00:  Torque Abs Avg 
 TQAN.f-kp               17.00:  Torque Abs Min 
 TQAX.f-kp               20.00:  Torque Abs Max 
 TRRT.°/30m               0.60:  Turn Rotating 
 MRT .                    HCIM:  Maximum Recorded Temperature 
 TTMX.degC               94.12:  Max Tool Temp 
 VS01.                90627809:  Virtual Str1 SN 
 VS02.                90527813:  Virtual Str2 SN 
 VS03.                90545417:  Virtual Str3 SN 
 VS04.                12460870:  Virtual Str4 SN 
 VS05.                90516706:  Virtual Str5 SN 
 VS06.                90632007:  Virtual Str6 SN 
 WBMN.klb                 0.00:  WOB Min 
 WOBA.klb                14.00:  WOB Avg 
 WOBX.klb                25.00:  WOB Max 
 YP  .lhf2               32.00:  Yield Point 
~Curve Information Block
#MNEM.UNIT                 API CODE     Curve Description
#---------               -----------    ---------------------------
 TIME.HHMMSS            00 000 000 000:  GT Time & Date
 GTDEPTH.m              00 000 000 000:  GT Depth
 GTPQH.psia             00 000 000 000:  GT HR Quartz Pressure
 GTTQ.degC              00 000 000 000:  GT Quartz Temperature
 GTTN.NONE              00 000 000 000:  GT Test Number
 GTET.sec               00 000 000 000:  GT Elapsed Test Time
 GTTVD.m                00 000 000 000:  GT True Vertical Depth
#Other Information
#
#WARRANTY: Halliburton will use its best efforts to furnish customers with 
#accurate information and interpretations that are part of, and incident to, the services 
#provided.  However, Halliburton cannot and does not warrant the accuracy 
#or correctness of such information and interpretations.  Under no circumstances should any 
#such information or interpretation be relied upon as the sole basis for any drilling, 
#completion, production, or financial decision or any procedure involving any risk to the 
#safety of any drilling venture, drilling rig or its crew or any other third party.  The 
#Customer has full responsibility for all drilling, completion and production operation.  
#Halliburton makes no representations or warranties, either expressed or 
#implied, including, but not limited to, the implied warranties of merchantability or fitness 
#for a particular purpose, with respect to the services rendered.  In no event will 
#Halliburton be liable for failure to obtain any particular results or for 
#any damages, including, but not limited to, indirect, special or consequential damages, 
#resulting from the use of any information or interpretation provided by Halliburton.
#
~A           TIME           GTDEPTH  GTPQH  GTTQ  GTTN  GTET   GTTVD  
# ...
   21:36:26.585.25-Dec-2020 4768.01 5432.61 63.82 9.00 482.97 2486.78
   21:36:26.785.25-Dec-2020 4768.01 5424.64 63.81 9.00 483.17 2486.78
   21:36:26.985.25-Dec-2020 4768.01 5427.91 63.81 9.00 483.37 2486.78
   21:36:27.185.25-Dec-2020 4768.01 5426.54 63.81 9.00 483.57 2486.78
   21:36:27.385.25-Dec-2020 4768.01 5426.58 63.81 9.00 483.77 2486.78
   21:36:27.585.25-Dec-2020 4768.01 5426.14 63.81 9.00 483.97 2486.78
   21:36:27.785.25-Dec-2020 4768.01 5426.14 63.81 9.00 484.17 2486.78
   21:36:27.985.25-Dec-2020 4768.01 5426.26 63.81 9.00 484.37 2486.78
   21:36:28.185.25-Dec-2020 4768.01 5424.98 63.81 9.00 484.57 2486.78
   21:36:28.385.25-Dec-2020 4768.01 5426.16 63.81 9.00 484.77 2486.78
   21:36:28.585.25-Dec-2020 4768.01 5425.71 63.81 9.00 484.97 2486.78
   21:36:28.785.25-Dec-2020 4768.01 5425.71 63.81 9.00 485.17 2486.78
   21:36:28.985.25-Dec-2020 4768.01 5423.32 63.81 9.00 485.37 2486.78
   21:36:29.185.25-Dec-2020 4768.01 5428.92 63.81 9.00 485.57 2486.78
   21:36:29.385.25-Dec-2020 4768.01 5443.15 63.81 9.00 485.77 2486.78
   21:36:29.585.25-Dec-2020 4768.01 5418.94 63.81 9.00 485.97 2486.78
   21:36:29.785.25-Dec-2020 4768.01 5418.94 63.81 9.00 486.17 2486.78
   21:36:29.985.25-Dec-2020 4768.01 5435.46 63.81 9.00 486.37 2486.78
   21:36:30.185.25-Dec-2020 4768.01 5435.20 63.81 9.00 486.57 2486.78
   21:36:30.385.25-Dec-2020 4768.01 5423.45 63.81 9.00 486.77 2486.78
   21:36:30.585.25-Dec-2020 4768.01 5428.43 63.81 9.00 486.97 2486.78
   21:36:30.785.25-Dec-2020 4768.01 5432.77 63.81 9.00 487.17 2486.78
   21:36:30.985.25-Dec-2020 4768.01 5424.91 63.81 9.00 487.37 2486.78
   21:36:31.184.25-Dec-2020 4768.01 5437.60 63.81 9.00 487.57 2486.78
   21:36:31.384.25-Dec-2020 4768.01 5423.60 63.81 9.00 487.77 2486.78
   21:36:31.584.25-Dec-2020 4768.01 5425.06 63.81 9.00 487.97 2486.78
   21:36:31.784.25-Dec-2020 4768.01 5425.06 63.81 9.00 488.17 2486.78
   21:36:31.984.25-Dec-2020 4768.01 5424.92 63.81 9.00 488.37 2486.78
   21:36:32.184.25-Dec-2020 4768.01 5425.43 63.81 9.00 488.57 2486.78
   21:36:32.384.25-Dec-2020 4768.01 5426.03 63.81 9.00 488.77 2486.78
   21:36:32.584.25-Dec-2020 4768.01 5424.32 63.81 9.00 488.97 2486.78
   21:36:32.784.25-Dec-2020 4768.01 5424.32 63.81 9.00 489.17 2486.78
   21:36:32.984.25-Dec-2020 4768.01 5425.16 63.81 9.00 489.37 2486.78
   21:36:33.184.25-Dec-2020 4768.01 5423.54 63.81 9.00 489.57 2486.78
   21:36:33.384.25-Dec-2020 4768.01 5424.91 63.81 9.00 489.77 2486.78
   21:36:33.584.25-Dec-2020 4768.01 5430.46 63.81 9.00 489.97 2486.78
   21:36:33.784.25-Dec-2020 4768.01 5430.46 63.81 9.00 490.17 2486.78
   21:36:33.984.25-Dec-2020 4768.01 5425.65 63.81 9.00 490.37 2486.78
   21:36:34.184.25-Dec-2020 4768.01 5429.69 63.81 9.00 490.57 2486.78
   21:36:34.384.25-Dec-2020 4768.01 5428.00 63.81 9.00 490.77 2486.78
   21:36:34.584.25-Dec-2020 4768.01 5427.22 63.81 9.00 490.97 2486.78
   21:36:34.784.25-Dec-2020 4768.01 5425.72 63.81 9.00 491.17 2486.78
   21:36:34.984.25-Dec-2020 4768.01 5427.55 63.81 9.00 491.37 2486.78
   21:36:35.184.25-Dec-2020 4768.01 5425.18 63.81 9.00 491.57 2486.78
   21:36:35.384.25-Dec-2020 4768.01 5426.47 63.81 9.00 491.77 2486.78
   21:36:35.584.25-Dec-2020 4768.01 5425.72 63.81 9.00 491.97 2486.78
   21:36:35.784.25-Dec-2020 4768.01 5425.72 63.81 9.00 492.17 2486.78
   21:36:35.984.25-Dec-2020 4768.01 5426.17 63.80 9.00 492.37 2486.78
   21:36:36.184.25-Dec-2020 4768.01 5424.29 63.80 9.00 492.57 2486.78
   21:36:36.384.25-Dec-2020 4768.01 5438.52 63.80 9.00 492.77 2486.78
   21:36:36.584.25-Dec-2020 4768.01 5420.03 63.80 9.00 492.97 2486.78
   21:36:36.784.25-Dec-2020 4768.01 5420.03 63.80 9.00 493.17 2486.78
   21:36:36.984.25-Dec-2020 4768.01 5433.78 63.80 9.00 493.37 2486.78
   21:36:37.184.25-Dec-2020 4768.01 5435.42 63.80 9.00 493.57 2486.78
   21:36:37.384.25-Dec-2020 4768.01 5422.85 63.80 9.00 493.77 2486.78
   21:36:37.584.25-Dec-2020 4768.01 5427.57 63.80 9.00 493.97 2486.78
   21:36:37.784.25-Dec-2020 4768.01 5431.66 63.80 9.00 494.17 2486.78
   21:36:37.984.25-Dec-2020 4768.01 5437.74 63.80 9.00 494.37 2486.78
   21:36:38.184.25-Dec-2020 4768.01 5421.37 63.80 9.00 494.57 2486.78
   21:36:38.384.25-Dec-2020 4768.01 5429.33 63.80 9.00 494.77 2486.78
   21:36:38.584.25-Dec-2020 4768.01 5443.98 63.80 9.00 494.97 2486.78
   21:36:38.784.25-Dec-2020 4768.01 5443.98 63.80 9.00 495.17 2486.78
   21:36:38.984.25-Dec-2020 4768.01 5428.23 63.80 9.00 495.37 2486.78
   21:36:39.184.25-Dec-2020 4768.01 5432.80 63.80 9.00 495.57 2486.78
   21:36:39.384.25-Dec-2020 4768.01 5423.72 63.80 9.00 495.77 2486.78
   21:36:39.584.25-Dec-2020 4768.01 5426.55 63.80 9.00 495.97 2486.78
   21:36:39.784.25-Dec-2020 4768.01 5426.55 63.80 9.00 496.17 2486.78
   21:36:39.984.25-Dec-2020 4768.01 5425.09 63.80 9.00 496.37 2486.78
   21:36:40.184.25-Dec-2020 4768.01 5423.82 63.80 9.00 496.57 2486.78
   21:36:40.384.25-Dec-2020 4768.01 5425.39 63.80 9.00 496.77 2486.78
   21:36:40.584.25-Dec-2020 4768.01 5424.92 63.80 9.00 496.97 2486.78
   21:36:40.784.25-Dec-2020 4768.01 5424.92 63.80 9.00 497.17 2486.78
   21:36:40.984.25-Dec-2020 4768.01 5437.18 63.80 9.00 497.37 2486.78
   21:36:41.184.25-Dec-2020 4768.01 5419.90 63.80 9.00 497.57 2486.78
   21:36:41.384.25-Dec-2020 4768.01 5426.13 63.80 9.00 497.77 2486.78
   21:36:41.584.25-Dec-2020 4768.01 5432.56 63.80 9.00 497.97 2486.78
   21:36:41.784.25-Dec-2020 4768.01 5432.56 63.80 9.00 498.17 2486.78
   21:36:41.984.25-Dec-2020 4768.01 5428.59 63.80 9.00 498.37 2486.78
   21:36:42.184.25-Dec-2020 4768.01 5425.90 63.80 9.00 498.57 2486.78
   21:36:42.384.25-Dec-2020 4768.01 5426.77 63.80 9.00 498.77 2486.78
   21:36:42.584.25-Dec-2020 4768.01 5426.84 63.80 9.00 498.97 2486.78
   21:36:42.784.25-Dec-2020 4768.01 5425.99 63.80 9.00 499.17 2486.78
   21:36:42.984.25-Dec-2020 4768.01 5427.74 63.80 9.00 499.37 2486.78
   21:36:43.184.25-Dec-2020 4768.01 5425.93 63.80 9.00 499.57 2486.78
   21:36:43.384.25-Dec-2020 4768.01 5426.57 63.80 9.00 499.77 2486.78
   21:36:43.584.25-Dec-2020 4768.01 5426.74 63.80 9.00 499.97 2486.78
   21:36:43.784.25-Dec-2020 4768.01 5426.74 63.80 9.00 500.17 2486.78
   21:36:43.984.25-Dec-2020 4768.01 5422.80 63.80 9.00 500.37 2486.78
   21:36:44.184.25-Dec-2020 4768.01 5428.42 63.80 9.00 500.57 2486.78
   21:36:44.384.25-Dec-2020 4768.01 5444.73 63.80 9.00 500.77 2486.78
   21:36:44.584.25-Dec-2020 4768.01 5421.78 63.80 9.00 500.97 2486.78
   21:36:44.784.25-Dec-2020 4768.01 5421.78 63.80 9.00 501.17 2486.78
   21:36:44.984.25-Dec-2020 4768.01 5435.87 63.80 9.00 501.37 2486.78
   21:36:45.184.25-Dec-2020 4768.01 5436.52 63.80 9.00 501.57 2486.78
   21:36:45.384.25-Dec-2020 4768.01 5423.63 63.80 9.00 501.77 2486.78
   21:36:45.584.25-Dec-2020 4768.01 5430.17 63.80 9.00 501.97 2486.78
   21:36:45.784.25-Dec-2020 4768.01 5431.93 63.80 9.00 502.17 2486.78
   21:36:45.984.25-Dec-2020 4768.01 5437.50 63.80 9.00 502.37 2486.78
   21:36:46.183.25-Dec-2020 4768.01 5422.24 63.80 9.00 502.57 2486.78
   21:36:46.383.25-Dec-2020 4768.01 5428.08 63.80 9.00 502.77 2486.78
   21:36:46.583.25-Dec-2020 4768.01 5433.02 63.80 9.00 502.97 2486.78
   21:36:46.783.25-Dec-2020 4768.01 5424.03 63.80 9.00 503.17 2486.78
   21:36:46.983.25-Dec-2020 4768.01 5428.22 63.79 9.00 503.37 2486.78
   21:36:47.183.25-Dec-2020 4768.01 5425.78 63.80 9.00 503.57 2486.78
   21:36:47.383.25-Dec-2020 4768.01 5425.28 63.79 9.00 503.77 2486.78
   21:36:47.583.25-Dec-2020 4768.01 5426.34 63.79 9.00 503.97 2486.78
   21:36:47.783.25-Dec-2020 4768.01 5426.34 63.79 9.00 504.17 2486.78
   21:36:47.983.25-Dec-2020 4768.01 5425.92 63.79 9.00 504.37 2486.78
   21:36:48.183.25-Dec-2020 4768.01 5424.77 63.79 9.00 504.57 2486.78
   21:36:48.383.25-Dec-2020 4768.01 5431.29 63.79 9.00 504.77 2486.78
