~Version Information
 VERS.                  2.0:   CWLS log ASCII Standard -VERSION 2.0
 WRAP.                   NO:   One line per depth step
~Well Information Block
#MNEM.UNIT     VALUE/NAME     DESCRIPTION
#---------     -----------    ---------------------------
 STRT.S             12:53:37 25-Dec-20: START TIME 12:53:37 25-Dec-20
 STOP.S             13:01:52 25-Dec-20: STOP TIME  13:01:52 25-Dec-20
 STEP.S                   0.00: STEP TIME
 NULL.                 -999.25: NULL VALUE
 DFWT.                        :  DIST FWL TEXT
 DFST.                        :  DIST FSL TEXT
 DMF .             Drill Floor:  DRILL MEAS FROM
 STIM.      04.54.24 22-Sep-20:  START TIME
 DATE.      04.54.24 21-Nov-20:  END TIME
 SPUD.               21-Nov-20:  SPUD DATE
 NREF.                    Grid:  NORTH REFERENCE
 HPTY.       Minimum Curvature:  HOLE POS TYPE
 DMOD.             Drill Model:  DRILL MOD DESC
 SVYD.                  Survey:  SURVEY DESC
 ILTD.               Lithology:  INTERP LTH DESC
 FTOP.          Formation Tops:  FORM TOPS DESC
 SON .        AZ-XX-0906571587:  JOB NUMBER
 COMP.     BP Exploration (Caspian Sea) Ltd:  COMPANY
 UWI .                     N/A:  UNIQUE WELL IDENTIFIER
 API .                     N/A:  API NUMBER
 BASE.              Azerbaijan:  LOGGING EQUIPMENT BASE LOCATION
 REGN.                   EESSA:  REGION
 PROV.                    Baku:  PROVINCE
 STAT.                    Baku:  STATE NAME
 CTRY.              Azerbaijan:  COUNTRY NAME
 FLD .                     ACG:  FIELD NAME
 SRVC.     TURAN Drilling & Engineering:  CONTRACTOR
 WELL.                     J27:  WELL NAME
 RIG .             West Chirag:  RIG NAME
 DOE .                     N/A:  DOE NUMBER
 DCON.         Sperry Drilling:  DIRECTNL CONTR
 PDAT.          Mean Sea Level:  PERMANENT DATUM
 WTYP.                Deviated:  WELL TYPE
 MWDS.                    Baku:  MWD SHOP
 JOBN.        AZ-XX-0906571587:  JOB TICKET NUMB
 UNIT.                     N/A:  LOGGING EQUIPMENT ID
 MDS .        Operator Entered:  MAG DATA SOURCE
 CNTY.                        :  COUNTY
 LOC .                        :  LOCATION
 LMF .             Drill Floor:  LOG MEASURED FROM
 TVDS.m                  43.00:  TVDSS CORRECTN
 LATI.deg                40.13:  LATITUDE
 LONG.deg                51.22:  LONGITUDE
 WHNS.m                   7.72:  WELL HEAD N/S
 WHEW.m                 -14.24:  WELL HEAD E/W
 UTMX.m              519005.06:  UTM X
 UTMY.m             4443793.85:  UTM Y
 DFWL.m                   0.00:  DISTANCE FWL
 DFSL.m                   0.00:  DISTANCE FSL
 SDEP.m                 347.00:  START DEPTH
 TDD .m                 581.00:  TOTAL DEPTH (DRILLER)
 VSDR.deg               159.72:  VERT SEC DIRECT
 GVFD.g                   1.00:  GRAVITY FIELD
 MFLD.nT              50318.00:  MAGNETIC FIELD
 MDIP.deg                59.57:  MAGNETIC DIP
 MDEC.deg                 6.44:  MAGNETIC DECL
 GRDC.deg                 0.15:  GRID CORRECTION
 AZTC.deg                 6.29:  AZM TOTAL CORR
 EPD .m                   0.00:  ELEVATION
 EGL .m                   0.00:  GROUND ELEVATION
 WDMS.m                 169.80:  WD ELEV
 APD .m                  43.00:  DEPTH ABOVE PD
 AGAP.m                  43.00:  AIR GAP
 VSEW.m                 -14.24:  VERT SEC E/W
 VSNS.m                   7.72:  VERT SEC N/S
 DEP .m                 342.45:  DEPTH
 EKB .m                   0.00:  KB ELEVATION
 EDF .m                  43.00:  DF ELEVATION
 TDL .m                 237.00:  TOTAL DEPTH (LOGGER)
 VSC .                       0:  VS TO CLOSURE
 MAGU.                 1851428:  MAGUTM CHECKSUM
~Parameter Information Block
#MNEM.UNIT       Value        Description
#---------     -----------    ---------------------------
 AV  .mps                 1.50:  Ann Velocity 
 AVMX.mps                 2.90:  Max Ann Veloc 
 AZIF.deg               115.59:  Azm, Final 
 BHAT.        Rotary Steerable:  BHA Type 
 BROT.°/30m               0.50:  Build Rotating 
 BS  .in                  8.50:  Bit Size 
 BTPL.psig              580.00:  Bit Press Loss 
 CABU.                     Yes:  Customer Abuse 
 COMM.                     LÓw:  Run Comments 1 
 TCS .hr                 89.79:  Time Ciculation Ended 
 CV  .mps                 3.22:  Crit Velocity 
 CVMX.mps                 4.37:  Max Crit Veloc 
 DD1 .          Rashad Habibov:  Direct Drillr 1 
 DDSV.               Geo-Pilot:  DD Service 
 DEFF.%                  95.00:  % Det Eff 
 DLRX.°/30m               1.94:  Dogleg Rot Max 
 DLSO.°/30m               0.70:  Dogleg Oriented 
 DLSX.°/30m               1.94:  Dogleg Str Max 
 DRET.      04.45.00 25-Dec-20:  Drill End Time 
 DRST.      10.00.00 24-Dec-20:  Drill Start Tim 
 DTIM.hr                 16.64:  Time Drilling 
 EDEP.m                4999.01:  End Depth 
 ENG1.         Elchin Mammadov:  Engineer 1 
 ENG2.          Ruslan Safarov:  Engineer 2 
 ENG3.          Rustam Safarov:  Engineer 3 
 ETIM.      09.00.00 29-Dec-20:  End Time 
 FLOI.gpm               500.00:  Flow In 
 FLON.gpm               400.00:  Flow In Min 
 FLOS.cptm                0.00:  Fluid Loss 
 FLOX.gpm               500.00:  Flow In Max 
 HFLO.                      No:  High Flow 
 HPRE.                      No:  High Pressure 
 HTEM.                      No:  High Temp 
 HYDO.m                   2.00:  Hydro Offset 
 IFIN.deg                66.79:  Inc, Final 
 IMAX.deg                67.66:  Inc Max 
 IMIN.deg                66.39:  Inc Min 
 IMND.m                4949.37:  Inc Min Depth 
 IMXD.m                4778.63:  Inc Max Depth 
 JARR.                     Yes:  Jarring 
 LETM.      04.45.00 25-Dec-20:  Log End Time 
 LOST.hr                     0:  Lost Rig Time 
 LSTM.      10.00.00 24-Dec-20:  Log Start Time 
 MDCL.ppm             39000.00:  Mud Chlorides 
 MDES.     Inversion Oil/Synthetic:  Mud Desc 
 DFD .sg                  1.33:  Mud Density 
 MDMN.sg                  1.33:  Dens Mud Min 
 MDMX.sg                  1.33:  Dens Mud Max 
 MOIL.                      70:  Run Mud Oil % 
 MOWR.                   70:30:  Run Mud OWR 
 MSND.                       0:  Run Mud Sand % 
 MSOL.                    17.4:  Run Mud Solids% 
 DFV .spqt               84.00:  Mud Viscosity 
 MWOD.in                  6.75:  MWD Tool OD 
 MWSI.                     Yes:  Serv Intrp, MWD 
 OTIM.hr                168.14:  Time Operating 
 PCON.           Look Like New:  Pad Condition 
 PMAX.psia            10822.93:  Press Op, Max 
 PV  .cP                 30.00:  Mud PV 
 RUN .                     900:  Run Number 
 ROPA.m/hr               18.00:  ROP Avg 
 ROPN.m/hr               12.00:  ROP Min 
 ROPX.m/hr               25.00:  ROP Max 
 RPMA.rpm               120.00:  RPM Surface Avg 
 RPMN.rpm               100.00:  RPM Surface Min 
 RPMX.rpm               120.00:  RPM Surface Max 
 RRUN.                    0900:  Rig Run Number 
 SAZI.deg               115.08:  Azm, Start 
 SDEP.m                4762.01:  Start Depth 
 SIDD.                      No:  Serv Intrp, DD 
 SINC.deg                66.14:  Inc, Start 
 SPPA.psig             3700.00:  SPP Avg 
 SPPN.psig             3620.00:  SPP Min 
 SPPX.psig             3900.00:  SPP Max 
 STIM.      09.30.00 22-Dec-20:  Start Time 
 SVCS.                 DD, MWD:  Services 
 SVER.                    9.20:  Sperry Version 
 TDAT.m                 237.00:  Tot Depth Attmp 
 TDDF.                      No:  Trip for DD 
 TDLG.m                 237.00:  Tot Depth Loggd 
 TFF .                      No:  Trip for Fail 
 TQAA.f-kp               18.00:  Torque Abs Avg 
 TQAN.f-kp               17.00:  Torque Abs Min 
 TQAX.f-kp               20.00:  Torque Abs Max 
 TRRT.°/30m               0.60:  Turn Rotating 
 MRT .                    HCIM:  Maximum Recorded Temperature 
 TTMX.degC               94.12:  Max Tool Temp 
 VS01.                90627809:  Virtual Str1 SN 
 VS02.                90527813:  Virtual Str2 SN 
 VS03.                90545417:  Virtual Str3 SN 
 VS04.                12460870:  Virtual Str4 SN 
 VS05.                90516706:  Virtual Str5 SN 
 VS06.                90632007:  Virtual Str6 SN 
 WBMN.klb                 0.00:  WOB Min 
 WOBA.klb                14.00:  WOB Avg 
 WOBX.klb                25.00:  WOB Max 
 YP  .lhf2               32.00:  Yield Point 
~Curve Information Block
#MNEM.UNIT                 API CODE     Curve Description
#---------               -----------    ---------------------------
 TIME.HHMMSS            00 000 000 000:  GT Time & Date
 GTDEPTH.m              00 000 000 000:  GT Depth
 GTPQH.psia             00 000 000 000:  GT HR Quartz Pressure
 GTTQ.degC              00 000 000 000:  GT Quartz Temperature
 GTTN.NONE              00 000 000 000:  GT Test Number
 GTET.sec               00 000 000 000:  GT Elapsed Test Time
 GTTVD.m                00 000 000 000:  GT True Vertical Depth
#Other Information
#
#WARRANTY: Halliburton will use its best efforts to furnish customers with 
#accurate information and interpretations that are part of, and incident to, the services 
#provided.  However, Halliburton cannot and does not warrant the accuracy 
#or correctness of such information and interpretations.  Under no circumstances should any 
#such information or interpretation be relied upon as the sole basis for any drilling, 
#completion, production, or financial decision or any procedure involving any risk to the 
#safety of any drilling venture, drilling rig or its crew or any other third party.  The 
#Customer has full responsibility for all drilling, completion and production operation.  
#Halliburton makes no representations or warranties, either expressed or 
#implied, including, but not limited to, the implied warranties of merchantability or fitness 
#for a particular purpose, with respect to the services rendered.  In no event will 
#Halliburton be liable for failure to obtain any particular results or for 
#any damages, including, but not limited to, indirect, special or consequential damages, 
#resulting from the use of any information or interpretation provided by Halliburton.
#
~A           TIME           GTDEPTH  GTPQH  GTTQ  GTTN  GTET   GTTVD  
# ...
   13:00:31.371.25-Dec-2020 4950.51 2091.51 66.56 1.00 414.19 2558.08
   13:00:31.571.25-Dec-2020 4950.51 2091.51 66.56 1.00 414.39 2558.08
   13:00:31.771.25-Dec-2020 4950.51 2091.59 66.56 1.00 414.59 2558.08
   13:00:31.972.25-Dec-2020 4950.51 2091.56 66.56 1.00 414.79 2558.08
   13:00:32.172.25-Dec-2020 4950.51 2090.91 66.56 1.00 414.99 2558.08
   13:00:32.372.25-Dec-2020 4950.51 2091.91 66.56 1.00 415.19 2558.08
   13:00:32.572.25-Dec-2020 4950.51 2091.91 66.56 1.00 415.39 2558.08
   13:00:32.772.25-Dec-2020 4950.51 2091.59 66.56 1.00 415.59 2558.08
   13:00:32.972.25-Dec-2020 4950.51 2090.91 66.56 1.00 415.79 2558.08
   13:00:33.172.25-Dec-2020 4950.51 2091.85 66.56 1.00 415.99 2558.08
   13:00:33.372.25-Dec-2020 4950.51 2091.71 66.56 1.00 416.19 2558.08
   13:00:33.572.25-Dec-2020 4950.51 2091.71 66.56 1.00 416.39 2558.08
   13:00:33.772.25-Dec-2020 4950.51 2091.68 66.56 1.00 416.59 2558.08
   13:00:33.972.25-Dec-2020 4950.51 2091.63 66.56 1.00 416.79 2558.08
   13:00:34.173.25-Dec-2020 4950.51 2091.10 66.56 1.00 416.99 2558.08
   13:00:34.373.25-Dec-2020 4950.51 2092.05 66.56 1.00 417.19 2558.08
   13:00:34.573.25-Dec-2020 4950.51 2092.05 66.56 1.00 417.39 2558.08
   13:00:34.773.25-Dec-2020 4950.51 2091.90 66.56 1.00 417.59 2558.08
   13:00:34.973.25-Dec-2020 4950.51 2091.49 66.56 1.00 417.79 2558.08
   13:00:35.173.25-Dec-2020 4950.51 2091.46 66.56 1.00 417.99 2558.08
   13:00:35.373.25-Dec-2020 4950.51 2091.60 66.56 1.00 418.19 2558.08
   13:00:35.573.25-Dec-2020 4950.51 2091.60 66.56 1.00 418.39 2558.08
   13:00:35.773.25-Dec-2020 4950.51 2091.55 66.56 1.00 418.59 2558.08
   13:00:35.973.25-Dec-2020 4950.51 2091.50 66.56 1.00 418.79 2558.08
   13:00:36.173.25-Dec-2020 4950.51 2091.61 66.56 1.00 418.99 2558.08
   13:00:36.374.25-Dec-2020 4950.51 2091.57 66.56 1.00 419.19 2558.08
   13:00:36.574.25-Dec-2020 4950.51 2091.57 66.56 1.00 419.39 2558.08
   13:00:36.774.25-Dec-2020 4950.51 2091.32 66.56 1.00 419.59 2558.08
   13:00:36.974.25-Dec-2020 4950.51 2091.74 66.56 1.00 419.79 2558.08
   13:00:37.174.25-Dec-2020 4950.51 2091.72 66.56 1.00 419.99 2558.08
   13:00:37.374.25-Dec-2020 4950.51 2091.62 66.56 1.00 420.19 2558.08
   13:00:37.574.25-Dec-2020 4950.51 2091.62 66.56 1.00 420.39 2558.08
   13:00:37.774.25-Dec-2020 4950.51 2091.68 66.56 1.00 420.59 2558.08
   13:00:37.974.25-Dec-2020 4950.51 2091.70 66.56 1.00 420.79 2558.08
   13:00:38.174.25-Dec-2020 4950.51 2091.59 66.56 1.00 420.99 2558.08
   13:00:38.374.25-Dec-2020 4950.51 2091.60 66.56 1.00 421.19 2558.08
   13:00:38.575.25-Dec-2020 4950.51 2091.60 66.56 1.00 421.39 2558.08
   13:00:38.775.25-Dec-2020 4950.51 2091.64 66.56 1.00 421.59 2558.08
   13:00:38.975.25-Dec-2020 4950.51 2091.62 66.56 1.00 421.79 2558.08
   13:00:39.175.25-Dec-2020 4950.51 2091.03 66.56 1.00 421.99 2558.08
   13:00:39.375.25-Dec-2020 4950.51 2092.01 66.56 1.00 422.19 2558.08
   13:00:39.575.25-Dec-2020 4950.51 2092.01 66.56 1.00 422.39 2558.08
   13:00:39.775.25-Dec-2020 4950.51 2091.69 66.56 1.00 422.59 2558.08
   13:00:39.975.25-Dec-2020 4950.51 2090.99 66.56 1.00 422.79 2558.08
   13:00:40.175.25-Dec-2020 4950.51 2091.93 66.56 1.00 422.99 2558.08
   13:00:40.375.25-Dec-2020 4950.51 2091.79 66.56 1.00 423.19 2558.08
   13:00:40.575.25-Dec-2020 4950.51 2091.79 66.56 1.00 423.39 2558.08
   13:00:40.776.25-Dec-2020 4950.51 2091.80 66.56 1.00 423.59 2558.08
   13:00:40.976.25-Dec-2020 4950.51 2091.69 66.56 1.00 423.79 2558.08
   13:00:41.176.25-Dec-2020 4950.51 2091.21 66.56 1.00 423.99 2558.08
   13:00:41.376.25-Dec-2020 4950.51 2092.18 66.56 1.00 424.19 2558.08
   13:00:41.576.25-Dec-2020 4950.51 2092.18 66.56 1.00 424.39 2558.08
   13:00:41.776.25-Dec-2020 4950.51 2091.97 66.56 1.00 424.59 2558.08
   13:00:41.976.25-Dec-2020 4950.51 2091.56 66.56 1.00 424.79 2558.08
   13:00:42.176.25-Dec-2020 4950.51 2091.45 66.56 1.00 424.99 2558.08
   13:00:42.376.25-Dec-2020 4950.51 2091.65 66.56 1.00 425.19 2558.08
   13:00:42.576.25-Dec-2020 4950.51 2091.65 66.56 1.00 425.39 2558.08
   13:00:42.776.25-Dec-2020 4950.51 2091.65 66.56 1.00 425.59 2558.08
   13:00:42.977.25-Dec-2020 4950.51 2091.59 66.56 1.00 425.79 2558.08
   13:00:43.177.25-Dec-2020 4950.51 2091.61 66.56 1.00 425.99 2558.08
   13:00:43.377.25-Dec-2020 4950.51 2091.64 66.56 1.00 426.19 2558.08
   13:00:43.577.25-Dec-2020 4950.51 2091.64 66.56 1.00 426.39 2558.08
   13:00:43.777.25-Dec-2020 4950.51 2091.39 66.56 1.00 426.59 2558.08
   13:00:43.977.25-Dec-2020 4950.51 2091.85 66.56 1.00 426.79 2558.08
   13:00:44.177.25-Dec-2020 4950.51 2091.80 66.56 1.00 426.99 2558.08
   13:00:44.377.25-Dec-2020 4950.51 2091.72 66.56 1.00 427.19 2558.08
   13:00:44.577.25-Dec-2020 4950.51 2091.72 66.56 1.00 427.39 2558.08
   13:00:44.777.25-Dec-2020 4950.51 2091.69 66.56 1.00 427.59 2558.08
   13:00:44.977.25-Dec-2020 4950.51 2091.72 66.56 1.00 427.79 2558.08
   13:00:45.177.25-Dec-2020 4950.51 2091.67 66.56 1.00 427.99 2558.08
   13:00:45.378.25-Dec-2020 4950.51 2091.68 66.56 1.00 428.19 2558.08
   13:00:45.578.25-Dec-2020 4950.51 2091.68 66.56 1.00 428.39 2558.08
   13:00:45.778.25-Dec-2020 4950.51 2091.75 66.56 1.00 428.59 2558.08
   13:00:45.978.25-Dec-2020 4950.51 2091.69 66.56 1.00 428.79 2558.08
   13:00:46.178.25-Dec-2020 4950.51 2091.09 66.56 1.00 428.99 2558.08
   13:00:46.378.25-Dec-2020 4950.51 2092.07 66.56 1.00 429.19 2558.08
   13:00:46.578.25-Dec-2020 4950.51 2092.07 66.56 1.00 429.39 2558.08
   13:00:46.778.25-Dec-2020 4950.51 2091.74 66.56 1.00 429.59 2558.08
   13:00:46.978.25-Dec-2020 4950.51 2091.11 66.56 1.00 429.79 2558.08
   13:00:47.178.25-Dec-2020 4950.51 2092.10 66.56 1.00 429.99 2558.08
   13:00:47.378.25-Dec-2020 4950.51 2091.95 66.56 1.00 430.19 2558.08
   13:00:47.579.25-Dec-2020 4950.51 2091.95 66.56 1.00 430.39 2558.08
   13:00:47.779.25-Dec-2020 4950.51 2091.85 66.56 1.00 430.59 2558.08
   13:00:47.979.25-Dec-2020 4950.51 2091.81 66.56 1.00 430.79 2558.08
   13:00:48.179.25-Dec-2020 4950.51 2091.24 66.56 1.00 430.99 2558.08
   13:00:48.379.25-Dec-2020 4950.51 2092.18 66.56 1.00 431.19 2558.08
   13:00:48.579.25-Dec-2020 4950.51 2092.18 66.56 1.00 431.39 2558.08
   13:00:48.779.25-Dec-2020 4950.51 2091.99 66.56 1.00 431.59 2558.08
   13:00:48.979.25-Dec-2020 4950.51 2091.70 66.56 1.00 431.79 2558.08
   13:00:49.179.25-Dec-2020 4950.51 2091.54 66.56 1.00 431.99 2558.08
   13:00:49.379.25-Dec-2020 4950.51 2091.71 66.56 1.00 432.19 2558.08
   13:00:49.579.25-Dec-2020 4950.51 2091.71 66.56 1.00 432.39 2558.08
   13:00:49.780.25-Dec-2020 4950.51 2091.70 66.56 1.00 432.60 2558.08
   13:00:49.980.25-Dec-2020 4950.51 2091.70 66.56 1.00 432.80 2558.08
   13:00:50.180.25-Dec-2020 4950.51 2091.65 66.56 1.00 433.00 2558.08
   13:00:50.380.25-Dec-2020 4950.51 2091.71 66.56 1.00 433.20 2558.08
   13:00:50.580.25-Dec-2020 4950.51 2091.71 66.56 1.00 433.40 2558.08
   13:00:50.780.25-Dec-2020 4950.51 2091.44 66.56 1.00 433.60 2558.08
   13:00:50.980.25-Dec-2020 4950.51 2091.93 66.56 1.00 433.80 2558.08
   13:00:51.180.25-Dec-2020 4950.51 2091.86 66.56 1.00 434.00 2558.08
   13:00:51.380.25-Dec-2020 4950.51 2091.70 66.56 1.00 434.20 2558.08
   13:00:51.580.25-Dec-2020 4950.51 2091.70 66.56 1.00 434.40 2558.08
   13:00:51.780.25-Dec-2020 4950.51 2091.82 66.56 1.00 434.60 2558.08
   13:00:51.981.25-Dec-2020 4950.51 2091.89 66.56 1.00 434.80 2558.08
   13:00:52.181.25-Dec-2020 4950.51 2091.74 66.56 1.00 435.00 2558.08
   13:00:52.381.25-Dec-2020 4950.51 2091.77 66.56 1.00 435.20 2558.08
   13:00:52.581.25-Dec-2020 4950.51 2091.77 66.56 1.00 435.40 2558.08
   13:00:52.781.25-Dec-2020 4950.51 2091.75 66.56 1.00 435.60 2558.08
   13:00:52.981.25-Dec-2020 4950.51 2091.79 66.56 1.00 435.80 2558.08
   13:00:53.181.25-Dec-2020 4950.51 2091.13 66.56 1.00 436.00 2558.08
   13:00:53.381.25-Dec-2020 4950.51 2091.70 66.56 1.00 436.20 2558.08
   13:00:53.581.25-Dec-2020 4950.51 2092.15 66.56 1.00 436.40 2558.08
   13:00:53.781.25-Dec-2020 4950.51 2092.15 66.56 1.00 436.60 2558.08
   13:00:53.981.25-Dec-2020 4950.51 2091.37 66.55 1.00 436.80 2558.08
   13:00:54.182.25-Dec-2020 4950.51 2092.03 66.56 1.00 437.00 2558.08
