~Version Information
 VERS.                  2.0:   CWLS log ASCII Standard -VERSION 2.0
 WRAP.                   NO:   One line per depth step
~Well Information Block
#MNEM.UNIT     VALUE/NAME     DESCRIPTION
#---------     -----------    ---------------------------
 STRT.S             13:36:27 25-Dec-20: START TIME 13:36:27 25-Dec-20
 STOP.S             13:44:49 25-Dec-20: STOP TIME  13:44:49 25-Dec-20
 STEP.S                   0.00: STEP TIME
 NULL.                 -999.25: NULL VALUE
 DFWT.                        :  DIST FWL TEXT
 DFST.                        :  DIST FSL TEXT
 DMF .             Drill Floor:  DRILL MEAS FROM
 STIM.      04.54.24 22-Sep-20:  START TIME
 DATE.      04.54.24 21-Nov-20:  END TIME
 SPUD.               21-Nov-20:  SPUD DATE
 NREF.                    Grid:  NORTH REFERENCE
 HPTY.       Minimum Curvature:  HOLE POS TYPE
 DMOD.             Drill Model:  DRILL MOD DESC
 SVYD.                  Survey:  SURVEY DESC
 ILTD.               Lithology:  INTERP LTH DESC
 FTOP.          Formation Tops:  FORM TOPS DESC
 SON .        AZ-XX-0906571587:  JOB NUMBER
 COMP.     BP Exploration (Caspian Sea) Ltd:  COMPANY
 UWI .                     N/A:  UNIQUE WELL IDENTIFIER
 API .                     N/A:  API NUMBER
 BASE.              Azerbaijan:  LOGGING EQUIPMENT BASE LOCATION
 REGN.                   EESSA:  REGION
 PROV.                    Baku:  PROVINCE
 STAT.                    Baku:  STATE NAME
 CTRY.              Azerbaijan:  COUNTRY NAME
 FLD .                     ACG:  FIELD NAME
 SRVC.     TURAN Drilling & Engineering:  CONTRACTOR
 WELL.                     J27:  WELL NAME
 RIG .             West Chirag:  RIG NAME
 DOE .                     N/A:  DOE NUMBER
 DCON.         Sperry Drilling:  DIRECTNL CONTR
 PDAT.          Mean Sea Level:  PERMANENT DATUM
 WTYP.                Deviated:  WELL TYPE
 MWDS.                    Baku:  MWD SHOP
 JOBN.        AZ-XX-0906571587:  JOB TICKET NUMB
 UNIT.                     N/A:  LOGGING EQUIPMENT ID
 MDS .        Operator Entered:  MAG DATA SOURCE
 CNTY.                        :  COUNTY
 LOC .                        :  LOCATION
 LMF .             Drill Floor:  LOG MEASURED FROM
 TVDS.m                  43.00:  TVDSS CORRECTN
 LATI.deg                40.13:  LATITUDE
 LONG.deg                51.22:  LONGITUDE
 WHNS.m                   7.72:  WELL HEAD N/S
 WHEW.m                 -14.24:  WELL HEAD E/W
 UTMX.m              519005.06:  UTM X
 UTMY.m             4443793.85:  UTM Y
 DFWL.m                   0.00:  DISTANCE FWL
 DFSL.m                   0.00:  DISTANCE FSL
 SDEP.m                 347.00:  START DEPTH
 TDD .m                 581.00:  TOTAL DEPTH (DRILLER)
 VSDR.deg               159.72:  VERT SEC DIRECT
 GVFD.g                   1.00:  GRAVITY FIELD
 MFLD.nT              50318.00:  MAGNETIC FIELD
 MDIP.deg                59.57:  MAGNETIC DIP
 MDEC.deg                 6.44:  MAGNETIC DECL
 GRDC.deg                 0.15:  GRID CORRECTION
 AZTC.deg                 6.29:  AZM TOTAL CORR
 EPD .m                   0.00:  ELEVATION
 EGL .m                   0.00:  GROUND ELEVATION
 WDMS.m                 169.80:  WD ELEV
 APD .m                  43.00:  DEPTH ABOVE PD
 AGAP.m                  43.00:  AIR GAP
 VSEW.m                 -14.24:  VERT SEC E/W
 VSNS.m                   7.72:  VERT SEC N/S
 DEP .m                 342.45:  DEPTH
 EKB .m                   0.00:  KB ELEVATION
 EDF .m                  43.00:  DF ELEVATION
 TDL .m                 237.00:  TOTAL DEPTH (LOGGER)
 VSC .                       0:  VS TO CLOSURE
 MAGU.                 1851428:  MAGUTM CHECKSUM
~Parameter Information Block
#MNEM.UNIT       Value        Description
#---------     -----------    ---------------------------
 AV  .mps                 1.50:  Ann Velocity 
 AVMX.mps                 2.90:  Max Ann Veloc 
 AZIF.deg               115.59:  Azm, Final 
 BHAT.        Rotary Steerable:  BHA Type 
 BROT.°/30m               0.50:  Build Rotating 
 BS  .in                  8.50:  Bit Size 
 BTPL.psig              580.00:  Bit Press Loss 
 CABU.                     Yes:  Customer Abuse 
 COMM.                     lW:  Run Comments 1 
 TCS .hr                 89.79:  Time Ciculation Ended 
 CV  .mps                 3.22:  Crit Velocity 
 CVMX.mps                 4.37:  Max Crit Veloc 
 DD1 .          Rashad Habibov:  Direct Drillr 1 
 DDSV.               Geo-Pilot:  DD Service 
 DEFF.%                  95.00:  % Det Eff 
 DLRX.°/30m               1.94:  Dogleg Rot Max 
 DLSO.°/30m               0.70:  Dogleg Oriented 
 DLSX.°/30m               1.94:  Dogleg Str Max 
 DRET.      04.45.00 25-Dec-20:  Drill End Time 
 DRST.      10.00.00 24-Dec-20:  Drill Start Tim 
 DTIM.hr                 16.64:  Time Drilling 
 EDEP.m                4999.01:  End Depth 
 ENG1.         Elchin Mammadov:  Engineer 1 
 ENG2.          Ruslan Safarov:  Engineer 2 
 ENG3.          Rustam Safarov:  Engineer 3 
 ETIM.      09.00.00 29-Dec-20:  End Time 
 FLOI.gpm               500.00:  Flow In 
 FLON.gpm               400.00:  Flow In Min 
 FLOS.cptm                0.00:  Fluid Loss 
 FLOX.gpm               500.00:  Flow In Max 
 HFLO.                      No:  High Flow 
 HPRE.                      No:  High Pressure 
 HTEM.                      No:  High Temp 
 HYDO.m                   2.00:  Hydro Offset 
 IFIN.deg                66.79:  Inc, Final 
 IMAX.deg                67.66:  Inc Max 
 IMIN.deg                66.39:  Inc Min 
 IMND.m                4949.37:  Inc Min Depth 
 IMXD.m                4778.63:  Inc Max Depth 
 JARR.                     Yes:  Jarring 
 LETM.      04.45.00 25-Dec-20:  Log End Time 
 LOST.hr                     0:  Lost Rig Time 
 LSTM.      10.00.00 24-Dec-20:  Log Start Time 
 MDCL.ppm             39000.00:  Mud Chlorides 
 MDES.     Inversion Oil/Synthetic:  Mud Desc 
 DFD .sg                  1.33:  Mud Density 
 MDMN.sg                  1.33:  Dens Mud Min 
 MDMX.sg                  1.33:  Dens Mud Max 
 MOIL.                      70:  Run Mud Oil % 
 MOWR.                   70:30:  Run Mud OWR 
 MSND.                       0:  Run Mud Sand % 
 MSOL.                    17.4:  Run Mud Solids% 
 DFV .spqt               84.00:  Mud Viscosity 
 MWOD.in                  6.75:  MWD Tool OD 
 MWSI.                     Yes:  Serv Intrp, MWD 
 OTIM.hr                168.14:  Time Operating 
 PCON.           Look Like New:  Pad Condition 
 PMAX.psia            10822.93:  Press Op, Max 
 PV  .cP                 30.00:  Mud PV 
 RUN .                     900:  Run Number 
 ROPA.m/hr               18.00:  ROP Avg 
 ROPN.m/hr               12.00:  ROP Min 
 ROPX.m/hr               25.00:  ROP Max 
 RPMA.rpm               120.00:  RPM Surface Avg 
 RPMN.rpm               100.00:  RPM Surface Min 
 RPMX.rpm               120.00:  RPM Surface Max 
 RRUN.                    0900:  Rig Run Number 
 SAZI.deg               115.08:  Azm, Start 
 SDEP.m                4762.01:  Start Depth 
 SIDD.                      No:  Serv Intrp, DD 
 SINC.deg                66.14:  Inc, Start 
 SPPA.psig             3700.00:  SPP Avg 
 SPPN.psig             3620.00:  SPP Min 
 SPPX.psig             3900.00:  SPP Max 
 STIM.      09.30.00 22-Dec-20:  Start Time 
 SVCS.                 DD, MWD:  Services 
 SVER.                    9.20:  Sperry Version 
 TDAT.m                 237.00:  Tot Depth Attmp 
 TDDF.                      No:  Trip for DD 
 TDLG.m                 237.00:  Tot Depth Loggd 
 TFF .                      No:  Trip for Fail 
 TQAA.f-kp               18.00:  Torque Abs Avg 
 TQAN.f-kp               17.00:  Torque Abs Min 
 TQAX.f-kp               20.00:  Torque Abs Max 
 TRRT.°/30m               0.60:  Turn Rotating 
 MRT .                    HCIM:  Maximum Recorded Temperature 
 TTMX.degC               94.12:  Max Tool Temp 
 VS01.                90627809:  Virtual Str1 SN 
 VS02.                90527813:  Virtual Str2 SN 
 VS03.                90545417:  Virtual Str3 SN 
 VS04.                12460870:  Virtual Str4 SN 
 VS05.                90516706:  Virtual Str5 SN 
 VS06.                90632007:  Virtual Str6 SN 
 WBMN.klb                 0.00:  WOB Min 
 WOBA.klb                14.00:  WOB Avg 
 WOBX.klb                25.00:  WOB Max 
 YP  .lhf2               32.00:  Yield Point 
~Curve Information Block
#MNEM.UNIT                 API CODE     Curve Description
#---------               -----------    ---------------------------
 TIME.HHMMSS            00 000 000 000:  GT Time & Date
 GTDEPTH.m              00 000 000 000:  GT Depth
 GTPQH.psia             00 000 000 000:  GT HR Quartz Pressure
 GTTQ.degC              00 000 000 000:  GT Quartz Temperature
 GTTN.NONE              00 000 000 000:  GT Test Number
 GTET.sec               00 000 000 000:  GT Elapsed Test Time
 GTTVD.m                00 000 000 000:  GT True Vertical Depth
#Other Information
#
#WARRANTY: Halliburton will use its best efforts to furnish customers with 
#accurate information and interpretations that are part of, and incident to, the services 
#provided.  However, Halliburton cannot and does not warrant the accuracy 
#or correctness of such information and interpretations.  Under no circumstances should any 
#such information or interpretation be relied upon as the sole basis for any drilling, 
#completion, production, or financial decision or any procedure involving any risk to the 
#safety of any drilling venture, drilling rig or its crew or any other third party.  The 
#Customer has full responsibility for all drilling, completion and production operation.  
#Halliburton makes no representations or warranties, either expressed or 
#implied, including, but not limited to, the implied warranties of merchantability or fitness 
#for a particular purpose, with respect to the services rendered.  In no event will 
#Halliburton be liable for failure to obtain any particular results or for 
#any damages, including, but not limited to, indirect, special or consequential damages, 
#resulting from the use of any information or interpretation provided by Halliburton.
#
~A           TIME           GTDEPTH  GTPQH  GTTQ  GTTN  GTET   GTTVD  
# ...
   13:41:49.000.25-Dec-2020 4921.01   44.95 66.22 2.00 322.00 2546.48
   13:41:49.200.25-Dec-2020 4921.01   44.40 66.22 2.00 322.20 2546.48
   13:41:49.400.25-Dec-2020 4921.01   43.82 66.22 2.00 322.40 2546.48
   13:41:49.600.25-Dec-2020 4921.01   43.26 66.22 2.00 322.60 2546.48
   13:41:49.800.25-Dec-2020 4921.01   42.74 66.22 2.00 322.80 2546.48
   13:41:50.000.25-Dec-2020 4921.01   42.22 66.22 2.00 323.00 2546.48
   13:41:50.200.25-Dec-2020 4921.01   41.70 66.22 2.00 323.20 2546.48
   13:41:50.400.25-Dec-2020 4921.01   41.24 66.22 2.00 323.40 2546.48
   13:41:50.600.25-Dec-2020 4921.01   40.77 66.22 2.00 323.60 2546.48
   13:41:50.800.25-Dec-2020 4921.01   40.30 66.22 2.00 323.80 2546.48
   13:41:51.000.25-Dec-2020 4921.01   39.82 66.22 2.00 324.00 2546.48
   13:41:51.200.25-Dec-2020 4921.01   39.82 66.22 2.00 324.20 2546.48
   13:41:51.400.25-Dec-2020 4921.01   38.96 66.22 2.00 324.40 2546.48
   13:41:51.600.25-Dec-2020 4921.01   38.55 66.22 2.00 324.60 2546.48
   13:41:51.800.25-Dec-2020 4921.01   38.15 66.22 2.00 324.80 2546.48
   13:41:52.000.25-Dec-2020 4921.01   37.78 66.22 2.00 325.00 2546.48
   13:41:52.200.25-Dec-2020 4921.01   37.78 66.22 2.00 325.20 2546.48
   13:41:52.400.25-Dec-2020 4921.01   37.01 66.22 2.00 325.40 2546.48
   13:41:52.600.25-Dec-2020 4921.01   36.65 66.22 2.00 325.60 2546.48
   13:41:52.800.25-Dec-2020 4921.01   36.28 66.22 2.00 325.80 2546.48
   13:41:53.000.25-Dec-2020 4921.01   35.95 66.22 2.00 326.00 2546.48
   13:41:53.200.25-Dec-2020 4921.01   35.62 66.22 2.00 326.20 2546.48
   13:41:53.400.25-Dec-2020 4921.01   35.25 66.22 2.00 326.40 2546.48
   13:41:53.600.25-Dec-2020 4921.01   34.94 66.22 2.00 326.60 2546.48
   13:41:53.800.25-Dec-2020 4921.01   34.65 66.22 2.00 326.80 2546.48
   13:41:54.000.25-Dec-2020 4921.01   34.36 66.22 2.00 327.00 2546.48
   13:41:54.200.25-Dec-2020 4921.01   34.06 66.22 2.00 327.20 2546.48
   13:41:54.400.25-Dec-2020 4921.01   33.77 66.22 2.00 327.40 2546.48
   13:41:54.600.25-Dec-2020 4921.01   33.49 66.22 2.00 327.60 2546.48
   13:41:54.800.25-Dec-2020 4921.01   33.21 66.22 2.00 327.80 2546.48
   13:41:55.000.25-Dec-2020 4921.01   32.94 66.22 2.00 328.00 2546.48
   13:41:55.200.25-Dec-2020 4921.01   32.94 66.22 2.00 328.20 2546.48
   13:41:55.400.25-Dec-2020 4921.01   32.41 66.22 2.00 328.40 2546.48
   13:41:55.600.25-Dec-2020 4921.01   32.15 66.22 2.00 328.60 2546.48
   13:41:55.800.25-Dec-2020 4921.01   31.87 66.22 2.00 328.80 2546.48
   13:41:56.000.25-Dec-2020 4921.01   31.62 66.22 2.00 329.00 2546.48
   13:41:56.200.25-Dec-2020 4921.01   31.62 66.22 2.00 329.20 2546.48
   13:41:56.400.25-Dec-2020 4921.01   31.14 66.22 2.00 329.40 2546.48
   13:41:56.600.25-Dec-2020 4921.01   30.93 66.22 2.00 329.60 2546.48
   13:41:56.800.25-Dec-2020 4921.01   30.81 66.22 2.00 329.80 2546.48
   13:41:57.000.25-Dec-2020 4921.01   30.78 66.22 2.00 330.00 2546.48
   13:41:57.200.25-Dec-2020 4921.01   30.76 66.22 2.00 330.20 2546.48
   13:41:57.400.25-Dec-2020 4921.01   30.80 66.22 2.00 330.40 2546.48
   13:41:57.600.25-Dec-2020 4921.01   30.78 66.22 2.00 330.60 2546.48
   13:41:57.800.25-Dec-2020 4921.01   30.80 66.22 2.00 330.80 2546.48
   13:41:58.000.25-Dec-2020 4921.01   30.78 66.22 2.00 331.00 2546.48
   13:41:58.200.25-Dec-2020 4921.01   30.84 66.22 2.00 331.20 2546.48
   13:41:58.400.25-Dec-2020 4921.01   30.83 66.22 2.00 331.40 2546.48
   13:41:58.600.25-Dec-2020 4921.01   30.84 66.22 2.00 331.60 2546.48
   13:41:58.800.25-Dec-2020 4921.01   30.86 66.22 2.00 331.80 2546.48
   13:41:59.000.25-Dec-2020 4921.01   30.87 66.22 2.00 332.00 2546.48
   13:41:59.200.25-Dec-2020 4921.01   30.87 66.22 2.00 332.20 2546.48
   13:41:59.400.25-Dec-2020 4921.01   30.88 66.22 2.00 332.40 2546.48
   13:41:59.600.25-Dec-2020 4921.01   30.90 66.22 2.00 332.60 2546.48
   13:41:59.800.25-Dec-2020 4921.01   30.92 66.22 2.00 332.80 2546.48
   13:42:00.000.25-Dec-2020 4921.01   30.93 66.22 2.00 333.00 2546.48
   13:42:00.200.25-Dec-2020 4921.01   30.93 66.22 2.00 333.20 2546.48
   13:42:00.400.25-Dec-2020 4921.01   30.93 66.22 2.00 333.40 2546.48
   13:42:00.600.25-Dec-2020 4921.01   30.98 66.22 2.00 333.60 2546.48
   13:42:00.800.25-Dec-2020 4921.01   30.97 66.22 2.00 333.80 2546.48
   13:42:01.000.25-Dec-2020 4921.01   30.99 66.22 2.00 334.00 2546.48
   13:42:01.200.25-Dec-2020 4921.01   31.00 66.22 2.00 334.20 2546.48
   13:42:01.400.25-Dec-2020 4921.01   31.01 66.22 2.00 334.40 2546.48
   13:42:01.600.25-Dec-2020 4921.01   31.02 66.22 2.00 334.60 2546.48
   13:42:01.800.25-Dec-2020 4921.01   31.03 66.22 2.00 334.80 2546.48
   13:42:02.000.25-Dec-2020 4921.01   31.04 66.22 2.00 335.00 2546.48
   13:42:02.200.25-Dec-2020 4921.01   31.04 66.22 2.00 335.20 2546.48
   13:42:02.400.25-Dec-2020 4921.01   31.06 66.22 2.00 335.40 2546.48
   13:42:02.600.25-Dec-2020 4921.01   31.08 66.22 2.00 335.60 2546.48
   13:42:02.800.25-Dec-2020 4921.01   31.08 66.22 2.00 335.80 2546.48
   13:42:03.000.25-Dec-2020 4921.01   31.09 66.22 2.00 336.00 2546.48
   13:42:03.200.25-Dec-2020 4921.01   31.11 66.22 2.00 336.20 2546.48
   13:42:03.400.25-Dec-2020 4921.01   31.12 66.22 2.00 336.40 2546.48
   13:42:03.600.25-Dec-2020 4921.01   31.11 66.22 2.00 336.60 2546.48
   13:42:03.800.25-Dec-2020 4921.01   31.16 66.22 2.00 336.80 2546.48
   13:42:04.000.25-Dec-2020 4921.01   31.15 66.22 2.00 337.00 2546.48
   13:42:04.200.25-Dec-2020 4921.01   31.15 66.22 2.00 337.20 2546.48
   13:42:04.400.25-Dec-2020 4921.01   31.17 66.22 2.00 337.40 2546.48
   13:42:04.600.25-Dec-2020 4921.01   31.19 66.22 2.00 337.60 2546.48
   13:42:04.800.25-Dec-2020 4921.01   31.19 66.22 2.00 337.80 2546.48
   13:42:05.000.25-Dec-2020 4921.01   31.20 66.22 2.00 338.00 2546.48
   13:42:05.200.25-Dec-2020 4921.01   31.20 66.22 2.00 338.20 2546.48
   13:42:05.400.25-Dec-2020 4921.01   31.22 66.22 2.00 338.40 2546.48
   13:42:05.600.25-Dec-2020 4921.01   31.23 66.22 2.00 338.60 2546.48
   13:42:05.800.25-Dec-2020 4921.01   31.24 66.22 2.00 338.80 2546.48
   13:42:06.000.25-Dec-2020 4921.01   31.25 66.22 2.00 339.00 2546.48
   13:42:06.200.25-Dec-2020 4921.01   31.25 66.22 2.00 339.20 2546.48
   13:42:06.400.25-Dec-2020 4921.01   31.27 66.22 2.00 339.40 2546.48
   13:42:06.600.25-Dec-2020 4921.01   31.27 66.22 2.00 339.60 2546.48
   13:42:06.800.25-Dec-2020 4921.01   31.28 66.22 2.00 339.80 2546.48
   13:42:07.000.25-Dec-2020 4921.01   31.29 66.22 2.00 340.00 2546.48
   13:42:07.200.25-Dec-2020 4921.01   31.29 66.22 2.00 340.20 2546.48
   13:42:07.400.25-Dec-2020 4921.01   31.31 66.22 2.00 340.40 2546.48
   13:42:07.600.25-Dec-2020 4921.01   31.30 66.22 2.00 340.60 2546.48
   13:42:07.800.25-Dec-2020 4921.01   31.35 66.22 2.00 340.80 2546.48
   13:42:08.000.25-Dec-2020 4921.01   31.35 66.22 2.00 341.00 2546.48
   13:42:08.200.25-Dec-2020 4921.01   31.35 66.22 2.00 341.20 2546.48
   13:42:08.400.25-Dec-2020 4921.01   31.37 66.22 2.00 341.40 2546.48
   13:42:08.600.25-Dec-2020 4921.01   31.38 66.22 2.00 341.60 2546.48
   13:42:08.800.25-Dec-2020 4921.01   31.39 66.22 2.00 341.80 2546.48
   13:42:09.000.25-Dec-2020 4921.01   31.39 66.22 2.00 342.00 2546.48
   13:42:09.200.25-Dec-2020 4921.01   31.40 66.22 2.00 342.20 2546.48
   13:42:09.400.25-Dec-2020 4921.01   31.42 66.22 2.00 342.40 2546.48
   13:42:09.600.25-Dec-2020 4921.01   31.41 66.22 2.00 342.60 2546.48
   13:42:09.800.25-Dec-2020 4921.01   31.42 66.22 2.00 342.80 2546.48
   13:42:10.000.25-Dec-2020 4921.01   31.41 66.22 2.00 343.00 2546.48
   13:42:10.200.25-Dec-2020 4921.01   31.47 66.22 2.00 343.20 2546.48
   13:42:10.400.25-Dec-2020 4921.01   31.46 66.22 2.00 343.40 2546.48
   13:42:10.600.25-Dec-2020 4921.01   31.44 66.22 2.00 343.60 2546.48
   13:42:10.800.25-Dec-2020 4921.01   31.49 66.22 2.00 343.80 2546.48
   13:42:11.000.25-Dec-2020 4921.01   31.49 66.22 2.00 344.00 2546.48
   13:42:11.200.25-Dec-2020 4921.01   31.49 66.22 2.00 344.20 2546.48
   13:42:11.400.25-Dec-2020 4921.01   31.48 66.22 2.00 344.40 2546.48
   13:42:11.600.25-Dec-2020 4921.01   31.53 66.22 2.00 344.60 2546.48
   13:42:11.800.25-Dec-2020 4921.01   31.52 66.22 2.00 344.80 2546.48
