~Version Information
 VERS.                  2.0:   CWLS log ASCII Standard -VERSION 2.0
 WRAP.                   NO:   One line per depth step
~Well Information Block
#MNEM.UNIT     VALUE/NAME     DESCRIPTION
#---------     -----------    ---------------------------
 STRT.S             21:28:23 25-Dec-20: START TIME 21:28:23 25-Dec-20
 STOP.S             21:36:48 25-Dec-20: STOP TIME  21:36:48 25-Dec-20
 STEP.S                   0.00: STEP TIME
 NULL.                 -999.25: NULL VALUE
 DFWT.                        :  DIST FWL TEXT
 DFST.                        :  DIST FSL TEXT
 DMF .             Drill Floor:  DRILL MEAS FROM
 STIM.      04.54.24 22-Sep-20:  START TIME
 DATE.      04.54.24 21-Nov-20:  END TIME
 SPUD.               21-Nov-20:  SPUD DATE
 NREF.                    Grid:  NORTH REFERENCE
 HPTY.       Minimum Curvature:  HOLE POS TYPE
 DMOD.             Drill Model:  DRILL MOD DESC
 SVYD.                  Survey:  SURVEY DESC
 ILTD.               Lithology:  INTERP LTH DESC
 FTOP.          Formation Tops:  FORM TOPS DESC
 SON .        AZ-XX-0906571587:  JOB NUMBER
 COMP.     BP Exploration (Caspian Sea) Ltd:  COMPANY
 UWI .                     N/A:  UNIQUE WELL IDENTIFIER
 API .                     N/A:  API NUMBER
 BASE.              Azerbaijan:  LOGGING EQUIPMENT BASE LOCATION
 REGN.                   EESSA:  REGION
 PROV.                    Baku:  PROVINCE
 STAT.                    Baku:  STATE NAME
 CTRY.              Azerbaijan:  COUNTRY NAME
 FLD .                     ACG:  FIELD NAME
 SRVC.     TURAN Drilling & Engineering:  CONTRACTOR
 WELL.                     J27:  WELL NAME
 RIG .             West Chirag:  RIG NAME
 DOE .                     N/A:  DOE NUMBER
 DCON.         Sperry Drilling:  DIRECTNL CONTR
 PDAT.          Mean Sea Level:  PERMANENT DATUM
 WTYP.                Deviated:  WELL TYPE
 MWDS.                    Baku:  MWD SHOP
 JOBN.        AZ-XX-0906571587:  JOB TICKET NUMB
 UNIT.                     N/A:  LOGGING EQUIPMENT ID
 MDS .        Operator Entered:  MAG DATA SOURCE
 CNTY.                        :  COUNTY
 LOC .                        :  LOCATION
 LMF .             Drill Floor:  LOG MEASURED FROM
 TVDS.m                  43.00:  TVDSS CORRECTN
 LATI.deg                40.13:  LATITUDE
 LONG.deg                51.22:  LONGITUDE
 WHNS.m                   7.72:  WELL HEAD N/S
 WHEW.m                 -14.24:  WELL HEAD E/W
 UTMX.m              519005.06:  UTM X
 UTMY.m             4443793.85:  UTM Y
 DFWL.m                   0.00:  DISTANCE FWL
 DFSL.m                   0.00:  DISTANCE FSL
 SDEP.m                 347.00:  START DEPTH
 TDD .m                 581.00:  TOTAL DEPTH (DRILLER)
 VSDR.deg               159.72:  VERT SEC DIRECT
 GVFD.g                   1.00:  GRAVITY FIELD
 MFLD.nT              50318.00:  MAGNETIC FIELD
 MDIP.deg                59.57:  MAGNETIC DIP
 MDEC.deg                 6.44:  MAGNETIC DECL
 GRDC.deg                 0.15:  GRID CORRECTION
 AZTC.deg                 6.29:  AZM TOTAL CORR
 EPD .m                   0.00:  ELEVATION
 EGL .m                   0.00:  GROUND ELEVATION
 WDMS.m                 169.80:  WD ELEV
 APD .m                  43.00:  DEPTH ABOVE PD
 AGAP.m                  43.00:  AIR GAP
 VSEW.m                 -14.24:  VERT SEC E/W
 VSNS.m                   7.72:  VERT SEC N/S
 DEP .m                 342.45:  DEPTH
 EKB .m                   0.00:  KB ELEVATION
 EDF .m                  43.00:  DF ELEVATION
 TDL .m                 237.00:  TOTAL DEPTH (LOGGER)
 VSC .                       0:  VS TO CLOSURE
 MAGU.                 1851428:  MAGUTM CHECKSUM
~Parameter Information Block
#MNEM.UNIT       Value        Description
#---------     -----------    ---------------------------
 AV  .mps                 1.50:  Ann Velocity 
 AVMX.mps                 2.90:  Max Ann Veloc 
 AZIF.deg               115.59:  Azm, Final 
 BHAT.        Rotary Steerable:  BHA Type 
 BROT.°/30m               0.50:  Build Rotating 
 BS  .in                  8.50:  Bit Size 
 BTPL.psig              580.00:  Bit Press Loss 
 CABU.                     Yes:  Customer Abuse 
 COMM.                     Üc{:  Run Comments 1 
 TCS .hr                 89.79:  Time Ciculation Ended 
 CV  .mps                 3.22:  Crit Velocity 
 CVMX.mps                 4.37:  Max Crit Veloc 
 DD1 .          Rashad Habibov:  Direct Drillr 1 
 DDSV.               Geo-Pilot:  DD Service 
 DEFF.%                  95.00:  % Det Eff 
 DLRX.°/30m               1.94:  Dogleg Rot Max 
 DLSO.°/30m               0.70:  Dogleg Oriented 
 DLSX.°/30m               1.94:  Dogleg Str Max 
 DRET.      04.45.00 25-Dec-20:  Drill End Time 
 DRST.      10.00.00 24-Dec-20:  Drill Start Tim 
 DTIM.hr                 16.64:  Time Drilling 
 EDEP.m                4999.01:  End Depth 
 ENG1.         Elchin Mammadov:  Engineer 1 
 ENG2.          Ruslan Safarov:  Engineer 2 
 ENG3.          Rustam Safarov:  Engineer 3 
 ETIM.      09.00.00 29-Dec-20:  End Time 
 FLOI.gpm               500.00:  Flow In 
 FLON.gpm               400.00:  Flow In Min 
 FLOS.cptm                0.00:  Fluid Loss 
 FLOX.gpm               500.00:  Flow In Max 
 HFLO.                      No:  High Flow 
 HPRE.                      No:  High Pressure 
 HTEM.                      No:  High Temp 
 HYDO.m                   2.00:  Hydro Offset 
 IFIN.deg                66.79:  Inc, Final 
 IMAX.deg                67.66:  Inc Max 
 IMIN.deg                66.39:  Inc Min 
 IMND.m                4949.37:  Inc Min Depth 
 IMXD.m                4778.63:  Inc Max Depth 
 JARR.                     Yes:  Jarring 
 LETM.      04.45.00 25-Dec-20:  Log End Time 
 LOST.hr                     0:  Lost Rig Time 
 LSTM.      10.00.00 24-Dec-20:  Log Start Time 
 MDCL.ppm             39000.00:  Mud Chlorides 
 MDES.     Inversion Oil/Synthetic:  Mud Desc 
 DFD .sg                  1.33:  Mud Density 
 MDMN.sg                  1.33:  Dens Mud Min 
 MDMX.sg                  1.33:  Dens Mud Max 
 MOIL.                      70:  Run Mud Oil % 
 MOWR.                   70:30:  Run Mud OWR 
 MSND.                       0:  Run Mud Sand % 
 MSOL.                    17.4:  Run Mud Solids% 
 DFV .spqt               84.00:  Mud Viscosity 
 MWOD.in                  6.75:  MWD Tool OD 
 MWSI.                     Yes:  Serv Intrp, MWD 
 OTIM.hr                168.14:  Time Operating 
 PCON.           Look Like New:  Pad Condition 
 PMAX.psia            10822.93:  Press Op, Max 
 PV  .cP                 30.00:  Mud PV 
 RUN .                     900:  Run Number 
 ROPA.m/hr               18.00:  ROP Avg 
 ROPN.m/hr               12.00:  ROP Min 
 ROPX.m/hr               25.00:  ROP Max 
 RPMA.rpm               120.00:  RPM Surface Avg 
 RPMN.rpm               100.00:  RPM Surface Min 
 RPMX.rpm               120.00:  RPM Surface Max 
 RRUN.                    0900:  Rig Run Number 
 SAZI.deg               115.08:  Azm, Start 
 SDEP.m                4762.01:  Start Depth 
 SIDD.                      No:  Serv Intrp, DD 
 SINC.deg                66.14:  Inc, Start 
 SPPA.psig             3700.00:  SPP Avg 
 SPPN.psig             3620.00:  SPP Min 
 SPPX.psig             3900.00:  SPP Max 
 STIM.      09.30.00 22-Dec-20:  Start Time 
 SVCS.                 DD, MWD:  Services 
 SVER.                    9.20:  Sperry Version 
 TDAT.m                 237.00:  Tot Depth Attmp 
 TDDF.                      No:  Trip for DD 
 TDLG.m                 237.00:  Tot Depth Loggd 
 TFF .                      No:  Trip for Fail 
 TQAA.f-kp               18.00:  Torque Abs Avg 
 TQAN.f-kp               17.00:  Torque Abs Min 
 TQAX.f-kp               20.00:  Torque Abs Max 
 TRRT.°/30m               0.60:  Turn Rotating 
 MRT .                    HCIM:  Maximum Recorded Temperature 
 TTMX.degC               94.12:  Max Tool Temp 
 VS01.                90627809:  Virtual Str1 SN 
 VS02.                90527813:  Virtual Str2 SN 
 VS03.                90545417:  Virtual Str3 SN 
 VS04.                12460870:  Virtual Str4 SN 
 VS05.                90516706:  Virtual Str5 SN 
 VS06.                90632007:  Virtual Str6 SN 
 WBMN.klb                 0.00:  WOB Min 
 WOBA.klb                14.00:  WOB Avg 
 WOBX.klb                25.00:  WOB Max 
 YP  .lhf2               32.00:  Yield Point 
~Curve Information Block
#MNEM.UNIT                 API CODE     Curve Description
#---------               -----------    ---------------------------
 TIME.HHMMSS            00 000 000 000:  GT Time & Date
 GTDEPTH.m              00 000 000 000:  GT Depth
 GTPQH.psia             00 000 000 000:  GT HR Quartz Pressure
 GTTQ.degC              00 000 000 000:  GT Quartz Temperature
 GTTN.NONE              00 000 000 000:  GT Test Number
 GTET.sec               00 000 000 000:  GT Elapsed Test Time
 GTTVD.m                00 000 000 000:  GT True Vertical Depth
#Other Information
#
#WARRANTY: Halliburton will use its best efforts to furnish customers with 
#accurate information and interpretations that are part of, and incident to, the services 
#provided.  However, Halliburton cannot and does not warrant the accuracy 
#or correctness of such information and interpretations.  Under no circumstances should any 
#such information or interpretation be relied upon as the sole basis for any drilling, 
#completion, production, or financial decision or any procedure involving any risk to the 
#safety of any drilling venture, drilling rig or its crew or any other third party.  The 
#Customer has full responsibility for all drilling, completion and production operation.  
#Halliburton makes no representations or warranties, either expressed or 
#implied, including, but not limited to, the implied warranties of merchantability or fitness 
#for a particular purpose, with respect to the services rendered.  In no event will 
#Halliburton be liable for failure to obtain any particular results or for 
#any damages, including, but not limited to, indirect, special or consequential damages, 
#resulting from the use of any information or interpretation provided by Halliburton.
#
~A           TIME           GTDEPTH  GTPQH  GTTQ  GTTN  GTET   GTTVD  
# ...
   21:31:27.605.25-Dec-2020 4768.01 2842.78 63.84 9.00 183.99 2486.78
   21:31:27.805.25-Dec-2020 4768.01 2842.78 63.84 9.00 184.19 2486.78
   21:31:28.004.25-Dec-2020 4768.01 2499.05 63.84 9.00 184.39 2486.78
   21:31:28.204.25-Dec-2020 4768.01 2417.18 63.84 9.00 184.59 2486.78
   21:31:28.404.25-Dec-2020 4768.01 2373.48 63.84 9.00 184.79 2486.78
   21:31:28.604.25-Dec-2020 4768.01 2333.95 63.84 9.00 184.99 2486.78
   21:31:28.804.25-Dec-2020 4768.01 2333.95 63.84 9.00 185.19 2486.78
   21:31:29.004.25-Dec-2020 4768.01 2295.94 63.84 9.00 185.39 2486.78
   21:31:29.204.25-Dec-2020 4768.01 2282.94 63.84 9.00 185.59 2486.78
   21:31:29.404.25-Dec-2020 4768.01 2276.94 63.84 9.00 185.79 2486.78
   21:31:29.604.25-Dec-2020 4768.01 2268.29 63.84 9.00 185.99 2486.78
   21:31:29.804.25-Dec-2020 4768.01 2268.29 63.84 9.00 186.19 2486.78
   21:31:30.004.25-Dec-2020 4768.01 2251.60 63.83 9.00 186.39 2486.78
   21:31:30.204.25-Dec-2020 4768.01 2246.15 63.83 9.00 186.59 2486.78
   21:31:30.404.25-Dec-2020 4768.01 2249.73 63.83 9.00 186.79 2486.78
   21:31:30.604.25-Dec-2020 4768.01 2248.04 63.83 9.00 186.99 2486.78
   21:31:30.804.25-Dec-2020 4768.01 2248.04 63.83 9.00 187.19 2486.78
   21:31:31.004.25-Dec-2020 4768.01 2242.65 63.83 9.00 187.39 2486.78
   21:31:31.204.25-Dec-2020 4768.01 2236.74 63.83 9.00 187.59 2486.78
   21:31:31.404.25-Dec-2020 4768.01 2242.09 63.83 9.00 187.79 2486.78
   21:31:31.604.25-Dec-2020 4768.01 2233.72 63.83 9.00 187.99 2486.78
   21:31:31.804.25-Dec-2020 4768.01 2233.72 63.83 9.00 188.19 2486.78
   21:31:32.004.25-Dec-2020 4768.01 2238.09 63.83 9.00 188.39 2486.78
   21:31:32.204.25-Dec-2020 4768.01 2234.29 63.83 9.00 188.59 2486.78
   21:31:32.404.25-Dec-2020 4768.01 2237.31 63.83 9.00 188.79 2486.78
   21:31:32.604.25-Dec-2020 4768.01 2239.88 63.82 9.00 188.99 2486.78
   21:31:32.804.25-Dec-2020 4768.01 2239.88 63.82 9.00 189.19 2486.78
   21:31:33.004.25-Dec-2020 4768.01 2235.50 63.82 9.00 189.39 2486.78
   21:31:33.204.25-Dec-2020 4768.01 2240.13 63.82 9.00 189.59 2486.78
   21:31:33.404.25-Dec-2020 4768.01 2234.40 63.82 9.00 189.79 2486.78
   21:31:33.604.25-Dec-2020 4768.01 2238.91 63.82 9.00 189.99 2486.78
   21:31:33.804.25-Dec-2020 4768.01 2238.91 63.82 9.00 190.19 2486.78
   21:31:34.004.25-Dec-2020 4768.01 2242.98 63.82 9.00 190.39 2486.78
   21:31:34.204.25-Dec-2020 4768.01 2238.04 63.82 9.00 190.59 2486.78
   21:31:34.404.25-Dec-2020 4768.01 2240.97 63.82 9.00 190.79 2486.78
   21:31:34.604.25-Dec-2020 4768.01 2235.61 63.82 9.00 190.99 2486.78
   21:31:34.804.25-Dec-2020 4768.01 2238.40 63.82 9.00 191.19 2486.78
   21:31:35.004.25-Dec-2020 4768.01 2236.65 63.82 9.00 191.39 2486.78
   21:31:35.204.25-Dec-2020 4768.01 2233.98 63.82 9.00 191.59 2486.78
   21:31:35.404.25-Dec-2020 4768.01 2238.59 63.82 9.00 191.79 2486.78
   21:31:35.604.25-Dec-2020 4768.01 2233.87 63.81 9.00 191.99 2486.78
   21:31:35.804.25-Dec-2020 4768.01 2233.87 63.81 9.00 192.19 2486.78
   21:31:36.004.25-Dec-2020 4768.01 2238.71 63.81 9.00 192.39 2486.78
   21:31:36.204.25-Dec-2020 4768.01 2243.48 63.81 9.00 192.59 2486.78
   21:31:36.404.25-Dec-2020 4768.01 2239.48 63.81 9.00 192.79 2486.78
   21:31:36.604.25-Dec-2020 4768.01 2240.59 63.81 9.00 192.99 2486.78
   21:31:36.804.25-Dec-2020 4768.01 2240.59 63.81 9.00 193.19 2486.78
   21:31:37.004.25-Dec-2020 4768.01 2238.66 63.81 9.00 193.39 2486.78
   21:31:37.204.25-Dec-2020 4768.01 2232.11 63.81 9.00 193.59 2486.78
   21:31:37.404.25-Dec-2020 4768.01 2239.78 63.81 9.00 193.79 2486.78
   21:31:37.604.25-Dec-2020 4768.01 2442.71 63.81 9.00 193.99 2486.78
   21:31:37.804.25-Dec-2020 4768.01 2442.71 63.81 9.00 194.19 2486.78
   21:31:38.004.25-Dec-2020 4768.01 2848.70 63.81 9.00 194.39 2486.78
   21:31:38.204.25-Dec-2020 4768.01 2957.28 63.81 9.00 194.59 2486.78
   21:31:38.404.25-Dec-2020 4768.01 3032.70 63.81 9.00 194.79 2486.78
   21:31:38.604.25-Dec-2020 4768.01 3083.93 63.81 9.00 194.99 2486.78
   21:31:38.804.25-Dec-2020 4768.01 3083.93 63.81 9.00 195.19 2486.78
   21:31:39.004.25-Dec-2020 4768.01 3145.05 63.81 9.00 195.39 2486.78
   21:31:39.204.25-Dec-2020 4768.01 3161.76 63.81 9.00 195.59 2486.78
   21:31:39.404.25-Dec-2020 4768.01 3175.28 63.81 9.00 195.79 2486.78
   21:31:39.604.25-Dec-2020 4768.01 3184.54 63.81 9.00 195.99 2486.78
   21:31:39.804.25-Dec-2020 4768.01 3184.54 63.81 9.00 196.19 2486.78
   21:31:40.004.25-Dec-2020 4768.01 3196.33 63.81 9.00 196.39 2486.78
   21:31:40.204.25-Dec-2020 4768.01 3200.43 63.81 9.00 196.59 2486.78
   21:31:40.404.25-Dec-2020 4768.01 3204.23 63.81 9.00 196.79 2486.78
   21:31:40.604.25-Dec-2020 4768.01 3206.52 63.81 9.00 196.99 2486.78
   21:31:40.804.25-Dec-2020 4768.01 3206.52 63.81 9.00 197.19 2486.78
   21:31:41.004.25-Dec-2020 4768.01 3210.92 63.81 9.00 197.39 2486.78
   21:31:41.204.25-Dec-2020 4768.01 3212.02 63.81 9.00 197.59 2486.78
   21:31:41.404.25-Dec-2020 4768.01 3213.40 63.81 9.00 197.79 2486.78
   21:31:41.604.25-Dec-2020 4768.01 3214.33 63.81 9.00 197.99 2486.78
   21:31:41.804.25-Dec-2020 4768.01 3214.33 63.81 9.00 198.19 2486.78
   21:31:42.004.25-Dec-2020 4768.01 3216.38 63.82 9.00 198.39 2486.78
   21:31:42.204.25-Dec-2020 4768.01 3217.06 63.82 9.00 198.59 2486.78
   21:31:42.404.25-Dec-2020 4768.01 3217.89 63.82 9.00 198.79 2486.78
   21:31:42.604.25-Dec-2020 4768.01 3218.63 63.82 9.00 198.99 2486.78
   21:31:42.804.25-Dec-2020 4768.01 3218.63 63.82 9.00 199.19 2486.78
   21:31:43.003.25-Dec-2020 4768.01 3219.95 63.82 9.00 199.39 2486.78
   21:31:43.203.25-Dec-2020 4768.01 3220.08 63.82 9.00 199.59 2486.78
   21:31:43.403.25-Dec-2020 4768.01 3220.92 63.82 9.00 199.79 2486.78
   21:31:43.603.25-Dec-2020 4768.01 3221.90 63.82 9.00 199.99 2486.78
   21:31:43.803.25-Dec-2020 4768.01 3221.90 63.82 9.00 200.19 2486.78
   21:31:44.003.25-Dec-2020 4768.01 3222.83 63.82 9.00 200.39 2486.78
   21:31:44.203.25-Dec-2020 4768.01 3223.11 63.82 9.00 200.59 2486.78
   21:31:44.403.25-Dec-2020 4768.01 3223.64 63.82 9.00 200.79 2486.78
   21:31:44.603.25-Dec-2020 4768.01 3224.08 63.82 9.00 200.99 2486.78
   21:31:44.803.25-Dec-2020 4768.01 3224.08 63.82 9.00 201.19 2486.78
   21:31:45.003.25-Dec-2020 4768.01 3224.85 63.82 9.00 201.39 2486.78
   21:31:45.203.25-Dec-2020 4768.01 3225.09 63.82 9.00 201.59 2486.78
   21:31:45.403.25-Dec-2020 4768.01 3225.44 63.82 9.00 201.79 2486.78
   21:31:45.603.25-Dec-2020 4768.01 3225.84 63.83 9.00 201.99 2486.78
   21:31:45.803.25-Dec-2020 4768.01 3225.84 63.83 9.00 202.19 2486.78
   21:31:46.003.25-Dec-2020 4768.01 3226.96 63.83 9.00 202.39 2486.78
   21:31:46.203.25-Dec-2020 4768.01 3227.36 63.83 9.00 202.59 2486.78
   21:31:46.403.25-Dec-2020 4768.01 3227.42 63.83 9.00 202.79 2486.78
   21:31:46.603.25-Dec-2020 4768.01 3226.46 63.83 9.00 202.99 2486.78
   21:31:46.803.25-Dec-2020 4768.01 3228.72 63.83 9.00 203.19 2486.78
   21:31:47.003.25-Dec-2020 4768.01 3228.36 63.83 9.00 203.39 2486.78
   21:31:47.203.25-Dec-2020 4768.01 3228.71 63.83 9.00 203.59 2486.78
   21:31:47.403.25-Dec-2020 4768.01 3228.51 63.83 9.00 203.79 2486.78
   21:31:47.603.25-Dec-2020 4768.01 3228.89 63.83 9.00 203.99 2486.78
   21:31:47.803.25-Dec-2020 4768.01 3228.89 63.83 9.00 204.19 2486.78
   21:31:48.003.25-Dec-2020 4768.01 3230.12 63.83 9.00 204.39 2486.78
   21:31:48.203.25-Dec-2020 4768.01 3229.94 63.83 9.00 204.59 2486.78
   21:31:48.403.25-Dec-2020 4768.01 3230.09 63.83 9.00 204.79 2486.78
   21:31:48.603.25-Dec-2020 4768.01 3229.57 63.83 9.00 204.99 2486.78
   21:31:48.803.25-Dec-2020 4768.01 3229.57 63.83 9.00 205.19 2486.78
   21:31:49.003.25-Dec-2020 4768.01 3230.93 63.83 9.00 205.39 2486.78
   21:31:49.203.25-Dec-2020 4768.01 3231.15 63.83 9.00 205.59 2486.78
   21:31:49.403.25-Dec-2020 4768.01 3231.23 63.83 9.00 205.79 2486.78
   21:31:49.603.25-Dec-2020 4768.01 3231.42 63.83 9.00 205.99 2486.78
   21:31:49.803.25-Dec-2020 4768.01 3231.42 63.83 9.00 206.19 2486.78
   21:31:50.003.25-Dec-2020 4768.01 3231.68 63.83 9.00 206.39 2486.78
   21:31:50.203.25-Dec-2020 4768.01 3231.76 63.83 9.00 206.59 2486.78
   21:31:50.403.25-Dec-2020 4768.01 3231.88 63.83 9.00 206.79 2486.78
