~Version Information
 VERS.                  2.0:   CWLS log ASCII Standard -VERSION 2.0
 WRAP.                   NO:   One line per depth step
~Well Information Block
#MNEM.UNIT     VALUE/NAME     DESCRIPTION
#---------     -----------    ---------------------------
 STRT.S             21:28:23 25-Dec-20: START TIME 21:28:23 25-Dec-20
 STOP.S             21:36:48 25-Dec-20: STOP TIME  21:36:48 25-Dec-20
 STEP.S                   0.00: STEP TIME
 NULL.                 -999.25: NULL VALUE
 DFWT.                        :  DIST FWL TEXT
 DFST.                        :  DIST FSL TEXT
 DMF .             Drill Floor:  DRILL MEAS FROM
 STIM.      04.54.24 22-Sep-20:  START TIME
 DATE.      04.54.24 21-Nov-20:  END TIME
 SPUD.               21-Nov-20:  SPUD DATE
 NREF.                    Grid:  NORTH REFERENCE
 HPTY.       Minimum Curvature:  HOLE POS TYPE
 DMOD.             Drill Model:  DRILL MOD DESC
 SVYD.                  Survey:  SURVEY DESC
 ILTD.               Lithology:  INTERP LTH DESC
 FTOP.          Formation Tops:  FORM TOPS DESC
 SON .        AZ-XX-0906571587:  JOB NUMBER
 COMP.     BP Exploration (Caspian Sea) Ltd:  COMPANY
 UWI .                     N/A:  UNIQUE WELL IDENTIFIER
 API .                     N/A:  API NUMBER
 BASE.              Azerbaijan:  LOGGING EQUIPMENT BASE LOCATION
 REGN.                   EESSA:  REGION
 PROV.                    Baku:  PROVINCE
 STAT.                    Baku:  STATE NAME
 CTRY.              Azerbaijan:  COUNTRY NAME
 FLD .                     ACG:  FIELD NAME
 SRVC.     TURAN Drilling & Engineering:  CONTRACTOR
 WELL.                     J27:  WELL NAME
 RIG .             West Chirag:  RIG NAME
 DOE .                     N/A:  DOE NUMBER
 DCON.         Sperry Drilling:  DIRECTNL CONTR
 PDAT.          Mean Sea Level:  PERMANENT DATUM
 WTYP.                Deviated:  WELL TYPE
 MWDS.                    Baku:  MWD SHOP
 JOBN.        AZ-XX-0906571587:  JOB TICKET NUMB
 UNIT.                     N/A:  LOGGING EQUIPMENT ID
 MDS .        Operator Entered:  MAG DATA SOURCE
 CNTY.                        :  COUNTY
 LOC .                        :  LOCATION
 LMF .             Drill Floor:  LOG MEASURED FROM
 TVDS.m                  43.00:  TVDSS CORRECTN
 LATI.deg                40.13:  LATITUDE
 LONG.deg                51.22:  LONGITUDE
 WHNS.m                   7.72:  WELL HEAD N/S
 WHEW.m                 -14.24:  WELL HEAD E/W
 UTMX.m              519005.06:  UTM X
 UTMY.m             4443793.85:  UTM Y
 DFWL.m                   0.00:  DISTANCE FWL
 DFSL.m                   0.00:  DISTANCE FSL
 SDEP.m                 347.00:  START DEPTH
 TDD .m                 581.00:  TOTAL DEPTH (DRILLER)
 VSDR.deg               159.72:  VERT SEC DIRECT
 GVFD.g                   1.00:  GRAVITY FIELD
 MFLD.nT              50318.00:  MAGNETIC FIELD
 MDIP.deg                59.57:  MAGNETIC DIP
 MDEC.deg                 6.44:  MAGNETIC DECL
 GRDC.deg                 0.15:  GRID CORRECTION
 AZTC.deg                 6.29:  AZM TOTAL CORR
 EPD .m                   0.00:  ELEVATION
 EGL .m                   0.00:  GROUND ELEVATION
 WDMS.m                 169.80:  WD ELEV
 APD .m                  43.00:  DEPTH ABOVE PD
 AGAP.m                  43.00:  AIR GAP
 VSEW.m                 -14.24:  VERT SEC E/W
 VSNS.m                   7.72:  VERT SEC N/S
 DEP .m                 342.45:  DEPTH
 EKB .m                   0.00:  KB ELEVATION
 EDF .m                  43.00:  DF ELEVATION
 TDL .m                 237.00:  TOTAL DEPTH (LOGGER)
 VSC .                       0:  VS TO CLOSURE
 MAGU.                 1851428:  MAGUTM CHECKSUM
~Parameter Information Block
#MNEM.UNIT       Value        Description
#---------     -----------    ---------------------------
 AV  .mps                 1.50:  Ann Velocity 
 AVMX.mps                 2.90:  Max Ann Veloc 
 AZIF.deg               115.59:  Azm, Final 
 BHAT.        Rotary Steerable:  BHA Type 
 BROT.°/30m               0.50:  Build Rotating 
 BS  .in                  8.50:  Bit Size 
 BTPL.psig              580.00:  Bit Press Loss 
 CABU.                     Yes:  Customer Abuse 
 COMM.                     Üc{:  Run Comments 1 
 TCS .hr                 89.79:  Time Ciculation Ended 
 CV  .mps                 3.22:  Crit Velocity 
 CVMX.mps                 4.37:  Max Crit Veloc 
 DD1 .          Rashad Habibov:  Direct Drillr 1 
 DDSV.               Geo-Pilot:  DD Service 
 DEFF.%                  95.00:  % Det Eff 
 DLRX.°/30m               1.94:  Dogleg Rot Max 
 DLSO.°/30m               0.70:  Dogleg Oriented 
 DLSX.°/30m               1.94:  Dogleg Str Max 
 DRET.      04.45.00 25-Dec-20:  Drill End Time 
 DRST.      10.00.00 24-Dec-20:  Drill Start Tim 
 DTIM.hr                 16.64:  Time Drilling 
 EDEP.m                4999.01:  End Depth 
 ENG1.         Elchin Mammadov:  Engineer 1 
 ENG2.          Ruslan Safarov:  Engineer 2 
 ENG3.          Rustam Safarov:  Engineer 3 
 ETIM.      09.00.00 29-Dec-20:  End Time 
 FLOI.gpm               500.00:  Flow In 
 FLON.gpm               400.00:  Flow In Min 
 FLOS.cptm                0.00:  Fluid Loss 
 FLOX.gpm               500.00:  Flow In Max 
 HFLO.                      No:  High Flow 
 HPRE.                      No:  High Pressure 
 HTEM.                      No:  High Temp 
 HYDO.m                   2.00:  Hydro Offset 
 IFIN.deg                66.79:  Inc, Final 
 IMAX.deg                67.66:  Inc Max 
 IMIN.deg                66.39:  Inc Min 
 IMND.m                4949.37:  Inc Min Depth 
 IMXD.m                4778.63:  Inc Max Depth 
 JARR.                     Yes:  Jarring 
 LETM.      04.45.00 25-Dec-20:  Log End Time 
 LOST.hr                     0:  Lost Rig Time 
 LSTM.      10.00.00 24-Dec-20:  Log Start Time 
 MDCL.ppm             39000.00:  Mud Chlorides 
 MDES.     Inversion Oil/Synthetic:  Mud Desc 
 DFD .sg                  1.33:  Mud Density 
 MDMN.sg                  1.33:  Dens Mud Min 
 MDMX.sg                  1.33:  Dens Mud Max 
 MOIL.                      70:  Run Mud Oil % 
 MOWR.                   70:30:  Run Mud OWR 
 MSND.                       0:  Run Mud Sand % 
 MSOL.                    17.4:  Run Mud Solids% 
 DFV .spqt               84.00:  Mud Viscosity 
 MWOD.in                  6.75:  MWD Tool OD 
 MWSI.                     Yes:  Serv Intrp, MWD 
 OTIM.hr                168.14:  Time Operating 
 PCON.           Look Like New:  Pad Condition 
 PMAX.psia            10822.93:  Press Op, Max 
 PV  .cP                 30.00:  Mud PV 
 RUN .                     900:  Run Number 
 ROPA.m/hr               18.00:  ROP Avg 
 ROPN.m/hr               12.00:  ROP Min 
 ROPX.m/hr               25.00:  ROP Max 
 RPMA.rpm               120.00:  RPM Surface Avg 
 RPMN.rpm               100.00:  RPM Surface Min 
 RPMX.rpm               120.00:  RPM Surface Max 
 RRUN.                    0900:  Rig Run Number 
 SAZI.deg               115.08:  Azm, Start 
 SDEP.m                4762.01:  Start Depth 
 SIDD.                      No:  Serv Intrp, DD 
 SINC.deg                66.14:  Inc, Start 
 SPPA.psig             3700.00:  SPP Avg 
 SPPN.psig             3620.00:  SPP Min 
 SPPX.psig             3900.00:  SPP Max 
 STIM.      09.30.00 22-Dec-20:  Start Time 
 SVCS.                 DD, MWD:  Services 
 SVER.                    9.20:  Sperry Version 
 TDAT.m                 237.00:  Tot Depth Attmp 
 TDDF.                      No:  Trip for DD 
 TDLG.m                 237.00:  Tot Depth Loggd 
 TFF .                      No:  Trip for Fail 
 TQAA.f-kp               18.00:  Torque Abs Avg 
 TQAN.f-kp               17.00:  Torque Abs Min 
 TQAX.f-kp               20.00:  Torque Abs Max 
 TRRT.°/30m               0.60:  Turn Rotating 
 MRT .                    HCIM:  Maximum Recorded Temperature 
 TTMX.degC               94.12:  Max Tool Temp 
 VS01.                90627809:  Virtual Str1 SN 
 VS02.                90527813:  Virtual Str2 SN 
 VS03.                90545417:  Virtual Str3 SN 
 VS04.                12460870:  Virtual Str4 SN 
 VS05.                90516706:  Virtual Str5 SN 
 VS06.                90632007:  Virtual Str6 SN 
 WBMN.klb                 0.00:  WOB Min 
 WOBA.klb                14.00:  WOB Avg 
 WOBX.klb                25.00:  WOB Max 
 YP  .lhf2               32.00:  Yield Point 
~Curve Information Block
#MNEM.UNIT                 API CODE     Curve Description
#---------               -----------    ---------------------------
 TIME.HHMMSS            00 000 000 000:  GT Time & Date
 GTDEPTH.m              00 000 000 000:  GT Depth
 GTPQH.psia             00 000 000 000:  GT HR Quartz Pressure
 GTTQ.degC              00 000 000 000:  GT Quartz Temperature
 GTTN.NONE              00 000 000 000:  GT Test Number
 GTET.sec               00 000 000 000:  GT Elapsed Test Time
 GTTVD.m                00 000 000 000:  GT True Vertical Depth
#Other Information
#
#WARRANTY: Halliburton will use its best efforts to furnish customers with 
#accurate information and interpretations that are part of, and incident to, the services 
#provided.  However, Halliburton cannot and does not warrant the accuracy 
#or correctness of such information and interpretations.  Under no circumstances should any 
#such information or interpretation be relied upon as the sole basis for any drilling, 
#completion, production, or financial decision or any procedure involving any risk to the 
#safety of any drilling venture, drilling rig or its crew or any other third party.  The 
#Customer has full responsibility for all drilling, completion and production operation.  
#Halliburton makes no representations or warranties, either expressed or 
#implied, including, but not limited to, the implied warranties of merchantability or fitness 
#for a particular purpose, with respect to the services rendered.  In no event will 
#Halliburton be liable for failure to obtain any particular results or for 
#any damages, including, but not limited to, indirect, special or consequential damages, 
#resulting from the use of any information or interpretation provided by Halliburton.
#
~A           TIME           GTDEPTH  GTPQH  GTTQ  GTTN  GTET   GTTVD  
   21:28:23.617.25-Dec-2020 4768.01 5355.99 63.96 9.00   0.00 2486.78
   21:28:23.817.25-Dec-2020 4768.01 5355.99 63.96 9.00   0.20 2486.78
   21:28:24.017.25-Dec-2020 4768.01 5342.67 63.96 9.00   0.40 2486.78
   21:28:24.217.25-Dec-2020 4768.01 5349.36 63.96 9.00   0.60 2486.78
   21:28:24.417.25-Dec-2020 4768.01 5344.57 63.96 9.00   0.80 2486.78
   21:28:24.617.25-Dec-2020 4768.01 5349.03 63.96 9.00   1.00 2486.78
   21:28:24.817.25-Dec-2020 4768.01 5349.03 63.96 9.00   1.20 2486.78
   21:28:25.017.25-Dec-2020 4768.01 5343.74 63.96 9.00   1.40 2486.78
   21:28:25.217.25-Dec-2020 4768.01 5349.36 63.96 9.00   1.60 2486.78
   21:28:25.417.25-Dec-2020 4768.01 5357.29 63.96 9.00   1.80 2486.78
   21:28:25.617.25-Dec-2020 4768.01 5343.16 63.96 9.00   2.00 2486.78
   21:28:25.817.25-Dec-2020 4768.01 5343.16 63.96 9.00   2.20 2486.78
   21:28:26.016.25-Dec-2020 4768.01 5364.62 63.96 9.00   2.40 2486.78
   21:28:26.216.25-Dec-2020 4768.01 5343.36 63.96 9.00   2.60 2486.78
   21:28:26.416.25-Dec-2020 4768.01 5352.51 63.96 9.00   2.80 2486.78
   21:28:26.616.25-Dec-2020 4768.01 5365.88 63.96 9.00   3.00 2486.78
   21:28:26.816.25-Dec-2020 4768.01 5365.88 63.96 9.00   3.20 2486.78
   21:28:27.016.25-Dec-2020 4768.01 5366.81 63.96 9.00   3.40 2486.78
   21:28:27.216.25-Dec-2020 4768.01 5355.27 63.96 9.00   3.60 2486.78
   21:28:27.416.25-Dec-2020 4768.01 5354.70 63.96 9.00   3.80 2486.78
   21:28:27.616.25-Dec-2020 4768.01 5365.46 63.96 9.00   4.00 2486.78
   21:28:27.816.25-Dec-2020 4768.01 5365.46 63.96 9.00   4.20 2486.78
   21:28:28.016.25-Dec-2020 4768.01 5356.23 63.96 9.00   4.40 2486.78
   21:28:28.216.25-Dec-2020 4768.01 5361.88 63.96 9.00   4.60 2486.78
   21:28:28.416.25-Dec-2020 4768.01 5359.74 63.96 9.00   4.80 2486.78
   21:28:28.616.25-Dec-2020 4768.01 5357.77 63.96 9.00   5.00 2486.78
   21:28:28.816.25-Dec-2020 4768.01 5357.77 63.96 9.00   5.20 2486.78
   21:28:29.016.25-Dec-2020 4768.01 5358.06 63.96 9.00   5.40 2486.78
   21:28:29.216.25-Dec-2020 4768.01 5357.97 63.96 9.00   5.60 2486.78
   21:28:29.416.25-Dec-2020 4768.01 5358.91 63.96 9.00   5.80 2486.78
   21:28:29.616.25-Dec-2020 4768.01 5357.66 63.96 9.00   6.00 2486.78
   21:28:29.816.25-Dec-2020 4768.01 5357.66 63.96 9.00   6.20 2486.78
   21:28:30.016.25-Dec-2020 4768.01 5358.42 63.96 9.00   6.40 2486.78
   21:28:30.216.25-Dec-2020 4768.01 5358.97 63.96 9.00   6.60 2486.78
   21:28:30.416.25-Dec-2020 4768.01 5369.79 63.96 9.00   6.80 2486.78
   21:28:30.616.25-Dec-2020 4768.01 5355.37 63.96 9.00   7.00 2486.78
   21:28:30.816.25-Dec-2020 4768.01 5355.37 63.96 9.00   7.20 2486.78
   21:28:31.016.25-Dec-2020 4768.01 5365.02 63.96 9.00   7.40 2486.78
   21:28:31.216.25-Dec-2020 4768.01 5360.19 63.96 9.00   7.60 2486.78
   21:28:31.416.25-Dec-2020 4768.01 5363.03 63.96 9.00   7.80 2486.78
   21:28:31.616.25-Dec-2020 4768.01 5360.55 63.96 9.00   8.00 2486.78
   21:28:31.816.25-Dec-2020 4768.01 5360.55 63.96 9.00   8.20 2486.78
   21:28:32.016.25-Dec-2020 4768.01 5361.59 63.96 9.00   8.40 2486.78
   21:28:32.216.25-Dec-2020 4768.01 5361.28 63.96 9.00   8.60 2486.78
   21:28:32.416.25-Dec-2020 4768.01 5363.22 63.96 9.00   8.80 2486.78
   21:28:32.616.25-Dec-2020 4768.01 5361.24 63.96 9.00   9.00 2486.78
   21:28:32.816.25-Dec-2020 4768.01 5361.24 63.96 9.00   9.20 2486.78
   21:28:33.016.25-Dec-2020 4768.01 5363.10 63.96 9.00   9.40 2486.78
   21:28:33.216.25-Dec-2020 4768.01 5370.48 63.96 9.00   9.60 2486.78
   21:28:33.416.25-Dec-2020 4768.01 5361.31 63.95 9.00   9.80 2486.78
   21:28:33.616.25-Dec-2020 4768.01 5365.33 63.95 9.00  10.00 2486.78
   21:28:33.816.25-Dec-2020 4768.01 5365.33 63.95 9.00  10.20 2486.78
   21:28:34.016.25-Dec-2020 4768.01 5374.49 63.95 9.00  10.40 2486.78
   21:28:34.216.25-Dec-2020 4768.01 5359.07 63.95 9.00  10.60 2486.78
   21:28:34.416.25-Dec-2020 4768.01 5366.05 63.95 9.00  10.80 2486.78
   21:28:34.616.25-Dec-2020 4768.01 5369.35 63.95 9.00  11.00 2486.78
   21:28:34.816.25-Dec-2020 4768.01 5369.35 63.95 9.00  11.20 2486.78
   21:28:35.016.25-Dec-2020 4768.01 5367.68 63.95 9.00  11.40 2486.78
   21:28:35.216.25-Dec-2020 4768.01 5364.81 63.95 9.00  11.60 2486.78
   21:28:35.416.25-Dec-2020 4768.01 5369.34 63.95 9.00  11.80 2486.78
   21:28:35.616.25-Dec-2020 4768.01 5366.14 63.95 9.00  12.00 2486.78
   21:28:35.816.25-Dec-2020 4768.01 5366.14 63.95 9.00  12.20 2486.78
   21:28:36.016.25-Dec-2020 4768.01 5361.92 63.95 9.00  12.40 2486.78
   21:28:36.216.25-Dec-2020 4768.01 5374.49 63.95 9.00  12.60 2486.78
   21:28:36.416.25-Dec-2020 4768.01 5372.86 63.95 9.00  12.80 2486.78
   21:28:36.616.25-Dec-2020 4768.01 5363.17 63.95 9.00  13.00 2486.78
   21:28:36.816.25-Dec-2020 4768.01 5363.17 63.95 9.00  13.20 2486.78
   21:28:37.016.25-Dec-2020 4768.01 5368.18 63.95 9.00  13.40 2486.78
   21:28:37.216.25-Dec-2020 4768.01 5366.62 63.95 9.00  13.60 2486.78
   21:28:37.416.25-Dec-2020 4768.01 5376.06 63.95 9.00  13.80 2486.78
   21:28:37.616.25-Dec-2020 4768.01 5363.39 63.95 9.00  14.00 2486.78
   21:28:37.816.25-Dec-2020 4768.01 5363.39 63.95 9.00  14.20 2486.78
   21:28:38.016.25-Dec-2020 4768.01 5370.88 63.95 9.00  14.40 2486.78
   21:28:38.216.25-Dec-2020 4768.01 5366.73 63.95 9.00  14.60 2486.78
   21:28:38.416.25-Dec-2020 4768.01 5369.35 63.95 9.00  14.80 2486.78
   21:28:38.616.25-Dec-2020 4768.01 5368.35 63.95 9.00  15.00 2486.78
   21:28:38.816.25-Dec-2020 4768.01 5368.35 63.95 9.00  15.20 2486.78
   21:28:39.016.25-Dec-2020 4768.01 5368.45 63.95 9.00  15.40 2486.78
   21:28:39.216.25-Dec-2020 4768.01 5368.59 63.95 9.00  15.60 2486.78
   21:28:39.416.25-Dec-2020 4768.01 5369.53 63.95 9.00  15.80 2486.78
   21:28:39.616.25-Dec-2020 4768.01 5368.65 63.95 9.00  16.00 2486.78
   21:28:39.816.25-Dec-2020 4768.01 5368.65 63.95 9.00  16.20 2486.78
   21:28:40.016.25-Dec-2020 4768.01 5365.15 63.95 9.00  16.40 2486.78
   21:28:40.216.25-Dec-2020 4768.01 5371.44 63.95 9.00  16.60 2486.78
   21:28:40.416.25-Dec-2020 4768.01 5377.22 63.95 9.00  16.80 2486.78
   21:28:40.616.25-Dec-2020 4768.01 5367.85 63.95 9.00  17.00 2486.78
   21:28:40.816.25-Dec-2020 4768.01 5367.85 63.95 9.00  17.20 2486.78
   21:28:41.016.25-Dec-2020 4768.01 5372.32 63.95 9.00  17.40 2486.78
   21:28:41.215.25-Dec-2020 4768.01 5370.18 63.95 9.00  17.60 2486.78
   21:28:41.415.25-Dec-2020 4768.01 5372.72 63.95 9.00  17.80 2486.78
   21:28:41.615.25-Dec-2020 4768.01 5370.59 63.95 9.00  18.00 2486.78
   21:28:41.815.25-Dec-2020 4768.01 5370.59 63.95 9.00  18.20 2486.78
   21:28:42.015.25-Dec-2020 4768.01 5372.47 63.95 9.00  18.40 2486.78
   21:28:42.215.25-Dec-2020 4768.01 5371.55 63.95 9.00  18.60 2486.78
   21:28:42.415.25-Dec-2020 4768.01 5383.61 63.95 9.00  18.80 2486.78
   21:28:42.615.25-Dec-2020 4768.01 5368.42 63.95 9.00  19.00 2486.78
   21:28:42.815.25-Dec-2020 4768.01 5368.42 63.95 9.00  19.20 2486.78
   21:28:43.015.25-Dec-2020 4768.01 5378.21 63.95 9.00  19.40 2486.78
   21:28:43.215.25-Dec-2020 4768.01 5371.57 63.95 9.00  19.60 2486.78
   21:28:43.415.25-Dec-2020 4768.01 5385.71 63.95 9.00  19.80 2486.78
   21:28:43.615.25-Dec-2020 4768.01 5369.71 63.95 9.00  20.00 2486.78
   21:28:43.815.25-Dec-2020 4768.01 5369.71 63.95 9.00  20.20 2486.78
   21:28:44.015.25-Dec-2020 4768.01 5379.91 63.95 9.00  20.40 2486.78
   21:28:44.215.25-Dec-2020 4768.01 5372.32 63.95 9.00  20.60 2486.78
   21:28:44.415.25-Dec-2020 4768.01 5382.10 63.95 9.00  20.80 2486.78
   21:28:44.615.25-Dec-2020 4768.01 5376.01 63.95 9.00  21.00 2486.78
   21:28:44.815.25-Dec-2020 4768.01 5376.01 63.95 9.00  21.20 2486.78
   21:28:45.015.25-Dec-2020 4768.01 5385.24 63.94 9.00  21.40 2486.78
   21:28:45.215.25-Dec-2020 4768.01 5377.32 63.94 9.00  21.60 2486.78
   21:28:45.415.25-Dec-2020 4768.01 5376.71 63.94 9.00  21.80 2486.78
   21:28:45.615.25-Dec-2020 4768.01 5378.85 63.94 9.00  22.00 2486.78
   21:28:45.815.25-Dec-2020 4768.01 5378.85 63.94 9.00  22.20 2486.78
   21:28:46.015.25-Dec-2020 4768.01 5376.82 63.94 9.00  22.40 2486.78
   21:28:46.215.25-Dec-2020 4768.01 5373.97 63.94 9.00  22.60 2486.78
   21:28:46.415.25-Dec-2020 4768.01 5377.46 63.94 9.00  22.80 2486.78
