~Version Information
 VERS.                  2.0:   CWLS log ASCII Standard -VERSION 2.0
 WRAP.                   NO:   One line per depth step
~Well Information Block
#MNEM.UNIT     VALUE/NAME     DESCRIPTION
#---------     -----------    ---------------------------
 STRT.S             19:12:01 25-Dec-20: START TIME 19:12:01 25-Dec-20
 STOP.S             19:20:19 25-Dec-20: STOP TIME  19:20:19 25-Dec-20
 STEP.S                   0.00: STEP TIME
 NULL.                 -999.25: NULL VALUE
 DFWT.                        :  DIST FWL TEXT
 DFST.                        :  DIST FSL TEXT
 DMF .             Drill Floor:  DRILL MEAS FROM
 STIM.      04.54.24 22-Sep-20:  START TIME
 DATE.      04.54.24 21-Nov-20:  END TIME
 SPUD.               21-Nov-20:  SPUD DATE
 NREF.                    Grid:  NORTH REFERENCE
 HPTY.       Minimum Curvature:  HOLE POS TYPE
 DMOD.             Drill Model:  DRILL MOD DESC
 SVYD.                  Survey:  SURVEY DESC
 ILTD.               Lithology:  INTERP LTH DESC
 FTOP.          Formation Tops:  FORM TOPS DESC
 SON .        AZ-XX-0906571587:  JOB NUMBER
 COMP.     BP Exploration (Caspian Sea) Ltd:  COMPANY
 UWI .                     N/A:  UNIQUE WELL IDENTIFIER
 API .                     N/A:  API NUMBER
 BASE.              Azerbaijan:  LOGGING EQUIPMENT BASE LOCATION
 REGN.                   EESSA:  REGION
 PROV.                    Baku:  PROVINCE
 STAT.                    Baku:  STATE NAME
 CTRY.              Azerbaijan:  COUNTRY NAME
 FLD .                     ACG:  FIELD NAME
 SRVC.     TURAN Drilling & Engineering:  CONTRACTOR
 WELL.                     J27:  WELL NAME
 RIG .             West Chirag:  RIG NAME
 DOE .                     N/A:  DOE NUMBER
 DCON.         Sperry Drilling:  DIRECTNL CONTR
 PDAT.          Mean Sea Level:  PERMANENT DATUM
 WTYP.                Deviated:  WELL TYPE
 MWDS.                    Baku:  MWD SHOP
 JOBN.        AZ-XX-0906571587:  JOB TICKET NUMB
 UNIT.                     N/A:  LOGGING EQUIPMENT ID
 MDS .        Operator Entered:  MAG DATA SOURCE
 CNTY.                        :  COUNTY
 LOC .                        :  LOCATION
 LMF .             Drill Floor:  LOG MEASURED FROM
 TVDS.m                  43.00:  TVDSS CORRECTN
 LATI.deg                40.13:  LATITUDE
 LONG.deg                51.22:  LONGITUDE
 WHNS.m                   7.72:  WELL HEAD N/S
 WHEW.m                 -14.24:  WELL HEAD E/W
 UTMX.m              519005.06:  UTM X
 UTMY.m             4443793.85:  UTM Y
 DFWL.m                   0.00:  DISTANCE FWL
 DFSL.m                   0.00:  DISTANCE FSL
 SDEP.m                 347.00:  START DEPTH
 TDD .m                 581.00:  TOTAL DEPTH (DRILLER)
 VSDR.deg               159.72:  VERT SEC DIRECT
 GVFD.g                   1.00:  GRAVITY FIELD
 MFLD.nT              50318.00:  MAGNETIC FIELD
 MDIP.deg                59.57:  MAGNETIC DIP
 MDEC.deg                 6.44:  MAGNETIC DECL
 GRDC.deg                 0.15:  GRID CORRECTION
 AZTC.deg                 6.29:  AZM TOTAL CORR
 EPD .m                   0.00:  ELEVATION
 EGL .m                   0.00:  GROUND ELEVATION
 WDMS.m                 169.80:  WD ELEV
 APD .m                  43.00:  DEPTH ABOVE PD
 AGAP.m                  43.00:  AIR GAP
 VSEW.m                 -14.24:  VERT SEC E/W
 VSNS.m                   7.72:  VERT SEC N/S
 DEP .m                 342.45:  DEPTH
 EKB .m                   0.00:  KB ELEVATION
 EDF .m                  43.00:  DF ELEVATION
 TDL .m                 237.00:  TOTAL DEPTH (LOGGER)
 VSC .                       0:  VS TO CLOSURE
 MAGU.                 1851428:  MAGUTM CHECKSUM
~Parameter Information Block
#MNEM.UNIT       Value        Description
#---------     -----------    ---------------------------
 AV  .mps                 1.50:  Ann Velocity 
 AVMX.mps                 2.90:  Max Ann Veloc 
 AZIF.deg               115.59:  Azm, Final 
 BHAT.        Rotary Steerable:  BHA Type 
 BROT.°/30m               0.50:  Build Rotating 
 BS  .in                  8.50:  Bit Size 
 BTPL.psig              580.00:  Bit Press Loss 
 CABU.                     Yes:  Customer Abuse 
 COMM.                     Ìt:  Run Comments 1 
 TCS .hr                 89.79:  Time Ciculation Ended 
 CV  .mps                 3.22:  Crit Velocity 
 CVMX.mps                 4.37:  Max Crit Veloc 
 DD1 .          Rashad Habibov:  Direct Drillr 1 
 DDSV.               Geo-Pilot:  DD Service 
 DEFF.%                  95.00:  % Det Eff 
 DLRX.°/30m               1.94:  Dogleg Rot Max 
 DLSO.°/30m               0.70:  Dogleg Oriented 
 DLSX.°/30m               1.94:  Dogleg Str Max 
 DRET.      04.45.00 25-Dec-20:  Drill End Time 
 DRST.      10.00.00 24-Dec-20:  Drill Start Tim 
 DTIM.hr                 16.64:  Time Drilling 
 EDEP.m                4999.01:  End Depth 
 ENG1.         Elchin Mammadov:  Engineer 1 
 ENG2.          Ruslan Safarov:  Engineer 2 
 ENG3.          Rustam Safarov:  Engineer 3 
 ETIM.      09.00.00 29-Dec-20:  End Time 
 FLOI.gpm               500.00:  Flow In 
 FLON.gpm               400.00:  Flow In Min 
 FLOS.cptm                0.00:  Fluid Loss 
 FLOX.gpm               500.00:  Flow In Max 
 HFLO.                      No:  High Flow 
 HPRE.                      No:  High Pressure 
 HTEM.                      No:  High Temp 
 HYDO.m                   2.00:  Hydro Offset 
 IFIN.deg                66.79:  Inc, Final 
 IMAX.deg                67.66:  Inc Max 
 IMIN.deg                66.39:  Inc Min 
 IMND.m                4949.37:  Inc Min Depth 
 IMXD.m                4778.63:  Inc Max Depth 
 JARR.                     Yes:  Jarring 
 LETM.      04.45.00 25-Dec-20:  Log End Time 
 LOST.hr                     0:  Lost Rig Time 
 LSTM.      10.00.00 24-Dec-20:  Log Start Time 
 MDCL.ppm             39000.00:  Mud Chlorides 
 MDES.     Inversion Oil/Synthetic:  Mud Desc 
 DFD .sg                  1.33:  Mud Density 
 MDMN.sg                  1.33:  Dens Mud Min 
 MDMX.sg                  1.33:  Dens Mud Max 
 MOIL.                      70:  Run Mud Oil % 
 MOWR.                   70:30:  Run Mud OWR 
 MSND.                       0:  Run Mud Sand % 
 MSOL.                    17.4:  Run Mud Solids% 
 DFV .spqt               84.00:  Mud Viscosity 
 MWOD.in                  6.75:  MWD Tool OD 
 MWSI.                     Yes:  Serv Intrp, MWD 
 OTIM.hr                168.14:  Time Operating 
 PCON.           Look Like New:  Pad Condition 
 PMAX.psia            10822.93:  Press Op, Max 
 PV  .cP                 30.00:  Mud PV 
 RUN .                     900:  Run Number 
 ROPA.m/hr               18.00:  ROP Avg 
 ROPN.m/hr               12.00:  ROP Min 
 ROPX.m/hr               25.00:  ROP Max 
 RPMA.rpm               120.00:  RPM Surface Avg 
 RPMN.rpm               100.00:  RPM Surface Min 
 RPMX.rpm               120.00:  RPM Surface Max 
 RRUN.                    0900:  Rig Run Number 
 SAZI.deg               115.08:  Azm, Start 
 SDEP.m                4762.01:  Start Depth 
 SIDD.                      No:  Serv Intrp, DD 
 SINC.deg                66.14:  Inc, Start 
 SPPA.psig             3700.00:  SPP Avg 
 SPPN.psig             3620.00:  SPP Min 
 SPPX.psig             3900.00:  SPP Max 
 STIM.      09.30.00 22-Dec-20:  Start Time 
 SVCS.                 DD, MWD:  Services 
 SVER.                    9.20:  Sperry Version 
 TDAT.m                 237.00:  Tot Depth Attmp 
 TDDF.                      No:  Trip for DD 
 TDLG.m                 237.00:  Tot Depth Loggd 
 TFF .                      No:  Trip for Fail 
 TQAA.f-kp               18.00:  Torque Abs Avg 
 TQAN.f-kp               17.00:  Torque Abs Min 
 TQAX.f-kp               20.00:  Torque Abs Max 
 TRRT.°/30m               0.60:  Turn Rotating 
 MRT .                    HCIM:  Maximum Recorded Temperature 
 TTMX.degC               94.12:  Max Tool Temp 
 VS01.                90627809:  Virtual Str1 SN 
 VS02.                90527813:  Virtual Str2 SN 
 VS03.                90545417:  Virtual Str3 SN 
 VS04.                12460870:  Virtual Str4 SN 
 VS05.                90516706:  Virtual Str5 SN 
 VS06.                90632007:  Virtual Str6 SN 
 WBMN.klb                 0.00:  WOB Min 
 WOBA.klb                14.00:  WOB Avg 
 WOBX.klb                25.00:  WOB Max 
 YP  .lhf2               32.00:  Yield Point 
~Curve Information Block
#MNEM.UNIT                 API CODE     Curve Description
#---------               -----------    ---------------------------
 TIME.HHMMSS            00 000 000 000:  GT Time & Date
 GTDEPTH.m              00 000 000 000:  GT Depth
 GTPQH.psia             00 000 000 000:  GT HR Quartz Pressure
 GTTQ.degC              00 000 000 000:  GT Quartz Temperature
 GTTN.NONE              00 000 000 000:  GT Test Number
 GTET.sec               00 000 000 000:  GT Elapsed Test Time
 GTTVD.m                00 000 000 000:  GT True Vertical Depth
#Other Information
#
#WARRANTY: Halliburton will use its best efforts to furnish customers with 
#accurate information and interpretations that are part of, and incident to, the services 
#provided.  However, Halliburton cannot and does not warrant the accuracy 
#or correctness of such information and interpretations.  Under no circumstances should any 
#such information or interpretation be relied upon as the sole basis for any drilling, 
#completion, production, or financial decision or any procedure involving any risk to the 
#safety of any drilling venture, drilling rig or its crew or any other third party.  The 
#Customer has full responsibility for all drilling, completion and production operation.  
#Halliburton makes no representations or warranties, either expressed or 
#implied, including, but not limited to, the implied warranties of merchantability or fitness 
#for a particular purpose, with respect to the services rendered.  In no event will 
#Halliburton be liable for failure to obtain any particular results or for 
#any damages, including, but not limited to, indirect, special or consequential damages, 
#resulting from the use of any information or interpretation provided by Halliburton.
#
~A           TIME           GTDEPTH  GTPQH  GTTQ  GTTN  GTET   GTTVD  
# ...
   19:13:33.194.25-Dec-2020 4808.01 2305.16 63.86 7.00  92.07 2502.07
   19:13:33.394.25-Dec-2020 4808.01 2305.16 63.86 7.00  92.27 2502.07
   19:13:33.594.25-Dec-2020 4808.01 2305.65 63.86 7.00  92.47 2502.07
   19:13:33.794.25-Dec-2020 4808.01 2304.81 63.86 7.00  92.67 2502.07
   19:13:33.994.25-Dec-2020 4808.01 2306.48 63.86 7.00  92.87 2502.07
   19:13:34.194.25-Dec-2020 4808.01 2305.56 63.86 7.00  93.07 2502.07
   19:13:34.394.25-Dec-2020 4808.01 2305.56 63.86 7.00  93.27 2502.07
   19:13:34.595.25-Dec-2020 4808.01 2306.12 63.86 7.00  93.47 2502.07
   19:13:34.795.25-Dec-2020 4808.01 2305.60 63.86 7.00  93.67 2502.07
   19:13:34.995.25-Dec-2020 4808.01 2305.70 63.86 7.00  93.87 2502.07
   19:13:35.195.25-Dec-2020 4808.01 2305.73 63.86 7.00  94.07 2502.07
   19:13:35.395.25-Dec-2020 4808.01 2305.68 63.86 7.00  94.27 2502.07
   19:13:35.595.25-Dec-2020 4808.01 2305.73 63.86 7.00  94.47 2502.07
   19:13:35.796.25-Dec-2020 4808.01 2305.73 63.86 7.00  94.67 2502.07
   19:13:35.996.25-Dec-2020 4808.01 2305.73 63.86 7.00  94.87 2502.07
   19:13:36.196.25-Dec-2020 4808.01 2305.72 63.86 7.00  95.08 2502.07
   19:13:36.396.25-Dec-2020 4808.01 2305.72 63.86 7.00  95.28 2502.07
   19:13:36.596.25-Dec-2020 4808.01 2305.80 63.86 7.00  95.48 2502.07
   19:13:36.796.25-Dec-2020 4808.01 2305.77 63.86 7.00  95.68 2502.07
   19:13:36.997.25-Dec-2020 4808.01 2305.14 63.86 7.00  95.88 2502.07
   19:13:37.197.25-Dec-2020 4808.01 2305.69 63.86 7.00  96.08 2502.07
   19:13:37.397.25-Dec-2020 4808.01 2305.69 63.86 7.00  96.28 2502.07
   19:13:37.597.25-Dec-2020 4808.01 2305.66 63.86 7.00  96.48 2502.07
   19:13:37.797.25-Dec-2020 4808.01 2305.69 63.86 7.00  96.68 2502.07
   19:13:37.997.25-Dec-2020 4808.01 2305.70 63.86 7.00  96.88 2502.07
   19:13:38.197.25-Dec-2020 4808.01 2305.73 63.86 7.00  97.08 2502.07
   19:13:38.398.25-Dec-2020 4808.01 2305.73 63.86 7.00  97.28 2502.07
   19:13:38.598.25-Dec-2020 4808.01 2305.78 63.86 7.00  97.48 2502.07
   19:13:38.798.25-Dec-2020 4808.01 2305.74 63.86 7.00  97.68 2502.07
   19:13:38.998.25-Dec-2020 4808.01 2305.78 63.86 7.00  97.88 2502.07
   19:13:39.198.25-Dec-2020 4808.01 2305.80 63.86 7.00  98.08 2502.07
   19:13:39.398.25-Dec-2020 4808.01 2305.12 63.86 7.00  98.28 2502.07
   19:13:39.599.25-Dec-2020 4808.01 2306.13 63.86 7.00  98.48 2502.07
   19:13:39.799.25-Dec-2020 4808.01 2305.54 63.86 7.00  98.68 2502.07
   19:13:39.999.25-Dec-2020 4808.01 2305.16 63.86 7.00  98.88 2502.07
   19:13:40.199.25-Dec-2020 4808.01 2305.81 63.86 7.00  99.08 2502.07
   19:13:40.399.25-Dec-2020 4808.01 2305.81 63.86 7.00  99.28 2502.07
   19:13:40.599.25-Dec-2020 4808.01 2305.94 63.86 7.00  99.48 2502.07
   19:13:40.800.25-Dec-2020 4808.01 2305.68 63.86 7.00  99.68 2502.07
   19:13:41.000.25-Dec-2020 4808.01 2304.85 63.86 7.00  99.88 2502.07
   19:13:41.200.25-Dec-2020 4808.01 2306.43 63.86 7.00 100.08 2502.07
   19:13:41.400.25-Dec-2020 4808.01 2306.43 63.86 7.00 100.28 2502.07
   19:13:41.600.25-Dec-2020 4808.01 2305.76 63.86 7.00 100.48 2502.07
   19:13:41.800.25-Dec-2020 4808.01 2305.74 63.86 7.00 100.68 2502.07
   19:13:42.000.25-Dec-2020 4808.01 2305.73 63.86 7.00 100.88 2502.07
   19:13:42.201.25-Dec-2020 4808.01 2305.73 63.86 7.00 101.08 2502.07
   19:13:42.401.25-Dec-2020 4808.01 2305.73 63.86 7.00 101.28 2502.07
   19:13:42.601.25-Dec-2020 4808.01 2305.74 63.86 7.00 101.48 2502.07
   19:13:42.801.25-Dec-2020 4808.01 2305.71 63.86 7.00 101.68 2502.07
   19:13:43.001.25-Dec-2020 4808.01 2305.74 63.86 7.00 101.88 2502.07
   19:13:43.201.25-Dec-2020 4808.01 2305.79 63.86 7.00 102.08 2502.07
   19:13:43.402.25-Dec-2020 4808.01 2305.74 63.86 7.00 102.28 2502.07
   19:13:43.602.25-Dec-2020 4808.01 2305.11 63.86 7.00 102.48 2502.07
   19:13:43.802.25-Dec-2020 4808.01 2305.85 63.86 7.00 102.68 2502.07
   19:13:44.002.25-Dec-2020 4808.01 2305.71 63.86 7.00 102.88 2502.07
   19:13:44.202.25-Dec-2020 4808.01 2305.70 63.86 7.00 103.08 2502.07
   19:13:44.402.25-Dec-2020 4808.01 2305.70 63.86 7.00 103.28 2502.07
   19:13:44.603.25-Dec-2020 4808.01 2305.66 63.86 7.00 103.48 2502.07
   19:13:44.803.25-Dec-2020 4808.01 2305.73 63.86 7.00 103.68 2502.07
   19:13:45.003.25-Dec-2020 4808.01 2305.71 63.86 7.00 103.88 2502.07
   19:13:45.203.25-Dec-2020 4808.01 2305.74 63.86 7.00 104.08 2502.07
   19:13:45.403.25-Dec-2020 4808.01 2305.74 63.86 7.00 104.28 2502.07
   19:13:45.603.25-Dec-2020 4808.01 2305.76 63.86 7.00 104.48 2502.07
   19:13:45.803.25-Dec-2020 4808.01 2305.79 63.86 7.00 104.68 2502.07
   19:13:46.004.25-Dec-2020 4808.01 2304.85 63.86 7.00 104.88 2502.07
   19:13:46.204.25-Dec-2020 4808.01 2306.44 63.86 7.00 105.08 2502.07
   19:13:46.404.25-Dec-2020 4808.01 2306.44 63.86 7.00 105.28 2502.07
   19:13:46.604.25-Dec-2020 4808.01 2305.03 63.86 7.00 105.48 2502.07
   19:13:46.804.25-Dec-2020 4808.01 2305.87 63.86 7.00 105.68 2502.07
   19:13:47.004.25-Dec-2020 4808.01 2305.63 63.86 7.00 105.88 2502.07
   19:13:47.205.25-Dec-2020 4808.01 2305.14 63.86 7.00 106.08 2502.07
   19:13:47.405.25-Dec-2020 4808.01 2305.64 63.86 7.00 106.28 2502.07
   19:13:47.605.25-Dec-2020 4808.01 2305.19 63.86 7.00 106.48 2502.07
   19:13:47.805.25-Dec-2020 4808.01 2305.82 63.86 7.00 106.68 2502.07
   19:13:48.005.25-Dec-2020 4808.01 2305.50 63.86 7.00 106.88 2502.07
   19:13:48.205.25-Dec-2020 4808.01 2305.63 63.86 7.00 107.08 2502.07
   19:13:48.406.25-Dec-2020 4808.01 2305.63 63.86 7.00 107.28 2502.07
   19:13:48.606.25-Dec-2020 4808.01 2305.66 63.86 7.00 107.48 2502.07
   19:13:48.806.25-Dec-2020 4808.01 2305.63 63.86 7.00 107.69 2502.07
   19:13:49.006.25-Dec-2020 4808.01 2305.59 63.86 7.00 107.89 2502.07
   19:13:49.206.25-Dec-2020 4808.01 2305.69 63.86 7.00 108.09 2502.07
   19:13:49.406.25-Dec-2020 4808.01 2305.69 63.86 7.00 108.29 2502.07
   19:13:49.606.25-Dec-2020 4808.01 2305.63 63.86 7.00 108.49 2502.07
   19:13:49.807.25-Dec-2020 4808.01 2305.71 63.86 7.00 108.69 2502.07
   19:13:50.007.25-Dec-2020 4808.01 2305.67 63.86 7.00 108.89 2502.07
   19:13:50.207.25-Dec-2020 4808.01 2305.03 63.86 7.00 109.09 2502.07
   19:13:50.407.25-Dec-2020 4808.01 2305.03 63.86 7.00 109.29 2502.07
   19:13:50.607.25-Dec-2020 4808.01 2305.41 63.86 7.00 109.49 2502.07
   19:13:50.807.25-Dec-2020 4808.01 2305.62 63.86 7.00 109.69 2502.07
   19:13:51.008.25-Dec-2020 4808.01 2305.61 63.86 7.00 109.89 2502.07
   19:13:51.208.25-Dec-2020 4808.01 2305.60 63.86 7.00 110.09 2502.07
   19:13:51.408.25-Dec-2020 4808.01 2305.65 63.86 7.00 110.29 2502.07
   19:13:51.608.25-Dec-2020 4808.01 2305.65 63.86 7.00 110.49 2502.07
   19:13:51.808.25-Dec-2020 4808.01 2305.68 63.86 7.00 110.69 2502.07
   19:13:52.008.25-Dec-2020 4808.01 2305.63 63.86 7.00 110.89 2502.07
   19:13:52.209.25-Dec-2020 4808.01 2305.70 63.86 7.00 111.09 2502.07
   19:13:52.409.25-Dec-2020 4808.01 2305.70 63.86 7.00 111.29 2502.07
   19:13:52.609.25-Dec-2020 4808.01 2305.11 63.86 7.00 111.49 2502.07
   19:13:52.809.25-Dec-2020 4808.01 2305.88 63.86 7.00 111.69 2502.07
   19:13:53.009.25-Dec-2020 4808.01 2305.50 63.86 7.00 111.89 2502.07
   19:13:53.209.25-Dec-2020 4808.01 2304.99 63.86 7.00 112.09 2502.07
   19:13:53.409.25-Dec-2020 4808.01 2304.99 63.86 7.00 112.29 2502.07
   19:13:53.610.25-Dec-2020 4808.01 2305.41 63.86 7.00 112.49 2502.07
   19:13:53.810.25-Dec-2020 4808.01 2305.08 63.86 7.00 112.69 2502.07
   19:13:54.010.25-Dec-2020 4808.01 2305.69 63.86 7.00 112.89 2502.07
   19:13:54.210.25-Dec-2020 4808.01 2305.54 63.86 7.00 113.09 2502.07
   19:13:54.410.25-Dec-2020 4808.01 2305.54 63.86 7.00 113.29 2502.07
   19:13:54.610.25-Dec-2020 4808.01 2305.52 63.86 7.00 113.49 2502.07
   19:13:54.811.25-Dec-2020 4808.01 2305.78 63.86 7.00 113.69 2502.07
   19:13:55.011.25-Dec-2020 4808.01 2305.50 63.86 7.00 113.89 2502.07
   19:13:55.211.25-Dec-2020 4808.01 2305.61 63.86 7.00 114.09 2502.07
   19:13:55.411.25-Dec-2020 4808.01 2305.62 63.86 7.00 114.29 2502.07
   19:13:55.611.25-Dec-2020 4808.01 2305.58 63.86 7.00 114.49 2502.07
   19:13:55.811.25-Dec-2020 4808.01 2305.66 63.86 7.00 114.69 2502.07
   19:13:56.012.25-Dec-2020 4808.01 2305.62 63.86 7.00 114.89 2502.07
