~Version Information
 VERS.                  2.0:   CWLS log ASCII Standard -VERSION 2.0
 WRAP.                   NO:   One line per depth step
~Well Information Block
#MNEM.UNIT     VALUE/NAME     DESCRIPTION
#---------     -----------    ---------------------------
 STRT.S             13:36:27 25-Dec-20: START TIME 13:36:27 25-Dec-20
 STOP.S             13:44:49 25-Dec-20: STOP TIME  13:44:49 25-Dec-20
 STEP.S                   0.00: STEP TIME
 NULL.                 -999.25: NULL VALUE
 DFWT.                        :  DIST FWL TEXT
 DFST.                        :  DIST FSL TEXT
 DMF .             Drill Floor:  DRILL MEAS FROM
 STIM.      04.54.24 22-Sep-20:  START TIME
 DATE.      04.54.24 21-Nov-20:  END TIME
 SPUD.               21-Nov-20:  SPUD DATE
 NREF.                    Grid:  NORTH REFERENCE
 HPTY.       Minimum Curvature:  HOLE POS TYPE
 DMOD.             Drill Model:  DRILL MOD DESC
 SVYD.                  Survey:  SURVEY DESC
 ILTD.               Lithology:  INTERP LTH DESC
 FTOP.          Formation Tops:  FORM TOPS DESC
 SON .        AZ-XX-0906571587:  JOB NUMBER
 COMP.     BP Exploration (Caspian Sea) Ltd:  COMPANY
 UWI .                     N/A:  UNIQUE WELL IDENTIFIER
 API .                     N/A:  API NUMBER
 BASE.              Azerbaijan:  LOGGING EQUIPMENT BASE LOCATION
 REGN.                   EESSA:  REGION
 PROV.                    Baku:  PROVINCE
 STAT.                    Baku:  STATE NAME
 CTRY.              Azerbaijan:  COUNTRY NAME
 FLD .                     ACG:  FIELD NAME
 SRVC.     TURAN Drilling & Engineering:  CONTRACTOR
 WELL.                     J27:  WELL NAME
 RIG .             West Chirag:  RIG NAME
 DOE .                     N/A:  DOE NUMBER
 DCON.         Sperry Drilling:  DIRECTNL CONTR
 PDAT.          Mean Sea Level:  PERMANENT DATUM
 WTYP.                Deviated:  WELL TYPE
 MWDS.                    Baku:  MWD SHOP
 JOBN.        AZ-XX-0906571587:  JOB TICKET NUMB
 UNIT.                     N/A:  LOGGING EQUIPMENT ID
 MDS .        Operator Entered:  MAG DATA SOURCE
 CNTY.                        :  COUNTY
 LOC .                        :  LOCATION
 LMF .             Drill Floor:  LOG MEASURED FROM
 TVDS.m                  43.00:  TVDSS CORRECTN
 LATI.deg                40.13:  LATITUDE
 LONG.deg                51.22:  LONGITUDE
 WHNS.m                   7.72:  WELL HEAD N/S
 WHEW.m                 -14.24:  WELL HEAD E/W
 UTMX.m              519005.06:  UTM X
 UTMY.m             4443793.85:  UTM Y
 DFWL.m                   0.00:  DISTANCE FWL
 DFSL.m                   0.00:  DISTANCE FSL
 SDEP.m                 347.00:  START DEPTH
 TDD .m                 581.00:  TOTAL DEPTH (DRILLER)
 VSDR.deg               159.72:  VERT SEC DIRECT
 GVFD.g                   1.00:  GRAVITY FIELD
 MFLD.nT              50318.00:  MAGNETIC FIELD
 MDIP.deg                59.57:  MAGNETIC DIP
 MDEC.deg                 6.44:  MAGNETIC DECL
 GRDC.deg                 0.15:  GRID CORRECTION
 AZTC.deg                 6.29:  AZM TOTAL CORR
 EPD .m                   0.00:  ELEVATION
 EGL .m                   0.00:  GROUND ELEVATION
 WDMS.m                 169.80:  WD ELEV
 APD .m                  43.00:  DEPTH ABOVE PD
 AGAP.m                  43.00:  AIR GAP
 VSEW.m                 -14.24:  VERT SEC E/W
 VSNS.m                   7.72:  VERT SEC N/S
 DEP .m                 342.45:  DEPTH
 EKB .m                   0.00:  KB ELEVATION
 EDF .m                  43.00:  DF ELEVATION
 TDL .m                 237.00:  TOTAL DEPTH (LOGGER)
 VSC .                       0:  VS TO CLOSURE
 MAGU.                 1851428:  MAGUTM CHECKSUM
~Parameter Information Block
#MNEM.UNIT       Value        Description
#---------     -----------    ---------------------------
 AV  .mps                 1.50:  Ann Velocity 
 AVMX.mps                 2.90:  Max Ann Veloc 
 AZIF.deg               115.59:  Azm, Final 
 BHAT.        Rotary Steerable:  BHA Type 
 BROT.°/30m               0.50:  Build Rotating 
 BS  .in                  8.50:  Bit Size 
 BTPL.psig              580.00:  Bit Press Loss 
 CABU.                     Yes:  Customer Abuse 
 COMM.                     lW:  Run Comments 1 
 TCS .hr                 89.79:  Time Ciculation Ended 
 CV  .mps                 3.22:  Crit Velocity 
 CVMX.mps                 4.37:  Max Crit Veloc 
 DD1 .          Rashad Habibov:  Direct Drillr 1 
 DDSV.               Geo-Pilot:  DD Service 
 DEFF.%                  95.00:  % Det Eff 
 DLRX.°/30m               1.94:  Dogleg Rot Max 
 DLSO.°/30m               0.70:  Dogleg Oriented 
 DLSX.°/30m               1.94:  Dogleg Str Max 
 DRET.      04.45.00 25-Dec-20:  Drill End Time 
 DRST.      10.00.00 24-Dec-20:  Drill Start Tim 
 DTIM.hr                 16.64:  Time Drilling 
 EDEP.m                4999.01:  End Depth 
 ENG1.         Elchin Mammadov:  Engineer 1 
 ENG2.          Ruslan Safarov:  Engineer 2 
 ENG3.          Rustam Safarov:  Engineer 3 
 ETIM.      09.00.00 29-Dec-20:  End Time 
 FLOI.gpm               500.00:  Flow In 
 FLON.gpm               400.00:  Flow In Min 
 FLOS.cptm                0.00:  Fluid Loss 
 FLOX.gpm               500.00:  Flow In Max 
 HFLO.                      No:  High Flow 
 HPRE.                      No:  High Pressure 
 HTEM.                      No:  High Temp 
 HYDO.m                   2.00:  Hydro Offset 
 IFIN.deg                66.79:  Inc, Final 
 IMAX.deg                67.66:  Inc Max 
 IMIN.deg                66.39:  Inc Min 
 IMND.m                4949.37:  Inc Min Depth 
 IMXD.m                4778.63:  Inc Max Depth 
 JARR.                     Yes:  Jarring 
 LETM.      04.45.00 25-Dec-20:  Log End Time 
 LOST.hr                     0:  Lost Rig Time 
 LSTM.      10.00.00 24-Dec-20:  Log Start Time 
 MDCL.ppm             39000.00:  Mud Chlorides 
 MDES.     Inversion Oil/Synthetic:  Mud Desc 
 DFD .sg                  1.33:  Mud Density 
 MDMN.sg                  1.33:  Dens Mud Min 
 MDMX.sg                  1.33:  Dens Mud Max 
 MOIL.                      70:  Run Mud Oil % 
 MOWR.                   70:30:  Run Mud OWR 
 MSND.                       0:  Run Mud Sand % 
 MSOL.                    17.4:  Run Mud Solids% 
 DFV .spqt               84.00:  Mud Viscosity 
 MWOD.in                  6.75:  MWD Tool OD 
 MWSI.                     Yes:  Serv Intrp, MWD 
 OTIM.hr                168.14:  Time Operating 
 PCON.           Look Like New:  Pad Condition 
 PMAX.psia            10822.93:  Press Op, Max 
 PV  .cP                 30.00:  Mud PV 
 RUN .                     900:  Run Number 
 ROPA.m/hr               18.00:  ROP Avg 
 ROPN.m/hr               12.00:  ROP Min 
 ROPX.m/hr               25.00:  ROP Max 
 RPMA.rpm               120.00:  RPM Surface Avg 
 RPMN.rpm               100.00:  RPM Surface Min 
 RPMX.rpm               120.00:  RPM Surface Max 
 RRUN.                    0900:  Rig Run Number 
 SAZI.deg               115.08:  Azm, Start 
 SDEP.m                4762.01:  Start Depth 
 SIDD.                      No:  Serv Intrp, DD 
 SINC.deg                66.14:  Inc, Start 
 SPPA.psig             3700.00:  SPP Avg 
 SPPN.psig             3620.00:  SPP Min 
 SPPX.psig             3900.00:  SPP Max 
 STIM.      09.30.00 22-Dec-20:  Start Time 
 SVCS.                 DD, MWD:  Services 
 SVER.                    9.20:  Sperry Version 
 TDAT.m                 237.00:  Tot Depth Attmp 
 TDDF.                      No:  Trip for DD 
 TDLG.m                 237.00:  Tot Depth Loggd 
 TFF .                      No:  Trip for Fail 
 TQAA.f-kp               18.00:  Torque Abs Avg 
 TQAN.f-kp               17.00:  Torque Abs Min 
 TQAX.f-kp               20.00:  Torque Abs Max 
 TRRT.°/30m               0.60:  Turn Rotating 
 MRT .                    HCIM:  Maximum Recorded Temperature 
 TTMX.degC               94.12:  Max Tool Temp 
 VS01.                90627809:  Virtual Str1 SN 
 VS02.                90527813:  Virtual Str2 SN 
 VS03.                90545417:  Virtual Str3 SN 
 VS04.                12460870:  Virtual Str4 SN 
 VS05.                90516706:  Virtual Str5 SN 
 VS06.                90632007:  Virtual Str6 SN 
 WBMN.klb                 0.00:  WOB Min 
 WOBA.klb                14.00:  WOB Avg 
 WOBX.klb                25.00:  WOB Max 
 YP  .lhf2               32.00:  Yield Point 
~Curve Information Block
#MNEM.UNIT                 API CODE     Curve Description
#---------               -----------    ---------------------------
 TIME.HHMMSS            00 000 000 000:  GT Time & Date
 GTDEPTH.m              00 000 000 000:  GT Depth
 GTPQH.psia             00 000 000 000:  GT HR Quartz Pressure
 GTTQ.degC              00 000 000 000:  GT Quartz Temperature
 GTTN.NONE              00 000 000 000:  GT Test Number
 GTET.sec               00 000 000 000:  GT Elapsed Test Time
 GTTVD.m                00 000 000 000:  GT True Vertical Depth
#Other Information
#
#WARRANTY: Halliburton will use its best efforts to furnish customers with 
#accurate information and interpretations that are part of, and incident to, the services 
#provided.  However, Halliburton cannot and does not warrant the accuracy 
#or correctness of such information and interpretations.  Under no circumstances should any 
#such information or interpretation be relied upon as the sole basis for any drilling, 
#completion, production, or financial decision or any procedure involving any risk to the 
#safety of any drilling venture, drilling rig or its crew or any other third party.  The 
#Customer has full responsibility for all drilling, completion and production operation.  
#Halliburton makes no representations or warranties, either expressed or 
#implied, including, but not limited to, the implied warranties of merchantability or fitness 
#for a particular purpose, with respect to the services rendered.  In no event will 
#Halliburton be liable for failure to obtain any particular results or for 
#any damages, including, but not limited to, indirect, special or consequential damages, 
#resulting from the use of any information or interpretation provided by Halliburton.
#
~A           TIME           GTDEPTH  GTPQH  GTTQ  GTTN  GTET   GTTVD  
# ...
   13:43:21.000.25-Dec-2020 4921.01   33.87 66.20 2.00 414.00 2546.48
   13:43:21.200.25-Dec-2020 4921.01   33.86 66.20 2.00 414.20 2546.48
   13:43:21.400.25-Dec-2020 4921.01   33.84 66.20 2.00 414.40 2546.48
   13:43:21.600.25-Dec-2020 4921.01   33.89 66.20 2.00 414.60 2546.48
   13:43:21.800.25-Dec-2020 4921.01   33.88 66.20 2.00 414.80 2546.48
   13:43:22.000.25-Dec-2020 4921.01   33.86 66.20 2.00 415.00 2546.48
   13:43:22.200.25-Dec-2020 4921.01   33.86 66.20 2.00 415.20 2546.48
   13:43:22.400.25-Dec-2020 4921.01   33.89 66.20 2.00 415.40 2546.48
   13:43:22.600.25-Dec-2020 4921.01   33.91 66.20 2.00 415.60 2546.48
   13:43:22.800.25-Dec-2020 4921.01   33.91 66.20 2.00 415.80 2546.48
   13:43:23.000.25-Dec-2020 4921.01   33.90 66.20 2.00 416.00 2546.48
   13:43:23.200.25-Dec-2020 4921.01   33.91 66.20 2.00 416.20 2546.48
   13:43:23.400.25-Dec-2020 4921.01   33.94 66.20 2.00 416.40 2546.48
   13:43:23.600.25-Dec-2020 4921.01   33.93 66.20 2.00 416.60 2546.48
   13:43:23.800.25-Dec-2020 4921.01   33.93 66.20 2.00 416.80 2546.48
   13:43:24.000.25-Dec-2020 4921.01   33.94 66.20 2.00 417.00 2546.48
   13:43:24.200.25-Dec-2020 4921.01   33.94 66.20 2.00 417.20 2546.48
   13:43:24.400.25-Dec-2020 4921.01   33.95 66.20 2.00 417.40 2546.48
   13:43:24.600.25-Dec-2020 4921.01   33.96 66.20 2.00 417.60 2546.48
   13:43:24.800.25-Dec-2020 4921.01   33.96 66.20 2.00 417.80 2546.48
   13:43:25.000.25-Dec-2020 4921.01   33.97 66.20 2.00 418.00 2546.48
   13:43:25.200.25-Dec-2020 4921.01   33.97 66.20 2.00 418.20 2546.48
   13:43:25.400.25-Dec-2020 4921.01   33.96 66.20 2.00 418.40 2546.48
   13:43:25.600.25-Dec-2020 4921.01   33.99 66.20 2.00 418.60 2546.48
   13:43:25.800.25-Dec-2020 4921.01   33.99 66.20 2.00 418.80 2546.48
   13:43:26.000.25-Dec-2020 4921.01   34.00 66.20 2.00 419.00 2546.48
   13:43:26.200.25-Dec-2020 4921.01   34.00 66.20 2.00 419.20 2546.48
   13:43:26.400.25-Dec-2020 4921.01   34.01 66.20 2.00 419.40 2546.48
   13:43:26.600.25-Dec-2020 4921.01   34.01 66.20 2.00 419.60 2546.48
   13:43:26.800.25-Dec-2020 4921.01   34.02 66.20 2.00 419.80 2546.48
   13:43:27.000.25-Dec-2020 4921.01   34.02 66.20 2.00 420.00 2546.48
   13:43:27.200.25-Dec-2020 4921.01   34.02 66.20 2.00 420.20 2546.48
   13:43:27.400.25-Dec-2020 4921.01   34.03 66.20 2.00 420.40 2546.48
   13:43:27.600.25-Dec-2020 4921.01   34.03 66.20 2.00 420.60 2546.48
   13:43:27.800.25-Dec-2020 4921.01   34.02 66.20 2.00 420.80 2546.48
   13:43:28.000.25-Dec-2020 4921.01   34.07 66.20 2.00 421.00 2546.48
   13:43:28.200.25-Dec-2020 4921.01   34.07 66.20 2.00 421.20 2546.48
   13:43:28.400.25-Dec-2020 4921.01   34.05 66.20 2.00 421.40 2546.48
   13:43:28.600.25-Dec-2020 4921.01   34.06 66.20 2.00 421.60 2546.48
   13:43:28.800.25-Dec-2020 4921.01   34.07 66.20 2.00 421.80 2546.48
   13:43:29.000.25-Dec-2020 4921.01   34.06 66.20 2.00 422.00 2546.48
   13:43:29.200.25-Dec-2020 4921.01   34.10 66.20 2.00 422.20 2546.48
   13:43:29.400.25-Dec-2020 4921.01   34.09 66.20 2.00 422.40 2546.48
   13:43:29.600.25-Dec-2020 4921.01   34.10 66.20 2.00 422.60 2546.48
   13:43:29.800.25-Dec-2020 4921.01   34.11 66.20 2.00 422.80 2546.48
   13:43:30.000.25-Dec-2020 4921.01   34.09 66.20 2.00 423.00 2546.48
   13:43:30.200.25-Dec-2020 4921.01   34.12 66.20 2.00 423.20 2546.48
   13:43:30.400.25-Dec-2020 4921.01   34.11 66.20 2.00 423.40 2546.48
   13:43:30.600.25-Dec-2020 4921.01   34.13 66.20 2.00 423.60 2546.48
   13:43:30.800.25-Dec-2020 4921.01   34.14 66.20 2.00 423.80 2546.48
   13:43:31.000.25-Dec-2020 4921.01   34.13 66.20 2.00 424.00 2546.48
   13:43:31.200.25-Dec-2020 4921.01   34.13 66.20 2.00 424.20 2546.48
   13:43:31.400.25-Dec-2020 4921.01   34.14 66.20 2.00 424.40 2546.48
   13:43:31.600.25-Dec-2020 4921.01   34.15 66.20 2.00 424.60 2546.48
   13:43:31.800.25-Dec-2020 4921.01   34.15 66.20 2.00 424.80 2546.48
   13:43:32.000.25-Dec-2020 4921.01   34.16 66.20 2.00 425.00 2546.48
   13:43:32.200.25-Dec-2020 4921.01   34.16 66.20 2.00 425.20 2546.48
   13:43:32.400.25-Dec-2020 4921.01   34.14 66.20 2.00 425.40 2546.48
   13:43:32.600.25-Dec-2020 4921.01   34.20 66.20 2.00 425.60 2546.48
   13:43:32.800.25-Dec-2020 4921.01   34.18 66.20 2.00 425.80 2546.48
   13:43:33.000.25-Dec-2020 4921.01   34.18 66.20 2.00 426.00 2546.48
   13:43:33.200.25-Dec-2020 4921.01   34.20 66.20 2.00 426.20 2546.48
   13:43:33.400.25-Dec-2020 4921.01   34.20 66.20 2.00 426.40 2546.48
   13:43:33.600.25-Dec-2020 4921.01   34.20 66.20 2.00 426.60 2546.48
   13:43:33.800.25-Dec-2020 4921.01   34.20 66.20 2.00 426.80 2546.48
   13:43:34.000.25-Dec-2020 4921.01   34.21 66.20 2.00 427.00 2546.48
   13:43:34.200.25-Dec-2020 4921.01   34.21 66.20 2.00 427.20 2546.48
   13:43:34.400.25-Dec-2020 4921.01   34.22 66.20 2.00 427.40 2546.48
   13:43:34.600.25-Dec-2020 4921.01   34.22 66.20 2.00 427.60 2546.48
   13:43:34.800.25-Dec-2020 4921.01   34.21 66.20 2.00 427.80 2546.48
   13:43:35.000.25-Dec-2020 4921.01   34.25 66.20 2.00 428.00 2546.48
   13:43:35.200.25-Dec-2020 4921.01   34.25 66.20 2.00 428.20 2546.48
   13:43:35.400.25-Dec-2020 4921.01   34.24 66.20 2.00 428.40 2546.48
   13:43:35.600.25-Dec-2020 4921.01   34.24 66.20 2.00 428.60 2546.48
   13:43:35.800.25-Dec-2020 4921.01   34.27 66.20 2.00 428.80 2546.48
   13:43:36.000.25-Dec-2020 4921.01   34.27 66.20 2.00 429.00 2546.48
   13:43:36.200.25-Dec-2020 4921.01   34.27 66.20 2.00 429.20 2546.48
   13:43:36.400.25-Dec-2020 4921.01   34.27 66.20 2.00 429.40 2546.48
   13:43:36.600.25-Dec-2020 4921.01   34.29 66.20 2.00 429.60 2546.48
   13:43:36.800.25-Dec-2020 4921.01   34.29 66.20 2.00 429.80 2546.48
   13:43:37.000.25-Dec-2020 4921.01   34.28 66.20 2.00 430.00 2546.48
   13:43:37.200.25-Dec-2020 4921.01   34.31 66.20 2.00 430.20 2546.48
   13:43:37.400.25-Dec-2020 4921.01   34.30 66.20 2.00 430.40 2546.48
   13:43:37.600.25-Dec-2020 4921.01   34.31 66.20 2.00 430.60 2546.48
   13:43:37.800.25-Dec-2020 4921.01   34.32 66.20 2.00 430.80 2546.48
   13:43:38.000.25-Dec-2020 4921.01   34.32 66.20 2.00 431.00 2546.48
   13:43:38.200.25-Dec-2020 4921.01   34.33 66.20 2.00 431.20 2546.48
   13:43:38.400.25-Dec-2020 4921.01   34.33 66.20 2.00 431.40 2546.48
   13:43:38.600.25-Dec-2020 4921.01   34.33 66.20 2.00 431.60 2546.48
   13:43:38.800.25-Dec-2020 4921.01   34.34 66.20 2.00 431.80 2546.48
   13:43:39.000.25-Dec-2020 4921.01   34.34 66.20 2.00 432.00 2546.48
   13:43:39.200.25-Dec-2020 4921.01   34.34 66.20 2.00 432.20 2546.48
   13:43:39.400.25-Dec-2020 4921.01   34.33 66.20 2.00 432.40 2546.48
   13:43:39.600.25-Dec-2020 4921.01   34.38 66.20 2.00 432.60 2546.48
   13:43:39.800.25-Dec-2020 4921.01   34.37 66.20 2.00 432.80 2546.48
   13:43:40.000.25-Dec-2020 4921.01   34.37 66.20 2.00 433.00 2546.48
   13:43:40.200.25-Dec-2020 4921.01   34.37 66.20 2.00 433.20 2546.48
   13:43:40.400.25-Dec-2020 4921.01   34.39 66.20 2.00 433.40 2546.48
   13:43:40.600.25-Dec-2020 4921.01   34.39 66.19 2.00 433.60 2546.48
   13:43:40.800.25-Dec-2020 4921.01   34.39 66.19 2.00 433.80 2546.48
   13:43:41.000.25-Dec-2020 4921.01   34.39 66.20 2.00 434.00 2546.48
   13:43:41.200.25-Dec-2020 4921.01   34.41 66.19 2.00 434.20 2546.48
   13:43:41.400.25-Dec-2020 4921.01   34.40 66.19 2.00 434.40 2546.48
   13:43:41.600.25-Dec-2020 4921.01   34.42 66.19 2.00 434.60 2546.48
   13:43:41.800.25-Dec-2020 4921.01   34.40 66.19 2.00 434.80 2546.48
   13:43:42.000.25-Dec-2020 4921.01   34.42 66.19 2.00 435.00 2546.48
   13:43:42.200.25-Dec-2020 4921.01   34.42 66.19 2.00 435.20 2546.48
   13:43:42.400.25-Dec-2020 4921.01   34.44 66.19 2.00 435.40 2546.48
   13:43:42.600.25-Dec-2020 4921.01   34.41 66.19 2.00 435.60 2546.48
   13:43:42.800.25-Dec-2020 4921.01   34.46 66.19 2.00 435.80 2546.48
   13:43:43.000.25-Dec-2020 4921.01   34.45 66.19 2.00 436.00 2546.48
   13:43:43.200.25-Dec-2020 4921.01   34.45 66.19 2.00 436.20 2546.48
   13:43:43.400.25-Dec-2020 4921.01   34.47 66.19 2.00 436.40 2546.48
   13:43:43.600.25-Dec-2020 4921.01   34.47 66.19 2.00 436.60 2546.48
   13:43:43.800.25-Dec-2020 4921.01   34.48 66.19 2.00 436.80 2546.48
