~Version Information
 VERS.                  2.0:   CWLS log ASCII Standard -VERSION 2.0
 WRAP.                   NO:   One line per depth step
~Well Information Block
#MNEM.UNIT     VALUE/NAME     DESCRIPTION
#---------     -----------    ---------------------------
 STRT.S             15:24:16 25-Dec-20: START TIME 15:24:16 25-Dec-20
 STOP.S             15:32:36 25-Dec-20: STOP TIME  15:32:36 25-Dec-20
 STEP.S                   0.00: STEP TIME
 NULL.                 -999.25: NULL VALUE
 DFWT.                        :  DIST FWL TEXT
 DFST.                        :  DIST FSL TEXT
 DMF .             Drill Floor:  DRILL MEAS FROM
 STIM.      04.54.24 22-Sep-20:  START TIME
 DATE.      04.54.24 21-Nov-20:  END TIME
 SPUD.               21-Nov-20:  SPUD DATE
 NREF.                    Grid:  NORTH REFERENCE
 HPTY.       Minimum Curvature:  HOLE POS TYPE
 DMOD.             Drill Model:  DRILL MOD DESC
 SVYD.                  Survey:  SURVEY DESC
 ILTD.               Lithology:  INTERP LTH DESC
 FTOP.          Formation Tops:  FORM TOPS DESC
 SON .        AZ-XX-0906571587:  JOB NUMBER
 COMP.     BP Exploration (Caspian Sea) Ltd:  COMPANY
 UWI .                     N/A:  UNIQUE WELL IDENTIFIER
 API .                     N/A:  API NUMBER
 BASE.              Azerbaijan:  LOGGING EQUIPMENT BASE LOCATION
 REGN.                   EESSA:  REGION
 PROV.                    Baku:  PROVINCE
 STAT.                    Baku:  STATE NAME
 CTRY.              Azerbaijan:  COUNTRY NAME
 FLD .                     ACG:  FIELD NAME
 SRVC.     TURAN Drilling & Engineering:  CONTRACTOR
 WELL.                     J27:  WELL NAME
 RIG .             West Chirag:  RIG NAME
 DOE .                     N/A:  DOE NUMBER
 DCON.         Sperry Drilling:  DIRECTNL CONTR
 PDAT.          Mean Sea Level:  PERMANENT DATUM
 WTYP.                Deviated:  WELL TYPE
 MWDS.                    Baku:  MWD SHOP
 JOBN.        AZ-XX-0906571587:  JOB TICKET NUMB
 UNIT.                     N/A:  LOGGING EQUIPMENT ID
 MDS .        Operator Entered:  MAG DATA SOURCE
 CNTY.                        :  COUNTY
 LOC .                        :  LOCATION
 LMF .             Drill Floor:  LOG MEASURED FROM
 TVDS.m                  43.00:  TVDSS CORRECTN
 LATI.deg                40.13:  LATITUDE
 LONG.deg                51.22:  LONGITUDE
 WHNS.m                   7.72:  WELL HEAD N/S
 WHEW.m                 -14.24:  WELL HEAD E/W
 UTMX.m              519005.06:  UTM X
 UTMY.m             4443793.85:  UTM Y
 DFWL.m                   0.00:  DISTANCE FWL
 DFSL.m                   0.00:  DISTANCE FSL
 SDEP.m                 347.00:  START DEPTH
 TDD .m                 581.00:  TOTAL DEPTH (DRILLER)
 VSDR.deg               159.72:  VERT SEC DIRECT
 GVFD.g                   1.00:  GRAVITY FIELD
 MFLD.nT              50318.00:  MAGNETIC FIELD
 MDIP.deg                59.57:  MAGNETIC DIP
 MDEC.deg                 6.44:  MAGNETIC DECL
 GRDC.deg                 0.15:  GRID CORRECTION
 AZTC.deg                 6.29:  AZM TOTAL CORR
 EPD .m                   0.00:  ELEVATION
 EGL .m                   0.00:  GROUND ELEVATION
 WDMS.m                 169.80:  WD ELEV
 APD .m                  43.00:  DEPTH ABOVE PD
 AGAP.m                  43.00:  AIR GAP
 VSEW.m                 -14.24:  VERT SEC E/W
 VSNS.m                   7.72:  VERT SEC N/S
 DEP .m                 342.45:  DEPTH
 EKB .m                   0.00:  KB ELEVATION
 EDF .m                  43.00:  DF ELEVATION
 TDL .m                 237.00:  TOTAL DEPTH (LOGGER)
 VSC .                       0:  VS TO CLOSURE
 MAGU.                 1851428:  MAGUTM CHECKSUM
~Parameter Information Block
#MNEM.UNIT       Value        Description
#---------     -----------    ---------------------------
 AV  .mps                 1.50:  Ann Velocity 
 AVMX.mps                 2.90:  Max Ann Veloc 
 AZIF.deg               115.59:  Azm, Final 
 BHAT.        Rotary Steerable:  BHA Type 
 BROT.°/30m               0.50:  Build Rotating 
 BS  .in                  8.50:  Bit Size 
 BTPL.psig              580.00:  Bit Press Loss 
 CABU.                     Yes:  Customer Abuse 
 TCS .hr                 89.79:  Time Ciculation Ended 
 CV  .mps                 3.22:  Crit Velocity 
 CVMX.mps                 4.37:  Max Crit Veloc 
 DD1 .          Rashad Habibov:  Direct Drillr 1 
 DDSV.               Geo-Pilot:  DD Service 
 DEFF.%                  95.00:  % Det Eff 
 DLRX.°/30m               1.94:  Dogleg Rot Max 
 DLSO.°/30m               0.70:  Dogleg Oriented 
 DLSX.°/30m               1.94:  Dogleg Str Max 
 DRET.      04.45.00 25-Dec-20:  Drill End Time 
 DRST.      10.00.00 24-Dec-20:  Drill Start Tim 
 DTIM.hr                 16.64:  Time Drilling 
 EDEP.m                4999.01:  End Depth 
 ENG1.         Elchin Mammadov:  Engineer 1 
 ENG2.          Ruslan Safarov:  Engineer 2 
 ENG3.          Rustam Safarov:  Engineer 3 
 ETIM.      09.00.00 29-Dec-20:  End Time 
 FLOI.gpm               500.00:  Flow In 
 FLON.gpm               400.00:  Flow In Min 
 FLOS.cptm                0.00:  Fluid Loss 
 FLOX.gpm               500.00:  Flow In Max 
 HFLO.                      No:  High Flow 
 HPRE.                      No:  High Pressure 
 HTEM.                      No:  High Temp 
 HYDO.m                   2.00:  Hydro Offset 
 IFIN.deg                66.79:  Inc, Final 
 IMAX.deg                67.66:  Inc Max 
 IMIN.deg                66.39:  Inc Min 
 IMND.m                4949.37:  Inc Min Depth 
 IMXD.m                4778.63:  Inc Max Depth 
 JARR.                     Yes:  Jarring 
 LETM.      04.45.00 25-Dec-20:  Log End Time 
 LOST.hr                     0:  Lost Rig Time 
 LSTM.      10.00.00 24-Dec-20:  Log Start Time 
 MDCL.ppm             39000.00:  Mud Chlorides 
 MDES.     Inversion Oil/Synthetic:  Mud Desc 
 DFD .sg                  1.33:  Mud Density 
 MDMN.sg                  1.33:  Dens Mud Min 
 MDMX.sg                  1.33:  Dens Mud Max 
 MOIL.                      70:  Run Mud Oil % 
 MOWR.                   70:30:  Run Mud OWR 
 MSND.                       0:  Run Mud Sand % 
 MSOL.                    17.4:  Run Mud Solids% 
 DFV .spqt               84.00:  Mud Viscosity 
 MWOD.in                  6.75:  MWD Tool OD 
 MWSI.                     Yes:  Serv Intrp, MWD 
 OTIM.hr                168.14:  Time Operating 
 PCON.           Look Like New:  Pad Condition 
 PMAX.psia            10822.93:  Press Op, Max 
 PV  .cP                 30.00:  Mud PV 
 RUN .                     900:  Run Number 
 ROPA.m/hr               18.00:  ROP Avg 
 ROPN.m/hr               12.00:  ROP Min 
 ROPX.m/hr               25.00:  ROP Max 
 RPMA.rpm               120.00:  RPM Surface Avg 
 RPMN.rpm               100.00:  RPM Surface Min 
 RPMX.rpm               120.00:  RPM Surface Max 
 RRUN.                    0900:  Rig Run Number 
 SAZI.deg               115.08:  Azm, Start 
 SDEP.m                4762.01:  Start Depth 
 SIDD.                      No:  Serv Intrp, DD 
 SINC.deg                66.14:  Inc, Start 
 SPPA.psig             3700.00:  SPP Avg 
 SPPN.psig             3620.00:  SPP Min 
 SPPX.psig             3900.00:  SPP Max 
 STIM.      09.30.00 22-Dec-20:  Start Time 
 SVCS.                 DD, MWD:  Services 
 SVER.                    9.20:  Sperry Version 
 TDAT.m                 237.00:  Tot Depth Attmp 
 TDDF.                      No:  Trip for DD 
 TDLG.m                 237.00:  Tot Depth Loggd 
 TFF .                      No:  Trip for Fail 
 TQAA.f-kp               18.00:  Torque Abs Avg 
 TQAN.f-kp               17.00:  Torque Abs Min 
 TQAX.f-kp               20.00:  Torque Abs Max 
 TRRT.°/30m               0.60:  Turn Rotating 
 MRT .                    HCIM:  Maximum Recorded Temperature 
 TTMX.degC               94.12:  Max Tool Temp 
 VS01.                90627809:  Virtual Str1 SN 
 VS02.                90527813:  Virtual Str2 SN 
 VS03.                90545417:  Virtual Str3 SN 
 VS04.                12460870:  Virtual Str4 SN 
 VS05.                90516706:  Virtual Str5 SN 
 VS06.                90632007:  Virtual Str6 SN 
 WBMN.klb                 0.00:  WOB Min 
 WOBA.klb                14.00:  WOB Avg 
 WOBX.klb                25.00:  WOB Max 
 YP  .lhf2               32.00:  Yield Point 
~Curve Information Block
#MNEM.UNIT                 API CODE     Curve Description
#---------               -----------    ---------------------------
 TIME.HHMMSS            00 000 000 000:  GT Time & Date
 GTDEPTH.m              00 000 000 000:  GT Depth
 GTPQH.psia             00 000 000 000:  GT HR Quartz Pressure
 GTTQ.degC              00 000 000 000:  GT Quartz Temperature
 GTTN.NONE              00 000 000 000:  GT Test Number
 GTET.sec               00 000 000 000:  GT Elapsed Test Time
 GTTVD.m                00 000 000 000:  GT True Vertical Depth
#Other Information
#
#WARRANTY: Halliburton will use its best efforts to furnish customers with 
#accurate information and interpretations that are part of, and incident to, the services 
#provided.  However, Halliburton cannot and does not warrant the accuracy 
#or correctness of such information and interpretations.  Under no circumstances should any 
#such information or interpretation be relied upon as the sole basis for any drilling, 
#completion, production, or financial decision or any procedure involving any risk to the 
#safety of any drilling venture, drilling rig or its crew or any other third party.  The 
#Customer has full responsibility for all drilling, completion and production operation.  
#Halliburton makes no representations or warranties, either expressed or 
#implied, including, but not limited to, the implied warranties of merchantability or fitness 
#for a particular purpose, with respect to the services rendered.  In no event will 
#Halliburton be liable for failure to obtain any particular results or for 
#any damages, including, but not limited to, indirect, special or consequential damages, 
#resulting from the use of any information or interpretation provided by Halliburton.
#
~A           TIME           GTDEPTH  GTPQH  GTTQ  GTTN  GTET   GTTVD  
# ...
   15:29:38.838.25-Dec-2020 4892.01 2598.50 65.33 4.00 322.09 2535.10
   15:29:39.039.25-Dec-2020 4892.01 2598.50 65.33 4.00 322.29 2535.10
   15:29:39.239.25-Dec-2020 4892.01 2599.28 65.33 4.00 322.49 2535.10
   15:29:39.439.25-Dec-2020 4892.01 2596.94 65.33 4.00 322.69 2535.10
   15:29:39.639.25-Dec-2020 4892.01 2598.83 65.33 4.00 322.89 2535.10
   15:29:39.839.25-Dec-2020 4892.01 2597.31 65.33 4.00 323.09 2535.10
   15:29:40.039.25-Dec-2020 4892.01 2597.31 65.33 4.00 323.29 2535.10
   15:29:40.239.25-Dec-2020 4892.01 2597.43 65.33 4.00 323.49 2535.10
   15:29:40.439.25-Dec-2020 4892.01 2589.30 65.33 4.00 323.69 2535.10
   15:29:40.639.25-Dec-2020 4892.01 2588.82 65.33 4.00 323.89 2535.10
   15:29:40.839.25-Dec-2020 4892.01 2584.97 65.33 4.00 324.09 2535.10
   15:29:41.039.25-Dec-2020 4892.01 2584.97 65.33 4.00 324.29 2535.10
   15:29:41.239.25-Dec-2020 4892.01 2575.66 65.33 4.00 324.49 2535.10
   15:29:41.439.25-Dec-2020 4892.01 2572.47 65.33 4.00 324.69 2535.10
   15:29:41.639.25-Dec-2020 4892.01 2572.21 65.33 4.00 324.89 2535.10
   15:29:41.839.25-Dec-2020 4892.01 2569.21 65.33 4.00 325.09 2535.10
   15:29:42.039.25-Dec-2020 4892.01 2569.21 65.33 4.00 325.29 2535.10
   15:29:42.239.25-Dec-2020 4892.01 2569.76 65.33 4.00 325.49 2535.10
   15:29:42.439.25-Dec-2020 4892.01 2565.38 65.33 4.00 325.69 2535.10
   15:29:42.640.25-Dec-2020 4892.01 2560.54 65.33 4.00 325.89 2535.10
   15:29:42.840.25-Dec-2020 4892.01 2556.94 65.33 4.00 326.09 2535.10
   15:29:43.040.25-Dec-2020 4892.01 2556.94 65.33 4.00 326.29 2535.10
   15:29:43.240.25-Dec-2020 4892.01 2554.85 65.33 4.00 326.49 2535.10
   15:29:43.440.25-Dec-2020 4892.01 2550.71 65.33 4.00 326.69 2535.10
   15:29:43.640.25-Dec-2020 4892.01 2553.45 65.33 4.00 326.89 2535.10
   15:29:43.840.25-Dec-2020 4892.01 2549.23 65.33 4.00 327.09 2535.10
   15:29:44.040.25-Dec-2020 4892.01 2549.84 65.33 4.00 327.29 2535.10
   15:29:44.240.25-Dec-2020 4892.01 2589.27 65.33 4.00 327.49 2535.10
   15:29:44.440.25-Dec-2020 4892.01 2694.36 65.33 4.00 327.69 2535.10
   15:29:44.640.25-Dec-2020 4892.01 2714.49 65.33 4.00 327.89 2535.10
   15:29:44.840.25-Dec-2020 4892.01 2716.30 65.33 4.00 328.09 2535.10
   15:29:45.040.25-Dec-2020 4892.01 2716.30 65.33 4.00 328.29 2535.10
   15:29:45.240.25-Dec-2020 4892.01 2717.54 65.33 4.00 328.49 2535.10
   15:29:45.440.25-Dec-2020 4892.01 2717.32 65.33 4.00 328.69 2535.10
   15:29:45.640.25-Dec-2020 4892.01 2717.55 65.33 4.00 328.89 2535.10
   15:29:45.840.25-Dec-2020 4892.01 2717.55 65.33 4.00 329.09 2535.10
   15:29:46.040.25-Dec-2020 4892.01 2717.55 65.33 4.00 329.29 2535.10
   15:29:46.240.25-Dec-2020 4892.01 2717.62 65.33 4.00 329.49 2535.10
   15:29:46.441.25-Dec-2020 4892.01 2717.64 65.33 4.00 329.69 2535.10
   15:29:46.641.25-Dec-2020 4892.01 2717.66 65.33 4.00 329.89 2535.10
   15:29:46.841.25-Dec-2020 4892.01 2717.66 65.33 4.00 330.09 2535.10
   15:29:47.041.25-Dec-2020 4892.01 2717.66 65.33 4.00 330.29 2535.10
   15:29:47.241.25-Dec-2020 4892.01 2717.71 65.33 4.00 330.49 2535.10
   15:29:47.441.25-Dec-2020 4892.01 2717.99 65.33 4.00 330.69 2535.10
   15:29:47.641.25-Dec-2020 4892.01 2717.89 65.33 4.00 330.89 2535.10
   15:29:47.841.25-Dec-2020 4892.01 2718.06 65.33 4.00 331.09 2535.10
   15:29:48.041.25-Dec-2020 4892.01 2717.97 65.33 4.00 331.29 2535.10
   15:29:48.241.25-Dec-2020 4892.01 2717.99 65.33 4.00 331.49 2535.10
   15:29:48.441.25-Dec-2020 4892.01 2718.02 65.33 4.00 331.69 2535.10
   15:29:48.641.25-Dec-2020 4892.01 2717.99 65.33 4.00 331.89 2535.10
   15:29:48.841.25-Dec-2020 4892.01 2718.04 65.33 4.00 332.09 2535.10
   15:29:49.041.25-Dec-2020 4892.01 2718.04 65.33 4.00 332.29 2535.10
   15:29:49.241.25-Dec-2020 4892.01 2718.03 65.33 4.00 332.49 2535.10
   15:29:49.441.25-Dec-2020 4892.01 2718.02 65.33 4.00 332.69 2535.10
   15:29:49.641.25-Dec-2020 4892.01 2718.00 65.33 4.00 332.89 2535.10
   15:29:49.841.25-Dec-2020 4892.01 2718.00 65.33 4.00 333.09 2535.10
   15:29:50.042.25-Dec-2020 4892.01 2718.00 65.33 4.00 333.29 2535.10
   15:29:50.242.25-Dec-2020 4892.01 2718.25 65.33 4.00 333.49 2535.10
   15:29:50.442.25-Dec-2020 4892.01 2717.94 65.33 4.00 333.69 2535.10
   15:29:50.642.25-Dec-2020 4892.01 2718.14 65.33 4.00 333.89 2535.10
   15:29:50.842.25-Dec-2020 4892.01 2718.13 65.33 4.00 334.09 2535.10
   15:29:51.042.25-Dec-2020 4892.01 2718.13 65.33 4.00 334.29 2535.10
   15:29:51.242.25-Dec-2020 4892.01 2718.52 65.33 4.00 334.49 2535.10
   15:29:51.442.25-Dec-2020 4892.01 2718.21 65.33 4.00 334.69 2535.10
   15:29:51.642.25-Dec-2020 4892.01 2718.06 65.33 4.00 334.89 2535.10
   15:29:51.842.25-Dec-2020 4892.01 2718.29 65.33 4.00 335.09 2535.10
   15:29:52.042.25-Dec-2020 4892.01 2718.24 65.33 4.00 335.29 2535.10
   15:29:52.242.25-Dec-2020 4892.01 2718.06 65.33 4.00 335.49 2535.10
   15:29:52.442.25-Dec-2020 4892.01 2718.32 65.33 4.00 335.69 2535.10
   15:29:52.642.25-Dec-2020 4892.01 2718.16 65.33 4.00 335.89 2535.10
   15:29:52.842.25-Dec-2020 4892.01 2718.14 65.33 4.00 336.09 2535.10
   15:29:53.042.25-Dec-2020 4892.01 2718.14 65.33 4.00 336.29 2535.10
   15:29:53.242.25-Dec-2020 4892.01 2718.18 65.33 4.00 336.49 2535.10
   15:29:53.442.25-Dec-2020 4892.01 2718.18 65.33 4.00 336.69 2535.10
   15:29:53.642.25-Dec-2020 4892.01 2718.20 65.33 4.00 336.89 2535.10
   15:29:53.843.25-Dec-2020 4892.01 2718.19 65.33 4.00 337.09 2535.10
   15:29:54.043.25-Dec-2020 4892.01 2718.19 65.33 4.00 337.29 2535.10
   15:29:54.243.25-Dec-2020 4892.01 2718.18 65.33 4.00 337.49 2535.10
   15:29:54.443.25-Dec-2020 4892.01 2718.19 65.33 4.00 337.69 2535.10
   15:29:54.643.25-Dec-2020 4892.01 2718.17 65.33 4.00 337.89 2535.10
   15:29:54.843.25-Dec-2020 4892.01 2718.21 65.33 4.00 338.09 2535.10
   15:29:55.043.25-Dec-2020 4892.01 2718.21 65.33 4.00 338.29 2535.10
   15:29:55.243.25-Dec-2020 4892.01 2718.31 65.33 4.00 338.49 2535.10
   15:29:55.443.25-Dec-2020 4892.01 2718.16 65.33 4.00 338.69 2535.10
   15:29:55.643.25-Dec-2020 4892.01 2718.27 65.33 4.00 338.89 2535.10
   15:29:55.843.25-Dec-2020 4892.01 2718.23 65.33 4.00 339.09 2535.10
   15:29:56.043.25-Dec-2020 4892.01 2718.19 65.33 4.00 339.29 2535.10
   15:29:56.243.25-Dec-2020 4892.01 2718.23 65.33 4.00 339.49 2535.10
   15:29:56.443.25-Dec-2020 4892.01 2718.23 65.33 4.00 339.69 2535.10
   15:29:56.643.25-Dec-2020 4892.01 2718.22 65.33 4.00 339.89 2535.10
   15:29:56.843.25-Dec-2020 4892.01 2718.22 65.33 4.00 340.09 2535.10
   15:29:57.043.25-Dec-2020 4892.01 2718.22 65.33 4.00 340.29 2535.10
   15:29:57.243.25-Dec-2020 4892.01 2718.11 65.33 4.00 340.49 2535.10
   15:29:57.444.25-Dec-2020 4892.01 2718.30 65.33 4.00 340.69 2535.10
   15:29:57.644.25-Dec-2020 4892.01 2718.23 65.33 4.00 340.89 2535.10
   15:29:57.844.25-Dec-2020 4892.01 2718.04 65.33 4.00 341.09 2535.10
   15:29:58.044.25-Dec-2020 4892.01 2718.04 65.33 4.00 341.29 2535.10
   15:29:58.244.25-Dec-2020 4892.01 2718.32 65.33 4.00 341.49 2535.10
   15:29:58.444.25-Dec-2020 4892.01 2718.06 65.33 4.00 341.69 2535.10
   15:29:58.644.25-Dec-2020 4892.01 2718.26 65.33 4.00 341.89 2535.10
   15:29:58.844.25-Dec-2020 4892.01 2718.36 65.33 4.00 342.09 2535.10
   15:29:59.044.25-Dec-2020 4892.01 2718.36 65.33 4.00 342.29 2535.10
   15:29:59.244.25-Dec-2020 4892.01 2718.09 65.33 4.00 342.49 2535.10
   15:29:59.444.25-Dec-2020 4892.01 2718.32 65.33 4.00 342.69 2535.10
   15:29:59.644.25-Dec-2020 4892.01 2718.21 65.33 4.00 342.89 2535.10
   15:29:59.844.25-Dec-2020 4892.01 2718.31 65.33 4.00 343.09 2535.10
   15:30:00.044.25-Dec-2020 4892.01 2718.13 65.33 4.00 343.29 2535.10
   15:30:00.244.25-Dec-2020 4892.01 2718.32 65.33 4.00 343.49 2535.10
   15:30:00.444.25-Dec-2020 4892.01 2718.23 65.33 4.00 343.69 2535.10
   15:30:00.644.25-Dec-2020 4892.01 2718.15 65.33 4.00 343.89 2535.10
   15:30:00.844.25-Dec-2020 4892.01 2718.28 65.33 4.00 344.09 2535.10
   15:30:01.044.25-Dec-2020 4892.01 2718.28 65.33 4.00 344.29 2535.10
   15:30:01.245.25-Dec-2020 4892.01 2718.24 65.33 4.00 344.49 2535.10
   15:30:01.445.25-Dec-2020 4892.01 2718.25 65.33 4.00 344.69 2535.10
   15:30:01.645.25-Dec-2020 4892.01 2718.22 65.33 4.00 344.89 2535.10
