~Version Information
 VERS.                  2.0:   CWLS log ASCII Standard -VERSION 2.0
 WRAP.                   NO:   One line per depth step
~Well Information Block
#MNEM.UNIT     VALUE/NAME     DESCRIPTION
#---------     -----------    ---------------------------
 STRT.S             12:53:37 25-Dec-20: START TIME 12:53:37 25-Dec-20
 STOP.S             13:01:52 25-Dec-20: STOP TIME  13:01:52 25-Dec-20
 STEP.S                   0.00: STEP TIME
 NULL.                 -999.25: NULL VALUE
 DFWT.                        :  DIST FWL TEXT
 DFST.                        :  DIST FSL TEXT
 DMF .             Drill Floor:  DRILL MEAS FROM
 STIM.      04.54.24 22-Sep-20:  START TIME
 DATE.      04.54.24 21-Nov-20:  END TIME
 SPUD.               21-Nov-20:  SPUD DATE
 NREF.                    Grid:  NORTH REFERENCE
 HPTY.       Minimum Curvature:  HOLE POS TYPE
 DMOD.             Drill Model:  DRILL MOD DESC
 SVYD.                  Survey:  SURVEY DESC
 ILTD.               Lithology:  INTERP LTH DESC
 FTOP.          Formation Tops:  FORM TOPS DESC
 SON .        AZ-XX-0906571587:  JOB NUMBER
 COMP.     BP Exploration (Caspian Sea) Ltd:  COMPANY
 UWI .                     N/A:  UNIQUE WELL IDENTIFIER
 API .                     N/A:  API NUMBER
 BASE.              Azerbaijan:  LOGGING EQUIPMENT BASE LOCATION
 REGN.                   EESSA:  REGION
 PROV.                    Baku:  PROVINCE
 STAT.                    Baku:  STATE NAME
 CTRY.              Azerbaijan:  COUNTRY NAME
 FLD .                     ACG:  FIELD NAME
 SRVC.     TURAN Drilling & Engineering:  CONTRACTOR
 WELL.                     J27:  WELL NAME
 RIG .             West Chirag:  RIG NAME
 DOE .                     N/A:  DOE NUMBER
 DCON.         Sperry Drilling:  DIRECTNL CONTR
 PDAT.          Mean Sea Level:  PERMANENT DATUM
 WTYP.                Deviated:  WELL TYPE
 MWDS.                    Baku:  MWD SHOP
 JOBN.        AZ-XX-0906571587:  JOB TICKET NUMB
 UNIT.                     N/A:  LOGGING EQUIPMENT ID
 MDS .        Operator Entered:  MAG DATA SOURCE
 CNTY.                        :  COUNTY
 LOC .                        :  LOCATION
 LMF .             Drill Floor:  LOG MEASURED FROM
 TVDS.m                  43.00:  TVDSS CORRECTN
 LATI.deg                40.13:  LATITUDE
 LONG.deg                51.22:  LONGITUDE
 WHNS.m                   7.72:  WELL HEAD N/S
 WHEW.m                 -14.24:  WELL HEAD E/W
 UTMX.m              519005.06:  UTM X
 UTMY.m             4443793.85:  UTM Y
 DFWL.m                   0.00:  DISTANCE FWL
 DFSL.m                   0.00:  DISTANCE FSL
 SDEP.m                 347.00:  START DEPTH
 TDD .m                 581.00:  TOTAL DEPTH (DRILLER)
 VSDR.deg               159.72:  VERT SEC DIRECT
 GVFD.g                   1.00:  GRAVITY FIELD
 MFLD.nT              50318.00:  MAGNETIC FIELD
 MDIP.deg                59.57:  MAGNETIC DIP
 MDEC.deg                 6.44:  MAGNETIC DECL
 GRDC.deg                 0.15:  GRID CORRECTION
 AZTC.deg                 6.29:  AZM TOTAL CORR
 EPD .m                   0.00:  ELEVATION
 EGL .m                   0.00:  GROUND ELEVATION
 WDMS.m                 169.80:  WD ELEV
 APD .m                  43.00:  DEPTH ABOVE PD
 AGAP.m                  43.00:  AIR GAP
 VSEW.m                 -14.24:  VERT SEC E/W
 VSNS.m                   7.72:  VERT SEC N/S
 DEP .m                 342.45:  DEPTH
 EKB .m                   0.00:  KB ELEVATION
 EDF .m                  43.00:  DF ELEVATION
 TDL .m                 237.00:  TOTAL DEPTH (LOGGER)
 VSC .                       0:  VS TO CLOSURE
 MAGU.                 1851428:  MAGUTM CHECKSUM
~Parameter Information Block
#MNEM.UNIT       Value        Description
#---------     -----------    ---------------------------
 AV  .mps                 1.50:  Ann Velocity 
 AVMX.mps                 2.90:  Max Ann Veloc 
 AZIF.deg               115.59:  Azm, Final 
 BHAT.        Rotary Steerable:  BHA Type 
 BROT.°/30m               0.50:  Build Rotating 
 BS  .in                  8.50:  Bit Size 
 BTPL.psig              580.00:  Bit Press Loss 
 CABU.                     Yes:  Customer Abuse 
 COMM.                     LÓw:  Run Comments 1 
 TCS .hr                 89.79:  Time Ciculation Ended 
 CV  .mps                 3.22:  Crit Velocity 
 CVMX.mps                 4.37:  Max Crit Veloc 
 DD1 .          Rashad Habibov:  Direct Drillr 1 
 DDSV.               Geo-Pilot:  DD Service 
 DEFF.%                  95.00:  % Det Eff 
 DLRX.°/30m               1.94:  Dogleg Rot Max 
 DLSO.°/30m               0.70:  Dogleg Oriented 
 DLSX.°/30m               1.94:  Dogleg Str Max 
 DRET.      04.45.00 25-Dec-20:  Drill End Time 
 DRST.      10.00.00 24-Dec-20:  Drill Start Tim 
 DTIM.hr                 16.64:  Time Drilling 
 EDEP.m                4999.01:  End Depth 
 ENG1.         Elchin Mammadov:  Engineer 1 
 ENG2.          Ruslan Safarov:  Engineer 2 
 ENG3.          Rustam Safarov:  Engineer 3 
 ETIM.      09.00.00 29-Dec-20:  End Time 
 FLOI.gpm               500.00:  Flow In 
 FLON.gpm               400.00:  Flow In Min 
 FLOS.cptm                0.00:  Fluid Loss 
 FLOX.gpm               500.00:  Flow In Max 
 HFLO.                      No:  High Flow 
 HPRE.                      No:  High Pressure 
 HTEM.                      No:  High Temp 
 HYDO.m                   2.00:  Hydro Offset 
 IFIN.deg                66.79:  Inc, Final 
 IMAX.deg                67.66:  Inc Max 
 IMIN.deg                66.39:  Inc Min 
 IMND.m                4949.37:  Inc Min Depth 
 IMXD.m                4778.63:  Inc Max Depth 
 JARR.                     Yes:  Jarring 
 LETM.      04.45.00 25-Dec-20:  Log End Time 
 LOST.hr                     0:  Lost Rig Time 
 LSTM.      10.00.00 24-Dec-20:  Log Start Time 
 MDCL.ppm             39000.00:  Mud Chlorides 
 MDES.     Inversion Oil/Synthetic:  Mud Desc 
 DFD .sg                  1.33:  Mud Density 
 MDMN.sg                  1.33:  Dens Mud Min 
 MDMX.sg                  1.33:  Dens Mud Max 
 MOIL.                      70:  Run Mud Oil % 
 MOWR.                   70:30:  Run Mud OWR 
 MSND.                       0:  Run Mud Sand % 
 MSOL.                    17.4:  Run Mud Solids% 
 DFV .spqt               84.00:  Mud Viscosity 
 MWOD.in                  6.75:  MWD Tool OD 
 MWSI.                     Yes:  Serv Intrp, MWD 
 OTIM.hr                168.14:  Time Operating 
 PCON.           Look Like New:  Pad Condition 
 PMAX.psia            10822.93:  Press Op, Max 
 PV  .cP                 30.00:  Mud PV 
 RUN .                     900:  Run Number 
 ROPA.m/hr               18.00:  ROP Avg 
 ROPN.m/hr               12.00:  ROP Min 
 ROPX.m/hr               25.00:  ROP Max 
 RPMA.rpm               120.00:  RPM Surface Avg 
 RPMN.rpm               100.00:  RPM Surface Min 
 RPMX.rpm               120.00:  RPM Surface Max 
 RRUN.                    0900:  Rig Run Number 
 SAZI.deg               115.08:  Azm, Start 
 SDEP.m                4762.01:  Start Depth 
 SIDD.                      No:  Serv Intrp, DD 
 SINC.deg                66.14:  Inc, Start 
 SPPA.psig             3700.00:  SPP Avg 
 SPPN.psig             3620.00:  SPP Min 
 SPPX.psig             3900.00:  SPP Max 
 STIM.      09.30.00 22-Dec-20:  Start Time 
 SVCS.                 DD, MWD:  Services 
 SVER.                    9.20:  Sperry Version 
 TDAT.m                 237.00:  Tot Depth Attmp 
 TDDF.                      No:  Trip for DD 
 TDLG.m                 237.00:  Tot Depth Loggd 
 TFF .                      No:  Trip for Fail 
 TQAA.f-kp               18.00:  Torque Abs Avg 
 TQAN.f-kp               17.00:  Torque Abs Min 
 TQAX.f-kp               20.00:  Torque Abs Max 
 TRRT.°/30m               0.60:  Turn Rotating 
 MRT .                    HCIM:  Maximum Recorded Temperature 
 TTMX.degC               94.12:  Max Tool Temp 
 VS01.                90627809:  Virtual Str1 SN 
 VS02.                90527813:  Virtual Str2 SN 
 VS03.                90545417:  Virtual Str3 SN 
 VS04.                12460870:  Virtual Str4 SN 
 VS05.                90516706:  Virtual Str5 SN 
 VS06.                90632007:  Virtual Str6 SN 
 WBMN.klb                 0.00:  WOB Min 
 WOBA.klb                14.00:  WOB Avg 
 WOBX.klb                25.00:  WOB Max 
 YP  .lhf2               32.00:  Yield Point 
~Curve Information Block
#MNEM.UNIT                 API CODE     Curve Description
#---------               -----------    ---------------------------
 TIME.HHMMSS            00 000 000 000:  GT Time & Date
 GTDEPTH.m              00 000 000 000:  GT Depth
 GTPQH.psia             00 000 000 000:  GT HR Quartz Pressure
 GTTQ.degC              00 000 000 000:  GT Quartz Temperature
 GTTN.NONE              00 000 000 000:  GT Test Number
 GTET.sec               00 000 000 000:  GT Elapsed Test Time
 GTTVD.m                00 000 000 000:  GT True Vertical Depth
#Other Information
#
#WARRANTY: Halliburton will use its best efforts to furnish customers with 
#accurate information and interpretations that are part of, and incident to, the services 
#provided.  However, Halliburton cannot and does not warrant the accuracy 
#or correctness of such information and interpretations.  Under no circumstances should any 
#such information or interpretation be relied upon as the sole basis for any drilling, 
#completion, production, or financial decision or any procedure involving any risk to the 
#safety of any drilling venture, drilling rig or its crew or any other third party.  The 
#Customer has full responsibility for all drilling, completion and production operation.  
#Halliburton makes no representations or warranties, either expressed or 
#implied, including, but not limited to, the implied warranties of merchantability or fitness 
#for a particular purpose, with respect to the services rendered.  In no event will 
#Halliburton be liable for failure to obtain any particular results or for 
#any damages, including, but not limited to, indirect, special or consequential damages, 
#resulting from the use of any information or interpretation provided by Halliburton.
#
~A           TIME           GTDEPTH  GTPQH  GTTQ  GTTN  GTET   GTTVD  
   12:53:37.185.25-Dec-2020 4950.51 -999.25 66.77 1.00   0.00 2558.08
   12:53:37.385.25-Dec-2020 4950.51    0.00 66.77 1.00   0.20 2558.08
   12:53:37.585.25-Dec-2020 4950.51    0.00 66.77 1.00   0.40 2558.08
   12:53:37.785.25-Dec-2020 4950.51 5490.20 66.76 1.00   0.60 2558.08
   12:53:37.985.25-Dec-2020 4950.51 5488.81 66.76 1.00   0.80 2558.08
   12:53:38.185.25-Dec-2020 4950.51 5496.05 66.76 1.00   1.00 2558.08
   12:53:38.385.25-Dec-2020 4950.51 5496.05 66.76 1.00   1.20 2558.08
   12:53:38.585.25-Dec-2020 4950.51 5488.88 66.76 1.00   1.40 2558.08
   12:53:38.785.25-Dec-2020 4950.51 5503.27 66.76 1.00   1.60 2558.08
   12:53:38.985.25-Dec-2020 4950.51 5485.87 66.76 1.00   1.80 2558.08
   12:53:39.185.25-Dec-2020 4950.51 5488.57 66.76 1.00   2.00 2558.08
   12:53:39.386.25-Dec-2020 4950.51 5488.57 66.76 1.00   2.20 2558.08
   12:53:39.586.25-Dec-2020 4950.51 5491.38 66.76 1.00   2.40 2558.08
   12:53:39.786.25-Dec-2020 4950.51 5495.98 66.76 1.00   2.60 2558.08
   12:53:39.986.25-Dec-2020 4950.51 5493.61 66.76 1.00   2.80 2558.08
   12:53:40.186.25-Dec-2020 4950.51 5491.73 66.76 1.00   3.00 2558.08
   12:53:40.386.25-Dec-2020 4950.51 5491.73 66.76 1.00   3.20 2558.08
   12:53:40.586.25-Dec-2020 4950.51 5496.73 66.76 1.00   3.40 2558.08
   12:53:40.786.25-Dec-2020 4950.51 5490.86 66.76 1.00   3.60 2558.08
   12:53:40.986.25-Dec-2020 4950.51 5493.14 66.76 1.00   3.80 2558.08
   12:53:41.186.25-Dec-2020 4950.51 5493.29 66.76 1.00   4.00 2558.08
   12:53:41.386.25-Dec-2020 4950.51 5493.29 66.76 1.00   4.20 2558.08
   12:53:41.587.25-Dec-2020 4950.51 5492.49 66.76 1.00   4.40 2558.08
   12:53:41.787.25-Dec-2020 4950.51 5493.82 66.76 1.00   4.60 2558.08
   12:53:41.987.25-Dec-2020 4950.51 5492.30 66.76 1.00   4.80 2558.08
   12:53:42.187.25-Dec-2020 4950.51 5492.82 66.76 1.00   5.00 2558.08
   12:53:42.387.25-Dec-2020 4950.51 5492.82 66.76 1.00   5.20 2558.08
   12:53:42.587.25-Dec-2020 4950.51 5492.50 66.76 1.00   5.40 2558.08
   12:53:42.787.25-Dec-2020 4950.51 5493.81 66.76 1.00   5.60 2558.08
   12:53:42.987.25-Dec-2020 4950.51 5493.91 66.76 1.00   5.80 2558.08
   12:53:43.187.25-Dec-2020 4950.51 5501.42 66.76 1.00   6.00 2558.08
   12:53:43.387.25-Dec-2020 4950.51 5501.42 66.76 1.00   6.20 2558.08
   12:53:43.587.25-Dec-2020 4950.51 5492.62 66.76 1.00   6.40 2558.08
   12:53:43.788.25-Dec-2020 4950.51 5498.14 66.76 1.00   6.60 2558.08
   12:53:43.988.25-Dec-2020 4950.51 5495.81 66.76 1.00   6.80 2558.08
   12:53:44.188.25-Dec-2020 4950.51 5494.57 66.76 1.00   7.00 2558.08
   12:53:44.388.25-Dec-2020 4950.51 5494.57 66.76 1.00   7.20 2558.08
   12:53:44.588.25-Dec-2020 4950.51 5494.57 66.76 1.00   7.40 2558.08
   12:53:44.788.25-Dec-2020 4950.51 5496.04 66.76 1.00   7.60 2558.08
   12:53:44.988.25-Dec-2020 4950.51 5496.53 66.76 1.00   7.80 2558.08
   12:53:45.188.25-Dec-2020 4950.51 5496.20 66.76 1.00   8.00 2558.08
   12:53:45.388.25-Dec-2020 4950.51 5496.20 66.76 1.00   8.20 2558.08
   12:53:45.588.25-Dec-2020 4950.51 5494.97 66.76 1.00   8.40 2558.08
   12:53:45.788.25-Dec-2020 4950.51 5507.80 66.76 1.00   8.60 2558.08
   12:53:45.989.25-Dec-2020 4950.51 5496.01 66.76 1.00   8.80 2558.08
   12:53:46.189.25-Dec-2020 4950.51 5495.49 66.76 1.00   9.00 2558.08
   12:53:46.389.25-Dec-2020 4950.51 5495.49 66.76 1.00   9.20 2558.08
   12:53:46.589.25-Dec-2020 4950.51 5504.66 66.76 1.00   9.40 2558.08
   12:53:46.789.25-Dec-2020 4950.51 5497.56 66.76 1.00   9.60 2558.08
   12:53:46.989.25-Dec-2020 4950.51 5494.02 66.76 1.00   9.80 2558.08
   12:53:47.189.25-Dec-2020 4950.51 5501.62 66.76 1.00  10.00 2558.08
   12:53:47.389.25-Dec-2020 4950.51 5501.62 66.76 1.00  10.20 2558.08
   12:53:47.589.25-Dec-2020 4950.51 5503.23 66.76 1.00  10.40 2558.08
   12:53:47.789.25-Dec-2020 4950.51 5501.88 66.76 1.00  10.60 2558.08
   12:53:47.989.25-Dec-2020 4950.51 5498.34 66.76 1.00  10.80 2558.08
   12:53:48.190.25-Dec-2020 4950.51 5499.11 66.76 1.00  11.00 2558.08
   12:53:48.390.25-Dec-2020 4950.51 5499.11 66.76 1.00  11.21 2558.08
   12:53:48.590.25-Dec-2020 4950.51 5497.16 66.76 1.00  11.41 2558.08
   12:53:48.790.25-Dec-2020 4950.51 5500.48 66.76 1.00  11.61 2558.08
   12:53:48.990.25-Dec-2020 4950.51 5508.91 66.75 1.00  11.81 2558.08
   12:53:49.190.25-Dec-2020 4950.51 5502.01 66.75 1.00  12.01 2558.08
   12:53:49.390.25-Dec-2020 4950.51 5502.01 66.75 1.00  12.21 2558.08
   12:53:49.590.25-Dec-2020 4950.51 5501.46 66.75 1.00  12.41 2558.08
   12:53:49.790.25-Dec-2020 4950.51 5500.23 66.75 1.00  12.61 2558.08
   12:53:49.990.25-Dec-2020 4950.51 5500.23 66.75 1.00  12.81 2558.08
   12:53:50.190.25-Dec-2020 4950.51 5501.07 66.75 1.00  13.01 2558.08
   12:53:50.391.25-Dec-2020 4950.51 5501.07 66.75 1.00  13.21 2558.08
   12:53:50.591.25-Dec-2020 4950.51 5501.41 66.75 1.00  13.41 2558.08
   12:53:50.791.25-Dec-2020 4950.51 5501.33 66.75 1.00  13.61 2558.08
   12:53:50.991.25-Dec-2020 4950.51 5501.28 66.75 1.00  13.81 2558.08
   12:53:51.191.25-Dec-2020 4950.51 5501.87 66.75 1.00  14.01 2558.08
   12:53:51.391.25-Dec-2020 4950.51 5501.87 66.75 1.00  14.21 2558.08
   12:53:51.591.25-Dec-2020 4950.51 5501.81 66.75 1.00  14.41 2558.08
   12:53:51.791.25-Dec-2020 4950.51 5502.68 66.75 1.00  14.61 2558.08
   12:53:51.991.25-Dec-2020 4950.51 5501.18 66.75 1.00  14.81 2558.08
   12:53:52.191.25-Dec-2020 4950.51 5502.67 66.75 1.00  15.01 2558.08
   12:53:52.391.25-Dec-2020 4950.51 5502.67 66.75 1.00  15.21 2558.08
   12:53:52.592.25-Dec-2020 4950.51 5498.83 66.75 1.00  15.41 2558.08
   12:53:52.792.25-Dec-2020 4950.51 5501.43 66.75 1.00  15.61 2558.08
   12:53:52.992.25-Dec-2020 4950.51 5509.77 66.75 1.00  15.81 2558.08
   12:53:53.192.25-Dec-2020 4950.51 5503.85 66.75 1.00  16.01 2558.08
   12:53:53.392.25-Dec-2020 4950.51 5503.85 66.75 1.00  16.21 2558.08
   12:53:53.592.25-Dec-2020 4950.51 5504.27 66.75 1.00  16.41 2558.08
   12:53:53.792.25-Dec-2020 4950.51 5505.29 66.75 1.00  16.61 2558.08
   12:53:53.992.25-Dec-2020 4950.51 5504.41 66.75 1.00  16.81 2558.08
   12:53:54.192.25-Dec-2020 4950.51 5504.57 66.75 1.00  17.01 2558.08
   12:53:54.392.25-Dec-2020 4950.51 5504.57 66.75 1.00  17.21 2558.08
   12:53:54.592.25-Dec-2020 4950.51 5503.27 66.75 1.00  17.41 2558.08
   12:53:54.792.25-Dec-2020 4950.51 5505.14 66.75 1.00  17.61 2558.08
   12:53:54.993.25-Dec-2020 4950.51 5506.70 66.75 1.00  17.81 2558.08
   12:53:55.193.25-Dec-2020 4950.51 5514.15 66.75 1.00  18.01 2558.08
   12:53:55.393.25-Dec-2020 4950.51 5514.15 66.75 1.00  18.21 2558.08
   12:53:55.593.25-Dec-2020 4950.51 5504.03 66.75 1.00  18.41 2558.08
   12:53:55.793.25-Dec-2020 4950.51 5517.09 66.75 1.00  18.61 2558.08
   12:53:55.993.25-Dec-2020 4950.51 5508.49 66.75 1.00  18.81 2558.08
   12:53:56.193.25-Dec-2020 4950.51 5503.13 66.75 1.00  19.01 2558.08
   12:53:56.393.25-Dec-2020 4950.51 5503.13 66.75 1.00  19.21 2558.08
   12:53:56.593.25-Dec-2020 4950.51 5508.83 66.75 1.00  19.41 2558.08
   12:53:56.793.25-Dec-2020 4950.51 5506.92 66.75 1.00  19.61 2558.08
   12:53:56.993.25-Dec-2020 4950.51 5515.11 66.75 1.00  19.81 2558.08
   12:53:57.194.25-Dec-2020 4950.51 5510.61 66.75 1.00  20.01 2558.08
   12:53:57.394.25-Dec-2020 4950.51 5510.61 66.75 1.00  20.21 2558.08
   12:53:57.594.25-Dec-2020 4950.51 5507.82 66.75 1.00  20.41 2558.08
   12:53:57.794.25-Dec-2020 4950.51 5515.74 66.75 1.00  20.61 2558.08
   12:53:57.994.25-Dec-2020 4950.51 5508.83 66.75 1.00  20.81 2558.08
   12:53:58.194.25-Dec-2020 4950.51 5505.22 66.75 1.00  21.01 2558.08
   12:53:58.394.25-Dec-2020 4950.51 5505.22 66.75 1.00  21.21 2558.08
   12:53:58.594.25-Dec-2020 4950.51 5510.59 66.75 1.00  21.41 2558.08
   12:53:58.794.25-Dec-2020 4950.51 5506.32 66.75 1.00  21.61 2558.08
   12:53:58.994.25-Dec-2020 4950.51 5507.98 66.75 1.00  21.81 2558.08
   12:53:59.194.25-Dec-2020 4950.51 5509.27 66.75 1.00  22.01 2558.08
   12:53:59.395.25-Dec-2020 4950.51 5509.27 66.75 1.00  22.21 2558.08
   12:53:59.595.25-Dec-2020 4950.51 5507.97 66.75 1.00  22.41 2558.08
   12:53:59.795.25-Dec-2020 4950.51 5509.08 66.75 1.00  22.61 2558.08
   12:53:59.995.25-Dec-2020 4950.51 5509.43 66.74 1.00  22.81 2558.08
