~Version Information
 VERS.                  2.0:   CWLS log ASCII Standard -VERSION 2.0
 WRAP.                   NO:   One line per depth step
~Well Information Block
#MNEM.UNIT     VALUE/NAME     DESCRIPTION
#---------     -----------    ---------------------------
 STRT.S             13:36:27 25-Dec-20: START TIME 13:36:27 25-Dec-20
 STOP.S             13:44:49 25-Dec-20: STOP TIME  13:44:49 25-Dec-20
 STEP.S                   0.00: STEP TIME
 NULL.                 -999.25: NULL VALUE
 DFWT.                        :  DIST FWL TEXT
 DFST.                        :  DIST FSL TEXT
 DMF .             Drill Floor:  DRILL MEAS FROM
 STIM.      04.54.24 22-Sep-20:  START TIME
 DATE.      04.54.24 21-Nov-20:  END TIME
 SPUD.               21-Nov-20:  SPUD DATE
 NREF.                    Grid:  NORTH REFERENCE
 HPTY.       Minimum Curvature:  HOLE POS TYPE
 DMOD.             Drill Model:  DRILL MOD DESC
 SVYD.                  Survey:  SURVEY DESC
 ILTD.               Lithology:  INTERP LTH DESC
 FTOP.          Formation Tops:  FORM TOPS DESC
 SON .        AZ-XX-0906571587:  JOB NUMBER
 COMP.     BP Exploration (Caspian Sea) Ltd:  COMPANY
 UWI .                     N/A:  UNIQUE WELL IDENTIFIER
 API .                     N/A:  API NUMBER
 BASE.              Azerbaijan:  LOGGING EQUIPMENT BASE LOCATION
 REGN.                   EESSA:  REGION
 PROV.                    Baku:  PROVINCE
 STAT.                    Baku:  STATE NAME
 CTRY.              Azerbaijan:  COUNTRY NAME
 FLD .                     ACG:  FIELD NAME
 SRVC.     TURAN Drilling & Engineering:  CONTRACTOR
 WELL.                     J27:  WELL NAME
 RIG .             West Chirag:  RIG NAME
 DOE .                     N/A:  DOE NUMBER
 DCON.         Sperry Drilling:  DIRECTNL CONTR
 PDAT.          Mean Sea Level:  PERMANENT DATUM
 WTYP.                Deviated:  WELL TYPE
 MWDS.                    Baku:  MWD SHOP
 JOBN.        AZ-XX-0906571587:  JOB TICKET NUMB
 UNIT.                     N/A:  LOGGING EQUIPMENT ID
 MDS .        Operator Entered:  MAG DATA SOURCE
 CNTY.                        :  COUNTY
 LOC .                        :  LOCATION
 LMF .             Drill Floor:  LOG MEASURED FROM
 TVDS.m                  43.00:  TVDSS CORRECTN
 LATI.deg                40.13:  LATITUDE
 LONG.deg                51.22:  LONGITUDE
 WHNS.m                   7.72:  WELL HEAD N/S
 WHEW.m                 -14.24:  WELL HEAD E/W
 UTMX.m              519005.06:  UTM X
 UTMY.m             4443793.85:  UTM Y
 DFWL.m                   0.00:  DISTANCE FWL
 DFSL.m                   0.00:  DISTANCE FSL
 SDEP.m                 347.00:  START DEPTH
 TDD .m                 581.00:  TOTAL DEPTH (DRILLER)
 VSDR.deg               159.72:  VERT SEC DIRECT
 GVFD.g                   1.00:  GRAVITY FIELD
 MFLD.nT              50318.00:  MAGNETIC FIELD
 MDIP.deg                59.57:  MAGNETIC DIP
 MDEC.deg                 6.44:  MAGNETIC DECL
 GRDC.deg                 0.15:  GRID CORRECTION
 AZTC.deg                 6.29:  AZM TOTAL CORR
 EPD .m                   0.00:  ELEVATION
 EGL .m                   0.00:  GROUND ELEVATION
 WDMS.m                 169.80:  WD ELEV
 APD .m                  43.00:  DEPTH ABOVE PD
 AGAP.m                  43.00:  AIR GAP
 VSEW.m                 -14.24:  VERT SEC E/W
 VSNS.m                   7.72:  VERT SEC N/S
 DEP .m                 342.45:  DEPTH
 EKB .m                   0.00:  KB ELEVATION
 EDF .m                  43.00:  DF ELEVATION
 TDL .m                 237.00:  TOTAL DEPTH (LOGGER)
 VSC .                       0:  VS TO CLOSURE
 MAGU.                 1851428:  MAGUTM CHECKSUM
~Parameter Information Block
#MNEM.UNIT       Value        Description
#---------     -----------    ---------------------------
 AV  .mps                 1.50:  Ann Velocity 
 AVMX.mps                 2.90:  Max Ann Veloc 
 AZIF.deg               115.59:  Azm, Final 
 BHAT.        Rotary Steerable:  BHA Type 
 BROT.°/30m               0.50:  Build Rotating 
 BS  .in                  8.50:  Bit Size 
 BTPL.psig              580.00:  Bit Press Loss 
 CABU.                     Yes:  Customer Abuse 
 COMM.                     lW:  Run Comments 1 
 TCS .hr                 89.79:  Time Ciculation Ended 
 CV  .mps                 3.22:  Crit Velocity 
 CVMX.mps                 4.37:  Max Crit Veloc 
 DD1 .          Rashad Habibov:  Direct Drillr 1 
 DDSV.               Geo-Pilot:  DD Service 
 DEFF.%                  95.00:  % Det Eff 
 DLRX.°/30m               1.94:  Dogleg Rot Max 
 DLSO.°/30m               0.70:  Dogleg Oriented 
 DLSX.°/30m               1.94:  Dogleg Str Max 
 DRET.      04.45.00 25-Dec-20:  Drill End Time 
 DRST.      10.00.00 24-Dec-20:  Drill Start Tim 
 DTIM.hr                 16.64:  Time Drilling 
 EDEP.m                4999.01:  End Depth 
 ENG1.         Elchin Mammadov:  Engineer 1 
 ENG2.          Ruslan Safarov:  Engineer 2 
 ENG3.          Rustam Safarov:  Engineer 3 
 ETIM.      09.00.00 29-Dec-20:  End Time 
 FLOI.gpm               500.00:  Flow In 
 FLON.gpm               400.00:  Flow In Min 
 FLOS.cptm                0.00:  Fluid Loss 
 FLOX.gpm               500.00:  Flow In Max 
 HFLO.                      No:  High Flow 
 HPRE.                      No:  High Pressure 
 HTEM.                      No:  High Temp 
 HYDO.m                   2.00:  Hydro Offset 
 IFIN.deg                66.79:  Inc, Final 
 IMAX.deg                67.66:  Inc Max 
 IMIN.deg                66.39:  Inc Min 
 IMND.m                4949.37:  Inc Min Depth 
 IMXD.m                4778.63:  Inc Max Depth 
 JARR.                     Yes:  Jarring 
 LETM.      04.45.00 25-Dec-20:  Log End Time 
 LOST.hr                     0:  Lost Rig Time 
 LSTM.      10.00.00 24-Dec-20:  Log Start Time 
 MDCL.ppm             39000.00:  Mud Chlorides 
 MDES.     Inversion Oil/Synthetic:  Mud Desc 
 DFD .sg                  1.33:  Mud Density 
 MDMN.sg                  1.33:  Dens Mud Min 
 MDMX.sg                  1.33:  Dens Mud Max 
 MOIL.                      70:  Run Mud Oil % 
 MOWR.                   70:30:  Run Mud OWR 
 MSND.                       0:  Run Mud Sand % 
 MSOL.                    17.4:  Run Mud Solids% 
 DFV .spqt               84.00:  Mud Viscosity 
 MWOD.in                  6.75:  MWD Tool OD 
 MWSI.                     Yes:  Serv Intrp, MWD 
 OTIM.hr                168.14:  Time Operating 
 PCON.           Look Like New:  Pad Condition 
 PMAX.psia            10822.93:  Press Op, Max 
 PV  .cP                 30.00:  Mud PV 
 RUN .                     900:  Run Number 
 ROPA.m/hr               18.00:  ROP Avg 
 ROPN.m/hr               12.00:  ROP Min 
 ROPX.m/hr               25.00:  ROP Max 
 RPMA.rpm               120.00:  RPM Surface Avg 
 RPMN.rpm               100.00:  RPM Surface Min 
 RPMX.rpm               120.00:  RPM Surface Max 
 RRUN.                    0900:  Rig Run Number 
 SAZI.deg               115.08:  Azm, Start 
 SDEP.m                4762.01:  Start Depth 
 SIDD.                      No:  Serv Intrp, DD 
 SINC.deg                66.14:  Inc, Start 
 SPPA.psig             3700.00:  SPP Avg 
 SPPN.psig             3620.00:  SPP Min 
 SPPX.psig             3900.00:  SPP Max 
 STIM.      09.30.00 22-Dec-20:  Start Time 
 SVCS.                 DD, MWD:  Services 
 SVER.                    9.20:  Sperry Version 
 TDAT.m                 237.00:  Tot Depth Attmp 
 TDDF.                      No:  Trip for DD 
 TDLG.m                 237.00:  Tot Depth Loggd 
 TFF .                      No:  Trip for Fail 
 TQAA.f-kp               18.00:  Torque Abs Avg 
 TQAN.f-kp               17.00:  Torque Abs Min 
 TQAX.f-kp               20.00:  Torque Abs Max 
 TRRT.°/30m               0.60:  Turn Rotating 
 MRT .                    HCIM:  Maximum Recorded Temperature 
 TTMX.degC               94.12:  Max Tool Temp 
 VS01.                90627809:  Virtual Str1 SN 
 VS02.                90527813:  Virtual Str2 SN 
 VS03.                90545417:  Virtual Str3 SN 
 VS04.                12460870:  Virtual Str4 SN 
 VS05.                90516706:  Virtual Str5 SN 
 VS06.                90632007:  Virtual Str6 SN 
 WBMN.klb                 0.00:  WOB Min 
 WOBA.klb                14.00:  WOB Avg 
 WOBX.klb                25.00:  WOB Max 
 YP  .lhf2               32.00:  Yield Point 
~Curve Information Block
#MNEM.UNIT                 API CODE     Curve Description
#---------               -----------    ---------------------------
 TIME.HHMMSS            00 000 000 000:  GT Time & Date
 GTDEPTH.m              00 000 000 000:  GT Depth
 GTPQH.psia             00 000 000 000:  GT HR Quartz Pressure
 GTTQ.degC              00 000 000 000:  GT Quartz Temperature
 GTTN.NONE              00 000 000 000:  GT Test Number
 GTET.sec               00 000 000 000:  GT Elapsed Test Time
 GTTVD.m                00 000 000 000:  GT True Vertical Depth
#Other Information
#
#WARRANTY: Halliburton will use its best efforts to furnish customers with 
#accurate information and interpretations that are part of, and incident to, the services 
#provided.  However, Halliburton cannot and does not warrant the accuracy 
#or correctness of such information and interpretations.  Under no circumstances should any 
#such information or interpretation be relied upon as the sole basis for any drilling, 
#completion, production, or financial decision or any procedure involving any risk to the 
#safety of any drilling venture, drilling rig or its crew or any other third party.  The 
#Customer has full responsibility for all drilling, completion and production operation.  
#Halliburton makes no representations or warranties, either expressed or 
#implied, including, but not limited to, the implied warranties of merchantability or fitness 
#for a particular purpose, with respect to the services rendered.  In no event will 
#Halliburton be liable for failure to obtain any particular results or for 
#any damages, including, but not limited to, indirect, special or consequential damages, 
#resulting from the use of any information or interpretation provided by Halliburton.
#
~A           TIME           GTDEPTH  GTPQH  GTTQ  GTTN  GTET   GTTVD  
# ...
   13:42:58.000.25-Dec-2020 4921.01   33.14 66.21 2.00 391.00 2546.48
   13:42:58.200.25-Dec-2020 4921.01   33.14 66.21 2.00 391.20 2546.48
   13:42:58.400.25-Dec-2020 4921.01   33.15 66.21 2.00 391.40 2546.48
   13:42:58.600.25-Dec-2020 4921.01   33.15 66.21 2.00 391.60 2546.48
   13:42:58.800.25-Dec-2020 4921.01   33.17 66.21 2.00 391.80 2546.48
   13:42:59.000.25-Dec-2020 4921.01   33.16 66.21 2.00 392.00 2546.48
   13:42:59.200.25-Dec-2020 4921.01   33.16 66.21 2.00 392.20 2546.48
   13:42:59.400.25-Dec-2020 4921.01   33.18 66.21 2.00 392.40 2546.48
   13:42:59.600.25-Dec-2020 4921.01   33.19 66.21 2.00 392.60 2546.48
   13:42:59.800.25-Dec-2020 4921.01   33.18 66.21 2.00 392.80 2546.48
   13:43:00.000.25-Dec-2020 4921.01   33.21 66.21 2.00 393.00 2546.48
   13:43:00.200.25-Dec-2020 4921.01   33.21 66.21 2.00 393.20 2546.48
   13:43:00.400.25-Dec-2020 4921.01   33.20 66.20 2.00 393.40 2546.48
   13:43:00.600.25-Dec-2020 4921.01   33.23 66.21 2.00 393.60 2546.48
   13:43:00.800.25-Dec-2020 4921.01   33.23 66.20 2.00 393.80 2546.48
   13:43:01.000.25-Dec-2020 4921.01   33.21 66.20 2.00 394.00 2546.48
   13:43:01.200.25-Dec-2020 4921.01   33.25 66.20 2.00 394.20 2546.48
   13:43:01.400.25-Dec-2020 4921.01   33.25 66.20 2.00 394.40 2546.48
   13:43:01.600.25-Dec-2020 4921.01   33.25 66.20 2.00 394.60 2546.48
   13:43:01.800.25-Dec-2020 4921.01   33.24 66.20 2.00 394.80 2546.48
   13:43:02.000.25-Dec-2020 4921.01   33.28 66.20 2.00 395.00 2546.48
   13:43:02.200.25-Dec-2020 4921.01   33.28 66.20 2.00 395.20 2546.48
   13:43:02.400.25-Dec-2020 4921.01   33.28 66.20 2.00 395.40 2546.48
   13:43:02.600.25-Dec-2020 4921.01   33.28 66.20 2.00 395.60 2546.48
   13:43:02.800.25-Dec-2020 4921.01   33.29 66.20 2.00 395.80 2546.48
   13:43:03.000.25-Dec-2020 4921.01   33.30 66.20 2.00 396.00 2546.48
   13:43:03.200.25-Dec-2020 4921.01   33.30 66.20 2.00 396.20 2546.48
   13:43:03.400.25-Dec-2020 4921.01   33.31 66.20 2.00 396.40 2546.48
   13:43:03.600.25-Dec-2020 4921.01   33.30 66.20 2.00 396.60 2546.48
   13:43:03.800.25-Dec-2020 4921.01   33.32 66.20 2.00 396.80 2546.48
   13:43:04.000.25-Dec-2020 4921.01   33.33 66.20 2.00 397.00 2546.48
   13:43:04.200.25-Dec-2020 4921.01   33.33 66.20 2.00 397.20 2546.48
   13:43:04.400.25-Dec-2020 4921.01   33.36 66.20 2.00 397.40 2546.48
   13:43:04.600.25-Dec-2020 4921.01   33.34 66.20 2.00 397.60 2546.48
   13:43:04.800.25-Dec-2020 4921.01   33.35 66.20 2.00 397.80 2546.48
   13:43:05.000.25-Dec-2020 4921.01   33.37 66.20 2.00 398.00 2546.48
   13:43:05.200.25-Dec-2020 4921.01   33.37 66.20 2.00 398.20 2546.48
   13:43:05.400.25-Dec-2020 4921.01   33.37 66.20 2.00 398.40 2546.48
   13:43:05.600.25-Dec-2020 4921.01   33.37 66.20 2.00 398.60 2546.48
   13:43:05.800.25-Dec-2020 4921.01   33.39 66.20 2.00 398.80 2546.48
   13:43:06.000.25-Dec-2020 4921.01   33.39 66.20 2.00 399.00 2546.48
   13:43:06.200.25-Dec-2020 4921.01   33.40 66.20 2.00 399.20 2546.48
   13:43:06.400.25-Dec-2020 4921.01   33.40 66.20 2.00 399.40 2546.48
   13:43:06.600.25-Dec-2020 4921.01   33.40 66.20 2.00 399.60 2546.48
   13:43:06.800.25-Dec-2020 4921.01   33.41 66.20 2.00 399.80 2546.48
   13:43:07.000.25-Dec-2020 4921.01   33.42 66.20 2.00 400.00 2546.48
   13:43:07.200.25-Dec-2020 4921.01   33.42 66.20 2.00 400.20 2546.48
   13:43:07.400.25-Dec-2020 4921.01   33.41 66.20 2.00 400.40 2546.48
   13:43:07.600.25-Dec-2020 4921.01   33.45 66.20 2.00 400.60 2546.48
   13:43:07.800.25-Dec-2020 4921.01   33.46 66.20 2.00 400.80 2546.48
   13:43:08.000.25-Dec-2020 4921.01   33.44 66.20 2.00 401.00 2546.48
   13:43:08.200.25-Dec-2020 4921.01   33.44 66.20 2.00 401.20 2546.48
   13:43:08.400.25-Dec-2020 4921.01   33.48 66.20 2.00 401.40 2546.48
   13:43:08.600.25-Dec-2020 4921.01   33.48 66.20 2.00 401.60 2546.48
   13:43:08.800.25-Dec-2020 4921.01   33.46 66.20 2.00 401.80 2546.48
   13:43:09.000.25-Dec-2020 4921.01   33.50 66.20 2.00 402.00 2546.48
   13:43:09.200.25-Dec-2020 4921.01   33.49 66.20 2.00 402.20 2546.48
   13:43:09.400.25-Dec-2020 4921.01   33.50 66.20 2.00 402.40 2546.48
   13:43:09.600.25-Dec-2020 4921.01   33.51 66.20 2.00 402.60 2546.48
   13:43:09.800.25-Dec-2020 4921.01   33.51 66.20 2.00 402.80 2546.48
   13:43:10.000.25-Dec-2020 4921.01   33.53 66.20 2.00 403.00 2546.48
   13:43:10.200.25-Dec-2020 4921.01   33.53 66.20 2.00 403.20 2546.48
   13:43:10.400.25-Dec-2020 4921.01   33.53 66.20 2.00 403.40 2546.48
   13:43:10.600.25-Dec-2020 4921.01   33.53 66.20 2.00 403.60 2546.48
   13:43:10.800.25-Dec-2020 4921.01   33.54 66.20 2.00 403.80 2546.48
   13:43:11.000.25-Dec-2020 4921.01   33.56 66.20 2.00 404.00 2546.48
   13:43:11.200.25-Dec-2020 4921.01   33.56 66.20 2.00 404.20 2546.48
   13:43:11.400.25-Dec-2020 4921.01   33.56 66.20 2.00 404.40 2546.48
   13:43:11.600.25-Dec-2020 4921.01   33.57 66.20 2.00 404.60 2546.48
   13:43:11.800.25-Dec-2020 4921.01   33.59 66.20 2.00 404.80 2546.48
   13:43:12.000.25-Dec-2020 4921.01   33.59 66.20 2.00 405.00 2546.48
   13:43:12.200.25-Dec-2020 4921.01   33.59 66.20 2.00 405.20 2546.48
   13:43:12.400.25-Dec-2020 4921.01   33.60 66.20 2.00 405.40 2546.48
   13:43:12.600.25-Dec-2020 4921.01   33.60 66.20 2.00 405.60 2546.48
   13:43:12.800.25-Dec-2020 4921.01   33.60 66.20 2.00 405.80 2546.48
   13:43:13.000.25-Dec-2020 4921.01   33.62 66.20 2.00 406.00 2546.48
   13:43:13.200.25-Dec-2020 4921.01   33.61 66.20 2.00 406.20 2546.48
   13:43:13.400.25-Dec-2020 4921.01   33.63 66.20 2.00 406.40 2546.48
   13:43:13.600.25-Dec-2020 4921.01   33.63 66.20 2.00 406.60 2546.48
   13:43:13.800.25-Dec-2020 4921.01   33.62 66.20 2.00 406.80 2546.48
   13:43:14.000.25-Dec-2020 4921.01   33.65 66.20 2.00 407.00 2546.48
   13:43:14.200.25-Dec-2020 4921.01   33.65 66.20 2.00 407.20 2546.48
   13:43:14.400.25-Dec-2020 4921.01   33.63 66.20 2.00 407.40 2546.48
   13:43:14.600.25-Dec-2020 4921.01   33.68 66.20 2.00 407.60 2546.48
   13:43:14.800.25-Dec-2020 4921.01   33.67 66.20 2.00 407.80 2546.48
   13:43:15.000.25-Dec-2020 4921.01   33.66 66.20 2.00 408.00 2546.48
   13:43:15.200.25-Dec-2020 4921.01   33.66 66.20 2.00 408.20 2546.48
   13:43:15.400.25-Dec-2020 4921.01   33.69 66.20 2.00 408.40 2546.48
   13:43:15.600.25-Dec-2020 4921.01   33.70 66.20 2.00 408.60 2546.48
   13:43:15.800.25-Dec-2020 4921.01   33.69 66.20 2.00 408.80 2546.48
   13:43:16.000.25-Dec-2020 4921.01   33.70 66.20 2.00 409.00 2546.48
   13:43:16.200.25-Dec-2020 4921.01   33.70 66.20 2.00 409.20 2546.48
   13:43:16.400.25-Dec-2020 4921.01   33.72 66.20 2.00 409.40 2546.48
   13:43:16.600.25-Dec-2020 4921.01   33.73 66.20 2.00 409.60 2546.48
   13:43:16.800.25-Dec-2020 4921.01   33.73 66.20 2.00 409.80 2546.48
   13:43:17.000.25-Dec-2020 4921.01   33.74 66.20 2.00 410.00 2546.48
   13:43:17.200.25-Dec-2020 4921.01   33.74 66.20 2.00 410.20 2546.48
   13:43:17.400.25-Dec-2020 4921.01   33.75 66.20 2.00 410.40 2546.48
   13:43:17.600.25-Dec-2020 4921.01   33.75 66.20 2.00 410.60 2546.48
   13:43:17.800.25-Dec-2020 4921.01   33.76 66.20 2.00 410.80 2546.48
   13:43:18.000.25-Dec-2020 4921.01   33.76 66.20 2.00 411.00 2546.48
   13:43:18.200.25-Dec-2020 4921.01   33.77 66.20 2.00 411.20 2546.48
   13:43:18.400.25-Dec-2020 4921.01   33.76 66.20 2.00 411.40 2546.48
   13:43:18.600.25-Dec-2020 4921.01   33.79 66.20 2.00 411.60 2546.48
   13:43:18.800.25-Dec-2020 4921.01   33.80 66.20 2.00 411.80 2546.48
   13:43:19.000.25-Dec-2020 4921.01   33.80 66.20 2.00 412.00 2546.48
   13:43:19.200.25-Dec-2020 4921.01   33.80 66.20 2.00 412.20 2546.48
   13:43:19.400.25-Dec-2020 4921.01   33.81 66.20 2.00 412.40 2546.48
   13:43:19.600.25-Dec-2020 4921.01   33.81 66.20 2.00 412.60 2546.48
   13:43:19.800.25-Dec-2020 4921.01   33.82 66.20 2.00 412.80 2546.48
   13:43:20.000.25-Dec-2020 4921.01   33.82 66.20 2.00 413.00 2546.48
   13:43:20.200.25-Dec-2020 4921.01   33.82 66.20 2.00 413.20 2546.48
   13:43:20.400.25-Dec-2020 4921.01   33.83 66.20 2.00 413.40 2546.48
   13:43:20.600.25-Dec-2020 4921.01   33.84 66.20 2.00 413.60 2546.48
   13:43:20.800.25-Dec-2020 4921.01   33.83 66.20 2.00 413.80 2546.48
