~Version Information
 VERS.                  2.0:   CWLS log ASCII Standard -VERSION 2.0
 WRAP.                   NO:   One line per depth step
~Well Information Block
#MNEM.UNIT     VALUE/NAME     DESCRIPTION
#---------     -----------    ---------------------------
 STRT.S             17:56:34 25-Dec-20: START TIME 17:56:34 25-Dec-20
 STOP.S             18:04:57 25-Dec-20: STOP TIME  18:04:57 25-Dec-20
 STEP.S                   0.00: STEP TIME
 NULL.                 -999.25: NULL VALUE
 DFWT.                        :  DIST FWL TEXT
 DFST.                        :  DIST FSL TEXT
 DMF .             Drill Floor:  DRILL MEAS FROM
 STIM.      04.54.24 22-Sep-20:  START TIME
 DATE.      04.54.24 21-Nov-20:  END TIME
 SPUD.               21-Nov-20:  SPUD DATE
 NREF.                    Grid:  NORTH REFERENCE
 HPTY.       Minimum Curvature:  HOLE POS TYPE
 DMOD.             Drill Model:  DRILL MOD DESC
 SVYD.                  Survey:  SURVEY DESC
 ILTD.               Lithology:  INTERP LTH DESC
 FTOP.          Formation Tops:  FORM TOPS DESC
 SON .        AZ-XX-0906571587:  JOB NUMBER
 COMP.     BP Exploration (Caspian Sea) Ltd:  COMPANY
 UWI .                     N/A:  UNIQUE WELL IDENTIFIER
 API .                     N/A:  API NUMBER
 BASE.              Azerbaijan:  LOGGING EQUIPMENT BASE LOCATION
 REGN.                   EESSA:  REGION
 PROV.                    Baku:  PROVINCE
 STAT.                    Baku:  STATE NAME
 CTRY.              Azerbaijan:  COUNTRY NAME
 FLD .                     ACG:  FIELD NAME
 SRVC.     TURAN Drilling & Engineering:  CONTRACTOR
 WELL.                     J27:  WELL NAME
 RIG .             West Chirag:  RIG NAME
 DOE .                     N/A:  DOE NUMBER
 DCON.         Sperry Drilling:  DIRECTNL CONTR
 PDAT.          Mean Sea Level:  PERMANENT DATUM
 WTYP.                Deviated:  WELL TYPE
 MWDS.                    Baku:  MWD SHOP
 JOBN.        AZ-XX-0906571587:  JOB TICKET NUMB
 UNIT.                     N/A:  LOGGING EQUIPMENT ID
 MDS .        Operator Entered:  MAG DATA SOURCE
 CNTY.                        :  COUNTY
 LOC .                        :  LOCATION
 LMF .             Drill Floor:  LOG MEASURED FROM
 TVDS.m                  43.00:  TVDSS CORRECTN
 LATI.deg                40.13:  LATITUDE
 LONG.deg                51.22:  LONGITUDE
 WHNS.m                   7.72:  WELL HEAD N/S
 WHEW.m                 -14.24:  WELL HEAD E/W
 UTMX.m              519005.06:  UTM X
 UTMY.m             4443793.85:  UTM Y
 DFWL.m                   0.00:  DISTANCE FWL
 DFSL.m                   0.00:  DISTANCE FSL
 SDEP.m                 347.00:  START DEPTH
 TDD .m                 581.00:  TOTAL DEPTH (DRILLER)
 VSDR.deg               159.72:  VERT SEC DIRECT
 GVFD.g                   1.00:  GRAVITY FIELD
 MFLD.nT              50318.00:  MAGNETIC FIELD
 MDIP.deg                59.57:  MAGNETIC DIP
 MDEC.deg                 6.44:  MAGNETIC DECL
 GRDC.deg                 0.15:  GRID CORRECTION
 AZTC.deg                 6.29:  AZM TOTAL CORR
 EPD .m                   0.00:  ELEVATION
 EGL .m                   0.00:  GROUND ELEVATION
 WDMS.m                 169.80:  WD ELEV
 APD .m                  43.00:  DEPTH ABOVE PD
 AGAP.m                  43.00:  AIR GAP
 VSEW.m                 -14.24:  VERT SEC E/W
 VSNS.m                   7.72:  VERT SEC N/S
 DEP .m                 342.45:  DEPTH
 EKB .m                   0.00:  KB ELEVATION
 EDF .m                  43.00:  DF ELEVATION
 TDL .m                 237.00:  TOTAL DEPTH (LOGGER)
 VSC .                       0:  VS TO CLOSURE
 MAGU.                 1851428:  MAGUTM CHECKSUM
~Parameter Information Block
#MNEM.UNIT       Value        Description
#---------     -----------    ---------------------------
 AV  .mps                 1.50:  Ann Velocity 
 AVMX.mps                 2.90:  Max Ann Veloc 
 AZIF.deg               115.59:  Azm, Final 
 BHAT.        Rotary Steerable:  BHA Type 
 BROT.∞/30m               0.50:  Build Rotating 
 BS  .in                  8.50:  Bit Size 
 BTPL.psig              580.00:  Bit Press Loss 
 CABU.                     Yes:  Customer Abuse 
 COMM.                     ‰E:  Run Comments 1 
 TCS .hr                 89.79:  Time Ciculation Ended 
 CV  .mps                 3.22:  Crit Velocity 
 CVMX.mps                 4.37:  Max Crit Veloc 
 DD1 .          Rashad Habibov:  Direct Drillr 1 
 DDSV.               Geo-Pilot:  DD Service 
 DEFF.%                  95.00:  % Det Eff 
 DLRX.∞/30m               1.94:  Dogleg Rot Max 
 DLSO.∞/30m               0.70:  Dogleg Oriented 
 DLSX.∞/30m               1.94:  Dogleg Str Max 
 DRET.      04.45.00 25-Dec-20:  Drill End Time 
 DRST.      10.00.00 24-Dec-20:  Drill Start Tim 
 DTIM.hr                 16.64:  Time Drilling 
 EDEP.m                4999.01:  End Depth 
 ENG1.         Elchin Mammadov:  Engineer 1 
 ENG2.          Ruslan Safarov:  Engineer 2 
 ENG3.          Rustam Safarov:  Engineer 3 
 ETIM.      09.00.00 29-Dec-20:  End Time 
 FLOI.gpm               500.00:  Flow In 
 FLON.gpm               400.00:  Flow In Min 
 FLOS.cptm                0.00:  Fluid Loss 
 FLOX.gpm               500.00:  Flow In Max 
 HFLO.                      No:  High Flow 
 HPRE.                      No:  High Pressure 
 HTEM.                      No:  High Temp 
 HYDO.m                   2.00:  Hydro Offset 
 IFIN.deg                66.79:  Inc, Final 
 IMAX.deg                67.66:  Inc Max 
 IMIN.deg                66.39:  Inc Min 
 IMND.m                4949.37:  Inc Min Depth 
 IMXD.m                4778.63:  Inc Max Depth 
 JARR.                     Yes:  Jarring 
 LETM.      04.45.00 25-Dec-20:  Log End Time 
 LOST.hr                     0:  Lost Rig Time 
 LSTM.      10.00.00 24-Dec-20:  Log Start Time 
 MDCL.ppm             39000.00:  Mud Chlorides 
 MDES.     Inversion Oil/Synthetic:  Mud Desc 
 DFD .sg                  1.33:  Mud Density 
 MDMN.sg                  1.33:  Dens Mud Min 
 MDMX.sg                  1.33:  Dens Mud Max 
 MOIL.                      70:  Run Mud Oil % 
 MOWR.                   70:30:  Run Mud OWR 
 MSND.                       0:  Run Mud Sand % 
 MSOL.                    17.4:  Run Mud Solids% 
 DFV .spqt               84.00:  Mud Viscosity 
 MWOD.in                  6.75:  MWD Tool OD 
 MWSI.                     Yes:  Serv Intrp, MWD 
 OTIM.hr                168.14:  Time Operating 
 PCON.           Look Like New:  Pad Condition 
 PMAX.psia            10822.93:  Press Op, Max 
 PV  .cP                 30.00:  Mud PV 
 RUN .                     900:  Run Number 
 ROPA.m/hr               18.00:  ROP Avg 
 ROPN.m/hr               12.00:  ROP Min 
 ROPX.m/hr               25.00:  ROP Max 
 RPMA.rpm               120.00:  RPM Surface Avg 
 RPMN.rpm               100.00:  RPM Surface Min 
 RPMX.rpm               120.00:  RPM Surface Max 
 RRUN.                    0900:  Rig Run Number 
 SAZI.deg               115.08:  Azm, Start 
 SDEP.m                4762.01:  Start Depth 
 SIDD.                      No:  Serv Intrp, DD 
 SINC.deg                66.14:  Inc, Start 
 SPPA.psig             3700.00:  SPP Avg 
 SPPN.psig             3620.00:  SPP Min 
 SPPX.psig             3900.00:  SPP Max 
 STIM.      09.30.00 22-Dec-20:  Start Time 
 SVCS.                 DD, MWD:  Services 
 SVER.                    9.20:  Sperry Version 
 TDAT.m                 237.00:  Tot Depth Attmp 
 TDDF.                      No:  Trip for DD 
 TDLG.m                 237.00:  Tot Depth Loggd 
 TFF .                      No:  Trip for Fail 
 TQAA.f-kp               18.00:  Torque Abs Avg 
 TQAN.f-kp               17.00:  Torque Abs Min 
 TQAX.f-kp               20.00:  Torque Abs Max 
 TRRT.∞/30m               0.60:  Turn Rotating 
 MRT .                    HCIM:  Maximum Recorded Temperature 
 TTMX.degC               94.12:  Max Tool Temp 
 VS01.                90627809:  Virtual Str1 SN 
 VS02.                90527813:  Virtual Str2 SN 
 VS03.                90545417:  Virtual Str3 SN 
 VS04.                12460870:  Virtual Str4 SN 
 VS05.                90516706:  Virtual Str5 SN 
 VS06.                90632007:  Virtual Str6 SN 
 WBMN.klb                 0.00:  WOB Min 
 WOBA.klb                14.00:  WOB Avg 
 WOBX.klb                25.00:  WOB Max 
 YP  .lhf2               32.00:  Yield Point 
~Curve Information Block
#MNEM.UNIT                 API CODE     Curve Description
#---------               -----------    ---------------------------
 TIME.HHMMSS            00 000 000 000:  GT Time & Date
 GTDEPTH.m              00 000 000 000:  GT Depth
 GTPQH.psia             00 000 000 000:  GT HR Quartz Pressure
 GTTQ.degC              00 000 000 000:  GT Quartz Temperature
 GTTN.NONE              00 000 000 000:  GT Test Number
 GTET.sec               00 000 000 000:  GT Elapsed Test Time
 GTTVD.m                00 000 000 000:  GT True Vertical Depth
#Other Information
#
#WARRANTY: Halliburton will use its best efforts to furnish customers with 
#accurate information and interpretations that are part of, and incident to, the services 
#provided.  However, Halliburton cannot and does not warrant the accuracy 
#or correctness of such information and interpretations.  Under no circumstances should any 
#such information or interpretation be relied upon as the sole basis for any drilling, 
#completion, production, or financial decision or any procedure involving any risk to the 
#safety of any drilling venture, drilling rig or its crew or any other third party.  The 
#Customer has full responsibility for all drilling, completion and production operation.  
#Halliburton makes no representations or warranties, either expressed or 
#implied, including, but not limited to, the implied warranties of merchantability or fitness 
#for a particular purpose, with respect to the services rendered.  In no event will 
#Halliburton be liable for failure to obtain any particular results or for 
#any damages, including, but not limited to, indirect, special or consequential damages, 
#resulting from the use of any information or interpretation provided by Halliburton.
#
~A           TIME           GTDEPTH  GTPQH  GTTQ  GTTN  GTET   GTTVD  
# ...
   18:01:33.607.25-Dec-2020 4856.51 3918.59 64.22 5.00 298.88 2521.01
   18:01:33.807.25-Dec-2020 4856.51 3918.59 64.22 5.00 299.08 2521.01
   18:01:34.006.25-Dec-2020 4856.51 3918.69 64.22 5.00 299.28 2521.01
   18:01:34.206.25-Dec-2020 4856.51 3918.92 64.22 5.00 299.48 2521.01
   18:01:34.406.25-Dec-2020 4856.51 3919.20 64.22 5.00 299.68 2521.01
   18:01:34.606.25-Dec-2020 4856.51 3919.53 64.22 5.00 299.88 2521.01
   18:01:34.806.25-Dec-2020 4856.51 3919.53 64.22 5.00 300.08 2521.01
   18:01:35.006.25-Dec-2020 4856.51 3919.76 64.22 5.00 300.28 2521.01
   18:01:35.206.25-Dec-2020 4856.51 3919.88 64.22 5.00 300.48 2521.01
   18:01:35.406.25-Dec-2020 4856.51 3919.94 64.22 5.00 300.68 2521.01
   18:01:35.606.25-Dec-2020 4856.51 3920.09 64.22 5.00 300.88 2521.01
   18:01:35.806.25-Dec-2020 4856.51 3920.09 64.22 5.00 301.08 2521.01
   18:01:36.006.25-Dec-2020 4856.51 3919.32 64.22 5.00 301.28 2521.01
   18:01:36.206.25-Dec-2020 4856.51 3919.57 64.22 5.00 301.48 2521.01
   18:01:36.405.25-Dec-2020 4856.51 3919.20 64.22 5.00 301.68 2521.01
   18:01:36.605.25-Dec-2020 4856.51 3919.45 64.22 5.00 301.88 2521.01
   18:01:36.805.25-Dec-2020 4856.51 3919.45 64.22 5.00 302.08 2521.01
   18:01:37.005.25-Dec-2020 4856.51 3919.81 64.22 5.00 302.28 2521.01
   18:01:37.205.25-Dec-2020 4856.51 3919.98 64.22 5.00 302.48 2521.01
   18:01:37.405.25-Dec-2020 4856.51 3920.00 64.22 5.00 302.68 2521.01
   18:01:37.605.25-Dec-2020 4856.51 3920.16 64.22 5.00 302.88 2521.01
   18:01:37.805.25-Dec-2020 4856.51 3920.16 64.22 5.00 303.08 2521.01
   18:01:38.005.25-Dec-2020 4856.51 3920.19 64.22 5.00 303.28 2521.01
   18:01:38.205.25-Dec-2020 4856.51 3920.24 64.22 5.00 303.48 2521.01
   18:01:38.405.25-Dec-2020 4856.51 3920.24 64.22 5.00 303.68 2521.01
   18:01:38.605.25-Dec-2020 4856.51 3919.56 64.22 5.00 303.88 2521.01
   18:01:38.805.25-Dec-2020 4856.51 3919.56 64.22 5.00 304.08 2521.01
   18:01:39.004.25-Dec-2020 4856.51 3919.10 64.22 5.00 304.28 2521.01
   18:01:39.204.25-Dec-2020 4856.51 3918.51 64.22 5.00 304.48 2521.01
   18:01:39.404.25-Dec-2020 4856.51 3918.59 64.22 5.00 304.68 2521.01
   18:01:39.604.25-Dec-2020 4856.51 3918.50 64.22 5.00 304.88 2521.01
   18:01:39.804.25-Dec-2020 4856.51 3918.50 64.22 5.00 305.08 2521.01
   18:01:40.004.25-Dec-2020 4856.51 3919.17 64.22 5.00 305.28 2521.01
   18:01:40.204.25-Dec-2020 4856.51 3918.44 64.22 5.00 305.48 2521.01
   18:01:40.404.25-Dec-2020 4856.51 3918.29 64.22 5.00 305.68 2521.01
   18:01:40.604.25-Dec-2020 4856.51 3918.49 64.22 5.00 305.88 2521.01
   18:01:40.804.25-Dec-2020 4856.51 3918.49 64.22 5.00 306.08 2521.01
   18:01:41.004.25-Dec-2020 4856.51 3918.08 64.22 5.00 306.28 2521.01
   18:01:41.204.25-Dec-2020 4856.51 3918.23 64.22 5.00 306.48 2521.01
   18:01:41.404.25-Dec-2020 4856.51 3918.43 64.22 5.00 306.68 2521.01
   18:01:41.603.25-Dec-2020 4856.51 3918.75 64.22 5.00 306.88 2521.01
   18:01:41.803.25-Dec-2020 4856.51 3918.75 64.22 5.00 307.08 2521.01
   18:01:42.003.25-Dec-2020 4856.51 3919.31 64.22 5.00 307.28 2521.01
   18:01:42.203.25-Dec-2020 4856.51 3919.69 64.22 5.00 307.48 2521.01
   18:01:42.403.25-Dec-2020 4856.51 3919.80 64.22 5.00 307.68 2521.01
   18:01:42.603.25-Dec-2020 4856.51 3919.91 64.22 5.00 307.88 2521.01
   18:01:42.803.25-Dec-2020 4856.51 3919.91 64.22 5.00 308.08 2521.01
   18:01:43.003.25-Dec-2020 4856.51 3920.11 64.22 5.00 308.28 2521.01
   18:01:43.203.25-Dec-2020 4856.51 3920.25 64.22 5.00 308.48 2521.01
   18:01:43.403.25-Dec-2020 4856.51 3920.22 64.22 5.00 308.68 2521.01
   18:01:43.603.25-Dec-2020 4856.51 3919.44 64.22 5.00 308.88 2521.01
   18:01:43.803.25-Dec-2020 4856.51 3919.44 64.22 5.00 309.08 2521.01
   18:01:44.002.25-Dec-2020 4856.51 3919.26 64.22 5.00 309.28 2521.01
   18:01:44.202.25-Dec-2020 4856.51 3919.67 64.22 5.00 309.48 2521.01
   18:01:44.402.25-Dec-2020 4856.51 3919.65 64.22 5.00 309.68 2521.01
   18:01:44.602.25-Dec-2020 4856.51 3919.69 64.22 5.00 309.88 2521.01
   18:01:44.802.25-Dec-2020 4856.51 3919.69 64.22 5.00 310.08 2521.01
   18:01:45.002.25-Dec-2020 4856.51 3920.01 64.22 5.00 310.28 2521.01
   18:01:45.202.25-Dec-2020 4856.51 3920.15 64.22 5.00 310.48 2521.01
   18:01:45.402.25-Dec-2020 4856.51 3920.18 64.22 5.00 310.68 2521.01
   18:01:45.602.25-Dec-2020 4856.51 3920.21 64.22 5.00 310.88 2521.01
   18:01:45.802.25-Dec-2020 4856.51 3920.21 64.22 5.00 311.08 2521.01
   18:01:46.002.25-Dec-2020 4856.51 3920.27 64.22 5.00 311.28 2521.01
   18:01:46.202.25-Dec-2020 4856.51 3919.40 64.22 5.00 311.48 2521.01
   18:01:46.402.25-Dec-2020 4856.51 3919.31 64.22 5.00 311.68 2521.01
   18:01:46.601.25-Dec-2020 4856.51 3919.44 64.22 5.00 311.88 2521.01
   18:01:46.801.25-Dec-2020 4856.51 3919.44 64.22 5.00 312.08 2521.01
   18:01:47.001.25-Dec-2020 4856.51 3918.08 64.22 5.00 312.28 2521.01
   18:01:47.201.25-Dec-2020 4856.51 3918.47 64.22 5.00 312.48 2521.01
   18:01:47.401.25-Dec-2020 4856.51 3919.03 64.22 5.00 312.68 2521.01
   18:01:47.601.25-Dec-2020 4856.51 3919.14 64.22 5.00 312.88 2521.01
   18:01:47.801.25-Dec-2020 4856.51 3919.14 64.22 5.00 313.08 2521.01
   18:01:48.001.25-Dec-2020 4856.51 3918.07 64.22 5.00 313.28 2521.01
   18:01:48.201.25-Dec-2020 4856.51 3918.62 64.22 5.00 313.48 2521.01
   18:01:48.401.25-Dec-2020 4856.51 3918.99 64.22 5.00 313.68 2521.01
   18:01:48.601.25-Dec-2020 4856.51 3918.04 64.22 5.00 313.88 2521.01
   18:01:48.801.25-Dec-2020 4856.51 3918.04 64.22 5.00 314.08 2521.01
   18:01:49.001.25-Dec-2020 4856.51 3918.37 64.22 5.00 314.28 2521.01
   18:01:49.200.25-Dec-2020 4856.51 3918.98 64.22 5.00 314.48 2521.01
   18:01:49.400.25-Dec-2020 4856.51 3919.24 64.22 5.00 314.68 2521.01
   18:01:49.600.25-Dec-2020 4856.51 3919.35 64.22 5.00 314.88 2521.01
   18:01:49.800.25-Dec-2020 4856.51 3919.35 64.22 5.00 315.08 2521.01
   18:01:50.000.25-Dec-2020 4856.51 3919.85 64.22 5.00 315.28 2521.01
   18:01:50.200.25-Dec-2020 4856.51 3920.02 64.22 5.00 315.48 2521.01
   18:01:50.400.25-Dec-2020 4856.51 3920.12 64.22 5.00 315.68 2521.01
   18:01:50.600.25-Dec-2020 4856.51 3920.12 64.22 5.00 315.88 2521.01
   18:01:50.800.25-Dec-2020 4856.51 3920.12 64.22 5.00 316.08 2521.01
   18:01:51.000.25-Dec-2020 4856.51 3920.21 64.22 5.00 316.28 2521.01
   18:01:51.200.25-Dec-2020 4856.51 3919.26 64.22 5.00 316.48 2521.01
   18:01:51.400.25-Dec-2020 4856.51 3919.16 64.22 5.00 316.68 2521.01
   18:01:51.600.25-Dec-2020 4856.51 3919.31 64.22 5.00 316.88 2521.01
   18:01:51.799.25-Dec-2020 4856.51 3919.31 64.22 5.00 317.08 2521.01
   18:01:51.999.25-Dec-2020 4856.51 3919.66 64.22 5.00 317.28 2521.01
   18:01:52.199.25-Dec-2020 4856.51 3919.90 64.22 5.00 317.47 2521.01
   18:01:52.399.25-Dec-2020 4856.51 3920.16 64.22 5.00 317.67 2521.01
   18:01:52.599.25-Dec-2020 4856.51 3920.15 64.22 5.00 317.87 2521.01
   18:01:52.799.25-Dec-2020 4856.51 3920.15 64.22 5.00 318.07 2521.01
   18:01:52.999.25-Dec-2020 4856.51 3920.33 64.22 5.00 318.27 2521.01
   18:01:53.199.25-Dec-2020 4856.51 3920.35 64.22 5.00 318.47 2521.01
   18:01:53.399.25-Dec-2020 4856.51 3920.41 64.22 5.00 318.67 2521.01
   18:01:53.599.25-Dec-2020 4856.51 3919.98 64.22 5.00 318.87 2521.01
   18:01:53.799.25-Dec-2020 4856.51 3919.98 64.22 5.00 319.07 2521.01
   18:01:53.999.25-Dec-2020 4856.51 3919.41 64.22 5.00 319.27 2521.01
   18:01:54.198.25-Dec-2020 4856.51 3918.67 64.22 5.00 319.47 2521.01
   18:01:54.398.25-Dec-2020 4856.51 3919.02 64.22 5.00 319.67 2521.01
   18:01:54.598.25-Dec-2020 4856.51 3524.73 64.22 5.00 319.87 2521.01
   18:01:54.798.25-Dec-2020 4856.51 3524.73 64.22 5.00 320.07 2521.01
   18:01:54.998.25-Dec-2020 4856.51 2790.49 64.22 5.00 320.27 2521.01
   18:01:55.198.25-Dec-2020 4856.51 2512.31 64.22 5.00 320.47 2521.01
   18:01:55.398.25-Dec-2020 4856.51 2275.63 64.22 5.00 320.67 2521.01
   18:01:55.598.25-Dec-2020 4856.51 2092.06 64.22 5.00 320.87 2521.01
   18:01:55.798.25-Dec-2020 4856.51 2092.06 64.22 5.00 321.07 2521.01
   18:01:55.998.25-Dec-2020 4856.51 1820.02 64.22 5.00 321.27 2521.01
   18:01:56.198.25-Dec-2020 4856.51 1702.02 64.22 5.00 321.47 2521.01
   18:01:56.398.25-Dec-2020 4856.51 1589.37 64.21 5.00 321.67 2521.01
