~Version Information
 VERS.                  2.0:   CWLS log ASCII Standard -VERSION 2.0
 WRAP.                   NO:   One line per depth step
~Well Information Block
#MNEM.UNIT     VALUE/NAME     DESCRIPTION
#---------     -----------    ---------------------------
 STRT.S             20:22:11 25-Dec-20: START TIME 20:22:11 25-Dec-20
 STOP.S             20:30:35 25-Dec-20: STOP TIME  20:30:35 25-Dec-20
 STEP.S                   0.00: STEP TIME
 NULL.                 -999.25: NULL VALUE
 DFWT.                        :  DIST FWL TEXT
 DFST.                        :  DIST FSL TEXT
 DMF .             Drill Floor:  DRILL MEAS FROM
 STIM.      04.54.24 22-Sep-20:  START TIME
 DATE.      04.54.24 21-Nov-20:  END TIME
 SPUD.               21-Nov-20:  SPUD DATE
 NREF.                    Grid:  NORTH REFERENCE
 HPTY.       Minimum Curvature:  HOLE POS TYPE
 DMOD.             Drill Model:  DRILL MOD DESC
 SVYD.                  Survey:  SURVEY DESC
 ILTD.               Lithology:  INTERP LTH DESC
 FTOP.          Formation Tops:  FORM TOPS DESC
 SON .        AZ-XX-0906571587:  JOB NUMBER
 COMP.     BP Exploration (Caspian Sea) Ltd:  COMPANY
 UWI .                     N/A:  UNIQUE WELL IDENTIFIER
 API .                     N/A:  API NUMBER
 BASE.              Azerbaijan:  LOGGING EQUIPMENT BASE LOCATION
 REGN.                   EESSA:  REGION
 PROV.                    Baku:  PROVINCE
 STAT.                    Baku:  STATE NAME
 CTRY.              Azerbaijan:  COUNTRY NAME
 FLD .                     ACG:  FIELD NAME
 SRVC.     TURAN Drilling & Engineering:  CONTRACTOR
 WELL.                     J27:  WELL NAME
 RIG .             West Chirag:  RIG NAME
 DOE .                     N/A:  DOE NUMBER
 DCON.         Sperry Drilling:  DIRECTNL CONTR
 PDAT.          Mean Sea Level:  PERMANENT DATUM
 WTYP.                Deviated:  WELL TYPE
 MWDS.                    Baku:  MWD SHOP
 JOBN.        AZ-XX-0906571587:  JOB TICKET NUMB
 UNIT.                     N/A:  LOGGING EQUIPMENT ID
 MDS .        Operator Entered:  MAG DATA SOURCE
 CNTY.                        :  COUNTY
 LOC .                        :  LOCATION
 LMF .             Drill Floor:  LOG MEASURED FROM
 TVDS.m                  43.00:  TVDSS CORRECTN
 LATI.deg                40.13:  LATITUDE
 LONG.deg                51.22:  LONGITUDE
 WHNS.m                   7.72:  WELL HEAD N/S
 WHEW.m                 -14.24:  WELL HEAD E/W
 UTMX.m              519005.06:  UTM X
 UTMY.m             4443793.85:  UTM Y
 DFWL.m                   0.00:  DISTANCE FWL
 DFSL.m                   0.00:  DISTANCE FSL
 SDEP.m                 347.00:  START DEPTH
 TDD .m                 581.00:  TOTAL DEPTH (DRILLER)
 VSDR.deg               159.72:  VERT SEC DIRECT
 GVFD.g                   1.00:  GRAVITY FIELD
 MFLD.nT              50318.00:  MAGNETIC FIELD
 MDIP.deg                59.57:  MAGNETIC DIP
 MDEC.deg                 6.44:  MAGNETIC DECL
 GRDC.deg                 0.15:  GRID CORRECTION
 AZTC.deg                 6.29:  AZM TOTAL CORR
 EPD .m                   0.00:  ELEVATION
 EGL .m                   0.00:  GROUND ELEVATION
 WDMS.m                 169.80:  WD ELEV
 APD .m                  43.00:  DEPTH ABOVE PD
 AGAP.m                  43.00:  AIR GAP
 VSEW.m                 -14.24:  VERT SEC E/W
 VSNS.m                   7.72:  VERT SEC N/S
 DEP .m                 342.45:  DEPTH
 EKB .m                   0.00:  KB ELEVATION
 EDF .m                  43.00:  DF ELEVATION
 TDL .m                 237.00:  TOTAL DEPTH (LOGGER)
 VSC .                       0:  VS TO CLOSURE
 MAGU.                 1851428:  MAGUTM CHECKSUM
~Parameter Information Block
#MNEM.UNIT       Value        Description
#---------     -----------    ---------------------------
 AV  .mps                 1.50:  Ann Velocity 
 AVMX.mps                 2.90:  Max Ann Veloc 
 AZIF.deg               115.59:  Azm, Final 
 BHAT.        Rotary Steerable:  BHA Type 
 BROT.°/30m               0.50:  Build Rotating 
 BS  .in                  8.50:  Bit Size 
 BTPL.psig              580.00:  Bit Press Loss 
 CABU.                     Yes:  Customer Abuse 
 COMM.                     ”Cf:  Run Comments 1 
 TCS .hr                 89.79:  Time Ciculation Ended 
 CV  .mps                 3.22:  Crit Velocity 
 CVMX.mps                 4.37:  Max Crit Veloc 
 DD1 .          Rashad Habibov:  Direct Drillr 1 
 DDSV.               Geo-Pilot:  DD Service 
 DEFF.%                  95.00:  % Det Eff 
 DLRX.°/30m               1.94:  Dogleg Rot Max 
 DLSO.°/30m               0.70:  Dogleg Oriented 
 DLSX.°/30m               1.94:  Dogleg Str Max 
 DRET.      04.45.00 25-Dec-20:  Drill End Time 
 DRST.      10.00.00 24-Dec-20:  Drill Start Tim 
 DTIM.hr                 16.64:  Time Drilling 
 EDEP.m                4999.01:  End Depth 
 ENG1.         Elchin Mammadov:  Engineer 1 
 ENG2.          Ruslan Safarov:  Engineer 2 
 ENG3.          Rustam Safarov:  Engineer 3 
 ETIM.      09.00.00 29-Dec-20:  End Time 
 FLOI.gpm               500.00:  Flow In 
 FLON.gpm               400.00:  Flow In Min 
 FLOS.cptm                0.00:  Fluid Loss 
 FLOX.gpm               500.00:  Flow In Max 
 HFLO.                      No:  High Flow 
 HPRE.                      No:  High Pressure 
 HTEM.                      No:  High Temp 
 HYDO.m                   2.00:  Hydro Offset 
 IFIN.deg                66.79:  Inc, Final 
 IMAX.deg                67.66:  Inc Max 
 IMIN.deg                66.39:  Inc Min 
 IMND.m                4949.37:  Inc Min Depth 
 IMXD.m                4778.63:  Inc Max Depth 
 JARR.                     Yes:  Jarring 
 LETM.      04.45.00 25-Dec-20:  Log End Time 
 LOST.hr                     0:  Lost Rig Time 
 LSTM.      10.00.00 24-Dec-20:  Log Start Time 
 MDCL.ppm             39000.00:  Mud Chlorides 
 MDES.     Inversion Oil/Synthetic:  Mud Desc 
 DFD .sg                  1.33:  Mud Density 
 MDMN.sg                  1.33:  Dens Mud Min 
 MDMX.sg                  1.33:  Dens Mud Max 
 MOIL.                      70:  Run Mud Oil % 
 MOWR.                   70:30:  Run Mud OWR 
 MSND.                       0:  Run Mud Sand % 
 MSOL.                    17.4:  Run Mud Solids% 
 DFV .spqt               84.00:  Mud Viscosity 
 MWOD.in                  6.75:  MWD Tool OD 
 MWSI.                     Yes:  Serv Intrp, MWD 
 OTIM.hr                168.14:  Time Operating 
 PCON.           Look Like New:  Pad Condition 
 PMAX.psia            10822.93:  Press Op, Max 
 PV  .cP                 30.00:  Mud PV 
 RUN .                     900:  Run Number 
 ROPA.m/hr               18.00:  ROP Avg 
 ROPN.m/hr               12.00:  ROP Min 
 ROPX.m/hr               25.00:  ROP Max 
 RPMA.rpm               120.00:  RPM Surface Avg 
 RPMN.rpm               100.00:  RPM Surface Min 
 RPMX.rpm               120.00:  RPM Surface Max 
 RRUN.                    0900:  Rig Run Number 
 SAZI.deg               115.08:  Azm, Start 
 SDEP.m                4762.01:  Start Depth 
 SIDD.                      No:  Serv Intrp, DD 
 SINC.deg                66.14:  Inc, Start 
 SPPA.psig             3700.00:  SPP Avg 
 SPPN.psig             3620.00:  SPP Min 
 SPPX.psig             3900.00:  SPP Max 
 STIM.      09.30.00 22-Dec-20:  Start Time 
 SVCS.                 DD, MWD:  Services 
 SVER.                    9.20:  Sperry Version 
 TDAT.m                 237.00:  Tot Depth Attmp 
 TDDF.                      No:  Trip for DD 
 TDLG.m                 237.00:  Tot Depth Loggd 
 TFF .                      No:  Trip for Fail 
 TQAA.f-kp               18.00:  Torque Abs Avg 
 TQAN.f-kp               17.00:  Torque Abs Min 
 TQAX.f-kp               20.00:  Torque Abs Max 
 TRRT.°/30m               0.60:  Turn Rotating 
 MRT .                    HCIM:  Maximum Recorded Temperature 
 TTMX.degC               94.12:  Max Tool Temp 
 VS01.                90627809:  Virtual Str1 SN 
 VS02.                90527813:  Virtual Str2 SN 
 VS03.                90545417:  Virtual Str3 SN 
 VS04.                12460870:  Virtual Str4 SN 
 VS05.                90516706:  Virtual Str5 SN 
 VS06.                90632007:  Virtual Str6 SN 
 WBMN.klb                 0.00:  WOB Min 
 WOBA.klb                14.00:  WOB Avg 
 WOBX.klb                25.00:  WOB Max 
 YP  .lhf2               32.00:  Yield Point 
~Curve Information Block
#MNEM.UNIT                 API CODE     Curve Description
#---------               -----------    ---------------------------
 TIME.HHMMSS            00 000 000 000:  GT Time & Date
 GTDEPTH.m              00 000 000 000:  GT Depth
 GTPQH.psia             00 000 000 000:  GT HR Quartz Pressure
 GTTQ.degC              00 000 000 000:  GT Quartz Temperature
 GTTN.NONE              00 000 000 000:  GT Test Number
 GTET.sec               00 000 000 000:  GT Elapsed Test Time
 GTTVD.m                00 000 000 000:  GT True Vertical Depth
#Other Information
#
#WARRANTY: Halliburton will use its best efforts to furnish customers with 
#accurate information and interpretations that are part of, and incident to, the services 
#provided.  However, Halliburton cannot and does not warrant the accuracy 
#or correctness of such information and interpretations.  Under no circumstances should any 
#such information or interpretation be relied upon as the sole basis for any drilling, 
#completion, production, or financial decision or any procedure involving any risk to the 
#safety of any drilling venture, drilling rig or its crew or any other third party.  The 
#Customer has full responsibility for all drilling, completion and production operation.  
#Halliburton makes no representations or warranties, either expressed or 
#implied, including, but not limited to, the implied warranties of merchantability or fitness 
#for a particular purpose, with respect to the services rendered.  In no event will 
#Halliburton be liable for failure to obtain any particular results or for 
#any damages, including, but not limited to, indirect, special or consequential damages, 
#resulting from the use of any information or interpretation provided by Halliburton.
#
~A           TIME           GTDEPTH  GTPQH  GTTQ  GTTN  GTET   GTTVD  
# ...
   20:30:14.847.25-Dec-2020 4794.01 5430.03 63.87 8.00 482.97 2496.73
   20:30:15.047.25-Dec-2020 4794.01 5430.03 63.87 8.00 483.17 2496.73
   20:30:15.247.25-Dec-2020 4794.01 5439.06 63.87 8.00 483.37 2496.73
   20:30:15.447.25-Dec-2020 4794.01 5427.76 63.87 8.00 483.57 2496.73
   20:30:15.647.25-Dec-2020 4794.01 5431.66 63.87 8.00 483.77 2496.73
   20:30:15.847.25-Dec-2020 4794.01 5432.64 63.87 8.00 483.97 2496.73
   20:30:16.047.25-Dec-2020 4794.01 5428.81 63.87 8.00 484.17 2496.73
   20:30:16.247.25-Dec-2020 4794.01 5428.89 63.87 8.00 484.37 2496.73
   20:30:16.447.25-Dec-2020 4794.01 5428.18 63.87 8.00 484.57 2496.73
   20:30:16.647.25-Dec-2020 4794.01 5427.81 63.87 8.00 484.77 2496.73
   20:30:16.847.25-Dec-2020 4794.01 5427.78 63.87 8.00 484.97 2496.73
   20:30:17.047.25-Dec-2020 4794.01 5427.50 63.87 8.00 485.17 2496.73
   20:30:17.247.25-Dec-2020 4794.01 5426.92 63.87 8.00 485.37 2496.73
   20:30:17.447.25-Dec-2020 4794.01 5427.71 63.87 8.00 485.57 2496.73
   20:30:17.647.25-Dec-2020 4794.01 5432.32 63.87 8.00 485.77 2496.73
   20:30:17.847.25-Dec-2020 4794.01 5431.85 63.87 8.00 485.97 2496.73
   20:30:18.047.25-Dec-2020 4794.01 5431.85 63.87 8.00 486.17 2496.73
   20:30:18.247.25-Dec-2020 4794.01 5433.80 63.87 8.00 486.37 2496.73
   20:30:18.447.25-Dec-2020 4794.01 5429.26 63.87 8.00 486.57 2496.73
   20:30:18.647.25-Dec-2020 4794.01 5428.00 63.87 8.00 486.77 2496.73
   20:30:18.847.25-Dec-2020 4794.01 5429.91 63.87 8.00 486.97 2496.73
   20:30:19.047.25-Dec-2020 4794.01 5429.91 63.87 8.00 487.17 2496.73
   20:30:19.247.25-Dec-2020 4794.01 5428.58 63.87 8.00 487.37 2496.73
   20:30:19.446.25-Dec-2020 4794.01 5429.02 63.87 8.00 487.57 2496.73
   20:30:19.646.25-Dec-2020 4794.01 5427.96 63.87 8.00 487.77 2496.73
   20:30:19.846.25-Dec-2020 4794.01 5428.22 63.87 8.00 487.97 2496.73
   20:30:20.046.25-Dec-2020 4794.01 5428.01 63.87 8.00 488.17 2496.73
   20:30:20.246.25-Dec-2020 4794.01 5433.82 63.87 8.00 488.37 2496.73
   20:30:20.446.25-Dec-2020 4794.01 5432.58 63.87 8.00 488.57 2496.73
   20:30:20.646.25-Dec-2020 4794.01 5423.97 63.87 8.00 488.77 2496.73
   20:30:20.846.25-Dec-2020 4794.01 5435.96 63.86 8.00 488.97 2496.73
   20:30:21.046.25-Dec-2020 4794.01 5433.31 63.86 8.00 489.17 2496.73
   20:30:21.246.25-Dec-2020 4794.01 5432.23 63.86 8.00 489.37 2496.73
   20:30:21.446.25-Dec-2020 4794.01 5428.75 63.86 8.00 489.57 2496.73
   20:30:21.646.25-Dec-2020 4794.01 5440.71 63.86 8.00 489.77 2496.73
   20:30:21.846.25-Dec-2020 4794.01 5432.84 63.86 8.00 489.97 2496.73
   20:30:22.046.25-Dec-2020 4794.01 5432.84 63.86 8.00 490.17 2496.73
   20:30:22.246.25-Dec-2020 4794.01 5437.12 63.86 8.00 490.37 2496.73
   20:30:22.446.25-Dec-2020 4794.01 5428.26 63.86 8.00 490.57 2496.73
   20:30:22.646.25-Dec-2020 4794.01 5434.53 63.86 8.00 490.77 2496.73
   20:30:22.846.25-Dec-2020 4794.01 5431.46 63.86 8.00 490.97 2496.73
   20:30:23.046.25-Dec-2020 4794.01 5431.46 63.86 8.00 491.17 2496.73
   20:30:23.246.25-Dec-2020 4794.01 5433.77 63.86 8.00 491.37 2496.73
   20:30:23.446.25-Dec-2020 4794.01 5428.50 63.86 8.00 491.57 2496.73
   20:30:23.646.25-Dec-2020 4794.01 5426.56 63.86 8.00 491.77 2496.73
   20:30:23.846.25-Dec-2020 4794.01 5428.45 63.86 8.00 491.97 2496.73
   20:30:24.046.25-Dec-2020 4794.01 5428.45 63.86 8.00 492.17 2496.73
   20:30:24.246.25-Dec-2020 4794.01 5426.70 63.86 8.00 492.37 2496.73
   20:30:24.446.25-Dec-2020 4794.01 5427.92 63.86 8.00 492.57 2496.73
   20:30:24.646.25-Dec-2020 4794.01 5426.82 63.86 8.00 492.77 2496.73
   20:30:24.846.25-Dec-2020 4794.01 5426.94 63.86 8.00 492.97 2496.73
   20:30:25.046.25-Dec-2020 4794.01 5433.45 63.86 8.00 493.17 2496.73
   20:30:25.246.25-Dec-2020 4794.01 5428.68 63.86 8.00 493.37 2496.73
   20:30:25.446.25-Dec-2020 4794.01 5430.10 63.86 8.00 493.57 2496.73
   20:30:25.646.25-Dec-2020 4794.01 5430.00 63.86 8.00 493.77 2496.73
   20:30:25.846.25-Dec-2020 4794.01 5430.88 63.86 8.00 493.97 2496.73
   20:30:26.046.25-Dec-2020 4794.01 5430.88 63.86 8.00 494.17 2496.73
   20:30:26.246.25-Dec-2020 4794.01 5429.52 63.86 8.00 494.37 2496.73
   20:30:26.446.25-Dec-2020 4794.01 5428.69 63.86 8.00 494.57 2496.73
   20:30:26.646.25-Dec-2020 4794.01 5428.16 63.86 8.00 494.77 2496.73
   20:30:26.846.25-Dec-2020 4794.01 5428.83 63.86 8.00 494.97 2496.73
   20:30:27.046.25-Dec-2020 4794.01 5428.83 63.86 8.00 495.17 2496.73
   20:30:27.246.25-Dec-2020 4794.01 5427.82 63.86 8.00 495.37 2496.73
   20:30:27.446.25-Dec-2020 4794.01 5428.48 63.86 8.00 495.57 2496.73
   20:30:27.646.25-Dec-2020 4794.01 5427.85 63.86 8.00 495.77 2496.73
   20:30:27.846.25-Dec-2020 4794.01 5438.20 63.86 8.00 495.97 2496.73
   20:30:28.046.25-Dec-2020 4794.01 5438.20 63.86 8.00 496.17 2496.73
   20:30:28.246.25-Dec-2020 4794.01 5431.10 63.85 8.00 496.37 2496.73
   20:30:28.446.25-Dec-2020 4794.01 5444.02 63.85 8.00 496.57 2496.73
   20:30:28.646.25-Dec-2020 4794.01 5425.73 63.85 8.00 496.77 2496.73
   20:30:28.846.25-Dec-2020 4794.01 5430.87 63.85 8.00 496.97 2496.73
   20:30:29.046.25-Dec-2020 4794.01 5433.92 63.85 8.00 497.17 2496.73
   20:30:29.246.25-Dec-2020 4794.01 5436.06 63.85 8.00 497.37 2496.73
   20:30:29.446.25-Dec-2020 4794.01 5432.93 63.85 8.00 497.57 2496.73
   20:30:29.646.25-Dec-2020 4794.01 5429.46 63.85 8.00 497.77 2496.73
   20:30:29.846.25-Dec-2020 4794.01 5435.52 63.85 8.00 497.97 2496.73
   20:30:30.046.25-Dec-2020 4794.01 5435.52 63.85 8.00 498.17 2496.73
   20:30:30.246.25-Dec-2020 4794.01 5434.46 63.85 8.00 498.37 2496.73
   20:30:30.446.25-Dec-2020 4794.01 5432.61 63.85 8.00 498.57 2496.73
   20:30:30.646.25-Dec-2020 4794.01 5430.81 63.85 8.00 498.77 2496.73
   20:30:30.846.25-Dec-2020 4794.01 5431.04 63.85 8.00 498.97 2496.73
   20:30:31.046.25-Dec-2020 4794.01 5431.04 63.85 8.00 499.17 2496.73
   20:30:31.246.25-Dec-2020 4794.01 5427.09 63.85 8.00 499.37 2496.73
   20:30:31.446.25-Dec-2020 4794.01 5430.13 63.85 8.00 499.57 2496.73
   20:30:31.646.25-Dec-2020 4794.01 5428.23 63.85 8.00 499.77 2496.73
   20:30:31.846.25-Dec-2020 4794.01 5427.87 63.85 8.00 499.97 2496.73
   20:30:32.046.25-Dec-2020 4794.01 5428.96 63.85 8.00 500.17 2496.73
   20:30:32.246.25-Dec-2020 4794.01 5427.32 63.85 8.00 500.37 2496.73
   20:30:32.446.25-Dec-2020 4794.01 5428.26 63.85 8.00 500.57 2496.73
   20:30:32.646.25-Dec-2020 4794.01 5439.15 63.85 8.00 500.77 2496.73
   20:30:32.846.25-Dec-2020 4794.01 5424.83 63.85 8.00 500.97 2496.73
   20:30:33.046.25-Dec-2020 4794.01 5430.83 63.85 8.00 501.17 2496.73
   20:30:33.246.25-Dec-2020 4794.01 5432.48 63.85 8.00 501.37 2496.73
   20:30:33.446.25-Dec-2020 4794.01 5430.56 63.85 8.00 501.57 2496.73
   20:30:33.646.25-Dec-2020 4794.01 5429.68 63.85 8.00 501.77 2496.73
   20:30:33.846.25-Dec-2020 4794.01 5428.78 63.85 8.00 501.97 2496.73
   20:30:34.046.25-Dec-2020 4794.01 5428.78 63.85 8.00 502.17 2496.73
   20:30:34.246.25-Dec-2020 4794.01 5428.61 63.85 8.00 502.37 2496.73
   20:30:34.446.25-Dec-2020 4794.01 5429.70 63.85 8.00 502.57 2496.73
   20:30:34.645.25-Dec-2020 4794.01 5429.02 63.85 8.00 502.77 2496.73
   20:30:34.845.25-Dec-2020 4794.01 5428.19 63.85 8.00 502.97 2496.73
   20:30:35.045.25-Dec-2020 4794.01 5428.19 63.85 8.00 503.17 2496.73
   20:30:35.245.25-Dec-2020 4794.01 5427.87 63.85 8.00 503.37 2496.73
   20:30:35.445.25-Dec-2020 4794.01 5433.98 63.85 8.00 503.57 2496.73
   20:30:35.645.25-Dec-2020 4794.01 5432.16 63.85 8.00 503.77 2496.73
