~Version Information
 VERS.                  2.0:   CWLS log ASCII Standard -VERSION 2.0
 WRAP.                   NO:   One line per depth step
~Well Information Block
#MNEM.UNIT     VALUE/NAME     DESCRIPTION
#---------     -----------    ---------------------------
 STRT.S             13:36:27 25-Dec-20: START TIME 13:36:27 25-Dec-20
 STOP.S             13:44:49 25-Dec-20: STOP TIME  13:44:49 25-Dec-20
 STEP.S                   0.00: STEP TIME
 NULL.                 -999.25: NULL VALUE
 DFWT.                        :  DIST FWL TEXT
 DFST.                        :  DIST FSL TEXT
 DMF .             Drill Floor:  DRILL MEAS FROM
 STIM.      04.54.24 22-Sep-20:  START TIME
 DATE.      04.54.24 21-Nov-20:  END TIME
 SPUD.               21-Nov-20:  SPUD DATE
 NREF.                    Grid:  NORTH REFERENCE
 HPTY.       Minimum Curvature:  HOLE POS TYPE
 DMOD.             Drill Model:  DRILL MOD DESC
 SVYD.                  Survey:  SURVEY DESC
 ILTD.               Lithology:  INTERP LTH DESC
 FTOP.          Formation Tops:  FORM TOPS DESC
 SON .        AZ-XX-0906571587:  JOB NUMBER
 COMP.     BP Exploration (Caspian Sea) Ltd:  COMPANY
 UWI .                     N/A:  UNIQUE WELL IDENTIFIER
 API .                     N/A:  API NUMBER
 BASE.              Azerbaijan:  LOGGING EQUIPMENT BASE LOCATION
 REGN.                   EESSA:  REGION
 PROV.                    Baku:  PROVINCE
 STAT.                    Baku:  STATE NAME
 CTRY.              Azerbaijan:  COUNTRY NAME
 FLD .                     ACG:  FIELD NAME
 SRVC.     TURAN Drilling & Engineering:  CONTRACTOR
 WELL.                     J27:  WELL NAME
 RIG .             West Chirag:  RIG NAME
 DOE .                     N/A:  DOE NUMBER
 DCON.         Sperry Drilling:  DIRECTNL CONTR
 PDAT.          Mean Sea Level:  PERMANENT DATUM
 WTYP.                Deviated:  WELL TYPE
 MWDS.                    Baku:  MWD SHOP
 JOBN.        AZ-XX-0906571587:  JOB TICKET NUMB
 UNIT.                     N/A:  LOGGING EQUIPMENT ID
 MDS .        Operator Entered:  MAG DATA SOURCE
 CNTY.                        :  COUNTY
 LOC .                        :  LOCATION
 LMF .             Drill Floor:  LOG MEASURED FROM
 TVDS.m                  43.00:  TVDSS CORRECTN
 LATI.deg                40.13:  LATITUDE
 LONG.deg                51.22:  LONGITUDE
 WHNS.m                   7.72:  WELL HEAD N/S
 WHEW.m                 -14.24:  WELL HEAD E/W
 UTMX.m              519005.06:  UTM X
 UTMY.m             4443793.85:  UTM Y
 DFWL.m                   0.00:  DISTANCE FWL
 DFSL.m                   0.00:  DISTANCE FSL
 SDEP.m                 347.00:  START DEPTH
 TDD .m                 581.00:  TOTAL DEPTH (DRILLER)
 VSDR.deg               159.72:  VERT SEC DIRECT
 GVFD.g                   1.00:  GRAVITY FIELD
 MFLD.nT              50318.00:  MAGNETIC FIELD
 MDIP.deg                59.57:  MAGNETIC DIP
 MDEC.deg                 6.44:  MAGNETIC DECL
 GRDC.deg                 0.15:  GRID CORRECTION
 AZTC.deg                 6.29:  AZM TOTAL CORR
 EPD .m                   0.00:  ELEVATION
 EGL .m                   0.00:  GROUND ELEVATION
 WDMS.m                 169.80:  WD ELEV
 APD .m                  43.00:  DEPTH ABOVE PD
 AGAP.m                  43.00:  AIR GAP
 VSEW.m                 -14.24:  VERT SEC E/W
 VSNS.m                   7.72:  VERT SEC N/S
 DEP .m                 342.45:  DEPTH
 EKB .m                   0.00:  KB ELEVATION
 EDF .m                  43.00:  DF ELEVATION
 TDL .m                 237.00:  TOTAL DEPTH (LOGGER)
 VSC .                       0:  VS TO CLOSURE
 MAGU.                 1851428:  MAGUTM CHECKSUM
~Parameter Information Block
#MNEM.UNIT       Value        Description
#---------     -----------    ---------------------------
 AV  .mps                 1.50:  Ann Velocity 
 AVMX.mps                 2.90:  Max Ann Veloc 
 AZIF.deg               115.59:  Azm, Final 
 BHAT.        Rotary Steerable:  BHA Type 
 BROT.°/30m               0.50:  Build Rotating 
 BS  .in                  8.50:  Bit Size 
 BTPL.psig              580.00:  Bit Press Loss 
 CABU.                     Yes:  Customer Abuse 
 COMM.                     lW:  Run Comments 1 
 TCS .hr                 89.79:  Time Ciculation Ended 
 CV  .mps                 3.22:  Crit Velocity 
 CVMX.mps                 4.37:  Max Crit Veloc 
 DD1 .          Rashad Habibov:  Direct Drillr 1 
 DDSV.               Geo-Pilot:  DD Service 
 DEFF.%                  95.00:  % Det Eff 
 DLRX.°/30m               1.94:  Dogleg Rot Max 
 DLSO.°/30m               0.70:  Dogleg Oriented 
 DLSX.°/30m               1.94:  Dogleg Str Max 
 DRET.      04.45.00 25-Dec-20:  Drill End Time 
 DRST.      10.00.00 24-Dec-20:  Drill Start Tim 
 DTIM.hr                 16.64:  Time Drilling 
 EDEP.m                4999.01:  End Depth 
 ENG1.         Elchin Mammadov:  Engineer 1 
 ENG2.          Ruslan Safarov:  Engineer 2 
 ENG3.          Rustam Safarov:  Engineer 3 
 ETIM.      09.00.00 29-Dec-20:  End Time 
 FLOI.gpm               500.00:  Flow In 
 FLON.gpm               400.00:  Flow In Min 
 FLOS.cptm                0.00:  Fluid Loss 
 FLOX.gpm               500.00:  Flow In Max 
 HFLO.                      No:  High Flow 
 HPRE.                      No:  High Pressure 
 HTEM.                      No:  High Temp 
 HYDO.m                   2.00:  Hydro Offset 
 IFIN.deg                66.79:  Inc, Final 
 IMAX.deg                67.66:  Inc Max 
 IMIN.deg                66.39:  Inc Min 
 IMND.m                4949.37:  Inc Min Depth 
 IMXD.m                4778.63:  Inc Max Depth 
 JARR.                     Yes:  Jarring 
 LETM.      04.45.00 25-Dec-20:  Log End Time 
 LOST.hr                     0:  Lost Rig Time 
 LSTM.      10.00.00 24-Dec-20:  Log Start Time 
 MDCL.ppm             39000.00:  Mud Chlorides 
 MDES.     Inversion Oil/Synthetic:  Mud Desc 
 DFD .sg                  1.33:  Mud Density 
 MDMN.sg                  1.33:  Dens Mud Min 
 MDMX.sg                  1.33:  Dens Mud Max 
 MOIL.                      70:  Run Mud Oil % 
 MOWR.                   70:30:  Run Mud OWR 
 MSND.                       0:  Run Mud Sand % 
 MSOL.                    17.4:  Run Mud Solids% 
 DFV .spqt               84.00:  Mud Viscosity 
 MWOD.in                  6.75:  MWD Tool OD 
 MWSI.                     Yes:  Serv Intrp, MWD 
 OTIM.hr                168.14:  Time Operating 
 PCON.           Look Like New:  Pad Condition 
 PMAX.psia            10822.93:  Press Op, Max 
 PV  .cP                 30.00:  Mud PV 
 RUN .                     900:  Run Number 
 ROPA.m/hr               18.00:  ROP Avg 
 ROPN.m/hr               12.00:  ROP Min 
 ROPX.m/hr               25.00:  ROP Max 
 RPMA.rpm               120.00:  RPM Surface Avg 
 RPMN.rpm               100.00:  RPM Surface Min 
 RPMX.rpm               120.00:  RPM Surface Max 
 RRUN.                    0900:  Rig Run Number 
 SAZI.deg               115.08:  Azm, Start 
 SDEP.m                4762.01:  Start Depth 
 SIDD.                      No:  Serv Intrp, DD 
 SINC.deg                66.14:  Inc, Start 
 SPPA.psig             3700.00:  SPP Avg 
 SPPN.psig             3620.00:  SPP Min 
 SPPX.psig             3900.00:  SPP Max 
 STIM.      09.30.00 22-Dec-20:  Start Time 
 SVCS.                 DD, MWD:  Services 
 SVER.                    9.20:  Sperry Version 
 TDAT.m                 237.00:  Tot Depth Attmp 
 TDDF.                      No:  Trip for DD 
 TDLG.m                 237.00:  Tot Depth Loggd 
 TFF .                      No:  Trip for Fail 
 TQAA.f-kp               18.00:  Torque Abs Avg 
 TQAN.f-kp               17.00:  Torque Abs Min 
 TQAX.f-kp               20.00:  Torque Abs Max 
 TRRT.°/30m               0.60:  Turn Rotating 
 MRT .                    HCIM:  Maximum Recorded Temperature 
 TTMX.degC               94.12:  Max Tool Temp 
 VS01.                90627809:  Virtual Str1 SN 
 VS02.                90527813:  Virtual Str2 SN 
 VS03.                90545417:  Virtual Str3 SN 
 VS04.                12460870:  Virtual Str4 SN 
 VS05.                90516706:  Virtual Str5 SN 
 VS06.                90632007:  Virtual Str6 SN 
 WBMN.klb                 0.00:  WOB Min 
 WOBA.klb                14.00:  WOB Avg 
 WOBX.klb                25.00:  WOB Max 
 YP  .lhf2               32.00:  Yield Point 
~Curve Information Block
#MNEM.UNIT                 API CODE     Curve Description
#---------               -----------    ---------------------------
 TIME.HHMMSS            00 000 000 000:  GT Time & Date
 GTDEPTH.m              00 000 000 000:  GT Depth
 GTPQH.psia             00 000 000 000:  GT HR Quartz Pressure
 GTTQ.degC              00 000 000 000:  GT Quartz Temperature
 GTTN.NONE              00 000 000 000:  GT Test Number
 GTET.sec               00 000 000 000:  GT Elapsed Test Time
 GTTVD.m                00 000 000 000:  GT True Vertical Depth
#Other Information
#
#WARRANTY: Halliburton will use its best efforts to furnish customers with 
#accurate information and interpretations that are part of, and incident to, the services 
#provided.  However, Halliburton cannot and does not warrant the accuracy 
#or correctness of such information and interpretations.  Under no circumstances should any 
#such information or interpretation be relied upon as the sole basis for any drilling, 
#completion, production, or financial decision or any procedure involving any risk to the 
#safety of any drilling venture, drilling rig or its crew or any other third party.  The 
#Customer has full responsibility for all drilling, completion and production operation.  
#Halliburton makes no representations or warranties, either expressed or 
#implied, including, but not limited to, the implied warranties of merchantability or fitness 
#for a particular purpose, with respect to the services rendered.  In no event will 
#Halliburton be liable for failure to obtain any particular results or for 
#any damages, including, but not limited to, indirect, special or consequential damages, 
#resulting from the use of any information or interpretation provided by Halliburton.
#
~A           TIME           GTDEPTH  GTPQH  GTTQ  GTTN  GTET   GTTVD  
# ...
   13:37:36.000.25-Dec-2020 4921.01   77.06 66.20 2.00  69.00 2546.48
   13:37:36.200.25-Dec-2020 4921.01   77.06 66.20 2.00  69.20 2546.48
   13:37:36.400.25-Dec-2020 4921.01   77.91 66.20 2.00  69.40 2546.48
   13:37:36.600.25-Dec-2020 4921.01   78.99 66.20 2.00  69.60 2546.48
   13:37:36.800.25-Dec-2020 4921.01   79.44 66.20 2.00  69.80 2546.48
   13:37:37.000.25-Dec-2020 4921.01   79.84 66.20 2.00  70.00 2546.48
   13:37:37.200.25-Dec-2020 4921.01   79.84 66.20 2.00  70.20 2546.48
   13:37:37.400.25-Dec-2020 4921.01   80.58 66.20 2.00  70.40 2546.48
   13:37:37.600.25-Dec-2020 4921.01   80.93 66.21 2.00  70.60 2546.48
   13:37:37.800.25-Dec-2020 4921.01   81.27 66.21 2.00  70.80 2546.48
   13:37:38.000.25-Dec-2020 4921.01   81.59 66.21 2.00  71.00 2546.48
   13:37:38.200.25-Dec-2020 4921.01   81.85 66.21 2.00  71.20 2546.48
   13:37:38.400.25-Dec-2020 4921.01   82.19 66.21 2.00  71.40 2546.48
   13:37:38.600.25-Dec-2020 4921.01   82.52 66.21 2.00  71.60 2546.48
   13:37:38.800.25-Dec-2020 4921.01   82.86 66.21 2.00  71.80 2546.48
   13:37:39.000.25-Dec-2020 4921.01   83.11 66.21 2.00  72.00 2546.48
   13:37:39.200.25-Dec-2020 4921.01   83.11 66.21 2.00  72.20 2546.48
   13:37:39.400.25-Dec-2020 4921.01   83.80 66.21 2.00  72.40 2546.48
   13:37:39.600.25-Dec-2020 4921.01   84.13 66.21 2.00  72.60 2546.48
   13:37:39.800.25-Dec-2020 4921.01   84.52 66.21 2.00  72.80 2546.48
   13:37:40.000.25-Dec-2020 4921.01   85.29 66.21 2.00  73.00 2546.48
   13:37:40.200.25-Dec-2020 4921.01   85.29 66.21 2.00  73.20 2546.48
   13:37:40.400.25-Dec-2020 4921.01   85.99 66.21 2.00  73.40 2546.48
   13:37:40.600.25-Dec-2020 4921.01   86.30 66.21 2.00  73.60 2546.48
   13:37:40.800.25-Dec-2020 4921.01   86.58 66.21 2.00  73.80 2546.48
   13:37:41.000.25-Dec-2020 4921.01   86.91 66.21 2.00  74.00 2546.48
   13:37:41.200.25-Dec-2020 4921.01   86.91 66.21 2.00  74.20 2546.48
   13:37:41.400.25-Dec-2020 4921.01   87.52 66.21 2.00  74.40 2546.48
   13:37:41.600.25-Dec-2020 4921.01   87.84 66.21 2.00  74.60 2546.48
   13:37:41.800.25-Dec-2020 4921.01   88.20 66.21 2.00  74.80 2546.48
   13:37:42.000.25-Dec-2020 4921.01   88.49 66.21 2.00  75.00 2546.48
   13:37:42.200.25-Dec-2020 4921.01   88.49 66.21 2.00  75.20 2546.48
   13:37:42.400.25-Dec-2020 4921.01   88.78 66.21 2.00  75.40 2546.48
   13:37:42.600.25-Dec-2020 4921.01   89.31 66.21 2.00  75.60 2546.48
   13:37:42.800.25-Dec-2020 4921.01   89.58 66.21 2.00  75.80 2546.48
   13:37:43.000.25-Dec-2020 4921.01   89.84 66.21 2.00  76.00 2546.48
   13:37:43.200.25-Dec-2020 4921.01   89.84 66.21 2.00  76.20 2546.48
   13:37:43.400.25-Dec-2020 4921.01   90.40 66.21 2.00  76.40 2546.48
   13:37:43.600.25-Dec-2020 4921.01   90.97 66.21 2.00  76.60 2546.48
   13:37:43.800.25-Dec-2020 4921.01   91.30 66.21 2.00  76.80 2546.48
   13:37:44.000.25-Dec-2020 4921.01   91.61 66.22 2.00  77.00 2546.48
   13:37:44.200.25-Dec-2020 4921.01   91.61 66.22 2.00  77.20 2546.48
   13:37:44.400.25-Dec-2020 4921.01   92.17 66.22 2.00  77.40 2546.48
   13:37:44.600.25-Dec-2020 4921.01   92.45 66.22 2.00  77.60 2546.48
   13:37:44.800.25-Dec-2020 4921.01   92.73 66.22 2.00  77.80 2546.48
   13:37:45.000.25-Dec-2020 4921.01   92.99 66.22 2.00  78.00 2546.48
   13:37:45.200.25-Dec-2020 4921.01   92.99 66.22 2.00  78.20 2546.48
   13:37:45.400.25-Dec-2020 4921.01   93.51 66.22 2.00  78.40 2546.48
   13:37:45.600.25-Dec-2020 4921.01   93.71 66.22 2.00  78.60 2546.48
   13:37:45.800.25-Dec-2020 4921.01   93.99 66.22 2.00  78.80 2546.48
   13:37:46.000.25-Dec-2020 4921.01   94.24 66.22 2.00  79.00 2546.48
   13:37:46.200.25-Dec-2020 4921.01   94.46 66.22 2.00  79.20 2546.48
   13:37:46.400.25-Dec-2020 4921.01   94.76 66.22 2.00  79.40 2546.48
   13:37:46.600.25-Dec-2020 4921.01   95.04 66.22 2.00  79.60 2546.48
   13:37:46.800.25-Dec-2020 4921.01   95.31 66.22 2.00  79.80 2546.48
   13:37:47.000.25-Dec-2020 4921.01   95.57 66.22 2.00  80.00 2546.48
   13:37:47.200.25-Dec-2020 4921.01   95.57 66.22 2.00  80.20 2546.48
   13:37:47.400.25-Dec-2020 4921.01   96.07 66.22 2.00  80.40 2546.48
   13:37:47.600.25-Dec-2020 4921.01   96.32 66.22 2.00  80.60 2546.48
   13:37:47.800.25-Dec-2020 4921.01   96.57 66.22 2.00  80.80 2546.48
   13:37:48.000.25-Dec-2020 4921.01   96.79 66.22 2.00  81.00 2546.48
   13:37:48.200.25-Dec-2020 4921.01   97.06 66.22 2.00  81.20 2546.48
   13:37:48.400.25-Dec-2020 4921.01   97.33 66.22 2.00  81.40 2546.48
   13:37:48.600.25-Dec-2020 4921.01   97.58 66.22 2.00  81.60 2546.48
   13:37:48.800.25-Dec-2020 4921.01   97.83 66.22 2.00  81.80 2546.48
   13:37:49.000.25-Dec-2020 4921.01   98.08 66.22 2.00  82.00 2546.48
   13:37:49.200.25-Dec-2020 4921.01   98.32 66.22 2.00  82.20 2546.48
   13:37:49.400.25-Dec-2020 4921.01   98.56 66.22 2.00  82.40 2546.48
   13:37:49.600.25-Dec-2020 4921.01   98.79 66.22 2.00  82.60 2546.48
   13:37:49.800.25-Dec-2020 4921.01   99.04 66.22 2.00  82.80 2546.48
   13:37:50.000.25-Dec-2020 4921.01   99.27 66.22 2.00  83.00 2546.48
   13:37:50.200.25-Dec-2020 4921.01   99.49 66.22 2.00  83.20 2546.48
   13:37:50.400.25-Dec-2020 4921.01   99.69 66.22 2.00  83.40 2546.48
   13:37:50.600.25-Dec-2020 4921.01   99.97 66.22 2.00  83.60 2546.48
   13:37:50.800.25-Dec-2020 4921.01  100.23 66.22 2.00  83.80 2546.48
   13:37:51.000.25-Dec-2020 4921.01  100.48 66.22 2.00  84.00 2546.48
   13:37:51.200.25-Dec-2020 4921.01  100.48 66.22 2.00  84.20 2546.48
   13:37:51.400.25-Dec-2020 4921.01  100.97 66.23 2.00  84.40 2546.48
   13:37:51.600.25-Dec-2020 4921.01  101.21 66.23 2.00  84.60 2546.48
   13:37:51.800.25-Dec-2020 4921.01  101.44 66.23 2.00  84.80 2546.48
   13:37:52.000.25-Dec-2020 4921.01  101.68 66.23 2.00  85.00 2546.48
   13:37:52.200.25-Dec-2020 4921.01  101.68 66.23 2.00  85.20 2546.48
   13:37:52.400.25-Dec-2020 4921.01  102.15 66.23 2.00  85.40 2546.48
   13:37:52.600.25-Dec-2020 4921.01  102.36 66.23 2.00  85.60 2546.48
   13:37:52.800.25-Dec-2020 4921.01  102.57 66.23 2.00  85.80 2546.48
   13:37:53.000.25-Dec-2020 4921.01  102.83 66.23 2.00  86.00 2546.48
   13:37:53.200.25-Dec-2020 4921.01  103.06 66.23 2.00  86.20 2546.48
   13:37:53.400.25-Dec-2020 4921.01  103.27 66.23 2.00  86.40 2546.48
   13:37:53.600.25-Dec-2020 4921.01  103.54 66.23 2.00  86.60 2546.48
   13:37:53.800.25-Dec-2020 4921.01  103.76 66.23 2.00  86.80 2546.48
   13:37:54.000.25-Dec-2020 4921.01  104.02 66.23 2.00  87.00 2546.48
   13:37:54.200.25-Dec-2020 4921.01  104.27 66.23 2.00  87.20 2546.48
   13:37:54.400.25-Dec-2020 4921.01  104.47 66.23 2.00  87.40 2546.48
   13:37:54.600.25-Dec-2020 4921.01  104.79 66.23 2.00  87.60 2546.48
   13:37:54.800.25-Dec-2020 4921.01  104.99 66.23 2.00  87.80 2546.48
   13:37:55.000.25-Dec-2020 4921.01  105.24 66.23 2.00  88.00 2546.48
   13:37:55.200.25-Dec-2020 4921.01  105.24 66.23 2.00  88.20 2546.48
   13:37:55.400.25-Dec-2020 4921.01  105.69 66.23 2.00  88.40 2546.48
   13:37:55.600.25-Dec-2020 4921.01  105.97 66.23 2.00  88.60 2546.48
   13:37:55.800.25-Dec-2020 4921.01  106.22 66.23 2.00  88.80 2546.48
   13:37:56.000.25-Dec-2020 4921.01  106.45 66.23 2.00  89.00 2546.48
   13:37:56.200.25-Dec-2020 4921.01  106.45 66.23 2.00  89.20 2546.48
   13:37:56.400.25-Dec-2020 4921.01  106.92 66.23 2.00  89.40 2546.48
   13:37:56.600.25-Dec-2020 4921.01  107.16 66.23 2.00  89.60 2546.48
   13:37:56.800.25-Dec-2020 4921.01  107.38 66.23 2.00  89.80 2546.48
   13:37:57.000.25-Dec-2020 4921.01  107.62 66.23 2.00  90.00 2546.48
   13:37:57.200.25-Dec-2020 4921.01  107.84 66.23 2.00  90.20 2546.48
   13:37:57.400.25-Dec-2020 4921.01  108.07 66.23 2.00  90.40 2546.48
   13:37:57.600.25-Dec-2020 4921.01  108.28 66.23 2.00  90.60 2546.48
   13:37:57.800.25-Dec-2020 4921.01  108.49 66.23 2.00  90.80 2546.48
   13:37:58.000.25-Dec-2020 4921.01  108.98 66.23 2.00  91.00 2546.48
   13:37:58.200.25-Dec-2020 4921.01  109.47 66.23 2.00  91.20 2546.48
   13:37:58.400.25-Dec-2020 4921.01  109.82 66.23 2.00  91.40 2546.48
   13:37:58.600.25-Dec-2020 4921.01  110.14 66.23 2.00  91.60 2546.48
   13:37:58.800.25-Dec-2020 4921.01  110.41 66.23 2.00  91.80 2546.48
