~Version Information
 VERS.                  2.0:   CWLS log ASCII Standard -VERSION 2.0
 WRAP.                   NO:   One line per depth step
~Well Information Block
#MNEM.UNIT     VALUE/NAME     DESCRIPTION
#---------     -----------    ---------------------------
 STRT.S             13:36:27 25-Dec-20: START TIME 13:36:27 25-Dec-20
 STOP.S             13:44:49 25-Dec-20: STOP TIME  13:44:49 25-Dec-20
 STEP.S                   0.00: STEP TIME
 NULL.                 -999.25: NULL VALUE
 DFWT.                        :  DIST FWL TEXT
 DFST.                        :  DIST FSL TEXT
 DMF .             Drill Floor:  DRILL MEAS FROM
 STIM.      04.54.24 22-Sep-20:  START TIME
 DATE.      04.54.24 21-Nov-20:  END TIME
 SPUD.               21-Nov-20:  SPUD DATE
 NREF.                    Grid:  NORTH REFERENCE
 HPTY.       Minimum Curvature:  HOLE POS TYPE
 DMOD.             Drill Model:  DRILL MOD DESC
 SVYD.                  Survey:  SURVEY DESC
 ILTD.               Lithology:  INTERP LTH DESC
 FTOP.          Formation Tops:  FORM TOPS DESC
 SON .        AZ-XX-0906571587:  JOB NUMBER
 COMP.     BP Exploration (Caspian Sea) Ltd:  COMPANY
 UWI .                     N/A:  UNIQUE WELL IDENTIFIER
 API .                     N/A:  API NUMBER
 BASE.              Azerbaijan:  LOGGING EQUIPMENT BASE LOCATION
 REGN.                   EESSA:  REGION
 PROV.                    Baku:  PROVINCE
 STAT.                    Baku:  STATE NAME
 CTRY.              Azerbaijan:  COUNTRY NAME
 FLD .                     ACG:  FIELD NAME
 SRVC.     TURAN Drilling & Engineering:  CONTRACTOR
 WELL.                     J27:  WELL NAME
 RIG .             West Chirag:  RIG NAME
 DOE .                     N/A:  DOE NUMBER
 DCON.         Sperry Drilling:  DIRECTNL CONTR
 PDAT.          Mean Sea Level:  PERMANENT DATUM
 WTYP.                Deviated:  WELL TYPE
 MWDS.                    Baku:  MWD SHOP
 JOBN.        AZ-XX-0906571587:  JOB TICKET NUMB
 UNIT.                     N/A:  LOGGING EQUIPMENT ID
 MDS .        Operator Entered:  MAG DATA SOURCE
 CNTY.                        :  COUNTY
 LOC .                        :  LOCATION
 LMF .             Drill Floor:  LOG MEASURED FROM
 TVDS.m                  43.00:  TVDSS CORRECTN
 LATI.deg                40.13:  LATITUDE
 LONG.deg                51.22:  LONGITUDE
 WHNS.m                   7.72:  WELL HEAD N/S
 WHEW.m                 -14.24:  WELL HEAD E/W
 UTMX.m              519005.06:  UTM X
 UTMY.m             4443793.85:  UTM Y
 DFWL.m                   0.00:  DISTANCE FWL
 DFSL.m                   0.00:  DISTANCE FSL
 SDEP.m                 347.00:  START DEPTH
 TDD .m                 581.00:  TOTAL DEPTH (DRILLER)
 VSDR.deg               159.72:  VERT SEC DIRECT
 GVFD.g                   1.00:  GRAVITY FIELD
 MFLD.nT              50318.00:  MAGNETIC FIELD
 MDIP.deg                59.57:  MAGNETIC DIP
 MDEC.deg                 6.44:  MAGNETIC DECL
 GRDC.deg                 0.15:  GRID CORRECTION
 AZTC.deg                 6.29:  AZM TOTAL CORR
 EPD .m                   0.00:  ELEVATION
 EGL .m                   0.00:  GROUND ELEVATION
 WDMS.m                 169.80:  WD ELEV
 APD .m                  43.00:  DEPTH ABOVE PD
 AGAP.m                  43.00:  AIR GAP
 VSEW.m                 -14.24:  VERT SEC E/W
 VSNS.m                   7.72:  VERT SEC N/S
 DEP .m                 342.45:  DEPTH
 EKB .m                   0.00:  KB ELEVATION
 EDF .m                  43.00:  DF ELEVATION
 TDL .m                 237.00:  TOTAL DEPTH (LOGGER)
 VSC .                       0:  VS TO CLOSURE
 MAGU.                 1851428:  MAGUTM CHECKSUM
~Parameter Information Block
#MNEM.UNIT       Value        Description
#---------     -----------    ---------------------------
 AV  .mps                 1.50:  Ann Velocity 
 AVMX.mps                 2.90:  Max Ann Veloc 
 AZIF.deg               115.59:  Azm, Final 
 BHAT.        Rotary Steerable:  BHA Type 
 BROT.°/30m               0.50:  Build Rotating 
 BS  .in                  8.50:  Bit Size 
 BTPL.psig              580.00:  Bit Press Loss 
 CABU.                     Yes:  Customer Abuse 
 COMM.                     lW:  Run Comments 1 
 TCS .hr                 89.79:  Time Ciculation Ended 
 CV  .mps                 3.22:  Crit Velocity 
 CVMX.mps                 4.37:  Max Crit Veloc 
 DD1 .          Rashad Habibov:  Direct Drillr 1 
 DDSV.               Geo-Pilot:  DD Service 
 DEFF.%                  95.00:  % Det Eff 
 DLRX.°/30m               1.94:  Dogleg Rot Max 
 DLSO.°/30m               0.70:  Dogleg Oriented 
 DLSX.°/30m               1.94:  Dogleg Str Max 
 DRET.      04.45.00 25-Dec-20:  Drill End Time 
 DRST.      10.00.00 24-Dec-20:  Drill Start Tim 
 DTIM.hr                 16.64:  Time Drilling 
 EDEP.m                4999.01:  End Depth 
 ENG1.         Elchin Mammadov:  Engineer 1 
 ENG2.          Ruslan Safarov:  Engineer 2 
 ENG3.          Rustam Safarov:  Engineer 3 
 ETIM.      09.00.00 29-Dec-20:  End Time 
 FLOI.gpm               500.00:  Flow In 
 FLON.gpm               400.00:  Flow In Min 
 FLOS.cptm                0.00:  Fluid Loss 
 FLOX.gpm               500.00:  Flow In Max 
 HFLO.                      No:  High Flow 
 HPRE.                      No:  High Pressure 
 HTEM.                      No:  High Temp 
 HYDO.m                   2.00:  Hydro Offset 
 IFIN.deg                66.79:  Inc, Final 
 IMAX.deg                67.66:  Inc Max 
 IMIN.deg                66.39:  Inc Min 
 IMND.m                4949.37:  Inc Min Depth 
 IMXD.m                4778.63:  Inc Max Depth 
 JARR.                     Yes:  Jarring 
 LETM.      04.45.00 25-Dec-20:  Log End Time 
 LOST.hr                     0:  Lost Rig Time 
 LSTM.      10.00.00 24-Dec-20:  Log Start Time 
 MDCL.ppm             39000.00:  Mud Chlorides 
 MDES.     Inversion Oil/Synthetic:  Mud Desc 
 DFD .sg                  1.33:  Mud Density 
 MDMN.sg                  1.33:  Dens Mud Min 
 MDMX.sg                  1.33:  Dens Mud Max 
 MOIL.                      70:  Run Mud Oil % 
 MOWR.                   70:30:  Run Mud OWR 
 MSND.                       0:  Run Mud Sand % 
 MSOL.                    17.4:  Run Mud Solids% 
 DFV .spqt               84.00:  Mud Viscosity 
 MWOD.in                  6.75:  MWD Tool OD 
 MWSI.                     Yes:  Serv Intrp, MWD 
 OTIM.hr                168.14:  Time Operating 
 PCON.           Look Like New:  Pad Condition 
 PMAX.psia            10822.93:  Press Op, Max 
 PV  .cP                 30.00:  Mud PV 
 RUN .                     900:  Run Number 
 ROPA.m/hr               18.00:  ROP Avg 
 ROPN.m/hr               12.00:  ROP Min 
 ROPX.m/hr               25.00:  ROP Max 
 RPMA.rpm               120.00:  RPM Surface Avg 
 RPMN.rpm               100.00:  RPM Surface Min 
 RPMX.rpm               120.00:  RPM Surface Max 
 RRUN.                    0900:  Rig Run Number 
 SAZI.deg               115.08:  Azm, Start 
 SDEP.m                4762.01:  Start Depth 
 SIDD.                      No:  Serv Intrp, DD 
 SINC.deg                66.14:  Inc, Start 
 SPPA.psig             3700.00:  SPP Avg 
 SPPN.psig             3620.00:  SPP Min 
 SPPX.psig             3900.00:  SPP Max 
 STIM.      09.30.00 22-Dec-20:  Start Time 
 SVCS.                 DD, MWD:  Services 
 SVER.                    9.20:  Sperry Version 
 TDAT.m                 237.00:  Tot Depth Attmp 
 TDDF.                      No:  Trip for DD 
 TDLG.m                 237.00:  Tot Depth Loggd 
 TFF .                      No:  Trip for Fail 
 TQAA.f-kp               18.00:  Torque Abs Avg 
 TQAN.f-kp               17.00:  Torque Abs Min 
 TQAX.f-kp               20.00:  Torque Abs Max 
 TRRT.°/30m               0.60:  Turn Rotating 
 MRT .                    HCIM:  Maximum Recorded Temperature 
 TTMX.degC               94.12:  Max Tool Temp 
 VS01.                90627809:  Virtual Str1 SN 
 VS02.                90527813:  Virtual Str2 SN 
 VS03.                90545417:  Virtual Str3 SN 
 VS04.                12460870:  Virtual Str4 SN 
 VS05.                90516706:  Virtual Str5 SN 
 VS06.                90632007:  Virtual Str6 SN 
 WBMN.klb                 0.00:  WOB Min 
 WOBA.klb                14.00:  WOB Avg 
 WOBX.klb                25.00:  WOB Max 
 YP  .lhf2               32.00:  Yield Point 
~Curve Information Block
#MNEM.UNIT                 API CODE     Curve Description
#---------               -----------    ---------------------------
 TIME.HHMMSS            00 000 000 000:  GT Time & Date
 GTDEPTH.m              00 000 000 000:  GT Depth
 GTPQH.psia             00 000 000 000:  GT HR Quartz Pressure
 GTTQ.degC              00 000 000 000:  GT Quartz Temperature
 GTTN.NONE              00 000 000 000:  GT Test Number
 GTET.sec               00 000 000 000:  GT Elapsed Test Time
 GTTVD.m                00 000 000 000:  GT True Vertical Depth
#Other Information
#
#WARRANTY: Halliburton will use its best efforts to furnish customers with 
#accurate information and interpretations that are part of, and incident to, the services 
#provided.  However, Halliburton cannot and does not warrant the accuracy 
#or correctness of such information and interpretations.  Under no circumstances should any 
#such information or interpretation be relied upon as the sole basis for any drilling, 
#completion, production, or financial decision or any procedure involving any risk to the 
#safety of any drilling venture, drilling rig or its crew or any other third party.  The 
#Customer has full responsibility for all drilling, completion and production operation.  
#Halliburton makes no representations or warranties, either expressed or 
#implied, including, but not limited to, the implied warranties of merchantability or fitness 
#for a particular purpose, with respect to the services rendered.  In no event will 
#Halliburton be liable for failure to obtain any particular results or for 
#any damages, including, but not limited to, indirect, special or consequential damages, 
#resulting from the use of any information or interpretation provided by Halliburton.
#
~A           TIME           GTDEPTH  GTPQH  GTTQ  GTTN  GTET   GTTVD  
# ...
   13:38:45.000.25-Dec-2020 4921.01  152.84 66.25 2.00 138.00 2546.48
   13:38:45.200.25-Dec-2020 4921.01  152.92 66.25 2.00 138.20 2546.48
   13:38:45.400.25-Dec-2020 4921.01  153.10 66.25 2.00 138.40 2546.48
   13:38:45.600.25-Dec-2020 4921.01  153.20 66.25 2.00 138.60 2546.48
   13:38:45.800.25-Dec-2020 4921.01  153.32 66.25 2.00 138.80 2546.48
   13:38:46.000.25-Dec-2020 4921.01  153.42 66.25 2.00 139.00 2546.48
   13:38:46.200.25-Dec-2020 4921.01  153.62 66.25 2.00 139.20 2546.48
   13:38:46.400.25-Dec-2020 4921.01  153.73 66.25 2.00 139.40 2546.48
   13:38:46.600.25-Dec-2020 4921.01  153.84 66.25 2.00 139.60 2546.48
   13:38:46.800.25-Dec-2020 4921.01  154.15 66.25 2.00 139.80 2546.48
   13:38:47.000.25-Dec-2020 4921.01  154.33 66.25 2.00 140.00 2546.48
   13:38:47.200.25-Dec-2020 4921.01  154.33 66.25 2.00 140.20 2546.48
   13:38:47.400.25-Dec-2020 4921.01  154.53 66.25 2.00 140.40 2546.48
   13:38:47.600.25-Dec-2020 4921.01  154.63 66.25 2.00 140.60 2546.48
   13:38:47.800.25-Dec-2020 4921.01  154.81 66.25 2.00 140.80 2546.48
   13:38:48.000.25-Dec-2020 4921.01  154.93 66.25 2.00 141.00 2546.48
   13:38:48.200.25-Dec-2020 4921.01  154.93 66.25 2.00 141.20 2546.48
   13:38:48.400.25-Dec-2020 4921.01  159.49 66.25 2.00 141.40 2546.48
   13:38:48.600.25-Dec-2020 4921.01  165.55 66.25 2.00 141.60 2546.48
   13:38:48.800.25-Dec-2020 4921.01  165.60 66.25 2.00 141.80 2546.48
   13:38:49.000.25-Dec-2020 4921.01  165.70 66.25 2.00 142.00 2546.48
   13:38:49.200.25-Dec-2020 4921.01  165.83 66.25 2.00 142.20 2546.48
   13:38:49.400.25-Dec-2020 4921.01  165.97 66.25 2.00 142.40 2546.48
   13:38:49.600.25-Dec-2020 4921.01  166.11 66.25 2.00 142.60 2546.48
   13:38:49.800.25-Dec-2020 4921.01  166.48 66.25 2.00 142.80 2546.48
   13:38:50.000.25-Dec-2020 4921.01  166.64 66.25 2.00 143.00 2546.48
   13:38:50.200.25-Dec-2020 4921.01  166.87 66.25 2.00 143.20 2546.48
   13:38:50.400.25-Dec-2020 4921.01  166.99 66.25 2.00 143.40 2546.48
   13:38:50.600.25-Dec-2020 4921.01  167.14 66.25 2.00 143.60 2546.48
   13:38:50.800.25-Dec-2020 4921.01  167.26 66.25 2.00 143.80 2546.48
   13:38:51.000.25-Dec-2020 4921.01  167.38 66.25 2.00 144.00 2546.48
   13:38:51.200.25-Dec-2020 4921.01  167.38 66.25 2.00 144.20 2546.48
   13:38:51.400.25-Dec-2020 4921.01  167.60 66.25 2.00 144.40 2546.48
   13:38:51.600.25-Dec-2020 4921.01  167.72 66.25 2.00 144.60 2546.48
   13:38:51.800.25-Dec-2020 4921.01  167.85 66.25 2.00 144.80 2546.48
   13:38:52.000.25-Dec-2020 4921.01  167.99 66.25 2.00 145.00 2546.48
   13:38:52.200.25-Dec-2020 4921.01  167.99 66.25 2.00 145.20 2546.48
   13:38:52.400.25-Dec-2020 4921.01  168.20 66.25 2.00 145.40 2546.48
   13:38:52.600.25-Dec-2020 4921.01  168.45 66.25 2.00 145.60 2546.48
   13:38:52.800.25-Dec-2020 4921.01  168.54 66.25 2.00 145.80 2546.48
   13:38:53.000.25-Dec-2020 4921.01  168.68 66.25 2.00 146.00 2546.48
   13:38:53.200.25-Dec-2020 4921.01  168.81 66.26 2.00 146.20 2546.48
   13:38:53.400.25-Dec-2020 4921.01  168.96 66.26 2.00 146.40 2546.48
   13:38:53.600.25-Dec-2020 4921.01  169.14 66.25 2.00 146.60 2546.48
   13:38:53.800.25-Dec-2020 4921.01  169.27 66.26 2.00 146.80 2546.48
   13:38:54.000.25-Dec-2020 4921.01  169.35 66.26 2.00 147.00 2546.48
   13:38:54.200.25-Dec-2020 4921.01  169.58 66.26 2.00 147.20 2546.48
   13:38:54.400.25-Dec-2020 4921.01  169.69 66.26 2.00 147.40 2546.48
   13:38:54.600.25-Dec-2020 4921.01  169.82 66.26 2.00 147.60 2546.48
   13:38:54.800.25-Dec-2020 4921.01  169.96 66.26 2.00 147.80 2546.48
   13:38:55.000.25-Dec-2020 4921.01  170.14 66.26 2.00 148.00 2546.48
   13:38:55.200.25-Dec-2020 4921.01  170.14 66.26 2.00 148.20 2546.48
   13:38:55.400.25-Dec-2020 4921.01  170.39 66.26 2.00 148.40 2546.48
   13:38:55.600.25-Dec-2020 4921.01  170.54 66.26 2.00 148.60 2546.48
   13:38:55.800.25-Dec-2020 4921.01  170.67 66.26 2.00 148.80 2546.48
   13:38:56.000.25-Dec-2020 4921.01  170.80 66.26 2.00 149.00 2546.48
   13:38:56.200.25-Dec-2020 4921.01  170.80 66.26 2.00 149.20 2546.48
   13:38:56.400.25-Dec-2020 4921.01  171.07 66.26 2.00 149.40 2546.48
   13:38:56.600.25-Dec-2020 4921.01  171.20 66.26 2.00 149.60 2546.48
   13:38:56.800.25-Dec-2020 4921.01  171.33 66.26 2.00 149.80 2546.48
   13:38:57.000.25-Dec-2020 4921.01  171.47 66.26 2.00 150.00 2546.48
   13:38:57.200.25-Dec-2020 4921.01  171.61 66.26 2.00 150.20 2546.48
   13:38:57.400.25-Dec-2020 4921.01  171.82 66.26 2.00 150.40 2546.48
   13:38:57.600.25-Dec-2020 4921.01  171.95 66.26 2.00 150.60 2546.48
   13:38:57.800.25-Dec-2020 4921.01  172.09 66.26 2.00 150.80 2546.48
   13:38:58.000.25-Dec-2020 4921.01  172.24 66.26 2.00 151.00 2546.48
   13:38:58.200.25-Dec-2020 4921.01  172.39 66.26 2.00 151.20 2546.48
   13:38:58.400.25-Dec-2020 4921.01  172.53 66.26 2.00 151.40 2546.48
   13:38:58.600.25-Dec-2020 4921.01  172.68 66.26 2.00 151.60 2546.48
   13:38:58.800.25-Dec-2020 4921.01  172.82 66.26 2.00 151.80 2546.48
   13:38:59.000.25-Dec-2020 4921.01  172.96 66.26 2.00 152.00 2546.48
   13:38:59.200.25-Dec-2020 4921.01  172.96 66.26 2.00 152.20 2546.48
   13:38:59.400.25-Dec-2020 4921.01  173.24 66.26 2.00 152.40 2546.48
   13:38:59.600.25-Dec-2020 4921.01  173.39 66.26 2.00 152.60 2546.48
   13:38:59.800.25-Dec-2020 4921.01  173.62 66.26 2.00 152.80 2546.48
   13:39:00.000.25-Dec-2020 4921.01  173.73 66.26 2.00 153.00 2546.48
   13:39:00.200.25-Dec-2020 4921.01  173.73 66.26 2.00 153.20 2546.48
   13:39:00.400.25-Dec-2020 4921.01  174.03 66.26 2.00 153.40 2546.48
   13:39:00.600.25-Dec-2020 4921.01  174.17 66.26 2.00 153.60 2546.48
   13:39:00.800.25-Dec-2020 4921.01  174.40 66.26 2.00 153.80 2546.48
   13:39:01.000.25-Dec-2020 4921.01  174.52 66.26 2.00 154.00 2546.48
   13:39:01.200.25-Dec-2020 4921.01  174.64 66.26 2.00 154.20 2546.48
   13:39:01.400.25-Dec-2020 4921.01  174.92 66.26 2.00 154.40 2546.48
   13:39:01.600.25-Dec-2020 4921.01  175.03 66.26 2.00 154.60 2546.48
   13:39:01.800.25-Dec-2020 4921.01  175.17 66.26 2.00 154.80 2546.48
   13:39:02.000.25-Dec-2020 4921.01  175.32 66.26 2.00 155.00 2546.48
   13:39:02.200.25-Dec-2020 4921.01  175.32 66.26 2.00 155.20 2546.48
   13:39:02.400.25-Dec-2020 4921.01  173.15 66.26 2.00 155.40 2546.48
   13:39:02.600.25-Dec-2020 4921.01  175.84 66.26 2.00 155.60 2546.48
   13:39:02.800.25-Dec-2020 4921.01  175.99 66.26 2.00 155.80 2546.48
   13:39:03.000.25-Dec-2020 4921.01  176.15 66.26 2.00 156.00 2546.48
   13:39:03.200.25-Dec-2020 4921.01  176.15 66.26 2.00 156.20 2546.48
   13:39:03.400.25-Dec-2020 4921.01  176.44 66.26 2.00 156.40 2546.48
   13:39:03.600.25-Dec-2020 4921.01  176.59 66.26 2.00 156.60 2546.48
   13:39:03.800.25-Dec-2020 4921.01  176.74 66.26 2.00 156.80 2546.48
   13:39:04.000.25-Dec-2020 4921.01  176.88 66.26 2.00 157.00 2546.48
   13:39:04.200.25-Dec-2020 4921.01  176.88 66.26 2.00 157.20 2546.48
   13:39:04.400.25-Dec-2020 4921.01  177.18 66.26 2.00 157.40 2546.48
   13:39:04.600.25-Dec-2020 4921.01  177.29 66.26 2.00 157.60 2546.48
   13:39:04.800.25-Dec-2020 4921.01  177.54 66.26 2.00 157.80 2546.48
   13:39:05.000.25-Dec-2020 4921.01  177.67 66.26 2.00 158.00 2546.48
   13:39:05.200.25-Dec-2020 4921.01  177.82 66.26 2.00 158.20 2546.48
   13:39:05.400.25-Dec-2020 4921.01  177.96 66.26 2.00 158.40 2546.48
   13:39:05.600.25-Dec-2020 4921.01  178.12 66.26 2.00 158.60 2546.48
   13:39:05.800.25-Dec-2020 4921.01  178.26 66.26 2.00 158.80 2546.48
   13:39:06.000.25-Dec-2020 4921.01  178.42 66.26 2.00 159.00 2546.48
   13:39:06.200.25-Dec-2020 4921.01  178.58 66.26 2.00 159.20 2546.48
   13:39:06.400.25-Dec-2020 4921.01  178.72 66.26 2.00 159.40 2546.48
   13:39:06.600.25-Dec-2020 4921.01  178.87 66.26 2.00 159.60 2546.48
   13:39:06.800.25-Dec-2020 4921.01  179.01 66.26 2.00 159.80 2546.48
   13:39:07.000.25-Dec-2020 4921.01  179.15 66.26 2.00 160.00 2546.48
   13:39:07.200.25-Dec-2020 4921.01  179.15 66.26 2.00 160.20 2546.48
   13:39:07.400.25-Dec-2020 4921.01  179.51 66.26 2.00 160.40 2546.48
   13:39:07.600.25-Dec-2020 4921.01  179.68 66.26 2.00 160.60 2546.48
   13:39:07.800.25-Dec-2020 4921.01  179.81 66.26 2.00 160.80 2546.48
