~Version Information
 VERS.                  2.0:   CWLS log ASCII Standard -VERSION 2.0
 WRAP.                   NO:   One line per depth step
~Well Information Block
#MNEM.UNIT     VALUE/NAME     DESCRIPTION
#---------     -----------    ---------------------------
 STRT.S             19:12:01 25-Dec-20: START TIME 19:12:01 25-Dec-20
 STOP.S             19:20:19 25-Dec-20: STOP TIME  19:20:19 25-Dec-20
 STEP.S                   0.00: STEP TIME
 NULL.                 -999.25: NULL VALUE
 DFWT.                        :  DIST FWL TEXT
 DFST.                        :  DIST FSL TEXT
 DMF .             Drill Floor:  DRILL MEAS FROM
 STIM.      04.54.24 22-Sep-20:  START TIME
 DATE.      04.54.24 21-Nov-20:  END TIME
 SPUD.               21-Nov-20:  SPUD DATE
 NREF.                    Grid:  NORTH REFERENCE
 HPTY.       Minimum Curvature:  HOLE POS TYPE
 DMOD.             Drill Model:  DRILL MOD DESC
 SVYD.                  Survey:  SURVEY DESC
 ILTD.               Lithology:  INTERP LTH DESC
 FTOP.          Formation Tops:  FORM TOPS DESC
 SON .        AZ-XX-0906571587:  JOB NUMBER
 COMP.     BP Exploration (Caspian Sea) Ltd:  COMPANY
 UWI .                     N/A:  UNIQUE WELL IDENTIFIER
 API .                     N/A:  API NUMBER
 BASE.              Azerbaijan:  LOGGING EQUIPMENT BASE LOCATION
 REGN.                   EESSA:  REGION
 PROV.                    Baku:  PROVINCE
 STAT.                    Baku:  STATE NAME
 CTRY.              Azerbaijan:  COUNTRY NAME
 FLD .                     ACG:  FIELD NAME
 SRVC.     TURAN Drilling & Engineering:  CONTRACTOR
 WELL.                     J27:  WELL NAME
 RIG .             West Chirag:  RIG NAME
 DOE .                     N/A:  DOE NUMBER
 DCON.         Sperry Drilling:  DIRECTNL CONTR
 PDAT.          Mean Sea Level:  PERMANENT DATUM
 WTYP.                Deviated:  WELL TYPE
 MWDS.                    Baku:  MWD SHOP
 JOBN.        AZ-XX-0906571587:  JOB TICKET NUMB
 UNIT.                     N/A:  LOGGING EQUIPMENT ID
 MDS .        Operator Entered:  MAG DATA SOURCE
 CNTY.                        :  COUNTY
 LOC .                        :  LOCATION
 LMF .             Drill Floor:  LOG MEASURED FROM
 TVDS.m                  43.00:  TVDSS CORRECTN
 LATI.deg                40.13:  LATITUDE
 LONG.deg                51.22:  LONGITUDE
 WHNS.m                   7.72:  WELL HEAD N/S
 WHEW.m                 -14.24:  WELL HEAD E/W
 UTMX.m              519005.06:  UTM X
 UTMY.m             4443793.85:  UTM Y
 DFWL.m                   0.00:  DISTANCE FWL
 DFSL.m                   0.00:  DISTANCE FSL
 SDEP.m                 347.00:  START DEPTH
 TDD .m                 581.00:  TOTAL DEPTH (DRILLER)
 VSDR.deg               159.72:  VERT SEC DIRECT
 GVFD.g                   1.00:  GRAVITY FIELD
 MFLD.nT              50318.00:  MAGNETIC FIELD
 MDIP.deg                59.57:  MAGNETIC DIP
 MDEC.deg                 6.44:  MAGNETIC DECL
 GRDC.deg                 0.15:  GRID CORRECTION
 AZTC.deg                 6.29:  AZM TOTAL CORR
 EPD .m                   0.00:  ELEVATION
 EGL .m                   0.00:  GROUND ELEVATION
 WDMS.m                 169.80:  WD ELEV
 APD .m                  43.00:  DEPTH ABOVE PD
 AGAP.m                  43.00:  AIR GAP
 VSEW.m                 -14.24:  VERT SEC E/W
 VSNS.m                   7.72:  VERT SEC N/S
 DEP .m                 342.45:  DEPTH
 EKB .m                   0.00:  KB ELEVATION
 EDF .m                  43.00:  DF ELEVATION
 TDL .m                 237.00:  TOTAL DEPTH (LOGGER)
 VSC .                       0:  VS TO CLOSURE
 MAGU.                 1851428:  MAGUTM CHECKSUM
~Parameter Information Block
#MNEM.UNIT       Value        Description
#---------     -----------    ---------------------------
 AV  .mps                 1.50:  Ann Velocity 
 AVMX.mps                 2.90:  Max Ann Veloc 
 AZIF.deg               115.59:  Azm, Final 
 BHAT.        Rotary Steerable:  BHA Type 
 BROT.°/30m               0.50:  Build Rotating 
 BS  .in                  8.50:  Bit Size 
 BTPL.psig              580.00:  Bit Press Loss 
 CABU.                     Yes:  Customer Abuse 
 COMM.                     Ìt:  Run Comments 1 
 TCS .hr                 89.79:  Time Ciculation Ended 
 CV  .mps                 3.22:  Crit Velocity 
 CVMX.mps                 4.37:  Max Crit Veloc 
 DD1 .          Rashad Habibov:  Direct Drillr 1 
 DDSV.               Geo-Pilot:  DD Service 
 DEFF.%                  95.00:  % Det Eff 
 DLRX.°/30m               1.94:  Dogleg Rot Max 
 DLSO.°/30m               0.70:  Dogleg Oriented 
 DLSX.°/30m               1.94:  Dogleg Str Max 
 DRET.      04.45.00 25-Dec-20:  Drill End Time 
 DRST.      10.00.00 24-Dec-20:  Drill Start Tim 
 DTIM.hr                 16.64:  Time Drilling 
 EDEP.m                4999.01:  End Depth 
 ENG1.         Elchin Mammadov:  Engineer 1 
 ENG2.          Ruslan Safarov:  Engineer 2 
 ENG3.          Rustam Safarov:  Engineer 3 
 ETIM.      09.00.00 29-Dec-20:  End Time 
 FLOI.gpm               500.00:  Flow In 
 FLON.gpm               400.00:  Flow In Min 
 FLOS.cptm                0.00:  Fluid Loss 
 FLOX.gpm               500.00:  Flow In Max 
 HFLO.                      No:  High Flow 
 HPRE.                      No:  High Pressure 
 HTEM.                      No:  High Temp 
 HYDO.m                   2.00:  Hydro Offset 
 IFIN.deg                66.79:  Inc, Final 
 IMAX.deg                67.66:  Inc Max 
 IMIN.deg                66.39:  Inc Min 
 IMND.m                4949.37:  Inc Min Depth 
 IMXD.m                4778.63:  Inc Max Depth 
 JARR.                     Yes:  Jarring 
 LETM.      04.45.00 25-Dec-20:  Log End Time 
 LOST.hr                     0:  Lost Rig Time 
 LSTM.      10.00.00 24-Dec-20:  Log Start Time 
 MDCL.ppm             39000.00:  Mud Chlorides 
 MDES.     Inversion Oil/Synthetic:  Mud Desc 
 DFD .sg                  1.33:  Mud Density 
 MDMN.sg                  1.33:  Dens Mud Min 
 MDMX.sg                  1.33:  Dens Mud Max 
 MOIL.                      70:  Run Mud Oil % 
 MOWR.                   70:30:  Run Mud OWR 
 MSND.                       0:  Run Mud Sand % 
 MSOL.                    17.4:  Run Mud Solids% 
 DFV .spqt               84.00:  Mud Viscosity 
 MWOD.in                  6.75:  MWD Tool OD 
 MWSI.                     Yes:  Serv Intrp, MWD 
 OTIM.hr                168.14:  Time Operating 
 PCON.           Look Like New:  Pad Condition 
 PMAX.psia            10822.93:  Press Op, Max 
 PV  .cP                 30.00:  Mud PV 
 RUN .                     900:  Run Number 
 ROPA.m/hr               18.00:  ROP Avg 
 ROPN.m/hr               12.00:  ROP Min 
 ROPX.m/hr               25.00:  ROP Max 
 RPMA.rpm               120.00:  RPM Surface Avg 
 RPMN.rpm               100.00:  RPM Surface Min 
 RPMX.rpm               120.00:  RPM Surface Max 
 RRUN.                    0900:  Rig Run Number 
 SAZI.deg               115.08:  Azm, Start 
 SDEP.m                4762.01:  Start Depth 
 SIDD.                      No:  Serv Intrp, DD 
 SINC.deg                66.14:  Inc, Start 
 SPPA.psig             3700.00:  SPP Avg 
 SPPN.psig             3620.00:  SPP Min 
 SPPX.psig             3900.00:  SPP Max 
 STIM.      09.30.00 22-Dec-20:  Start Time 
 SVCS.                 DD, MWD:  Services 
 SVER.                    9.20:  Sperry Version 
 TDAT.m                 237.00:  Tot Depth Attmp 
 TDDF.                      No:  Trip for DD 
 TDLG.m                 237.00:  Tot Depth Loggd 
 TFF .                      No:  Trip for Fail 
 TQAA.f-kp               18.00:  Torque Abs Avg 
 TQAN.f-kp               17.00:  Torque Abs Min 
 TQAX.f-kp               20.00:  Torque Abs Max 
 TRRT.°/30m               0.60:  Turn Rotating 
 MRT .                    HCIM:  Maximum Recorded Temperature 
 TTMX.degC               94.12:  Max Tool Temp 
 VS01.                90627809:  Virtual Str1 SN 
 VS02.                90527813:  Virtual Str2 SN 
 VS03.                90545417:  Virtual Str3 SN 
 VS04.                12460870:  Virtual Str4 SN 
 VS05.                90516706:  Virtual Str5 SN 
 VS06.                90632007:  Virtual Str6 SN 
 WBMN.klb                 0.00:  WOB Min 
 WOBA.klb                14.00:  WOB Avg 
 WOBX.klb                25.00:  WOB Max 
 YP  .lhf2               32.00:  Yield Point 
~Curve Information Block
#MNEM.UNIT                 API CODE     Curve Description
#---------               -----------    ---------------------------
 TIME.HHMMSS            00 000 000 000:  GT Time & Date
 GTDEPTH.m              00 000 000 000:  GT Depth
 GTPQH.psia             00 000 000 000:  GT HR Quartz Pressure
 GTTQ.degC              00 000 000 000:  GT Quartz Temperature
 GTTN.NONE              00 000 000 000:  GT Test Number
 GTET.sec               00 000 000 000:  GT Elapsed Test Time
 GTTVD.m                00 000 000 000:  GT True Vertical Depth
#Other Information
#
#WARRANTY: Halliburton will use its best efforts to furnish customers with 
#accurate information and interpretations that are part of, and incident to, the services 
#provided.  However, Halliburton cannot and does not warrant the accuracy 
#or correctness of such information and interpretations.  Under no circumstances should any 
#such information or interpretation be relied upon as the sole basis for any drilling, 
#completion, production, or financial decision or any procedure involving any risk to the 
#safety of any drilling venture, drilling rig or its crew or any other third party.  The 
#Customer has full responsibility for all drilling, completion and production operation.  
#Halliburton makes no representations or warranties, either expressed or 
#implied, including, but not limited to, the implied warranties of merchantability or fitness 
#for a particular purpose, with respect to the services rendered.  In no event will 
#Halliburton be liable for failure to obtain any particular results or for 
#any damages, including, but not limited to, indirect, special or consequential damages, 
#resulting from the use of any information or interpretation provided by Halliburton.
#
~A           TIME           GTDEPTH  GTPQH  GTTQ  GTTN  GTET   GTTVD  
# ...
   19:14:42.248.25-Dec-2020 4808.01 2305.56 63.87 7.00 161.13 2502.07
   19:14:42.448.25-Dec-2020 4808.01 2305.56 63.87 7.00 161.33 2502.07
   19:14:42.648.25-Dec-2020 4808.01 2305.48 63.87 7.00 161.53 2502.07
   19:14:42.849.25-Dec-2020 4808.01 2305.56 63.87 7.00 161.73 2502.07
   19:14:43.049.25-Dec-2020 4808.01 2305.52 63.87 7.00 161.93 2502.07
   19:14:43.249.25-Dec-2020 4808.01 2305.51 63.87 7.00 162.13 2502.07
   19:14:43.449.25-Dec-2020 4808.01 2305.51 63.87 7.00 162.33 2502.07
   19:14:43.649.25-Dec-2020 4808.01 2305.49 63.87 7.00 162.53 2502.07
   19:14:43.849.25-Dec-2020 4808.01 2305.71 63.87 7.00 162.73 2502.07
   19:14:44.049.25-Dec-2020 4808.01 2305.39 63.87 7.00 162.93 2502.07
   19:14:44.250.25-Dec-2020 4808.01 2305.49 63.87 7.00 163.13 2502.07
   19:14:44.450.25-Dec-2020 4808.01 2305.49 63.87 7.00 163.33 2502.07
   19:14:44.650.25-Dec-2020 4808.01 2305.51 63.87 7.00 163.53 2502.07
   19:14:44.850.25-Dec-2020 4808.01 2305.55 63.87 7.00 163.73 2502.07
   19:14:45.050.25-Dec-2020 4808.01 2305.49 63.87 7.00 163.93 2502.07
   19:14:45.250.25-Dec-2020 4808.01 2305.50 63.87 7.00 164.13 2502.07
   19:14:45.451.25-Dec-2020 4808.01 2305.50 63.87 7.00 164.33 2502.07
   19:14:45.651.25-Dec-2020 4808.01 2305.50 63.87 7.00 164.53 2502.07
   19:14:45.851.25-Dec-2020 4808.01 2304.78 63.87 7.00 164.73 2502.07
   19:14:46.051.25-Dec-2020 4808.01 2305.89 63.87 7.00 164.93 2502.07
   19:14:46.251.25-Dec-2020 4808.01 2305.31 63.87 7.00 165.13 2502.07
   19:14:46.451.25-Dec-2020 4808.01 2305.31 63.87 7.00 165.33 2502.07
   19:14:46.652.25-Dec-2020 4808.01 2305.50 63.87 7.00 165.53 2502.07
   19:14:46.852.25-Dec-2020 4808.01 2305.08 63.87 7.00 165.73 2502.07
   19:14:47.052.25-Dec-2020 4808.01 2305.55 63.87 7.00 165.93 2502.07
   19:14:47.252.25-Dec-2020 4808.01 2305.50 63.87 7.00 166.13 2502.07
   19:14:47.452.25-Dec-2020 4808.01 2305.50 63.87 7.00 166.33 2502.07
   19:14:47.652.25-Dec-2020 4808.01 2306.09 63.87 7.00 166.53 2502.07
   19:14:47.852.25-Dec-2020 4808.01 2305.43 63.87 7.00 166.73 2502.07
   19:14:48.053.25-Dec-2020 4808.01 2305.47 63.87 7.00 166.93 2502.07
   19:14:48.253.25-Dec-2020 4808.01 2305.50 63.87 7.00 167.13 2502.07
   19:14:48.453.25-Dec-2020 4808.01 2305.50 63.87 7.00 167.33 2502.07
   19:14:48.653.25-Dec-2020 4808.01 2305.47 63.87 7.00 167.53 2502.07
   19:14:48.853.25-Dec-2020 4808.01 2305.54 63.87 7.00 167.73 2502.07
   19:14:49.053.25-Dec-2020 4808.01 2305.54 63.87 7.00 167.93 2502.07
   19:14:49.254.25-Dec-2020 4808.01 2305.49 63.87 7.00 168.13 2502.07
   19:14:49.454.25-Dec-2020 4808.01 2305.49 63.87 7.00 168.33 2502.07
   19:14:49.654.25-Dec-2020 4808.01 2305.51 63.87 7.00 168.53 2502.07
   19:14:49.854.25-Dec-2020 4808.01 2305.54 63.87 7.00 168.73 2502.07
   19:14:50.054.25-Dec-2020 4808.01 2304.71 63.87 7.00 168.93 2502.07
   19:14:50.254.25-Dec-2020 4808.01 2305.62 63.87 7.00 169.13 2502.07
   19:14:50.455.25-Dec-2020 4808.01 2305.62 63.87 7.00 169.33 2502.07
   19:14:50.655.25-Dec-2020 4808.01 2305.41 63.87 7.00 169.53 2502.07
   19:14:50.855.25-Dec-2020 4808.01 2305.47 63.87 7.00 169.73 2502.07
   19:14:51.055.25-Dec-2020 4808.01 2305.45 63.87 7.00 169.93 2502.07
   19:14:51.255.25-Dec-2020 4808.01 2305.50 63.87 7.00 170.13 2502.07
   19:14:51.455.25-Dec-2020 4808.01 2305.50 63.87 7.00 170.33 2502.07
   19:14:51.655.25-Dec-2020 4808.01 2305.47 63.87 7.00 170.53 2502.07
   19:14:51.856.25-Dec-2020 4808.01 2305.49 63.87 7.00 170.73 2502.07
   19:14:52.056.25-Dec-2020 4808.01 2305.51 63.87 7.00 170.93 2502.07
   19:14:52.256.25-Dec-2020 4808.01 2305.49 63.87 7.00 171.14 2502.07
   19:14:52.456.25-Dec-2020 4808.01 2305.49 63.87 7.00 171.34 2502.07
   19:14:52.656.25-Dec-2020 4808.01 2306.15 63.87 7.00 171.54 2502.07
   19:14:52.856.25-Dec-2020 4808.01 2305.36 63.87 7.00 171.74 2502.07
   19:14:53.057.25-Dec-2020 4808.01 2304.64 63.87 7.00 171.94 2502.07
   19:14:53.257.25-Dec-2020 4808.01 2305.61 63.87 7.00 172.14 2502.07
   19:14:53.457.25-Dec-2020 4808.01 2305.61 63.87 7.00 172.34 2502.07
   19:14:53.657.25-Dec-2020 4808.01 2304.76 63.87 7.00 172.54 2502.07
   19:14:53.857.25-Dec-2020 4808.01 2305.56 63.87 7.00 172.74 2502.07
   19:14:54.057.25-Dec-2020 4808.01 2305.03 63.87 7.00 172.94 2502.07
   19:14:54.258.25-Dec-2020 4808.01 2305.45 63.87 7.00 173.14 2502.07
   19:14:54.458.25-Dec-2020 4808.01 2305.45 63.87 7.00 173.34 2502.07
   19:14:54.658.25-Dec-2020 4808.01 2305.50 63.87 7.00 173.54 2502.07
   19:14:54.858.25-Dec-2020 4808.01 2305.39 63.87 7.00 173.74 2502.07
   19:14:55.058.25-Dec-2020 4808.01 2305.51 63.87 7.00 173.94 2502.07
   19:14:55.258.25-Dec-2020 4808.01 2305.47 63.87 7.00 174.14 2502.07
   19:14:55.459.25-Dec-2020 4808.01 2305.47 63.87 7.00 174.34 2502.07
   19:14:55.659.25-Dec-2020 4808.01 2305.49 63.87 7.00 174.54 2502.07
   19:14:55.859.25-Dec-2020 4808.01 2305.47 63.87 7.00 174.74 2502.07
   19:14:56.059.25-Dec-2020 4808.01 2305.48 63.87 7.00 174.94 2502.07
   19:14:56.259.25-Dec-2020 4808.01 2305.50 63.87 7.00 175.14 2502.07
   19:14:56.459.25-Dec-2020 4808.01 2305.50 63.87 7.00 175.34 2502.07
   19:14:56.659.25-Dec-2020 4808.01 2304.64 63.87 7.00 175.54 2502.07
   19:14:56.860.25-Dec-2020 4808.01 2305.84 63.87 7.00 175.74 2502.07
   19:14:57.060.25-Dec-2020 4808.01 2305.32 63.87 7.00 175.94 2502.07
   19:14:57.260.25-Dec-2020 4808.01 2305.44 63.87 7.00 176.14 2502.07
   19:14:57.460.25-Dec-2020 4808.01 2305.44 63.87 7.00 176.34 2502.07
   19:14:57.660.25-Dec-2020 4808.01 2305.42 63.87 7.00 176.54 2502.07
   19:14:57.860.25-Dec-2020 4808.01 2305.48 63.87 7.00 176.74 2502.07
   19:14:58.061.25-Dec-2020 4808.01 2305.49 63.87 7.00 176.94 2502.07
   19:14:58.261.25-Dec-2020 4808.01 2305.45 63.87 7.00 177.14 2502.07
   19:14:58.461.25-Dec-2020 4808.01 2305.45 63.87 7.00 177.34 2502.07
   19:14:58.661.25-Dec-2020 4808.01 2305.49 63.87 7.00 177.54 2502.07
   19:14:58.861.25-Dec-2020 4808.01 2305.37 63.87 7.00 177.74 2502.07
   19:14:59.061.25-Dec-2020 4808.01 2217.38 63.87 7.00 177.94 2502.07
   19:14:59.262.25-Dec-2020 4808.01 1991.78 63.87 7.00 178.14 2502.07
   19:14:59.462.25-Dec-2020 4808.01 1991.78 63.87 7.00 178.34 2502.07
   19:14:59.662.25-Dec-2020 4808.01 1669.17 63.87 7.00 178.54 2502.07
   19:14:59.862.25-Dec-2020 4808.01 1601.08 63.87 7.00 178.74 2502.07
   19:15:00.062.25-Dec-2020 4808.01 1558.83 63.87 7.00 178.94 2502.07
   19:15:00.262.25-Dec-2020 4808.01 1558.67 63.87 7.00 179.14 2502.07
   19:15:00.462.25-Dec-2020 4808.01 1558.67 63.87 7.00 179.34 2502.07
   19:15:00.663.25-Dec-2020 4808.01 1511.19 63.87 7.00 179.54 2502.07
   19:15:00.863.25-Dec-2020 4808.01 1459.25 63.87 7.00 179.74 2502.07
   19:15:01.063.25-Dec-2020 4808.01 1381.03 63.87 7.00 179.94 2502.07
   19:15:01.263.25-Dec-2020 4808.01 1296.74 63.87 7.00 180.14 2502.07
   19:15:01.463.25-Dec-2020 4808.01 1296.74 63.87 7.00 180.34 2502.07
   19:15:01.663.25-Dec-2020 4808.01 1164.33 63.87 7.00 180.54 2502.07
   19:15:01.864.25-Dec-2020 4808.01 1102.79 63.86 7.00 180.74 2502.07
   19:15:02.064.25-Dec-2020 4808.01 1013.35 63.86 7.00 180.94 2502.07
   19:15:02.264.25-Dec-2020 4808.01  928.74 63.86 7.00 181.14 2502.07
   19:15:02.464.25-Dec-2020 4808.01  928.74 63.86 7.00 181.34 2502.07
   19:15:02.664.25-Dec-2020 4808.01  782.55 63.86 7.00 181.54 2502.07
   19:15:02.864.25-Dec-2020 4808.01  726.43 63.86 7.00 181.74 2502.07
   19:15:03.065.25-Dec-2020 4808.01  688.62 63.86 7.00 181.94 2502.07
   19:15:03.265.25-Dec-2020 4808.01  646.84 63.86 7.00 182.14 2502.07
   19:15:03.465.25-Dec-2020 4808.01  646.84 63.86 7.00 182.34 2502.07
   19:15:03.665.25-Dec-2020 4808.01  563.11 63.86 7.00 182.54 2502.07
   19:15:03.865.25-Dec-2020 4808.01  521.65 63.86 7.00 182.74 2502.07
   19:15:04.065.25-Dec-2020 4808.01  464.15 63.86 7.00 182.94 2502.07
   19:15:04.265.25-Dec-2020 4808.01  404.66 63.86 7.00 183.14 2502.07
   19:15:04.466.25-Dec-2020 4808.01  404.66 63.86 7.00 183.34 2502.07
   19:15:04.666.25-Dec-2020 4808.01  307.46 63.85 7.00 183.54 2502.07
   19:15:04.866.25-Dec-2020 4808.01  274.20 63.85 7.00 183.75 2502.07
   19:15:05.066.25-Dec-2020 4808.01  239.84 63.85 7.00 183.95 2502.07
