~Version Information
 VERS.                  2.0:   CWLS log ASCII Standard -VERSION 2.0
 WRAP.                   NO:   One line per depth step
~Well Information Block
#MNEM.UNIT     VALUE/NAME     DESCRIPTION
#---------     -----------    ---------------------------
 STRT.S             13:59:04 25-Dec-20: START TIME 13:59:04 25-Dec-20
 STOP.S             14:07:22 25-Dec-20: STOP TIME  14:07:22 25-Dec-20
 STEP.S                   0.00: STEP TIME
 NULL.                 -999.25: NULL VALUE
 DFWT.                        :  DIST FWL TEXT
 DFST.                        :  DIST FSL TEXT
 DMF .             Drill Floor:  DRILL MEAS FROM
 STIM.      04.54.24 22-Sep-20:  START TIME
 DATE.      04.54.24 21-Nov-20:  END TIME
 SPUD.               21-Nov-20:  SPUD DATE
 NREF.                    Grid:  NORTH REFERENCE
 HPTY.       Minimum Curvature:  HOLE POS TYPE
 DMOD.             Drill Model:  DRILL MOD DESC
 SVYD.                  Survey:  SURVEY DESC
 ILTD.               Lithology:  INTERP LTH DESC
 FTOP.          Formation Tops:  FORM TOPS DESC
 SON .        AZ-XX-0906571587:  JOB NUMBER
 COMP.     BP Exploration (Caspian Sea) Ltd:  COMPANY
 UWI .                     N/A:  UNIQUE WELL IDENTIFIER
 API .                     N/A:  API NUMBER
 BASE.              Azerbaijan:  LOGGING EQUIPMENT BASE LOCATION
 REGN.                   EESSA:  REGION
 PROV.                    Baku:  PROVINCE
 STAT.                    Baku:  STATE NAME
 CTRY.              Azerbaijan:  COUNTRY NAME
 FLD .                     ACG:  FIELD NAME
 SRVC.     TURAN Drilling & Engineering:  CONTRACTOR
 WELL.                     J27:  WELL NAME
 RIG .             West Chirag:  RIG NAME
 DOE .                     N/A:  DOE NUMBER
 DCON.         Sperry Drilling:  DIRECTNL CONTR
 PDAT.          Mean Sea Level:  PERMANENT DATUM
 WTYP.                Deviated:  WELL TYPE
 MWDS.                    Baku:  MWD SHOP
 JOBN.        AZ-XX-0906571587:  JOB TICKET NUMB
 UNIT.                     N/A:  LOGGING EQUIPMENT ID
 MDS .        Operator Entered:  MAG DATA SOURCE
 CNTY.                        :  COUNTY
 LOC .                        :  LOCATION
 LMF .             Drill Floor:  LOG MEASURED FROM
 TVDS.m                  43.00:  TVDSS CORRECTN
 LATI.deg                40.13:  LATITUDE
 LONG.deg                51.22:  LONGITUDE
 WHNS.m                   7.72:  WELL HEAD N/S
 WHEW.m                 -14.24:  WELL HEAD E/W
 UTMX.m              519005.06:  UTM X
 UTMY.m             4443793.85:  UTM Y
 DFWL.m                   0.00:  DISTANCE FWL
 DFSL.m                   0.00:  DISTANCE FSL
 SDEP.m                 347.00:  START DEPTH
 TDD .m                 581.00:  TOTAL DEPTH (DRILLER)
 VSDR.deg               159.72:  VERT SEC DIRECT
 GVFD.g                   1.00:  GRAVITY FIELD
 MFLD.nT              50318.00:  MAGNETIC FIELD
 MDIP.deg                59.57:  MAGNETIC DIP
 MDEC.deg                 6.44:  MAGNETIC DECL
 GRDC.deg                 0.15:  GRID CORRECTION
 AZTC.deg                 6.29:  AZM TOTAL CORR
 EPD .m                   0.00:  ELEVATION
 EGL .m                   0.00:  GROUND ELEVATION
 WDMS.m                 169.80:  WD ELEV
 APD .m                  43.00:  DEPTH ABOVE PD
 AGAP.m                  43.00:  AIR GAP
 VSEW.m                 -14.24:  VERT SEC E/W
 VSNS.m                   7.72:  VERT SEC N/S
 DEP .m                 342.45:  DEPTH
 EKB .m                   0.00:  KB ELEVATION
 EDF .m                  43.00:  DF ELEVATION
 TDL .m                 237.00:  TOTAL DEPTH (LOGGER)
 VSC .                       0:  VS TO CLOSURE
 MAGU.                 1851428:  MAGUTM CHECKSUM
~Parameter Information Block
#MNEM.UNIT       Value        Description
#---------     -----------    ---------------------------
 AV  .mps                 1.50:  Ann Velocity 
 AVMX.mps                 2.90:  Max Ann Veloc 
 AZIF.deg               115.59:  Azm, Final 
 BHAT.        Rotary Steerable:  BHA Type 
 BROT.°/30m               0.50:  Build Rotating 
 BS  .in                  8.50:  Bit Size 
 BTPL.psig              580.00:  Bit Press Loss 
 CABU.                     Yes:  Customer Abuse 
 COMM.                     ì©q:  Run Comments 1 
 TCS .hr                 89.79:  Time Ciculation Ended 
 CV  .mps                 3.22:  Crit Velocity 
 CVMX.mps                 4.37:  Max Crit Veloc 
 DD1 .          Rashad Habibov:  Direct Drillr 1 
 DDSV.               Geo-Pilot:  DD Service 
 DEFF.%                  95.00:  % Det Eff 
 DLRX.°/30m               1.94:  Dogleg Rot Max 
 DLSO.°/30m               0.70:  Dogleg Oriented 
 DLSX.°/30m               1.94:  Dogleg Str Max 
 DRET.      04.45.00 25-Dec-20:  Drill End Time 
 DRST.      10.00.00 24-Dec-20:  Drill Start Tim 
 DTIM.hr                 16.64:  Time Drilling 
 EDEP.m                4999.01:  End Depth 
 ENG1.         Elchin Mammadov:  Engineer 1 
 ENG2.          Ruslan Safarov:  Engineer 2 
 ENG3.          Rustam Safarov:  Engineer 3 
 ETIM.      09.00.00 29-Dec-20:  End Time 
 FLOI.gpm               500.00:  Flow In 
 FLON.gpm               400.00:  Flow In Min 
 FLOS.cptm                0.00:  Fluid Loss 
 FLOX.gpm               500.00:  Flow In Max 
 HFLO.                      No:  High Flow 
 HPRE.                      No:  High Pressure 
 HTEM.                      No:  High Temp 
 HYDO.m                   2.00:  Hydro Offset 
 IFIN.deg                66.79:  Inc, Final 
 IMAX.deg                67.66:  Inc Max 
 IMIN.deg                66.39:  Inc Min 
 IMND.m                4949.37:  Inc Min Depth 
 IMXD.m                4778.63:  Inc Max Depth 
 JARR.                     Yes:  Jarring 
 LETM.      04.45.00 25-Dec-20:  Log End Time 
 LOST.hr                     0:  Lost Rig Time 
 LSTM.      10.00.00 24-Dec-20:  Log Start Time 
 MDCL.ppm             39000.00:  Mud Chlorides 
 MDES.     Inversion Oil/Synthetic:  Mud Desc 
 DFD .sg                  1.33:  Mud Density 
 MDMN.sg                  1.33:  Dens Mud Min 
 MDMX.sg                  1.33:  Dens Mud Max 
 MOIL.                      70:  Run Mud Oil % 
 MOWR.                   70:30:  Run Mud OWR 
 MSND.                       0:  Run Mud Sand % 
 MSOL.                    17.4:  Run Mud Solids% 
 DFV .spqt               84.00:  Mud Viscosity 
 MWOD.in                  6.75:  MWD Tool OD 
 MWSI.                     Yes:  Serv Intrp, MWD 
 OTIM.hr                168.14:  Time Operating 
 PCON.           Look Like New:  Pad Condition 
 PMAX.psia            10822.93:  Press Op, Max 
 PV  .cP                 30.00:  Mud PV 
 RUN .                     900:  Run Number 
 ROPA.m/hr               18.00:  ROP Avg 
 ROPN.m/hr               12.00:  ROP Min 
 ROPX.m/hr               25.00:  ROP Max 
 RPMA.rpm               120.00:  RPM Surface Avg 
 RPMN.rpm               100.00:  RPM Surface Min 
 RPMX.rpm               120.00:  RPM Surface Max 
 RRUN.                    0900:  Rig Run Number 
 SAZI.deg               115.08:  Azm, Start 
 SDEP.m                4762.01:  Start Depth 
 SIDD.                      No:  Serv Intrp, DD 
 SINC.deg                66.14:  Inc, Start 
 SPPA.psig             3700.00:  SPP Avg 
 SPPN.psig             3620.00:  SPP Min 
 SPPX.psig             3900.00:  SPP Max 
 STIM.      09.30.00 22-Dec-20:  Start Time 
 SVCS.                 DD, MWD:  Services 
 SVER.                    9.20:  Sperry Version 
 TDAT.m                 237.00:  Tot Depth Attmp 
 TDDF.                      No:  Trip for DD 
 TDLG.m                 237.00:  Tot Depth Loggd 
 TFF .                      No:  Trip for Fail 
 TQAA.f-kp               18.00:  Torque Abs Avg 
 TQAN.f-kp               17.00:  Torque Abs Min 
 TQAX.f-kp               20.00:  Torque Abs Max 
 TRRT.°/30m               0.60:  Turn Rotating 
 MRT .                    HCIM:  Maximum Recorded Temperature 
 TTMX.degC               94.12:  Max Tool Temp 
 VS01.                90627809:  Virtual Str1 SN 
 VS02.                90527813:  Virtual Str2 SN 
 VS03.                90545417:  Virtual Str3 SN 
 VS04.                12460870:  Virtual Str4 SN 
 VS05.                90516706:  Virtual Str5 SN 
 VS06.                90632007:  Virtual Str6 SN 
 WBMN.klb                 0.00:  WOB Min 
 WOBA.klb                14.00:  WOB Avg 
 WOBX.klb                25.00:  WOB Max 
 YP  .lhf2               32.00:  Yield Point 
~Curve Information Block
#MNEM.UNIT                 API CODE     Curve Description
#---------               -----------    ---------------------------
 TIME.HHMMSS            00 000 000 000:  GT Time & Date
 GTDEPTH.m              00 000 000 000:  GT Depth
 GTPQH.psia             00 000 000 000:  GT HR Quartz Pressure
 GTTQ.degC              00 000 000 000:  GT Quartz Temperature
 GTTN.NONE              00 000 000 000:  GT Test Number
 GTET.sec               00 000 000 000:  GT Elapsed Test Time
 GTTVD.m                00 000 000 000:  GT True Vertical Depth
#Other Information
#
#WARRANTY: Halliburton will use its best efforts to furnish customers with 
#accurate information and interpretations that are part of, and incident to, the services 
#provided.  However, Halliburton cannot and does not warrant the accuracy 
#or correctness of such information and interpretations.  Under no circumstances should any 
#such information or interpretation be relied upon as the sole basis for any drilling, 
#completion, production, or financial decision or any procedure involving any risk to the 
#safety of any drilling venture, drilling rig or its crew or any other third party.  The 
#Customer has full responsibility for all drilling, completion and production operation.  
#Halliburton makes no representations or warranties, either expressed or 
#implied, including, but not limited to, the implied warranties of merchantability or fitness 
#for a particular purpose, with respect to the services rendered.  In no event will 
#Halliburton be liable for failure to obtain any particular results or for 
#any damages, including, but not limited to, indirect, special or consequential damages, 
#resulting from the use of any information or interpretation provided by Halliburton.
#
~A           TIME           GTDEPTH  GTPQH  GTTQ  GTTN  GTET   GTTVD  
# ...
   14:00:13.000.25-Dec-2020 4920.01 2665.34 65.74 3.00  69.00 2546.09
   14:00:13.200.25-Dec-2020 4920.01 2665.34 65.74 3.00  69.20 2546.09
   14:00:13.400.25-Dec-2020 4920.01 2664.40 65.74 3.00  69.40 2546.09
   14:00:13.600.25-Dec-2020 4920.01 2664.55 65.74 3.00  69.60 2546.09
   14:00:13.800.25-Dec-2020 4920.01 2664.59 65.74 3.00  69.80 2546.09
   14:00:14.000.25-Dec-2020 4920.01 2664.57 65.74 3.00  70.00 2546.09
   14:00:14.200.25-Dec-2020 4920.01 2664.57 65.74 3.00  70.20 2546.09
   14:00:14.400.25-Dec-2020 4920.01 2664.64 65.74 3.00  70.40 2546.09
   14:00:14.600.25-Dec-2020 4920.01 2664.69 65.74 3.00  70.60 2546.09
   14:00:14.800.25-Dec-2020 4920.01 2664.70 65.74 3.00  70.80 2546.09
   14:00:15.000.25-Dec-2020 4920.01 2664.72 65.74 3.00  71.00 2546.09
   14:00:15.200.25-Dec-2020 4920.01 2664.74 65.74 3.00  71.20 2546.09
   14:00:15.400.25-Dec-2020 4920.01 2664.52 65.74 3.00  71.40 2546.09
   14:00:15.600.25-Dec-2020 4920.01 2665.28 65.74 3.00  71.60 2546.09
   14:00:15.800.25-Dec-2020 4920.01 2664.52 65.74 3.00  71.80 2546.09
   14:00:16.000.25-Dec-2020 4920.01 2664.53 65.74 3.00  72.00 2546.09
   14:00:16.200.25-Dec-2020 4920.01 2664.63 65.74 3.00  72.20 2546.09
   14:00:16.400.25-Dec-2020 4920.01 2664.62 65.74 3.00  72.40 2546.09
   14:00:16.600.25-Dec-2020 4920.01 2664.66 65.75 3.00  72.60 2546.09
   14:00:16.800.25-Dec-2020 4920.01 2664.66 65.75 3.00  72.80 2546.09
   14:00:17.000.25-Dec-2020 4920.01 2664.71 65.75 3.00  73.00 2546.09
   14:00:17.200.25-Dec-2020 4920.01 2664.71 65.75 3.00  73.20 2546.09
   14:00:17.400.25-Dec-2020 4920.01 2664.76 65.75 3.00  73.40 2546.09
   14:00:17.600.25-Dec-2020 4920.01 2664.78 65.75 3.00  73.60 2546.09
   14:00:17.800.25-Dec-2020 4920.01 2664.26 65.75 3.00  73.80 2546.09
   14:00:18.000.25-Dec-2020 4920.01 2665.44 65.75 3.00  74.00 2546.09
   14:00:18.200.25-Dec-2020 4920.01 2665.44 65.75 3.00  74.20 2546.09
   14:00:18.400.25-Dec-2020 4920.01 2664.53 65.75 3.00  74.40 2546.09
   14:00:18.600.25-Dec-2020 4920.01 2664.47 65.75 3.00  74.60 2546.09
   14:00:18.800.25-Dec-2020 4920.01 2665.04 65.75 3.00  74.80 2546.09
   14:00:19.000.25-Dec-2020 4920.01 2664.51 65.75 3.00  75.00 2546.09
   14:00:19.200.25-Dec-2020 4920.01 2664.53 65.75 3.00  75.20 2546.09
   14:00:19.400.25-Dec-2020 4920.01 2664.14 65.75 3.00  75.40 2546.09
   14:00:19.600.25-Dec-2020 4920.01 2665.38 65.75 3.00  75.60 2546.09
   14:00:19.800.25-Dec-2020 4920.01 2664.42 65.75 3.00  75.80 2546.09
   14:00:20.000.25-Dec-2020 4920.01 2664.06 65.75 3.00  76.00 2546.09
   14:00:20.200.25-Dec-2020 4920.01 2664.06 65.75 3.00  76.20 2546.09
   14:00:20.400.25-Dec-2020 4920.01 2664.47 65.75 3.00  76.40 2546.09
   14:00:20.600.25-Dec-2020 4920.01 2664.52 65.75 3.00  76.60 2546.09
   14:00:20.800.25-Dec-2020 4920.01 2664.60 65.75 3.00  76.80 2546.09
   14:00:21.000.25-Dec-2020 4920.01 2664.61 65.75 3.00  77.00 2546.09
   14:00:21.200.25-Dec-2020 4920.01 2664.61 65.75 3.00  77.20 2546.09
   14:00:21.400.25-Dec-2020 4920.01 2664.65 65.75 3.00  77.40 2546.09
   14:00:21.600.25-Dec-2020 4920.01 2664.68 65.75 3.00  77.60 2546.09
   14:00:21.800.25-Dec-2020 4920.01 2664.71 65.75 3.00  77.80 2546.09
   14:00:22.000.25-Dec-2020 4920.01 2664.73 65.75 3.00  78.00 2546.09
   14:00:22.200.25-Dec-2020 4920.01 2664.73 65.75 3.00  78.20 2546.09
   14:00:22.400.25-Dec-2020 4920.01 2664.75 65.75 3.00  78.40 2546.09
   14:00:22.600.25-Dec-2020 4920.01 2664.55 65.75 3.00  78.60 2546.09
   14:00:22.800.25-Dec-2020 4920.01 2665.09 65.75 3.00  78.80 2546.09
   14:00:23.000.25-Dec-2020 4920.01 2664.51 65.75 3.00  79.00 2546.09
   14:00:23.200.25-Dec-2020 4920.01 2664.51 65.75 3.00  79.20 2546.09
   14:00:23.400.25-Dec-2020 4920.01 2664.65 65.75 3.00  79.40 2546.09
   14:00:23.600.25-Dec-2020 4920.01 2664.66 65.75 3.00  79.60 2546.09
   14:00:23.800.25-Dec-2020 4920.01 2664.68 65.75 3.00  79.80 2546.09
   14:00:24.000.25-Dec-2020 4920.01 2664.68 65.75 3.00  80.00 2546.09
   14:00:24.200.25-Dec-2020 4920.01 2664.74 65.75 3.00  80.20 2546.09
   14:00:24.400.25-Dec-2020 4920.01 2664.74 65.75 3.00  80.40 2546.09
   14:00:24.600.25-Dec-2020 4920.01 2664.77 65.75 3.00  80.60 2546.09
   14:00:24.800.25-Dec-2020 4920.01 2664.78 65.75 3.00  80.80 2546.09
   14:00:25.000.25-Dec-2020 4920.01 2664.24 65.75 3.00  81.00 2546.09
   14:00:25.200.25-Dec-2020 4920.01 2664.24 65.75 3.00  81.20 2546.09
   14:00:25.400.25-Dec-2020 4920.01 2664.55 65.75 3.00  81.40 2546.09
   14:00:25.600.25-Dec-2020 4920.01 2664.62 65.75 3.00  81.60 2546.09
   14:00:25.800.25-Dec-2020 4920.01 2664.57 65.75 3.00  81.80 2546.09
   14:00:26.000.25-Dec-2020 4920.01 2665.27 65.75 3.00  82.00 2546.09
   14:00:26.200.25-Dec-2020 4920.01 2665.27 65.75 3.00  82.20 2546.09
   14:00:26.400.25-Dec-2020 4920.01 2664.55 65.75 3.00  82.40 2546.09
   14:00:26.600.25-Dec-2020 4920.01 2664.17 65.75 3.00  82.60 2546.09
   14:00:26.800.25-Dec-2020 4920.01 2666.49 65.75 3.00  82.80 2546.09
   14:00:27.000.25-Dec-2020 4920.01 2664.87 65.75 3.00  83.00 2546.09
   14:00:27.200.25-Dec-2020 4920.01 2664.17 65.75 3.00  83.20 2546.09
   14:00:27.400.25-Dec-2020 4920.01 2665.57 65.75 3.00  83.40 2546.09
   14:00:27.600.25-Dec-2020 4920.01 2664.55 65.75 3.00  83.60 2546.09
   14:00:27.800.25-Dec-2020 4920.01 2664.57 65.75 3.00  83.80 2546.09
   14:00:28.000.25-Dec-2020 4920.01 2664.61 65.75 3.00  84.00 2546.09
   14:00:28.200.25-Dec-2020 4920.01 2664.61 65.75 3.00  84.20 2546.09
   14:00:28.400.25-Dec-2020 4920.01 2664.63 65.75 3.00  84.40 2546.09
   14:00:28.600.25-Dec-2020 4920.01 2664.66 65.75 3.00  84.60 2546.09
   14:00:28.800.25-Dec-2020 4920.01 2664.70 65.75 3.00  84.80 2546.09
   14:00:29.000.25-Dec-2020 4920.01 2664.71 65.75 3.00  85.00 2546.09
   14:00:29.200.25-Dec-2020 4920.01 2664.71 65.75 3.00  85.20 2546.09
   14:00:29.400.25-Dec-2020 4920.01 2664.73 65.75 3.00  85.40 2546.09
   14:00:29.600.25-Dec-2020 4920.01 2664.75 65.75 3.00  85.60 2546.09
   14:00:29.800.25-Dec-2020 4920.01 2664.54 65.75 3.00  85.80 2546.09
   14:00:30.000.25-Dec-2020 4920.01 2665.13 65.75 3.00  86.00 2546.09
   14:00:30.200.25-Dec-2020 4920.01 2665.13 65.75 3.00  86.20 2546.09
   14:00:30.400.25-Dec-2020 4920.01 2664.62 65.75 3.00  86.40 2546.09
   14:00:30.600.25-Dec-2020 4920.01 2664.67 65.75 3.00  86.60 2546.09
   14:00:30.800.25-Dec-2020 4920.01 2664.68 65.75 3.00  86.80 2546.09
   14:00:31.000.25-Dec-2020 4920.01 2664.68 65.75 3.00  87.00 2546.09
   14:00:31.200.25-Dec-2020 4920.01 2664.71 65.75 3.00  87.20 2546.09
   14:00:31.400.25-Dec-2020 4920.01 2664.73 65.75 3.00  87.40 2546.09
   14:00:31.600.25-Dec-2020 4920.01 2664.74 65.75 3.00  87.60 2546.09
   14:00:31.800.25-Dec-2020 4920.01 2664.79 65.75 3.00  87.80 2546.09
   14:00:32.000.25-Dec-2020 4920.01 2664.76 65.75 3.00  88.00 2546.09
   14:00:32.200.25-Dec-2020 4920.01 2664.28 65.75 3.00  88.20 2546.09
   14:00:32.400.25-Dec-2020 4920.01 2665.51 65.75 3.00  88.40 2546.09
   14:00:32.600.25-Dec-2020 4920.01 2664.58 65.75 3.00  88.60 2546.09
   14:00:32.800.25-Dec-2020 4920.01 2664.68 65.75 3.00  88.80 2546.09
   14:00:33.000.25-Dec-2020 4920.01 2664.50 65.75 3.00  89.00 2546.09
   14:00:33.200.25-Dec-2020 4920.01 2664.50 65.75 3.00  89.20 2546.09
   14:00:33.400.25-Dec-2020 4920.01 2664.50 65.75 3.00  89.40 2546.09
   14:00:33.600.25-Dec-2020 4920.01 2664.56 65.75 3.00  89.60 2546.09
   14:00:33.800.25-Dec-2020 4920.01 2664.20 65.75 3.00  89.80 2546.09
   14:00:34.000.25-Dec-2020 4920.01 2665.96 65.75 3.00  90.00 2546.09
   14:00:34.200.25-Dec-2020 4920.01 2665.96 65.75 3.00  90.20 2546.09
   14:00:34.400.25-Dec-2020 4920.01 2664.11 65.75 3.00  90.40 2546.09
   14:00:34.600.25-Dec-2020 4920.01 2665.43 65.75 3.00  90.60 2546.09
   14:00:34.800.25-Dec-2020 4920.01 2664.57 65.75 3.00  90.80 2546.09
   14:00:35.000.25-Dec-2020 4920.01 2664.58 65.75 3.00  91.00 2546.09
   14:00:35.200.25-Dec-2020 4920.01 2664.63 65.75 3.00  91.20 2546.09
   14:00:35.400.25-Dec-2020 4920.01 2664.65 65.75 3.00  91.40 2546.09
   14:00:35.600.25-Dec-2020 4920.01 2664.63 65.75 3.00  91.60 2546.09
   14:00:35.800.25-Dec-2020 4920.01 2664.67 65.75 3.00  91.80 2546.09
