~Version Information
 VERS.                  2.0:   CWLS log ASCII Standard -VERSION 2.0
 WRAP.                   NO:   One line per depth step
~Well Information Block
#MNEM.UNIT     VALUE/NAME     DESCRIPTION
#---------     -----------    ---------------------------
 STRT.S             20:22:11 25-Dec-20: START TIME 20:22:11 25-Dec-20
 STOP.S             20:30:35 25-Dec-20: STOP TIME  20:30:35 25-Dec-20
 STEP.S                   0.00: STEP TIME
 NULL.                 -999.25: NULL VALUE
 DFWT.                        :  DIST FWL TEXT
 DFST.                        :  DIST FSL TEXT
 DMF .             Drill Floor:  DRILL MEAS FROM
 STIM.      04.54.24 22-Sep-20:  START TIME
 DATE.      04.54.24 21-Nov-20:  END TIME
 SPUD.               21-Nov-20:  SPUD DATE
 NREF.                    Grid:  NORTH REFERENCE
 HPTY.       Minimum Curvature:  HOLE POS TYPE
 DMOD.             Drill Model:  DRILL MOD DESC
 SVYD.                  Survey:  SURVEY DESC
 ILTD.               Lithology:  INTERP LTH DESC
 FTOP.          Formation Tops:  FORM TOPS DESC
 SON .        AZ-XX-0906571587:  JOB NUMBER
 COMP.     BP Exploration (Caspian Sea) Ltd:  COMPANY
 UWI .                     N/A:  UNIQUE WELL IDENTIFIER
 API .                     N/A:  API NUMBER
 BASE.              Azerbaijan:  LOGGING EQUIPMENT BASE LOCATION
 REGN.                   EESSA:  REGION
 PROV.                    Baku:  PROVINCE
 STAT.                    Baku:  STATE NAME
 CTRY.              Azerbaijan:  COUNTRY NAME
 FLD .                     ACG:  FIELD NAME
 SRVC.     TURAN Drilling & Engineering:  CONTRACTOR
 WELL.                     J27:  WELL NAME
 RIG .             West Chirag:  RIG NAME
 DOE .                     N/A:  DOE NUMBER
 DCON.         Sperry Drilling:  DIRECTNL CONTR
 PDAT.          Mean Sea Level:  PERMANENT DATUM
 WTYP.                Deviated:  WELL TYPE
 MWDS.                    Baku:  MWD SHOP
 JOBN.        AZ-XX-0906571587:  JOB TICKET NUMB
 UNIT.                     N/A:  LOGGING EQUIPMENT ID
 MDS .        Operator Entered:  MAG DATA SOURCE
 CNTY.                        :  COUNTY
 LOC .                        :  LOCATION
 LMF .             Drill Floor:  LOG MEASURED FROM
 TVDS.m                  43.00:  TVDSS CORRECTN
 LATI.deg                40.13:  LATITUDE
 LONG.deg                51.22:  LONGITUDE
 WHNS.m                   7.72:  WELL HEAD N/S
 WHEW.m                 -14.24:  WELL HEAD E/W
 UTMX.m              519005.06:  UTM X
 UTMY.m             4443793.85:  UTM Y
 DFWL.m                   0.00:  DISTANCE FWL
 DFSL.m                   0.00:  DISTANCE FSL
 SDEP.m                 347.00:  START DEPTH
 TDD .m                 581.00:  TOTAL DEPTH (DRILLER)
 VSDR.deg               159.72:  VERT SEC DIRECT
 GVFD.g                   1.00:  GRAVITY FIELD
 MFLD.nT              50318.00:  MAGNETIC FIELD
 MDIP.deg                59.57:  MAGNETIC DIP
 MDEC.deg                 6.44:  MAGNETIC DECL
 GRDC.deg                 0.15:  GRID CORRECTION
 AZTC.deg                 6.29:  AZM TOTAL CORR
 EPD .m                   0.00:  ELEVATION
 EGL .m                   0.00:  GROUND ELEVATION
 WDMS.m                 169.80:  WD ELEV
 APD .m                  43.00:  DEPTH ABOVE PD
 AGAP.m                  43.00:  AIR GAP
 VSEW.m                 -14.24:  VERT SEC E/W
 VSNS.m                   7.72:  VERT SEC N/S
 DEP .m                 342.45:  DEPTH
 EKB .m                   0.00:  KB ELEVATION
 EDF .m                  43.00:  DF ELEVATION
 TDL .m                 237.00:  TOTAL DEPTH (LOGGER)
 VSC .                       0:  VS TO CLOSURE
 MAGU.                 1851428:  MAGUTM CHECKSUM
~Parameter Information Block
#MNEM.UNIT       Value        Description
#---------     -----------    ---------------------------
 AV  .mps                 1.50:  Ann Velocity 
 AVMX.mps                 2.90:  Max Ann Veloc 
 AZIF.deg               115.59:  Azm, Final 
 BHAT.        Rotary Steerable:  BHA Type 
 BROT.°/30m               0.50:  Build Rotating 
 BS  .in                  8.50:  Bit Size 
 BTPL.psig              580.00:  Bit Press Loss 
 CABU.                     Yes:  Customer Abuse 
 COMM.                     ”Cf:  Run Comments 1 
 TCS .hr                 89.79:  Time Ciculation Ended 
 CV  .mps                 3.22:  Crit Velocity 
 CVMX.mps                 4.37:  Max Crit Veloc 
 DD1 .          Rashad Habibov:  Direct Drillr 1 
 DDSV.               Geo-Pilot:  DD Service 
 DEFF.%                  95.00:  % Det Eff 
 DLRX.°/30m               1.94:  Dogleg Rot Max 
 DLSO.°/30m               0.70:  Dogleg Oriented 
 DLSX.°/30m               1.94:  Dogleg Str Max 
 DRET.      04.45.00 25-Dec-20:  Drill End Time 
 DRST.      10.00.00 24-Dec-20:  Drill Start Tim 
 DTIM.hr                 16.64:  Time Drilling 
 EDEP.m                4999.01:  End Depth 
 ENG1.         Elchin Mammadov:  Engineer 1 
 ENG2.          Ruslan Safarov:  Engineer 2 
 ENG3.          Rustam Safarov:  Engineer 3 
 ETIM.      09.00.00 29-Dec-20:  End Time 
 FLOI.gpm               500.00:  Flow In 
 FLON.gpm               400.00:  Flow In Min 
 FLOS.cptm                0.00:  Fluid Loss 
 FLOX.gpm               500.00:  Flow In Max 
 HFLO.                      No:  High Flow 
 HPRE.                      No:  High Pressure 
 HTEM.                      No:  High Temp 
 HYDO.m                   2.00:  Hydro Offset 
 IFIN.deg                66.79:  Inc, Final 
 IMAX.deg                67.66:  Inc Max 
 IMIN.deg                66.39:  Inc Min 
 IMND.m                4949.37:  Inc Min Depth 
 IMXD.m                4778.63:  Inc Max Depth 
 JARR.                     Yes:  Jarring 
 LETM.      04.45.00 25-Dec-20:  Log End Time 
 LOST.hr                     0:  Lost Rig Time 
 LSTM.      10.00.00 24-Dec-20:  Log Start Time 
 MDCL.ppm             39000.00:  Mud Chlorides 
 MDES.     Inversion Oil/Synthetic:  Mud Desc 
 DFD .sg                  1.33:  Mud Density 
 MDMN.sg                  1.33:  Dens Mud Min 
 MDMX.sg                  1.33:  Dens Mud Max 
 MOIL.                      70:  Run Mud Oil % 
 MOWR.                   70:30:  Run Mud OWR 
 MSND.                       0:  Run Mud Sand % 
 MSOL.                    17.4:  Run Mud Solids% 
 DFV .spqt               84.00:  Mud Viscosity 
 MWOD.in                  6.75:  MWD Tool OD 
 MWSI.                     Yes:  Serv Intrp, MWD 
 OTIM.hr                168.14:  Time Operating 
 PCON.           Look Like New:  Pad Condition 
 PMAX.psia            10822.93:  Press Op, Max 
 PV  .cP                 30.00:  Mud PV 
 RUN .                     900:  Run Number 
 ROPA.m/hr               18.00:  ROP Avg 
 ROPN.m/hr               12.00:  ROP Min 
 ROPX.m/hr               25.00:  ROP Max 
 RPMA.rpm               120.00:  RPM Surface Avg 
 RPMN.rpm               100.00:  RPM Surface Min 
 RPMX.rpm               120.00:  RPM Surface Max 
 RRUN.                    0900:  Rig Run Number 
 SAZI.deg               115.08:  Azm, Start 
 SDEP.m                4762.01:  Start Depth 
 SIDD.                      No:  Serv Intrp, DD 
 SINC.deg                66.14:  Inc, Start 
 SPPA.psig             3700.00:  SPP Avg 
 SPPN.psig             3620.00:  SPP Min 
 SPPX.psig             3900.00:  SPP Max 
 STIM.      09.30.00 22-Dec-20:  Start Time 
 SVCS.                 DD, MWD:  Services 
 SVER.                    9.20:  Sperry Version 
 TDAT.m                 237.00:  Tot Depth Attmp 
 TDDF.                      No:  Trip for DD 
 TDLG.m                 237.00:  Tot Depth Loggd 
 TFF .                      No:  Trip for Fail 
 TQAA.f-kp               18.00:  Torque Abs Avg 
 TQAN.f-kp               17.00:  Torque Abs Min 
 TQAX.f-kp               20.00:  Torque Abs Max 
 TRRT.°/30m               0.60:  Turn Rotating 
 MRT .                    HCIM:  Maximum Recorded Temperature 
 TTMX.degC               94.12:  Max Tool Temp 
 VS01.                90627809:  Virtual Str1 SN 
 VS02.                90527813:  Virtual Str2 SN 
 VS03.                90545417:  Virtual Str3 SN 
 VS04.                12460870:  Virtual Str4 SN 
 VS05.                90516706:  Virtual Str5 SN 
 VS06.                90632007:  Virtual Str6 SN 
 WBMN.klb                 0.00:  WOB Min 
 WOBA.klb                14.00:  WOB Avg 
 WOBX.klb                25.00:  WOB Max 
 YP  .lhf2               32.00:  Yield Point 
~Curve Information Block
#MNEM.UNIT                 API CODE     Curve Description
#---------               -----------    ---------------------------
 TIME.HHMMSS            00 000 000 000:  GT Time & Date
 GTDEPTH.m              00 000 000 000:  GT Depth
 GTPQH.psia             00 000 000 000:  GT HR Quartz Pressure
 GTTQ.degC              00 000 000 000:  GT Quartz Temperature
 GTTN.NONE              00 000 000 000:  GT Test Number
 GTET.sec               00 000 000 000:  GT Elapsed Test Time
 GTTVD.m                00 000 000 000:  GT True Vertical Depth
#Other Information
#
#WARRANTY: Halliburton will use its best efforts to furnish customers with 
#accurate information and interpretations that are part of, and incident to, the services 
#provided.  However, Halliburton cannot and does not warrant the accuracy 
#or correctness of such information and interpretations.  Under no circumstances should any 
#such information or interpretation be relied upon as the sole basis for any drilling, 
#completion, production, or financial decision or any procedure involving any risk to the 
#safety of any drilling venture, drilling rig or its crew or any other third party.  The 
#Customer has full responsibility for all drilling, completion and production operation.  
#Halliburton makes no representations or warranties, either expressed or 
#implied, including, but not limited to, the implied warranties of merchantability or fitness 
#for a particular purpose, with respect to the services rendered.  In no event will 
#Halliburton be liable for failure to obtain any particular results or for 
#any damages, including, but not limited to, indirect, special or consequential damages, 
#resulting from the use of any information or interpretation provided by Halliburton.
#
~A           TIME           GTDEPTH  GTPQH  GTTQ  GTTN  GTET   GTTVD  
# ...
   20:22:34.877.25-Dec-2020 4794.01 5384.82 64.01 8.00  23.00 2496.73
   20:22:35.077.25-Dec-2020 4794.01 5384.82 64.01 8.00  23.20 2496.73
   20:22:35.277.25-Dec-2020 4794.01 5384.56 64.01 8.00  23.40 2496.73
   20:22:35.477.25-Dec-2020 4794.01 5384.90 64.01 8.00  23.60 2496.73
   20:22:35.677.25-Dec-2020 4794.01 5384.36 64.01 8.00  23.80 2496.73
   20:22:35.877.25-Dec-2020 4794.01 5385.05 64.01 8.00  24.00 2496.73
   20:22:36.077.25-Dec-2020 4794.01 5385.15 64.01 8.00  24.20 2496.73
   20:22:36.277.25-Dec-2020 4794.01 5384.97 64.01 8.00  24.40 2496.73
   20:22:36.477.25-Dec-2020 4794.01 5393.00 64.01 8.00  24.60 2496.73
   20:22:36.677.25-Dec-2020 4794.01 5387.41 64.01 8.00  24.80 2496.73
   20:22:36.877.25-Dec-2020 4794.01 5388.89 64.01 8.00  25.00 2496.73
   20:22:37.077.25-Dec-2020 4794.01 5398.50 64.01 8.00  25.20 2496.73
   20:22:37.277.25-Dec-2020 4794.01 5387.43 64.01 8.00  25.40 2496.73
   20:22:37.477.25-Dec-2020 4794.01 5394.81 64.01 8.00  25.60 2496.73
   20:22:37.677.25-Dec-2020 4794.01 5397.91 64.01 8.00  25.80 2496.73
   20:22:37.877.25-Dec-2020 4794.01 5384.50 64.01 8.00  26.00 2496.73
   20:22:38.077.25-Dec-2020 4794.01 5384.50 64.01 8.00  26.20 2496.73
   20:22:38.277.25-Dec-2020 4794.01 5389.06 64.01 8.00  26.40 2496.73
   20:22:38.477.25-Dec-2020 4794.01 5393.12 64.01 8.00  26.60 2496.73
   20:22:38.677.25-Dec-2020 4794.01 5390.35 64.01 8.00  26.80 2496.73
   20:22:38.877.25-Dec-2020 4794.01 5392.20 64.01 8.00  27.00 2496.73
   20:22:39.077.25-Dec-2020 4794.01 5392.20 64.01 8.00  27.20 2496.73
   20:22:39.277.25-Dec-2020 4794.01 5389.86 64.01 8.00  27.40 2496.73
   20:22:39.477.25-Dec-2020 4794.01 5389.82 64.01 8.00  27.60 2496.73
   20:22:39.677.25-Dec-2020 4794.01 5388.35 64.01 8.00  27.80 2496.73
   20:22:39.877.25-Dec-2020 4794.01 5389.60 64.01 8.00  28.00 2496.73
   20:22:40.077.25-Dec-2020 4794.01 5389.60 64.01 8.00  28.20 2496.73
   20:22:40.277.25-Dec-2020 4794.01 5388.63 64.01 8.00  28.40 2496.73
   20:22:40.477.25-Dec-2020 4794.01 5400.68 64.01 8.00  28.60 2496.73
   20:22:40.677.25-Dec-2020 4794.01 5386.33 64.01 8.00  28.80 2496.73
   20:22:40.877.25-Dec-2020 4794.01 5390.70 64.01 8.00  29.00 2496.73
   20:22:41.077.25-Dec-2020 4794.01 5394.70 64.01 8.00  29.20 2496.73
   20:22:41.277.25-Dec-2020 4794.01 5390.53 64.01 8.00  29.40 2496.73
   20:22:41.477.25-Dec-2020 4794.01 5391.49 64.01 8.00  29.60 2496.73
   20:22:41.677.25-Dec-2020 4794.01 5390.26 64.01 8.00  29.80 2496.73
   20:22:41.877.25-Dec-2020 4794.01 5392.01 64.01 8.00  30.00 2496.73
   20:22:42.077.25-Dec-2020 4794.01 5392.01 64.01 8.00  30.20 2496.73
   20:22:42.277.25-Dec-2020 4794.01 5391.14 64.01 8.00  30.40 2496.73
   20:22:42.477.25-Dec-2020 4794.01 5392.57 64.01 8.00  30.60 2496.73
   20:22:42.677.25-Dec-2020 4794.01 5391.74 64.01 8.00  30.80 2496.73
   20:22:42.877.25-Dec-2020 4794.01 5392.52 64.00 8.00  31.00 2496.73
   20:22:43.077.25-Dec-2020 4794.01 5392.52 64.00 8.00  31.20 2496.73
   20:22:43.277.25-Dec-2020 4794.01 5396.59 64.00 8.00  31.40 2496.73
   20:22:43.477.25-Dec-2020 4794.01 5397.63 64.00 8.00  31.60 2496.73
   20:22:43.677.25-Dec-2020 4794.01 5397.70 64.00 8.00  31.80 2496.73
   20:22:43.877.25-Dec-2020 4794.01 5403.27 64.00 8.00  32.00 2496.73
   20:22:44.077.25-Dec-2020 4794.01 5403.27 64.00 8.00  32.20 2496.73
   20:22:44.277.25-Dec-2020 4794.01 5400.22 64.00 8.00  32.40 2496.73
   20:22:44.477.25-Dec-2020 4794.01 5405.59 64.00 8.00  32.60 2496.73
   20:22:44.676.25-Dec-2020 4794.01 5393.81 64.00 8.00  32.80 2496.73
   20:22:44.876.25-Dec-2020 4794.01 5397.29 64.00 8.00  33.00 2496.73
   20:22:45.076.25-Dec-2020 4794.01 5406.57 64.00 8.00  33.20 2496.73
   20:22:45.276.25-Dec-2020 4794.01 5397.42 64.00 8.00  33.40 2496.73
   20:22:45.476.25-Dec-2020 4794.01 5398.90 64.00 8.00  33.60 2496.73
   20:22:45.676.25-Dec-2020 4794.01 5398.60 64.00 8.00  33.80 2496.73
   20:22:45.876.25-Dec-2020 4794.01 5399.79 64.00 8.00  34.00 2496.73
   20:22:46.076.25-Dec-2020 4794.01 5399.79 64.00 8.00  34.20 2496.73
   20:22:46.276.25-Dec-2020 4794.01 5397.99 64.00 8.00  34.40 2496.73
   20:22:46.476.25-Dec-2020 4794.01 5396.61 64.00 8.00  34.60 2496.73
   20:22:46.676.25-Dec-2020 4794.01 5395.20 64.00 8.00  34.80 2496.73
   20:22:46.876.25-Dec-2020 4794.01 5396.16 64.00 8.00  35.00 2496.73
   20:22:47.076.25-Dec-2020 4794.01 5396.16 64.00 8.00  35.20 2496.73
   20:22:47.276.25-Dec-2020 4794.01 5395.19 64.00 8.00  35.40 2496.73
   20:22:47.476.25-Dec-2020 4794.01 5395.89 64.00 8.00  35.60 2496.73
   20:22:47.676.25-Dec-2020 4794.01 5394.91 64.00 8.00  35.80 2496.73
   20:22:47.876.25-Dec-2020 4794.01 5399.54 64.00 8.00  36.00 2496.73
   20:22:48.076.25-Dec-2020 4794.01 5399.54 64.00 8.00  36.20 2496.73
   20:22:48.276.25-Dec-2020 4794.01 5287.31 64.00 8.00  36.40 2496.73
   20:22:48.476.25-Dec-2020 4794.01 5370.85 64.00 8.00  36.60 2496.73
   20:22:48.676.25-Dec-2020 4794.01 5456.39 64.00 8.00  36.80 2496.73
   20:22:48.876.25-Dec-2020 4794.01 5490.21 64.00 8.00  37.00 2496.73
   20:22:49.076.25-Dec-2020 4794.01 5490.21 64.00 8.00  37.20 2496.73
   20:22:49.276.25-Dec-2020 4794.01 5559.29 64.00 8.00  37.40 2496.73
   20:22:49.476.25-Dec-2020 4794.01 5580.49 64.00 8.00  37.60 2496.73
   20:22:49.676.25-Dec-2020 4794.01 5598.87 64.00 8.00  37.80 2496.73
   20:22:49.876.25-Dec-2020 4794.01 5622.79 64.00 8.00  38.00 2496.73
   20:22:50.076.25-Dec-2020 4794.01 5622.79 64.00 8.00  38.20 2496.73
   20:22:50.276.25-Dec-2020 4794.01 5664.93 64.00 8.00  38.40 2496.73
   20:22:50.476.25-Dec-2020 4794.01 5708.95 64.00 8.00  38.60 2496.73
   20:22:50.676.25-Dec-2020 4794.01 5697.99 64.00 8.00  38.80 2496.73
   20:22:50.876.25-Dec-2020 4794.01 5693.53 64.00 8.00  39.00 2496.73
   20:22:51.076.25-Dec-2020 4794.01 5693.53 64.00 8.00  39.20 2496.73
   20:22:51.276.25-Dec-2020 4794.01 5715.29 64.00 8.00  39.40 2496.73
   20:22:51.476.25-Dec-2020 4794.01 5696.51 64.00 8.00  39.60 2496.73
   20:22:51.676.25-Dec-2020 4794.01 5654.77 64.00 8.00  39.80 2496.73
   20:22:51.876.25-Dec-2020 4794.01 5631.14 64.00 8.00  40.00 2496.73
   20:22:52.076.25-Dec-2020 4794.01 5597.61 64.00 8.00  40.20 2496.73
   20:22:52.276.25-Dec-2020 4794.01 5552.53 64.00 8.00  40.40 2496.73
   20:22:52.476.25-Dec-2020 4794.01 5518.47 64.00 8.00  40.60 2496.73
   20:22:52.676.25-Dec-2020 4794.01 5484.60 64.00 8.00  40.80 2496.73
   20:22:52.876.25-Dec-2020 4794.01 5447.47 64.00 8.00  41.00 2496.73
   20:22:53.076.25-Dec-2020 4794.01 5450.15 64.00 8.00  41.20 2496.73
   20:22:53.276.25-Dec-2020 4794.01 5434.55 64.00 8.00  41.40 2496.73
   20:22:53.476.25-Dec-2020 4794.01 5409.52 64.00 8.00  41.60 2496.73
   20:22:53.676.25-Dec-2020 4794.01 5457.45 64.00 8.00  41.80 2496.73
   20:22:53.876.25-Dec-2020 4794.01 5487.41 64.00 8.00  42.00 2496.73
   20:22:54.076.25-Dec-2020 4794.01 5487.41 64.00 8.00  42.20 2496.73
   20:22:54.276.25-Dec-2020 4794.01 5635.26 64.00 8.00  42.40 2496.73
   20:22:54.476.25-Dec-2020 4794.01 5771.47 64.00 8.00  42.60 2496.73
   20:22:54.676.25-Dec-2020 4794.01 5863.04 64.00 8.00  42.80 2496.73
   20:22:54.876.25-Dec-2020 4794.01 5832.42 64.00 8.00  43.00 2496.73
   20:22:55.076.25-Dec-2020 4794.01 5832.42 64.00 8.00  43.20 2496.73
   20:22:55.276.25-Dec-2020 4794.01 5672.95 64.00 8.00  43.40 2496.73
   20:22:55.476.25-Dec-2020 4794.01 5595.63 64.00 8.00  43.60 2496.73
   20:22:55.676.25-Dec-2020 4794.01 5538.67 64.00 8.00  43.80 2496.73
   20:22:55.876.25-Dec-2020 4794.01 5497.31 64.00 8.00  44.00 2496.73
   20:22:56.076.25-Dec-2020 4794.01 5466.91 64.00 8.00  44.20 2496.73
   20:22:56.276.25-Dec-2020 4794.01 5443.41 64.00 8.00  44.40 2496.73
   20:22:56.476.25-Dec-2020 4794.01 5471.99 64.00 8.00  44.60 2496.73
   20:22:56.676.25-Dec-2020 4794.01 5494.03 64.00 8.00  44.80 2496.73
   20:22:56.876.25-Dec-2020 4794.01 5508.11 64.00 8.00  45.00 2496.73
   20:22:57.076.25-Dec-2020 4794.01 5522.55 64.00 8.00  45.20 2496.73
   20:22:57.276.25-Dec-2020 4794.01 5534.71 64.00 8.00  45.40 2496.73
   20:22:57.476.25-Dec-2020 4794.01 5537.93 64.00 8.00  45.60 2496.73
   20:22:57.676.25-Dec-2020 4794.01 5551.55 64.00 8.00  45.80 2496.73
