~Version Information
 VERS.                  2.0:   CWLS log ASCII Standard -VERSION 2.0
 WRAP.                   NO:   One line per depth step
~Well Information Block
#MNEM.UNIT     VALUE/NAME     DESCRIPTION
#---------     -----------    ---------------------------
 STRT.S             13:36:27 25-Dec-20: START TIME 13:36:27 25-Dec-20
 STOP.S             13:44:49 25-Dec-20: STOP TIME  13:44:49 25-Dec-20
 STEP.S                   0.00: STEP TIME
 NULL.                 -999.25: NULL VALUE
 DFWT.                        :  DIST FWL TEXT
 DFST.                        :  DIST FSL TEXT
 DMF .             Drill Floor:  DRILL MEAS FROM
 STIM.      04.54.24 22-Sep-20:  START TIME
 DATE.      04.54.24 21-Nov-20:  END TIME
 SPUD.               21-Nov-20:  SPUD DATE
 NREF.                    Grid:  NORTH REFERENCE
 HPTY.       Minimum Curvature:  HOLE POS TYPE
 DMOD.             Drill Model:  DRILL MOD DESC
 SVYD.                  Survey:  SURVEY DESC
 ILTD.               Lithology:  INTERP LTH DESC
 FTOP.          Formation Tops:  FORM TOPS DESC
 SON .        AZ-XX-0906571587:  JOB NUMBER
 COMP.     BP Exploration (Caspian Sea) Ltd:  COMPANY
 UWI .                     N/A:  UNIQUE WELL IDENTIFIER
 API .                     N/A:  API NUMBER
 BASE.              Azerbaijan:  LOGGING EQUIPMENT BASE LOCATION
 REGN.                   EESSA:  REGION
 PROV.                    Baku:  PROVINCE
 STAT.                    Baku:  STATE NAME
 CTRY.              Azerbaijan:  COUNTRY NAME
 FLD .                     ACG:  FIELD NAME
 SRVC.     TURAN Drilling & Engineering:  CONTRACTOR
 WELL.                     J27:  WELL NAME
 RIG .             West Chirag:  RIG NAME
 DOE .                     N/A:  DOE NUMBER
 DCON.         Sperry Drilling:  DIRECTNL CONTR
 PDAT.          Mean Sea Level:  PERMANENT DATUM
 WTYP.                Deviated:  WELL TYPE
 MWDS.                    Baku:  MWD SHOP
 JOBN.        AZ-XX-0906571587:  JOB TICKET NUMB
 UNIT.                     N/A:  LOGGING EQUIPMENT ID
 MDS .        Operator Entered:  MAG DATA SOURCE
 CNTY.                        :  COUNTY
 LOC .                        :  LOCATION
 LMF .             Drill Floor:  LOG MEASURED FROM
 TVDS.m                  43.00:  TVDSS CORRECTN
 LATI.deg                40.13:  LATITUDE
 LONG.deg                51.22:  LONGITUDE
 WHNS.m                   7.72:  WELL HEAD N/S
 WHEW.m                 -14.24:  WELL HEAD E/W
 UTMX.m              519005.06:  UTM X
 UTMY.m             4443793.85:  UTM Y
 DFWL.m                   0.00:  DISTANCE FWL
 DFSL.m                   0.00:  DISTANCE FSL
 SDEP.m                 347.00:  START DEPTH
 TDD .m                 581.00:  TOTAL DEPTH (DRILLER)
 VSDR.deg               159.72:  VERT SEC DIRECT
 GVFD.g                   1.00:  GRAVITY FIELD
 MFLD.nT              50318.00:  MAGNETIC FIELD
 MDIP.deg                59.57:  MAGNETIC DIP
 MDEC.deg                 6.44:  MAGNETIC DECL
 GRDC.deg                 0.15:  GRID CORRECTION
 AZTC.deg                 6.29:  AZM TOTAL CORR
 EPD .m                   0.00:  ELEVATION
 EGL .m                   0.00:  GROUND ELEVATION
 WDMS.m                 169.80:  WD ELEV
 APD .m                  43.00:  DEPTH ABOVE PD
 AGAP.m                  43.00:  AIR GAP
 VSEW.m                 -14.24:  VERT SEC E/W
 VSNS.m                   7.72:  VERT SEC N/S
 DEP .m                 342.45:  DEPTH
 EKB .m                   0.00:  KB ELEVATION
 EDF .m                  43.00:  DF ELEVATION
 TDL .m                 237.00:  TOTAL DEPTH (LOGGER)
 VSC .                       0:  VS TO CLOSURE
 MAGU.                 1851428:  MAGUTM CHECKSUM
~Parameter Information Block
#MNEM.UNIT       Value        Description
#---------     -----------    ---------------------------
 AV  .mps                 1.50:  Ann Velocity 
 AVMX.mps                 2.90:  Max Ann Veloc 
 AZIF.deg               115.59:  Azm, Final 
 BHAT.        Rotary Steerable:  BHA Type 
 BROT.°/30m               0.50:  Build Rotating 
 BS  .in                  8.50:  Bit Size 
 BTPL.psig              580.00:  Bit Press Loss 
 CABU.                     Yes:  Customer Abuse 
 COMM.                     lW:  Run Comments 1 
 TCS .hr                 89.79:  Time Ciculation Ended 
 CV  .mps                 3.22:  Crit Velocity 
 CVMX.mps                 4.37:  Max Crit Veloc 
 DD1 .          Rashad Habibov:  Direct Drillr 1 
 DDSV.               Geo-Pilot:  DD Service 
 DEFF.%                  95.00:  % Det Eff 
 DLRX.°/30m               1.94:  Dogleg Rot Max 
 DLSO.°/30m               0.70:  Dogleg Oriented 
 DLSX.°/30m               1.94:  Dogleg Str Max 
 DRET.      04.45.00 25-Dec-20:  Drill End Time 
 DRST.      10.00.00 24-Dec-20:  Drill Start Tim 
 DTIM.hr                 16.64:  Time Drilling 
 EDEP.m                4999.01:  End Depth 
 ENG1.         Elchin Mammadov:  Engineer 1 
 ENG2.          Ruslan Safarov:  Engineer 2 
 ENG3.          Rustam Safarov:  Engineer 3 
 ETIM.      09.00.00 29-Dec-20:  End Time 
 FLOI.gpm               500.00:  Flow In 
 FLON.gpm               400.00:  Flow In Min 
 FLOS.cptm                0.00:  Fluid Loss 
 FLOX.gpm               500.00:  Flow In Max 
 HFLO.                      No:  High Flow 
 HPRE.                      No:  High Pressure 
 HTEM.                      No:  High Temp 
 HYDO.m                   2.00:  Hydro Offset 
 IFIN.deg                66.79:  Inc, Final 
 IMAX.deg                67.66:  Inc Max 
 IMIN.deg                66.39:  Inc Min 
 IMND.m                4949.37:  Inc Min Depth 
 IMXD.m                4778.63:  Inc Max Depth 
 JARR.                     Yes:  Jarring 
 LETM.      04.45.00 25-Dec-20:  Log End Time 
 LOST.hr                     0:  Lost Rig Time 
 LSTM.      10.00.00 24-Dec-20:  Log Start Time 
 MDCL.ppm             39000.00:  Mud Chlorides 
 MDES.     Inversion Oil/Synthetic:  Mud Desc 
 DFD .sg                  1.33:  Mud Density 
 MDMN.sg                  1.33:  Dens Mud Min 
 MDMX.sg                  1.33:  Dens Mud Max 
 MOIL.                      70:  Run Mud Oil % 
 MOWR.                   70:30:  Run Mud OWR 
 MSND.                       0:  Run Mud Sand % 
 MSOL.                    17.4:  Run Mud Solids% 
 DFV .spqt               84.00:  Mud Viscosity 
 MWOD.in                  6.75:  MWD Tool OD 
 MWSI.                     Yes:  Serv Intrp, MWD 
 OTIM.hr                168.14:  Time Operating 
 PCON.           Look Like New:  Pad Condition 
 PMAX.psia            10822.93:  Press Op, Max 
 PV  .cP                 30.00:  Mud PV 
 RUN .                     900:  Run Number 
 ROPA.m/hr               18.00:  ROP Avg 
 ROPN.m/hr               12.00:  ROP Min 
 ROPX.m/hr               25.00:  ROP Max 
 RPMA.rpm               120.00:  RPM Surface Avg 
 RPMN.rpm               100.00:  RPM Surface Min 
 RPMX.rpm               120.00:  RPM Surface Max 
 RRUN.                    0900:  Rig Run Number 
 SAZI.deg               115.08:  Azm, Start 
 SDEP.m                4762.01:  Start Depth 
 SIDD.                      No:  Serv Intrp, DD 
 SINC.deg                66.14:  Inc, Start 
 SPPA.psig             3700.00:  SPP Avg 
 SPPN.psig             3620.00:  SPP Min 
 SPPX.psig             3900.00:  SPP Max 
 STIM.      09.30.00 22-Dec-20:  Start Time 
 SVCS.                 DD, MWD:  Services 
 SVER.                    9.20:  Sperry Version 
 TDAT.m                 237.00:  Tot Depth Attmp 
 TDDF.                      No:  Trip for DD 
 TDLG.m                 237.00:  Tot Depth Loggd 
 TFF .                      No:  Trip for Fail 
 TQAA.f-kp               18.00:  Torque Abs Avg 
 TQAN.f-kp               17.00:  Torque Abs Min 
 TQAX.f-kp               20.00:  Torque Abs Max 
 TRRT.°/30m               0.60:  Turn Rotating 
 MRT .                    HCIM:  Maximum Recorded Temperature 
 TTMX.degC               94.12:  Max Tool Temp 
 VS01.                90627809:  Virtual Str1 SN 
 VS02.                90527813:  Virtual Str2 SN 
 VS03.                90545417:  Virtual Str3 SN 
 VS04.                12460870:  Virtual Str4 SN 
 VS05.                90516706:  Virtual Str5 SN 
 VS06.                90632007:  Virtual Str6 SN 
 WBMN.klb                 0.00:  WOB Min 
 WOBA.klb                14.00:  WOB Avg 
 WOBX.klb                25.00:  WOB Max 
 YP  .lhf2               32.00:  Yield Point 
~Curve Information Block
#MNEM.UNIT                 API CODE     Curve Description
#---------               -----------    ---------------------------
 TIME.HHMMSS            00 000 000 000:  GT Time & Date
 GTDEPTH.m              00 000 000 000:  GT Depth
 GTPQH.psia             00 000 000 000:  GT HR Quartz Pressure
 GTTQ.degC              00 000 000 000:  GT Quartz Temperature
 GTTN.NONE              00 000 000 000:  GT Test Number
 GTET.sec               00 000 000 000:  GT Elapsed Test Time
 GTTVD.m                00 000 000 000:  GT True Vertical Depth
#Other Information
#
#WARRANTY: Halliburton will use its best efforts to furnish customers with 
#accurate information and interpretations that are part of, and incident to, the services 
#provided.  However, Halliburton cannot and does not warrant the accuracy 
#or correctness of such information and interpretations.  Under no circumstances should any 
#such information or interpretation be relied upon as the sole basis for any drilling, 
#completion, production, or financial decision or any procedure involving any risk to the 
#safety of any drilling venture, drilling rig or its crew or any other third party.  The 
#Customer has full responsibility for all drilling, completion and production operation.  
#Halliburton makes no representations or warranties, either expressed or 
#implied, including, but not limited to, the implied warranties of merchantability or fitness 
#for a particular purpose, with respect to the services rendered.  In no event will 
#Halliburton be liable for failure to obtain any particular results or for 
#any damages, including, but not limited to, indirect, special or consequential damages, 
#resulting from the use of any information or interpretation provided by Halliburton.
#
~A           TIME           GTDEPTH  GTPQH  GTTQ  GTTN  GTET   GTTVD  
# ...
   13:39:08.000.25-Dec-2020 4921.01  179.95 66.26 2.00 161.00 2546.48
   13:39:08.200.25-Dec-2020 4921.01  179.95 66.26 2.00 161.20 2546.48
   13:39:08.400.25-Dec-2020 4921.01  180.36 66.26 2.00 161.40 2546.48
   13:39:08.600.25-Dec-2020 4921.01  180.46 66.26 2.00 161.60 2546.48
   13:39:08.800.25-Dec-2020 4921.01  180.60 66.26 2.00 161.80 2546.48
   13:39:09.000.25-Dec-2020 4921.01  180.86 66.26 2.00 162.00 2546.48
   13:39:09.200.25-Dec-2020 4921.01  180.99 66.26 2.00 162.20 2546.48
   13:39:09.400.25-Dec-2020 4921.01  181.10 66.26 2.00 162.40 2546.48
   13:39:09.600.25-Dec-2020 4921.01  181.38 66.26 2.00 162.60 2546.48
   13:39:09.800.25-Dec-2020 4921.01  181.52 66.26 2.00 162.80 2546.48
   13:39:10.000.25-Dec-2020 4921.01  181.70 66.26 2.00 163.00 2546.48
   13:39:10.200.25-Dec-2020 4921.01  181.86 66.26 2.00 163.20 2546.48
   13:39:10.400.25-Dec-2020 4921.01  182.03 66.26 2.00 163.40 2546.48
   13:39:10.600.25-Dec-2020 4921.01  182.19 66.26 2.00 163.60 2546.48
   13:39:10.800.25-Dec-2020 4921.01  182.35 66.26 2.00 163.80 2546.48
   13:39:11.000.25-Dec-2020 4921.01  182.51 66.26 2.00 164.00 2546.48
   13:39:11.200.25-Dec-2020 4921.01  182.51 66.26 2.00 164.20 2546.48
   13:39:11.400.25-Dec-2020 4921.01  182.82 66.26 2.00 164.40 2546.48
   13:39:11.600.25-Dec-2020 4921.01  182.98 66.26 2.00 164.60 2546.48
   13:39:11.800.25-Dec-2020 4921.01  183.12 66.26 2.00 164.80 2546.48
   13:39:12.000.25-Dec-2020 4921.01  183.32 66.26 2.00 165.00 2546.48
   13:39:12.200.25-Dec-2020 4921.01  183.32 66.26 2.00 165.20 2546.48
   13:39:12.400.25-Dec-2020 4921.01  183.68 66.26 2.00 165.40 2546.48
   13:39:12.600.25-Dec-2020 4921.01  183.82 66.26 2.00 165.60 2546.48
   13:39:12.800.25-Dec-2020 4921.01  184.00 66.26 2.00 165.80 2546.48
   13:39:13.000.25-Dec-2020 4921.01  184.22 66.26 2.00 166.00 2546.48
   13:39:13.200.25-Dec-2020 4921.01  184.40 66.26 2.00 166.20 2546.48
   13:39:13.400.25-Dec-2020 4921.01  184.57 66.26 2.00 166.40 2546.48
   13:39:13.600.25-Dec-2020 4921.01  184.75 66.26 2.00 166.60 2546.48
   13:39:13.800.25-Dec-2020 4921.01  184.92 66.26 2.00 166.80 2546.48
   13:39:14.000.25-Dec-2020 4921.01  185.09 66.26 2.00 167.00 2546.48
   13:39:14.200.25-Dec-2020 4921.01  185.25 66.26 2.00 167.20 2546.48
   13:39:14.400.25-Dec-2020 4921.01  185.43 66.26 2.00 167.40 2546.48
   13:39:14.600.25-Dec-2020 4921.01  185.66 66.26 2.00 167.60 2546.48
   13:39:14.800.25-Dec-2020 4921.01  185.81 66.26 2.00 167.80 2546.48
   13:39:15.000.25-Dec-2020 4921.01  185.94 66.26 2.00 168.00 2546.48
   13:39:15.200.25-Dec-2020 4921.01  185.94 66.26 2.00 168.20 2546.48
   13:39:15.400.25-Dec-2020 4921.01  186.30 66.26 2.00 168.40 2546.48
   13:39:15.600.25-Dec-2020 4921.01  186.58 66.26 2.00 168.60 2546.48
   13:39:15.800.25-Dec-2020 4921.01  186.74 66.26 2.00 168.80 2546.48
   13:39:16.000.25-Dec-2020 4921.01  186.85 66.26 2.00 169.00 2546.48
   13:39:16.200.25-Dec-2020 4921.01  186.85 66.26 2.00 169.20 2546.48
   13:39:16.400.25-Dec-2020 4921.01  187.26 66.26 2.00 169.40 2546.48
   13:39:16.600.25-Dec-2020 4921.01  187.38 66.26 2.00 169.60 2546.48
   13:39:16.800.25-Dec-2020 4921.01  187.64 66.26 2.00 169.80 2546.48
   13:39:17.000.25-Dec-2020 4921.01  187.77 66.26 2.00 170.00 2546.48
   13:39:17.200.25-Dec-2020 4921.01  187.92 66.26 2.00 170.20 2546.48
   13:39:17.400.25-Dec-2020 4921.01  188.08 66.25 2.00 170.40 2546.48
   13:39:17.600.25-Dec-2020 4921.01  188.24 66.26 2.00 170.60 2546.48
   13:39:17.800.25-Dec-2020 4921.01  188.39 66.26 2.00 170.80 2546.48
   13:39:18.000.25-Dec-2020 4921.01  188.54 66.26 2.00 171.00 2546.48
   13:39:18.200.25-Dec-2020 4921.01  188.69 66.26 2.00 171.20 2546.48
   13:39:18.400.25-Dec-2020 4921.01  188.84 66.25 2.00 171.40 2546.48
   13:39:18.600.25-Dec-2020 4921.01  189.00 66.26 2.00 171.60 2546.48
   13:39:18.800.25-Dec-2020 4921.01  189.15 66.26 2.00 171.80 2546.48
   13:39:19.000.25-Dec-2020 4921.01  189.26 66.25 2.00 172.00 2546.48
   13:39:19.200.25-Dec-2020 4921.01  189.26 66.25 2.00 172.20 2546.48
   13:39:19.400.25-Dec-2020 4921.01  189.63 66.26 2.00 172.40 2546.48
   13:39:19.600.25-Dec-2020 4921.01  189.77 66.25 2.00 172.60 2546.48
   13:39:19.800.25-Dec-2020 4921.01  189.92 66.25 2.00 172.80 2546.48
   13:39:20.000.25-Dec-2020 4921.01  190.04 66.25 2.00 173.00 2546.48
   13:39:20.200.25-Dec-2020 4921.01  190.04 66.25 2.00 173.20 2546.48
   13:39:20.400.25-Dec-2020 4921.01  190.34 66.25 2.00 173.40 2546.48
   13:39:20.600.25-Dec-2020 4921.01  190.47 66.25 2.00 173.60 2546.48
   13:39:20.800.25-Dec-2020 4921.01  190.61 66.25 2.00 173.80 2546.48
   13:39:21.000.25-Dec-2020 4921.01  190.76 66.25 2.00 174.00 2546.48
   13:39:21.200.25-Dec-2020 4921.01  190.88 66.25 2.00 174.20 2546.48
   13:39:21.400.25-Dec-2020 4921.01  191.00 66.25 2.00 174.40 2546.48
   13:39:21.600.25-Dec-2020 4921.01  191.25 66.25 2.00 174.60 2546.48
   13:39:21.800.25-Dec-2020 4921.01  191.37 66.25 2.00 174.80 2546.48
   13:39:22.000.25-Dec-2020 4921.01  191.51 66.25 2.00 175.00 2546.48
   13:39:22.200.25-Dec-2020 4921.01  191.51 66.25 2.00 175.20 2546.48
   13:39:22.400.25-Dec-2020 4921.01  191.78 66.25 2.00 175.40 2546.48
   13:39:22.600.25-Dec-2020 4921.01  191.95 66.25 2.00 175.60 2546.48
   13:39:22.800.25-Dec-2020 4921.01  192.15 66.25 2.00 175.80 2546.48
   13:39:23.000.25-Dec-2020 4921.01  192.28 66.25 2.00 176.00 2546.48
   13:39:23.200.25-Dec-2020 4921.01  192.28 66.25 2.00 176.20 2546.48
   13:39:23.400.25-Dec-2020 4921.01  192.64 66.25 2.00 176.40 2546.48
   13:39:23.600.25-Dec-2020 4921.01  192.78 66.25 2.00 176.60 2546.48
   13:39:23.800.25-Dec-2020 4921.01  192.89 66.25 2.00 176.80 2546.48
   13:39:24.000.25-Dec-2020 4921.01  193.16 66.25 2.00 177.00 2546.48
   13:39:24.200.25-Dec-2020 4921.01  193.16 66.25 2.00 177.20 2546.48
   13:39:24.400.25-Dec-2020 4921.01  193.46 66.25 2.00 177.40 2546.48
   13:39:24.600.25-Dec-2020 4921.01  193.60 66.25 2.00 177.60 2546.48
   13:39:24.800.25-Dec-2020 4921.01  193.75 66.25 2.00 177.80 2546.48
   13:39:25.000.25-Dec-2020 4921.01  193.91 66.25 2.00 178.00 2546.48
   13:39:25.200.25-Dec-2020 4921.01  193.91 66.25 2.00 178.20 2546.48
   13:39:25.400.25-Dec-2020 4921.01  194.23 66.25 2.00 178.40 2546.48
   13:39:25.600.25-Dec-2020 4921.01  194.37 66.25 2.00 178.60 2546.48
   13:39:25.800.25-Dec-2020 4921.01  194.55 66.25 2.00 178.80 2546.48
   13:39:26.000.25-Dec-2020 4921.01  194.76 66.25 2.00 179.00 2546.48
   13:39:26.200.25-Dec-2020 4921.01  194.94 66.25 2.00 179.20 2546.48
   13:39:26.400.25-Dec-2020 4921.01  195.16 66.25 2.00 179.40 2546.48
   13:39:26.600.25-Dec-2020 4921.01  195.36 66.25 2.00 179.60 2546.48
   13:39:26.800.25-Dec-2020 4921.01  195.53 66.25 2.00 179.80 2546.48
   13:39:27.000.25-Dec-2020 4921.01  195.68 66.25 2.00 180.00 2546.48
   13:39:27.200.25-Dec-2020 4921.01  195.68 66.25 2.00 180.20 2546.48
   13:39:27.400.25-Dec-2020 4921.01  196.01 66.25 2.00 180.40 2546.48
   13:39:27.600.25-Dec-2020 4921.01  196.17 66.25 2.00 180.60 2546.48
   13:39:27.800.25-Dec-2020 4921.01  196.33 66.25 2.00 180.80 2546.48
   13:39:28.000.25-Dec-2020 4921.01  196.48 66.25 2.00 181.00 2546.48
   13:39:28.200.25-Dec-2020 4921.01  196.48 66.25 2.00 181.20 2546.48
   13:39:28.400.25-Dec-2020 4921.01  196.78 66.25 2.00 181.40 2546.48
   13:39:28.600.25-Dec-2020 4921.01  194.12 66.25 2.00 181.60 2546.48
   13:39:28.800.25-Dec-2020 4921.01  175.62 66.25 2.00 181.80 2546.48
   13:39:29.000.25-Dec-2020 4921.01  156.92 66.25 2.00 182.00 2546.48
   13:39:29.200.25-Dec-2020 4921.01  142.19 66.25 2.00 182.20 2546.48
   13:39:29.400.25-Dec-2020 4921.01  130.62 66.25 2.00 182.40 2546.48
   13:39:29.600.25-Dec-2020 4921.01  121.10 66.25 2.00 182.60 2546.48
   13:39:29.800.25-Dec-2020 4921.01  112.85 66.25 2.00 182.80 2546.48
   13:39:30.000.25-Dec-2020 4921.01  106.01 66.25 2.00 183.00 2546.48
   13:39:30.200.25-Dec-2020 4921.01  100.23 66.25 2.00 183.20 2546.48
   13:39:30.400.25-Dec-2020 4921.01   94.87 66.25 2.00 183.40 2546.48
   13:39:30.600.25-Dec-2020 4921.01   90.23 66.25 2.00 183.60 2546.48
   13:39:30.800.25-Dec-2020 4921.01   86.04 66.25 2.00 183.80 2546.48
