~Version Information
 VERS.                  2.0:   CWLS log ASCII Standard -VERSION 2.0
 WRAP.                   NO:   One line per depth step
~Well Information Block
#MNEM.UNIT     VALUE/NAME     DESCRIPTION
#---------     -----------    ---------------------------
 STRT.S             12:53:37 25-Dec-20: START TIME 12:53:37 25-Dec-20
 STOP.S             13:01:52 25-Dec-20: STOP TIME  13:01:52 25-Dec-20
 STEP.S                   0.00: STEP TIME
 NULL.                 -999.25: NULL VALUE
 DFWT.                        :  DIST FWL TEXT
 DFST.                        :  DIST FSL TEXT
 DMF .             Drill Floor:  DRILL MEAS FROM
 STIM.      04.54.24 22-Sep-20:  START TIME
 DATE.      04.54.24 21-Nov-20:  END TIME
 SPUD.               21-Nov-20:  SPUD DATE
 NREF.                    Grid:  NORTH REFERENCE
 HPTY.       Minimum Curvature:  HOLE POS TYPE
 DMOD.             Drill Model:  DRILL MOD DESC
 SVYD.                  Survey:  SURVEY DESC
 ILTD.               Lithology:  INTERP LTH DESC
 FTOP.          Formation Tops:  FORM TOPS DESC
 SON .        AZ-XX-0906571587:  JOB NUMBER
 COMP.     BP Exploration (Caspian Sea) Ltd:  COMPANY
 UWI .                     N/A:  UNIQUE WELL IDENTIFIER
 API .                     N/A:  API NUMBER
 BASE.              Azerbaijan:  LOGGING EQUIPMENT BASE LOCATION
 REGN.                   EESSA:  REGION
 PROV.                    Baku:  PROVINCE
 STAT.                    Baku:  STATE NAME
 CTRY.              Azerbaijan:  COUNTRY NAME
 FLD .                     ACG:  FIELD NAME
 SRVC.     TURAN Drilling & Engineering:  CONTRACTOR
 WELL.                     J27:  WELL NAME
 RIG .             West Chirag:  RIG NAME
 DOE .                     N/A:  DOE NUMBER
 DCON.         Sperry Drilling:  DIRECTNL CONTR
 PDAT.          Mean Sea Level:  PERMANENT DATUM
 WTYP.                Deviated:  WELL TYPE
 MWDS.                    Baku:  MWD SHOP
 JOBN.        AZ-XX-0906571587:  JOB TICKET NUMB
 UNIT.                     N/A:  LOGGING EQUIPMENT ID
 MDS .        Operator Entered:  MAG DATA SOURCE
 CNTY.                        :  COUNTY
 LOC .                        :  LOCATION
 LMF .             Drill Floor:  LOG MEASURED FROM
 TVDS.m                  43.00:  TVDSS CORRECTN
 LATI.deg                40.13:  LATITUDE
 LONG.deg                51.22:  LONGITUDE
 WHNS.m                   7.72:  WELL HEAD N/S
 WHEW.m                 -14.24:  WELL HEAD E/W
 UTMX.m              519005.06:  UTM X
 UTMY.m             4443793.85:  UTM Y
 DFWL.m                   0.00:  DISTANCE FWL
 DFSL.m                   0.00:  DISTANCE FSL
 SDEP.m                 347.00:  START DEPTH
 TDD .m                 581.00:  TOTAL DEPTH (DRILLER)
 VSDR.deg               159.72:  VERT SEC DIRECT
 GVFD.g                   1.00:  GRAVITY FIELD
 MFLD.nT              50318.00:  MAGNETIC FIELD
 MDIP.deg                59.57:  MAGNETIC DIP
 MDEC.deg                 6.44:  MAGNETIC DECL
 GRDC.deg                 0.15:  GRID CORRECTION
 AZTC.deg                 6.29:  AZM TOTAL CORR
 EPD .m                   0.00:  ELEVATION
 EGL .m                   0.00:  GROUND ELEVATION
 WDMS.m                 169.80:  WD ELEV
 APD .m                  43.00:  DEPTH ABOVE PD
 AGAP.m                  43.00:  AIR GAP
 VSEW.m                 -14.24:  VERT SEC E/W
 VSNS.m                   7.72:  VERT SEC N/S
 DEP .m                 342.45:  DEPTH
 EKB .m                   0.00:  KB ELEVATION
 EDF .m                  43.00:  DF ELEVATION
 TDL .m                 237.00:  TOTAL DEPTH (LOGGER)
 VSC .                       0:  VS TO CLOSURE
 MAGU.                 1851428:  MAGUTM CHECKSUM
~Parameter Information Block
#MNEM.UNIT       Value        Description
#---------     -----------    ---------------------------
 AV  .mps                 1.50:  Ann Velocity 
 AVMX.mps                 2.90:  Max Ann Veloc 
 AZIF.deg               115.59:  Azm, Final 
 BHAT.        Rotary Steerable:  BHA Type 
 BROT.°/30m               0.50:  Build Rotating 
 BS  .in                  8.50:  Bit Size 
 BTPL.psig              580.00:  Bit Press Loss 
 CABU.                     Yes:  Customer Abuse 
 COMM.                     LÓw:  Run Comments 1 
 TCS .hr                 89.79:  Time Ciculation Ended 
 CV  .mps                 3.22:  Crit Velocity 
 CVMX.mps                 4.37:  Max Crit Veloc 
 DD1 .          Rashad Habibov:  Direct Drillr 1 
 DDSV.               Geo-Pilot:  DD Service 
 DEFF.%                  95.00:  % Det Eff 
 DLRX.°/30m               1.94:  Dogleg Rot Max 
 DLSO.°/30m               0.70:  Dogleg Oriented 
 DLSX.°/30m               1.94:  Dogleg Str Max 
 DRET.      04.45.00 25-Dec-20:  Drill End Time 
 DRST.      10.00.00 24-Dec-20:  Drill Start Tim 
 DTIM.hr                 16.64:  Time Drilling 
 EDEP.m                4999.01:  End Depth 
 ENG1.         Elchin Mammadov:  Engineer 1 
 ENG2.          Ruslan Safarov:  Engineer 2 
 ENG3.          Rustam Safarov:  Engineer 3 
 ETIM.      09.00.00 29-Dec-20:  End Time 
 FLOI.gpm               500.00:  Flow In 
 FLON.gpm               400.00:  Flow In Min 
 FLOS.cptm                0.00:  Fluid Loss 
 FLOX.gpm               500.00:  Flow In Max 
 HFLO.                      No:  High Flow 
 HPRE.                      No:  High Pressure 
 HTEM.                      No:  High Temp 
 HYDO.m                   2.00:  Hydro Offset 
 IFIN.deg                66.79:  Inc, Final 
 IMAX.deg                67.66:  Inc Max 
 IMIN.deg                66.39:  Inc Min 
 IMND.m                4949.37:  Inc Min Depth 
 IMXD.m                4778.63:  Inc Max Depth 
 JARR.                     Yes:  Jarring 
 LETM.      04.45.00 25-Dec-20:  Log End Time 
 LOST.hr                     0:  Lost Rig Time 
 LSTM.      10.00.00 24-Dec-20:  Log Start Time 
 MDCL.ppm             39000.00:  Mud Chlorides 
 MDES.     Inversion Oil/Synthetic:  Mud Desc 
 DFD .sg                  1.33:  Mud Density 
 MDMN.sg                  1.33:  Dens Mud Min 
 MDMX.sg                  1.33:  Dens Mud Max 
 MOIL.                      70:  Run Mud Oil % 
 MOWR.                   70:30:  Run Mud OWR 
 MSND.                       0:  Run Mud Sand % 
 MSOL.                    17.4:  Run Mud Solids% 
 DFV .spqt               84.00:  Mud Viscosity 
 MWOD.in                  6.75:  MWD Tool OD 
 MWSI.                     Yes:  Serv Intrp, MWD 
 OTIM.hr                168.14:  Time Operating 
 PCON.           Look Like New:  Pad Condition 
 PMAX.psia            10822.93:  Press Op, Max 
 PV  .cP                 30.00:  Mud PV 
 RUN .                     900:  Run Number 
 ROPA.m/hr               18.00:  ROP Avg 
 ROPN.m/hr               12.00:  ROP Min 
 ROPX.m/hr               25.00:  ROP Max 
 RPMA.rpm               120.00:  RPM Surface Avg 
 RPMN.rpm               100.00:  RPM Surface Min 
 RPMX.rpm               120.00:  RPM Surface Max 
 RRUN.                    0900:  Rig Run Number 
 SAZI.deg               115.08:  Azm, Start 
 SDEP.m                4762.01:  Start Depth 
 SIDD.                      No:  Serv Intrp, DD 
 SINC.deg                66.14:  Inc, Start 
 SPPA.psig             3700.00:  SPP Avg 
 SPPN.psig             3620.00:  SPP Min 
 SPPX.psig             3900.00:  SPP Max 
 STIM.      09.30.00 22-Dec-20:  Start Time 
 SVCS.                 DD, MWD:  Services 
 SVER.                    9.20:  Sperry Version 
 TDAT.m                 237.00:  Tot Depth Attmp 
 TDDF.                      No:  Trip for DD 
 TDLG.m                 237.00:  Tot Depth Loggd 
 TFF .                      No:  Trip for Fail 
 TQAA.f-kp               18.00:  Torque Abs Avg 
 TQAN.f-kp               17.00:  Torque Abs Min 
 TQAX.f-kp               20.00:  Torque Abs Max 
 TRRT.°/30m               0.60:  Turn Rotating 
 MRT .                    HCIM:  Maximum Recorded Temperature 
 TTMX.degC               94.12:  Max Tool Temp 
 VS01.                90627809:  Virtual Str1 SN 
 VS02.                90527813:  Virtual Str2 SN 
 VS03.                90545417:  Virtual Str3 SN 
 VS04.                12460870:  Virtual Str4 SN 
 VS05.                90516706:  Virtual Str5 SN 
 VS06.                90632007:  Virtual Str6 SN 
 WBMN.klb                 0.00:  WOB Min 
 WOBA.klb                14.00:  WOB Avg 
 WOBX.klb                25.00:  WOB Max 
 YP  .lhf2               32.00:  Yield Point 
~Curve Information Block
#MNEM.UNIT                 API CODE     Curve Description
#---------               -----------    ---------------------------
 TIME.HHMMSS            00 000 000 000:  GT Time & Date
 GTDEPTH.m              00 000 000 000:  GT Depth
 GTPQH.psia             00 000 000 000:  GT HR Quartz Pressure
 GTTQ.degC              00 000 000 000:  GT Quartz Temperature
 GTTN.NONE              00 000 000 000:  GT Test Number
 GTET.sec               00 000 000 000:  GT Elapsed Test Time
 GTTVD.m                00 000 000 000:  GT True Vertical Depth
#Other Information
#
#WARRANTY: Halliburton will use its best efforts to furnish customers with 
#accurate information and interpretations that are part of, and incident to, the services 
#provided.  However, Halliburton cannot and does not warrant the accuracy 
#or correctness of such information and interpretations.  Under no circumstances should any 
#such information or interpretation be relied upon as the sole basis for any drilling, 
#completion, production, or financial decision or any procedure involving any risk to the 
#safety of any drilling venture, drilling rig or its crew or any other third party.  The 
#Customer has full responsibility for all drilling, completion and production operation.  
#Halliburton makes no representations or warranties, either expressed or 
#implied, including, but not limited to, the implied warranties of merchantability or fitness 
#for a particular purpose, with respect to the services rendered.  In no event will 
#Halliburton be liable for failure to obtain any particular results or for 
#any damages, including, but not limited to, indirect, special or consequential damages, 
#resulting from the use of any information or interpretation provided by Halliburton.
#
~A           TIME           GTDEPTH  GTPQH  GTTQ  GTTN  GTET   GTTVD  
# ...
   12:59:22.340.25-Dec-2020 4950.51 2089.92 66.58 1.00 345.16 2558.08
   12:59:22.540.25-Dec-2020 4950.51 2089.92 66.58 1.00 345.36 2558.08
   12:59:22.740.25-Dec-2020 4950.51 2090.32 66.58 1.00 345.56 2558.08
   12:59:22.940.25-Dec-2020 4950.51 2090.20 66.58 1.00 345.76 2558.08
   12:59:23.141.25-Dec-2020 4950.51 2089.97 66.58 1.00 345.96 2558.08
   12:59:23.341.25-Dec-2020 4950.51 2089.63 66.58 1.00 346.16 2558.08
   12:59:23.541.25-Dec-2020 4950.51 2089.63 66.58 1.00 346.36 2558.08
   12:59:23.741.25-Dec-2020 4950.51 2089.90 66.58 1.00 346.56 2558.08
   12:59:23.941.25-Dec-2020 4950.51 2090.46 66.58 1.00 346.76 2558.08
   12:59:24.141.25-Dec-2020 4950.51 2089.97 66.58 1.00 346.96 2558.08
   12:59:24.341.25-Dec-2020 4950.51 2089.92 66.58 1.00 347.16 2558.08
   12:59:24.541.25-Dec-2020 4950.51 2089.92 66.58 1.00 347.36 2558.08
   12:59:24.741.25-Dec-2020 4950.51 2089.82 66.58 1.00 347.56 2558.08
   12:59:24.941.25-Dec-2020 4950.51 2090.47 66.58 1.00 347.76 2558.08
   12:59:25.141.25-Dec-2020 4950.51 2090.32 66.58 1.00 347.96 2558.08
   12:59:25.342.25-Dec-2020 4950.51 2090.04 66.58 1.00 348.16 2558.08
   12:59:25.542.25-Dec-2020 4950.51 2090.04 66.58 1.00 348.36 2558.08
   12:59:25.742.25-Dec-2020 4950.51 2090.24 66.58 1.00 348.56 2558.08
   12:59:25.942.25-Dec-2020 4950.51 2090.24 66.58 1.00 348.76 2558.08
   12:59:26.142.25-Dec-2020 4950.51 2090.21 66.58 1.00 348.96 2558.08
   12:59:26.342.25-Dec-2020 4950.51 2090.08 66.58 1.00 349.16 2558.08
   12:59:26.542.25-Dec-2020 4950.51 2090.08 66.58 1.00 349.36 2558.08
   12:59:26.742.25-Dec-2020 4950.51 2090.20 66.58 1.00 349.56 2558.08
   12:59:26.942.25-Dec-2020 4950.51 2089.62 66.58 1.00 349.76 2558.08
   12:59:27.142.25-Dec-2020 4950.51 2090.59 66.58 1.00 349.96 2558.08
   12:59:27.342.25-Dec-2020 4950.51 2090.39 66.58 1.00 350.16 2558.08
   12:59:27.542.25-Dec-2020 4950.51 2090.39 66.58 1.00 350.36 2558.08
   12:59:27.743.25-Dec-2020 4950.51 2090.22 66.58 1.00 350.56 2558.08
   12:59:27.943.25-Dec-2020 4950.51 2090.31 66.58 1.00 350.76 2558.08
   12:59:28.143.25-Dec-2020 4950.51 2090.44 66.58 1.00 350.96 2558.08
   12:59:28.343.25-Dec-2020 4950.51 2090.34 66.58 1.00 351.16 2558.08
   12:59:28.543.25-Dec-2020 4950.51 2090.34 66.58 1.00 351.36 2558.08
   12:59:28.743.25-Dec-2020 4950.51 2090.26 66.58 1.00 351.56 2558.08
   12:59:28.943.25-Dec-2020 4950.51 2090.29 66.58 1.00 351.76 2558.08
   12:59:29.143.25-Dec-2020 4950.51 2090.39 66.58 1.00 351.96 2558.08
   12:59:29.343.25-Dec-2020 4950.51 2089.74 66.58 1.00 352.16 2558.08
   12:59:29.543.25-Dec-2020 4950.51 2089.74 66.58 1.00 352.36 2558.08
   12:59:29.743.25-Dec-2020 4950.51 2090.38 66.58 1.00 352.56 2558.08
   12:59:29.944.25-Dec-2020 4950.51 2090.56 66.58 1.00 352.76 2558.08
   12:59:30.144.25-Dec-2020 4950.51 2089.75 66.58 1.00 352.96 2558.08
   12:59:30.344.25-Dec-2020 4950.51 2090.73 66.58 1.00 353.16 2558.08
   12:59:30.544.25-Dec-2020 4950.51 2090.73 66.58 1.00 353.36 2558.08
   12:59:30.744.25-Dec-2020 4950.51 2090.25 66.58 1.00 353.56 2558.08
   12:59:30.944.25-Dec-2020 4950.51 2090.60 66.58 1.00 353.76 2558.08
   12:59:31.144.25-Dec-2020 4950.51 2090.07 66.58 1.00 353.96 2558.08
   12:59:31.344.25-Dec-2020 4950.51 2090.85 66.58 1.00 354.16 2558.08
   12:59:31.544.25-Dec-2020 4950.51 2090.85 66.58 1.00 354.36 2558.08
   12:59:31.744.25-Dec-2020 4950.51 2090.74 66.58 1.00 354.56 2558.08
   12:59:31.944.25-Dec-2020 4950.51 2090.53 66.58 1.00 354.76 2558.08
   12:59:32.145.25-Dec-2020 4950.51 2090.52 66.58 1.00 354.96 2558.08
   12:59:32.345.25-Dec-2020 4950.51 2090.49 66.58 1.00 355.16 2558.08
   12:59:32.545.25-Dec-2020 4950.51 2090.49 66.58 1.00 355.36 2558.08
   12:59:32.745.25-Dec-2020 4950.51 2090.49 66.58 1.00 355.56 2558.08
   12:59:32.945.25-Dec-2020 4950.51 2090.42 66.58 1.00 355.76 2558.08
   12:59:33.145.25-Dec-2020 4950.51 2090.45 66.58 1.00 355.96 2558.08
   12:59:33.345.25-Dec-2020 4950.51 2090.46 66.58 1.00 356.16 2558.08
   12:59:33.545.25-Dec-2020 4950.51 2090.46 66.58 1.00 356.36 2558.08
   12:59:33.745.25-Dec-2020 4950.51 2089.85 66.58 1.00 356.56 2558.08
   12:59:33.945.25-Dec-2020 4950.51 2090.78 66.58 1.00 356.76 2558.08
   12:59:34.145.25-Dec-2020 4950.51 2090.68 66.58 1.00 356.96 2558.08
   12:59:34.346.25-Dec-2020 4950.51 2090.54 66.58 1.00 357.16 2558.08
   12:59:34.546.25-Dec-2020 4950.51 2090.54 66.58 1.00 357.36 2558.08
   12:59:34.746.25-Dec-2020 4950.51 2090.55 66.58 1.00 357.56 2558.08
   12:59:34.946.25-Dec-2020 4950.51 2090.61 66.58 1.00 357.76 2558.08
   12:59:35.146.25-Dec-2020 4950.51 2090.57 66.58 1.00 357.96 2558.08
   12:59:35.346.25-Dec-2020 4950.51 2090.55 66.58 1.00 358.16 2558.08
   12:59:35.546.25-Dec-2020 4950.51 2090.55 66.58 1.00 358.36 2558.08
   12:59:35.746.25-Dec-2020 4950.51 2090.58 66.58 1.00 358.56 2558.08
   12:59:35.946.25-Dec-2020 4950.51 2090.63 66.58 1.00 358.76 2558.08
   12:59:36.146.25-Dec-2020 4950.51 2090.08 66.58 1.00 358.96 2558.08
   12:59:36.346.25-Dec-2020 4950.51 2090.89 66.58 1.00 359.16 2558.08
   12:59:36.547.25-Dec-2020 4950.51 2090.89 66.58 1.00 359.36 2558.08
   12:59:36.747.25-Dec-2020 4950.51 2090.82 66.58 1.00 359.56 2558.08
   12:59:36.947.25-Dec-2020 4950.51 2090.06 66.58 1.00 359.76 2558.08
   12:59:37.147.25-Dec-2020 4950.51 2090.98 66.58 1.00 359.96 2558.08
   12:59:37.347.25-Dec-2020 4950.51 2090.60 66.58 1.00 360.16 2558.08
   12:59:37.547.25-Dec-2020 4950.51 2090.60 66.58 1.00 360.36 2558.08
   12:59:37.747.25-Dec-2020 4950.51 2090.76 66.58 1.00 360.56 2558.08
   12:59:37.947.25-Dec-2020 4950.51 2090.65 66.58 1.00 360.76 2558.08
   12:59:38.147.25-Dec-2020 4950.51 2090.25 66.58 1.00 360.96 2558.08
   12:59:38.347.25-Dec-2020 4950.51 2091.05 66.58 1.00 361.16 2558.08
   12:59:38.547.25-Dec-2020 4950.51 2091.05 66.58 1.00 361.36 2558.08
   12:59:38.748.25-Dec-2020 4950.51 2090.77 66.58 1.00 361.56 2558.08
   12:59:38.948.25-Dec-2020 4950.51 2090.66 66.58 1.00 361.76 2558.08
   12:59:39.148.25-Dec-2020 4950.51 2090.80 66.58 1.00 361.96 2558.08
   12:59:39.348.25-Dec-2020 4950.51 2090.57 66.58 1.00 362.16 2558.08
   12:59:39.548.25-Dec-2020 4950.51 2090.57 66.58 1.00 362.36 2558.08
   12:59:39.748.25-Dec-2020 4950.51 2090.72 66.58 1.00 362.56 2558.08
   12:59:39.948.25-Dec-2020 4950.51 2090.61 66.58 1.00 362.76 2558.08
   12:59:40.148.25-Dec-2020 4950.51 2090.66 66.58 1.00 362.96 2558.08
   12:59:40.348.25-Dec-2020 4950.51 2090.70 66.58 1.00 363.16 2558.08
   12:59:40.548.25-Dec-2020 4950.51 2090.70 66.58 1.00 363.36 2558.08
   12:59:40.748.25-Dec-2020 4950.51 2090.09 66.58 1.00 363.56 2558.08
   12:59:40.949.25-Dec-2020 4950.51 2090.99 66.58 1.00 363.76 2558.08
   12:59:41.149.25-Dec-2020 4950.51 2090.73 66.58 1.00 363.96 2558.08
   12:59:41.349.25-Dec-2020 4950.51 2090.98 66.58 1.00 364.16 2558.08
   12:59:41.549.25-Dec-2020 4950.51 2090.98 66.58 1.00 364.36 2558.08
   12:59:41.749.25-Dec-2020 4950.51 2090.76 66.58 1.00 364.56 2558.08
   12:59:41.949.25-Dec-2020 4950.51 2090.83 66.58 1.00 364.76 2558.08
   12:59:42.149.25-Dec-2020 4950.51 2090.78 66.58 1.00 364.96 2558.08
   12:59:42.349.25-Dec-2020 4950.51 2090.75 66.58 1.00 365.16 2558.08
   12:59:42.549.25-Dec-2020 4950.51 2090.75 66.58 1.00 365.36 2558.08
   12:59:42.749.25-Dec-2020 4950.51 2090.80 66.58 1.00 365.56 2558.08
   12:59:42.949.25-Dec-2020 4950.51 2090.77 66.58 1.00 365.76 2558.08
   12:59:43.150.25-Dec-2020 4950.51 2090.37 66.58 1.00 365.96 2558.08
   12:59:43.350.25-Dec-2020 4950.51 2091.10 66.58 1.00 366.17 2558.08
   12:59:43.550.25-Dec-2020 4950.51 2091.10 66.58 1.00 366.37 2558.08
   12:59:43.750.25-Dec-2020 4950.51 2091.05 66.58 1.00 366.57 2558.08
   12:59:43.950.25-Dec-2020 4950.51 2090.26 66.58 1.00 366.77 2558.08
   12:59:44.150.25-Dec-2020 4950.51 2091.06 66.58 1.00 366.97 2558.08
   12:59:44.350.25-Dec-2020 4950.51 2090.82 66.58 1.00 367.17 2558.08
   12:59:44.550.25-Dec-2020 4950.51 2090.82 66.58 1.00 367.37 2558.08
   12:59:44.750.25-Dec-2020 4950.51 2091.23 66.58 1.00 367.57 2558.08
   12:59:44.950.25-Dec-2020 4950.51 2090.56 66.58 1.00 367.77 2558.08
   12:59:45.150.25-Dec-2020 4950.51 2091.26 66.58 1.00 367.97 2558.08
