~Version Information
 VERS.                  2.0:   CWLS log ASCII Standard -VERSION 2.0
 WRAP.                   NO:   One line per depth step
~Well Information Block
#MNEM.UNIT     VALUE/NAME     DESCRIPTION
#---------     -----------    ---------------------------
 STRT.S             19:12:01 25-Dec-20: START TIME 19:12:01 25-Dec-20
 STOP.S             19:20:19 25-Dec-20: STOP TIME  19:20:19 25-Dec-20
 STEP.S                   0.00: STEP TIME
 NULL.                 -999.25: NULL VALUE
 DFWT.                        :  DIST FWL TEXT
 DFST.                        :  DIST FSL TEXT
 DMF .             Drill Floor:  DRILL MEAS FROM
 STIM.      04.54.24 22-Sep-20:  START TIME
 DATE.      04.54.24 21-Nov-20:  END TIME
 SPUD.               21-Nov-20:  SPUD DATE
 NREF.                    Grid:  NORTH REFERENCE
 HPTY.       Minimum Curvature:  HOLE POS TYPE
 DMOD.             Drill Model:  DRILL MOD DESC
 SVYD.                  Survey:  SURVEY DESC
 ILTD.               Lithology:  INTERP LTH DESC
 FTOP.          Formation Tops:  FORM TOPS DESC
 SON .        AZ-XX-0906571587:  JOB NUMBER
 COMP.     BP Exploration (Caspian Sea) Ltd:  COMPANY
 UWI .                     N/A:  UNIQUE WELL IDENTIFIER
 API .                     N/A:  API NUMBER
 BASE.              Azerbaijan:  LOGGING EQUIPMENT BASE LOCATION
 REGN.                   EESSA:  REGION
 PROV.                    Baku:  PROVINCE
 STAT.                    Baku:  STATE NAME
 CTRY.              Azerbaijan:  COUNTRY NAME
 FLD .                     ACG:  FIELD NAME
 SRVC.     TURAN Drilling & Engineering:  CONTRACTOR
 WELL.                     J27:  WELL NAME
 RIG .             West Chirag:  RIG NAME
 DOE .                     N/A:  DOE NUMBER
 DCON.         Sperry Drilling:  DIRECTNL CONTR
 PDAT.          Mean Sea Level:  PERMANENT DATUM
 WTYP.                Deviated:  WELL TYPE
 MWDS.                    Baku:  MWD SHOP
 JOBN.        AZ-XX-0906571587:  JOB TICKET NUMB
 UNIT.                     N/A:  LOGGING EQUIPMENT ID
 MDS .        Operator Entered:  MAG DATA SOURCE
 CNTY.                        :  COUNTY
 LOC .                        :  LOCATION
 LMF .             Drill Floor:  LOG MEASURED FROM
 TVDS.m                  43.00:  TVDSS CORRECTN
 LATI.deg                40.13:  LATITUDE
 LONG.deg                51.22:  LONGITUDE
 WHNS.m                   7.72:  WELL HEAD N/S
 WHEW.m                 -14.24:  WELL HEAD E/W
 UTMX.m              519005.06:  UTM X
 UTMY.m             4443793.85:  UTM Y
 DFWL.m                   0.00:  DISTANCE FWL
 DFSL.m                   0.00:  DISTANCE FSL
 SDEP.m                 347.00:  START DEPTH
 TDD .m                 581.00:  TOTAL DEPTH (DRILLER)
 VSDR.deg               159.72:  VERT SEC DIRECT
 GVFD.g                   1.00:  GRAVITY FIELD
 MFLD.nT              50318.00:  MAGNETIC FIELD
 MDIP.deg                59.57:  MAGNETIC DIP
 MDEC.deg                 6.44:  MAGNETIC DECL
 GRDC.deg                 0.15:  GRID CORRECTION
 AZTC.deg                 6.29:  AZM TOTAL CORR
 EPD .m                   0.00:  ELEVATION
 EGL .m                   0.00:  GROUND ELEVATION
 WDMS.m                 169.80:  WD ELEV
 APD .m                  43.00:  DEPTH ABOVE PD
 AGAP.m                  43.00:  AIR GAP
 VSEW.m                 -14.24:  VERT SEC E/W
 VSNS.m                   7.72:  VERT SEC N/S
 DEP .m                 342.45:  DEPTH
 EKB .m                   0.00:  KB ELEVATION
 EDF .m                  43.00:  DF ELEVATION
 TDL .m                 237.00:  TOTAL DEPTH (LOGGER)
 VSC .                       0:  VS TO CLOSURE
 MAGU.                 1851428:  MAGUTM CHECKSUM
~Parameter Information Block
#MNEM.UNIT       Value        Description
#---------     -----------    ---------------------------
 AV  .mps                 1.50:  Ann Velocity 
 AVMX.mps                 2.90:  Max Ann Veloc 
 AZIF.deg               115.59:  Azm, Final 
 BHAT.        Rotary Steerable:  BHA Type 
 BROT.°/30m               0.50:  Build Rotating 
 BS  .in                  8.50:  Bit Size 
 BTPL.psig              580.00:  Bit Press Loss 
 CABU.                     Yes:  Customer Abuse 
 COMM.                     Ìt:  Run Comments 1 
 TCS .hr                 89.79:  Time Ciculation Ended 
 CV  .mps                 3.22:  Crit Velocity 
 CVMX.mps                 4.37:  Max Crit Veloc 
 DD1 .          Rashad Habibov:  Direct Drillr 1 
 DDSV.               Geo-Pilot:  DD Service 
 DEFF.%                  95.00:  % Det Eff 
 DLRX.°/30m               1.94:  Dogleg Rot Max 
 DLSO.°/30m               0.70:  Dogleg Oriented 
 DLSX.°/30m               1.94:  Dogleg Str Max 
 DRET.      04.45.00 25-Dec-20:  Drill End Time 
 DRST.      10.00.00 24-Dec-20:  Drill Start Tim 
 DTIM.hr                 16.64:  Time Drilling 
 EDEP.m                4999.01:  End Depth 
 ENG1.         Elchin Mammadov:  Engineer 1 
 ENG2.          Ruslan Safarov:  Engineer 2 
 ENG3.          Rustam Safarov:  Engineer 3 
 ETIM.      09.00.00 29-Dec-20:  End Time 
 FLOI.gpm               500.00:  Flow In 
 FLON.gpm               400.00:  Flow In Min 
 FLOS.cptm                0.00:  Fluid Loss 
 FLOX.gpm               500.00:  Flow In Max 
 HFLO.                      No:  High Flow 
 HPRE.                      No:  High Pressure 
 HTEM.                      No:  High Temp 
 HYDO.m                   2.00:  Hydro Offset 
 IFIN.deg                66.79:  Inc, Final 
 IMAX.deg                67.66:  Inc Max 
 IMIN.deg                66.39:  Inc Min 
 IMND.m                4949.37:  Inc Min Depth 
 IMXD.m                4778.63:  Inc Max Depth 
 JARR.                     Yes:  Jarring 
 LETM.      04.45.00 25-Dec-20:  Log End Time 
 LOST.hr                     0:  Lost Rig Time 
 LSTM.      10.00.00 24-Dec-20:  Log Start Time 
 MDCL.ppm             39000.00:  Mud Chlorides 
 MDES.     Inversion Oil/Synthetic:  Mud Desc 
 DFD .sg                  1.33:  Mud Density 
 MDMN.sg                  1.33:  Dens Mud Min 
 MDMX.sg                  1.33:  Dens Mud Max 
 MOIL.                      70:  Run Mud Oil % 
 MOWR.                   70:30:  Run Mud OWR 
 MSND.                       0:  Run Mud Sand % 
 MSOL.                    17.4:  Run Mud Solids% 
 DFV .spqt               84.00:  Mud Viscosity 
 MWOD.in                  6.75:  MWD Tool OD 
 MWSI.                     Yes:  Serv Intrp, MWD 
 OTIM.hr                168.14:  Time Operating 
 PCON.           Look Like New:  Pad Condition 
 PMAX.psia            10822.93:  Press Op, Max 
 PV  .cP                 30.00:  Mud PV 
 RUN .                     900:  Run Number 
 ROPA.m/hr               18.00:  ROP Avg 
 ROPN.m/hr               12.00:  ROP Min 
 ROPX.m/hr               25.00:  ROP Max 
 RPMA.rpm               120.00:  RPM Surface Avg 
 RPMN.rpm               100.00:  RPM Surface Min 
 RPMX.rpm               120.00:  RPM Surface Max 
 RRUN.                    0900:  Rig Run Number 
 SAZI.deg               115.08:  Azm, Start 
 SDEP.m                4762.01:  Start Depth 
 SIDD.                      No:  Serv Intrp, DD 
 SINC.deg                66.14:  Inc, Start 
 SPPA.psig             3700.00:  SPP Avg 
 SPPN.psig             3620.00:  SPP Min 
 SPPX.psig             3900.00:  SPP Max 
 STIM.      09.30.00 22-Dec-20:  Start Time 
 SVCS.                 DD, MWD:  Services 
 SVER.                    9.20:  Sperry Version 
 TDAT.m                 237.00:  Tot Depth Attmp 
 TDDF.                      No:  Trip for DD 
 TDLG.m                 237.00:  Tot Depth Loggd 
 TFF .                      No:  Trip for Fail 
 TQAA.f-kp               18.00:  Torque Abs Avg 
 TQAN.f-kp               17.00:  Torque Abs Min 
 TQAX.f-kp               20.00:  Torque Abs Max 
 TRRT.°/30m               0.60:  Turn Rotating 
 MRT .                    HCIM:  Maximum Recorded Temperature 
 TTMX.degC               94.12:  Max Tool Temp 
 VS01.                90627809:  Virtual Str1 SN 
 VS02.                90527813:  Virtual Str2 SN 
 VS03.                90545417:  Virtual Str3 SN 
 VS04.                12460870:  Virtual Str4 SN 
 VS05.                90516706:  Virtual Str5 SN 
 VS06.                90632007:  Virtual Str6 SN 
 WBMN.klb                 0.00:  WOB Min 
 WOBA.klb                14.00:  WOB Avg 
 WOBX.klb                25.00:  WOB Max 
 YP  .lhf2               32.00:  Yield Point 
~Curve Information Block
#MNEM.UNIT                 API CODE     Curve Description
#---------               -----------    ---------------------------
 TIME.HHMMSS            00 000 000 000:  GT Time & Date
 GTDEPTH.m              00 000 000 000:  GT Depth
 GTPQH.psia             00 000 000 000:  GT HR Quartz Pressure
 GTTQ.degC              00 000 000 000:  GT Quartz Temperature
 GTTN.NONE              00 000 000 000:  GT Test Number
 GTET.sec               00 000 000 000:  GT Elapsed Test Time
 GTTVD.m                00 000 000 000:  GT True Vertical Depth
#Other Information
#
#WARRANTY: Halliburton will use its best efforts to furnish customers with 
#accurate information and interpretations that are part of, and incident to, the services 
#provided.  However, Halliburton cannot and does not warrant the accuracy 
#or correctness of such information and interpretations.  Under no circumstances should any 
#such information or interpretation be relied upon as the sole basis for any drilling, 
#completion, production, or financial decision or any procedure involving any risk to the 
#safety of any drilling venture, drilling rig or its crew or any other third party.  The 
#Customer has full responsibility for all drilling, completion and production operation.  
#Halliburton makes no representations or warranties, either expressed or 
#implied, including, but not limited to, the implied warranties of merchantability or fitness 
#for a particular purpose, with respect to the services rendered.  In no event will 
#Halliburton be liable for failure to obtain any particular results or for 
#any damages, including, but not limited to, indirect, special or consequential damages, 
#resulting from the use of any information or interpretation provided by Halliburton.
#
~A           TIME           GTDEPTH  GTPQH  GTTQ  GTTN  GTET   GTTVD  
# ...
   19:15:51.303.25-Dec-2020 4808.01 2304.81 63.87 7.00 230.18 2502.07
   19:15:51.503.25-Dec-2020 4808.01 2304.81 63.87 7.00 230.38 2502.07
   19:15:51.703.25-Dec-2020 4808.01 2304.09 63.88 7.00 230.58 2502.07
   19:15:51.903.25-Dec-2020 4808.01 2304.90 63.87 7.00 230.78 2502.07
   19:15:52.103.25-Dec-2020 4808.01 2305.07 63.87 7.00 230.98 2502.07
   19:15:52.303.25-Dec-2020 4808.01 2304.76 63.87 7.00 231.18 2502.07
   19:15:52.504.25-Dec-2020 4808.01 2304.76 63.87 7.00 231.38 2502.07
   19:15:52.704.25-Dec-2020 4808.01 2304.85 63.87 7.00 231.58 2502.07
   19:15:52.904.25-Dec-2020 4808.01 2304.87 63.87 7.00 231.78 2502.07
   19:15:53.104.25-Dec-2020 4808.01 2304.91 63.87 7.00 231.98 2502.07
   19:15:53.304.25-Dec-2020 4808.01 2304.83 63.87 7.00 232.18 2502.07
   19:15:53.504.25-Dec-2020 4808.01 2304.83 63.87 7.00 232.38 2502.07
   19:15:53.704.25-Dec-2020 4808.01 2304.89 63.87 7.00 232.58 2502.07
   19:15:53.905.25-Dec-2020 4808.01 2304.86 63.87 7.00 232.78 2502.07
   19:15:54.105.25-Dec-2020 4808.01 2304.00 63.87 7.00 232.98 2502.07
   19:15:54.305.25-Dec-2020 4808.01 2305.36 63.87 7.00 233.18 2502.07
   19:15:54.505.25-Dec-2020 4808.01 2305.36 63.87 7.00 233.38 2502.07
   19:15:54.705.25-Dec-2020 4808.01 2304.85 63.87 7.00 233.58 2502.07
   19:15:54.905.25-Dec-2020 4808.01 2304.88 63.87 7.00 233.78 2502.07
   19:15:55.106.25-Dec-2020 4808.01 2304.90 63.87 7.00 233.98 2502.07
   19:15:55.306.25-Dec-2020 4808.01 2304.89 63.87 7.00 234.18 2502.07
   19:15:55.506.25-Dec-2020 4808.01 2304.89 63.87 7.00 234.39 2502.07
   19:15:55.706.25-Dec-2020 4808.01 2304.90 63.87 7.00 234.59 2502.07
   19:15:55.906.25-Dec-2020 4808.01 2304.86 63.87 7.00 234.79 2502.07
   19:15:56.106.25-Dec-2020 4808.01 2304.93 63.87 7.00 234.99 2502.07
   19:15:56.307.25-Dec-2020 4808.01 2304.89 63.87 7.00 235.19 2502.07
   19:15:56.507.25-Dec-2020 4808.01 2304.89 63.87 7.00 235.39 2502.07
   19:15:56.707.25-Dec-2020 4808.01 2304.27 63.87 7.00 235.59 2502.07
   19:15:56.907.25-Dec-2020 4808.01 2304.95 63.87 7.00 235.79 2502.07
   19:15:57.107.25-Dec-2020 4808.01 2304.21 63.87 7.00 235.99 2502.07
   19:15:57.307.25-Dec-2020 4808.01 2305.39 63.87 7.00 236.19 2502.07
   19:15:57.508.25-Dec-2020 4808.01 2305.39 63.87 7.00 236.39 2502.07
   19:15:57.708.25-Dec-2020 4808.01 2304.11 63.87 7.00 236.59 2502.07
   19:15:57.908.25-Dec-2020 4808.01 2305.10 63.87 7.00 236.79 2502.07
   19:15:58.108.25-Dec-2020 4808.01 2305.02 63.87 7.00 236.99 2502.07
   19:15:58.308.25-Dec-2020 4808.01 2304.07 63.87 7.00 237.19 2502.07
   19:15:58.508.25-Dec-2020 4808.01 2304.07 63.87 7.00 237.39 2502.07
   19:15:58.708.25-Dec-2020 4808.01 2304.77 63.87 7.00 237.59 2502.07
   19:15:58.909.25-Dec-2020 4808.01 2304.86 63.87 7.00 237.79 2502.07
   19:15:59.109.25-Dec-2020 4808.01 2304.96 63.87 7.00 237.99 2502.07
   19:15:59.309.25-Dec-2020 4808.01 2304.86 63.87 7.00 238.19 2502.07
   19:15:59.509.25-Dec-2020 4808.01 2304.86 63.87 7.00 238.39 2502.07
   19:15:59.709.25-Dec-2020 4808.01 2304.95 63.87 7.00 238.59 2502.07
   19:15:59.909.25-Dec-2020 4808.01 2304.87 63.87 7.00 238.79 2502.07
   19:16:00.110.25-Dec-2020 4808.01 2304.91 63.87 7.00 238.99 2502.07
   19:16:00.310.25-Dec-2020 4808.01 2304.93 63.87 7.00 239.19 2502.07
   19:16:00.510.25-Dec-2020 4808.01 2304.93 63.87 7.00 239.39 2502.07
   19:16:00.710.25-Dec-2020 4808.01 2304.86 63.87 7.00 239.59 2502.07
   19:16:00.910.25-Dec-2020 4808.01 2304.16 63.87 7.00 239.79 2502.07
   19:16:01.110.25-Dec-2020 4808.01 2304.96 63.87 7.00 239.99 2502.07
   19:16:01.311.25-Dec-2020 4808.01 2305.11 63.87 7.00 240.19 2502.07
   19:16:01.511.25-Dec-2020 4808.01 2305.11 63.87 7.00 240.39 2502.07
   19:16:01.711.25-Dec-2020 4808.01 2304.95 63.87 7.00 240.59 2502.07
   19:16:01.911.25-Dec-2020 4808.01 2304.93 63.87 7.00 240.79 2502.07
   19:16:02.111.25-Dec-2020 4808.01 2304.99 63.87 7.00 240.99 2502.07
   19:16:02.311.25-Dec-2020 4808.01 2304.95 63.87 7.00 241.19 2502.07
   19:16:02.511.25-Dec-2020 4808.01 2304.95 63.87 7.00 241.39 2502.07
   19:16:02.712.25-Dec-2020 4808.01 2304.95 63.87 7.00 241.59 2502.07
   19:16:02.912.25-Dec-2020 4808.01 2304.95 63.87 7.00 241.79 2502.07
   19:16:03.112.25-Dec-2020 4808.01 2304.96 63.87 7.00 241.99 2502.07
   19:16:03.312.25-Dec-2020 4808.01 2304.16 63.87 7.00 242.19 2502.07
   19:16:03.512.25-Dec-2020 4808.01 2304.16 63.87 7.00 242.39 2502.07
   19:16:03.712.25-Dec-2020 4808.01 2304.81 63.87 7.00 242.59 2502.07
   19:16:03.913.25-Dec-2020 4808.01 2304.26 63.87 7.00 242.79 2502.07
   19:16:04.113.25-Dec-2020 4808.01 2305.05 63.87 7.00 242.99 2502.07
   19:16:04.313.25-Dec-2020 4808.01 2304.14 63.87 7.00 243.19 2502.07
   19:16:04.513.25-Dec-2020 4808.01 2304.14 63.87 7.00 243.39 2502.07
   19:16:04.713.25-Dec-2020 4808.01 2304.75 63.87 7.00 243.59 2502.07
   19:16:04.913.25-Dec-2020 4808.01 2304.24 63.87 7.00 243.79 2502.07
   19:16:05.114.25-Dec-2020 4808.01 2304.87 63.87 7.00 243.99 2502.07
   19:16:05.314.25-Dec-2020 4808.01 2304.83 63.87 7.00 244.19 2502.07
   19:16:05.514.25-Dec-2020 4808.01 2304.83 63.87 7.00 244.39 2502.07
   19:16:05.714.25-Dec-2020 4808.01 2304.88 63.87 7.00 244.59 2502.07
   19:16:05.914.25-Dec-2020 4808.01 2304.91 63.87 7.00 244.79 2502.07
   19:16:06.114.25-Dec-2020 4808.01 2304.91 63.87 7.00 244.99 2502.07
   19:16:06.314.25-Dec-2020 4808.01 2304.94 63.87 7.00 245.19 2502.07
   19:16:06.515.25-Dec-2020 4808.01 2304.94 63.87 7.00 245.39 2502.07
   19:16:06.715.25-Dec-2020 4808.01 2304.93 63.87 7.00 245.59 2502.07
   19:16:06.915.25-Dec-2020 4808.01 2304.91 63.87 7.00 245.79 2502.07
   19:16:07.115.25-Dec-2020 4808.01 2304.97 63.87 7.00 245.99 2502.07
   19:16:07.315.25-Dec-2020 4808.01 2304.94 63.87 7.00 246.19 2502.07
   19:16:07.515.25-Dec-2020 4808.01 2304.94 63.87 7.00 246.39 2502.07
   19:16:07.716.25-Dec-2020 4808.01 2305.33 63.87 7.00 246.59 2502.07
   19:16:07.916.25-Dec-2020 4808.01 2304.82 63.87 7.00 246.79 2502.07
   19:16:08.116.25-Dec-2020 4808.01 2305.00 63.87 7.00 247.00 2502.07
   19:16:08.316.25-Dec-2020 4808.01 2304.98 63.87 7.00 247.20 2502.07
   19:16:08.516.25-Dec-2020 4808.01 2304.98 63.87 7.00 247.40 2502.07
   19:16:08.716.25-Dec-2020 4808.01 2305.02 63.87 7.00 247.60 2502.07
   19:16:08.917.25-Dec-2020 4808.01 2304.98 63.87 7.00 247.80 2502.07
   19:16:09.117.25-Dec-2020 4808.01 2304.98 63.87 7.00 248.00 2502.07
   19:16:09.317.25-Dec-2020 4808.01 2304.94 63.87 7.00 248.20 2502.07
   19:16:09.517.25-Dec-2020 4808.01 2304.94 63.87 7.00 248.40 2502.07
   19:16:09.717.25-Dec-2020 4808.01 2305.00 63.87 7.00 248.60 2502.07
   19:16:09.917.25-Dec-2020 4808.01 2304.40 63.87 7.00 248.80 2502.07
   19:16:10.117.25-Dec-2020 4808.01 2305.05 63.87 7.00 249.00 2502.07
   19:16:10.318.25-Dec-2020 4808.01 2304.95 63.87 7.00 249.20 2502.07
   19:16:10.518.25-Dec-2020 4808.01 2304.95 63.87 7.00 249.40 2502.07
   19:16:10.718.25-Dec-2020 4808.01 2305.37 63.87 7.00 249.60 2502.07
   19:16:10.918.25-Dec-2020 4808.01 2304.78 63.87 7.00 249.80 2502.07
   19:16:11.118.25-Dec-2020 4808.01 2304.28 63.87 7.00 250.00 2502.07
   19:16:11.318.25-Dec-2020 4808.01 2305.08 63.87 7.00 250.20 2502.07
   19:16:11.519.25-Dec-2020 4808.01 2305.08 63.87 7.00 250.40 2502.07
   19:16:11.719.25-Dec-2020 4808.01 2304.13 63.87 7.00 250.60 2502.07
   19:16:11.919.25-Dec-2020 4808.01 2305.07 63.87 7.00 250.80 2502.07
   19:16:12.119.25-Dec-2020 4808.01 2305.01 63.87 7.00 251.00 2502.07
   19:16:12.319.25-Dec-2020 4808.01 2305.03 63.87 7.00 251.20 2502.07
   19:16:12.519.25-Dec-2020 4808.01 2305.03 63.87 7.00 251.40 2502.07
   19:16:12.720.25-Dec-2020 4808.01 2304.98 63.87 7.00 251.60 2502.07
   19:16:12.920.25-Dec-2020 4808.01 2304.97 63.87 7.00 251.80 2502.07
   19:16:13.120.25-Dec-2020 4808.01 2305.00 63.87 7.00 252.00 2502.07
   19:16:13.320.25-Dec-2020 4808.01 2304.96 63.87 7.00 252.20 2502.07
   19:16:13.520.25-Dec-2020 4808.01 2304.96 63.87 7.00 252.40 2502.07
   19:16:13.720.25-Dec-2020 4808.01 2305.02 63.87 7.00 252.60 2502.07
   19:16:13.920.25-Dec-2020 4808.01 2304.96 63.87 7.00 252.80 2502.07
   19:16:14.121.25-Dec-2020 4808.01 2304.39 63.87 7.00 253.00 2502.07
