~Version Information
 VERS.                  2.0:   CWLS log ASCII Standard -VERSION 2.0
 WRAP.                   NO:   One line per depth step
~Well Information Block
#MNEM.UNIT     VALUE/NAME     DESCRIPTION
#---------     -----------    ---------------------------
 STRT.S             21:28:23 25-Dec-20: START TIME 21:28:23 25-Dec-20
 STOP.S             21:36:48 25-Dec-20: STOP TIME  21:36:48 25-Dec-20
 STEP.S                   0.00: STEP TIME
 NULL.                 -999.25: NULL VALUE
 DFWT.                        :  DIST FWL TEXT
 DFST.                        :  DIST FSL TEXT
 DMF .             Drill Floor:  DRILL MEAS FROM
 STIM.      04.54.24 22-Sep-20:  START TIME
 DATE.      04.54.24 21-Nov-20:  END TIME
 SPUD.               21-Nov-20:  SPUD DATE
 NREF.                    Grid:  NORTH REFERENCE
 HPTY.       Minimum Curvature:  HOLE POS TYPE
 DMOD.             Drill Model:  DRILL MOD DESC
 SVYD.                  Survey:  SURVEY DESC
 ILTD.               Lithology:  INTERP LTH DESC
 FTOP.          Formation Tops:  FORM TOPS DESC
 SON .        AZ-XX-0906571587:  JOB NUMBER
 COMP.     BP Exploration (Caspian Sea) Ltd:  COMPANY
 UWI .                     N/A:  UNIQUE WELL IDENTIFIER
 API .                     N/A:  API NUMBER
 BASE.              Azerbaijan:  LOGGING EQUIPMENT BASE LOCATION
 REGN.                   EESSA:  REGION
 PROV.                    Baku:  PROVINCE
 STAT.                    Baku:  STATE NAME
 CTRY.              Azerbaijan:  COUNTRY NAME
 FLD .                     ACG:  FIELD NAME
 SRVC.     TURAN Drilling & Engineering:  CONTRACTOR
 WELL.                     J27:  WELL NAME
 RIG .             West Chirag:  RIG NAME
 DOE .                     N/A:  DOE NUMBER
 DCON.         Sperry Drilling:  DIRECTNL CONTR
 PDAT.          Mean Sea Level:  PERMANENT DATUM
 WTYP.                Deviated:  WELL TYPE
 MWDS.                    Baku:  MWD SHOP
 JOBN.        AZ-XX-0906571587:  JOB TICKET NUMB
 UNIT.                     N/A:  LOGGING EQUIPMENT ID
 MDS .        Operator Entered:  MAG DATA SOURCE
 CNTY.                        :  COUNTY
 LOC .                        :  LOCATION
 LMF .             Drill Floor:  LOG MEASURED FROM
 TVDS.m                  43.00:  TVDSS CORRECTN
 LATI.deg                40.13:  LATITUDE
 LONG.deg                51.22:  LONGITUDE
 WHNS.m                   7.72:  WELL HEAD N/S
 WHEW.m                 -14.24:  WELL HEAD E/W
 UTMX.m              519005.06:  UTM X
 UTMY.m             4443793.85:  UTM Y
 DFWL.m                   0.00:  DISTANCE FWL
 DFSL.m                   0.00:  DISTANCE FSL
 SDEP.m                 347.00:  START DEPTH
 TDD .m                 581.00:  TOTAL DEPTH (DRILLER)
 VSDR.deg               159.72:  VERT SEC DIRECT
 GVFD.g                   1.00:  GRAVITY FIELD
 MFLD.nT              50318.00:  MAGNETIC FIELD
 MDIP.deg                59.57:  MAGNETIC DIP
 MDEC.deg                 6.44:  MAGNETIC DECL
 GRDC.deg                 0.15:  GRID CORRECTION
 AZTC.deg                 6.29:  AZM TOTAL CORR
 EPD .m                   0.00:  ELEVATION
 EGL .m                   0.00:  GROUND ELEVATION
 WDMS.m                 169.80:  WD ELEV
 APD .m                  43.00:  DEPTH ABOVE PD
 AGAP.m                  43.00:  AIR GAP
 VSEW.m                 -14.24:  VERT SEC E/W
 VSNS.m                   7.72:  VERT SEC N/S
 DEP .m                 342.45:  DEPTH
 EKB .m                   0.00:  KB ELEVATION
 EDF .m                  43.00:  DF ELEVATION
 TDL .m                 237.00:  TOTAL DEPTH (LOGGER)
 VSC .                       0:  VS TO CLOSURE
 MAGU.                 1851428:  MAGUTM CHECKSUM
~Parameter Information Block
#MNEM.UNIT       Value        Description
#---------     -----------    ---------------------------
 AV  .mps                 1.50:  Ann Velocity 
 AVMX.mps                 2.90:  Max Ann Veloc 
 AZIF.deg               115.59:  Azm, Final 
 BHAT.        Rotary Steerable:  BHA Type 
 BROT.°/30m               0.50:  Build Rotating 
 BS  .in                  8.50:  Bit Size 
 BTPL.psig              580.00:  Bit Press Loss 
 CABU.                     Yes:  Customer Abuse 
 COMM.                     Üc{:  Run Comments 1 
 TCS .hr                 89.79:  Time Ciculation Ended 
 CV  .mps                 3.22:  Crit Velocity 
 CVMX.mps                 4.37:  Max Crit Veloc 
 DD1 .          Rashad Habibov:  Direct Drillr 1 
 DDSV.               Geo-Pilot:  DD Service 
 DEFF.%                  95.00:  % Det Eff 
 DLRX.°/30m               1.94:  Dogleg Rot Max 
 DLSO.°/30m               0.70:  Dogleg Oriented 
 DLSX.°/30m               1.94:  Dogleg Str Max 
 DRET.      04.45.00 25-Dec-20:  Drill End Time 
 DRST.      10.00.00 24-Dec-20:  Drill Start Tim 
 DTIM.hr                 16.64:  Time Drilling 
 EDEP.m                4999.01:  End Depth 
 ENG1.         Elchin Mammadov:  Engineer 1 
 ENG2.          Ruslan Safarov:  Engineer 2 
 ENG3.          Rustam Safarov:  Engineer 3 
 ETIM.      09.00.00 29-Dec-20:  End Time 
 FLOI.gpm               500.00:  Flow In 
 FLON.gpm               400.00:  Flow In Min 
 FLOS.cptm                0.00:  Fluid Loss 
 FLOX.gpm               500.00:  Flow In Max 
 HFLO.                      No:  High Flow 
 HPRE.                      No:  High Pressure 
 HTEM.                      No:  High Temp 
 HYDO.m                   2.00:  Hydro Offset 
 IFIN.deg                66.79:  Inc, Final 
 IMAX.deg                67.66:  Inc Max 
 IMIN.deg                66.39:  Inc Min 
 IMND.m                4949.37:  Inc Min Depth 
 IMXD.m                4778.63:  Inc Max Depth 
 JARR.                     Yes:  Jarring 
 LETM.      04.45.00 25-Dec-20:  Log End Time 
 LOST.hr                     0:  Lost Rig Time 
 LSTM.      10.00.00 24-Dec-20:  Log Start Time 
 MDCL.ppm             39000.00:  Mud Chlorides 
 MDES.     Inversion Oil/Synthetic:  Mud Desc 
 DFD .sg                  1.33:  Mud Density 
 MDMN.sg                  1.33:  Dens Mud Min 
 MDMX.sg                  1.33:  Dens Mud Max 
 MOIL.                      70:  Run Mud Oil % 
 MOWR.                   70:30:  Run Mud OWR 
 MSND.                       0:  Run Mud Sand % 
 MSOL.                    17.4:  Run Mud Solids% 
 DFV .spqt               84.00:  Mud Viscosity 
 MWOD.in                  6.75:  MWD Tool OD 
 MWSI.                     Yes:  Serv Intrp, MWD 
 OTIM.hr                168.14:  Time Operating 
 PCON.           Look Like New:  Pad Condition 
 PMAX.psia            10822.93:  Press Op, Max 
 PV  .cP                 30.00:  Mud PV 
 RUN .                     900:  Run Number 
 ROPA.m/hr               18.00:  ROP Avg 
 ROPN.m/hr               12.00:  ROP Min 
 ROPX.m/hr               25.00:  ROP Max 
 RPMA.rpm               120.00:  RPM Surface Avg 
 RPMN.rpm               100.00:  RPM Surface Min 
 RPMX.rpm               120.00:  RPM Surface Max 
 RRUN.                    0900:  Rig Run Number 
 SAZI.deg               115.08:  Azm, Start 
 SDEP.m                4762.01:  Start Depth 
 SIDD.                      No:  Serv Intrp, DD 
 SINC.deg                66.14:  Inc, Start 
 SPPA.psig             3700.00:  SPP Avg 
 SPPN.psig             3620.00:  SPP Min 
 SPPX.psig             3900.00:  SPP Max 
 STIM.      09.30.00 22-Dec-20:  Start Time 
 SVCS.                 DD, MWD:  Services 
 SVER.                    9.20:  Sperry Version 
 TDAT.m                 237.00:  Tot Depth Attmp 
 TDDF.                      No:  Trip for DD 
 TDLG.m                 237.00:  Tot Depth Loggd 
 TFF .                      No:  Trip for Fail 
 TQAA.f-kp               18.00:  Torque Abs Avg 
 TQAN.f-kp               17.00:  Torque Abs Min 
 TQAX.f-kp               20.00:  Torque Abs Max 
 TRRT.°/30m               0.60:  Turn Rotating 
 MRT .                    HCIM:  Maximum Recorded Temperature 
 TTMX.degC               94.12:  Max Tool Temp 
 VS01.                90627809:  Virtual Str1 SN 
 VS02.                90527813:  Virtual Str2 SN 
 VS03.                90545417:  Virtual Str3 SN 
 VS04.                12460870:  Virtual Str4 SN 
 VS05.                90516706:  Virtual Str5 SN 
 VS06.                90632007:  Virtual Str6 SN 
 WBMN.klb                 0.00:  WOB Min 
 WOBA.klb                14.00:  WOB Avg 
 WOBX.klb                25.00:  WOB Max 
 YP  .lhf2               32.00:  Yield Point 
~Curve Information Block
#MNEM.UNIT                 API CODE     Curve Description
#---------               -----------    ---------------------------
 TIME.HHMMSS            00 000 000 000:  GT Time & Date
 GTDEPTH.m              00 000 000 000:  GT Depth
 GTPQH.psia             00 000 000 000:  GT HR Quartz Pressure
 GTTQ.degC              00 000 000 000:  GT Quartz Temperature
 GTTN.NONE              00 000 000 000:  GT Test Number
 GTET.sec               00 000 000 000:  GT Elapsed Test Time
 GTTVD.m                00 000 000 000:  GT True Vertical Depth
#Other Information
#
#WARRANTY: Halliburton will use its best efforts to furnish customers with 
#accurate information and interpretations that are part of, and incident to, the services 
#provided.  However, Halliburton cannot and does not warrant the accuracy 
#or correctness of such information and interpretations.  Under no circumstances should any 
#such information or interpretation be relied upon as the sole basis for any drilling, 
#completion, production, or financial decision or any procedure involving any risk to the 
#safety of any drilling venture, drilling rig or its crew or any other third party.  The 
#Customer has full responsibility for all drilling, completion and production operation.  
#Halliburton makes no representations or warranties, either expressed or 
#implied, including, but not limited to, the implied warranties of merchantability or fitness 
#for a particular purpose, with respect to the services rendered.  In no event will 
#Halliburton be liable for failure to obtain any particular results or for 
#any damages, including, but not limited to, indirect, special or consequential damages, 
#resulting from the use of any information or interpretation provided by Halliburton.
#
~A           TIME           GTDEPTH  GTPQH  GTTQ  GTTN  GTET   GTTVD  
# ...
   21:30:41.608.25-Dec-2020 4768.01 3246.79 63.85 9.00 137.99 2486.78
   21:30:41.808.25-Dec-2020 4768.01 3246.79 63.85 9.00 138.19 2486.78
   21:30:42.008.25-Dec-2020 4768.01 3246.76 63.85 9.00 138.39 2486.78
   21:30:42.208.25-Dec-2020 4768.01 3246.69 63.85 9.00 138.59 2486.78
   21:30:42.407.25-Dec-2020 4768.01 3246.69 63.85 9.00 138.79 2486.78
   21:30:42.607.25-Dec-2020 4768.01 3246.83 63.85 9.00 138.99 2486.78
   21:30:42.807.25-Dec-2020 4768.01 3246.69 63.85 9.00 139.19 2486.78
   21:30:43.007.25-Dec-2020 4768.01 3246.70 63.85 9.00 139.39 2486.78
   21:30:43.207.25-Dec-2020 4768.01 3246.70 63.85 9.00 139.59 2486.78
   21:30:43.407.25-Dec-2020 4768.01 3246.62 63.85 9.00 139.79 2486.78
   21:30:43.607.25-Dec-2020 4768.01 3246.71 63.85 9.00 139.99 2486.78
   21:30:43.807.25-Dec-2020 4768.01 3246.71 63.85 9.00 140.19 2486.78
   21:30:44.007.25-Dec-2020 4768.01 3246.22 63.85 9.00 140.39 2486.78
   21:30:44.207.25-Dec-2020 4768.01 3246.69 63.85 9.00 140.59 2486.78
   21:30:44.407.25-Dec-2020 4768.01 3246.91 63.85 9.00 140.79 2486.78
   21:30:44.607.25-Dec-2020 4768.01 3246.70 63.85 9.00 140.99 2486.78
   21:30:44.807.25-Dec-2020 4768.01 3246.70 63.85 9.00 141.19 2486.78
   21:30:45.007.25-Dec-2020 4768.01 3246.68 63.85 9.00 141.39 2486.78
   21:30:45.207.25-Dec-2020 4768.01 3246.71 63.85 9.00 141.59 2486.78
   21:30:45.407.25-Dec-2020 4768.01 3246.61 63.85 9.00 141.79 2486.78
   21:30:45.607.25-Dec-2020 4768.01 3246.69 63.85 9.00 141.99 2486.78
   21:30:45.807.25-Dec-2020 4768.01 3246.69 63.85 9.00 142.19 2486.78
   21:30:46.007.25-Dec-2020 4768.01 3246.65 63.85 9.00 142.39 2486.78
   21:30:46.207.25-Dec-2020 4768.01 3246.70 63.85 9.00 142.59 2486.78
   21:30:46.407.25-Dec-2020 4768.01 3245.36 63.85 9.00 142.79 2486.78
   21:30:46.607.25-Dec-2020 4768.01 3247.54 63.85 9.00 142.99 2486.78
   21:30:46.807.25-Dec-2020 4768.01 3246.56 63.85 9.00 143.19 2486.78
   21:30:47.007.25-Dec-2020 4768.01 3246.82 63.85 9.00 143.39 2486.78
   21:30:47.207.25-Dec-2020 4768.01 3246.75 63.85 9.00 143.59 2486.78
   21:30:47.407.25-Dec-2020 4768.01 3246.67 63.85 9.00 143.79 2486.78
   21:30:47.607.25-Dec-2020 4768.01 3245.91 63.85 9.00 143.99 2486.78
   21:30:47.807.25-Dec-2020 4768.01 3245.91 63.85 9.00 144.19 2486.78
   21:30:48.007.25-Dec-2020 4768.01 3247.07 63.85 9.00 144.39 2486.78
   21:30:48.207.25-Dec-2020 4768.01 3245.98 63.85 9.00 144.59 2486.78
   21:30:48.407.25-Dec-2020 4768.01 3246.80 63.85 9.00 144.79 2486.78
   21:30:48.607.25-Dec-2020 4768.01 3246.91 63.85 9.00 144.99 2486.78
   21:30:48.807.25-Dec-2020 4768.01 3246.91 63.85 9.00 145.19 2486.78
   21:30:49.007.25-Dec-2020 4768.01 3246.74 63.85 9.00 145.39 2486.78
   21:30:49.207.25-Dec-2020 4768.01 3247.42 63.85 9.00 145.59 2486.78
   21:30:49.407.25-Dec-2020 4768.01 3246.94 63.85 9.00 145.79 2486.78
   21:30:49.607.25-Dec-2020 4768.01 3246.97 63.85 9.00 145.99 2486.78
   21:30:49.807.25-Dec-2020 4768.01 3246.97 63.85 9.00 146.19 2486.78
   21:30:50.007.25-Dec-2020 4768.01 3246.94 63.85 9.00 146.39 2486.78
   21:30:50.207.25-Dec-2020 4768.01 3247.00 63.85 9.00 146.59 2486.78
   21:30:50.407.25-Dec-2020 4768.01 3246.90 63.85 9.00 146.79 2486.78
   21:30:50.607.25-Dec-2020 4768.01 3246.97 63.85 9.00 146.99 2486.78
   21:30:50.807.25-Dec-2020 4768.01 3246.89 63.85 9.00 147.19 2486.78
   21:30:51.007.25-Dec-2020 4768.01 3246.89 63.85 9.00 147.39 2486.78
   21:30:51.207.25-Dec-2020 4768.01 3245.73 63.85 9.00 147.59 2486.78
   21:30:51.407.25-Dec-2020 4768.01 3247.55 63.85 9.00 147.79 2486.78
   21:30:51.607.25-Dec-2020 4768.01 3246.81 63.85 9.00 147.99 2486.78
   21:30:51.807.25-Dec-2020 4768.01 3246.81 63.85 9.00 148.19 2486.78
   21:30:52.007.25-Dec-2020 4768.01 3246.98 63.85 9.00 148.39 2486.78
   21:30:52.207.25-Dec-2020 4768.01 3247.01 63.85 9.00 148.59 2486.78
   21:30:52.407.25-Dec-2020 4768.01 3246.91 63.85 9.00 148.79 2486.78
   21:30:52.607.25-Dec-2020 4768.01 3247.06 63.85 9.00 148.99 2486.78
   21:30:52.807.25-Dec-2020 4768.01 3247.06 63.85 9.00 149.19 2486.78
   21:30:53.007.25-Dec-2020 4768.01 3246.99 63.85 9.00 149.39 2486.78
   21:30:53.207.25-Dec-2020 4768.01 3247.06 63.85 9.00 149.59 2486.78
   21:30:53.407.25-Dec-2020 4768.01 3246.96 63.85 9.00 149.79 2486.78
   21:30:53.607.25-Dec-2020 4768.01 3247.05 63.85 9.00 149.99 2486.78
   21:30:53.807.25-Dec-2020 4768.01 3247.05 63.85 9.00 150.19 2486.78
   21:30:54.007.25-Dec-2020 4768.01 3247.07 63.85 9.00 150.39 2486.78
   21:30:54.207.25-Dec-2020 4768.01 3247.47 63.85 9.00 150.59 2486.78
   21:30:54.407.25-Dec-2020 4768.01 3247.05 63.85 9.00 150.79 2486.78
   21:30:54.607.25-Dec-2020 4768.01 3247.08 63.85 9.00 150.99 2486.78
   21:30:54.807.25-Dec-2020 4768.01 3247.08 63.85 9.00 151.19 2486.78
   21:30:55.007.25-Dec-2020 4768.01 3247.65 63.85 9.00 151.39 2486.78
   21:30:55.207.25-Dec-2020 4768.01 3247.19 63.85 9.00 151.59 2486.78
   21:30:55.407.25-Dec-2020 4768.01 3246.04 63.85 9.00 151.79 2486.78
   21:30:55.607.25-Dec-2020 4768.01 3247.91 63.85 9.00 151.99 2486.78
   21:30:55.807.25-Dec-2020 4768.01 3247.91 63.85 9.00 152.19 2486.78
   21:30:56.007.25-Dec-2020 4768.01 3246.04 63.85 9.00 152.39 2486.78
   21:30:56.207.25-Dec-2020 4768.01 3248.20 63.85 9.00 152.59 2486.78
   21:30:56.407.25-Dec-2020 4768.01 3247.10 63.85 9.00 152.79 2486.78
   21:30:56.607.25-Dec-2020 4768.01 3247.48 63.85 9.00 152.99 2486.78
   21:30:56.807.25-Dec-2020 4768.01 3247.48 63.85 9.00 153.19 2486.78
   21:30:57.007.25-Dec-2020 4768.01 3247.22 63.85 9.00 153.39 2486.78
   21:30:57.207.25-Dec-2020 4768.01 3247.35 63.85 9.00 153.59 2486.78
   21:30:57.407.25-Dec-2020 4768.01 3247.26 63.85 9.00 153.79 2486.78
   21:30:57.606.25-Dec-2020 4768.01 3247.31 63.85 9.00 153.99 2486.78
   21:30:57.806.25-Dec-2020 4768.01 3247.31 63.85 9.00 154.19 2486.78
   21:30:58.006.25-Dec-2020 4768.01 3247.25 63.85 9.00 154.39 2486.78
   21:30:58.206.25-Dec-2020 4768.01 3247.34 63.85 9.00 154.59 2486.78
   21:30:58.406.25-Dec-2020 4768.01 3247.24 63.85 9.00 154.79 2486.78
   21:30:58.606.25-Dec-2020 4768.01 3246.34 63.85 9.00 154.99 2486.78
   21:30:58.806.25-Dec-2020 4768.01 3246.34 63.85 9.00 155.19 2486.78
   21:30:59.006.25-Dec-2020 4768.01 3247.56 63.85 9.00 155.39 2486.78
   21:30:59.206.25-Dec-2020 4768.01 3247.47 63.85 9.00 155.59 2486.78
   21:30:59.406.25-Dec-2020 4768.01 3247.29 63.85 9.00 155.79 2486.78
   21:30:59.606.25-Dec-2020 4768.01 3247.30 63.85 9.00 155.99 2486.78
   21:30:59.806.25-Dec-2020 4768.01 3247.30 63.85 9.00 156.19 2486.78
   21:31:00.006.25-Dec-2020 4768.01 3247.36 63.85 9.00 156.39 2486.78
   21:31:00.206.25-Dec-2020 4768.01 3247.46 63.85 9.00 156.59 2486.78
   21:31:00.406.25-Dec-2020 4768.01 3247.36 63.85 9.00 156.79 2486.78
   21:31:00.606.25-Dec-2020 4768.01 3247.38 63.85 9.00 156.99 2486.78
   21:31:00.806.25-Dec-2020 4768.01 3247.38 63.85 9.00 157.19 2486.78
   21:31:01.006.25-Dec-2020 4768.01 3246.14 63.85 9.00 157.39 2486.78
   21:31:01.206.25-Dec-2020 4768.01 3248.04 63.85 9.00 157.59 2486.78
   21:31:01.406.25-Dec-2020 4768.01 3247.31 63.85 9.00 157.79 2486.78
   21:31:01.606.25-Dec-2020 4768.01 3247.55 63.85 9.00 157.99 2486.78
   21:31:01.806.25-Dec-2020 4768.01 3247.55 63.85 9.00 158.19 2486.78
   21:31:02.006.25-Dec-2020 4768.01 3247.38 63.84 9.00 158.39 2486.78
   21:31:02.206.25-Dec-2020 4768.01 3246.53 63.84 9.00 158.59 2486.78
   21:31:02.406.25-Dec-2020 4768.01 3247.55 63.84 9.00 158.79 2486.78
   21:31:02.606.25-Dec-2020 4768.01 3247.82 63.84 9.00 158.99 2486.78
   21:31:02.806.25-Dec-2020 4768.01 3247.82 63.84 9.00 159.19 2486.78
   21:31:03.006.25-Dec-2020 4768.01 3247.71 63.84 9.00 159.39 2486.78
   21:31:03.206.25-Dec-2020 4768.01 3247.57 63.84 9.00 159.59 2486.78
   21:31:03.406.25-Dec-2020 4768.01 3247.74 63.84 9.00 159.79 2486.78
   21:31:03.606.25-Dec-2020 4768.01 3246.57 63.84 9.00 159.99 2486.78
   21:31:03.806.25-Dec-2020 4768.01 3246.57 63.84 9.00 160.19 2486.78
   21:31:04.006.25-Dec-2020 4768.01 3247.59 63.84 9.00 160.39 2486.78
   21:31:04.206.25-Dec-2020 4768.01 3247.84 63.84 9.00 160.59 2486.78
   21:31:04.406.25-Dec-2020 4768.01 3247.54 63.84 9.00 160.79 2486.78
