~Version Information
 VERS.                  2.0:   CWLS log ASCII Standard -VERSION 2.0
 WRAP.                   NO:   One line per depth step
~Well Information Block
#MNEM.UNIT     VALUE/NAME     DESCRIPTION
#---------     -----------    ---------------------------
 STRT.S             20:22:11 25-Dec-20: START TIME 20:22:11 25-Dec-20
 STOP.S             20:30:35 25-Dec-20: STOP TIME  20:30:35 25-Dec-20
 STEP.S                   0.00: STEP TIME
 NULL.                 -999.25: NULL VALUE
 DFWT.                        :  DIST FWL TEXT
 DFST.                        :  DIST FSL TEXT
 DMF .             Drill Floor:  DRILL MEAS FROM
 STIM.      04.54.24 22-Sep-20:  START TIME
 DATE.      04.54.24 21-Nov-20:  END TIME
 SPUD.               21-Nov-20:  SPUD DATE
 NREF.                    Grid:  NORTH REFERENCE
 HPTY.       Minimum Curvature:  HOLE POS TYPE
 DMOD.             Drill Model:  DRILL MOD DESC
 SVYD.                  Survey:  SURVEY DESC
 ILTD.               Lithology:  INTERP LTH DESC
 FTOP.          Formation Tops:  FORM TOPS DESC
 SON .        AZ-XX-0906571587:  JOB NUMBER
 COMP.     BP Exploration (Caspian Sea) Ltd:  COMPANY
 UWI .                     N/A:  UNIQUE WELL IDENTIFIER
 API .                     N/A:  API NUMBER
 BASE.              Azerbaijan:  LOGGING EQUIPMENT BASE LOCATION
 REGN.                   EESSA:  REGION
 PROV.                    Baku:  PROVINCE
 STAT.                    Baku:  STATE NAME
 CTRY.              Azerbaijan:  COUNTRY NAME
 FLD .                     ACG:  FIELD NAME
 SRVC.     TURAN Drilling & Engineering:  CONTRACTOR
 WELL.                     J27:  WELL NAME
 RIG .             West Chirag:  RIG NAME
 DOE .                     N/A:  DOE NUMBER
 DCON.         Sperry Drilling:  DIRECTNL CONTR
 PDAT.          Mean Sea Level:  PERMANENT DATUM
 WTYP.                Deviated:  WELL TYPE
 MWDS.                    Baku:  MWD SHOP
 JOBN.        AZ-XX-0906571587:  JOB TICKET NUMB
 UNIT.                     N/A:  LOGGING EQUIPMENT ID
 MDS .        Operator Entered:  MAG DATA SOURCE
 CNTY.                        :  COUNTY
 LOC .                        :  LOCATION
 LMF .             Drill Floor:  LOG MEASURED FROM
 TVDS.m                  43.00:  TVDSS CORRECTN
 LATI.deg                40.13:  LATITUDE
 LONG.deg                51.22:  LONGITUDE
 WHNS.m                   7.72:  WELL HEAD N/S
 WHEW.m                 -14.24:  WELL HEAD E/W
 UTMX.m              519005.06:  UTM X
 UTMY.m             4443793.85:  UTM Y
 DFWL.m                   0.00:  DISTANCE FWL
 DFSL.m                   0.00:  DISTANCE FSL
 SDEP.m                 347.00:  START DEPTH
 TDD .m                 581.00:  TOTAL DEPTH (DRILLER)
 VSDR.deg               159.72:  VERT SEC DIRECT
 GVFD.g                   1.00:  GRAVITY FIELD
 MFLD.nT              50318.00:  MAGNETIC FIELD
 MDIP.deg                59.57:  MAGNETIC DIP
 MDEC.deg                 6.44:  MAGNETIC DECL
 GRDC.deg                 0.15:  GRID CORRECTION
 AZTC.deg                 6.29:  AZM TOTAL CORR
 EPD .m                   0.00:  ELEVATION
 EGL .m                   0.00:  GROUND ELEVATION
 WDMS.m                 169.80:  WD ELEV
 APD .m                  43.00:  DEPTH ABOVE PD
 AGAP.m                  43.00:  AIR GAP
 VSEW.m                 -14.24:  VERT SEC E/W
 VSNS.m                   7.72:  VERT SEC N/S
 DEP .m                 342.45:  DEPTH
 EKB .m                   0.00:  KB ELEVATION
 EDF .m                  43.00:  DF ELEVATION
 TDL .m                 237.00:  TOTAL DEPTH (LOGGER)
 VSC .                       0:  VS TO CLOSURE
 MAGU.                 1851428:  MAGUTM CHECKSUM
~Parameter Information Block
#MNEM.UNIT       Value        Description
#---------     -----------    ---------------------------
 AV  .mps                 1.50:  Ann Velocity 
 AVMX.mps                 2.90:  Max Ann Veloc 
 AZIF.deg               115.59:  Azm, Final 
 BHAT.        Rotary Steerable:  BHA Type 
 BROT.°/30m               0.50:  Build Rotating 
 BS  .in                  8.50:  Bit Size 
 BTPL.psig              580.00:  Bit Press Loss 
 CABU.                     Yes:  Customer Abuse 
 COMM.                     ”Cf:  Run Comments 1 
 TCS .hr                 89.79:  Time Ciculation Ended 
 CV  .mps                 3.22:  Crit Velocity 
 CVMX.mps                 4.37:  Max Crit Veloc 
 DD1 .          Rashad Habibov:  Direct Drillr 1 
 DDSV.               Geo-Pilot:  DD Service 
 DEFF.%                  95.00:  % Det Eff 
 DLRX.°/30m               1.94:  Dogleg Rot Max 
 DLSO.°/30m               0.70:  Dogleg Oriented 
 DLSX.°/30m               1.94:  Dogleg Str Max 
 DRET.      04.45.00 25-Dec-20:  Drill End Time 
 DRST.      10.00.00 24-Dec-20:  Drill Start Tim 
 DTIM.hr                 16.64:  Time Drilling 
 EDEP.m                4999.01:  End Depth 
 ENG1.         Elchin Mammadov:  Engineer 1 
 ENG2.          Ruslan Safarov:  Engineer 2 
 ENG3.          Rustam Safarov:  Engineer 3 
 ETIM.      09.00.00 29-Dec-20:  End Time 
 FLOI.gpm               500.00:  Flow In 
 FLON.gpm               400.00:  Flow In Min 
 FLOS.cptm                0.00:  Fluid Loss 
 FLOX.gpm               500.00:  Flow In Max 
 HFLO.                      No:  High Flow 
 HPRE.                      No:  High Pressure 
 HTEM.                      No:  High Temp 
 HYDO.m                   2.00:  Hydro Offset 
 IFIN.deg                66.79:  Inc, Final 
 IMAX.deg                67.66:  Inc Max 
 IMIN.deg                66.39:  Inc Min 
 IMND.m                4949.37:  Inc Min Depth 
 IMXD.m                4778.63:  Inc Max Depth 
 JARR.                     Yes:  Jarring 
 LETM.      04.45.00 25-Dec-20:  Log End Time 
 LOST.hr                     0:  Lost Rig Time 
 LSTM.      10.00.00 24-Dec-20:  Log Start Time 
 MDCL.ppm             39000.00:  Mud Chlorides 
 MDES.     Inversion Oil/Synthetic:  Mud Desc 
 DFD .sg                  1.33:  Mud Density 
 MDMN.sg                  1.33:  Dens Mud Min 
 MDMX.sg                  1.33:  Dens Mud Max 
 MOIL.                      70:  Run Mud Oil % 
 MOWR.                   70:30:  Run Mud OWR 
 MSND.                       0:  Run Mud Sand % 
 MSOL.                    17.4:  Run Mud Solids% 
 DFV .spqt               84.00:  Mud Viscosity 
 MWOD.in                  6.75:  MWD Tool OD 
 MWSI.                     Yes:  Serv Intrp, MWD 
 OTIM.hr                168.14:  Time Operating 
 PCON.           Look Like New:  Pad Condition 
 PMAX.psia            10822.93:  Press Op, Max 
 PV  .cP                 30.00:  Mud PV 
 RUN .                     900:  Run Number 
 ROPA.m/hr               18.00:  ROP Avg 
 ROPN.m/hr               12.00:  ROP Min 
 ROPX.m/hr               25.00:  ROP Max 
 RPMA.rpm               120.00:  RPM Surface Avg 
 RPMN.rpm               100.00:  RPM Surface Min 
 RPMX.rpm               120.00:  RPM Surface Max 
 RRUN.                    0900:  Rig Run Number 
 SAZI.deg               115.08:  Azm, Start 
 SDEP.m                4762.01:  Start Depth 
 SIDD.                      No:  Serv Intrp, DD 
 SINC.deg                66.14:  Inc, Start 
 SPPA.psig             3700.00:  SPP Avg 
 SPPN.psig             3620.00:  SPP Min 
 SPPX.psig             3900.00:  SPP Max 
 STIM.      09.30.00 22-Dec-20:  Start Time 
 SVCS.                 DD, MWD:  Services 
 SVER.                    9.20:  Sperry Version 
 TDAT.m                 237.00:  Tot Depth Attmp 
 TDDF.                      No:  Trip for DD 
 TDLG.m                 237.00:  Tot Depth Loggd 
 TFF .                      No:  Trip for Fail 
 TQAA.f-kp               18.00:  Torque Abs Avg 
 TQAN.f-kp               17.00:  Torque Abs Min 
 TQAX.f-kp               20.00:  Torque Abs Max 
 TRRT.°/30m               0.60:  Turn Rotating 
 MRT .                    HCIM:  Maximum Recorded Temperature 
 TTMX.degC               94.12:  Max Tool Temp 
 VS01.                90627809:  Virtual Str1 SN 
 VS02.                90527813:  Virtual Str2 SN 
 VS03.                90545417:  Virtual Str3 SN 
 VS04.                12460870:  Virtual Str4 SN 
 VS05.                90516706:  Virtual Str5 SN 
 VS06.                90632007:  Virtual Str6 SN 
 WBMN.klb                 0.00:  WOB Min 
 WOBA.klb                14.00:  WOB Avg 
 WOBX.klb                25.00:  WOB Max 
 YP  .lhf2               32.00:  Yield Point 
~Curve Information Block
#MNEM.UNIT                 API CODE     Curve Description
#---------               -----------    ---------------------------
 TIME.HHMMSS            00 000 000 000:  GT Time & Date
 GTDEPTH.m              00 000 000 000:  GT Depth
 GTPQH.psia             00 000 000 000:  GT HR Quartz Pressure
 GTTQ.degC              00 000 000 000:  GT Quartz Temperature
 GTTN.NONE              00 000 000 000:  GT Test Number
 GTET.sec               00 000 000 000:  GT Elapsed Test Time
 GTTVD.m                00 000 000 000:  GT True Vertical Depth
#Other Information
#
#WARRANTY: Halliburton will use its best efforts to furnish customers with 
#accurate information and interpretations that are part of, and incident to, the services 
#provided.  However, Halliburton cannot and does not warrant the accuracy 
#or correctness of such information and interpretations.  Under no circumstances should any 
#such information or interpretation be relied upon as the sole basis for any drilling, 
#completion, production, or financial decision or any procedure involving any risk to the 
#safety of any drilling venture, drilling rig or its crew or any other third party.  The 
#Customer has full responsibility for all drilling, completion and production operation.  
#Halliburton makes no representations or warranties, either expressed or 
#implied, including, but not limited to, the implied warranties of merchantability or fitness 
#for a particular purpose, with respect to the services rendered.  In no event will 
#Halliburton be liable for failure to obtain any particular results or for 
#any damages, including, but not limited to, indirect, special or consequential damages, 
#resulting from the use of any information or interpretation provided by Halliburton.
#
~A           TIME           GTDEPTH  GTPQH  GTTQ  GTTN  GTET   GTTVD  
# ...
   20:29:51.848.25-Dec-2020 4794.01 5422.29 63.80 8.00 459.97 2496.73
   20:29:52.048.25-Dec-2020 4794.01 5423.76 63.81 8.00 460.17 2496.73
   20:29:52.248.25-Dec-2020 4794.01 5427.43 63.81 8.00 460.37 2496.73
   20:29:52.448.25-Dec-2020 4794.01 5424.71 63.81 8.00 460.57 2496.73
   20:29:52.648.25-Dec-2020 4794.01 5424.25 63.81 8.00 460.77 2496.73
   20:29:52.848.25-Dec-2020 4794.01 5426.48 63.81 8.00 460.97 2496.73
   20:29:53.048.25-Dec-2020 4794.01 5425.17 63.81 8.00 461.17 2496.73
   20:29:53.248.25-Dec-2020 4794.01 5423.70 63.81 8.00 461.37 2496.73
   20:29:53.448.25-Dec-2020 4794.01 5426.19 63.81 8.00 461.57 2496.73
   20:29:53.648.25-Dec-2020 4794.01 5424.78 63.82 8.00 461.77 2496.73
   20:29:53.848.25-Dec-2020 4794.01 5425.79 63.82 8.00 461.97 2496.73
   20:29:54.048.25-Dec-2020 4794.01 5425.79 63.82 8.00 462.17 2496.73
   20:29:54.248.25-Dec-2020 4794.01 5426.00 63.82 8.00 462.37 2496.73
   20:29:54.448.25-Dec-2020 4794.01 5426.16 63.82 8.00 462.57 2496.73
   20:29:54.648.25-Dec-2020 4794.01 5426.52 63.83 8.00 462.77 2496.73
   20:29:54.848.25-Dec-2020 4794.01 5438.52 63.83 8.00 462.97 2496.73
   20:29:55.048.25-Dec-2020 4794.01 5438.52 63.83 8.00 463.17 2496.73
   20:29:55.248.25-Dec-2020 4794.01 5431.62 63.83 8.00 463.37 2496.73
   20:29:55.448.25-Dec-2020 4794.01 5432.46 63.84 8.00 463.57 2496.73
   20:29:55.648.25-Dec-2020 4794.01 5428.76 63.84 8.00 463.77 2496.73
   20:29:55.848.25-Dec-2020 4794.01 5430.91 63.84 8.00 463.97 2496.73
   20:29:56.048.25-Dec-2020 4794.01 5428.33 63.84 8.00 464.17 2496.73
   20:29:56.248.25-Dec-2020 4794.01 5429.86 63.84 8.00 464.37 2496.73
   20:29:56.448.25-Dec-2020 4794.01 5428.07 63.85 8.00 464.57 2496.73
   20:29:56.648.25-Dec-2020 4794.01 5428.01 63.85 8.00 464.77 2496.73
   20:29:56.848.25-Dec-2020 4794.01 5428.51 63.85 8.00 464.97 2496.73
   20:29:57.048.25-Dec-2020 4794.01 5427.20 63.85 8.00 465.17 2496.73
   20:29:57.248.25-Dec-2020 4794.01 5434.19 63.85 8.00 465.37 2496.73
   20:29:57.448.25-Dec-2020 4794.01 5431.53 63.86 8.00 465.57 2496.73
   20:29:57.648.25-Dec-2020 4794.01 5427.09 63.86 8.00 465.77 2496.73
   20:29:57.848.25-Dec-2020 4794.01 5434.77 63.86 8.00 465.97 2496.73
   20:29:58.048.25-Dec-2020 4794.01 5434.77 63.86 8.00 466.17 2496.73
   20:29:58.248.25-Dec-2020 4794.01 5435.14 63.86 8.00 466.37 2496.73
   20:29:58.448.25-Dec-2020 4794.01 5433.41 63.86 8.00 466.57 2496.73
   20:29:58.648.25-Dec-2020 4794.01 5423.90 63.86 8.00 466.77 2496.73
   20:29:58.848.25-Dec-2020 4794.01 5436.20 63.87 8.00 466.97 2496.73
   20:29:59.048.25-Dec-2020 4794.01 5436.20 63.87 8.00 467.17 2496.73
   20:29:59.248.25-Dec-2020 4794.01 5429.42 63.87 8.00 467.37 2496.73
   20:29:59.448.25-Dec-2020 4794.01 5433.09 63.87 8.00 467.57 2496.73
   20:29:59.648.25-Dec-2020 4794.01 5431.15 63.87 8.00 467.77 2496.73
   20:29:59.848.25-Dec-2020 4794.01 5427.54 63.87 8.00 467.97 2496.73
   20:30:00.048.25-Dec-2020 4794.01 5432.44 63.87 8.00 468.17 2496.73
   20:30:00.248.25-Dec-2020 4794.01 5439.21 63.87 8.00 468.37 2496.73
   20:30:00.448.25-Dec-2020 4794.01 5423.74 63.87 8.00 468.57 2496.73
   20:30:00.648.25-Dec-2020 4794.01 5429.63 63.88 8.00 468.77 2496.73
   20:30:00.848.25-Dec-2020 4794.01 5432.29 63.88 8.00 468.97 2496.73
   20:30:01.048.25-Dec-2020 4794.01 5428.31 63.88 8.00 469.17 2496.73
   20:30:01.248.25-Dec-2020 4794.01 5428.01 63.88 8.00 469.37 2496.73
   20:30:01.448.25-Dec-2020 4794.01 5427.55 63.88 8.00 469.57 2496.73
   20:30:01.648.25-Dec-2020 4794.01 5427.66 63.88 8.00 469.77 2496.73
   20:30:01.848.25-Dec-2020 4794.01 5427.95 63.88 8.00 469.97 2496.73
   20:30:02.048.25-Dec-2020 4794.01 5427.95 63.88 8.00 470.17 2496.73
   20:30:02.248.25-Dec-2020 4794.01 5427.43 63.88 8.00 470.37 2496.73
   20:30:02.448.25-Dec-2020 4794.01 5427.68 63.88 8.00 470.57 2496.73
   20:30:02.648.25-Dec-2020 4794.01 5433.84 63.88 8.00 470.77 2496.73
   20:30:02.848.25-Dec-2020 4794.01 5432.79 63.88 8.00 470.97 2496.73
   20:30:03.048.25-Dec-2020 4794.01 5432.79 63.88 8.00 471.17 2496.73
   20:30:03.248.25-Dec-2020 4794.01 5435.94 63.88 8.00 471.37 2496.73
   20:30:03.448.25-Dec-2020 4794.01 5428.42 63.88 8.00 471.57 2496.73
   20:30:03.648.25-Dec-2020 4794.01 5429.03 63.88 8.00 471.77 2496.73
   20:30:03.848.25-Dec-2020 4794.01 5429.31 63.88 8.00 471.97 2496.73
   20:30:04.048.25-Dec-2020 4794.01 5429.31 63.88 8.00 472.17 2496.73
   20:30:04.247.25-Dec-2020 4794.01 5429.10 63.88 8.00 472.37 2496.73
   20:30:04.447.25-Dec-2020 4794.01 5428.33 63.88 8.00 472.57 2496.73
   20:30:04.647.25-Dec-2020 4794.01 5427.79 63.88 8.00 472.77 2496.73
   20:30:04.847.25-Dec-2020 4794.01 5428.38 63.88 8.00 472.97 2496.73
   20:30:05.047.25-Dec-2020 4794.01 5427.47 63.88 8.00 473.17 2496.73
   20:30:05.247.25-Dec-2020 4794.01 5428.13 63.88 8.00 473.37 2496.73
   20:30:05.447.25-Dec-2020 4794.01 5434.26 63.88 8.00 473.57 2496.73
   20:30:05.647.25-Dec-2020 4794.01 5429.15 63.88 8.00 473.77 2496.73
   20:30:05.847.25-Dec-2020 4794.01 5430.67 63.88 8.00 473.97 2496.73
   20:30:06.047.25-Dec-2020 4794.01 5430.67 63.88 8.00 474.17 2496.73
   20:30:06.247.25-Dec-2020 4794.01 5436.35 63.88 8.00 474.37 2496.73
   20:30:06.447.25-Dec-2020 4794.01 5431.07 63.88 8.00 474.57 2496.73
   20:30:06.647.25-Dec-2020 4794.01 5428.61 63.88 8.00 474.77 2496.73
   20:30:06.847.25-Dec-2020 4794.01 5445.23 63.88 8.00 474.97 2496.73
   20:30:07.047.25-Dec-2020 4794.01 5445.23 63.88 8.00 475.17 2496.73
   20:30:07.247.25-Dec-2020 4794.01 5429.13 63.88 8.00 475.37 2496.73
   20:30:07.447.25-Dec-2020 4794.01 5439.83 63.88 8.00 475.57 2496.73
   20:30:07.647.25-Dec-2020 4794.01 5433.06 63.88 8.00 475.77 2496.73
   20:30:07.847.25-Dec-2020 4794.01 5425.12 63.88 8.00 475.97 2496.73
   20:30:08.047.25-Dec-2020 4794.01 5425.12 63.88 8.00 476.17 2496.73
   20:30:08.247.25-Dec-2020 4794.01 5428.24 63.88 8.00 476.37 2496.73
   20:30:08.447.25-Dec-2020 4794.01 5429.38 63.88 8.00 476.57 2496.73
   20:30:08.647.25-Dec-2020 4794.01 5428.16 63.88 8.00 476.77 2496.73
   20:30:08.847.25-Dec-2020 4794.01 5428.60 63.88 8.00 476.97 2496.73
   20:30:09.047.25-Dec-2020 4794.01 5428.60 63.88 8.00 477.17 2496.73
   20:30:09.247.25-Dec-2020 4794.01 5426.74 63.88 8.00 477.37 2496.73
   20:30:09.447.25-Dec-2020 4794.01 5428.03 63.88 8.00 477.57 2496.73
   20:30:09.647.25-Dec-2020 4794.01 5426.96 63.88 8.00 477.77 2496.73
   20:30:09.847.25-Dec-2020 4794.01 5427.86 63.88 8.00 477.97 2496.73
   20:30:10.047.25-Dec-2020 4794.01 5427.86 63.88 8.00 478.17 2496.73
   20:30:10.247.25-Dec-2020 4794.01 5425.03 63.88 8.00 478.37 2496.73
   20:30:10.447.25-Dec-2020 4794.01 5431.38 63.88 8.00 478.57 2496.73
   20:30:10.647.25-Dec-2020 4794.01 5431.73 63.88 8.00 478.77 2496.73
   20:30:10.847.25-Dec-2020 4794.01 5429.76 63.88 8.00 478.97 2496.73
   20:30:11.047.25-Dec-2020 4794.01 5429.76 63.88 8.00 479.17 2496.73
   20:30:11.247.25-Dec-2020 4794.01 5428.38 63.88 8.00 479.37 2496.73
   20:30:11.447.25-Dec-2020 4794.01 5430.31 63.88 8.00 479.57 2496.73
   20:30:11.647.25-Dec-2020 4794.01 5428.25 63.88 8.00 479.77 2496.73
   20:30:11.847.25-Dec-2020 4794.01 5430.12 63.88 8.00 479.97 2496.73
   20:30:12.047.25-Dec-2020 4794.01 5429.30 63.88 8.00 480.17 2496.73
   20:30:12.247.25-Dec-2020 4794.01 5428.74 63.88 8.00 480.37 2496.73
   20:30:12.447.25-Dec-2020 4794.01 5429.47 63.88 8.00 480.57 2496.73
   20:30:12.647.25-Dec-2020 4794.01 5438.89 63.88 8.00 480.77 2496.73
   20:30:12.847.25-Dec-2020 4794.01 5425.89 63.88 8.00 480.97 2496.73
   20:30:13.047.25-Dec-2020 4794.01 5429.78 63.88 8.00 481.17 2496.73
   20:30:13.247.25-Dec-2020 4794.01 5432.71 63.88 8.00 481.37 2496.73
   20:30:13.447.25-Dec-2020 4794.01 5436.24 63.88 8.00 481.57 2496.73
   20:30:13.647.25-Dec-2020 4794.01 5431.99 63.88 8.00 481.77 2496.73
   20:30:13.847.25-Dec-2020 4794.01 5429.09 63.88 8.00 481.97 2496.73
   20:30:14.047.25-Dec-2020 4794.01 5429.09 63.88 8.00 482.17 2496.73
   20:30:14.247.25-Dec-2020 4794.01 5433.18 63.87 8.00 482.37 2496.73
   20:30:14.447.25-Dec-2020 4794.01 5426.47 63.87 8.00 482.57 2496.73
   20:30:14.647.25-Dec-2020 4794.01 5437.68 63.87 8.00 482.77 2496.73
