~Version Information
 VERS.                  2.0:   CWLS log ASCII Standard -VERSION 2.0
 WRAP.                   NO:   One line per depth step
~Well Information Block
#MNEM.UNIT     VALUE/NAME     DESCRIPTION
#---------     -----------    ---------------------------
 STRT.S             13:59:04 25-Dec-20: START TIME 13:59:04 25-Dec-20
 STOP.S             14:07:22 25-Dec-20: STOP TIME  14:07:22 25-Dec-20
 STEP.S                   0.00: STEP TIME
 NULL.                 -999.25: NULL VALUE
 DFWT.                        :  DIST FWL TEXT
 DFST.                        :  DIST FSL TEXT
 DMF .             Drill Floor:  DRILL MEAS FROM
 STIM.      04.54.24 22-Sep-20:  START TIME
 DATE.      04.54.24 21-Nov-20:  END TIME
 SPUD.               21-Nov-20:  SPUD DATE
 NREF.                    Grid:  NORTH REFERENCE
 HPTY.       Minimum Curvature:  HOLE POS TYPE
 DMOD.             Drill Model:  DRILL MOD DESC
 SVYD.                  Survey:  SURVEY DESC
 ILTD.               Lithology:  INTERP LTH DESC
 FTOP.          Formation Tops:  FORM TOPS DESC
 SON .        AZ-XX-0906571587:  JOB NUMBER
 COMP.     BP Exploration (Caspian Sea) Ltd:  COMPANY
 UWI .                     N/A:  UNIQUE WELL IDENTIFIER
 API .                     N/A:  API NUMBER
 BASE.              Azerbaijan:  LOGGING EQUIPMENT BASE LOCATION
 REGN.                   EESSA:  REGION
 PROV.                    Baku:  PROVINCE
 STAT.                    Baku:  STATE NAME
 CTRY.              Azerbaijan:  COUNTRY NAME
 FLD .                     ACG:  FIELD NAME
 SRVC.     TURAN Drilling & Engineering:  CONTRACTOR
 WELL.                     J27:  WELL NAME
 RIG .             West Chirag:  RIG NAME
 DOE .                     N/A:  DOE NUMBER
 DCON.         Sperry Drilling:  DIRECTNL CONTR
 PDAT.          Mean Sea Level:  PERMANENT DATUM
 WTYP.                Deviated:  WELL TYPE
 MWDS.                    Baku:  MWD SHOP
 JOBN.        AZ-XX-0906571587:  JOB TICKET NUMB
 UNIT.                     N/A:  LOGGING EQUIPMENT ID
 MDS .        Operator Entered:  MAG DATA SOURCE
 CNTY.                        :  COUNTY
 LOC .                        :  LOCATION
 LMF .             Drill Floor:  LOG MEASURED FROM
 TVDS.m                  43.00:  TVDSS CORRECTN
 LATI.deg                40.13:  LATITUDE
 LONG.deg                51.22:  LONGITUDE
 WHNS.m                   7.72:  WELL HEAD N/S
 WHEW.m                 -14.24:  WELL HEAD E/W
 UTMX.m              519005.06:  UTM X
 UTMY.m             4443793.85:  UTM Y
 DFWL.m                   0.00:  DISTANCE FWL
 DFSL.m                   0.00:  DISTANCE FSL
 SDEP.m                 347.00:  START DEPTH
 TDD .m                 581.00:  TOTAL DEPTH (DRILLER)
 VSDR.deg               159.72:  VERT SEC DIRECT
 GVFD.g                   1.00:  GRAVITY FIELD
 MFLD.nT              50318.00:  MAGNETIC FIELD
 MDIP.deg                59.57:  MAGNETIC DIP
 MDEC.deg                 6.44:  MAGNETIC DECL
 GRDC.deg                 0.15:  GRID CORRECTION
 AZTC.deg                 6.29:  AZM TOTAL CORR
 EPD .m                   0.00:  ELEVATION
 EGL .m                   0.00:  GROUND ELEVATION
 WDMS.m                 169.80:  WD ELEV
 APD .m                  43.00:  DEPTH ABOVE PD
 AGAP.m                  43.00:  AIR GAP
 VSEW.m                 -14.24:  VERT SEC E/W
 VSNS.m                   7.72:  VERT SEC N/S
 DEP .m                 342.45:  DEPTH
 EKB .m                   0.00:  KB ELEVATION
 EDF .m                  43.00:  DF ELEVATION
 TDL .m                 237.00:  TOTAL DEPTH (LOGGER)
 VSC .                       0:  VS TO CLOSURE
 MAGU.                 1851428:  MAGUTM CHECKSUM
~Parameter Information Block
#MNEM.UNIT       Value        Description
#---------     -----------    ---------------------------
 AV  .mps                 1.50:  Ann Velocity 
 AVMX.mps                 2.90:  Max Ann Veloc 
 AZIF.deg               115.59:  Azm, Final 
 BHAT.        Rotary Steerable:  BHA Type 
 BROT.°/30m               0.50:  Build Rotating 
 BS  .in                  8.50:  Bit Size 
 BTPL.psig              580.00:  Bit Press Loss 
 CABU.                     Yes:  Customer Abuse 
 COMM.                     ì©q:  Run Comments 1 
 TCS .hr                 89.79:  Time Ciculation Ended 
 CV  .mps                 3.22:  Crit Velocity 
 CVMX.mps                 4.37:  Max Crit Veloc 
 DD1 .          Rashad Habibov:  Direct Drillr 1 
 DDSV.               Geo-Pilot:  DD Service 
 DEFF.%                  95.00:  % Det Eff 
 DLRX.°/30m               1.94:  Dogleg Rot Max 
 DLSO.°/30m               0.70:  Dogleg Oriented 
 DLSX.°/30m               1.94:  Dogleg Str Max 
 DRET.      04.45.00 25-Dec-20:  Drill End Time 
 DRST.      10.00.00 24-Dec-20:  Drill Start Tim 
 DTIM.hr                 16.64:  Time Drilling 
 EDEP.m                4999.01:  End Depth 
 ENG1.         Elchin Mammadov:  Engineer 1 
 ENG2.          Ruslan Safarov:  Engineer 2 
 ENG3.          Rustam Safarov:  Engineer 3 
 ETIM.      09.00.00 29-Dec-20:  End Time 
 FLOI.gpm               500.00:  Flow In 
 FLON.gpm               400.00:  Flow In Min 
 FLOS.cptm                0.00:  Fluid Loss 
 FLOX.gpm               500.00:  Flow In Max 
 HFLO.                      No:  High Flow 
 HPRE.                      No:  High Pressure 
 HTEM.                      No:  High Temp 
 HYDO.m                   2.00:  Hydro Offset 
 IFIN.deg                66.79:  Inc, Final 
 IMAX.deg                67.66:  Inc Max 
 IMIN.deg                66.39:  Inc Min 
 IMND.m                4949.37:  Inc Min Depth 
 IMXD.m                4778.63:  Inc Max Depth 
 JARR.                     Yes:  Jarring 
 LETM.      04.45.00 25-Dec-20:  Log End Time 
 LOST.hr                     0:  Lost Rig Time 
 LSTM.      10.00.00 24-Dec-20:  Log Start Time 
 MDCL.ppm             39000.00:  Mud Chlorides 
 MDES.     Inversion Oil/Synthetic:  Mud Desc 
 DFD .sg                  1.33:  Mud Density 
 MDMN.sg                  1.33:  Dens Mud Min 
 MDMX.sg                  1.33:  Dens Mud Max 
 MOIL.                      70:  Run Mud Oil % 
 MOWR.                   70:30:  Run Mud OWR 
 MSND.                       0:  Run Mud Sand % 
 MSOL.                    17.4:  Run Mud Solids% 
 DFV .spqt               84.00:  Mud Viscosity 
 MWOD.in                  6.75:  MWD Tool OD 
 MWSI.                     Yes:  Serv Intrp, MWD 
 OTIM.hr                168.14:  Time Operating 
 PCON.           Look Like New:  Pad Condition 
 PMAX.psia            10822.93:  Press Op, Max 
 PV  .cP                 30.00:  Mud PV 
 RUN .                     900:  Run Number 
 ROPA.m/hr               18.00:  ROP Avg 
 ROPN.m/hr               12.00:  ROP Min 
 ROPX.m/hr               25.00:  ROP Max 
 RPMA.rpm               120.00:  RPM Surface Avg 
 RPMN.rpm               100.00:  RPM Surface Min 
 RPMX.rpm               120.00:  RPM Surface Max 
 RRUN.                    0900:  Rig Run Number 
 SAZI.deg               115.08:  Azm, Start 
 SDEP.m                4762.01:  Start Depth 
 SIDD.                      No:  Serv Intrp, DD 
 SINC.deg                66.14:  Inc, Start 
 SPPA.psig             3700.00:  SPP Avg 
 SPPN.psig             3620.00:  SPP Min 
 SPPX.psig             3900.00:  SPP Max 
 STIM.      09.30.00 22-Dec-20:  Start Time 
 SVCS.                 DD, MWD:  Services 
 SVER.                    9.20:  Sperry Version 
 TDAT.m                 237.00:  Tot Depth Attmp 
 TDDF.                      No:  Trip for DD 
 TDLG.m                 237.00:  Tot Depth Loggd 
 TFF .                      No:  Trip for Fail 
 TQAA.f-kp               18.00:  Torque Abs Avg 
 TQAN.f-kp               17.00:  Torque Abs Min 
 TQAX.f-kp               20.00:  Torque Abs Max 
 TRRT.°/30m               0.60:  Turn Rotating 
 MRT .                    HCIM:  Maximum Recorded Temperature 
 TTMX.degC               94.12:  Max Tool Temp 
 VS01.                90627809:  Virtual Str1 SN 
 VS02.                90527813:  Virtual Str2 SN 
 VS03.                90545417:  Virtual Str3 SN 
 VS04.                12460870:  Virtual Str4 SN 
 VS05.                90516706:  Virtual Str5 SN 
 VS06.                90632007:  Virtual Str6 SN 
 WBMN.klb                 0.00:  WOB Min 
 WOBA.klb                14.00:  WOB Avg 
 WOBX.klb                25.00:  WOB Max 
 YP  .lhf2               32.00:  Yield Point 
~Curve Information Block
#MNEM.UNIT                 API CODE     Curve Description
#---------               -----------    ---------------------------
 TIME.HHMMSS            00 000 000 000:  GT Time & Date
 GTDEPTH.m              00 000 000 000:  GT Depth
 GTPQH.psia             00 000 000 000:  GT HR Quartz Pressure
 GTTQ.degC              00 000 000 000:  GT Quartz Temperature
 GTTN.NONE              00 000 000 000:  GT Test Number
 GTET.sec               00 000 000 000:  GT Elapsed Test Time
 GTTVD.m                00 000 000 000:  GT True Vertical Depth
#Other Information
#
#WARRANTY: Halliburton will use its best efforts to furnish customers with 
#accurate information and interpretations that are part of, and incident to, the services 
#provided.  However, Halliburton cannot and does not warrant the accuracy 
#or correctness of such information and interpretations.  Under no circumstances should any 
#such information or interpretation be relied upon as the sole basis for any drilling, 
#completion, production, or financial decision or any procedure involving any risk to the 
#safety of any drilling venture, drilling rig or its crew or any other third party.  The 
#Customer has full responsibility for all drilling, completion and production operation.  
#Halliburton makes no representations or warranties, either expressed or 
#implied, including, but not limited to, the implied warranties of merchantability or fitness 
#for a particular purpose, with respect to the services rendered.  In no event will 
#Halliburton be liable for failure to obtain any particular results or for 
#any damages, including, but not limited to, indirect, special or consequential damages, 
#resulting from the use of any information or interpretation provided by Halliburton.
#
~A           TIME           GTDEPTH  GTPQH  GTTQ  GTTN  GTET   GTTVD  
# ...
   14:02:54.000.25-Dec-2020 4920.01 2664.81 65.72 3.00 230.00 2546.09
   14:02:54.200.25-Dec-2020 4920.01 2664.81 65.72 3.00 230.20 2546.09
   14:02:54.400.25-Dec-2020 4920.01 2664.82 65.72 3.00 230.40 2546.09
   14:02:54.600.25-Dec-2020 4920.01 2664.80 65.72 3.00 230.60 2546.09
   14:02:54.800.25-Dec-2020 4920.01 2664.95 65.72 3.00 230.80 2546.09
   14:02:55.000.25-Dec-2020 4920.01 2664.83 65.72 3.00 231.00 2546.09
   14:02:55.200.25-Dec-2020 4920.01 2664.87 65.72 3.00 231.20 2546.09
   14:02:55.400.25-Dec-2020 4920.01 2664.80 65.72 3.00 231.40 2546.09
   14:02:55.600.25-Dec-2020 4920.01 2664.80 65.72 3.00 231.60 2546.09
   14:02:55.800.25-Dec-2020 4920.01 2664.82 65.72 3.00 231.80 2546.09
   14:02:56.000.25-Dec-2020 4920.01 2664.80 65.72 3.00 232.00 2546.09
   14:02:56.200.25-Dec-2020 4920.01 2664.83 65.72 3.00 232.20 2546.09
   14:02:56.400.25-Dec-2020 4920.01 2664.83 65.72 3.00 232.40 2546.09
   14:02:56.600.25-Dec-2020 4920.01 2664.83 65.72 3.00 232.60 2546.09
   14:02:56.800.25-Dec-2020 4920.01 2664.82 65.72 3.00 232.80 2546.09
   14:02:57.000.25-Dec-2020 4920.01 2664.61 65.72 3.00 233.00 2546.09
   14:02:57.200.25-Dec-2020 4920.01 2664.61 65.72 3.00 233.20 2546.09
   14:02:57.400.25-Dec-2020 4920.01 2664.68 65.72 3.00 233.40 2546.09
   14:02:57.600.25-Dec-2020 4920.01 2664.79 65.72 3.00 233.60 2546.09
   14:02:57.800.25-Dec-2020 4920.01 2664.83 65.72 3.00 233.80 2546.09
   14:02:58.000.25-Dec-2020 4920.01 2664.91 65.72 3.00 234.00 2546.09
   14:02:58.200.25-Dec-2020 4920.01 2664.91 65.72 3.00 234.20 2546.09
   14:02:58.400.25-Dec-2020 4920.01 2664.79 65.72 3.00 234.40 2546.09
   14:02:58.600.25-Dec-2020 4920.01 2664.60 65.72 3.00 234.60 2546.09
   14:02:58.800.25-Dec-2020 4920.01 2665.28 65.72 3.00 234.80 2546.09
   14:02:59.000.25-Dec-2020 4920.01 2664.70 65.72 3.00 235.00 2546.09
   14:02:59.200.25-Dec-2020 4920.01 2664.61 65.72 3.00 235.20 2546.09
   14:02:59.400.25-Dec-2020 4920.01 2665.29 65.72 3.00 235.40 2546.09
   14:02:59.600.25-Dec-2020 4920.01 2664.71 65.72 3.00 235.60 2546.09
   14:02:59.800.25-Dec-2020 4920.01 2664.75 65.72 3.00 235.80 2546.09
   14:03:00.000.25-Dec-2020 4920.01 2664.76 65.72 3.00 236.00 2546.09
   14:03:00.200.25-Dec-2020 4920.01 2664.76 65.72 3.00 236.20 2546.09
   14:03:00.400.25-Dec-2020 4920.01 2664.79 65.72 3.00 236.40 2546.09
   14:03:00.600.25-Dec-2020 4920.01 2664.79 65.72 3.00 236.60 2546.09
   14:03:00.800.25-Dec-2020 4920.01 2664.79 65.72 3.00 236.80 2546.09
   14:03:01.000.25-Dec-2020 4920.01 2664.79 65.72 3.00 237.00 2546.09
   14:03:01.200.25-Dec-2020 4920.01 2664.79 65.72 3.00 237.20 2546.09
   14:03:01.400.25-Dec-2020 4920.01 2664.81 65.72 3.00 237.40 2546.09
   14:03:01.600.25-Dec-2020 4920.01 2664.81 65.72 3.00 237.60 2546.09
   14:03:01.800.25-Dec-2020 4920.01 2664.79 65.72 3.00 237.80 2546.09
   14:03:02.000.25-Dec-2020 4920.01 2664.93 65.72 3.00 238.00 2546.09
   14:03:02.200.25-Dec-2020 4920.01 2664.93 65.72 3.00 238.20 2546.09
   14:03:02.400.25-Dec-2020 4920.01 2664.84 65.72 3.00 238.40 2546.09
   14:03:02.600.25-Dec-2020 4920.01 2664.80 65.72 3.00 238.60 2546.09
   14:03:02.800.25-Dec-2020 4920.01 2664.81 65.72 3.00 238.80 2546.09
   14:03:03.000.25-Dec-2020 4920.01 2664.81 65.72 3.00 239.00 2546.09
   14:03:03.200.25-Dec-2020 4920.01 2664.81 65.72 3.00 239.20 2546.09
   14:03:03.400.25-Dec-2020 4920.01 2664.80 65.72 3.00 239.40 2546.09
   14:03:03.600.25-Dec-2020 4920.01 2664.83 65.72 3.00 239.60 2546.09
   14:03:03.800.25-Dec-2020 4920.01 2664.83 65.72 3.00 239.80 2546.09
   14:03:04.000.25-Dec-2020 4920.01 2664.80 65.72 3.00 240.00 2546.09
   14:03:04.200.25-Dec-2020 4920.01 2664.64 65.72 3.00 240.20 2546.09
   14:03:04.400.25-Dec-2020 4920.01 2665.27 65.72 3.00 240.40 2546.09
   14:03:04.600.25-Dec-2020 4920.01 2664.69 65.72 3.00 240.60 2546.09
   14:03:04.800.25-Dec-2020 4920.01 2664.80 65.72 3.00 240.80 2546.09
   14:03:05.000.25-Dec-2020 4920.01 2664.82 65.72 3.00 241.00 2546.09
   14:03:05.200.25-Dec-2020 4920.01 2664.82 65.72 3.00 241.20 2546.09
   14:03:05.400.25-Dec-2020 4920.01 2664.77 65.71 3.00 241.40 2546.09
   14:03:05.600.25-Dec-2020 4920.01 2664.80 65.71 3.00 241.60 2546.09
   14:03:05.800.25-Dec-2020 4920.01 2664.61 65.71 3.00 241.80 2546.09
   14:03:06.000.25-Dec-2020 4920.01 2665.24 65.71 3.00 242.00 2546.09
   14:03:06.200.25-Dec-2020 4920.01 2665.24 65.71 3.00 242.20 2546.09
   14:03:06.400.25-Dec-2020 4920.01 2664.58 65.71 3.00 242.40 2546.09
   14:03:06.600.25-Dec-2020 4920.01 2665.29 65.71 3.00 242.60 2546.09
   14:03:06.800.25-Dec-2020 4920.01 2664.71 65.71 3.00 242.80 2546.09
   14:03:07.000.25-Dec-2020 4920.01 2664.72 65.71 3.00 243.00 2546.09
   14:03:07.200.25-Dec-2020 4920.01 2664.77 65.71 3.00 243.20 2546.09
   14:03:07.400.25-Dec-2020 4920.01 2664.78 65.71 3.00 243.40 2546.09
   14:03:07.600.25-Dec-2020 4920.01 2664.78 65.71 3.00 243.60 2546.09
   14:03:07.800.25-Dec-2020 4920.01 2664.81 65.71 3.00 243.80 2546.09
   14:03:08.000.25-Dec-2020 4920.01 2664.79 65.71 3.00 244.00 2546.09
   14:03:08.200.25-Dec-2020 4920.01 2664.80 65.71 3.00 244.20 2546.09
   14:03:08.400.25-Dec-2020 4920.01 2664.79 65.71 3.00 244.40 2546.09
   14:03:08.600.25-Dec-2020 4920.01 2664.79 65.71 3.00 244.60 2546.09
   14:03:08.800.25-Dec-2020 4920.01 2664.83 65.71 3.00 244.80 2546.09
   14:03:09.000.25-Dec-2020 4920.01 2664.77 65.71 3.00 245.00 2546.09
   14:03:09.200.25-Dec-2020 4920.01 2664.77 65.71 3.00 245.20 2546.09
   14:03:09.400.25-Dec-2020 4920.01 2664.82 65.71 3.00 245.40 2546.09
   14:03:09.600.25-Dec-2020 4920.01 2664.83 65.71 3.00 245.60 2546.09
   14:03:09.800.25-Dec-2020 4920.01 2664.78 65.71 3.00 245.80 2546.09
   14:03:10.000.25-Dec-2020 4920.01 2664.78 65.71 3.00 246.00 2546.09
   14:03:10.200.25-Dec-2020 4920.01 2664.78 65.71 3.00 246.20 2546.09
   14:03:10.400.25-Dec-2020 4920.01 2664.80 65.71 3.00 246.40 2546.09
   14:03:10.600.25-Dec-2020 4920.01 2664.81 65.71 3.00 246.60 2546.09
   14:03:10.800.25-Dec-2020 4920.01 2664.85 65.71 3.00 246.80 2546.09
   14:03:11.000.25-Dec-2020 4920.01 2664.82 65.71 3.00 247.00 2546.09
   14:03:11.200.25-Dec-2020 4920.01 2664.81 65.71 3.00 247.20 2546.09
   14:03:11.400.25-Dec-2020 4920.01 2664.63 65.71 3.00 247.40 2546.09
   14:03:11.600.25-Dec-2020 4920.01 2665.27 65.71 3.00 247.60 2546.09
   14:03:11.800.25-Dec-2020 4920.01 2664.70 65.71 3.00 247.80 2546.09
   14:03:12.000.25-Dec-2020 4920.01 2664.77 65.71 3.00 248.00 2546.09
   14:03:12.200.25-Dec-2020 4920.01 2664.82 65.71 3.00 248.20 2546.09
   14:03:12.400.25-Dec-2020 4920.01 2664.91 65.71 3.00 248.40 2546.09
   14:03:12.600.25-Dec-2020 4920.01 2664.77 65.71 3.00 248.60 2546.09
   14:03:12.800.25-Dec-2020 4920.01 2664.79 65.71 3.00 248.80 2546.09
   14:03:13.000.25-Dec-2020 4920.01 2664.59 65.71 3.00 249.00 2546.09
   14:03:13.200.25-Dec-2020 4920.01 2664.59 65.71 3.00 249.20 2546.09
   14:03:13.400.25-Dec-2020 4920.01 2664.70 65.71 3.00 249.40 2546.09
   14:03:13.600.25-Dec-2020 4920.01 2664.57 65.71 3.00 249.60 2546.09
   14:03:13.800.25-Dec-2020 4920.01 2665.29 65.71 3.00 249.80 2546.09
   14:03:14.000.25-Dec-2020 4920.01 2664.67 65.71 3.00 250.00 2546.09
   14:03:14.200.25-Dec-2020 4920.01 2664.67 65.71 3.00 250.20 2546.09
   14:03:14.400.25-Dec-2020 4920.01 2664.76 65.71 3.00 250.40 2546.09
   14:03:14.600.25-Dec-2020 4920.01 2664.77 65.71 3.00 250.60 2546.09
   14:03:14.800.25-Dec-2020 4920.01 2664.80 65.71 3.00 250.80 2546.09
   14:03:15.000.25-Dec-2020 4920.01 2664.78 65.71 3.00 251.00 2546.09
   14:03:15.200.25-Dec-2020 4920.01 2664.77 65.71 3.00 251.20 2546.09
   14:03:15.400.25-Dec-2020 4920.01 2664.79 65.71 3.00 251.40 2546.09
   14:03:15.600.25-Dec-2020 4920.01 2664.78 65.71 3.00 251.60 2546.09
   14:03:15.800.25-Dec-2020 4920.01 2664.81 65.71 3.00 251.80 2546.09
   14:03:16.000.25-Dec-2020 4920.01 2664.80 65.71 3.00 252.00 2546.09
   14:03:16.200.25-Dec-2020 4920.01 2664.77 65.71 3.00 252.20 2546.09
   14:03:16.400.25-Dec-2020 4920.01 2664.94 65.71 3.00 252.40 2546.09
   14:03:16.600.25-Dec-2020 4920.01 2664.80 65.71 3.00 252.60 2546.09
   14:03:16.800.25-Dec-2020 4920.01 2664.82 65.71 3.00 252.80 2546.09
