~Version Information
 VERS.                  2.0:   CWLS log ASCII Standard -VERSION 2.0
 WRAP.                   NO:   One line per depth step
~Well Information Block
#MNEM.UNIT     VALUE/NAME     DESCRIPTION
#---------     -----------    ---------------------------
 STRT.S             19:12:01 25-Dec-20: START TIME 19:12:01 25-Dec-20
 STOP.S             19:20:19 25-Dec-20: STOP TIME  19:20:19 25-Dec-20
 STEP.S                   0.00: STEP TIME
 NULL.                 -999.25: NULL VALUE
 DFWT.                        :  DIST FWL TEXT
 DFST.                        :  DIST FSL TEXT
 DMF .             Drill Floor:  DRILL MEAS FROM
 STIM.      04.54.24 22-Sep-20:  START TIME
 DATE.      04.54.24 21-Nov-20:  END TIME
 SPUD.               21-Nov-20:  SPUD DATE
 NREF.                    Grid:  NORTH REFERENCE
 HPTY.       Minimum Curvature:  HOLE POS TYPE
 DMOD.             Drill Model:  DRILL MOD DESC
 SVYD.                  Survey:  SURVEY DESC
 ILTD.               Lithology:  INTERP LTH DESC
 FTOP.          Formation Tops:  FORM TOPS DESC
 SON .        AZ-XX-0906571587:  JOB NUMBER
 COMP.     BP Exploration (Caspian Sea) Ltd:  COMPANY
 UWI .                     N/A:  UNIQUE WELL IDENTIFIER
 API .                     N/A:  API NUMBER
 BASE.              Azerbaijan:  LOGGING EQUIPMENT BASE LOCATION
 REGN.                   EESSA:  REGION
 PROV.                    Baku:  PROVINCE
 STAT.                    Baku:  STATE NAME
 CTRY.              Azerbaijan:  COUNTRY NAME
 FLD .                     ACG:  FIELD NAME
 SRVC.     TURAN Drilling & Engineering:  CONTRACTOR
 WELL.                     J27:  WELL NAME
 RIG .             West Chirag:  RIG NAME
 DOE .                     N/A:  DOE NUMBER
 DCON.         Sperry Drilling:  DIRECTNL CONTR
 PDAT.          Mean Sea Level:  PERMANENT DATUM
 WTYP.                Deviated:  WELL TYPE
 MWDS.                    Baku:  MWD SHOP
 JOBN.        AZ-XX-0906571587:  JOB TICKET NUMB
 UNIT.                     N/A:  LOGGING EQUIPMENT ID
 MDS .        Operator Entered:  MAG DATA SOURCE
 CNTY.                        :  COUNTY
 LOC .                        :  LOCATION
 LMF .             Drill Floor:  LOG MEASURED FROM
 TVDS.m                  43.00:  TVDSS CORRECTN
 LATI.deg                40.13:  LATITUDE
 LONG.deg                51.22:  LONGITUDE
 WHNS.m                   7.72:  WELL HEAD N/S
 WHEW.m                 -14.24:  WELL HEAD E/W
 UTMX.m              519005.06:  UTM X
 UTMY.m             4443793.85:  UTM Y
 DFWL.m                   0.00:  DISTANCE FWL
 DFSL.m                   0.00:  DISTANCE FSL
 SDEP.m                 347.00:  START DEPTH
 TDD .m                 581.00:  TOTAL DEPTH (DRILLER)
 VSDR.deg               159.72:  VERT SEC DIRECT
 GVFD.g                   1.00:  GRAVITY FIELD
 MFLD.nT              50318.00:  MAGNETIC FIELD
 MDIP.deg                59.57:  MAGNETIC DIP
 MDEC.deg                 6.44:  MAGNETIC DECL
 GRDC.deg                 0.15:  GRID CORRECTION
 AZTC.deg                 6.29:  AZM TOTAL CORR
 EPD .m                   0.00:  ELEVATION
 EGL .m                   0.00:  GROUND ELEVATION
 WDMS.m                 169.80:  WD ELEV
 APD .m                  43.00:  DEPTH ABOVE PD
 AGAP.m                  43.00:  AIR GAP
 VSEW.m                 -14.24:  VERT SEC E/W
 VSNS.m                   7.72:  VERT SEC N/S
 DEP .m                 342.45:  DEPTH
 EKB .m                   0.00:  KB ELEVATION
 EDF .m                  43.00:  DF ELEVATION
 TDL .m                 237.00:  TOTAL DEPTH (LOGGER)
 VSC .                       0:  VS TO CLOSURE
 MAGU.                 1851428:  MAGUTM CHECKSUM
~Parameter Information Block
#MNEM.UNIT       Value        Description
#---------     -----------    ---------------------------
 AV  .mps                 1.50:  Ann Velocity 
 AVMX.mps                 2.90:  Max Ann Veloc 
 AZIF.deg               115.59:  Azm, Final 
 BHAT.        Rotary Steerable:  BHA Type 
 BROT.°/30m               0.50:  Build Rotating 
 BS  .in                  8.50:  Bit Size 
 BTPL.psig              580.00:  Bit Press Loss 
 CABU.                     Yes:  Customer Abuse 
 COMM.                     Ìt:  Run Comments 1 
 TCS .hr                 89.79:  Time Ciculation Ended 
 CV  .mps                 3.22:  Crit Velocity 
 CVMX.mps                 4.37:  Max Crit Veloc 
 DD1 .          Rashad Habibov:  Direct Drillr 1 
 DDSV.               Geo-Pilot:  DD Service 
 DEFF.%                  95.00:  % Det Eff 
 DLRX.°/30m               1.94:  Dogleg Rot Max 
 DLSO.°/30m               0.70:  Dogleg Oriented 
 DLSX.°/30m               1.94:  Dogleg Str Max 
 DRET.      04.45.00 25-Dec-20:  Drill End Time 
 DRST.      10.00.00 24-Dec-20:  Drill Start Tim 
 DTIM.hr                 16.64:  Time Drilling 
 EDEP.m                4999.01:  End Depth 
 ENG1.         Elchin Mammadov:  Engineer 1 
 ENG2.          Ruslan Safarov:  Engineer 2 
 ENG3.          Rustam Safarov:  Engineer 3 
 ETIM.      09.00.00 29-Dec-20:  End Time 
 FLOI.gpm               500.00:  Flow In 
 FLON.gpm               400.00:  Flow In Min 
 FLOS.cptm                0.00:  Fluid Loss 
 FLOX.gpm               500.00:  Flow In Max 
 HFLO.                      No:  High Flow 
 HPRE.                      No:  High Pressure 
 HTEM.                      No:  High Temp 
 HYDO.m                   2.00:  Hydro Offset 
 IFIN.deg                66.79:  Inc, Final 
 IMAX.deg                67.66:  Inc Max 
 IMIN.deg                66.39:  Inc Min 
 IMND.m                4949.37:  Inc Min Depth 
 IMXD.m                4778.63:  Inc Max Depth 
 JARR.                     Yes:  Jarring 
 LETM.      04.45.00 25-Dec-20:  Log End Time 
 LOST.hr                     0:  Lost Rig Time 
 LSTM.      10.00.00 24-Dec-20:  Log Start Time 
 MDCL.ppm             39000.00:  Mud Chlorides 
 MDES.     Inversion Oil/Synthetic:  Mud Desc 
 DFD .sg                  1.33:  Mud Density 
 MDMN.sg                  1.33:  Dens Mud Min 
 MDMX.sg                  1.33:  Dens Mud Max 
 MOIL.                      70:  Run Mud Oil % 
 MOWR.                   70:30:  Run Mud OWR 
 MSND.                       0:  Run Mud Sand % 
 MSOL.                    17.4:  Run Mud Solids% 
 DFV .spqt               84.00:  Mud Viscosity 
 MWOD.in                  6.75:  MWD Tool OD 
 MWSI.                     Yes:  Serv Intrp, MWD 
 OTIM.hr                168.14:  Time Operating 
 PCON.           Look Like New:  Pad Condition 
 PMAX.psia            10822.93:  Press Op, Max 
 PV  .cP                 30.00:  Mud PV 
 RUN .                     900:  Run Number 
 ROPA.m/hr               18.00:  ROP Avg 
 ROPN.m/hr               12.00:  ROP Min 
 ROPX.m/hr               25.00:  ROP Max 
 RPMA.rpm               120.00:  RPM Surface Avg 
 RPMN.rpm               100.00:  RPM Surface Min 
 RPMX.rpm               120.00:  RPM Surface Max 
 RRUN.                    0900:  Rig Run Number 
 SAZI.deg               115.08:  Azm, Start 
 SDEP.m                4762.01:  Start Depth 
 SIDD.                      No:  Serv Intrp, DD 
 SINC.deg                66.14:  Inc, Start 
 SPPA.psig             3700.00:  SPP Avg 
 SPPN.psig             3620.00:  SPP Min 
 SPPX.psig             3900.00:  SPP Max 
 STIM.      09.30.00 22-Dec-20:  Start Time 
 SVCS.                 DD, MWD:  Services 
 SVER.                    9.20:  Sperry Version 
 TDAT.m                 237.00:  Tot Depth Attmp 
 TDDF.                      No:  Trip for DD 
 TDLG.m                 237.00:  Tot Depth Loggd 
 TFF .                      No:  Trip for Fail 
 TQAA.f-kp               18.00:  Torque Abs Avg 
 TQAN.f-kp               17.00:  Torque Abs Min 
 TQAX.f-kp               20.00:  Torque Abs Max 
 TRRT.°/30m               0.60:  Turn Rotating 
 MRT .                    HCIM:  Maximum Recorded Temperature 
 TTMX.degC               94.12:  Max Tool Temp 
 VS01.                90627809:  Virtual Str1 SN 
 VS02.                90527813:  Virtual Str2 SN 
 VS03.                90545417:  Virtual Str3 SN 
 VS04.                12460870:  Virtual Str4 SN 
 VS05.                90516706:  Virtual Str5 SN 
 VS06.                90632007:  Virtual Str6 SN 
 WBMN.klb                 0.00:  WOB Min 
 WOBA.klb                14.00:  WOB Avg 
 WOBX.klb                25.00:  WOB Max 
 YP  .lhf2               32.00:  Yield Point 
~Curve Information Block
#MNEM.UNIT                 API CODE     Curve Description
#---------               -----------    ---------------------------
 TIME.HHMMSS            00 000 000 000:  GT Time & Date
 GTDEPTH.m              00 000 000 000:  GT Depth
 GTPQH.psia             00 000 000 000:  GT HR Quartz Pressure
 GTTQ.degC              00 000 000 000:  GT Quartz Temperature
 GTTN.NONE              00 000 000 000:  GT Test Number
 GTET.sec               00 000 000 000:  GT Elapsed Test Time
 GTTVD.m                00 000 000 000:  GT True Vertical Depth
#Other Information
#
#WARRANTY: Halliburton will use its best efforts to furnish customers with 
#accurate information and interpretations that are part of, and incident to, the services 
#provided.  However, Halliburton cannot and does not warrant the accuracy 
#or correctness of such information and interpretations.  Under no circumstances should any 
#such information or interpretation be relied upon as the sole basis for any drilling, 
#completion, production, or financial decision or any procedure involving any risk to the 
#safety of any drilling venture, drilling rig or its crew or any other third party.  The 
#Customer has full responsibility for all drilling, completion and production operation.  
#Halliburton makes no representations or warranties, either expressed or 
#implied, including, but not limited to, the implied warranties of merchantability or fitness 
#for a particular purpose, with respect to the services rendered.  In no event will 
#Halliburton be liable for failure to obtain any particular results or for 
#any damages, including, but not limited to, indirect, special or consequential damages, 
#resulting from the use of any information or interpretation provided by Halliburton.
#
~A           TIME           GTDEPTH  GTPQH  GTTQ  GTTN  GTET   GTTVD  
# ...
   19:17:23.375.25-Dec-2020 4808.01   18.40 63.84 7.00 322.25 2502.07
   19:17:23.575.25-Dec-2020 4808.01   18.40 63.84 7.00 322.45 2502.07
   19:17:23.776.25-Dec-2020 4808.01   17.79 63.84 7.00 322.65 2502.07
   19:17:23.976.25-Dec-2020 4808.01   17.72 63.84 7.00 322.85 2502.07
   19:17:24.176.25-Dec-2020 4808.01   18.77 63.83 7.00 323.06 2502.07
   19:17:24.376.25-Dec-2020 4808.01   18.49 63.83 7.00 323.26 2502.07
   19:17:24.576.25-Dec-2020 4808.01   18.49 63.83 7.00 323.46 2502.07
   19:17:24.776.25-Dec-2020 4808.01   17.83 63.83 7.00 323.66 2502.07
   19:17:24.977.25-Dec-2020 4808.01   17.53 63.83 7.00 323.86 2502.07
   19:17:25.177.25-Dec-2020 4808.01   17.35 63.83 7.00 324.06 2502.07
   19:17:25.377.25-Dec-2020 4808.01   17.11 63.83 7.00 324.26 2502.07
   19:17:25.577.25-Dec-2020 4808.01   17.11 63.83 7.00 324.46 2502.07
   19:17:25.777.25-Dec-2020 4808.01   16.69 63.82 7.00 324.66 2502.07
   19:17:25.977.25-Dec-2020 4808.01   16.49 63.82 7.00 324.86 2502.07
   19:17:26.178.25-Dec-2020 4808.01   16.29 63.82 7.00 325.06 2502.07
   19:17:26.378.25-Dec-2020 4808.01   16.13 63.82 7.00 325.26 2502.07
   19:17:26.578.25-Dec-2020 4808.01   16.13 63.82 7.00 325.46 2502.07
   19:17:26.778.25-Dec-2020 4808.01   15.81 63.82 7.00 325.66 2502.07
   19:17:26.978.25-Dec-2020 4808.01   15.68 63.82 7.00 325.86 2502.07
   19:17:27.178.25-Dec-2020 4808.01   15.63 63.82 7.00 326.06 2502.07
   19:17:27.378.25-Dec-2020 4808.01   16.00 63.82 7.00 326.26 2502.07
   19:17:27.579.25-Dec-2020 4808.01   16.00 63.82 7.00 326.46 2502.07
   19:17:27.779.25-Dec-2020 4808.01   17.18 63.81 7.00 326.66 2502.07
   19:17:27.979.25-Dec-2020 4808.01   17.76 63.81 7.00 326.86 2502.07
   19:17:28.179.25-Dec-2020 4808.01   18.34 63.81 7.00 327.06 2502.07
   19:17:28.379.25-Dec-2020 4808.01   18.97 63.81 7.00 327.26 2502.07
   19:17:28.579.25-Dec-2020 4808.01   18.97 63.81 7.00 327.46 2502.07
   19:17:28.780.25-Dec-2020 4808.01   20.35 63.81 7.00 327.66 2502.07
   19:17:28.980.25-Dec-2020 4808.01   21.14 63.81 7.00 327.86 2502.07
   19:17:29.180.25-Dec-2020 4808.01   22.02 63.81 7.00 328.06 2502.07
   19:17:29.380.25-Dec-2020 4808.01   23.01 63.81 7.00 328.26 2502.07
   19:17:29.580.25-Dec-2020 4808.01   23.01 63.81 7.00 328.46 2502.07
   19:17:29.780.25-Dec-2020 4808.01   25.44 63.81 7.00 328.66 2502.07
   19:17:29.981.25-Dec-2020 4808.01   26.93 63.81 7.00 328.86 2502.07
   19:17:30.181.25-Dec-2020 4808.01   28.59 63.81 7.00 329.06 2502.07
   19:17:30.381.25-Dec-2020 4808.01   30.60 63.81 7.00 329.26 2502.07
   19:17:30.581.25-Dec-2020 4808.01   30.60 63.81 7.00 329.46 2502.07
   19:17:30.781.25-Dec-2020 4808.01   35.61 63.81 7.00 329.66 2502.07
   19:17:30.981.25-Dec-2020 4808.01   38.85 63.81 7.00 329.86 2502.07
   19:17:31.181.25-Dec-2020 4808.01   42.88 63.81 7.00 330.06 2502.07
   19:17:31.382.25-Dec-2020 4808.01   47.84 63.81 7.00 330.26 2502.07
   19:17:31.582.25-Dec-2020 4808.01   47.84 63.81 7.00 330.46 2502.07
   19:17:31.782.25-Dec-2020 4808.01   62.74 63.81 7.00 330.66 2502.07
   19:17:31.982.25-Dec-2020 4808.01   74.02 63.81 7.00 330.86 2502.07
   19:17:32.182.25-Dec-2020 4808.01   89.28 63.81 7.00 331.06 2502.07
   19:17:32.382.25-Dec-2020 4808.01  111.92 63.81 7.00 331.26 2502.07
   19:17:32.583.25-Dec-2020 4808.01  111.92 63.81 7.00 331.46 2502.07
   19:17:32.783.25-Dec-2020 4808.01  199.89 63.81 7.00 331.66 2502.07
   19:17:32.983.25-Dec-2020 4808.01  270.20 63.81 7.00 331.86 2502.07
   19:17:33.183.25-Dec-2020 4808.01  356.25 63.81 7.00 332.06 2502.07
   19:17:33.383.25-Dec-2020 4808.01  451.08 63.81 7.00 332.26 2502.07
   19:17:33.583.25-Dec-2020 4808.01  451.08 63.81 7.00 332.46 2502.07
   19:17:33.784.25-Dec-2020 4808.01  648.33 63.81 7.00 332.66 2502.07
   19:17:33.984.25-Dec-2020 4808.01  743.43 63.81 7.00 332.86 2502.07
   19:17:34.184.25-Dec-2020 4808.01  833.58 63.81 7.00 333.06 2502.07
   19:17:34.384.25-Dec-2020 4808.01  917.57 63.81 7.00 333.26 2502.07
   19:17:34.584.25-Dec-2020 4808.01  917.57 63.81 7.00 333.46 2502.07
   19:17:34.784.25-Dec-2020 4808.01 1079.84 63.81 7.00 333.66 2502.07
   19:17:34.984.25-Dec-2020 4808.01 1156.76 63.81 7.00 333.86 2502.07
   19:17:35.185.25-Dec-2020 4808.01 1228.64 63.81 7.00 334.06 2502.07
   19:17:35.385.25-Dec-2020 4808.01 1295.29 63.81 7.00 334.26 2502.07
   19:17:35.585.25-Dec-2020 4808.01 1295.29 63.81 7.00 334.46 2502.07
   19:17:35.785.25-Dec-2020 4808.01 1419.89 63.81 7.00 334.66 2502.07
   19:17:35.985.25-Dec-2020 4808.01 1476.26 63.81 7.00 334.86 2502.07
   19:17:36.185.25-Dec-2020 4808.01 1528.98 63.81 7.00 335.06 2502.07
   19:17:36.386.25-Dec-2020 4808.01 1577.38 63.81 7.00 335.26 2502.07
   19:17:36.586.25-Dec-2020 4808.01 1577.38 63.81 7.00 335.46 2502.07
   19:17:36.786.25-Dec-2020 4808.01 1666.56 63.81 7.00 335.67 2502.07
   19:17:36.986.25-Dec-2020 4808.01 1706.88 63.82 7.00 335.87 2502.07
   19:17:37.186.25-Dec-2020 4808.01 1743.51 63.82 7.00 336.07 2502.07
   19:17:37.386.25-Dec-2020 4808.01 1778.83 63.82 7.00 336.27 2502.07
   19:17:37.587.25-Dec-2020 4808.01 1778.83 63.82 7.00 336.47 2502.07
   19:17:37.787.25-Dec-2020 4808.01 1843.51 63.82 7.00 336.67 2502.07
   19:17:37.987.25-Dec-2020 4808.01 1874.43 63.82 7.00 336.87 2502.07
   19:17:38.187.25-Dec-2020 4808.01 1901.39 63.82 7.00 337.07 2502.07
   19:17:38.387.25-Dec-2020 4808.01 1926.64 63.82 7.00 337.27 2502.07
   19:17:38.587.25-Dec-2020 4808.01 1926.64 63.82 7.00 337.47 2502.07
   19:17:38.787.25-Dec-2020 4808.01 1973.77 63.83 7.00 337.67 2502.07
   19:17:38.988.25-Dec-2020 4808.01 1995.55 63.83 7.00 337.87 2502.07
   19:17:39.188.25-Dec-2020 4808.01 2013.66 63.83 7.00 338.07 2502.07
   19:17:39.388.25-Dec-2020 4808.01 2032.99 63.83 7.00 338.27 2502.07
   19:17:39.588.25-Dec-2020 4808.01 2032.99 63.83 7.00 338.47 2502.07
   19:17:39.788.25-Dec-2020 4808.01 2067.16 63.83 7.00 338.67 2502.07
   19:17:39.988.25-Dec-2020 4808.01 2082.46 63.84 7.00 338.87 2502.07
   19:17:40.189.25-Dec-2020 4808.01 2096.80 63.84 7.00 339.07 2502.07
   19:17:40.389.25-Dec-2020 4808.01 2110.10 63.84 7.00 339.27 2502.07
   19:17:40.589.25-Dec-2020 4808.01 2110.10 63.84 7.00 339.47 2502.07
   19:17:40.789.25-Dec-2020 4808.01 2133.93 63.84 7.00 339.67 2502.07
   19:17:40.989.25-Dec-2020 4808.01 2144.71 63.84 7.00 339.87 2502.07
   19:17:41.189.25-Dec-2020 4808.01 2154.83 63.84 7.00 340.07 2502.07
   19:17:41.390.25-Dec-2020 4808.01 2164.15 63.85 7.00 340.27 2502.07
   19:17:41.590.25-Dec-2020 4808.01 2164.15 63.85 7.00 340.47 2502.07
   19:17:41.790.25-Dec-2020 4808.01 2181.05 63.85 7.00 340.67 2502.07
   19:17:41.990.25-Dec-2020 4808.01 2187.24 63.85 7.00 340.87 2502.07
   19:17:42.190.25-Dec-2020 4808.01 2194.94 63.85 7.00 341.07 2502.07
   19:17:42.390.25-Dec-2020 4808.01 2201.82 63.85 7.00 341.27 2502.07
   19:17:42.590.25-Dec-2020 4808.01 2201.82 63.85 7.00 341.47 2502.07
   19:17:42.791.25-Dec-2020 4808.01 2213.77 63.85 7.00 341.67 2502.07
   19:17:42.991.25-Dec-2020 4808.01 2219.41 63.86 7.00 341.87 2502.07
   19:17:43.191.25-Dec-2020 4808.01 2224.69 63.86 7.00 342.07 2502.07
   19:17:43.391.25-Dec-2020 4808.01 2229.57 63.86 7.00 342.27 2502.07
   19:17:43.591.25-Dec-2020 4808.01 2229.57 63.86 7.00 342.47 2502.07
   19:17:43.791.25-Dec-2020 4808.01 2238.48 63.86 7.00 342.67 2502.07
   19:17:43.992.25-Dec-2020 4808.01 2241.63 63.86 7.00 342.87 2502.07
   19:17:44.192.25-Dec-2020 4808.01 2246.58 63.86 7.00 343.07 2502.07
   19:17:44.392.25-Dec-2020 4808.01 2249.45 63.86 7.00 343.27 2502.07
   19:17:44.592.25-Dec-2020 4808.01 2249.45 63.86 7.00 343.47 2502.07
   19:17:44.792.25-Dec-2020 4808.01 2256.19 63.87 7.00 343.67 2502.07
   19:17:44.992.25-Dec-2020 4808.01 2258.26 63.87 7.00 343.87 2502.07
   19:17:45.193.25-Dec-2020 4808.01 2261.47 63.87 7.00 344.07 2502.07
   19:17:45.393.25-Dec-2020 4808.01 2263.86 63.87 7.00 344.27 2502.07
   19:17:45.593.25-Dec-2020 4808.01 2263.86 63.87 7.00 344.47 2502.07
   19:17:45.793.25-Dec-2020 4808.01 2268.64 63.87 7.00 344.67 2502.07
   19:17:45.993.25-Dec-2020 4808.01 2270.05 63.87 7.00 344.87 2502.07
   19:17:46.193.25-Dec-2020 4808.01 2273.41 63.87 7.00 345.07 2502.07
