~Version Information
 VERS.                  2.0:   CWLS log ASCII Standard -VERSION 2.0
 WRAP.                   NO:   One line per depth step
~Well Information Block
#MNEM.UNIT     VALUE/NAME     DESCRIPTION
#---------     -----------    ---------------------------
 STRT.S             13:59:04 25-Dec-20: START TIME 13:59:04 25-Dec-20
 STOP.S             14:07:22 25-Dec-20: STOP TIME  14:07:22 25-Dec-20
 STEP.S                   0.00: STEP TIME
 NULL.                 -999.25: NULL VALUE
 DFWT.                        :  DIST FWL TEXT
 DFST.                        :  DIST FSL TEXT
 DMF .             Drill Floor:  DRILL MEAS FROM
 STIM.      04.54.24 22-Sep-20:  START TIME
 DATE.      04.54.24 21-Nov-20:  END TIME
 SPUD.               21-Nov-20:  SPUD DATE
 NREF.                    Grid:  NORTH REFERENCE
 HPTY.       Minimum Curvature:  HOLE POS TYPE
 DMOD.             Drill Model:  DRILL MOD DESC
 SVYD.                  Survey:  SURVEY DESC
 ILTD.               Lithology:  INTERP LTH DESC
 FTOP.          Formation Tops:  FORM TOPS DESC
 SON .        AZ-XX-0906571587:  JOB NUMBER
 COMP.     BP Exploration (Caspian Sea) Ltd:  COMPANY
 UWI .                     N/A:  UNIQUE WELL IDENTIFIER
 API .                     N/A:  API NUMBER
 BASE.              Azerbaijan:  LOGGING EQUIPMENT BASE LOCATION
 REGN.                   EESSA:  REGION
 PROV.                    Baku:  PROVINCE
 STAT.                    Baku:  STATE NAME
 CTRY.              Azerbaijan:  COUNTRY NAME
 FLD .                     ACG:  FIELD NAME
 SRVC.     TURAN Drilling & Engineering:  CONTRACTOR
 WELL.                     J27:  WELL NAME
 RIG .             West Chirag:  RIG NAME
 DOE .                     N/A:  DOE NUMBER
 DCON.         Sperry Drilling:  DIRECTNL CONTR
 PDAT.          Mean Sea Level:  PERMANENT DATUM
 WTYP.                Deviated:  WELL TYPE
 MWDS.                    Baku:  MWD SHOP
 JOBN.        AZ-XX-0906571587:  JOB TICKET NUMB
 UNIT.                     N/A:  LOGGING EQUIPMENT ID
 MDS .        Operator Entered:  MAG DATA SOURCE
 CNTY.                        :  COUNTY
 LOC .                        :  LOCATION
 LMF .             Drill Floor:  LOG MEASURED FROM
 TVDS.m                  43.00:  TVDSS CORRECTN
 LATI.deg                40.13:  LATITUDE
 LONG.deg                51.22:  LONGITUDE
 WHNS.m                   7.72:  WELL HEAD N/S
 WHEW.m                 -14.24:  WELL HEAD E/W
 UTMX.m              519005.06:  UTM X
 UTMY.m             4443793.85:  UTM Y
 DFWL.m                   0.00:  DISTANCE FWL
 DFSL.m                   0.00:  DISTANCE FSL
 SDEP.m                 347.00:  START DEPTH
 TDD .m                 581.00:  TOTAL DEPTH (DRILLER)
 VSDR.deg               159.72:  VERT SEC DIRECT
 GVFD.g                   1.00:  GRAVITY FIELD
 MFLD.nT              50318.00:  MAGNETIC FIELD
 MDIP.deg                59.57:  MAGNETIC DIP
 MDEC.deg                 6.44:  MAGNETIC DECL
 GRDC.deg                 0.15:  GRID CORRECTION
 AZTC.deg                 6.29:  AZM TOTAL CORR
 EPD .m                   0.00:  ELEVATION
 EGL .m                   0.00:  GROUND ELEVATION
 WDMS.m                 169.80:  WD ELEV
 APD .m                  43.00:  DEPTH ABOVE PD
 AGAP.m                  43.00:  AIR GAP
 VSEW.m                 -14.24:  VERT SEC E/W
 VSNS.m                   7.72:  VERT SEC N/S
 DEP .m                 342.45:  DEPTH
 EKB .m                   0.00:  KB ELEVATION
 EDF .m                  43.00:  DF ELEVATION
 TDL .m                 237.00:  TOTAL DEPTH (LOGGER)
 VSC .                       0:  VS TO CLOSURE
 MAGU.                 1851428:  MAGUTM CHECKSUM
~Parameter Information Block
#MNEM.UNIT       Value        Description
#---------     -----------    ---------------------------
 AV  .mps                 1.50:  Ann Velocity 
 AVMX.mps                 2.90:  Max Ann Veloc 
 AZIF.deg               115.59:  Azm, Final 
 BHAT.        Rotary Steerable:  BHA Type 
 BROT.°/30m               0.50:  Build Rotating 
 BS  .in                  8.50:  Bit Size 
 BTPL.psig              580.00:  Bit Press Loss 
 CABU.                     Yes:  Customer Abuse 
 COMM.                     ì©q:  Run Comments 1 
 TCS .hr                 89.79:  Time Ciculation Ended 
 CV  .mps                 3.22:  Crit Velocity 
 CVMX.mps                 4.37:  Max Crit Veloc 
 DD1 .          Rashad Habibov:  Direct Drillr 1 
 DDSV.               Geo-Pilot:  DD Service 
 DEFF.%                  95.00:  % Det Eff 
 DLRX.°/30m               1.94:  Dogleg Rot Max 
 DLSO.°/30m               0.70:  Dogleg Oriented 
 DLSX.°/30m               1.94:  Dogleg Str Max 
 DRET.      04.45.00 25-Dec-20:  Drill End Time 
 DRST.      10.00.00 24-Dec-20:  Drill Start Tim 
 DTIM.hr                 16.64:  Time Drilling 
 EDEP.m                4999.01:  End Depth 
 ENG1.         Elchin Mammadov:  Engineer 1 
 ENG2.          Ruslan Safarov:  Engineer 2 
 ENG3.          Rustam Safarov:  Engineer 3 
 ETIM.      09.00.00 29-Dec-20:  End Time 
 FLOI.gpm               500.00:  Flow In 
 FLON.gpm               400.00:  Flow In Min 
 FLOS.cptm                0.00:  Fluid Loss 
 FLOX.gpm               500.00:  Flow In Max 
 HFLO.                      No:  High Flow 
 HPRE.                      No:  High Pressure 
 HTEM.                      No:  High Temp 
 HYDO.m                   2.00:  Hydro Offset 
 IFIN.deg                66.79:  Inc, Final 
 IMAX.deg                67.66:  Inc Max 
 IMIN.deg                66.39:  Inc Min 
 IMND.m                4949.37:  Inc Min Depth 
 IMXD.m                4778.63:  Inc Max Depth 
 JARR.                     Yes:  Jarring 
 LETM.      04.45.00 25-Dec-20:  Log End Time 
 LOST.hr                     0:  Lost Rig Time 
 LSTM.      10.00.00 24-Dec-20:  Log Start Time 
 MDCL.ppm             39000.00:  Mud Chlorides 
 MDES.     Inversion Oil/Synthetic:  Mud Desc 
 DFD .sg                  1.33:  Mud Density 
 MDMN.sg                  1.33:  Dens Mud Min 
 MDMX.sg                  1.33:  Dens Mud Max 
 MOIL.                      70:  Run Mud Oil % 
 MOWR.                   70:30:  Run Mud OWR 
 MSND.                       0:  Run Mud Sand % 
 MSOL.                    17.4:  Run Mud Solids% 
 DFV .spqt               84.00:  Mud Viscosity 
 MWOD.in                  6.75:  MWD Tool OD 
 MWSI.                     Yes:  Serv Intrp, MWD 
 OTIM.hr                168.14:  Time Operating 
 PCON.           Look Like New:  Pad Condition 
 PMAX.psia            10822.93:  Press Op, Max 
 PV  .cP                 30.00:  Mud PV 
 RUN .                     900:  Run Number 
 ROPA.m/hr               18.00:  ROP Avg 
 ROPN.m/hr               12.00:  ROP Min 
 ROPX.m/hr               25.00:  ROP Max 
 RPMA.rpm               120.00:  RPM Surface Avg 
 RPMN.rpm               100.00:  RPM Surface Min 
 RPMX.rpm               120.00:  RPM Surface Max 
 RRUN.                    0900:  Rig Run Number 
 SAZI.deg               115.08:  Azm, Start 
 SDEP.m                4762.01:  Start Depth 
 SIDD.                      No:  Serv Intrp, DD 
 SINC.deg                66.14:  Inc, Start 
 SPPA.psig             3700.00:  SPP Avg 
 SPPN.psig             3620.00:  SPP Min 
 SPPX.psig             3900.00:  SPP Max 
 STIM.      09.30.00 22-Dec-20:  Start Time 
 SVCS.                 DD, MWD:  Services 
 SVER.                    9.20:  Sperry Version 
 TDAT.m                 237.00:  Tot Depth Attmp 
 TDDF.                      No:  Trip for DD 
 TDLG.m                 237.00:  Tot Depth Loggd 
 TFF .                      No:  Trip for Fail 
 TQAA.f-kp               18.00:  Torque Abs Avg 
 TQAN.f-kp               17.00:  Torque Abs Min 
 TQAX.f-kp               20.00:  Torque Abs Max 
 TRRT.°/30m               0.60:  Turn Rotating 
 MRT .                    HCIM:  Maximum Recorded Temperature 
 TTMX.degC               94.12:  Max Tool Temp 
 VS01.                90627809:  Virtual Str1 SN 
 VS02.                90527813:  Virtual Str2 SN 
 VS03.                90545417:  Virtual Str3 SN 
 VS04.                12460870:  Virtual Str4 SN 
 VS05.                90516706:  Virtual Str5 SN 
 VS06.                90632007:  Virtual Str6 SN 
 WBMN.klb                 0.00:  WOB Min 
 WOBA.klb                14.00:  WOB Avg 
 WOBX.klb                25.00:  WOB Max 
 YP  .lhf2               32.00:  Yield Point 
~Curve Information Block
#MNEM.UNIT                 API CODE     Curve Description
#---------               -----------    ---------------------------
 TIME.HHMMSS            00 000 000 000:  GT Time & Date
 GTDEPTH.m              00 000 000 000:  GT Depth
 GTPQH.psia             00 000 000 000:  GT HR Quartz Pressure
 GTTQ.degC              00 000 000 000:  GT Quartz Temperature
 GTTN.NONE              00 000 000 000:  GT Test Number
 GTET.sec               00 000 000 000:  GT Elapsed Test Time
 GTTVD.m                00 000 000 000:  GT True Vertical Depth
#Other Information
#
#WARRANTY: Halliburton will use its best efforts to furnish customers with 
#accurate information and interpretations that are part of, and incident to, the services 
#provided.  However, Halliburton cannot and does not warrant the accuracy 
#or correctness of such information and interpretations.  Under no circumstances should any 
#such information or interpretation be relied upon as the sole basis for any drilling, 
#completion, production, or financial decision or any procedure involving any risk to the 
#safety of any drilling venture, drilling rig or its crew or any other third party.  The 
#Customer has full responsibility for all drilling, completion and production operation.  
#Halliburton makes no representations or warranties, either expressed or 
#implied, including, but not limited to, the implied warranties of merchantability or fitness 
#for a particular purpose, with respect to the services rendered.  In no event will 
#Halliburton be liable for failure to obtain any particular results or for 
#any damages, including, but not limited to, indirect, special or consequential damages, 
#resulting from the use of any information or interpretation provided by Halliburton.
#
~A           TIME           GTDEPTH  GTPQH  GTTQ  GTTN  GTET   GTTVD  
   13:59:04.000.25-Dec-2020 4920.01 5456.10 65.86 3.00   0.00 2546.09
   13:59:04.200.25-Dec-2020 4920.01 5453.97 65.86 3.00   0.20 2546.09
   13:59:04.400.25-Dec-2020 4920.01 5453.01 65.86 3.00   0.40 2546.09
   13:59:04.600.25-Dec-2020 4920.01 5464.51 65.86 3.00   0.60 2546.09
   13:59:04.800.25-Dec-2020 4920.01 5455.18 65.86 3.00   0.80 2546.09
   13:59:05.000.25-Dec-2020 4920.01 5455.64 65.86 3.00   1.00 2546.09
   13:59:05.200.25-Dec-2020 4920.01 5453.13 65.86 3.00   1.20 2546.09
   13:59:05.400.25-Dec-2020 4920.01 5453.16 65.86 3.00   1.40 2546.09
   13:59:05.600.25-Dec-2020 4920.01 5462.12 65.86 3.00   1.60 2546.09
   13:59:05.800.25-Dec-2020 4920.01 5455.07 65.86 3.00   1.80 2546.09
   13:59:06.000.25-Dec-2020 4920.01 5456.36 65.86 3.00   2.00 2546.09
   13:59:06.200.25-Dec-2020 4920.01 5456.36 65.86 3.00   2.20 2546.09
   13:59:06.400.25-Dec-2020 4920.01 5457.14 65.86 3.00   2.40 2546.09
   13:59:06.600.25-Dec-2020 4920.01 5457.51 65.86 3.00   2.60 2546.09
   13:59:06.800.25-Dec-2020 4920.01 5456.97 65.86 3.00   2.80 2546.09
   13:59:07.000.25-Dec-2020 4920.01 5457.31 65.86 3.00   3.00 2546.09
   13:59:07.200.25-Dec-2020 4920.01 5457.31 65.86 3.00   3.20 2546.09
   13:59:07.400.25-Dec-2020 4920.01 5456.64 65.86 3.00   3.40 2546.09
   13:59:07.600.25-Dec-2020 4920.01 5460.20 65.86 3.00   3.60 2546.09
   13:59:07.800.25-Dec-2020 4920.01 5457.91 65.86 3.00   3.80 2546.09
   13:59:08.000.25-Dec-2020 4920.01 5459.26 65.86 3.00   4.00 2546.09
   13:59:08.200.25-Dec-2020 4920.01 5464.73 65.86 3.00   4.20 2546.09
   13:59:08.400.25-Dec-2020 4920.01 5460.53 65.86 3.00   4.40 2546.09
   13:59:08.600.25-Dec-2020 4920.01 5459.35 65.86 3.00   4.60 2546.09
   13:59:08.800.25-Dec-2020 4920.01 5471.14 65.86 3.00   4.80 2546.09
   13:59:09.000.25-Dec-2020 4920.01 5461.28 65.86 3.00   5.00 2546.09
   13:59:09.200.25-Dec-2020 4920.01 5462.66 65.86 3.00   5.20 2546.09
   13:59:09.400.25-Dec-2020 4920.01 5461.34 65.86 3.00   5.40 2546.09
   13:59:09.600.25-Dec-2020 4920.01 5470.67 65.86 3.00   5.60 2546.09
   13:59:09.800.25-Dec-2020 4920.01 5461.82 65.86 3.00   5.80 2546.09
   13:59:10.000.25-Dec-2020 4920.01 5461.94 65.86 3.00   6.00 2546.09
   13:59:10.200.25-Dec-2020 4920.01 5461.94 65.86 3.00   6.20 2546.09
   13:59:10.400.25-Dec-2020 4920.01 5460.53 65.86 3.00   6.40 2546.09
   13:59:10.600.25-Dec-2020 4920.01 5461.32 65.86 3.00   6.60 2546.09
   13:59:10.800.25-Dec-2020 4920.01 5461.78 65.86 3.00   6.80 2546.09
   13:59:11.000.25-Dec-2020 4920.01 5460.31 65.86 3.00   7.00 2546.09
   13:59:11.200.25-Dec-2020 4920.01 5460.97 65.86 3.00   7.20 2546.09
   13:59:11.400.25-Dec-2020 4920.01 5472.79 65.86 3.00   7.40 2546.09
   13:59:11.600.25-Dec-2020 4920.01 5463.15 65.86 3.00   7.60 2546.09
   13:59:11.800.25-Dec-2020 4920.01 5465.40 65.86 3.00   7.80 2546.09
   13:59:12.000.25-Dec-2020 4920.01 5460.71 65.86 3.00   8.00 2546.09
   13:59:12.200.25-Dec-2020 4920.01 5463.90 65.86 3.00   8.20 2546.09
   13:59:12.400.25-Dec-2020 4920.01 5460.99 65.86 3.00   8.40 2546.09
   13:59:12.600.25-Dec-2020 4920.01 5460.69 65.86 3.00   8.60 2546.09
   13:59:12.800.25-Dec-2020 4920.01 5463.31 65.86 3.00   8.80 2546.09
   13:59:13.000.25-Dec-2020 4920.01 5461.76 65.86 3.00   9.00 2546.09
   13:59:13.200.25-Dec-2020 4920.01 5461.76 65.86 3.00   9.20 2546.09
   13:59:13.400.25-Dec-2020 4920.01 5461.20 65.85 3.00   9.40 2546.09
   13:59:13.600.25-Dec-2020 4920.01 5462.20 65.85 3.00   9.60 2546.09
   13:59:13.800.25-Dec-2020 4920.01 5463.00 65.85 3.00   9.80 2546.09
   13:59:14.000.25-Dec-2020 4920.01 5464.50 65.85 3.00  10.00 2546.09
   13:59:14.200.25-Dec-2020 4920.01 5464.50 65.85 3.00  10.20 2546.09
   13:59:14.400.25-Dec-2020 4920.01 5465.68 65.85 3.00  10.40 2546.09
   13:59:14.600.25-Dec-2020 4920.01 5465.42 65.85 3.00  10.60 2546.09
   13:59:14.800.25-Dec-2020 4920.01 5466.91 65.85 3.00  10.80 2546.09
   13:59:15.000.25-Dec-2020 4920.01 5471.41 65.85 3.00  11.00 2546.09
   13:59:15.200.25-Dec-2020 4920.01 5465.98 65.85 3.00  11.20 2546.09
   13:59:15.400.25-Dec-2020 4920.01 5466.68 65.85 3.00  11.40 2546.09
   13:59:15.600.25-Dec-2020 4920.01 5466.25 65.85 3.00  11.60 2546.09
   13:59:15.800.25-Dec-2020 4920.01 5475.54 65.85 3.00  11.80 2546.09
   13:59:16.000.25-Dec-2020 4920.01 5465.42 65.85 3.00  12.00 2546.09
   13:59:16.200.25-Dec-2020 4920.01 5468.01 65.85 3.00  12.20 2546.09
   13:59:16.400.25-Dec-2020 4920.01 5466.47 65.85 3.00  12.40 2546.09
   13:59:16.600.25-Dec-2020 4920.01 5469.10 65.85 3.00  12.60 2546.09
   13:59:16.800.25-Dec-2020 4920.01 5470.13 65.85 3.00  12.80 2546.09
   13:59:17.000.25-Dec-2020 4920.01 5468.86 65.85 3.00  13.00 2546.09
   13:59:17.200.25-Dec-2020 4920.01 5468.86 65.85 3.00  13.20 2546.09
   13:59:17.400.25-Dec-2020 4920.01 5470.38 65.85 3.00  13.40 2546.09
   13:59:17.600.25-Dec-2020 4920.01 5468.18 65.85 3.00  13.60 2546.09
   13:59:17.800.25-Dec-2020 4920.01 5468.89 65.85 3.00  13.80 2546.09
   13:59:18.000.25-Dec-2020 4920.01 5468.73 65.85 3.00  14.00 2546.09
   13:59:18.200.25-Dec-2020 4920.01 5468.73 65.85 3.00  14.20 2546.09
   13:59:18.400.25-Dec-2020 4920.01 5471.91 65.85 3.00  14.40 2546.09
   13:59:18.600.25-Dec-2020 4920.01 5469.65 65.85 3.00  14.60 2546.09
   13:59:18.800.25-Dec-2020 4920.01 5470.30 65.85 3.00  14.80 2546.09
   13:59:19.000.25-Dec-2020 4920.01 5470.80 65.85 3.00  15.00 2546.09
   13:59:19.200.25-Dec-2020 4920.01 5468.46 65.85 3.00  15.20 2546.09
   13:59:19.400.25-Dec-2020 4920.01 5470.29 65.85 3.00  15.40 2546.09
   13:59:19.600.25-Dec-2020 4920.01 5469.65 65.85 3.00  15.60 2546.09
   13:59:19.800.25-Dec-2020 4920.01 5471.09 65.85 3.00  15.80 2546.09
   13:59:20.000.25-Dec-2020 4920.01 5470.31 65.85 3.00  16.00 2546.09
   13:59:20.200.25-Dec-2020 4920.01 5470.31 65.85 3.00  16.20 2546.09
   13:59:20.400.25-Dec-2020 4920.01 5470.81 65.85 3.00  16.40 2546.09
   13:59:20.600.25-Dec-2020 4920.01 5471.22 65.85 3.00  16.60 2546.09
   13:59:20.800.25-Dec-2020 4920.01 5478.07 65.85 3.00  16.80 2546.09
   13:59:21.000.25-Dec-2020 4920.01 5474.34 65.85 3.00  17.00 2546.09
   13:59:21.200.25-Dec-2020 4920.01 5474.34 65.85 3.00  17.20 2546.09
   13:59:21.400.25-Dec-2020 4920.01 5476.30 65.85 3.00  17.40 2546.09
   13:59:21.600.25-Dec-2020 4920.01 5472.21 65.85 3.00  17.60 2546.09
   13:59:21.800.25-Dec-2020 4920.01 5473.31 65.85 3.00  17.80 2546.09
   13:59:22.000.25-Dec-2020 4920.01 5472.60 65.85 3.00  18.00 2546.09
   13:59:22.200.25-Dec-2020 4920.01 5472.60 65.85 3.00  18.20 2546.09
   13:59:22.400.25-Dec-2020 4920.01 5474.03 65.85 3.00  18.40 2546.09
   13:59:22.600.25-Dec-2020 4920.01 5473.67 65.85 3.00  18.60 2546.09
   13:59:22.800.25-Dec-2020 4920.01 5473.89 65.85 3.00  18.80 2546.09
   13:59:23.000.25-Dec-2020 4920.01 5473.05 65.85 3.00  19.00 2546.09
   13:59:23.200.25-Dec-2020 4920.01 5473.05 65.85 3.00  19.20 2546.09
   13:59:23.400.25-Dec-2020 4920.01 5484.96 65.85 3.00  19.40 2546.09
   13:59:23.600.25-Dec-2020 4920.01 5476.05 65.85 3.00  19.60 2546.09
   13:59:23.800.25-Dec-2020 4920.01 5476.58 65.85 3.00  19.80 2546.09
   13:59:24.000.25-Dec-2020 4920.01 5486.59 65.84 3.00  20.00 2546.09
   13:59:24.200.25-Dec-2020 4920.01 5486.59 65.84 3.00  20.20 2546.09
   13:59:24.400.25-Dec-2020 4920.01 5479.06 65.84 3.00  20.40 2546.09
   13:59:24.600.25-Dec-2020 4920.01 5473.36 65.84 3.00  20.60 2546.09
   13:59:24.800.25-Dec-2020 4920.01 5476.64 65.84 3.00  20.80 2546.09
   13:59:25.000.25-Dec-2020 4920.01 5479.02 65.84 3.00  21.00 2546.09
   13:59:25.200.25-Dec-2020 4920.01 5479.02 65.84 3.00  21.20 2546.09
   13:59:25.400.25-Dec-2020 4920.01 5477.82 65.84 3.00  21.40 2546.09
   13:59:25.600.25-Dec-2020 4920.01 5476.80 65.84 3.00  21.60 2546.09
   13:59:25.800.25-Dec-2020 4920.01 5479.41 65.84 3.00  21.80 2546.09
   13:59:26.000.25-Dec-2020 4920.01 5484.11 65.84 3.00  22.00 2546.09
   13:59:26.200.25-Dec-2020 4920.01 5484.11 65.84 3.00  22.20 2546.09
   13:59:26.400.25-Dec-2020 4920.01 5479.58 65.84 3.00  22.40 2546.09
   13:59:26.600.25-Dec-2020 4920.01 5476.98 65.84 3.00  22.60 2546.09
   13:59:26.800.25-Dec-2020 4920.01 5478.86 65.84 3.00  22.80 2546.09
