~Version Information
 VERS.                  2.0:   CWLS log ASCII Standard -VERSION 2.0
 WRAP.                   NO:   One line per depth step
~Well Information Block
#MNEM.UNIT     VALUE/NAME     DESCRIPTION
#---------     -----------    ---------------------------
 STRT.S             13:59:04 25-Dec-20: START TIME 13:59:04 25-Dec-20
 STOP.S             14:07:22 25-Dec-20: STOP TIME  14:07:22 25-Dec-20
 STEP.S                   0.00: STEP TIME
 NULL.                 -999.25: NULL VALUE
 DFWT.                        :  DIST FWL TEXT
 DFST.                        :  DIST FSL TEXT
 DMF .             Drill Floor:  DRILL MEAS FROM
 STIM.      04.54.24 22-Sep-20:  START TIME
 DATE.      04.54.24 21-Nov-20:  END TIME
 SPUD.               21-Nov-20:  SPUD DATE
 NREF.                    Grid:  NORTH REFERENCE
 HPTY.       Minimum Curvature:  HOLE POS TYPE
 DMOD.             Drill Model:  DRILL MOD DESC
 SVYD.                  Survey:  SURVEY DESC
 ILTD.               Lithology:  INTERP LTH DESC
 FTOP.          Formation Tops:  FORM TOPS DESC
 SON .        AZ-XX-0906571587:  JOB NUMBER
 COMP.     BP Exploration (Caspian Sea) Ltd:  COMPANY
 UWI .                     N/A:  UNIQUE WELL IDENTIFIER
 API .                     N/A:  API NUMBER
 BASE.              Azerbaijan:  LOGGING EQUIPMENT BASE LOCATION
 REGN.                   EESSA:  REGION
 PROV.                    Baku:  PROVINCE
 STAT.                    Baku:  STATE NAME
 CTRY.              Azerbaijan:  COUNTRY NAME
 FLD .                     ACG:  FIELD NAME
 SRVC.     TURAN Drilling & Engineering:  CONTRACTOR
 WELL.                     J27:  WELL NAME
 RIG .             West Chirag:  RIG NAME
 DOE .                     N/A:  DOE NUMBER
 DCON.         Sperry Drilling:  DIRECTNL CONTR
 PDAT.          Mean Sea Level:  PERMANENT DATUM
 WTYP.                Deviated:  WELL TYPE
 MWDS.                    Baku:  MWD SHOP
 JOBN.        AZ-XX-0906571587:  JOB TICKET NUMB
 UNIT.                     N/A:  LOGGING EQUIPMENT ID
 MDS .        Operator Entered:  MAG DATA SOURCE
 CNTY.                        :  COUNTY
 LOC .                        :  LOCATION
 LMF .             Drill Floor:  LOG MEASURED FROM
 TVDS.m                  43.00:  TVDSS CORRECTN
 LATI.deg                40.13:  LATITUDE
 LONG.deg                51.22:  LONGITUDE
 WHNS.m                   7.72:  WELL HEAD N/S
 WHEW.m                 -14.24:  WELL HEAD E/W
 UTMX.m              519005.06:  UTM X
 UTMY.m             4443793.85:  UTM Y
 DFWL.m                   0.00:  DISTANCE FWL
 DFSL.m                   0.00:  DISTANCE FSL
 SDEP.m                 347.00:  START DEPTH
 TDD .m                 581.00:  TOTAL DEPTH (DRILLER)
 VSDR.deg               159.72:  VERT SEC DIRECT
 GVFD.g                   1.00:  GRAVITY FIELD
 MFLD.nT              50318.00:  MAGNETIC FIELD
 MDIP.deg                59.57:  MAGNETIC DIP
 MDEC.deg                 6.44:  MAGNETIC DECL
 GRDC.deg                 0.15:  GRID CORRECTION
 AZTC.deg                 6.29:  AZM TOTAL CORR
 EPD .m                   0.00:  ELEVATION
 EGL .m                   0.00:  GROUND ELEVATION
 WDMS.m                 169.80:  WD ELEV
 APD .m                  43.00:  DEPTH ABOVE PD
 AGAP.m                  43.00:  AIR GAP
 VSEW.m                 -14.24:  VERT SEC E/W
 VSNS.m                   7.72:  VERT SEC N/S
 DEP .m                 342.45:  DEPTH
 EKB .m                   0.00:  KB ELEVATION
 EDF .m                  43.00:  DF ELEVATION
 TDL .m                 237.00:  TOTAL DEPTH (LOGGER)
 VSC .                       0:  VS TO CLOSURE
 MAGU.                 1851428:  MAGUTM CHECKSUM
~Parameter Information Block
#MNEM.UNIT       Value        Description
#---------     -----------    ---------------------------
 AV  .mps                 1.50:  Ann Velocity 
 AVMX.mps                 2.90:  Max Ann Veloc 
 AZIF.deg               115.59:  Azm, Final 
 BHAT.        Rotary Steerable:  BHA Type 
 BROT.°/30m               0.50:  Build Rotating 
 BS  .in                  8.50:  Bit Size 
 BTPL.psig              580.00:  Bit Press Loss 
 CABU.                     Yes:  Customer Abuse 
 COMM.                     ì©q:  Run Comments 1 
 TCS .hr                 89.79:  Time Ciculation Ended 
 CV  .mps                 3.22:  Crit Velocity 
 CVMX.mps                 4.37:  Max Crit Veloc 
 DD1 .          Rashad Habibov:  Direct Drillr 1 
 DDSV.               Geo-Pilot:  DD Service 
 DEFF.%                  95.00:  % Det Eff 
 DLRX.°/30m               1.94:  Dogleg Rot Max 
 DLSO.°/30m               0.70:  Dogleg Oriented 
 DLSX.°/30m               1.94:  Dogleg Str Max 
 DRET.      04.45.00 25-Dec-20:  Drill End Time 
 DRST.      10.00.00 24-Dec-20:  Drill Start Tim 
 DTIM.hr                 16.64:  Time Drilling 
 EDEP.m                4999.01:  End Depth 
 ENG1.         Elchin Mammadov:  Engineer 1 
 ENG2.          Ruslan Safarov:  Engineer 2 
 ENG3.          Rustam Safarov:  Engineer 3 
 ETIM.      09.00.00 29-Dec-20:  End Time 
 FLOI.gpm               500.00:  Flow In 
 FLON.gpm               400.00:  Flow In Min 
 FLOS.cptm                0.00:  Fluid Loss 
 FLOX.gpm               500.00:  Flow In Max 
 HFLO.                      No:  High Flow 
 HPRE.                      No:  High Pressure 
 HTEM.                      No:  High Temp 
 HYDO.m                   2.00:  Hydro Offset 
 IFIN.deg                66.79:  Inc, Final 
 IMAX.deg                67.66:  Inc Max 
 IMIN.deg                66.39:  Inc Min 
 IMND.m                4949.37:  Inc Min Depth 
 IMXD.m                4778.63:  Inc Max Depth 
 JARR.                     Yes:  Jarring 
 LETM.      04.45.00 25-Dec-20:  Log End Time 
 LOST.hr                     0:  Lost Rig Time 
 LSTM.      10.00.00 24-Dec-20:  Log Start Time 
 MDCL.ppm             39000.00:  Mud Chlorides 
 MDES.     Inversion Oil/Synthetic:  Mud Desc 
 DFD .sg                  1.33:  Mud Density 
 MDMN.sg                  1.33:  Dens Mud Min 
 MDMX.sg                  1.33:  Dens Mud Max 
 MOIL.                      70:  Run Mud Oil % 
 MOWR.                   70:30:  Run Mud OWR 
 MSND.                       0:  Run Mud Sand % 
 MSOL.                    17.4:  Run Mud Solids% 
 DFV .spqt               84.00:  Mud Viscosity 
 MWOD.in                  6.75:  MWD Tool OD 
 MWSI.                     Yes:  Serv Intrp, MWD 
 OTIM.hr                168.14:  Time Operating 
 PCON.           Look Like New:  Pad Condition 
 PMAX.psia            10822.93:  Press Op, Max 
 PV  .cP                 30.00:  Mud PV 
 RUN .                     900:  Run Number 
 ROPA.m/hr               18.00:  ROP Avg 
 ROPN.m/hr               12.00:  ROP Min 
 ROPX.m/hr               25.00:  ROP Max 
 RPMA.rpm               120.00:  RPM Surface Avg 
 RPMN.rpm               100.00:  RPM Surface Min 
 RPMX.rpm               120.00:  RPM Surface Max 
 RRUN.                    0900:  Rig Run Number 
 SAZI.deg               115.08:  Azm, Start 
 SDEP.m                4762.01:  Start Depth 
 SIDD.                      No:  Serv Intrp, DD 
 SINC.deg                66.14:  Inc, Start 
 SPPA.psig             3700.00:  SPP Avg 
 SPPN.psig             3620.00:  SPP Min 
 SPPX.psig             3900.00:  SPP Max 
 STIM.      09.30.00 22-Dec-20:  Start Time 
 SVCS.                 DD, MWD:  Services 
 SVER.                    9.20:  Sperry Version 
 TDAT.m                 237.00:  Tot Depth Attmp 
 TDDF.                      No:  Trip for DD 
 TDLG.m                 237.00:  Tot Depth Loggd 
 TFF .                      No:  Trip for Fail 
 TQAA.f-kp               18.00:  Torque Abs Avg 
 TQAN.f-kp               17.00:  Torque Abs Min 
 TQAX.f-kp               20.00:  Torque Abs Max 
 TRRT.°/30m               0.60:  Turn Rotating 
 MRT .                    HCIM:  Maximum Recorded Temperature 
 TTMX.degC               94.12:  Max Tool Temp 
 VS01.                90627809:  Virtual Str1 SN 
 VS02.                90527813:  Virtual Str2 SN 
 VS03.                90545417:  Virtual Str3 SN 
 VS04.                12460870:  Virtual Str4 SN 
 VS05.                90516706:  Virtual Str5 SN 
 VS06.                90632007:  Virtual Str6 SN 
 WBMN.klb                 0.00:  WOB Min 
 WOBA.klb                14.00:  WOB Avg 
 WOBX.klb                25.00:  WOB Max 
 YP  .lhf2               32.00:  Yield Point 
~Curve Information Block
#MNEM.UNIT                 API CODE     Curve Description
#---------               -----------    ---------------------------
 TIME.HHMMSS            00 000 000 000:  GT Time & Date
 GTDEPTH.m              00 000 000 000:  GT Depth
 GTPQH.psia             00 000 000 000:  GT HR Quartz Pressure
 GTTQ.degC              00 000 000 000:  GT Quartz Temperature
 GTTN.NONE              00 000 000 000:  GT Test Number
 GTET.sec               00 000 000 000:  GT Elapsed Test Time
 GTTVD.m                00 000 000 000:  GT True Vertical Depth
#Other Information
#
#WARRANTY: Halliburton will use its best efforts to furnish customers with 
#accurate information and interpretations that are part of, and incident to, the services 
#provided.  However, Halliburton cannot and does not warrant the accuracy 
#or correctness of such information and interpretations.  Under no circumstances should any 
#such information or interpretation be relied upon as the sole basis for any drilling, 
#completion, production, or financial decision or any procedure involving any risk to the 
#safety of any drilling venture, drilling rig or its crew or any other third party.  The 
#Customer has full responsibility for all drilling, completion and production operation.  
#Halliburton makes no representations or warranties, either expressed or 
#implied, including, but not limited to, the implied warranties of merchantability or fitness 
#for a particular purpose, with respect to the services rendered.  In no event will 
#Halliburton be liable for failure to obtain any particular results or for 
#any damages, including, but not limited to, indirect, special or consequential damages, 
#resulting from the use of any information or interpretation provided by Halliburton.
#
~A           TIME           GTDEPTH  GTPQH  GTTQ  GTTN  GTET   GTTVD  
# ...
   14:04:26.000.25-Dec-2020 4920.01 2498.26 65.69 3.00 322.00 2546.09
   14:04:26.200.25-Dec-2020 4920.01 2498.26 65.69 3.00 322.20 2546.09
   14:04:26.400.25-Dec-2020 4920.01 2500.42 65.69 3.00 322.40 2546.09
   14:04:26.600.25-Dec-2020 4920.01 2497.26 65.69 3.00 322.60 2546.09
   14:04:26.800.25-Dec-2020 4920.01 2499.18 65.69 3.00 322.80 2546.09
   14:04:27.000.25-Dec-2020 4920.01 2498.75 65.69 3.00 323.00 2546.09
   14:04:27.200.25-Dec-2020 4920.01 2495.75 65.69 3.00 323.20 2546.09
   14:04:27.400.25-Dec-2020 4920.01 2500.30 65.69 3.00 323.40 2546.09
   14:04:27.600.25-Dec-2020 4920.01 2500.66 65.69 3.00 323.60 2546.09
   14:04:27.800.25-Dec-2020 4920.01 2497.34 65.69 3.00 323.80 2546.09
   14:04:28.000.25-Dec-2020 4920.01 2498.21 65.69 3.00 324.00 2546.09
   14:04:28.200.25-Dec-2020 4920.01 2498.21 65.69 3.00 324.20 2546.09
   14:04:28.400.25-Dec-2020 4920.01 2497.49 65.68 3.00 324.40 2546.09
   14:04:28.600.25-Dec-2020 4920.01 2503.03 65.69 3.00 324.60 2546.09
   14:04:28.800.25-Dec-2020 4920.01 2502.28 65.68 3.00 324.80 2546.09
   14:04:29.000.25-Dec-2020 4920.01 2503.22 65.68 3.00 325.00 2546.09
   14:04:29.200.25-Dec-2020 4920.01 2503.22 65.68 3.00 325.20 2546.09
   14:04:29.400.25-Dec-2020 4920.01 2505.91 65.68 3.00 325.40 2546.09
   14:04:29.600.25-Dec-2020 4920.01 2599.54 65.68 3.00 325.60 2546.09
   14:04:29.800.25-Dec-2020 4920.01 2654.28 65.68 3.00 325.80 2546.09
   14:04:30.000.25-Dec-2020 4920.01 2662.72 65.68 3.00 326.00 2546.09
   14:04:30.200.25-Dec-2020 4920.01 2663.30 65.68 3.00 326.20 2546.09
   14:04:30.400.25-Dec-2020 4920.01 2663.45 65.68 3.00 326.40 2546.09
   14:04:30.600.25-Dec-2020 4920.01 2663.68 65.68 3.00 326.60 2546.09
   14:04:30.800.25-Dec-2020 4920.01 2664.51 65.68 3.00 326.80 2546.09
   14:04:31.000.25-Dec-2020 4920.01 2664.03 65.68 3.00 327.00 2546.09
   14:04:31.200.25-Dec-2020 4920.01 2664.03 65.68 3.00 327.20 2546.09
   14:04:31.400.25-Dec-2020 4920.01 2664.18 65.68 3.00 327.40 2546.09
   14:04:31.600.25-Dec-2020 4920.01 2663.83 65.68 3.00 327.60 2546.09
   14:04:31.800.25-Dec-2020 4920.01 2664.88 65.68 3.00 327.80 2546.09
   14:04:32.000.25-Dec-2020 4920.01 2664.23 65.68 3.00 328.00 2546.09
   14:04:32.200.25-Dec-2020 4920.01 2664.10 65.68 3.00 328.20 2546.09
   14:04:32.400.25-Dec-2020 4920.01 2664.73 65.68 3.00 328.40 2546.09
   14:04:32.600.25-Dec-2020 4920.01 2664.38 65.68 3.00 328.60 2546.09
   14:04:32.800.25-Dec-2020 4920.01 2664.28 65.68 3.00 328.80 2546.09
   14:04:33.000.25-Dec-2020 4920.01 2664.79 65.68 3.00 329.00 2546.09
   14:04:33.200.25-Dec-2020 4920.01 2664.79 65.68 3.00 329.20 2546.09
   14:04:33.400.25-Dec-2020 4920.01 2664.59 65.68 3.00 329.40 2546.09
   14:04:33.600.25-Dec-2020 4920.01 2664.52 65.68 3.00 329.60 2546.09
   14:04:33.800.25-Dec-2020 4920.01 2664.51 65.68 3.00 329.80 2546.09
   14:04:34.000.25-Dec-2020 4920.01 2664.54 65.68 3.00 330.00 2546.09
   14:04:34.200.25-Dec-2020 4920.01 2664.54 65.68 3.00 330.20 2546.09
   14:04:34.400.25-Dec-2020 4920.01 2664.54 65.68 3.00 330.40 2546.09
   14:04:34.600.25-Dec-2020 4920.01 2664.55 65.68 3.00 330.60 2546.09
   14:04:34.800.25-Dec-2020 4920.01 2664.52 65.68 3.00 330.80 2546.09
   14:04:35.000.25-Dec-2020 4920.01 2664.52 65.68 3.00 331.00 2546.09
   14:04:35.200.25-Dec-2020 4920.01 2664.53 65.68 3.00 331.20 2546.09
   14:04:35.400.25-Dec-2020 4920.01 2664.39 65.68 3.00 331.40 2546.09
   14:04:35.600.25-Dec-2020 4920.01 2664.97 65.68 3.00 331.60 2546.09
   14:04:35.800.25-Dec-2020 4920.01 2664.51 65.69 3.00 331.80 2546.09
   14:04:36.000.25-Dec-2020 4920.01 2664.58 65.68 3.00 332.00 2546.09
   14:04:36.200.25-Dec-2020 4920.01 2664.63 65.69 3.00 332.20 2546.09
   14:04:36.400.25-Dec-2020 4920.01 2664.60 65.69 3.00 332.40 2546.09
   14:04:36.600.25-Dec-2020 4920.01 2664.61 65.69 3.00 332.60 2546.09
   14:04:36.800.25-Dec-2020 4920.01 2664.59 65.69 3.00 332.80 2546.09
   14:04:37.000.25-Dec-2020 4920.01 2664.62 65.69 3.00 333.00 2546.09
   14:04:37.200.25-Dec-2020 4920.01 2664.62 65.69 3.00 333.20 2546.09
   14:04:37.400.25-Dec-2020 4920.01 2664.61 65.69 3.00 333.40 2546.09
   14:04:37.600.25-Dec-2020 4920.01 2664.59 65.69 3.00 333.60 2546.09
   14:04:37.800.25-Dec-2020 4920.01 2664.38 65.69 3.00 333.80 2546.09
   14:04:38.000.25-Dec-2020 4920.01 2664.90 65.69 3.00 334.00 2546.09
   14:04:38.200.25-Dec-2020 4920.01 2664.90 65.69 3.00 334.20 2546.09
   14:04:38.400.25-Dec-2020 4920.01 2664.72 65.69 3.00 334.40 2546.09
   14:04:38.600.25-Dec-2020 4920.01 2664.67 65.69 3.00 334.60 2546.09
   14:04:38.800.25-Dec-2020 4920.01 2664.53 65.69 3.00 334.80 2546.09
   14:04:39.000.25-Dec-2020 4920.01 2664.63 65.69 3.00 335.00 2546.09
   14:04:39.200.25-Dec-2020 4920.01 2664.83 65.69 3.00 335.20 2546.09
   14:04:39.400.25-Dec-2020 4920.01 2664.67 65.69 3.00 335.40 2546.09
   14:04:39.600.25-Dec-2020 4920.01 2664.30 65.69 3.00 335.60 2546.09
   14:04:39.800.25-Dec-2020 4920.01 2665.35 65.69 3.00 335.80 2546.09
   14:04:40.000.25-Dec-2020 4920.01 2664.61 65.69 3.00 336.00 2546.09
   14:04:40.200.25-Dec-2020 4920.01 2664.61 65.69 3.00 336.20 2546.09
   14:04:40.400.25-Dec-2020 4920.01 2664.58 65.69 3.00 336.40 2546.09
   14:04:40.600.25-Dec-2020 4920.01 2664.69 65.69 3.00 336.60 2546.09
   14:04:40.800.25-Dec-2020 4920.01 2664.84 65.69 3.00 336.80 2546.09
   14:04:41.000.25-Dec-2020 4920.01 2664.67 65.69 3.00 337.00 2546.09
   14:04:41.200.25-Dec-2020 4920.01 2664.67 65.69 3.00 337.20 2546.09
   14:04:41.400.25-Dec-2020 4920.01 2664.68 65.69 3.00 337.40 2546.09
   14:04:41.600.25-Dec-2020 4920.01 2664.69 65.69 3.00 337.60 2546.09
   14:04:41.800.25-Dec-2020 4920.01 2664.68 65.69 3.00 337.80 2546.09
   14:04:42.000.25-Dec-2020 4920.01 2664.66 65.69 3.00 338.00 2546.09
   14:04:42.200.25-Dec-2020 4920.01 2664.66 65.69 3.00 338.20 2546.09
   14:04:42.400.25-Dec-2020 4920.01 2664.66 65.69 3.00 338.40 2546.09
   14:04:42.600.25-Dec-2020 4920.01 2664.68 65.69 3.00 338.60 2546.09
   14:04:42.800.25-Dec-2020 4920.01 2664.45 65.68 3.00 338.80 2546.09
   14:04:43.000.25-Dec-2020 4920.01 2664.96 65.69 3.00 339.00 2546.09
   14:04:43.200.25-Dec-2020 4920.01 2664.96 65.69 3.00 339.20 2546.09
   14:04:43.400.25-Dec-2020 4920.01 2664.77 65.68 3.00 339.40 2546.09
   14:04:43.600.25-Dec-2020 4920.01 2664.72 65.68 3.00 339.60 2546.09
   14:04:43.800.25-Dec-2020 4920.01 2664.70 65.68 3.00 339.80 2546.09
   14:04:44.000.25-Dec-2020 4920.01 2664.69 65.68 3.00 340.00 2546.09
   14:04:44.200.25-Dec-2020 4920.01 2664.69 65.68 3.00 340.20 2546.09
   14:04:44.400.25-Dec-2020 4920.01 2664.70 65.68 3.00 340.40 2546.09
   14:04:44.600.25-Dec-2020 4920.01 2664.72 65.68 3.00 340.60 2546.09
   14:04:44.800.25-Dec-2020 4920.01 2664.71 65.68 3.00 340.80 2546.09
   14:04:45.000.25-Dec-2020 4920.01 2664.69 65.68 3.00 341.00 2546.09
   14:04:45.200.25-Dec-2020 4920.01 2664.69 65.68 3.00 341.20 2546.09
   14:04:45.400.25-Dec-2020 4920.01 2664.60 65.68 3.00 341.40 2546.09
   14:04:45.600.25-Dec-2020 4920.01 2664.69 65.68 3.00 341.60 2546.09
   14:04:45.800.25-Dec-2020 4920.01 2664.90 65.68 3.00 341.80 2546.09
   14:04:46.000.25-Dec-2020 4920.01 2664.52 65.68 3.00 342.00 2546.09
   14:04:46.200.25-Dec-2020 4920.01 2664.52 65.68 3.00 342.20 2546.09
   14:04:46.400.25-Dec-2020 4920.01 2664.61 65.68 3.00 342.40 2546.09
   14:04:46.600.25-Dec-2020 4920.01 2664.77 65.68 3.00 342.60 2546.09
   14:04:46.800.25-Dec-2020 4920.01 2664.73 65.68 3.00 342.80 2546.09
   14:04:47.000.25-Dec-2020 4920.01 2664.60 65.68 3.00 343.00 2546.09
   14:04:47.200.25-Dec-2020 4920.01 2664.69 65.68 3.00 343.20 2546.09
   14:04:47.400.25-Dec-2020 4920.01 2664.85 65.68 3.00 343.40 2546.09
   14:04:47.600.25-Dec-2020 4920.01 2664.69 65.68 3.00 343.60 2546.09
   14:04:47.800.25-Dec-2020 4920.01 2664.71 65.68 3.00 343.80 2546.09
   14:04:48.000.25-Dec-2020 4920.01 2664.87 65.68 3.00 344.00 2546.09
   14:04:48.200.25-Dec-2020 4920.01 2664.87 65.68 3.00 344.20 2546.09
   14:04:48.400.25-Dec-2020 4920.01 2664.68 65.68 3.00 344.40 2546.09
   14:04:48.600.25-Dec-2020 4920.01 2664.73 65.68 3.00 344.60 2546.09
   14:04:48.800.25-Dec-2020 4920.01 2664.73 65.68 3.00 344.80 2546.09
