~Version Information
 VERS.                  2.0:   CWLS log ASCII Standard -VERSION 2.0
 WRAP.                   NO:   One line per depth step
~Well Information Block
#MNEM.UNIT     VALUE/NAME     DESCRIPTION
#---------     -----------    ---------------------------
 STRT.S             06:40:56 07-Aug-20: START TIME 06:40:56 07-Aug-20
 STOP.S             06:48:48 07-Aug-20: STOP TIME  06:48:48 07-Aug-20
 STEP.S                   0.00: STEP TIME
 NULL.                 -999.25: NULL VALUE
 DFWT.                        :  DIST FWL TEXT
 DFST.                        :  DIST FSL TEXT
 DMF .             Drill Floor:  DRILL MEAS FROM
 STIM.      12.00.00 03-Jul-20:  START TIME
 DATE.      00.50.00 09-Aug-20:  END TIME
 SPUD.               03-Jul-20:  SPUD DATE
 NREF.                    Grid:  NORTH REFERENCE
 HPTY.       Minimum Curvature:  HOLE POS TYPE
 DMOD.             Drill Model:  DRILL MOD DESC
 SVYD.                  Survey:  SURVEY DESC
 ILTD.               Lithology:  INTERP LTH DESC
 FTOP.          Formation Tops:  FORM TOPS DESC
 PDAT.          Mean Sea Level:  PERMANENT DATUM
 FLD .                     ACG:  FIELD NAME
 CTRY.              Azerbaijan:  COUNTRY NAME
 WELL.                    E04x:  WELL NAME
 SRVC.          Turan Drilling:  CONTRACTOR
 COMP.     BP Exploration (Caspian Sea) Ltd.:  COMPANY
 SON .        AZ-XX-0906531346:  JOB NUMBER
 WTYP.                Deviated:  WELL TYPE
 MDS .        Operator Entered:  MAG DATA SOURCE
 UWI .                     N/A:  UNIQUE WELL IDENTIFIER
 API .                     N/A:  API NUMBER
 BASE.              Azerbaijan:  LOGGING EQUIPMENT BASE LOCATION
 REGN.                   EESSA:  REGION
 PROV.                    Baku:  PROVINCE
 STAT.                    Baku:  STATE NAME
 MWDS.                    Baku:  MWD SHOP
 JOBN.        AZ-XX-0906531346:  JOB TICKET NUMB
 RIG .                     DWG:  RIG NAME
 DOE .                     N/A:  DOE NUMBER
 DCON.         Sperry Drilling:  DIRECTNL CONTR
 UNIT.                     N/A:  LOGGING EQUIPMENT ID
 CNTY.                        :  COUNTY
 LOC .                        :  LOCATION
 LMF .             Drill Floor:  LOG MEASURED FROM
 TVDS.m                  43.16:  TVDSS CORRECTN
 LATI.deg                40.17:  LATITUDE
 LONG.deg                51.17:  LONGITUDE
 WHNS.m                  -0.12:  WELL HEAD N/S
 WHEW.m                  -5.41:  WELL HEAD E/W
 UTMX.m              514337.95:  UTM X
 UTMY.m             4448627.46:  UTM Y
 DFWL.m                   0.00:  DISTANCE FWL
 DFSL.m                   0.00:  DISTANCE FSL
 SDEP.m                3088.01:  START DEPTH
 TDD .m                5200.01:  TOTAL DEPTH (DRILLER)
 VSDR.deg               244.51:  VERT SEC DIRECT
 GVFD.g                   1.00:  GRAVITY FIELD
 MFLD.nT              50329.80:  MAGNETIC FIELD
 MDIP.deg                59.63:  MAGNETIC DIP
 MDEC.deg                 6.59:  MAGNETIC DECL
 GRDC.deg                 0.09:  GRID CORRECTION
 AZTC.deg                 6.50:  AZM TOTAL CORR
 EPD .m                   0.00:  ELEVATION
 EGL .m                   0.00:  GROUND ELEVATION
 WDMS.m                 176.20:  WD ELEV
 APD .m                  43.16:  DEPTH ABOVE PD
 DEP .m                3084.71:  DEPTH
 AGAP.m                  43.16:  AIR GAP
 VSEW.m                  -5.41:  VERT SEC E/W
 VSNS.m                  -0.12:  VERT SEC N/S
 EKB .m                   0.00:  KB ELEVATION
 EDF .m                  43.16:  DF ELEVATION
 TDL .m                 243.00:  TOTAL DEPTH (LOGGER)
 VSC .                       0:  VS TO CLOSURE
 MAGU.                 1853542:  MAGUTM CHECKSUM
~Parameter Information Block
#MNEM.UNIT       Value        Description
#---------     -----------    ---------------------------
 AV  .mps                 1.91:  Ann Velocity 
 AVMX.mps                 2.52:  Max Ann Veloc 
 AZIF.deg               308.97:  Azm, Final 
 BHAT.        Rotary Steerable:  BHA Type 
 BROT.°/30m               1.00:  Build Rotating 
 BS  .in                  6.50:  Bit Size 
 BSZ .in                  6.50:  Bit Size 
 BTPL.psig              350.00:  Bit Press Loss 
 CABU.                      No:  Customer Abuse 
 CGEO.           Asif Pashayev:  Customer Geo 
 TCS .hr                 35.86:  Time Ciculation Ended 
 CV  .mps                 2.31:  Crit Velocity 
 CVMX.mps                 2.31:  Max Crit Veloc 
 DD1 .         Intigam Rahimov:  Direct Drillr 1 
 DDSV.               Geo-Pilot:  DD Service 
 DEFF.%                  92.00:  % Det Eff 
 DLRX.°/30m               1.00:  Dogleg Rot Max 
 DLSO.°/30m               1.00:  Dogleg Oriented 
 DLSX.°/30m               1.42:  Dogleg Str Max 
 DRET.      15.50.00 07-Aug-20:  Drill End Time 
 DRST.      10.40.00 06-Aug-20:  Drill Start Tim 
 DTIM.hr                 21.30:  Time Drilling 
 EDEP.m                5200.01:  End Depth 
 ENG1.            Alan Tuganov:  Engineer 1 
 ENG2.         Almaz Almadatov:  Engineer 2 
 ENG3.     Zammelal Abdullah Sani:  Engineer 3 
 ETIM.      22.42.00 08-Aug-20:  End Time 
 FLOI.gpm               395.00:  Flow In 
 FLON.gpm               350.00:  Flow In Min 
 FLOS.cptm                0.00:  Fluid Loss 
 FLOX.gpm               404.00:  Flow In Max 
 FTRO.       Formation Presure:  FTWD Run Obj 
 HFLO.                      No:  High Flow 
 HPRE.                      No:  High Pressure 
 HTEM.                      No:  High Temp 
 HYDO.m                   1.80:  Hydro Offset 
 IFIN.deg                72.64:  Inc, Final 
 IMAX.deg                73.68:  Inc Max 
 IMIN.deg                72.64:  Inc Min 
 IMND.m                5189.69:  Inc Min Depth 
 IMXD.m                5067.88:  Inc Max Depth 
 JARR.                      No:  Jarring 
 LETM.      15.50.00 07-Aug-20:  Log End Time 
 LOST.hr                     0:  Lost Rig Time 
 LSTM.      10.40.00 06-Aug-20:  Log Start Time 
 MDCL.ppm             36000.00:  Mud Chlorides 
 MDES.     Inversion Oil/Synthetic:  Mud Desc 
 DFD .sg                  1.36:  Mud Density 
 MDMN.sg                  1.36:  Dens Mud Min 
 MDMX.sg                  1.36:  Dens Mud Max 
 MOIL.                      70:  Run Mud Oil % 
 MOWR.                   70:30:  Run Mud OWR 
 MSND.                    0.00:  Run Mud Sand % 
 MSOL.                   17.60:  Run Mud Solids% 
 DFV .spqt               73.00:  Mud Viscosity 
 MWOD.in                  4.75:  MWD Tool OD 
 MWSI.                      No:  Serv Intrp, MWD 
 OTIM.hr                 85.66:  Time Operating 
 PCON.           Look Like New:  Pad Condition 
 PMAX.psia             6250.00:  Press Op, Max 
 PV  .cP                 65.00:  Mud PV 
 RUN .                     900:  Run Number 
 ROPA.m/hr               11.40:  ROP Avg 
 ROPN.m/hr                5.00:  ROP Min 
 ROPX.m/hr               20.00:  ROP Max 
 RPMA.rpm               130.00:  RPM Surface Avg 
 RPMN.rpm                40.00:  RPM Surface Min 
 RPMX.rpm               140.00:  RPM Surface Max 
 RRUN.                    L205:  Rig Run Number 
 RTIM.hr                  1.00:  Time Reaming 
 SAZI.deg               313.52:  Azm, Start 
 SDEP.m                4957.01:  Start Depth 
 SIDD.                      No:  Serv Intrp, DD 
 SINC.deg                73.16:  Inc, Start 
 SPPA.psig             5657.00:  SPP Avg 
 SPPN.psig             2500.00:  SPP Min 
 SPPX.psig             5806.00:  SPP Max 
 STIM.      07.12.00 05-Aug-20:  Start Time 
 SVCS.                 DD, MWD:  Services 
 SVER.                    9.20:  Sperry Version 
 TDAT.m                 243.00:  Tot Depth Attmp 
 TDDF.                      No:  Trip for DD 
 TDLG.m                 243.00:  Tot Depth Loggd 
 TFF .                      No:  Trip for Fail 
 TQAA.f-kp               13.00:  Torque Abs Avg 
 TQAN.f-kp               11.00:  Torque Abs Min 
 TQAX.f-kp               16.00:  Torque Abs Max 
 TRRT.°/30m               1.00:  Turn Rotating 
 MRT .                    HCIM:  Maximum Recorded Temperature 
 TTMX.degC               96.08:  Max Tool Temp 
 VS01.                90515411:  Virtual Str1 SN 
 VS02.                90512716:  Virtual Str2 SN 
 VS03.                90522362:  Virtual Str3 SN 
 VS04.                90619415:  Virtual Str4 SN 
 VS05.                90619414:  Virtual Str5 SN 
 VS06.                90597748:  Virtual Str6 SN 
 WBMN.klb                 2.00:  WOB Min 
 WITN.           Adil Mammadov:  Customer Rep 
 WITN.     Alexander Yadullayev:  Customer Rep 2 
 WOBA.klb                 7.00:  WOB Avg 
 WOBX.klb                23.00:  WOB Max 
 YP  .lhf2               37.00:  Yield Point 
~Curve Information Block
#MNEM.UNIT                 API CODE     Curve Description
#---------               -----------    ---------------------------
 TIME.HHMMSS            00 000 000 000:  GT Time & Date
 GTDEPTH.m              00 000 000 000:  GT Depth
 GTPQH.psia             00 000 000 000:  GT HR Quartz Pressure
 GTTQ.degC              00 000 000 000:  GT Quartz Temperature
 GTTN.NONE              00 000 000 000:  GT Test Number
 GTET.sec               00 000 000 000:  GT Elapsed Test Time
 GTTVD.m                00 000 000 000:  GT True Vertical Depth
#Other Information
#
#WARRANTY: Halliburton will use its best efforts to furnish customers with 
#accurate information and interpretations that are part of, and incident to, the services 
#provided.  However, Halliburton cannot and does not warrant the accuracy 
#or correctness of such information and interpretations.  Under no circumstances should any 
#such information or interpretation be relied upon as the sole basis for any drilling, 
#completion, production, or financial decision or any procedure involving any risk to the 
#safety of any drilling venture, drilling rig or its crew or any other third party.  The 
#Customer has full responsibility for all drilling, completion and production operation.  
#Halliburton makes no representations or warranties, either expressed or 
#implied, including, but not limited to, the implied warranties of merchantability or fitness 
#for a particular purpose, with respect to the services rendered.  In no event will 
#Halliburton be liable for failure to obtain any particular results or for 
#any damages, including, but not limited to, indirect, special or consequential damages, 
#resulting from the use of any information or interpretation provided by Halliburton.
#
~A           TIME           GTDEPTH  GTPQH  GTTQ  GTTN  GTET   GTTVD  
# ...
   06:44:23.999.07-Aug-2020 5088.01 3691.07 88.55 8.00 207.06 2671.45
   06:44:24.199.07-Aug-2020 5088.01 3691.07 88.55 8.00 207.26 2671.45
   06:44:24.399.07-Aug-2020 5088.01 3691.05 88.55 8.00 207.46 2671.45
   06:44:24.599.07-Aug-2020 5088.01 3691.12 88.55 8.00 207.66 2671.45
   06:44:24.799.07-Aug-2020 5088.01 3691.08 88.55 8.00 207.86 2671.45
   06:44:24.999.07-Aug-2020 5088.01 3691.13 88.55 8.00 208.06 2671.45
   06:44:25.199.07-Aug-2020 5088.01 3691.13 88.54 8.00 208.26 2671.45
   06:44:25.400.07-Aug-2020 5088.01 3691.08 88.54 8.00 208.46 2671.45
   06:44:25.600.07-Aug-2020 5088.01 3691.11 88.54 8.00 208.66 2671.45
   06:44:25.800.07-Aug-2020 5088.01 3691.11 88.54 8.00 208.86 2671.45
   06:44:26.000.07-Aug-2020 5088.01 3691.09 88.54 8.00 209.06 2671.45
   06:44:26.200.07-Aug-2020 5088.01 3691.09 88.54 8.00 209.26 2671.45
   06:44:26.400.07-Aug-2020 5088.01 3691.09 88.54 8.00 209.46 2671.45
   06:44:26.600.07-Aug-2020 5088.01 3691.10 88.54 8.00 209.66 2671.45
   06:44:26.800.07-Aug-2020 5088.01 3691.07 88.54 8.00 209.86 2671.45
   06:44:27.000.07-Aug-2020 5088.01 3691.06 88.54 8.00 210.06 2671.45
   06:44:27.200.07-Aug-2020 5088.01 3691.06 88.54 8.00 210.26 2671.45
   06:44:27.400.07-Aug-2020 5088.01 3691.14 88.54 8.00 210.46 2671.45
   06:44:27.600.07-Aug-2020 5088.01 3691.04 88.54 8.00 210.66 2671.45
   06:44:27.800.07-Aug-2020 5088.01 3691.13 88.54 8.00 210.86 2671.45
   06:44:28.000.07-Aug-2020 5088.01 3691.10 88.54 8.00 211.06 2671.45
   06:44:28.200.07-Aug-2020 5088.01 3691.10 88.54 8.00 211.26 2671.45
   06:44:28.400.07-Aug-2020 5088.01 3691.07 88.54 8.00 211.46 2671.45
   06:44:28.600.07-Aug-2020 5088.01 3691.10 88.53 8.00 211.66 2671.45
   06:44:28.801.07-Aug-2020 5088.01 3691.08 88.53 8.00 211.86 2671.45
   06:44:29.001.07-Aug-2020 5088.01 3691.10 88.53 8.00 212.06 2671.45
   06:44:29.201.07-Aug-2020 5088.01 3691.07 88.53 8.00 212.26 2671.45
   06:44:29.401.07-Aug-2020 5088.01 3691.10 88.53 8.00 212.46 2671.45
   06:44:29.601.07-Aug-2020 5088.01 3691.06 88.53 8.00 212.66 2671.45
   06:44:29.801.07-Aug-2020 5088.01 3690.94 88.53 8.00 212.86 2671.45
   06:44:30.001.07-Aug-2020 5088.01 3691.19 88.53 8.00 213.06 2671.45
   06:44:30.201.07-Aug-2020 5088.01 3691.19 88.53 8.00 213.26 2671.45
   06:44:30.401.07-Aug-2020 5088.01 3691.07 88.53 8.00 213.46 2671.45
   06:44:30.601.07-Aug-2020 5088.01 3691.10 88.53 8.00 213.66 2671.45
   06:44:30.801.07-Aug-2020 5088.01 3690.96 88.53 8.00 213.86 2671.45
   06:44:31.001.07-Aug-2020 5088.01 3691.17 88.53 8.00 214.06 2671.45
   06:44:31.201.07-Aug-2020 5088.01 3691.17 88.53 8.00 214.26 2671.45
   06:44:31.401.07-Aug-2020 5088.01 3691.10 88.53 8.00 214.46 2671.45
   06:44:31.601.07-Aug-2020 5088.01 3691.12 88.53 8.00 214.66 2671.45
   06:44:31.801.07-Aug-2020 5088.01 3690.98 88.53 8.00 214.86 2671.45
   06:44:32.001.07-Aug-2020 5088.01 3691.15 88.53 8.00 215.06 2671.45
   06:44:32.201.07-Aug-2020 5088.01 3691.15 88.53 8.00 215.26 2671.45
   06:44:32.402.07-Aug-2020 5088.01 3691.06 88.52 8.00 215.46 2671.45
   06:44:32.602.07-Aug-2020 5088.01 3691.10 88.52 8.00 215.66 2671.45
   06:44:32.802.07-Aug-2020 5088.01 3691.04 88.52 8.00 215.86 2671.45
   06:44:33.002.07-Aug-2020 5088.01 3691.10 88.52 8.00 216.06 2671.45
   06:44:33.202.07-Aug-2020 5088.01 3691.11 88.52 8.00 216.26 2671.45
   06:44:33.402.07-Aug-2020 5088.01 3691.10 88.52 8.00 216.46 2671.45
   06:44:33.602.07-Aug-2020 5088.01 3691.10 88.52 8.00 216.66 2671.45
   06:44:33.802.07-Aug-2020 5088.01 3691.06 88.52 8.00 216.86 2671.45
   06:44:34.002.07-Aug-2020 5088.01 3691.12 88.52 8.00 217.06 2671.45
   06:44:34.202.07-Aug-2020 5088.01 3691.12 88.52 8.00 217.26 2671.45
   06:44:34.402.07-Aug-2020 5088.01 3691.08 88.52 8.00 217.46 2671.45
   06:44:34.602.07-Aug-2020 5088.01 3691.07 88.52 8.00 217.66 2671.45
   06:44:34.802.07-Aug-2020 5088.01 3691.09 88.52 8.00 217.86 2671.45
   06:44:35.002.07-Aug-2020 5088.01 3691.07 88.52 8.00 218.06 2671.45
   06:44:35.202.07-Aug-2020 5088.01 3691.07 88.52 8.00 218.26 2671.45
   06:44:35.402.07-Aug-2020 5088.01 3691.01 88.52 8.00 218.46 2671.45
   06:44:35.602.07-Aug-2020 5088.01 3691.11 88.52 8.00 218.66 2671.45
   06:44:35.803.07-Aug-2020 5088.01 3691.09 88.51 8.00 218.86 2671.45
   06:44:36.003.07-Aug-2020 5088.01 3691.03 88.51 8.00 219.06 2671.45
   06:44:36.203.07-Aug-2020 5088.01 3691.03 88.51 8.00 219.26 2671.45
   06:44:36.403.07-Aug-2020 5088.01 3691.08 88.51 8.00 219.46 2671.45
   06:44:36.603.07-Aug-2020 5088.01 3691.08 88.51 8.00 219.66 2671.45
   06:44:36.803.07-Aug-2020 5088.01 3691.07 88.51 8.00 219.86 2671.45
   06:44:37.003.07-Aug-2020 5088.01 3691.08 88.51 8.00 220.06 2671.45
   06:44:37.203.07-Aug-2020 5088.01 3691.08 88.51 8.00 220.26 2671.45
   06:44:37.403.07-Aug-2020 5088.01 3691.09 88.51 8.00 220.46 2671.45
   06:44:37.603.07-Aug-2020 5088.01 3691.05 88.51 8.00 220.66 2671.45
   06:44:37.803.07-Aug-2020 5088.01 3691.08 88.51 8.00 220.86 2671.45
   06:44:38.003.07-Aug-2020 5088.01 3691.05 88.51 8.00 221.06 2671.45
   06:44:38.203.07-Aug-2020 5088.01 3690.95 88.51 8.00 221.26 2671.45
   06:44:38.403.07-Aug-2020 5088.01 3691.15 88.51 8.00 221.46 2671.45
   06:44:38.603.07-Aug-2020 5088.01 3691.09 88.51 8.00 221.66 2671.45
   06:44:38.803.07-Aug-2020 5088.01 3691.07 88.51 8.00 221.86 2671.45
   06:44:39.003.07-Aug-2020 5088.01 3691.10 88.51 8.00 222.06 2671.45
   06:44:39.204.07-Aug-2020 5088.01 3691.10 88.51 8.00 222.26 2671.45
   06:44:39.404.07-Aug-2020 5088.01 3691.10 88.50 8.00 222.46 2671.45
   06:44:39.604.07-Aug-2020 5088.01 3691.05 88.50 8.00 222.66 2671.45
   06:44:39.804.07-Aug-2020 5088.01 3691.12 88.50 8.00 222.86 2671.45
   06:44:40.004.07-Aug-2020 5088.01 3691.08 88.50 8.00 223.06 2671.45
   06:44:40.204.07-Aug-2020 5088.01 3691.08 88.50 8.00 223.26 2671.45
   06:44:40.404.07-Aug-2020 5088.01 3691.16 88.50 8.00 223.46 2671.45
   06:44:40.604.07-Aug-2020 5088.01 3691.12 88.50 8.00 223.66 2671.45
   06:44:40.804.07-Aug-2020 5088.01 3691.03 88.50 8.00 223.87 2671.45
   06:44:41.004.07-Aug-2020 5088.01 3691.08 88.50 8.00 224.07 2671.45
   06:44:41.204.07-Aug-2020 5088.01 3691.04 88.50 8.00 224.27 2671.45
   06:44:41.404.07-Aug-2020 5088.01 3691.11 88.50 8.00 224.47 2671.45
   06:44:41.604.07-Aug-2020 5088.01 3691.08 88.50 8.00 224.67 2671.45
   06:44:41.804.07-Aug-2020 5088.01 3691.08 88.50 8.00 224.87 2671.45
   06:44:42.004.07-Aug-2020 5088.01 3691.09 88.50 8.00 225.07 2671.45
   06:44:42.204.07-Aug-2020 5088.01 3691.09 88.50 8.00 225.27 2671.45
   06:44:42.404.07-Aug-2020 5088.01 3691.10 88.50 8.00 225.47 2671.45
   06:44:42.605.07-Aug-2020 5088.01 3691.06 88.50 8.00 225.67 2671.45
   06:44:42.805.07-Aug-2020 5088.01 3691.09 88.50 8.00 225.87 2671.45
   06:44:43.005.07-Aug-2020 5088.01 3691.05 88.49 8.00 226.07 2671.45
   06:44:43.205.07-Aug-2020 5088.01 3691.05 88.49 8.00 226.27 2671.45
   06:44:43.405.07-Aug-2020 5088.01 3691.05 88.49 8.00 226.47 2671.45
   06:44:43.605.07-Aug-2020 5088.01 3691.08 88.49 8.00 226.67 2671.45
   06:44:43.805.07-Aug-2020 5088.01 3690.98 88.49 8.00 226.87 2671.45
   06:44:44.005.07-Aug-2020 5088.01 3691.11 88.49 8.00 227.07 2671.45
   06:44:44.205.07-Aug-2020 5088.01 3691.11 88.49 8.00 227.27 2671.45
   06:44:44.405.07-Aug-2020 5088.01 3691.03 88.49 8.00 227.47 2671.45
   06:44:44.605.07-Aug-2020 5088.01 3691.09 88.49 8.00 227.67 2671.45
   06:44:44.805.07-Aug-2020 5088.01 3691.08 88.49 8.00 227.87 2671.45
   06:44:45.005.07-Aug-2020 5088.01 3691.06 88.49 8.00 228.07 2671.45
   06:44:45.205.07-Aug-2020 5088.01 3691.07 88.49 8.00 228.27 2671.45
   06:44:45.405.07-Aug-2020 5088.01 3691.06 88.49 8.00 228.47 2671.45
   06:44:45.605.07-Aug-2020 5088.01 3691.06 88.49 8.00 228.67 2671.45
   06:44:45.805.07-Aug-2020 5088.01 3691.06 88.49 8.00 228.87 2671.45
   06:44:46.006.07-Aug-2020 5088.01 3691.05 88.49 8.00 229.07 2671.45
   06:44:46.206.07-Aug-2020 5088.01 3691.05 88.49 8.00 229.27 2671.45
   06:44:46.406.07-Aug-2020 5088.01 3691.04 88.49 8.00 229.47 2671.45
   06:44:46.606.07-Aug-2020 5088.01 3691.00 88.48 8.00 229.67 2671.45
   06:44:46.806.07-Aug-2020 5088.01 3691.07 88.48 8.00 229.87 2671.45
