~Version Information
 VERS.                  2.0:   CWLS log ASCII Standard -VERSION 2.0
 WRAP.                   NO:   One line per depth step
~Well Information Block
#MNEM.UNIT     VALUE/NAME     DESCRIPTION
#---------     -----------    ---------------------------
 STRT.S             09:21:48 07-Aug-20: START TIME 09:21:48 07-Aug-20
 STOP.S             09:29:41 07-Aug-20: STOP TIME  09:29:41 07-Aug-20
 STEP.S                   0.00: STEP TIME
 NULL.                 -999.25: NULL VALUE
 DFWT.                        :  DIST FWL TEXT
 DFST.                        :  DIST FSL TEXT
 DMF .             Drill Floor:  DRILL MEAS FROM
 STIM.      12.00.00 03-Jul-20:  START TIME
 DATE.      00.50.00 09-Aug-20:  END TIME
 SPUD.               03-Jul-20:  SPUD DATE
 NREF.                    Grid:  NORTH REFERENCE
 HPTY.       Minimum Curvature:  HOLE POS TYPE
 DMOD.             Drill Model:  DRILL MOD DESC
 SVYD.                  Survey:  SURVEY DESC
 ILTD.               Lithology:  INTERP LTH DESC
 FTOP.          Formation Tops:  FORM TOPS DESC
 PDAT.          Mean Sea Level:  PERMANENT DATUM
 FLD .                     ACG:  FIELD NAME
 CTRY.              Azerbaijan:  COUNTRY NAME
 WELL.                    E04x:  WELL NAME
 SRVC.          Turan Drilling:  CONTRACTOR
 COMP.     BP Exploration (Caspian Sea) Ltd.:  COMPANY
 SON .        AZ-XX-0906531346:  JOB NUMBER
 WTYP.                Deviated:  WELL TYPE
 MDS .        Operator Entered:  MAG DATA SOURCE
 UWI .                     N/A:  UNIQUE WELL IDENTIFIER
 API .                     N/A:  API NUMBER
 BASE.              Azerbaijan:  LOGGING EQUIPMENT BASE LOCATION
 REGN.                   EESSA:  REGION
 PROV.                    Baku:  PROVINCE
 STAT.                    Baku:  STATE NAME
 MWDS.                    Baku:  MWD SHOP
 JOBN.        AZ-XX-0906531346:  JOB TICKET NUMB
 RIG .                     DWG:  RIG NAME
 DOE .                     N/A:  DOE NUMBER
 DCON.         Sperry Drilling:  DIRECTNL CONTR
 UNIT.                     N/A:  LOGGING EQUIPMENT ID
 CNTY.                        :  COUNTY
 LOC .                        :  LOCATION
 LMF .             Drill Floor:  LOG MEASURED FROM
 TVDS.m                  43.16:  TVDSS CORRECTN
 LATI.deg                40.17:  LATITUDE
 LONG.deg                51.17:  LONGITUDE
 WHNS.m                  -0.12:  WELL HEAD N/S
 WHEW.m                  -5.41:  WELL HEAD E/W
 UTMX.m              514337.95:  UTM X
 UTMY.m             4448627.46:  UTM Y
 DFWL.m                   0.00:  DISTANCE FWL
 DFSL.m                   0.00:  DISTANCE FSL
 SDEP.m                3088.01:  START DEPTH
 TDD .m                5200.01:  TOTAL DEPTH (DRILLER)
 VSDR.deg               244.51:  VERT SEC DIRECT
 GVFD.g                   1.00:  GRAVITY FIELD
 MFLD.nT              50329.80:  MAGNETIC FIELD
 MDIP.deg                59.63:  MAGNETIC DIP
 MDEC.deg                 6.59:  MAGNETIC DECL
 GRDC.deg                 0.09:  GRID CORRECTION
 AZTC.deg                 6.50:  AZM TOTAL CORR
 EPD .m                   0.00:  ELEVATION
 EGL .m                   0.00:  GROUND ELEVATION
 WDMS.m                 176.20:  WD ELEV
 APD .m                  43.16:  DEPTH ABOVE PD
 DEP .m                3084.71:  DEPTH
 AGAP.m                  43.16:  AIR GAP
 VSEW.m                  -5.41:  VERT SEC E/W
 VSNS.m                  -0.12:  VERT SEC N/S
 EKB .m                   0.00:  KB ELEVATION
 EDF .m                  43.16:  DF ELEVATION
 TDL .m                 243.00:  TOTAL DEPTH (LOGGER)
 VSC .                       0:  VS TO CLOSURE
 MAGU.                 1853542:  MAGUTM CHECKSUM
~Parameter Information Block
#MNEM.UNIT       Value        Description
#---------     -----------    ---------------------------
 AV  .mps                 1.91:  Ann Velocity 
 AVMX.mps                 2.52:  Max Ann Veloc 
 AZIF.deg               308.97:  Azm, Final 
 BHAT.        Rotary Steerable:  BHA Type 
 BROT.∞/30m               1.00:  Build Rotating 
 BS  .in                  6.50:  Bit Size 
 BSZ .in                  6.50:  Bit Size 
 BTPL.psig              350.00:  Bit Press Loss 
 CABU.                      No:  Customer Abuse 
 CGEO.           Asif Pashayev:  Customer Geo 
 COMM.                     ,[Å:  Run Comments 1 
 TCS .hr                 35.86:  Time Ciculation Ended 
 CV  .mps                 2.31:  Crit Velocity 
 CVMX.mps                 2.31:  Max Crit Veloc 
 DD1 .         Intigam Rahimov:  Direct Drillr 1 
 DDSV.               Geo-Pilot:  DD Service 
 DEFF.%                  92.00:  % Det Eff 
 DLRX.∞/30m               1.00:  Dogleg Rot Max 
 DLSO.∞/30m               1.00:  Dogleg Oriented 
 DLSX.∞/30m               1.42:  Dogleg Str Max 
 DRET.      15.50.00 07-Aug-20:  Drill End Time 
 DRST.      10.40.00 06-Aug-20:  Drill Start Tim 
 DTIM.hr                 21.30:  Time Drilling 
 EDEP.m                5200.01:  End Depth 
 ENG1.            Alan Tuganov:  Engineer 1 
 ENG2.         Almaz Almadatov:  Engineer 2 
 ENG3.     Zammelal Abdullah Sani:  Engineer 3 
 ETIM.      22.42.00 08-Aug-20:  End Time 
 FLOI.gpm               395.00:  Flow In 
 FLON.gpm               350.00:  Flow In Min 
 FLOS.cptm                0.00:  Fluid Loss 
 FLOX.gpm               404.00:  Flow In Max 
 FTRO.       Formation Presure:  FTWD Run Obj 
 HFLO.                      No:  High Flow 
 HPRE.                      No:  High Pressure 
 HTEM.                      No:  High Temp 
 HYDO.m                   1.80:  Hydro Offset 
 IFIN.deg                72.64:  Inc, Final 
 IMAX.deg                73.68:  Inc Max 
 IMIN.deg                72.64:  Inc Min 
 IMND.m                5189.69:  Inc Min Depth 
 IMXD.m                5067.88:  Inc Max Depth 
 JARR.                      No:  Jarring 
 LETM.      15.50.00 07-Aug-20:  Log End Time 
 LOST.hr                     0:  Lost Rig Time 
 LSTM.      10.40.00 06-Aug-20:  Log Start Time 
 MDCL.ppm             36000.00:  Mud Chlorides 
 MDES.     Inversion Oil/Synthetic:  Mud Desc 
 DFD .sg                  1.36:  Mud Density 
 MDMN.sg                  1.36:  Dens Mud Min 
 MDMX.sg                  1.36:  Dens Mud Max 
 MOIL.                      70:  Run Mud Oil % 
 MOWR.                   70:30:  Run Mud OWR 
 MSND.                    0.00:  Run Mud Sand % 
 MSOL.                   17.60:  Run Mud Solids% 
 DFV .spqt               73.00:  Mud Viscosity 
 MWOD.in                  4.75:  MWD Tool OD 
 MWSI.                      No:  Serv Intrp, MWD 
 OTIM.hr                 85.66:  Time Operating 
 PCON.           Look Like New:  Pad Condition 
 PMAX.psia             6250.00:  Press Op, Max 
 PV  .cP                 65.00:  Mud PV 
 RUN .                     900:  Run Number 
 ROPA.m/hr               11.40:  ROP Avg 
 ROPN.m/hr                5.00:  ROP Min 
 ROPX.m/hr               20.00:  ROP Max 
 RPMA.rpm               130.00:  RPM Surface Avg 
 RPMN.rpm                40.00:  RPM Surface Min 
 RPMX.rpm               140.00:  RPM Surface Max 
 RRUN.                    L205:  Rig Run Number 
 RTIM.hr                  1.00:  Time Reaming 
 SAZI.deg               313.52:  Azm, Start 
 SDEP.m                4957.01:  Start Depth 
 SIDD.                      No:  Serv Intrp, DD 
 SINC.deg                73.16:  Inc, Start 
 SPPA.psig             5657.00:  SPP Avg 
 SPPN.psig             2500.00:  SPP Min 
 SPPX.psig             5806.00:  SPP Max 
 STIM.      07.12.00 05-Aug-20:  Start Time 
 SVCS.                 DD, MWD:  Services 
 SVER.                    9.20:  Sperry Version 
 TDAT.m                 243.00:  Tot Depth Attmp 
 TDDF.                      No:  Trip for DD 
 TDLG.m                 243.00:  Tot Depth Loggd 
 TFF .                      No:  Trip for Fail 
 TQAA.f-kp               13.00:  Torque Abs Avg 
 TQAN.f-kp               11.00:  Torque Abs Min 
 TQAX.f-kp               16.00:  Torque Abs Max 
 TRRT.∞/30m               1.00:  Turn Rotating 
 MRT .                    HCIM:  Maximum Recorded Temperature 
 TTMX.degC               96.08:  Max Tool Temp 
 VS01.                90515411:  Virtual Str1 SN 
 VS02.                90512716:  Virtual Str2 SN 
 VS03.                90522362:  Virtual Str3 SN 
 VS04.                90619415:  Virtual Str4 SN 
 VS05.                90619414:  Virtual Str5 SN 
 VS06.                90597748:  Virtual Str6 SN 
 WBMN.klb                 2.00:  WOB Min 
 WITN.           Adil Mammadov:  Customer Rep 
 WITN.     Alexander Yadullayev:  Customer Rep 2 
 WOBA.klb                 7.00:  WOB Avg 
 WOBX.klb                23.00:  WOB Max 
 YP  .lhf2               37.00:  Yield Point 
~Curve Information Block
#MNEM.UNIT                 API CODE     Curve Description
#---------               -----------    ---------------------------
 TIME.HHMMSS            00 000 000 000:  GT Time & Date
 GTDEPTH.m              00 000 000 000:  GT Depth
 GTPQH.psia             00 000 000 000:  GT HR Quartz Pressure
 GTTQ.degC              00 000 000 000:  GT Quartz Temperature
 GTTN.NONE              00 000 000 000:  GT Test Number
 GTET.sec               00 000 000 000:  GT Elapsed Test Time
 GTTVD.m                00 000 000 000:  GT True Vertical Depth
#Other Information
#
#WARRANTY: Halliburton will use its best efforts to furnish customers with 
#accurate information and interpretations that are part of, and incident to, the services 
#provided.  However, Halliburton cannot and does not warrant the accuracy 
#or correctness of such information and interpretations.  Under no circumstances should any 
#such information or interpretation be relied upon as the sole basis for any drilling, 
#completion, production, or financial decision or any procedure involving any risk to the 
#safety of any drilling venture, drilling rig or its crew or any other third party.  The 
#Customer has full responsibility for all drilling, completion and production operation.  
#Halliburton makes no representations or warranties, either expressed or 
#implied, including, but not limited to, the implied warranties of merchantability or fitness 
#for a particular purpose, with respect to the services rendered.  In no event will 
#Halliburton be liable for failure to obtain any particular results or for 
#any damages, including, but not limited to, indirect, special or consequential damages, 
#resulting from the use of any information or interpretation provided by Halliburton.
#
~A           TIME           GTDEPTH  GTPQH  GTTQ  GTTN  GTET   GTTVD  
# ...
   09:22:11.568.07-Aug-2020 5109.01 6562.00 86.86 9.00  22.99 2677.54
   09:22:11.768.07-Aug-2020 5109.01 6562.00 86.86 9.00  23.19 2677.54
   09:22:11.968.07-Aug-2020 5109.01 6558.43 86.86 9.00  23.39 2677.54
   09:22:12.168.07-Aug-2020 5109.01 6561.59 86.86 9.00  23.59 2677.54
   09:22:12.367.07-Aug-2020 5109.01 6563.50 86.86 9.00  23.79 2677.54
   09:22:12.567.07-Aug-2020 5109.01 6566.70 86.86 9.00  23.99 2677.54
   09:22:12.767.07-Aug-2020 5109.01 6566.70 86.86 9.00  24.19 2677.54
   09:22:12.967.07-Aug-2020 5109.01 6569.90 86.86 9.00  24.39 2677.54
   09:22:13.167.07-Aug-2020 5109.01 6571.61 86.86 9.00  24.59 2677.54
   09:22:13.367.07-Aug-2020 5109.01 6573.04 86.86 9.00  24.79 2677.54
   09:22:13.567.07-Aug-2020 5109.01 6573.65 86.86 9.00  24.99 2677.54
   09:22:13.767.07-Aug-2020 5109.01 6574.37 86.86 9.00  25.19 2677.54
   09:22:13.967.07-Aug-2020 5109.01 6119.61 86.86 9.00  25.39 2677.54
   09:22:14.167.07-Aug-2020 5109.01 5493.97 86.86 9.00  25.59 2677.54
   09:22:14.367.07-Aug-2020 5109.01 5169.75 86.86 9.00  25.79 2677.54
   09:22:14.567.07-Aug-2020 5109.01 4660.19 86.86 9.00  25.99 2677.54
   09:22:14.767.07-Aug-2020 5109.01 4660.19 86.86 9.00  26.19 2677.54
   09:22:14.967.07-Aug-2020 5109.01 3752.12 86.85 9.00  26.39 2677.54
   09:22:15.167.07-Aug-2020 5109.01 3441.45 86.85 9.00  26.59 2677.54
   09:22:15.367.07-Aug-2020 5109.01 3406.06 86.85 9.00  26.79 2677.54
   09:22:15.566.07-Aug-2020 5109.01 3406.50 86.85 9.00  26.99 2677.54
   09:22:15.766.07-Aug-2020 5109.01 3406.50 86.85 9.00  27.19 2677.54
   09:22:15.966.07-Aug-2020 5109.01 3405.76 86.85 9.00  27.39 2677.54
   09:22:16.166.07-Aug-2020 5109.01 3405.52 86.85 9.00  27.59 2677.54
   09:22:16.366.07-Aug-2020 5109.01 3406.70 86.85 9.00  27.79 2677.54
   09:22:16.566.07-Aug-2020 5109.01 3410.55 86.85 9.00  27.99 2677.54
   09:22:16.766.07-Aug-2020 5109.01 3410.55 86.85 9.00  28.19 2677.54
   09:22:16.966.07-Aug-2020 5109.01 3405.08 86.85 9.00  28.39 2677.54
   09:22:17.166.07-Aug-2020 5109.01 3405.68 86.85 9.00  28.59 2677.54
   09:22:17.366.07-Aug-2020 5109.01 3404.87 86.85 9.00  28.79 2677.54
   09:22:17.566.07-Aug-2020 5109.01 3404.85 86.85 9.00  28.99 2677.54
   09:22:17.766.07-Aug-2020 5109.01 3404.08 86.84 9.00  29.19 2677.54
   09:22:17.966.07-Aug-2020 5109.01 3403.43 86.84 9.00  29.39 2677.54
   09:22:18.166.07-Aug-2020 5109.01 3402.97 86.84 9.00  29.59 2677.54
   09:22:18.366.07-Aug-2020 5109.01 3402.40 86.84 9.00  29.79 2677.54
   09:22:18.566.07-Aug-2020 5109.01 3402.42 86.84 9.00  29.99 2677.54
   09:22:18.766.07-Aug-2020 5109.01 3402.42 86.84 9.00  30.19 2677.54
   09:22:18.965.07-Aug-2020 5109.01 3401.61 86.84 9.00  30.39 2677.54
   09:22:19.165.07-Aug-2020 5109.01 3401.55 86.84 9.00  30.59 2677.54
   09:22:19.365.07-Aug-2020 5109.01 3401.37 86.83 9.00  30.79 2677.54
   09:22:19.565.07-Aug-2020 5109.01 3401.11 86.83 9.00  30.99 2677.54
   09:22:19.765.07-Aug-2020 5109.01 3401.11 86.83 9.00  31.19 2677.54
   09:22:19.965.07-Aug-2020 5109.01 3401.34 86.83 9.00  31.39 2677.54
   09:22:20.165.07-Aug-2020 5109.01 3401.10 86.83 9.00  31.59 2677.54
   09:22:20.365.07-Aug-2020 5109.01 3401.15 86.83 9.00  31.79 2677.54
   09:22:20.565.07-Aug-2020 5109.01 3400.71 86.83 9.00  31.99 2677.54
   09:22:20.765.07-Aug-2020 5109.01 3400.71 86.83 9.00  32.19 2677.54
   09:22:20.965.07-Aug-2020 5109.01 3401.09 86.83 9.00  32.39 2677.54
   09:22:21.165.07-Aug-2020 5109.01 3400.79 86.82 9.00  32.59 2677.54
   09:22:21.365.07-Aug-2020 5109.01 3400.83 86.82 9.00  32.79 2677.54
   09:22:21.565.07-Aug-2020 5109.01 3400.79 86.82 9.00  32.99 2677.54
   09:22:21.765.07-Aug-2020 5109.01 3400.70 86.82 9.00  33.19 2677.54
   09:22:21.965.07-Aug-2020 5109.01 3400.74 86.82 9.00  33.39 2677.54
   09:22:22.165.07-Aug-2020 5109.01 3400.72 86.82 9.00  33.59 2677.54
   09:22:22.364.07-Aug-2020 5109.01 3400.65 86.82 9.00  33.79 2677.54
   09:22:22.564.07-Aug-2020 5109.01 3400.73 86.82 9.00  33.99 2677.54
   09:22:22.764.07-Aug-2020 5109.01 3400.73 86.82 9.00  34.19 2677.54
   09:22:22.964.07-Aug-2020 5109.01 3400.75 86.81 9.00  34.39 2677.54
   09:22:23.164.07-Aug-2020 5109.01 3400.66 86.81 9.00  34.59 2677.54
   09:22:23.364.07-Aug-2020 5109.01 3400.92 86.81 9.00  34.79 2677.54
   09:22:23.564.07-Aug-2020 5109.01 3404.69 86.81 9.00  34.99 2677.54
   09:22:23.764.07-Aug-2020 5109.01 3404.69 86.81 9.00  35.19 2677.54
   09:22:23.964.07-Aug-2020 5109.01 3406.59 86.81 9.00  35.39 2677.54
   09:22:24.164.07-Aug-2020 5109.01 3406.61 86.81 9.00  35.59 2677.54
   09:22:24.364.07-Aug-2020 5109.01 3406.61 86.81 9.00  35.79 2677.54
   09:22:24.564.07-Aug-2020 5109.01 3406.63 86.81 9.00  35.99 2677.54
   09:22:24.764.07-Aug-2020 5109.01 3406.63 86.80 9.00  36.19 2677.54
   09:22:24.964.07-Aug-2020 5109.01 3406.68 86.80 9.00  36.39 2677.54
   09:22:25.164.07-Aug-2020 5109.01 3406.67 86.80 9.00  36.59 2677.54
   09:22:25.364.07-Aug-2020 5109.01 3406.70 86.80 9.00  36.79 2677.54
   09:22:25.563.07-Aug-2020 5109.01 3406.69 86.80 9.00  36.99 2677.54
   09:22:25.763.07-Aug-2020 5109.01 3406.69 86.80 9.00  37.19 2677.54
   09:22:25.963.07-Aug-2020 5109.01 3406.70 86.80 9.00  37.39 2677.54
   09:22:26.163.07-Aug-2020 5109.01 3406.54 86.80 9.00  37.59 2677.54
   09:22:26.363.07-Aug-2020 5109.01 3406.70 86.80 9.00  37.79 2677.54
   09:22:26.563.07-Aug-2020 5109.01 3406.70 86.80 9.00  37.99 2677.54
   09:22:26.763.07-Aug-2020 5109.01 3406.70 86.80 9.00  38.19 2677.54
   09:22:26.963.07-Aug-2020 5109.01 3406.70 86.80 9.00  38.39 2677.54
   09:22:27.163.07-Aug-2020 5109.01 3406.59 86.79 9.00  38.59 2677.54
   09:22:27.363.07-Aug-2020 5109.01 3406.65 86.79 9.00  38.79 2677.54
   09:22:27.563.07-Aug-2020 5109.01 3406.69 86.79 9.00  38.99 2677.54
   09:22:27.763.07-Aug-2020 5109.01 3406.69 86.79 9.00  39.19 2677.54
   09:22:27.963.07-Aug-2020 5109.01 3406.54 86.79 9.00  39.39 2677.54
   09:22:28.163.07-Aug-2020 5109.01 3406.71 86.79 9.00  39.59 2677.54
   09:22:28.363.07-Aug-2020 5109.01 3406.71 86.79 9.00  39.79 2677.54
   09:22:28.563.07-Aug-2020 5109.01 3406.60 86.79 9.00  39.99 2677.54
   09:22:28.763.07-Aug-2020 5109.01 3406.60 86.79 9.00  40.19 2677.54
   09:22:28.962.07-Aug-2020 5109.01 3406.68 86.79 9.00  40.39 2677.54
   09:22:29.162.07-Aug-2020 5109.01 3406.67 86.79 9.00  40.59 2677.54
   09:22:29.362.07-Aug-2020 5109.01 3406.60 86.79 9.00  40.79 2677.54
   09:22:29.562.07-Aug-2020 5109.01 3406.72 86.79 9.00  40.99 2677.54
   09:22:29.762.07-Aug-2020 5109.01 3406.69 86.78 9.00  41.19 2677.54
   09:22:29.962.07-Aug-2020 5109.01 3406.69 86.78 9.00  41.39 2677.54
   09:22:30.162.07-Aug-2020 5109.01 3406.73 86.78 9.00  41.59 2677.54
   09:22:30.362.07-Aug-2020 5109.01 3406.75 86.78 9.00  41.79 2677.54
   09:22:30.562.07-Aug-2020 5109.01 3406.60 86.78 9.00  41.99 2677.54
   09:22:30.762.07-Aug-2020 5109.01 3406.60 86.78 9.00  42.19 2677.54
   09:22:30.962.07-Aug-2020 5109.01 3406.70 86.78 9.00  42.39 2677.54
   09:22:31.162.07-Aug-2020 5109.01 3406.74 86.78 9.00  42.59 2677.54
   09:22:31.362.07-Aug-2020 5109.01 3406.75 86.78 9.00  42.79 2677.54
   09:22:31.562.07-Aug-2020 5109.01 3406.76 86.78 9.00  42.99 2677.54
   09:22:31.762.07-Aug-2020 5109.01 3406.76 86.78 9.00  43.19 2677.54
   09:22:31.962.07-Aug-2020 5109.01 3406.78 86.78 9.00  43.39 2677.54
   09:22:32.161.07-Aug-2020 5109.01 3406.80 86.78 9.00  43.59 2677.54
   09:22:32.361.07-Aug-2020 5109.01 3406.79 86.78 9.00  43.79 2677.54
   09:22:32.561.07-Aug-2020 5109.01 3406.79 86.77 9.00  43.99 2677.54
   09:22:32.761.07-Aug-2020 5109.01 3406.79 86.77 9.00  44.19 2677.54
   09:22:32.961.07-Aug-2020 5109.01 3406.81 86.77 9.00  44.39 2677.54
   09:22:33.161.07-Aug-2020 5109.01 3406.67 86.77 9.00  44.59 2677.54
   09:22:33.361.07-Aug-2020 5109.01 3406.79 86.77 9.00  44.79 2677.54
   09:22:33.561.07-Aug-2020 5109.01 3406.77 86.77 9.00  44.99 2677.54
   09:22:33.761.07-Aug-2020 5109.01 3406.77 86.77 9.00  45.19 2677.54
   09:22:33.961.07-Aug-2020 5109.01 3406.78 86.77 9.00  45.39 2677.54
   09:22:34.161.07-Aug-2020 5109.01 3406.81 86.77 9.00  45.59 2677.54
   09:22:34.361.07-Aug-2020 5109.01 3406.79 86.77 9.00  45.79 2677.54
