~Version Information
 VERS.                  2.0:   CWLS log ASCII Standard -VERSION 2.0
 WRAP.                   NO:   One line per depth step
~Well Information Block
#MNEM.UNIT     VALUE/NAME     DESCRIPTION
#---------     -----------    ---------------------------
 STRT.S             09:21:48 07-Aug-20: START TIME 09:21:48 07-Aug-20
 STOP.S             09:29:41 07-Aug-20: STOP TIME  09:29:41 07-Aug-20
 STEP.S                   0.00: STEP TIME
 NULL.                 -999.25: NULL VALUE
 DFWT.                        :  DIST FWL TEXT
 DFST.                        :  DIST FSL TEXT
 DMF .             Drill Floor:  DRILL MEAS FROM
 STIM.      12.00.00 03-Jul-20:  START TIME
 DATE.      00.50.00 09-Aug-20:  END TIME
 SPUD.               03-Jul-20:  SPUD DATE
 NREF.                    Grid:  NORTH REFERENCE
 HPTY.       Minimum Curvature:  HOLE POS TYPE
 DMOD.             Drill Model:  DRILL MOD DESC
 SVYD.                  Survey:  SURVEY DESC
 ILTD.               Lithology:  INTERP LTH DESC
 FTOP.          Formation Tops:  FORM TOPS DESC
 PDAT.          Mean Sea Level:  PERMANENT DATUM
 FLD .                     ACG:  FIELD NAME
 CTRY.              Azerbaijan:  COUNTRY NAME
 WELL.                    E04x:  WELL NAME
 SRVC.          Turan Drilling:  CONTRACTOR
 COMP.     BP Exploration (Caspian Sea) Ltd.:  COMPANY
 SON .        AZ-XX-0906531346:  JOB NUMBER
 WTYP.                Deviated:  WELL TYPE
 MDS .        Operator Entered:  MAG DATA SOURCE
 UWI .                     N/A:  UNIQUE WELL IDENTIFIER
 API .                     N/A:  API NUMBER
 BASE.              Azerbaijan:  LOGGING EQUIPMENT BASE LOCATION
 REGN.                   EESSA:  REGION
 PROV.                    Baku:  PROVINCE
 STAT.                    Baku:  STATE NAME
 MWDS.                    Baku:  MWD SHOP
 JOBN.        AZ-XX-0906531346:  JOB TICKET NUMB
 RIG .                     DWG:  RIG NAME
 DOE .                     N/A:  DOE NUMBER
 DCON.         Sperry Drilling:  DIRECTNL CONTR
 UNIT.                     N/A:  LOGGING EQUIPMENT ID
 CNTY.                        :  COUNTY
 LOC .                        :  LOCATION
 LMF .             Drill Floor:  LOG MEASURED FROM
 TVDS.m                  43.16:  TVDSS CORRECTN
 LATI.deg                40.17:  LATITUDE
 LONG.deg                51.17:  LONGITUDE
 WHNS.m                  -0.12:  WELL HEAD N/S
 WHEW.m                  -5.41:  WELL HEAD E/W
 UTMX.m              514337.95:  UTM X
 UTMY.m             4448627.46:  UTM Y
 DFWL.m                   0.00:  DISTANCE FWL
 DFSL.m                   0.00:  DISTANCE FSL
 SDEP.m                3088.01:  START DEPTH
 TDD .m                5200.01:  TOTAL DEPTH (DRILLER)
 VSDR.deg               244.51:  VERT SEC DIRECT
 GVFD.g                   1.00:  GRAVITY FIELD
 MFLD.nT              50329.80:  MAGNETIC FIELD
 MDIP.deg                59.63:  MAGNETIC DIP
 MDEC.deg                 6.59:  MAGNETIC DECL
 GRDC.deg                 0.09:  GRID CORRECTION
 AZTC.deg                 6.50:  AZM TOTAL CORR
 EPD .m                   0.00:  ELEVATION
 EGL .m                   0.00:  GROUND ELEVATION
 WDMS.m                 176.20:  WD ELEV
 APD .m                  43.16:  DEPTH ABOVE PD
 DEP .m                3084.71:  DEPTH
 AGAP.m                  43.16:  AIR GAP
 VSEW.m                  -5.41:  VERT SEC E/W
 VSNS.m                  -0.12:  VERT SEC N/S
 EKB .m                   0.00:  KB ELEVATION
 EDF .m                  43.16:  DF ELEVATION
 TDL .m                 243.00:  TOTAL DEPTH (LOGGER)
 VSC .                       0:  VS TO CLOSURE
 MAGU.                 1853542:  MAGUTM CHECKSUM
~Parameter Information Block
#MNEM.UNIT       Value        Description
#---------     -----------    ---------------------------
 AV  .mps                 1.91:  Ann Velocity 
 AVMX.mps                 2.52:  Max Ann Veloc 
 AZIF.deg               308.97:  Azm, Final 
 BHAT.        Rotary Steerable:  BHA Type 
 BROT.∞/30m               1.00:  Build Rotating 
 BS  .in                  6.50:  Bit Size 
 BSZ .in                  6.50:  Bit Size 
 BTPL.psig              350.00:  Bit Press Loss 
 CABU.                      No:  Customer Abuse 
 CGEO.           Asif Pashayev:  Customer Geo 
 COMM.                     ,[Å:  Run Comments 1 
 TCS .hr                 35.86:  Time Ciculation Ended 
 CV  .mps                 2.31:  Crit Velocity 
 CVMX.mps                 2.31:  Max Crit Veloc 
 DD1 .         Intigam Rahimov:  Direct Drillr 1 
 DDSV.               Geo-Pilot:  DD Service 
 DEFF.%                  92.00:  % Det Eff 
 DLRX.∞/30m               1.00:  Dogleg Rot Max 
 DLSO.∞/30m               1.00:  Dogleg Oriented 
 DLSX.∞/30m               1.42:  Dogleg Str Max 
 DRET.      15.50.00 07-Aug-20:  Drill End Time 
 DRST.      10.40.00 06-Aug-20:  Drill Start Tim 
 DTIM.hr                 21.30:  Time Drilling 
 EDEP.m                5200.01:  End Depth 
 ENG1.            Alan Tuganov:  Engineer 1 
 ENG2.         Almaz Almadatov:  Engineer 2 
 ENG3.     Zammelal Abdullah Sani:  Engineer 3 
 ETIM.      22.42.00 08-Aug-20:  End Time 
 FLOI.gpm               395.00:  Flow In 
 FLON.gpm               350.00:  Flow In Min 
 FLOS.cptm                0.00:  Fluid Loss 
 FLOX.gpm               404.00:  Flow In Max 
 FTRO.       Formation Presure:  FTWD Run Obj 
 HFLO.                      No:  High Flow 
 HPRE.                      No:  High Pressure 
 HTEM.                      No:  High Temp 
 HYDO.m                   1.80:  Hydro Offset 
 IFIN.deg                72.64:  Inc, Final 
 IMAX.deg                73.68:  Inc Max 
 IMIN.deg                72.64:  Inc Min 
 IMND.m                5189.69:  Inc Min Depth 
 IMXD.m                5067.88:  Inc Max Depth 
 JARR.                      No:  Jarring 
 LETM.      15.50.00 07-Aug-20:  Log End Time 
 LOST.hr                     0:  Lost Rig Time 
 LSTM.      10.40.00 06-Aug-20:  Log Start Time 
 MDCL.ppm             36000.00:  Mud Chlorides 
 MDES.     Inversion Oil/Synthetic:  Mud Desc 
 DFD .sg                  1.36:  Mud Density 
 MDMN.sg                  1.36:  Dens Mud Min 
 MDMX.sg                  1.36:  Dens Mud Max 
 MOIL.                      70:  Run Mud Oil % 
 MOWR.                   70:30:  Run Mud OWR 
 MSND.                    0.00:  Run Mud Sand % 
 MSOL.                   17.60:  Run Mud Solids% 
 DFV .spqt               73.00:  Mud Viscosity 
 MWOD.in                  4.75:  MWD Tool OD 
 MWSI.                      No:  Serv Intrp, MWD 
 OTIM.hr                 85.66:  Time Operating 
 PCON.           Look Like New:  Pad Condition 
 PMAX.psia             6250.00:  Press Op, Max 
 PV  .cP                 65.00:  Mud PV 
 RUN .                     900:  Run Number 
 ROPA.m/hr               11.40:  ROP Avg 
 ROPN.m/hr                5.00:  ROP Min 
 ROPX.m/hr               20.00:  ROP Max 
 RPMA.rpm               130.00:  RPM Surface Avg 
 RPMN.rpm                40.00:  RPM Surface Min 
 RPMX.rpm               140.00:  RPM Surface Max 
 RRUN.                    L205:  Rig Run Number 
 RTIM.hr                  1.00:  Time Reaming 
 SAZI.deg               313.52:  Azm, Start 
 SDEP.m                4957.01:  Start Depth 
 SIDD.                      No:  Serv Intrp, DD 
 SINC.deg                73.16:  Inc, Start 
 SPPA.psig             5657.00:  SPP Avg 
 SPPN.psig             2500.00:  SPP Min 
 SPPX.psig             5806.00:  SPP Max 
 STIM.      07.12.00 05-Aug-20:  Start Time 
 SVCS.                 DD, MWD:  Services 
 SVER.                    9.20:  Sperry Version 
 TDAT.m                 243.00:  Tot Depth Attmp 
 TDDF.                      No:  Trip for DD 
 TDLG.m                 243.00:  Tot Depth Loggd 
 TFF .                      No:  Trip for Fail 
 TQAA.f-kp               13.00:  Torque Abs Avg 
 TQAN.f-kp               11.00:  Torque Abs Min 
 TQAX.f-kp               16.00:  Torque Abs Max 
 TRRT.∞/30m               1.00:  Turn Rotating 
 MRT .                    HCIM:  Maximum Recorded Temperature 
 TTMX.degC               96.08:  Max Tool Temp 
 VS01.                90515411:  Virtual Str1 SN 
 VS02.                90512716:  Virtual Str2 SN 
 VS03.                90522362:  Virtual Str3 SN 
 VS04.                90619415:  Virtual Str4 SN 
 VS05.                90619414:  Virtual Str5 SN 
 VS06.                90597748:  Virtual Str6 SN 
 WBMN.klb                 2.00:  WOB Min 
 WITN.           Adil Mammadov:  Customer Rep 
 WITN.     Alexander Yadullayev:  Customer Rep 2 
 WOBA.klb                 7.00:  WOB Avg 
 WOBX.klb                23.00:  WOB Max 
 YP  .lhf2               37.00:  Yield Point 
~Curve Information Block
#MNEM.UNIT                 API CODE     Curve Description
#---------               -----------    ---------------------------
 TIME.HHMMSS            00 000 000 000:  GT Time & Date
 GTDEPTH.m              00 000 000 000:  GT Depth
 GTPQH.psia             00 000 000 000:  GT HR Quartz Pressure
 GTTQ.degC              00 000 000 000:  GT Quartz Temperature
 GTTN.NONE              00 000 000 000:  GT Test Number
 GTET.sec               00 000 000 000:  GT Elapsed Test Time
 GTTVD.m                00 000 000 000:  GT True Vertical Depth
#Other Information
#
#WARRANTY: Halliburton will use its best efforts to furnish customers with 
#accurate information and interpretations that are part of, and incident to, the services 
#provided.  However, Halliburton cannot and does not warrant the accuracy 
#or correctness of such information and interpretations.  Under no circumstances should any 
#such information or interpretation be relied upon as the sole basis for any drilling, 
#completion, production, or financial decision or any procedure involving any risk to the 
#safety of any drilling venture, drilling rig or its crew or any other third party.  The 
#Customer has full responsibility for all drilling, completion and production operation.  
#Halliburton makes no representations or warranties, either expressed or 
#implied, including, but not limited to, the implied warranties of merchantability or fitness 
#for a particular purpose, with respect to the services rendered.  In no event will 
#Halliburton be liable for failure to obtain any particular results or for 
#any damages, including, but not limited to, indirect, special or consequential damages, 
#resulting from the use of any information or interpretation provided by Halliburton.
#
~A           TIME           GTDEPTH  GTPQH  GTTQ  GTTN  GTET   GTTVD  
# ...
   09:29:28.436.07-Aug-2020 5109.01 5863.52 86.12 9.00 459.86 2677.54
   09:29:28.636.07-Aug-2020 5109.01 5863.52 86.12 9.00 460.06 2677.54
   09:29:28.836.07-Aug-2020 5109.01 5872.69 86.12 9.00 460.26 2677.54
   09:29:29.036.07-Aug-2020 5109.01 5867.37 86.12 9.00 460.46 2677.54
   09:29:29.236.07-Aug-2020 5109.01 5872.37 86.12 9.00 460.66 2677.54
   09:29:29.436.07-Aug-2020 5109.01 5872.07 86.12 9.00 460.86 2677.54
   09:29:29.636.07-Aug-2020 5109.01 5870.62 86.12 9.00 461.06 2677.54
   09:29:29.836.07-Aug-2020 5109.01 5871.57 86.12 9.00 461.26 2677.54
   09:29:30.036.07-Aug-2020 5109.01 5873.00 86.12 9.00 461.46 2677.54
   09:29:30.236.07-Aug-2020 5109.01 5871.86 86.12 9.00 461.66 2677.54
   09:29:30.436.07-Aug-2020 5109.01 5872.70 86.12 9.00 461.86 2677.54
   09:29:30.635.07-Aug-2020 5109.01 5872.70 86.12 9.00 462.06 2677.54
   09:29:30.835.07-Aug-2020 5109.01 5872.11 86.12 9.00 462.26 2677.54
   09:29:31.035.07-Aug-2020 5109.01 5871.76 86.12 9.00 462.46 2677.54
   09:29:31.235.07-Aug-2020 5109.01 5862.77 86.12 9.00 462.66 2677.54
   09:29:31.435.07-Aug-2020 5109.01 5872.62 86.12 9.00 462.86 2677.54
   09:29:31.635.07-Aug-2020 5109.01 5872.62 86.12 9.00 463.06 2677.54
   09:29:31.835.07-Aug-2020 5109.01 5865.55 86.12 9.00 463.26 2677.54
   09:29:32.035.07-Aug-2020 5109.01 5870.60 86.12 9.00 463.46 2677.54
   09:29:32.235.07-Aug-2020 5109.01 5871.96 86.12 9.00 463.66 2677.54
   09:29:32.435.07-Aug-2020 5109.01 5868.51 86.12 9.00 463.86 2677.54
   09:29:32.635.07-Aug-2020 5109.01 5868.51 86.12 9.00 464.06 2677.54
   09:29:32.835.07-Aug-2020 5109.01 5871.91 86.12 9.00 464.26 2677.54
   09:29:33.035.07-Aug-2020 5109.01 5869.02 86.12 9.00 464.46 2677.54
   09:29:33.235.07-Aug-2020 5109.01 5868.95 86.12 9.00 464.66 2677.54
   09:29:33.435.07-Aug-2020 5109.01 5872.25 86.12 9.00 464.86 2677.54
   09:29:33.635.07-Aug-2020 5109.01 5872.25 86.12 9.00 465.06 2677.54
   09:29:33.834.07-Aug-2020 5109.01 5872.06 86.12 9.00 465.26 2677.54
   09:29:34.034.07-Aug-2020 5109.01 5874.52 86.12 9.00 465.46 2677.54
   09:29:34.234.07-Aug-2020 5109.01 5865.95 86.12 9.00 465.66 2677.54
   09:29:34.434.07-Aug-2020 5109.01 5861.94 86.12 9.00 465.86 2677.54
   09:29:34.634.07-Aug-2020 5109.01 5861.94 86.12 9.00 466.06 2677.54
   09:29:34.834.07-Aug-2020 5109.01 5870.32 86.11 9.00 466.26 2677.54
   09:29:35.034.07-Aug-2020 5109.01 5867.95 86.11 9.00 466.46 2677.54
   09:29:35.234.07-Aug-2020 5109.01 5871.47 86.11 9.00 466.66 2677.54
   09:29:35.434.07-Aug-2020 5109.01 5871.83 86.11 9.00 466.86 2677.54
   09:29:35.634.07-Aug-2020 5109.01 5871.83 86.11 9.00 467.06 2677.54
   09:29:35.834.07-Aug-2020 5109.01 5872.39 86.11 9.00 467.26 2677.54
   09:29:36.034.07-Aug-2020 5109.01 5872.27 86.11 9.00 467.46 2677.54
   09:29:36.234.07-Aug-2020 5109.01 5872.12 86.11 9.00 467.66 2677.54
   09:29:36.434.07-Aug-2020 5109.01 5872.20 86.11 9.00 467.86 2677.54
   09:29:36.634.07-Aug-2020 5109.01 5872.20 86.11 9.00 468.06 2677.54
   09:29:36.834.07-Aug-2020 5109.01 5872.38 86.11 9.00 468.26 2677.54
   09:29:37.034.07-Aug-2020 5109.01 5863.03 86.11 9.00 468.46 2677.54
   09:29:37.233.07-Aug-2020 5109.01 5873.22 86.11 9.00 468.66 2677.54
   09:29:37.433.07-Aug-2020 5109.01 5874.57 86.11 9.00 468.86 2677.54
   09:29:37.633.07-Aug-2020 5109.01 5865.69 86.11 9.00 469.06 2677.54
   09:29:37.833.07-Aug-2020 5109.01 5870.70 86.11 9.00 469.26 2677.54
   09:29:38.033.07-Aug-2020 5109.01 5873.56 86.11 9.00 469.46 2677.54
   09:29:38.233.07-Aug-2020 5109.01 5869.45 86.11 9.00 469.66 2677.54
   09:29:38.433.07-Aug-2020 5109.01 5870.93 86.11 9.00 469.86 2677.54
   09:29:38.633.07-Aug-2020 5109.01 5870.93 86.11 9.00 470.06 2677.54
   09:29:38.833.07-Aug-2020 5109.01 5871.73 86.11 9.00 470.26 2677.54
   09:29:39.033.07-Aug-2020 5109.01 5871.06 86.11 9.00 470.46 2677.54
   09:29:39.233.07-Aug-2020 5109.01 5872.56 86.11 9.00 470.66 2677.54
   09:29:39.433.07-Aug-2020 5109.01 5871.50 86.11 9.00 470.86 2677.54
   09:29:39.633.07-Aug-2020 5109.01 5871.50 86.11 9.00 471.06 2677.54
   09:29:39.833.07-Aug-2020 5109.01 5866.51 86.11 9.00 471.26 2677.54
   09:29:40.033.07-Aug-2020 5109.01 5868.90 86.11 9.00 471.46 2677.54
   09:29:40.233.07-Aug-2020 5109.01 5872.09 86.11 9.00 471.66 2677.54
   09:29:40.433.07-Aug-2020 5109.01 5866.27 86.11 9.00 471.86 2677.54
   09:29:40.632.07-Aug-2020 5109.01 5866.27 86.11 9.00 472.06 2677.54
   09:29:40.832.07-Aug-2020 5109.01 5871.28 86.11 9.00 472.26 2677.54
   09:29:41.032.07-Aug-2020 5109.01 5868.86 86.11 9.00 472.46 2677.54
   09:29:41.232.07-Aug-2020 5109.01 5861.09 86.11 9.00 472.66 2677.54
