~Version Information
 VERS.                  2.0:   CWLS log ASCII Standard -VERSION 2.0
 WRAP.                   NO:   One line per depth step
~Well Information Block
#MNEM.UNIT     VALUE/NAME     DESCRIPTION
#---------     -----------    ---------------------------
 STRT.S             03:58:24 07-Aug-20: START TIME 03:58:24 07-Aug-20
 STOP.S             04:06:16 07-Aug-20: STOP TIME  04:06:16 07-Aug-20
 STEP.S                   0.00: STEP TIME
 NULL.                 -999.25: NULL VALUE
 DFWT.                        :  DIST FWL TEXT
 DFST.                        :  DIST FSL TEXT
 DMF .             Drill Floor:  DRILL MEAS FROM
 STIM.      12.00.00 03-Jul-20:  START TIME
 DATE.      00.50.00 09-Aug-20:  END TIME
 SPUD.               03-Jul-20:  SPUD DATE
 NREF.                    Grid:  NORTH REFERENCE
 HPTY.       Minimum Curvature:  HOLE POS TYPE
 DMOD.             Drill Model:  DRILL MOD DESC
 SVYD.                  Survey:  SURVEY DESC
 ILTD.               Lithology:  INTERP LTH DESC
 FTOP.          Formation Tops:  FORM TOPS DESC
 PDAT.          Mean Sea Level:  PERMANENT DATUM
 FLD .                     ACG:  FIELD NAME
 CTRY.              Azerbaijan:  COUNTRY NAME
 WELL.                    E04x:  WELL NAME
 SRVC.          Turan Drilling:  CONTRACTOR
 COMP.     BP Exploration (Caspian Sea) Ltd.:  COMPANY
 SON .        AZ-XX-0906531346:  JOB NUMBER
 WTYP.                Deviated:  WELL TYPE
 MDS .        Operator Entered:  MAG DATA SOURCE
 UWI .                     N/A:  UNIQUE WELL IDENTIFIER
 API .                     N/A:  API NUMBER
 BASE.              Azerbaijan:  LOGGING EQUIPMENT BASE LOCATION
 REGN.                   EESSA:  REGION
 PROV.                    Baku:  PROVINCE
 STAT.                    Baku:  STATE NAME
 MWDS.                    Baku:  MWD SHOP
 JOBN.        AZ-XX-0906531346:  JOB TICKET NUMB
 RIG .                     DWG:  RIG NAME
 DOE .                     N/A:  DOE NUMBER
 DCON.         Sperry Drilling:  DIRECTNL CONTR
 UNIT.                     N/A:  LOGGING EQUIPMENT ID
 CNTY.                        :  COUNTY
 LOC .                        :  LOCATION
 LMF .             Drill Floor:  LOG MEASURED FROM
 TVDS.m                  43.16:  TVDSS CORRECTN
 LATI.deg                40.17:  LATITUDE
 LONG.deg                51.17:  LONGITUDE
 WHNS.m                  -0.12:  WELL HEAD N/S
 WHEW.m                  -5.41:  WELL HEAD E/W
 UTMX.m              514337.95:  UTM X
 UTMY.m             4448627.46:  UTM Y
 DFWL.m                   0.00:  DISTANCE FWL
 DFSL.m                   0.00:  DISTANCE FSL
 SDEP.m                3088.01:  START DEPTH
 TDD .m                5200.01:  TOTAL DEPTH (DRILLER)
 VSDR.deg               244.51:  VERT SEC DIRECT
 GVFD.g                   1.00:  GRAVITY FIELD
 MFLD.nT              50329.80:  MAGNETIC FIELD
 MDIP.deg                59.63:  MAGNETIC DIP
 MDEC.deg                 6.59:  MAGNETIC DECL
 GRDC.deg                 0.09:  GRID CORRECTION
 AZTC.deg                 6.50:  AZM TOTAL CORR
 EPD .m                   0.00:  ELEVATION
 EGL .m                   0.00:  GROUND ELEVATION
 WDMS.m                 176.20:  WD ELEV
 APD .m                  43.16:  DEPTH ABOVE PD
 DEP .m                3084.71:  DEPTH
 AGAP.m                  43.16:  AIR GAP
 VSEW.m                  -5.41:  VERT SEC E/W
 VSNS.m                  -0.12:  VERT SEC N/S
 EKB .m                   0.00:  KB ELEVATION
 EDF .m                  43.16:  DF ELEVATION
 TDL .m                 243.00:  TOTAL DEPTH (LOGGER)
 VSC .                       0:  VS TO CLOSURE
 MAGU.                 1853542:  MAGUTM CHECKSUM
~Parameter Information Block
#MNEM.UNIT       Value        Description
#---------     -----------    ---------------------------
 AV  .mps                 1.91:  Ann Velocity 
 AVMX.mps                 2.52:  Max Ann Veloc 
 AZIF.deg               308.97:  Azm, Final 
 BHAT.        Rotary Steerable:  BHA Type 
 BROT.°/30m               1.00:  Build Rotating 
 BS  .in                  6.50:  Bit Size 
 BSZ .in                  6.50:  Bit Size 
 BTPL.psig              350.00:  Bit Press Loss 
 CABU.                      No:  Customer Abuse 
 CGEO.           Asif Pashayev:  Customer Geo 
 TCS .hr                 35.86:  Time Ciculation Ended 
 CV  .mps                 2.31:  Crit Velocity 
 CVMX.mps                 2.31:  Max Crit Veloc 
 DD1 .         Intigam Rahimov:  Direct Drillr 1 
 DDSV.               Geo-Pilot:  DD Service 
 DEFF.%                  92.00:  % Det Eff 
 DLRX.°/30m               1.00:  Dogleg Rot Max 
 DLSO.°/30m               1.00:  Dogleg Oriented 
 DLSX.°/30m               1.42:  Dogleg Str Max 
 DRET.      15.50.00 07-Aug-20:  Drill End Time 
 DRST.      10.40.00 06-Aug-20:  Drill Start Tim 
 DTIM.hr                 21.30:  Time Drilling 
 EDEP.m                5200.01:  End Depth 
 ENG1.            Alan Tuganov:  Engineer 1 
 ENG2.         Almaz Almadatov:  Engineer 2 
 ENG3.     Zammelal Abdullah Sani:  Engineer 3 
 ETIM.      22.42.00 08-Aug-20:  End Time 
 FLOI.gpm               395.00:  Flow In 
 FLON.gpm               350.00:  Flow In Min 
 FLOS.cptm                0.00:  Fluid Loss 
 FLOX.gpm               404.00:  Flow In Max 
 FTRO.       Formation Presure:  FTWD Run Obj 
 HFLO.                      No:  High Flow 
 HPRE.                      No:  High Pressure 
 HTEM.                      No:  High Temp 
 HYDO.m                   1.80:  Hydro Offset 
 IFIN.deg                72.64:  Inc, Final 
 IMAX.deg                73.68:  Inc Max 
 IMIN.deg                72.64:  Inc Min 
 IMND.m                5189.69:  Inc Min Depth 
 IMXD.m                5067.88:  Inc Max Depth 
 JARR.                      No:  Jarring 
 LETM.      15.50.00 07-Aug-20:  Log End Time 
 LOST.hr                     0:  Lost Rig Time 
 LSTM.      10.40.00 06-Aug-20:  Log Start Time 
 MDCL.ppm             36000.00:  Mud Chlorides 
 MDES.     Inversion Oil/Synthetic:  Mud Desc 
 DFD .sg                  1.36:  Mud Density 
 MDMN.sg                  1.36:  Dens Mud Min 
 MDMX.sg                  1.36:  Dens Mud Max 
 MOIL.                      70:  Run Mud Oil % 
 MOWR.                   70:30:  Run Mud OWR 
 MSND.                    0.00:  Run Mud Sand % 
 MSOL.                   17.60:  Run Mud Solids% 
 DFV .spqt               73.00:  Mud Viscosity 
 MWOD.in                  4.75:  MWD Tool OD 
 MWSI.                      No:  Serv Intrp, MWD 
 OTIM.hr                 85.66:  Time Operating 
 PCON.           Look Like New:  Pad Condition 
 PMAX.psia             6250.00:  Press Op, Max 
 PV  .cP                 65.00:  Mud PV 
 RUN .                     900:  Run Number 
 ROPA.m/hr               11.40:  ROP Avg 
 ROPN.m/hr                5.00:  ROP Min 
 ROPX.m/hr               20.00:  ROP Max 
 RPMA.rpm               130.00:  RPM Surface Avg 
 RPMN.rpm                40.00:  RPM Surface Min 
 RPMX.rpm               140.00:  RPM Surface Max 
 RRUN.                    L205:  Rig Run Number 
 RTIM.hr                  1.00:  Time Reaming 
 SAZI.deg               313.52:  Azm, Start 
 SDEP.m                4957.01:  Start Depth 
 SIDD.                      No:  Serv Intrp, DD 
 SINC.deg                73.16:  Inc, Start 
 SPPA.psig             5657.00:  SPP Avg 
 SPPN.psig             2500.00:  SPP Min 
 SPPX.psig             5806.00:  SPP Max 
 STIM.      07.12.00 05-Aug-20:  Start Time 
 SVCS.                 DD, MWD:  Services 
 SVER.                    9.20:  Sperry Version 
 TDAT.m                 243.00:  Tot Depth Attmp 
 TDDF.                      No:  Trip for DD 
 TDLG.m                 243.00:  Tot Depth Loggd 
 TFF .                      No:  Trip for Fail 
 TQAA.f-kp               13.00:  Torque Abs Avg 
 TQAN.f-kp               11.00:  Torque Abs Min 
 TQAX.f-kp               16.00:  Torque Abs Max 
 TRRT.°/30m               1.00:  Turn Rotating 
 MRT .                    HCIM:  Maximum Recorded Temperature 
 TTMX.degC               96.08:  Max Tool Temp 
 VS01.                90515411:  Virtual Str1 SN 
 VS02.                90512716:  Virtual Str2 SN 
 VS03.                90522362:  Virtual Str3 SN 
 VS04.                90619415:  Virtual Str4 SN 
 VS05.                90619414:  Virtual Str5 SN 
 VS06.                90597748:  Virtual Str6 SN 
 WBMN.klb                 2.00:  WOB Min 
 WITN.           Adil Mammadov:  Customer Rep 
 WITN.     Alexander Yadullayev:  Customer Rep 2 
 WOBA.klb                 7.00:  WOB Avg 
 WOBX.klb                23.00:  WOB Max 
 YP  .lhf2               37.00:  Yield Point 
~Curve Information Block
#MNEM.UNIT                 API CODE     Curve Description
#---------               -----------    ---------------------------
 TIME.HHMMSS            00 000 000 000:  GT Time & Date
 GTDEPTH.m              00 000 000 000:  GT Depth
 GTPQH.psia             00 000 000 000:  GT HR Quartz Pressure
 GTTQ.degC              00 000 000 000:  GT Quartz Temperature
 GTTN.NONE              00 000 000 000:  GT Test Number
 GTET.sec               00 000 000 000:  GT Elapsed Test Time
 GTTVD.m                00 000 000 000:  GT True Vertical Depth
#Other Information
#
#WARRANTY: Halliburton will use its best efforts to furnish customers with 
#accurate information and interpretations that are part of, and incident to, the services 
#provided.  However, Halliburton cannot and does not warrant the accuracy 
#or correctness of such information and interpretations.  Under no circumstances should any 
#such information or interpretation be relied upon as the sole basis for any drilling, 
#completion, production, or financial decision or any procedure involving any risk to the 
#safety of any drilling venture, drilling rig or its crew or any other third party.  The 
#Customer has full responsibility for all drilling, completion and production operation.  
#Halliburton makes no representations or warranties, either expressed or 
#implied, including, but not limited to, the implied warranties of merchantability or fitness 
#for a particular purpose, with respect to the services rendered.  In no event will 
#Halliburton be liable for failure to obtain any particular results or for 
#any damages, including, but not limited to, indirect, special or consequential damages, 
#resulting from the use of any information or interpretation provided by Halliburton.
#
~A           TIME           GTDEPTH  GTPQH  GTTQ  GTTN  GTET   GTTVD  
# ...
   04:05:41.379.07-Aug-2020 5060.51 3683.98 86.95 7.00 437.10 2663.65
   04:05:41.579.07-Aug-2020 5060.51 3683.98 86.95 7.00 437.30 2663.65
   04:05:41.779.07-Aug-2020 5060.51 3683.92 86.95 7.00 437.50 2663.65
   04:05:41.979.07-Aug-2020 5060.51 3684.02 86.95 7.00 437.70 2663.65
   04:05:42.179.07-Aug-2020 5060.51 3683.96 86.95 7.00 437.90 2663.65
   04:05:42.379.07-Aug-2020 5060.51 3684.00 86.95 7.00 438.10 2663.65
   04:05:42.579.07-Aug-2020 5060.51 3683.96 86.94 7.00 438.30 2663.65
   04:05:42.779.07-Aug-2020 5060.51 3684.28 86.94 7.00 438.50 2663.65
   04:05:42.979.07-Aug-2020 5060.51 3688.18 86.94 7.00 438.70 2663.65
   04:05:43.179.07-Aug-2020 5060.51 5316.70 86.94 7.00 438.90 2663.65
   04:05:43.379.07-Aug-2020 5060.51 5835.31 86.94 7.00 439.10 2663.65
   04:05:43.579.07-Aug-2020 5060.51 5832.62 86.94 7.00 439.30 2663.65
   04:05:43.779.07-Aug-2020 5060.51 5826.10 86.94 7.00 439.50 2663.65
   04:05:43.979.07-Aug-2020 5060.51 5838.19 86.94 7.00 439.70 2663.65
   04:05:44.179.07-Aug-2020 5060.51 5828.99 86.94 7.00 439.90 2663.65
   04:05:44.380.07-Aug-2020 5060.51 5836.84 86.94 7.00 440.10 2663.65
   04:05:44.580.07-Aug-2020 5060.51 5836.84 86.94 7.00 440.30 2663.65
   04:05:44.780.07-Aug-2020 5060.51 5836.94 86.94 7.00 440.50 2663.65
   04:05:44.980.07-Aug-2020 5060.51 5828.17 86.94 7.00 440.70 2663.65
   04:05:45.180.07-Aug-2020 5060.51 5841.83 86.94 7.00 440.90 2663.65
   04:05:45.380.07-Aug-2020 5060.51 5833.24 86.94 7.00 441.10 2663.65
   04:05:45.580.07-Aug-2020 5060.51 5833.24 86.94 7.00 441.30 2663.65
   04:05:45.780.07-Aug-2020 5060.51 5838.25 86.94 7.00 441.50 2663.65
   04:05:45.980.07-Aug-2020 5060.51 5840.72 86.94 7.00 441.70 2663.65
   04:05:46.180.07-Aug-2020 5060.51 5839.88 86.94 7.00 441.90 2663.65
   04:05:46.380.07-Aug-2020 5060.51 5841.07 86.94 7.00 442.10 2663.65
   04:05:46.580.07-Aug-2020 5060.51 5841.07 86.94 7.00 442.30 2663.65
   04:05:46.780.07-Aug-2020 5060.51 5841.68 86.94 7.00 442.50 2663.65
   04:05:46.980.07-Aug-2020 5060.51 5840.62 86.94 7.00 442.70 2663.65
   04:05:47.180.07-Aug-2020 5060.51 5842.02 86.94 7.00 442.90 2663.65
   04:05:47.380.07-Aug-2020 5060.51 5840.40 86.94 7.00 443.10 2663.65
   04:05:47.580.07-Aug-2020 5060.51 5840.40 86.94 7.00 443.30 2663.65
   04:05:47.780.07-Aug-2020 5060.51 5833.11 86.94 7.00 443.50 2663.65
   04:05:47.980.07-Aug-2020 5060.51 5843.95 86.94 7.00 443.70 2663.65
   04:05:48.180.07-Aug-2020 5060.51 5834.78 86.94 7.00 443.90 2663.65
   04:05:48.380.07-Aug-2020 5060.51 5842.19 86.94 7.00 444.10 2663.65
   04:05:48.581.07-Aug-2020 5060.51 5842.19 86.94 7.00 444.30 2663.65
   04:05:48.781.07-Aug-2020 5060.51 5840.30 86.94 7.00 444.50 2663.65
   04:05:48.981.07-Aug-2020 5060.51 5840.93 86.94 7.00 444.70 2663.65
   04:05:49.181.07-Aug-2020 5060.51 5840.48 86.94 7.00 444.90 2663.65
   04:05:49.381.07-Aug-2020 5060.51 5841.79 86.94 7.00 445.10 2663.65
   04:05:49.581.07-Aug-2020 5060.51 5841.79 86.94 7.00 445.30 2663.65
   04:05:49.781.07-Aug-2020 5060.51 5842.33 86.94 7.00 445.50 2663.65
   04:05:49.981.07-Aug-2020 5060.51 5840.06 86.94 7.00 445.70 2663.65
   04:05:50.181.07-Aug-2020 5060.51 5841.74 86.94 7.00 445.90 2663.65
   04:05:50.381.07-Aug-2020 5060.51 5829.74 86.94 7.00 446.11 2663.65
   04:05:50.581.07-Aug-2020 5060.51 5829.74 86.94 7.00 446.31 2663.65
   04:05:50.781.07-Aug-2020 5060.51 5836.29 86.94 7.00 446.51 2663.65
   04:05:50.981.07-Aug-2020 5060.51 5839.28 86.94 7.00 446.71 2663.65
   04:05:51.181.07-Aug-2020 5060.51 5838.31 86.94 7.00 446.91 2663.65
   04:05:51.381.07-Aug-2020 5060.51 5831.68 86.94 7.00 447.11 2663.65
   04:05:51.581.07-Aug-2020 5060.51 5831.68 86.94 7.00 447.31 2663.65
   04:05:51.781.07-Aug-2020 5060.51 5834.13 86.94 7.00 447.51 2663.65
   04:05:51.981.07-Aug-2020 5060.51 5840.03 86.94 7.00 447.71 2663.65
   04:05:52.181.07-Aug-2020 5060.51 5839.65 86.94 7.00 447.91 2663.65
   04:05:52.381.07-Aug-2020 5060.51 5830.40 86.94 7.00 448.11 2663.65
   04:05:52.581.07-Aug-2020 5060.51 5830.40 86.94 7.00 448.31 2663.65
   04:05:52.782.07-Aug-2020 5060.51 5834.09 86.94 7.00 448.51 2663.65
   04:05:52.982.07-Aug-2020 5060.51 5840.80 86.94 7.00 448.71 2663.65
   04:05:53.182.07-Aug-2020 5060.51 5839.26 86.94 7.00 448.91 2663.65
   04:05:53.382.07-Aug-2020 5060.51 5839.68 86.94 7.00 449.11 2663.65
   04:05:53.582.07-Aug-2020 5060.51 5839.68 86.94 7.00 449.31 2663.65
   04:05:53.782.07-Aug-2020 5060.51 5842.70 86.94 7.00 449.51 2663.65
   04:05:53.982.07-Aug-2020 5060.51 5837.03 86.94 7.00 449.71 2663.65
   04:05:54.182.07-Aug-2020 5060.51 5839.40 86.94 7.00 449.91 2663.65
   04:05:54.382.07-Aug-2020 5060.51 5841.01 86.94 7.00 450.11 2663.65
   04:05:54.582.07-Aug-2020 5060.51 5841.01 86.94 7.00 450.31 2663.65
   04:05:54.782.07-Aug-2020 5060.51 5842.63 86.94 7.00 450.51 2663.65
   04:05:54.982.07-Aug-2020 5060.51 5839.62 86.94 7.00 450.71 2663.65
   04:05:55.182.07-Aug-2020 5060.51 5842.27 86.94 7.00 450.91 2663.65
   04:05:55.382.07-Aug-2020 5060.51 5840.05 86.94 7.00 451.11 2663.65
   04:05:55.582.07-Aug-2020 5060.51 5840.05 86.94 7.00 451.31 2663.65
   04:05:55.782.07-Aug-2020 5060.51 5840.41 86.94 7.00 451.51 2663.65
   04:05:55.982.07-Aug-2020 5060.51 5842.81 86.94 7.00 451.71 2663.65
   04:05:56.182.07-Aug-2020 5060.51 5833.41 86.94 7.00 451.91 2663.65
   04:05:56.382.07-Aug-2020 5060.51 5841.48 86.94 7.00 452.11 2663.65
   04:05:56.582.07-Aug-2020 5060.51 5841.48 86.94 7.00 452.31 2663.65
   04:05:56.782.07-Aug-2020 5060.51 5838.57 86.94 7.00 452.51 2663.65
   04:05:56.983.07-Aug-2020 5060.51 5840.91 86.94 7.00 452.71 2663.65
   04:05:57.183.07-Aug-2020 5060.51 5839.98 86.94 7.00 452.91 2663.65
   04:05:57.383.07-Aug-2020 5060.51 5839.91 86.94 7.00 453.11 2663.65
   04:05:57.583.07-Aug-2020 5060.51 5839.91 86.94 7.00 453.31 2663.65
   04:05:57.783.07-Aug-2020 5060.51 5840.21 86.94 7.00 453.51 2663.65
   04:05:57.983.07-Aug-2020 5060.51 5841.06 86.94 7.00 453.71 2663.65
   04:05:58.183.07-Aug-2020 5060.51 5840.74 86.94 7.00 453.91 2663.65
   04:05:58.383.07-Aug-2020 5060.51 5840.99 86.94 7.00 454.11 2663.65
   04:05:58.583.07-Aug-2020 5060.51 5840.99 86.94 7.00 454.31 2663.65
   04:05:58.783.07-Aug-2020 5060.51 5840.25 86.94 7.00 454.51 2663.65
   04:05:58.983.07-Aug-2020 5060.51 5840.71 86.94 7.00 454.71 2663.65
   04:05:59.183.07-Aug-2020 5060.51 5832.77 86.94 7.00 454.91 2663.65
   04:05:59.383.07-Aug-2020 5060.51 5842.69 86.94 7.00 455.11 2663.65
   04:05:59.583.07-Aug-2020 5060.51 5842.69 86.94 7.00 455.31 2663.65
   04:05:59.783.07-Aug-2020 5060.51 5841.53 86.94 7.00 455.51 2663.65
   04:05:59.983.07-Aug-2020 5060.51 5837.64 86.94 7.00 455.71 2663.65
   04:06:00.183.07-Aug-2020 5060.51 5832.47 86.94 7.00 455.91 2663.65
   04:06:00.383.07-Aug-2020 5060.51 5842.08 86.94 7.00 456.11 2663.65
   04:06:00.583.07-Aug-2020 5060.51 5842.08 86.94 7.00 456.31 2663.65
   04:06:00.783.07-Aug-2020 5060.51 5840.01 86.93 7.00 456.51 2663.65
   04:06:00.983.07-Aug-2020 5060.51 5840.90 86.93 7.00 456.71 2663.65
   04:06:01.183.07-Aug-2020 5060.51 5838.48 86.93 7.00 456.91 2663.65
   04:06:01.384.07-Aug-2020 5060.51 5834.25 86.93 7.00 457.11 2663.65
   04:06:01.584.07-Aug-2020 5060.51 5834.25 86.93 7.00 457.31 2663.65
   04:06:01.784.07-Aug-2020 5060.51 5835.50 86.93 7.00 457.51 2663.65
   04:06:01.984.07-Aug-2020 5060.51 5830.23 86.93 7.00 457.71 2663.65
   04:06:02.184.07-Aug-2020 5060.51 5843.17 86.93 7.00 457.91 2663.65
   04:06:02.384.07-Aug-2020 5060.51 5836.88 86.93 7.00 458.11 2663.65
   04:06:02.584.07-Aug-2020 5060.51 5836.88 86.93 7.00 458.31 2663.65
   04:06:02.784.07-Aug-2020 5060.51 5839.64 86.93 7.00 458.51 2663.65
   04:06:02.984.07-Aug-2020 5060.51 5839.47 86.93 7.00 458.71 2663.65
   04:06:03.184.07-Aug-2020 5060.51 5841.01 86.93 7.00 458.91 2663.65
   04:06:03.384.07-Aug-2020 5060.51 5840.96 86.93 7.00 459.11 2663.65
   04:06:03.584.07-Aug-2020 5060.51 5840.96 86.93 7.00 459.31 2663.65
   04:06:03.784.07-Aug-2020 5060.51 5840.89 86.93 7.00 459.51 2663.65
   04:06:03.984.07-Aug-2020 5060.51 5841.72 86.93 7.00 459.71 2663.65
   04:06:04.184.07-Aug-2020 5060.51 5841.27 86.93 7.00 459.91 2663.65
