~Version Information
 VERS.                  2.0:   CWLS log ASCII Standard -VERSION 2.0
 WRAP.                   NO:   One line per depth step
~Well Information Block
#MNEM.UNIT     VALUE/NAME     DESCRIPTION
#---------     -----------    ---------------------------
 STRT.S             06:40:56 07-Aug-20: START TIME 06:40:56 07-Aug-20
 STOP.S             06:48:48 07-Aug-20: STOP TIME  06:48:48 07-Aug-20
 STEP.S                   0.00: STEP TIME
 NULL.                 -999.25: NULL VALUE
 DFWT.                        :  DIST FWL TEXT
 DFST.                        :  DIST FSL TEXT
 DMF .             Drill Floor:  DRILL MEAS FROM
 STIM.      12.00.00 03-Jul-20:  START TIME
 DATE.      00.50.00 09-Aug-20:  END TIME
 SPUD.               03-Jul-20:  SPUD DATE
 NREF.                    Grid:  NORTH REFERENCE
 HPTY.       Minimum Curvature:  HOLE POS TYPE
 DMOD.             Drill Model:  DRILL MOD DESC
 SVYD.                  Survey:  SURVEY DESC
 ILTD.               Lithology:  INTERP LTH DESC
 FTOP.          Formation Tops:  FORM TOPS DESC
 PDAT.          Mean Sea Level:  PERMANENT DATUM
 FLD .                     ACG:  FIELD NAME
 CTRY.              Azerbaijan:  COUNTRY NAME
 WELL.                    E04x:  WELL NAME
 SRVC.          Turan Drilling:  CONTRACTOR
 COMP.     BP Exploration (Caspian Sea) Ltd.:  COMPANY
 SON .        AZ-XX-0906531346:  JOB NUMBER
 WTYP.                Deviated:  WELL TYPE
 MDS .        Operator Entered:  MAG DATA SOURCE
 UWI .                     N/A:  UNIQUE WELL IDENTIFIER
 API .                     N/A:  API NUMBER
 BASE.              Azerbaijan:  LOGGING EQUIPMENT BASE LOCATION
 REGN.                   EESSA:  REGION
 PROV.                    Baku:  PROVINCE
 STAT.                    Baku:  STATE NAME
 MWDS.                    Baku:  MWD SHOP
 JOBN.        AZ-XX-0906531346:  JOB TICKET NUMB
 RIG .                     DWG:  RIG NAME
 DOE .                     N/A:  DOE NUMBER
 DCON.         Sperry Drilling:  DIRECTNL CONTR
 UNIT.                     N/A:  LOGGING EQUIPMENT ID
 CNTY.                        :  COUNTY
 LOC .                        :  LOCATION
 LMF .             Drill Floor:  LOG MEASURED FROM
 TVDS.m                  43.16:  TVDSS CORRECTN
 LATI.deg                40.17:  LATITUDE
 LONG.deg                51.17:  LONGITUDE
 WHNS.m                  -0.12:  WELL HEAD N/S
 WHEW.m                  -5.41:  WELL HEAD E/W
 UTMX.m              514337.95:  UTM X
 UTMY.m             4448627.46:  UTM Y
 DFWL.m                   0.00:  DISTANCE FWL
 DFSL.m                   0.00:  DISTANCE FSL
 SDEP.m                3088.01:  START DEPTH
 TDD .m                5200.01:  TOTAL DEPTH (DRILLER)
 VSDR.deg               244.51:  VERT SEC DIRECT
 GVFD.g                   1.00:  GRAVITY FIELD
 MFLD.nT              50329.80:  MAGNETIC FIELD
 MDIP.deg                59.63:  MAGNETIC DIP
 MDEC.deg                 6.59:  MAGNETIC DECL
 GRDC.deg                 0.09:  GRID CORRECTION
 AZTC.deg                 6.50:  AZM TOTAL CORR
 EPD .m                   0.00:  ELEVATION
 EGL .m                   0.00:  GROUND ELEVATION
 WDMS.m                 176.20:  WD ELEV
 APD .m                  43.16:  DEPTH ABOVE PD
 DEP .m                3084.71:  DEPTH
 AGAP.m                  43.16:  AIR GAP
 VSEW.m                  -5.41:  VERT SEC E/W
 VSNS.m                  -0.12:  VERT SEC N/S
 EKB .m                   0.00:  KB ELEVATION
 EDF .m                  43.16:  DF ELEVATION
 TDL .m                 243.00:  TOTAL DEPTH (LOGGER)
 VSC .                       0:  VS TO CLOSURE
 MAGU.                 1853542:  MAGUTM CHECKSUM
~Parameter Information Block
#MNEM.UNIT       Value        Description
#---------     -----------    ---------------------------
 AV  .mps                 1.91:  Ann Velocity 
 AVMX.mps                 2.52:  Max Ann Veloc 
 AZIF.deg               308.97:  Azm, Final 
 BHAT.        Rotary Steerable:  BHA Type 
 BROT.°/30m               1.00:  Build Rotating 
 BS  .in                  6.50:  Bit Size 
 BSZ .in                  6.50:  Bit Size 
 BTPL.psig              350.00:  Bit Press Loss 
 CABU.                      No:  Customer Abuse 
 CGEO.           Asif Pashayev:  Customer Geo 
 TCS .hr                 35.86:  Time Ciculation Ended 
 CV  .mps                 2.31:  Crit Velocity 
 CVMX.mps                 2.31:  Max Crit Veloc 
 DD1 .         Intigam Rahimov:  Direct Drillr 1 
 DDSV.               Geo-Pilot:  DD Service 
 DEFF.%                  92.00:  % Det Eff 
 DLRX.°/30m               1.00:  Dogleg Rot Max 
 DLSO.°/30m               1.00:  Dogleg Oriented 
 DLSX.°/30m               1.42:  Dogleg Str Max 
 DRET.      15.50.00 07-Aug-20:  Drill End Time 
 DRST.      10.40.00 06-Aug-20:  Drill Start Tim 
 DTIM.hr                 21.30:  Time Drilling 
 EDEP.m                5200.01:  End Depth 
 ENG1.            Alan Tuganov:  Engineer 1 
 ENG2.         Almaz Almadatov:  Engineer 2 
 ENG3.     Zammelal Abdullah Sani:  Engineer 3 
 ETIM.      22.42.00 08-Aug-20:  End Time 
 FLOI.gpm               395.00:  Flow In 
 FLON.gpm               350.00:  Flow In Min 
 FLOS.cptm                0.00:  Fluid Loss 
 FLOX.gpm               404.00:  Flow In Max 
 FTRO.       Formation Presure:  FTWD Run Obj 
 HFLO.                      No:  High Flow 
 HPRE.                      No:  High Pressure 
 HTEM.                      No:  High Temp 
 HYDO.m                   1.80:  Hydro Offset 
 IFIN.deg                72.64:  Inc, Final 
 IMAX.deg                73.68:  Inc Max 
 IMIN.deg                72.64:  Inc Min 
 IMND.m                5189.69:  Inc Min Depth 
 IMXD.m                5067.88:  Inc Max Depth 
 JARR.                      No:  Jarring 
 LETM.      15.50.00 07-Aug-20:  Log End Time 
 LOST.hr                     0:  Lost Rig Time 
 LSTM.      10.40.00 06-Aug-20:  Log Start Time 
 MDCL.ppm             36000.00:  Mud Chlorides 
 MDES.     Inversion Oil/Synthetic:  Mud Desc 
 DFD .sg                  1.36:  Mud Density 
 MDMN.sg                  1.36:  Dens Mud Min 
 MDMX.sg                  1.36:  Dens Mud Max 
 MOIL.                      70:  Run Mud Oil % 
 MOWR.                   70:30:  Run Mud OWR 
 MSND.                    0.00:  Run Mud Sand % 
 MSOL.                   17.60:  Run Mud Solids% 
 DFV .spqt               73.00:  Mud Viscosity 
 MWOD.in                  4.75:  MWD Tool OD 
 MWSI.                      No:  Serv Intrp, MWD 
 OTIM.hr                 85.66:  Time Operating 
 PCON.           Look Like New:  Pad Condition 
 PMAX.psia             6250.00:  Press Op, Max 
 PV  .cP                 65.00:  Mud PV 
 RUN .                     900:  Run Number 
 ROPA.m/hr               11.40:  ROP Avg 
 ROPN.m/hr                5.00:  ROP Min 
 ROPX.m/hr               20.00:  ROP Max 
 RPMA.rpm               130.00:  RPM Surface Avg 
 RPMN.rpm                40.00:  RPM Surface Min 
 RPMX.rpm               140.00:  RPM Surface Max 
 RRUN.                    L205:  Rig Run Number 
 RTIM.hr                  1.00:  Time Reaming 
 SAZI.deg               313.52:  Azm, Start 
 SDEP.m                4957.01:  Start Depth 
 SIDD.                      No:  Serv Intrp, DD 
 SINC.deg                73.16:  Inc, Start 
 SPPA.psig             5657.00:  SPP Avg 
 SPPN.psig             2500.00:  SPP Min 
 SPPX.psig             5806.00:  SPP Max 
 STIM.      07.12.00 05-Aug-20:  Start Time 
 SVCS.                 DD, MWD:  Services 
 SVER.                    9.20:  Sperry Version 
 TDAT.m                 243.00:  Tot Depth Attmp 
 TDDF.                      No:  Trip for DD 
 TDLG.m                 243.00:  Tot Depth Loggd 
 TFF .                      No:  Trip for Fail 
 TQAA.f-kp               13.00:  Torque Abs Avg 
 TQAN.f-kp               11.00:  Torque Abs Min 
 TQAX.f-kp               16.00:  Torque Abs Max 
 TRRT.°/30m               1.00:  Turn Rotating 
 MRT .                    HCIM:  Maximum Recorded Temperature 
 TTMX.degC               96.08:  Max Tool Temp 
 VS01.                90515411:  Virtual Str1 SN 
 VS02.                90512716:  Virtual Str2 SN 
 VS03.                90522362:  Virtual Str3 SN 
 VS04.                90619415:  Virtual Str4 SN 
 VS05.                90619414:  Virtual Str5 SN 
 VS06.                90597748:  Virtual Str6 SN 
 WBMN.klb                 2.00:  WOB Min 
 WITN.           Adil Mammadov:  Customer Rep 
 WITN.     Alexander Yadullayev:  Customer Rep 2 
 WOBA.klb                 7.00:  WOB Avg 
 WOBX.klb                23.00:  WOB Max 
 YP  .lhf2               37.00:  Yield Point 
~Curve Information Block
#MNEM.UNIT                 API CODE     Curve Description
#---------               -----------    ---------------------------
 TIME.HHMMSS            00 000 000 000:  GT Time & Date
 GTDEPTH.m              00 000 000 000:  GT Depth
 GTPQH.psia             00 000 000 000:  GT HR Quartz Pressure
 GTTQ.degC              00 000 000 000:  GT Quartz Temperature
 GTTN.NONE              00 000 000 000:  GT Test Number
 GTET.sec               00 000 000 000:  GT Elapsed Test Time
 GTTVD.m                00 000 000 000:  GT True Vertical Depth
#Other Information
#
#WARRANTY: Halliburton will use its best efforts to furnish customers with 
#accurate information and interpretations that are part of, and incident to, the services 
#provided.  However, Halliburton cannot and does not warrant the accuracy 
#or correctness of such information and interpretations.  Under no circumstances should any 
#such information or interpretation be relied upon as the sole basis for any drilling, 
#completion, production, or financial decision or any procedure involving any risk to the 
#safety of any drilling venture, drilling rig or its crew or any other third party.  The 
#Customer has full responsibility for all drilling, completion and production operation.  
#Halliburton makes no representations or warranties, either expressed or 
#implied, including, but not limited to, the implied warranties of merchantability or fitness 
#for a particular purpose, with respect to the services rendered.  In no event will 
#Halliburton be liable for failure to obtain any particular results or for 
#any damages, including, but not limited to, indirect, special or consequential damages, 
#resulting from the use of any information or interpretation provided by Halliburton.
#
~A           TIME           GTDEPTH  GTPQH  GTTQ  GTTN  GTET   GTTVD  
# ...
   06:45:33.019.07-Aug-2020 5088.01 3691.01 88.36 8.00 276.08 2671.45
   06:45:33.219.07-Aug-2020 5088.01 3691.03 88.36 8.00 276.28 2671.45
   06:45:33.419.07-Aug-2020 5088.01 3691.00 88.36 8.00 276.48 2671.45
   06:45:33.619.07-Aug-2020 5088.01 3691.02 88.36 8.00 276.68 2671.45
   06:45:33.819.07-Aug-2020 5088.01 3691.01 88.36 8.00 276.88 2671.45
   06:45:34.019.07-Aug-2020 5088.01 3691.01 88.36 8.00 277.08 2671.45
   06:45:34.220.07-Aug-2020 5088.01 3691.01 88.36 8.00 277.28 2671.45
   06:45:34.420.07-Aug-2020 5088.01 3691.04 88.35 8.00 277.48 2671.45
   06:45:34.620.07-Aug-2020 5088.01 3691.01 88.35 8.00 277.68 2671.45
   06:45:34.820.07-Aug-2020 5088.01 3691.05 88.35 8.00 277.88 2671.45
   06:45:35.020.07-Aug-2020 5088.01 3691.03 88.35 8.00 278.08 2671.45
   06:45:35.220.07-Aug-2020 5088.01 3691.03 88.35 8.00 278.28 2671.45
   06:45:35.420.07-Aug-2020 5088.01 3691.03 88.35 8.00 278.48 2671.45
   06:45:35.620.07-Aug-2020 5088.01 3691.00 88.35 8.00 278.68 2671.45
   06:45:35.820.07-Aug-2020 5088.01 3691.02 88.35 8.00 278.88 2671.45
   06:45:36.020.07-Aug-2020 5088.01 3691.00 88.35 8.00 279.08 2671.45
   06:45:36.220.07-Aug-2020 5088.01 3691.00 88.35 8.00 279.28 2671.45
   06:45:36.420.07-Aug-2020 5088.01 3691.00 88.35 8.00 279.48 2671.45
   06:45:36.620.07-Aug-2020 5088.01 3691.00 88.35 8.00 279.68 2671.45
   06:45:36.820.07-Aug-2020 5088.01 3690.91 88.35 8.00 279.88 2671.45
   06:45:37.020.07-Aug-2020 5088.01 3691.06 88.35 8.00 280.08 2671.45
   06:45:37.220.07-Aug-2020 5088.01 3691.06 88.35 8.00 280.28 2671.45
   06:45:37.420.07-Aug-2020 5088.01 3690.98 88.35 8.00 280.48 2671.45
   06:45:37.620.07-Aug-2020 5088.01 3691.02 88.35 8.00 280.68 2671.45
   06:45:37.821.07-Aug-2020 5088.01 3690.90 88.35 8.00 280.88 2671.45
   06:45:38.021.07-Aug-2020 5088.01 3691.06 88.34 8.00 281.08 2671.45
   06:45:38.221.07-Aug-2020 5088.01 3691.06 88.34 8.00 281.28 2671.45
   06:45:38.421.07-Aug-2020 5088.01 3690.98 88.34 8.00 281.48 2671.45
   06:45:38.621.07-Aug-2020 5088.01 3691.03 88.34 8.00 281.68 2671.45
   06:45:38.821.07-Aug-2020 5088.01 3690.97 88.34 8.00 281.88 2671.45
   06:45:39.021.07-Aug-2020 5088.01 3691.02 88.34 8.00 282.08 2671.45
   06:45:39.221.07-Aug-2020 5088.01 3691.02 88.34 8.00 282.28 2671.45
   06:45:39.421.07-Aug-2020 5088.01 3690.96 88.34 8.00 282.48 2671.45
   06:45:39.621.07-Aug-2020 5088.01 3691.04 88.34 8.00 282.68 2671.45
   06:45:39.821.07-Aug-2020 5088.01 3690.87 88.34 8.00 282.88 2671.45
   06:45:40.021.07-Aug-2020 5088.01 3691.11 88.34 8.00 283.08 2671.45
   06:45:40.221.07-Aug-2020 5088.01 3691.02 88.34 8.00 283.28 2671.45
   06:45:40.421.07-Aug-2020 5088.01 3691.02 88.34 8.00 283.48 2671.45
   06:45:40.621.07-Aug-2020 5088.01 3691.03 88.34 8.00 283.68 2671.45
   06:45:40.821.07-Aug-2020 5088.01 3691.02 88.34 8.00 283.88 2671.45
   06:45:41.021.07-Aug-2020 5088.01 3691.01 88.34 8.00 284.08 2671.45
   06:45:41.222.07-Aug-2020 5088.01 3691.03 88.34 8.00 284.28 2671.45
   06:45:41.422.07-Aug-2020 5088.01 3690.99 88.34 8.00 284.48 2671.45
   06:45:41.622.07-Aug-2020 5088.01 3691.02 88.33 8.00 284.68 2671.45
   06:45:41.822.07-Aug-2020 5088.01 3691.00 88.33 8.00 284.88 2671.45
   06:45:42.022.07-Aug-2020 5088.01 3691.00 88.33 8.00 285.08 2671.45
   06:45:42.222.07-Aug-2020 5088.01 3691.00 88.33 8.00 285.28 2671.45
   06:45:42.422.07-Aug-2020 5088.01 3691.00 88.33 8.00 285.48 2671.45
   06:45:42.622.07-Aug-2020 5088.01 3690.93 88.33 8.00 285.68 2671.45
   06:45:42.822.07-Aug-2020 5088.01 3691.04 88.33 8.00 285.88 2671.45
   06:45:43.022.07-Aug-2020 5088.01 3691.00 88.33 8.00 286.08 2671.45
   06:45:43.222.07-Aug-2020 5088.01 3691.00 88.33 8.00 286.28 2671.45
   06:45:43.422.07-Aug-2020 5088.01 3691.01 88.33 8.00 286.48 2671.45
   06:45:43.622.07-Aug-2020 5088.01 3690.99 88.33 8.00 286.68 2671.45
   06:45:43.822.07-Aug-2020 5088.01 3691.01 88.33 8.00 286.88 2671.45
   06:45:44.022.07-Aug-2020 5088.01 3691.01 88.33 8.00 287.08 2671.45
   06:45:44.222.07-Aug-2020 5088.01 3691.01 88.33 8.00 287.28 2671.45
   06:45:44.422.07-Aug-2020 5088.01 3690.99 88.33 8.00 287.48 2671.45
   06:45:44.623.07-Aug-2020 5088.01 3691.00 88.33 8.00 287.68 2671.45
   06:45:44.823.07-Aug-2020 5088.01 3690.99 88.33 8.00 287.88 2671.45
   06:45:45.023.07-Aug-2020 5088.01 3690.99 88.33 8.00 288.08 2671.45
   06:45:45.223.07-Aug-2020 5088.01 3690.86 88.33 8.00 288.28 2671.45
   06:45:45.423.07-Aug-2020 5088.01 3691.08 88.33 8.00 288.48 2671.45
   06:45:45.623.07-Aug-2020 5088.01 3691.03 88.32 8.00 288.68 2671.45
   06:45:45.823.07-Aug-2020 5088.01 3690.98 88.32 8.00 288.88 2671.45
   06:45:46.023.07-Aug-2020 5088.01 3691.01 88.32 8.00 289.08 2671.45
   06:45:46.223.07-Aug-2020 5088.01 3691.01 88.32 8.00 289.28 2671.45
   06:45:46.423.07-Aug-2020 5088.01 3691.10 88.32 8.00 289.48 2671.45
   06:45:46.623.07-Aug-2020 5088.01 3691.04 88.32 8.00 289.68 2671.45
   06:45:46.823.07-Aug-2020 5088.01 3690.99 88.32 8.00 289.88 2671.45
   06:45:47.023.07-Aug-2020 5088.01 3691.03 88.32 8.00 290.08 2671.45
   06:45:47.223.07-Aug-2020 5088.01 3691.03 88.32 8.00 290.28 2671.45
   06:45:47.423.07-Aug-2020 5088.01 3691.06 88.32 8.00 290.48 2671.45
   06:45:47.623.07-Aug-2020 5088.01 3691.00 88.32 8.00 290.68 2671.45
   06:45:47.823.07-Aug-2020 5088.01 3690.97 88.32 8.00 290.88 2671.45
   06:45:48.024.07-Aug-2020 5088.01 3691.03 88.32 8.00 291.08 2671.45
   06:45:48.224.07-Aug-2020 5088.01 3691.03 88.32 8.00 291.28 2671.45
   06:45:48.424.07-Aug-2020 5088.01 3691.03 88.32 8.00 291.48 2671.45
   06:45:48.624.07-Aug-2020 5088.01 3691.00 88.32 8.00 291.68 2671.45
   06:45:48.824.07-Aug-2020 5088.01 3691.01 88.32 8.00 291.88 2671.45
   06:45:49.024.07-Aug-2020 5088.01 3691.03 88.32 8.00 292.08 2671.45
   06:45:49.224.07-Aug-2020 5088.01 3690.99 88.31 8.00 292.28 2671.45
   06:45:49.424.07-Aug-2020 5088.01 3691.01 88.31 8.00 292.48 2671.45
   06:45:49.624.07-Aug-2020 5088.01 3691.01 88.31 8.00 292.68 2671.45
   06:45:49.824.07-Aug-2020 5088.01 3690.99 88.31 8.00 292.89 2671.45
   06:45:50.024.07-Aug-2020 5088.01 3691.00 88.31 8.00 293.09 2671.45
   06:45:50.224.07-Aug-2020 5088.01 3691.00 88.31 8.00 293.29 2671.45
   06:45:50.424.07-Aug-2020 5088.01 3691.00 88.31 8.00 293.49 2671.45
   06:45:50.624.07-Aug-2020 5088.01 3690.98 88.31 8.00 293.69 2671.45
   06:45:50.824.07-Aug-2020 5088.01 3690.95 88.31 8.00 293.89 2671.45
   06:45:51.024.07-Aug-2020 5088.01 3690.96 88.31 8.00 294.09 2671.45
   06:45:51.224.07-Aug-2020 5088.01 3690.96 88.31 8.00 294.29 2671.45
   06:45:51.425.07-Aug-2020 5088.01 3690.96 88.31 8.00 294.49 2671.45
   06:45:51.625.07-Aug-2020 5088.01 3691.02 88.31 8.00 294.69 2671.45
   06:45:51.825.07-Aug-2020 5088.01 3691.01 88.31 8.00 294.89 2671.45
   06:45:52.025.07-Aug-2020 5088.01 3690.99 88.31 8.00 295.09 2671.45
   06:45:52.225.07-Aug-2020 5088.01 3690.99 88.31 8.00 295.29 2671.45
   06:45:52.425.07-Aug-2020 5088.01 3690.99 88.31 8.00 295.49 2671.45
   06:45:52.625.07-Aug-2020 5088.01 3691.00 88.31 8.00 295.69 2671.45
   06:45:52.825.07-Aug-2020 5088.01 3690.98 88.31 8.00 295.89 2671.45
   06:45:53.025.07-Aug-2020 5088.01 3690.99 88.30 8.00 296.09 2671.45
   06:45:53.225.07-Aug-2020 5088.01 3690.99 88.30 8.00 296.29 2671.45
   06:45:53.425.07-Aug-2020 5088.01 3690.97 88.30 8.00 296.49 2671.45
   06:45:53.625.07-Aug-2020 5088.01 3690.82 88.30 8.00 296.69 2671.45
   06:45:53.825.07-Aug-2020 5088.01 3691.10 88.30 8.00 296.89 2671.45
   06:45:54.025.07-Aug-2020 5088.01 3691.02 88.30 8.00 297.09 2671.45
   06:45:54.225.07-Aug-2020 5088.01 3691.02 88.30 8.00 297.29 2671.45
   06:45:54.425.07-Aug-2020 5088.01 3691.00 88.30 8.00 297.49 2671.45
   06:45:54.625.07-Aug-2020 5088.01 3690.85 88.30 8.00 297.69 2671.45
   06:45:54.825.07-Aug-2020 5088.01 3691.09 88.30 8.00 297.89 2671.45
   06:45:55.026.07-Aug-2020 5088.01 3691.00 88.30 8.00 298.09 2671.45
   06:45:55.226.07-Aug-2020 5088.01 3691.00 88.30 8.00 298.29 2671.45
   06:45:55.426.07-Aug-2020 5088.01 3691.03 88.30 8.00 298.49 2671.45
   06:45:55.626.07-Aug-2020 5088.01 3690.82 88.30 8.00 298.69 2671.45
   06:45:55.826.07-Aug-2020 5088.01 3691.11 88.30 8.00 298.89 2671.45
