~Version Information
 VERS.                  2.0:   CWLS log ASCII Standard -VERSION 2.0
 WRAP.                   NO:   One line per depth step
~Well Information Block
#MNEM.UNIT     VALUE/NAME     DESCRIPTION
#---------     -----------    ---------------------------
 STRT.S             11:55:46 07-Aug-20: START TIME 11:55:46 07-Aug-20
 STOP.S             12:03:39 07-Aug-20: STOP TIME  12:03:39 07-Aug-20
 STEP.S                   0.00: STEP TIME
 NULL.                 -999.25: NULL VALUE
 DFWT.                        :  DIST FWL TEXT
 DFST.                        :  DIST FSL TEXT
 DMF .             Drill Floor:  DRILL MEAS FROM
 STIM.      12.00.00 03-Jul-20:  START TIME
 DATE.      00.50.00 09-Aug-20:  END TIME
 SPUD.               03-Jul-20:  SPUD DATE
 NREF.                    Grid:  NORTH REFERENCE
 HPTY.       Minimum Curvature:  HOLE POS TYPE
 DMOD.             Drill Model:  DRILL MOD DESC
 SVYD.                  Survey:  SURVEY DESC
 ILTD.               Lithology:  INTERP LTH DESC
 FTOP.          Formation Tops:  FORM TOPS DESC
 PDAT.          Mean Sea Level:  PERMANENT DATUM
 FLD .                     ACG:  FIELD NAME
 CTRY.              Azerbaijan:  COUNTRY NAME
 WELL.                    E04x:  WELL NAME
 SRVC.          Turan Drilling:  CONTRACTOR
 COMP.     BP Exploration (Caspian Sea) Ltd.:  COMPANY
 SON .        AZ-XX-0906531346:  JOB NUMBER
 WTYP.                Deviated:  WELL TYPE
 MDS .        Operator Entered:  MAG DATA SOURCE
 UWI .                     N/A:  UNIQUE WELL IDENTIFIER
 API .                     N/A:  API NUMBER
 BASE.              Azerbaijan:  LOGGING EQUIPMENT BASE LOCATION
 REGN.                   EESSA:  REGION
 PROV.                    Baku:  PROVINCE
 STAT.                    Baku:  STATE NAME
 MWDS.                    Baku:  MWD SHOP
 JOBN.        AZ-XX-0906531346:  JOB TICKET NUMB
 RIG .                     DWG:  RIG NAME
 DOE .                     N/A:  DOE NUMBER
 DCON.         Sperry Drilling:  DIRECTNL CONTR
 UNIT.                     N/A:  LOGGING EQUIPMENT ID
 CNTY.                        :  COUNTY
 LOC .                        :  LOCATION
 LMF .             Drill Floor:  LOG MEASURED FROM
 TVDS.m                  43.16:  TVDSS CORRECTN
 LATI.deg                40.17:  LATITUDE
 LONG.deg                51.17:  LONGITUDE
 WHNS.m                  -0.12:  WELL HEAD N/S
 WHEW.m                  -5.41:  WELL HEAD E/W
 UTMX.m              514337.95:  UTM X
 UTMY.m             4448627.46:  UTM Y
 DFWL.m                   0.00:  DISTANCE FWL
 DFSL.m                   0.00:  DISTANCE FSL
 SDEP.m                3088.01:  START DEPTH
 TDD .m                5200.01:  TOTAL DEPTH (DRILLER)
 VSDR.deg               244.51:  VERT SEC DIRECT
 GVFD.g                   1.00:  GRAVITY FIELD
 MFLD.nT              50329.80:  MAGNETIC FIELD
 MDIP.deg                59.63:  MAGNETIC DIP
 MDEC.deg                 6.59:  MAGNETIC DECL
 GRDC.deg                 0.09:  GRID CORRECTION
 AZTC.deg                 6.50:  AZM TOTAL CORR
 EPD .m                   0.00:  ELEVATION
 EGL .m                   0.00:  GROUND ELEVATION
 WDMS.m                 176.20:  WD ELEV
 APD .m                  43.16:  DEPTH ABOVE PD
 DEP .m                3084.71:  DEPTH
 AGAP.m                  43.16:  AIR GAP
 VSEW.m                  -5.41:  VERT SEC E/W
 VSNS.m                  -0.12:  VERT SEC N/S
 EKB .m                   0.00:  KB ELEVATION
 EDF .m                  43.16:  DF ELEVATION
 TDL .m                 243.00:  TOTAL DEPTH (LOGGER)
 VSC .                       0:  VS TO CLOSURE
 MAGU.                 1853542:  MAGUTM CHECKSUM
~Parameter Information Block
#MNEM.UNIT       Value        Description
#---------     -----------    ---------------------------
 AV  .mps                 1.91:  Ann Velocity 
 AVMX.mps                 2.52:  Max Ann Veloc 
 AZIF.deg               308.97:  Azm, Final 
 BHAT.        Rotary Steerable:  BHA Type 
 BROT.°/30m               1.00:  Build Rotating 
 BS  .in                  6.50:  Bit Size 
 BSZ .in                  6.50:  Bit Size 
 BTPL.psig              350.00:  Bit Press Loss 
 CABU.                      No:  Customer Abuse 
 CGEO.           Asif Pashayev:  Customer Geo 
 COMM.                     ¤4N:  Run Comments 1 
 TCS .hr                 35.86:  Time Ciculation Ended 
 CV  .mps                 2.31:  Crit Velocity 
 CVMX.mps                 2.31:  Max Crit Veloc 
 DD1 .         Intigam Rahimov:  Direct Drillr 1 
 DDSV.               Geo-Pilot:  DD Service 
 DEFF.%                  92.00:  % Det Eff 
 DLRX.°/30m               1.00:  Dogleg Rot Max 
 DLSO.°/30m               1.00:  Dogleg Oriented 
 DLSX.°/30m               1.42:  Dogleg Str Max 
 DRET.      15.50.00 07-Aug-20:  Drill End Time 
 DRST.      10.40.00 06-Aug-20:  Drill Start Tim 
 DTIM.hr                 21.30:  Time Drilling 
 EDEP.m                5200.01:  End Depth 
 ENG1.            Alan Tuganov:  Engineer 1 
 ENG2.         Almaz Almadatov:  Engineer 2 
 ENG3.     Zammelal Abdullah Sani:  Engineer 3 
 ETIM.      22.42.00 08-Aug-20:  End Time 
 FLOI.gpm               395.00:  Flow In 
 FLON.gpm               350.00:  Flow In Min 
 FLOS.cptm                0.00:  Fluid Loss 
 FLOX.gpm               404.00:  Flow In Max 
 FTRO.       Formation Presure:  FTWD Run Obj 
 HFLO.                      No:  High Flow 
 HPRE.                      No:  High Pressure 
 HTEM.                      No:  High Temp 
 HYDO.m                   1.80:  Hydro Offset 
 IFIN.deg                72.64:  Inc, Final 
 IMAX.deg                73.68:  Inc Max 
 IMIN.deg                72.64:  Inc Min 
 IMND.m                5189.69:  Inc Min Depth 
 IMXD.m                5067.88:  Inc Max Depth 
 JARR.                      No:  Jarring 
 LETM.      15.50.00 07-Aug-20:  Log End Time 
 LOST.hr                     0:  Lost Rig Time 
 LSTM.      10.40.00 06-Aug-20:  Log Start Time 
 MDCL.ppm             36000.00:  Mud Chlorides 
 MDES.     Inversion Oil/Synthetic:  Mud Desc 
 DFD .sg                  1.36:  Mud Density 
 MDMN.sg                  1.36:  Dens Mud Min 
 MDMX.sg                  1.36:  Dens Mud Max 
 MOIL.                      70:  Run Mud Oil % 
 MOWR.                   70:30:  Run Mud OWR 
 MSND.                    0.00:  Run Mud Sand % 
 MSOL.                   17.60:  Run Mud Solids% 
 DFV .spqt               73.00:  Mud Viscosity 
 MWOD.in                  4.75:  MWD Tool OD 
 MWSI.                      No:  Serv Intrp, MWD 
 OTIM.hr                 85.66:  Time Operating 
 PCON.           Look Like New:  Pad Condition 
 PMAX.psia             6250.00:  Press Op, Max 
 PV  .cP                 65.00:  Mud PV 
 RUN .                     900:  Run Number 
 ROPA.m/hr               11.40:  ROP Avg 
 ROPN.m/hr                5.00:  ROP Min 
 ROPX.m/hr               20.00:  ROP Max 
 RPMA.rpm               130.00:  RPM Surface Avg 
 RPMN.rpm                40.00:  RPM Surface Min 
 RPMX.rpm               140.00:  RPM Surface Max 
 RRUN.                    L205:  Rig Run Number 
 RTIM.hr                  1.00:  Time Reaming 
 SAZI.deg               313.52:  Azm, Start 
 SDEP.m                4957.01:  Start Depth 
 SIDD.                      No:  Serv Intrp, DD 
 SINC.deg                73.16:  Inc, Start 
 SPPA.psig             5657.00:  SPP Avg 
 SPPN.psig             2500.00:  SPP Min 
 SPPX.psig             5806.00:  SPP Max 
 STIM.      07.12.00 05-Aug-20:  Start Time 
 SVCS.                 DD, MWD:  Services 
 SVER.                    9.20:  Sperry Version 
 TDAT.m                 243.00:  Tot Depth Attmp 
 TDDF.                      No:  Trip for DD 
 TDLG.m                 243.00:  Tot Depth Loggd 
 TFF .                      No:  Trip for Fail 
 TQAA.f-kp               13.00:  Torque Abs Avg 
 TQAN.f-kp               11.00:  Torque Abs Min 
 TQAX.f-kp               16.00:  Torque Abs Max 
 TRRT.°/30m               1.00:  Turn Rotating 
 MRT .                    HCIM:  Maximum Recorded Temperature 
 TTMX.degC               96.08:  Max Tool Temp 
 VS01.                90515411:  Virtual Str1 SN 
 VS02.                90512716:  Virtual Str2 SN 
 VS03.                90522362:  Virtual Str3 SN 
 VS04.                90619415:  Virtual Str4 SN 
 VS05.                90619414:  Virtual Str5 SN 
 VS06.                90597748:  Virtual Str6 SN 
 WBMN.klb                 2.00:  WOB Min 
 WITN.           Adil Mammadov:  Customer Rep 
 WITN.     Alexander Yadullayev:  Customer Rep 2 
 WOBA.klb                 7.00:  WOB Avg 
 WOBX.klb                23.00:  WOB Max 
 YP  .lhf2               37.00:  Yield Point 
~Curve Information Block
#MNEM.UNIT                 API CODE     Curve Description
#---------               -----------    ---------------------------
 TIME.HHMMSS            00 000 000 000:  GT Time & Date
 GTDEPTH.m              00 000 000 000:  GT Depth
 GTPQH.psia             00 000 000 000:  GT HR Quartz Pressure
 GTTQ.degC              00 000 000 000:  GT Quartz Temperature
 GTTN.NONE              00 000 000 000:  GT Test Number
 GTET.sec               00 000 000 000:  GT Elapsed Test Time
 GTTVD.m                00 000 000 000:  GT True Vertical Depth
#Other Information
#
#WARRANTY: Halliburton will use its best efforts to furnish customers with 
#accurate information and interpretations that are part of, and incident to, the services 
#provided.  However, Halliburton cannot and does not warrant the accuracy 
#or correctness of such information and interpretations.  Under no circumstances should any 
#such information or interpretation be relied upon as the sole basis for any drilling, 
#completion, production, or financial decision or any procedure involving any risk to the 
#safety of any drilling venture, drilling rig or its crew or any other third party.  The 
#Customer has full responsibility for all drilling, completion and production operation.  
#Halliburton makes no representations or warranties, either expressed or 
#implied, including, but not limited to, the implied warranties of merchantability or fitness 
#for a particular purpose, with respect to the services rendered.  In no event will 
#Halliburton be liable for failure to obtain any particular results or for 
#any damages, including, but not limited to, indirect, special or consequential damages, 
#resulting from the use of any information or interpretation provided by Halliburton.
#
~A           TIME           GTDEPTH  GTPQH  GTTQ  GTTN   GTET   GTTVD  
# ...
   11:57:17.320.07-Aug-2020 5127.01 3414.45 87.85 10.00  90.43 2682.86
   11:57:17.520.07-Aug-2020 5127.01 3414.44 87.85 10.00  90.63 2682.86
   11:57:17.720.07-Aug-2020 5127.01 3414.38 87.85 10.00  90.83 2682.86
   11:57:17.920.07-Aug-2020 5127.01 3414.50 87.85 10.00  91.03 2682.86
   11:57:18.120.07-Aug-2020 5127.01 3414.50 87.85 10.00  91.23 2682.86
   11:57:18.320.07-Aug-2020 5127.01 3414.37 87.85 10.00  91.43 2682.86
   11:57:18.520.07-Aug-2020 5127.01 3414.26 87.85 10.00  91.63 2682.86
   11:57:18.721.07-Aug-2020 5127.01 3414.60 87.84 10.00  91.83 2682.86
   11:57:18.921.07-Aug-2020 5127.01 3414.48 87.84 10.00  92.03 2682.86
   11:57:19.121.07-Aug-2020 5127.01 3414.48 87.84 10.00  92.23 2682.86
   11:57:19.321.07-Aug-2020 5127.01 3414.49 87.84 10.00  92.43 2682.86
   11:57:19.521.07-Aug-2020 5127.01 3414.45 87.84 10.00  92.63 2682.86
   11:57:19.721.07-Aug-2020 5127.01 3414.34 87.84 10.00  92.83 2682.86
   11:57:19.921.07-Aug-2020 5127.01 3414.49 87.84 10.00  93.03 2682.86
   11:57:20.121.07-Aug-2020 5127.01 3414.49 87.84 10.00  93.24 2682.86
   11:57:20.321.07-Aug-2020 5127.01 3414.36 87.84 10.00  93.44 2682.86
   11:57:20.521.07-Aug-2020 5127.01 3414.47 87.84 10.00  93.64 2682.86
   11:57:20.721.07-Aug-2020 5127.01 3414.44 87.84 10.00  93.84 2682.86
   11:57:20.921.07-Aug-2020 5127.01 3414.22 87.84 10.00  94.04 2682.86
   11:57:21.121.07-Aug-2020 5127.01 3414.22 87.84 10.00  94.24 2682.86
   11:57:21.322.07-Aug-2020 5127.01 3414.49 87.84 10.00  94.44 2682.86
   11:57:21.522.07-Aug-2020 5127.01 3414.34 87.84 10.00  94.64 2682.86
   11:57:21.722.07-Aug-2020 5127.01 3414.45 87.84 10.00  94.84 2682.86
   11:57:21.922.07-Aug-2020 5127.01 3414.45 87.84 10.00  95.04 2682.86
   11:57:22.122.07-Aug-2020 5127.01 3414.41 87.84 10.00  95.24 2682.86
   11:57:22.322.07-Aug-2020 5127.01 3414.43 87.84 10.00  95.44 2682.86
   11:57:22.522.07-Aug-2020 5127.01 3414.43 87.83 10.00  95.64 2682.86
   11:57:22.722.07-Aug-2020 5127.01 3414.41 87.83 10.00  95.84 2682.86
   11:57:22.922.07-Aug-2020 5127.01 3414.42 87.83 10.00  96.04 2682.86
   11:57:23.122.07-Aug-2020 5127.01 3414.42 87.83 10.00  96.24 2682.86
   11:57:23.322.07-Aug-2020 5127.01 3414.41 87.83 10.00  96.44 2682.86
   11:57:23.522.07-Aug-2020 5127.01 3414.39 87.83 10.00  96.64 2682.86
   11:57:23.722.07-Aug-2020 5127.01 3414.43 87.83 10.00  96.84 2682.86
   11:57:23.922.07-Aug-2020 5127.01 3414.41 87.83 10.00  97.04 2682.86
   11:57:24.123.07-Aug-2020 5127.01 3414.41 87.83 10.00  97.24 2682.86
   11:57:24.323.07-Aug-2020 5127.01 3414.43 87.83 10.00  97.44 2682.86
   11:57:24.523.07-Aug-2020 5127.01 3414.43 87.83 10.00  97.64 2682.86
   11:57:24.723.07-Aug-2020 5127.01 3414.42 87.83 10.00  97.84 2682.86
   11:57:24.923.07-Aug-2020 5127.01 3414.39 87.83 10.00  98.04 2682.86
   11:57:25.123.07-Aug-2020 5127.01 3414.39 87.83 10.00  98.24 2682.86
   11:57:25.323.07-Aug-2020 5127.01 3414.41 87.83 10.00  98.44 2682.86
   11:57:25.523.07-Aug-2020 5127.01 3414.41 87.83 10.00  98.64 2682.86
   11:57:25.723.07-Aug-2020 5127.01 3414.42 87.83 10.00  98.84 2682.86
   11:57:25.923.07-Aug-2020 5127.01 3414.41 87.83 10.00  99.04 2682.86
   11:57:26.123.07-Aug-2020 5127.01 3414.40 87.83 10.00  99.24 2682.86
   11:57:26.323.07-Aug-2020 5127.01 3414.30 87.82 10.00  99.44 2682.86
   11:57:26.523.07-Aug-2020 5127.01 3414.48 87.82 10.00  99.64 2682.86
   11:57:26.724.07-Aug-2020 5127.01 3414.43 87.82 10.00  99.84 2682.86
   11:57:26.924.07-Aug-2020 5127.01 3414.34 87.82 10.00 100.04 2682.86
   11:57:27.124.07-Aug-2020 5127.01 3414.34 87.82 10.00 100.24 2682.86
   11:57:27.324.07-Aug-2020 5127.01 3414.49 87.82 10.00 100.44 2682.86
   11:57:27.524.07-Aug-2020 5127.01 3414.43 87.82 10.00 100.64 2682.86
   11:57:27.724.07-Aug-2020 5127.01 3414.33 87.82 10.00 100.84 2682.86
   11:57:27.924.07-Aug-2020 5127.01 3414.44 87.82 10.00 101.04 2682.86
   11:57:28.124.07-Aug-2020 5127.01 3414.44 87.82 10.00 101.24 2682.86
   11:57:28.324.07-Aug-2020 5127.01 3414.28 87.82 10.00 101.44 2682.86
   11:57:28.524.07-Aug-2020 5127.01 3414.50 87.82 10.00 101.64 2682.86
   11:57:28.724.07-Aug-2020 5127.01 3414.44 87.82 10.00 101.84 2682.86
   11:57:28.924.07-Aug-2020 5127.01 3414.33 87.82 10.00 102.04 2682.86
   11:57:29.124.07-Aug-2020 5127.01 3414.33 87.82 10.00 102.24 2682.86
   11:57:29.325.07-Aug-2020 5127.01 3414.40 87.82 10.00 102.44 2682.86
   11:57:29.525.07-Aug-2020 5127.01 3414.28 87.82 10.00 102.64 2682.86
   11:57:29.725.07-Aug-2020 5127.01 3414.47 87.82 10.00 102.84 2682.86
   11:57:29.925.07-Aug-2020 5127.01 3414.45 87.82 10.00 103.04 2682.86
   11:57:30.125.07-Aug-2020 5127.01 3414.32 87.81 10.00 103.24 2682.86
   11:57:30.325.07-Aug-2020 5127.01 3414.42 87.81 10.00 103.44 2682.86
   11:57:30.525.07-Aug-2020 5127.01 3414.41 87.81 10.00 103.64 2682.86
   11:57:30.725.07-Aug-2020 5127.01 3414.36 87.81 10.00 103.84 2682.86
   11:57:30.925.07-Aug-2020 5127.01 3414.41 87.81 10.00 104.04 2682.86
   11:57:31.125.07-Aug-2020 5127.01 3414.41 87.81 10.00 104.24 2682.86
   11:57:31.325.07-Aug-2020 5127.01 3414.40 87.81 10.00 104.44 2682.86
   11:57:31.525.07-Aug-2020 5127.01 3414.39 87.81 10.00 104.64 2682.86
   11:57:31.725.07-Aug-2020 5127.01 3414.38 87.81 10.00 104.84 2682.86
   11:57:31.925.07-Aug-2020 5127.01 3414.39 87.81 10.00 105.04 2682.86
   11:57:32.126.07-Aug-2020 5127.01 3414.39 87.81 10.00 105.24 2682.86
   11:57:32.326.07-Aug-2020 5127.01 3414.44 87.81 10.00 105.44 2682.86
   11:57:32.526.07-Aug-2020 5127.01 3414.36 87.81 10.00 105.64 2682.86
   11:57:32.726.07-Aug-2020 5127.01 3414.32 87.81 10.00 105.84 2682.86
   11:57:32.926.07-Aug-2020 5127.01 3414.41 87.81 10.00 106.04 2682.86
   11:57:33.126.07-Aug-2020 5127.01 3414.41 87.81 10.00 106.24 2682.86
   11:57:33.326.07-Aug-2020 5127.01 3414.37 87.81 10.00 106.44 2682.86
   11:57:33.526.07-Aug-2020 5127.01 3414.38 87.81 10.00 106.64 2682.86
   11:57:33.726.07-Aug-2020 5127.01 3414.38 87.81 10.00 106.84 2682.86
   11:57:33.926.07-Aug-2020 5127.01 3414.40 87.81 10.00 107.04 2682.86
   11:57:34.126.07-Aug-2020 5127.01 3414.40 87.80 10.00 107.24 2682.86
   11:57:34.326.07-Aug-2020 5127.01 3414.38 87.80 10.00 107.44 2682.86
   11:57:34.526.07-Aug-2020 5127.01 3414.38 87.80 10.00 107.64 2682.86
   11:57:34.727.07-Aug-2020 5127.01 3414.37 87.80 10.00 107.84 2682.86
   11:57:34.927.07-Aug-2020 5127.01 3414.15 87.80 10.00 108.04 2682.86
   11:57:35.127.07-Aug-2020 5127.01 3414.15 87.80 10.00 108.24 2682.86
   11:57:35.327.07-Aug-2020 5127.01 3414.42 87.80 10.00 108.44 2682.86
   11:57:35.527.07-Aug-2020 5127.01 3414.30 87.80 10.00 108.64 2682.86
   11:57:35.727.07-Aug-2020 5127.01 3414.35 87.80 10.00 108.84 2682.86
   11:57:35.927.07-Aug-2020 5127.01 3414.39 87.80 10.00 109.04 2682.86
   11:57:36.127.07-Aug-2020 5127.01 3414.39 87.80 10.00 109.24 2682.86
   11:57:36.327.07-Aug-2020 5127.01 3414.32 87.80 10.00 109.44 2682.86
   11:57:36.527.07-Aug-2020 5127.01 3414.40 87.80 10.00 109.64 2682.86
   11:57:36.727.07-Aug-2020 5127.01 3414.39 87.80 10.00 109.84 2682.86
   11:57:36.927.07-Aug-2020 5127.01 3414.14 87.80 10.00 110.04 2682.86
   11:57:37.127.07-Aug-2020 5127.01 3414.14 87.80 10.00 110.24 2682.86
   11:57:37.328.07-Aug-2020 5127.01 3414.43 87.80 10.00 110.44 2682.86
   11:57:37.528.07-Aug-2020 5127.01 3414.30 87.80 10.00 110.64 2682.86
   11:57:37.728.07-Aug-2020 5127.01 3414.40 87.80 10.00 110.84 2682.86
   11:57:37.928.07-Aug-2020 5127.01 3414.39 87.80 10.00 111.04 2682.86
   11:57:38.128.07-Aug-2020 5127.01 3414.39 87.80 10.00 111.24 2682.86
   11:57:38.328.07-Aug-2020 5127.01 3414.37 87.79 10.00 111.44 2682.86
   11:57:38.528.07-Aug-2020 5127.01 3414.43 87.79 10.00 111.64 2682.86
   11:57:38.728.07-Aug-2020 5127.01 3414.30 87.79 10.00 111.84 2682.86
   11:57:38.928.07-Aug-2020 5127.01 3414.39 87.79 10.00 112.04 2682.86
   11:57:39.128.07-Aug-2020 5127.01 3414.39 87.79 10.00 112.24 2682.86
   11:57:39.328.07-Aug-2020 5127.01 3414.35 87.79 10.00 112.44 2682.86
   11:57:39.528.07-Aug-2020 5127.01 3414.37 87.79 10.00 112.64 2682.86
   11:57:39.728.07-Aug-2020 5127.01 3414.37 87.79 10.00 112.84 2682.86
