~Version Information
 VERS.                  2.0:   CWLS log ASCII Standard -VERSION 2.0
 WRAP.                   NO:   One line per depth step
~Well Information Block
#MNEM.UNIT     VALUE/NAME     DESCRIPTION
#---------     -----------    ---------------------------
 STRT.S             11:55:46 07-Aug-20: START TIME 11:55:46 07-Aug-20
 STOP.S             12:03:39 07-Aug-20: STOP TIME  12:03:39 07-Aug-20
 STEP.S                   0.00: STEP TIME
 NULL.                 -999.25: NULL VALUE
 DFWT.                        :  DIST FWL TEXT
 DFST.                        :  DIST FSL TEXT
 DMF .             Drill Floor:  DRILL MEAS FROM
 STIM.      12.00.00 03-Jul-20:  START TIME
 DATE.      00.50.00 09-Aug-20:  END TIME
 SPUD.               03-Jul-20:  SPUD DATE
 NREF.                    Grid:  NORTH REFERENCE
 HPTY.       Minimum Curvature:  HOLE POS TYPE
 DMOD.             Drill Model:  DRILL MOD DESC
 SVYD.                  Survey:  SURVEY DESC
 ILTD.               Lithology:  INTERP LTH DESC
 FTOP.          Formation Tops:  FORM TOPS DESC
 PDAT.          Mean Sea Level:  PERMANENT DATUM
 FLD .                     ACG:  FIELD NAME
 CTRY.              Azerbaijan:  COUNTRY NAME
 WELL.                    E04x:  WELL NAME
 SRVC.          Turan Drilling:  CONTRACTOR
 COMP.     BP Exploration (Caspian Sea) Ltd.:  COMPANY
 SON .        AZ-XX-0906531346:  JOB NUMBER
 WTYP.                Deviated:  WELL TYPE
 MDS .        Operator Entered:  MAG DATA SOURCE
 UWI .                     N/A:  UNIQUE WELL IDENTIFIER
 API .                     N/A:  API NUMBER
 BASE.              Azerbaijan:  LOGGING EQUIPMENT BASE LOCATION
 REGN.                   EESSA:  REGION
 PROV.                    Baku:  PROVINCE
 STAT.                    Baku:  STATE NAME
 MWDS.                    Baku:  MWD SHOP
 JOBN.        AZ-XX-0906531346:  JOB TICKET NUMB
 RIG .                     DWG:  RIG NAME
 DOE .                     N/A:  DOE NUMBER
 DCON.         Sperry Drilling:  DIRECTNL CONTR
 UNIT.                     N/A:  LOGGING EQUIPMENT ID
 CNTY.                        :  COUNTY
 LOC .                        :  LOCATION
 LMF .             Drill Floor:  LOG MEASURED FROM
 TVDS.m                  43.16:  TVDSS CORRECTN
 LATI.deg                40.17:  LATITUDE
 LONG.deg                51.17:  LONGITUDE
 WHNS.m                  -0.12:  WELL HEAD N/S
 WHEW.m                  -5.41:  WELL HEAD E/W
 UTMX.m              514337.95:  UTM X
 UTMY.m             4448627.46:  UTM Y
 DFWL.m                   0.00:  DISTANCE FWL
 DFSL.m                   0.00:  DISTANCE FSL
 SDEP.m                3088.01:  START DEPTH
 TDD .m                5200.01:  TOTAL DEPTH (DRILLER)
 VSDR.deg               244.51:  VERT SEC DIRECT
 GVFD.g                   1.00:  GRAVITY FIELD
 MFLD.nT              50329.80:  MAGNETIC FIELD
 MDIP.deg                59.63:  MAGNETIC DIP
 MDEC.deg                 6.59:  MAGNETIC DECL
 GRDC.deg                 0.09:  GRID CORRECTION
 AZTC.deg                 6.50:  AZM TOTAL CORR
 EPD .m                   0.00:  ELEVATION
 EGL .m                   0.00:  GROUND ELEVATION
 WDMS.m                 176.20:  WD ELEV
 APD .m                  43.16:  DEPTH ABOVE PD
 DEP .m                3084.71:  DEPTH
 AGAP.m                  43.16:  AIR GAP
 VSEW.m                  -5.41:  VERT SEC E/W
 VSNS.m                  -0.12:  VERT SEC N/S
 EKB .m                   0.00:  KB ELEVATION
 EDF .m                  43.16:  DF ELEVATION
 TDL .m                 243.00:  TOTAL DEPTH (LOGGER)
 VSC .                       0:  VS TO CLOSURE
 MAGU.                 1853542:  MAGUTM CHECKSUM
~Parameter Information Block
#MNEM.UNIT       Value        Description
#---------     -----------    ---------------------------
 AV  .mps                 1.91:  Ann Velocity 
 AVMX.mps                 2.52:  Max Ann Veloc 
 AZIF.deg               308.97:  Azm, Final 
 BHAT.        Rotary Steerable:  BHA Type 
 BROT.°/30m               1.00:  Build Rotating 
 BS  .in                  6.50:  Bit Size 
 BSZ .in                  6.50:  Bit Size 
 BTPL.psig              350.00:  Bit Press Loss 
 CABU.                      No:  Customer Abuse 
 CGEO.           Asif Pashayev:  Customer Geo 
 COMM.                     ¤4N:  Run Comments 1 
 TCS .hr                 35.86:  Time Ciculation Ended 
 CV  .mps                 2.31:  Crit Velocity 
 CVMX.mps                 2.31:  Max Crit Veloc 
 DD1 .         Intigam Rahimov:  Direct Drillr 1 
 DDSV.               Geo-Pilot:  DD Service 
 DEFF.%                  92.00:  % Det Eff 
 DLRX.°/30m               1.00:  Dogleg Rot Max 
 DLSO.°/30m               1.00:  Dogleg Oriented 
 DLSX.°/30m               1.42:  Dogleg Str Max 
 DRET.      15.50.00 07-Aug-20:  Drill End Time 
 DRST.      10.40.00 06-Aug-20:  Drill Start Tim 
 DTIM.hr                 21.30:  Time Drilling 
 EDEP.m                5200.01:  End Depth 
 ENG1.            Alan Tuganov:  Engineer 1 
 ENG2.         Almaz Almadatov:  Engineer 2 
 ENG3.     Zammelal Abdullah Sani:  Engineer 3 
 ETIM.      22.42.00 08-Aug-20:  End Time 
 FLOI.gpm               395.00:  Flow In 
 FLON.gpm               350.00:  Flow In Min 
 FLOS.cptm                0.00:  Fluid Loss 
 FLOX.gpm               404.00:  Flow In Max 
 FTRO.       Formation Presure:  FTWD Run Obj 
 HFLO.                      No:  High Flow 
 HPRE.                      No:  High Pressure 
 HTEM.                      No:  High Temp 
 HYDO.m                   1.80:  Hydro Offset 
 IFIN.deg                72.64:  Inc, Final 
 IMAX.deg                73.68:  Inc Max 
 IMIN.deg                72.64:  Inc Min 
 IMND.m                5189.69:  Inc Min Depth 
 IMXD.m                5067.88:  Inc Max Depth 
 JARR.                      No:  Jarring 
 LETM.      15.50.00 07-Aug-20:  Log End Time 
 LOST.hr                     0:  Lost Rig Time 
 LSTM.      10.40.00 06-Aug-20:  Log Start Time 
 MDCL.ppm             36000.00:  Mud Chlorides 
 MDES.     Inversion Oil/Synthetic:  Mud Desc 
 DFD .sg                  1.36:  Mud Density 
 MDMN.sg                  1.36:  Dens Mud Min 
 MDMX.sg                  1.36:  Dens Mud Max 
 MOIL.                      70:  Run Mud Oil % 
 MOWR.                   70:30:  Run Mud OWR 
 MSND.                    0.00:  Run Mud Sand % 
 MSOL.                   17.60:  Run Mud Solids% 
 DFV .spqt               73.00:  Mud Viscosity 
 MWOD.in                  4.75:  MWD Tool OD 
 MWSI.                      No:  Serv Intrp, MWD 
 OTIM.hr                 85.66:  Time Operating 
 PCON.           Look Like New:  Pad Condition 
 PMAX.psia             6250.00:  Press Op, Max 
 PV  .cP                 65.00:  Mud PV 
 RUN .                     900:  Run Number 
 ROPA.m/hr               11.40:  ROP Avg 
 ROPN.m/hr                5.00:  ROP Min 
 ROPX.m/hr               20.00:  ROP Max 
 RPMA.rpm               130.00:  RPM Surface Avg 
 RPMN.rpm                40.00:  RPM Surface Min 
 RPMX.rpm               140.00:  RPM Surface Max 
 RRUN.                    L205:  Rig Run Number 
 RTIM.hr                  1.00:  Time Reaming 
 SAZI.deg               313.52:  Azm, Start 
 SDEP.m                4957.01:  Start Depth 
 SIDD.                      No:  Serv Intrp, DD 
 SINC.deg                73.16:  Inc, Start 
 SPPA.psig             5657.00:  SPP Avg 
 SPPN.psig             2500.00:  SPP Min 
 SPPX.psig             5806.00:  SPP Max 
 STIM.      07.12.00 05-Aug-20:  Start Time 
 SVCS.                 DD, MWD:  Services 
 SVER.                    9.20:  Sperry Version 
 TDAT.m                 243.00:  Tot Depth Attmp 
 TDDF.                      No:  Trip for DD 
 TDLG.m                 243.00:  Tot Depth Loggd 
 TFF .                      No:  Trip for Fail 
 TQAA.f-kp               13.00:  Torque Abs Avg 
 TQAN.f-kp               11.00:  Torque Abs Min 
 TQAX.f-kp               16.00:  Torque Abs Max 
 TRRT.°/30m               1.00:  Turn Rotating 
 MRT .                    HCIM:  Maximum Recorded Temperature 
 TTMX.degC               96.08:  Max Tool Temp 
 VS01.                90515411:  Virtual Str1 SN 
 VS02.                90512716:  Virtual Str2 SN 
 VS03.                90522362:  Virtual Str3 SN 
 VS04.                90619415:  Virtual Str4 SN 
 VS05.                90619414:  Virtual Str5 SN 
 VS06.                90597748:  Virtual Str6 SN 
 WBMN.klb                 2.00:  WOB Min 
 WITN.           Adil Mammadov:  Customer Rep 
 WITN.     Alexander Yadullayev:  Customer Rep 2 
 WOBA.klb                 7.00:  WOB Avg 
 WOBX.klb                23.00:  WOB Max 
 YP  .lhf2               37.00:  Yield Point 
~Curve Information Block
#MNEM.UNIT                 API CODE     Curve Description
#---------               -----------    ---------------------------
 TIME.HHMMSS            00 000 000 000:  GT Time & Date
 GTDEPTH.m              00 000 000 000:  GT Depth
 GTPQH.psia             00 000 000 000:  GT HR Quartz Pressure
 GTTQ.degC              00 000 000 000:  GT Quartz Temperature
 GTTN.NONE              00 000 000 000:  GT Test Number
 GTET.sec               00 000 000 000:  GT Elapsed Test Time
 GTTVD.m                00 000 000 000:  GT True Vertical Depth
#Other Information
#
#WARRANTY: Halliburton will use its best efforts to furnish customers with 
#accurate information and interpretations that are part of, and incident to, the services 
#provided.  However, Halliburton cannot and does not warrant the accuracy 
#or correctness of such information and interpretations.  Under no circumstances should any 
#such information or interpretation be relied upon as the sole basis for any drilling, 
#completion, production, or financial decision or any procedure involving any risk to the 
#safety of any drilling venture, drilling rig or its crew or any other third party.  The 
#Customer has full responsibility for all drilling, completion and production operation.  
#Halliburton makes no representations or warranties, either expressed or 
#implied, including, but not limited to, the implied warranties of merchantability or fitness 
#for a particular purpose, with respect to the services rendered.  In no event will 
#Halliburton be liable for failure to obtain any particular results or for 
#any damages, including, but not limited to, indirect, special or consequential damages, 
#resulting from the use of any information or interpretation provided by Halliburton.
#
~A           TIME           GTDEPTH  GTPQH  GTTQ  GTTN   GTET   GTTVD  
# ...
   11:56:09.495.07-Aug-2020 5127.01 6566.03 88.09 10.00  22.61 2682.86
   11:56:09.695.07-Aug-2020 5127.01 6570.33 88.09 10.00  22.81 2682.86
   11:56:09.895.07-Aug-2020 5127.01 6571.95 88.09 10.00  23.01 2682.86
   11:56:10.095.07-Aug-2020 5127.01 6574.61 88.09 10.00  23.21 2682.86
   11:56:10.295.07-Aug-2020 5127.01 6576.32 88.08 10.00  23.41 2682.86
   11:56:10.495.07-Aug-2020 5127.01 6575.59 88.08 10.00  23.61 2682.86
   11:56:10.695.07-Aug-2020 5127.01 6577.44 88.08 10.00  23.81 2682.86
   11:56:10.895.07-Aug-2020 5127.01 6578.27 88.08 10.00  24.01 2682.86
   11:56:11.095.07-Aug-2020 5127.01 6578.27 88.08 10.00  24.21 2682.86
   11:56:11.295.07-Aug-2020 5127.01 6579.55 88.08 10.00  24.41 2682.86
   11:56:11.495.07-Aug-2020 5127.01 6579.06 88.08 10.00  24.61 2682.86
   11:56:11.695.07-Aug-2020 5127.01 6579.72 88.08 10.00  24.81 2682.86
   11:56:11.895.07-Aug-2020 5127.01 6580.62 88.08 10.00  25.01 2682.86
   11:56:12.096.07-Aug-2020 5127.01 6580.62 88.08 10.00  25.21 2682.86
   11:56:12.296.07-Aug-2020 5127.01 6580.49 88.08 10.00  25.41 2682.86
   11:56:12.496.07-Aug-2020 5127.01 6581.04 88.08 10.00  25.61 2682.86
   11:56:12.696.07-Aug-2020 5127.01 6580.78 88.08 10.00  25.81 2682.86
   11:56:12.896.07-Aug-2020 5127.01 6581.19 88.08 10.00  26.01 2682.86
   11:56:13.096.07-Aug-2020 5127.01 6581.19 88.08 10.00  26.21 2682.86
   11:56:13.296.07-Aug-2020 5127.01 5744.32 88.08 10.00  26.41 2682.86
   11:56:13.496.07-Aug-2020 5127.01 5391.39 88.08 10.00  26.61 2682.86
   11:56:13.696.07-Aug-2020 5127.01 4982.69 88.08 10.00  26.81 2682.86
   11:56:13.896.07-Aug-2020 5127.01 4441.18 88.08 10.00  27.01 2682.86
   11:56:14.096.07-Aug-2020 5127.01 3990.09 88.08 10.00  27.21 2682.86
   11:56:14.296.07-Aug-2020 5127.01 3585.15 88.08 10.00  27.41 2682.86
   11:56:14.496.07-Aug-2020 5127.01 3383.59 88.07 10.00  27.61 2682.86
   11:56:14.696.07-Aug-2020 5127.01 3376.19 88.07 10.00  27.81 2682.86
   11:56:14.897.07-Aug-2020 5127.01 3374.69 88.07 10.00  28.01 2682.86
   11:56:15.097.07-Aug-2020 5127.01 3374.69 88.07 10.00  28.21 2682.86
   11:56:15.297.07-Aug-2020 5127.01 3373.89 88.07 10.00  28.41 2682.86
   11:56:15.497.07-Aug-2020 5127.01 3373.56 88.07 10.00  28.61 2682.86
   11:56:15.697.07-Aug-2020 5127.01 3373.34 88.07 10.00  28.81 2682.86
   11:56:15.897.07-Aug-2020 5127.01 3372.77 88.07 10.00  29.01 2682.86
   11:56:16.097.07-Aug-2020 5127.01 3372.77 88.07 10.00  29.21 2682.86
   11:56:16.297.07-Aug-2020 5127.01 3372.66 88.07 10.00  29.41 2682.86
   11:56:16.497.07-Aug-2020 5127.01 3372.46 88.07 10.00  29.61 2682.86
   11:56:16.697.07-Aug-2020 5127.01 3372.57 88.06 10.00  29.81 2682.86
   11:56:16.897.07-Aug-2020 5127.01 3371.32 88.06 10.00  30.01 2682.86
   11:56:17.097.07-Aug-2020 5127.01 3371.32 88.06 10.00  30.21 2682.86
   11:56:17.297.07-Aug-2020 5127.01 3372.47 88.06 10.00  30.41 2682.86
   11:56:17.498.07-Aug-2020 5127.01 3371.93 88.06 10.00  30.61 2682.86
   11:56:17.698.07-Aug-2020 5127.01 3371.06 88.06 10.00  30.81 2682.86
   11:56:17.898.07-Aug-2020 5127.01 3373.16 88.06 10.00  31.01 2682.86
   11:56:18.098.07-Aug-2020 5127.01 3373.16 88.06 10.00  31.21 2682.86
   11:56:18.298.07-Aug-2020 5127.01 3372.88 88.05 10.00  31.41 2682.86
   11:56:18.498.07-Aug-2020 5127.01 3372.78 88.05 10.00  31.61 2682.86
   11:56:18.698.07-Aug-2020 5127.01 3374.19 88.05 10.00  31.81 2682.86
   11:56:18.898.07-Aug-2020 5127.01 3374.18 88.05 10.00  32.01 2682.86
   11:56:19.098.07-Aug-2020 5127.01 3374.18 88.05 10.00  32.21 2682.86
   11:56:19.298.07-Aug-2020 5127.01 3375.50 88.05 10.00  32.41 2682.86
   11:56:19.498.07-Aug-2020 5127.01 3372.92 88.05 10.00  32.61 2682.86
   11:56:19.698.07-Aug-2020 5127.01 3376.00 88.04 10.00  32.81 2682.86
   11:56:19.898.07-Aug-2020 5127.01 3377.34 88.04 10.00  33.01 2682.86
   11:56:20.099.07-Aug-2020 5127.01 3377.34 88.04 10.00  33.21 2682.86
   11:56:20.299.07-Aug-2020 5127.01 3378.75 88.04 10.00  33.41 2682.86
   11:56:20.499.07-Aug-2020 5127.01 3380.40 88.04 10.00  33.61 2682.86
   11:56:20.699.07-Aug-2020 5127.01 3382.12 88.04 10.00  33.81 2682.86
   11:56:20.899.07-Aug-2020 5127.01 3384.86 88.04 10.00  34.01 2682.86
   11:56:21.099.07-Aug-2020 5127.01 3389.08 88.03 10.00  34.21 2682.86
   11:56:21.299.07-Aug-2020 5127.01 3393.03 88.03 10.00  34.41 2682.86
   11:56:21.499.07-Aug-2020 5127.01 3388.48 88.03 10.00  34.61 2682.86
   11:56:21.699.07-Aug-2020 5127.01 3390.41 88.03 10.00  34.81 2682.86
   11:56:21.899.07-Aug-2020 5127.01 3388.93 88.03 10.00  35.01 2682.86
   11:56:22.099.07-Aug-2020 5127.01 3387.09 88.03 10.00  35.21 2682.86
   11:56:22.299.07-Aug-2020 5127.01 3386.70 88.03 10.00  35.41 2682.86
   11:56:22.499.07-Aug-2020 5127.01 3386.33 88.03 10.00  35.61 2682.86
   11:56:22.700.07-Aug-2020 5127.01 3389.67 88.03 10.00  35.81 2682.86
   11:56:22.900.07-Aug-2020 5127.01 3414.15 88.02 10.00  36.01 2682.86
   11:56:23.100.07-Aug-2020 5127.01 3414.15 88.02 10.00  36.21 2682.86
   11:56:23.300.07-Aug-2020 5127.01 3414.43 88.02 10.00  36.41 2682.86
   11:56:23.500.07-Aug-2020 5127.01 3414.41 88.02 10.00  36.61 2682.86
   11:56:23.700.07-Aug-2020 5127.01 3414.36 88.02 10.00  36.81 2682.86
   11:56:23.900.07-Aug-2020 5127.01 3414.37 88.02 10.00  37.01 2682.86
   11:56:24.100.07-Aug-2020 5127.01 3414.37 88.02 10.00  37.21 2682.86
   11:56:24.300.07-Aug-2020 5127.01 3414.33 88.02 10.00  37.41 2682.86
   11:56:24.500.07-Aug-2020 5127.01 3414.35 88.01 10.00  37.61 2682.86
   11:56:24.700.07-Aug-2020 5127.01 3414.34 88.01 10.00  37.81 2682.86
   11:56:24.900.07-Aug-2020 5127.01 3414.33 88.01 10.00  38.01 2682.86
   11:56:25.100.07-Aug-2020 5127.01 3414.33 88.01 10.00  38.21 2682.86
   11:56:25.300.07-Aug-2020 5127.01 3414.44 88.01 10.00  38.41 2682.86
   11:56:25.501.07-Aug-2020 5127.01 3414.34 88.01 10.00  38.61 2682.86
   11:56:25.701.07-Aug-2020 5127.01 3414.21 88.01 10.00  38.81 2682.86
   11:56:25.901.07-Aug-2020 5127.01 3414.34 88.01 10.00  39.01 2682.86
   11:56:26.101.07-Aug-2020 5127.01 3414.31 88.01 10.00  39.21 2682.86
   11:56:26.301.07-Aug-2020 5127.01 3414.26 88.01 10.00  39.41 2682.86
   11:56:26.501.07-Aug-2020 5127.01 3414.34 88.00 10.00  39.61 2682.86
   11:56:26.701.07-Aug-2020 5127.01 3414.23 88.00 10.00  39.81 2682.86
   11:56:26.901.07-Aug-2020 5127.01 3414.17 88.00 10.00  40.02 2682.86
   11:56:27.101.07-Aug-2020 5127.01 3414.17 88.00 10.00  40.22 2682.86
   11:56:27.301.07-Aug-2020 5127.01 3414.31 88.00 10.00  40.42 2682.86
   11:56:27.501.07-Aug-2020 5127.01 3414.18 88.00 10.00  40.62 2682.86
   11:56:27.701.07-Aug-2020 5127.01 3414.41 88.00 10.00  40.82 2682.86
   11:56:27.901.07-Aug-2020 5127.01 3414.27 88.00 10.00  41.02 2682.86
   11:56:28.102.07-Aug-2020 5127.01 3414.27 88.00 10.00  41.22 2682.86
   11:56:28.302.07-Aug-2020 5127.01 3414.17 88.00 10.00  41.42 2682.86
   11:56:28.502.07-Aug-2020 5127.01 3414.46 88.00 10.00  41.62 2682.86
   11:56:28.702.07-Aug-2020 5127.01 3414.33 87.99 10.00  41.82 2682.86
   11:56:28.902.07-Aug-2020 5127.01 3414.22 87.99 10.00  42.02 2682.86
   11:56:29.102.07-Aug-2020 5127.01 3414.22 87.99 10.00  42.22 2682.86
   11:56:29.302.07-Aug-2020 5127.01 3414.32 87.99 10.00  42.42 2682.86
   11:56:29.502.07-Aug-2020 5127.01 3414.26 87.99 10.00  42.62 2682.86
   11:56:29.702.07-Aug-2020 5127.01 3414.33 87.99 10.00  42.82 2682.86
   11:56:29.902.07-Aug-2020 5127.01 3414.35 87.99 10.00  43.02 2682.86
   11:56:30.102.07-Aug-2020 5127.01 3414.29 87.99 10.00  43.22 2682.86
   11:56:30.302.07-Aug-2020 5127.01 3414.34 87.99 10.00  43.42 2682.86
   11:56:30.502.07-Aug-2020 5127.01 3414.36 87.99 10.00  43.62 2682.86
   11:56:30.703.07-Aug-2020 5127.01 3414.33 87.99 10.00  43.82 2682.86
   11:56:30.903.07-Aug-2020 5127.01 3414.36 87.99 10.00  44.02 2682.86
   11:56:31.103.07-Aug-2020 5127.01 3414.36 87.99 10.00  44.22 2682.86
   11:56:31.303.07-Aug-2020 5127.01 3414.36 87.98 10.00  44.42 2682.86
   11:56:31.503.07-Aug-2020 5127.01 3414.37 87.98 10.00  44.62 2682.86
   11:56:31.703.07-Aug-2020 5127.01 3414.36 87.98 10.00  44.82 2682.86
   11:56:31.903.07-Aug-2020 5127.01 3414.37 87.98 10.00  45.02 2682.86
