~Version Information
 VERS.                  2.0:   CWLS log ASCII Standard -VERSION 2.0
 WRAP.                   NO:   One line per depth step
~Well Information Block
#MNEM.UNIT     VALUE/NAME     DESCRIPTION
#---------     -----------    ---------------------------
 STRT.S             11:55:46 07-Aug-20: START TIME 11:55:46 07-Aug-20
 STOP.S             12:03:39 07-Aug-20: STOP TIME  12:03:39 07-Aug-20
 STEP.S                   0.00: STEP TIME
 NULL.                 -999.25: NULL VALUE
 DFWT.                        :  DIST FWL TEXT
 DFST.                        :  DIST FSL TEXT
 DMF .             Drill Floor:  DRILL MEAS FROM
 STIM.      12.00.00 03-Jul-20:  START TIME
 DATE.      00.50.00 09-Aug-20:  END TIME
 SPUD.               03-Jul-20:  SPUD DATE
 NREF.                    Grid:  NORTH REFERENCE
 HPTY.       Minimum Curvature:  HOLE POS TYPE
 DMOD.             Drill Model:  DRILL MOD DESC
 SVYD.                  Survey:  SURVEY DESC
 ILTD.               Lithology:  INTERP LTH DESC
 FTOP.          Formation Tops:  FORM TOPS DESC
 PDAT.          Mean Sea Level:  PERMANENT DATUM
 FLD .                     ACG:  FIELD NAME
 CTRY.              Azerbaijan:  COUNTRY NAME
 WELL.                    E04x:  WELL NAME
 SRVC.          Turan Drilling:  CONTRACTOR
 COMP.     BP Exploration (Caspian Sea) Ltd.:  COMPANY
 SON .        AZ-XX-0906531346:  JOB NUMBER
 WTYP.                Deviated:  WELL TYPE
 MDS .        Operator Entered:  MAG DATA SOURCE
 UWI .                     N/A:  UNIQUE WELL IDENTIFIER
 API .                     N/A:  API NUMBER
 BASE.              Azerbaijan:  LOGGING EQUIPMENT BASE LOCATION
 REGN.                   EESSA:  REGION
 PROV.                    Baku:  PROVINCE
 STAT.                    Baku:  STATE NAME
 MWDS.                    Baku:  MWD SHOP
 JOBN.        AZ-XX-0906531346:  JOB TICKET NUMB
 RIG .                     DWG:  RIG NAME
 DOE .                     N/A:  DOE NUMBER
 DCON.         Sperry Drilling:  DIRECTNL CONTR
 UNIT.                     N/A:  LOGGING EQUIPMENT ID
 CNTY.                        :  COUNTY
 LOC .                        :  LOCATION
 LMF .             Drill Floor:  LOG MEASURED FROM
 TVDS.m                  43.16:  TVDSS CORRECTN
 LATI.deg                40.17:  LATITUDE
 LONG.deg                51.17:  LONGITUDE
 WHNS.m                  -0.12:  WELL HEAD N/S
 WHEW.m                  -5.41:  WELL HEAD E/W
 UTMX.m              514337.95:  UTM X
 UTMY.m             4448627.46:  UTM Y
 DFWL.m                   0.00:  DISTANCE FWL
 DFSL.m                   0.00:  DISTANCE FSL
 SDEP.m                3088.01:  START DEPTH
 TDD .m                5200.01:  TOTAL DEPTH (DRILLER)
 VSDR.deg               244.51:  VERT SEC DIRECT
 GVFD.g                   1.00:  GRAVITY FIELD
 MFLD.nT              50329.80:  MAGNETIC FIELD
 MDIP.deg                59.63:  MAGNETIC DIP
 MDEC.deg                 6.59:  MAGNETIC DECL
 GRDC.deg                 0.09:  GRID CORRECTION
 AZTC.deg                 6.50:  AZM TOTAL CORR
 EPD .m                   0.00:  ELEVATION
 EGL .m                   0.00:  GROUND ELEVATION
 WDMS.m                 176.20:  WD ELEV
 APD .m                  43.16:  DEPTH ABOVE PD
 DEP .m                3084.71:  DEPTH
 AGAP.m                  43.16:  AIR GAP
 VSEW.m                  -5.41:  VERT SEC E/W
 VSNS.m                  -0.12:  VERT SEC N/S
 EKB .m                   0.00:  KB ELEVATION
 EDF .m                  43.16:  DF ELEVATION
 TDL .m                 243.00:  TOTAL DEPTH (LOGGER)
 VSC .                       0:  VS TO CLOSURE
 MAGU.                 1853542:  MAGUTM CHECKSUM
~Parameter Information Block
#MNEM.UNIT       Value        Description
#---------     -----------    ---------------------------
 AV  .mps                 1.91:  Ann Velocity 
 AVMX.mps                 2.52:  Max Ann Veloc 
 AZIF.deg               308.97:  Azm, Final 
 BHAT.        Rotary Steerable:  BHA Type 
 BROT.°/30m               1.00:  Build Rotating 
 BS  .in                  6.50:  Bit Size 
 BSZ .in                  6.50:  Bit Size 
 BTPL.psig              350.00:  Bit Press Loss 
 CABU.                      No:  Customer Abuse 
 CGEO.           Asif Pashayev:  Customer Geo 
 COMM.                     ¤4N:  Run Comments 1 
 TCS .hr                 35.86:  Time Ciculation Ended 
 CV  .mps                 2.31:  Crit Velocity 
 CVMX.mps                 2.31:  Max Crit Veloc 
 DD1 .         Intigam Rahimov:  Direct Drillr 1 
 DDSV.               Geo-Pilot:  DD Service 
 DEFF.%                  92.00:  % Det Eff 
 DLRX.°/30m               1.00:  Dogleg Rot Max 
 DLSO.°/30m               1.00:  Dogleg Oriented 
 DLSX.°/30m               1.42:  Dogleg Str Max 
 DRET.      15.50.00 07-Aug-20:  Drill End Time 
 DRST.      10.40.00 06-Aug-20:  Drill Start Tim 
 DTIM.hr                 21.30:  Time Drilling 
 EDEP.m                5200.01:  End Depth 
 ENG1.            Alan Tuganov:  Engineer 1 
 ENG2.         Almaz Almadatov:  Engineer 2 
 ENG3.     Zammelal Abdullah Sani:  Engineer 3 
 ETIM.      22.42.00 08-Aug-20:  End Time 
 FLOI.gpm               395.00:  Flow In 
 FLON.gpm               350.00:  Flow In Min 
 FLOS.cptm                0.00:  Fluid Loss 
 FLOX.gpm               404.00:  Flow In Max 
 FTRO.       Formation Presure:  FTWD Run Obj 
 HFLO.                      No:  High Flow 
 HPRE.                      No:  High Pressure 
 HTEM.                      No:  High Temp 
 HYDO.m                   1.80:  Hydro Offset 
 IFIN.deg                72.64:  Inc, Final 
 IMAX.deg                73.68:  Inc Max 
 IMIN.deg                72.64:  Inc Min 
 IMND.m                5189.69:  Inc Min Depth 
 IMXD.m                5067.88:  Inc Max Depth 
 JARR.                      No:  Jarring 
 LETM.      15.50.00 07-Aug-20:  Log End Time 
 LOST.hr                     0:  Lost Rig Time 
 LSTM.      10.40.00 06-Aug-20:  Log Start Time 
 MDCL.ppm             36000.00:  Mud Chlorides 
 MDES.     Inversion Oil/Synthetic:  Mud Desc 
 DFD .sg                  1.36:  Mud Density 
 MDMN.sg                  1.36:  Dens Mud Min 
 MDMX.sg                  1.36:  Dens Mud Max 
 MOIL.                      70:  Run Mud Oil % 
 MOWR.                   70:30:  Run Mud OWR 
 MSND.                    0.00:  Run Mud Sand % 
 MSOL.                   17.60:  Run Mud Solids% 
 DFV .spqt               73.00:  Mud Viscosity 
 MWOD.in                  4.75:  MWD Tool OD 
 MWSI.                      No:  Serv Intrp, MWD 
 OTIM.hr                 85.66:  Time Operating 
 PCON.           Look Like New:  Pad Condition 
 PMAX.psia             6250.00:  Press Op, Max 
 PV  .cP                 65.00:  Mud PV 
 RUN .                     900:  Run Number 
 ROPA.m/hr               11.40:  ROP Avg 
 ROPN.m/hr                5.00:  ROP Min 
 ROPX.m/hr               20.00:  ROP Max 
 RPMA.rpm               130.00:  RPM Surface Avg 
 RPMN.rpm                40.00:  RPM Surface Min 
 RPMX.rpm               140.00:  RPM Surface Max 
 RRUN.                    L205:  Rig Run Number 
 RTIM.hr                  1.00:  Time Reaming 
 SAZI.deg               313.52:  Azm, Start 
 SDEP.m                4957.01:  Start Depth 
 SIDD.                      No:  Serv Intrp, DD 
 SINC.deg                73.16:  Inc, Start 
 SPPA.psig             5657.00:  SPP Avg 
 SPPN.psig             2500.00:  SPP Min 
 SPPX.psig             5806.00:  SPP Max 
 STIM.      07.12.00 05-Aug-20:  Start Time 
 SVCS.                 DD, MWD:  Services 
 SVER.                    9.20:  Sperry Version 
 TDAT.m                 243.00:  Tot Depth Attmp 
 TDDF.                      No:  Trip for DD 
 TDLG.m                 243.00:  Tot Depth Loggd 
 TFF .                      No:  Trip for Fail 
 TQAA.f-kp               13.00:  Torque Abs Avg 
 TQAN.f-kp               11.00:  Torque Abs Min 
 TQAX.f-kp               16.00:  Torque Abs Max 
 TRRT.°/30m               1.00:  Turn Rotating 
 MRT .                    HCIM:  Maximum Recorded Temperature 
 TTMX.degC               96.08:  Max Tool Temp 
 VS01.                90515411:  Virtual Str1 SN 
 VS02.                90512716:  Virtual Str2 SN 
 VS03.                90522362:  Virtual Str3 SN 
 VS04.                90619415:  Virtual Str4 SN 
 VS05.                90619414:  Virtual Str5 SN 
 VS06.                90597748:  Virtual Str6 SN 
 WBMN.klb                 2.00:  WOB Min 
 WITN.           Adil Mammadov:  Customer Rep 
 WITN.     Alexander Yadullayev:  Customer Rep 2 
 WOBA.klb                 7.00:  WOB Avg 
 WOBX.klb                23.00:  WOB Max 
 YP  .lhf2               37.00:  Yield Point 
~Curve Information Block
#MNEM.UNIT                 API CODE     Curve Description
#---------               -----------    ---------------------------
 TIME.HHMMSS            00 000 000 000:  GT Time & Date
 GTDEPTH.m              00 000 000 000:  GT Depth
 GTPQH.psia             00 000 000 000:  GT HR Quartz Pressure
 GTTQ.degC              00 000 000 000:  GT Quartz Temperature
 GTTN.NONE              00 000 000 000:  GT Test Number
 GTET.sec               00 000 000 000:  GT Elapsed Test Time
 GTTVD.m                00 000 000 000:  GT True Vertical Depth
#Other Information
#
#WARRANTY: Halliburton will use its best efforts to furnish customers with 
#accurate information and interpretations that are part of, and incident to, the services 
#provided.  However, Halliburton cannot and does not warrant the accuracy 
#or correctness of such information and interpretations.  Under no circumstances should any 
#such information or interpretation be relied upon as the sole basis for any drilling, 
#completion, production, or financial decision or any procedure involving any risk to the 
#safety of any drilling venture, drilling rig or its crew or any other third party.  The 
#Customer has full responsibility for all drilling, completion and production operation.  
#Halliburton makes no representations or warranties, either expressed or 
#implied, including, but not limited to, the implied warranties of merchantability or fitness 
#for a particular purpose, with respect to the services rendered.  In no event will 
#Halliburton be liable for failure to obtain any particular results or for 
#any damages, including, but not limited to, indirect, special or consequential damages, 
#resulting from the use of any information or interpretation provided by Halliburton.
#
~A           TIME           GTDEPTH  GTPQH  GTTQ  GTTN   GTET   GTTVD  
# ...
   12:03:19.056.07-Aug-2020 5127.01 5904.49 87.15 10.00 452.17 2682.86
   12:03:19.256.07-Aug-2020 5127.01 5904.49 87.15 10.00 452.37 2682.86
   12:03:19.456.07-Aug-2020 5127.01 5893.39 87.15 10.00 452.57 2682.86
   12:03:19.656.07-Aug-2020 5127.01 5903.57 87.15 10.00 452.77 2682.86
   12:03:19.856.07-Aug-2020 5127.01 5904.88 87.15 10.00 452.97 2682.86
   12:03:20.056.07-Aug-2020 5127.01 5896.01 87.15 10.00 453.17 2682.86
   12:03:20.256.07-Aug-2020 5127.01 5896.01 87.15 10.00 453.37 2682.86
   12:03:20.456.07-Aug-2020 5127.01 5904.13 87.15 10.00 453.57 2682.86
   12:03:20.656.07-Aug-2020 5127.01 5904.26 87.15 10.00 453.77 2682.86
   12:03:20.857.07-Aug-2020 5127.01 5896.39 87.15 10.00 453.97 2682.86
   12:03:21.057.07-Aug-2020 5127.01 5902.49 87.15 10.00 454.17 2682.86
   12:03:21.257.07-Aug-2020 5127.01 5902.49 87.15 10.00 454.37 2682.86
   12:03:21.457.07-Aug-2020 5127.01 5902.07 87.15 10.00 454.57 2682.86
   12:03:21.657.07-Aug-2020 5127.01 5901.79 87.15 10.00 454.77 2682.86
   12:03:21.857.07-Aug-2020 5127.01 5903.46 87.15 10.00 454.97 2682.86
   12:03:22.057.07-Aug-2020 5127.01 5902.52 87.15 10.00 455.17 2682.86
   12:03:22.257.07-Aug-2020 5127.01 5904.36 87.15 10.00 455.37 2682.86
   12:03:22.457.07-Aug-2020 5127.01 5903.75 87.15 10.00 455.57 2682.86
   12:03:22.657.07-Aug-2020 5127.01 5903.73 87.15 10.00 455.77 2682.86
   12:03:22.857.07-Aug-2020 5127.01 5899.83 87.15 10.00 455.97 2682.86
   12:03:23.057.07-Aug-2020 5127.01 5901.38 87.15 10.00 456.17 2682.86
   12:03:23.257.07-Aug-2020 5127.01 5901.38 87.15 10.00 456.37 2682.86
   12:03:23.458.07-Aug-2020 5127.01 5902.00 87.15 10.00 456.57 2682.86
   12:03:23.658.07-Aug-2020 5127.01 5901.82 87.15 10.00 456.77 2682.86
   12:03:23.858.07-Aug-2020 5127.01 5904.28 87.15 10.00 456.97 2682.86
   12:03:24.058.07-Aug-2020 5127.01 5904.70 87.15 10.00 457.17 2682.86
   12:03:24.258.07-Aug-2020 5127.01 5904.70 87.15 10.00 457.37 2682.86
   12:03:24.458.07-Aug-2020 5127.01 5904.13 87.15 10.00 457.57 2682.86
   12:03:24.658.07-Aug-2020 5127.01 5904.40 87.15 10.00 457.77 2682.86
   12:03:24.858.07-Aug-2020 5127.01 5903.85 87.15 10.00 457.97 2682.86
   12:03:25.058.07-Aug-2020 5127.01 5902.61 87.15 10.00 458.17 2682.86
   12:03:25.258.07-Aug-2020 5127.01 5902.61 87.15 10.00 458.37 2682.86
   12:03:25.458.07-Aug-2020 5127.01 5902.23 87.15 10.00 458.57 2682.86
   12:03:25.658.07-Aug-2020 5127.01 5903.10 87.15 10.00 458.77 2682.86
   12:03:25.858.07-Aug-2020 5127.01 5893.34 87.15 10.00 458.97 2682.86
   12:03:26.058.07-Aug-2020 5127.01 5903.83 87.15 10.00 459.17 2682.86
   12:03:26.259.07-Aug-2020 5127.01 5905.47 87.15 10.00 459.37 2682.86
   12:03:26.459.07-Aug-2020 5127.01 5897.59 87.15 10.00 459.57 2682.86
   12:03:26.659.07-Aug-2020 5127.01 5892.35 87.15 10.00 459.77 2682.86
   12:03:26.859.07-Aug-2020 5127.01 5904.43 87.15 10.00 459.97 2682.86
   12:03:27.059.07-Aug-2020 5127.01 5903.63 87.15 10.00 460.17 2682.86
   12:03:27.259.07-Aug-2020 5127.01 5903.63 87.15 10.00 460.37 2682.86
   12:03:27.459.07-Aug-2020 5127.01 5896.07 87.15 10.00 460.57 2682.86
   12:03:27.659.07-Aug-2020 5127.01 5902.67 87.15 10.00 460.77 2682.86
   12:03:27.859.07-Aug-2020 5127.01 5900.18 87.15 10.00 460.97 2682.86
   12:03:28.059.07-Aug-2020 5127.01 5899.04 87.15 10.00 461.17 2682.86
   12:03:28.259.07-Aug-2020 5127.01 5899.04 87.15 10.00 461.37 2682.86
   12:03:28.459.07-Aug-2020 5127.01 5903.81 87.15 10.00 461.57 2682.86
   12:03:28.659.07-Aug-2020 5127.01 5893.29 87.15 10.00 461.77 2682.86
   12:03:28.860.07-Aug-2020 5127.01 5903.18 87.15 10.00 461.97 2682.86
   12:03:29.060.07-Aug-2020 5127.01 5906.98 87.15 10.00 462.17 2682.86
   12:03:29.260.07-Aug-2020 5127.01 5906.98 87.15 10.00 462.37 2682.86
   12:03:29.460.07-Aug-2020 5127.01 5903.11 87.14 10.00 462.57 2682.86
   12:03:29.660.07-Aug-2020 5127.01 5903.98 87.14 10.00 462.77 2682.86
   12:03:29.860.07-Aug-2020 5127.01 5902.39 87.14 10.00 462.97 2682.86
   12:03:30.060.07-Aug-2020 5127.01 5902.67 87.14 10.00 463.17 2682.86
   12:03:30.260.07-Aug-2020 5127.01 5904.81 87.14 10.00 463.37 2682.86
   12:03:30.460.07-Aug-2020 5127.01 5902.89 87.14 10.00 463.57 2682.86
   12:03:30.660.07-Aug-2020 5127.01 5903.02 87.14 10.00 463.77 2682.86
   12:03:30.860.07-Aug-2020 5127.01 5903.03 87.14 10.00 463.97 2682.86
   12:03:31.060.07-Aug-2020 5127.01 5904.75 87.14 10.00 464.17 2682.86
   12:03:31.260.07-Aug-2020 5127.01 5904.75 87.14 10.00 464.37 2682.86
   12:03:31.461.07-Aug-2020 5127.01 5902.98 87.14 10.00 464.57 2682.86
   12:03:31.661.07-Aug-2020 5127.01 5905.12 87.14 10.00 464.77 2682.86
   12:03:31.861.07-Aug-2020 5127.01 5901.50 87.14 10.00 464.97 2682.86
   12:03:32.061.07-Aug-2020 5127.01 5900.92 87.14 10.00 465.17 2682.86
   12:03:32.261.07-Aug-2020 5127.01 5904.12 87.14 10.00 465.37 2682.86
   12:03:32.461.07-Aug-2020 5127.01 5903.15 87.14 10.00 465.57 2682.86
   12:03:32.661.07-Aug-2020 5127.01 5901.82 87.14 10.00 465.77 2682.86
   12:03:32.861.07-Aug-2020 5127.01 5902.63 87.14 10.00 465.97 2682.86
   12:03:33.061.07-Aug-2020 5127.01 5903.93 87.14 10.00 466.18 2682.86
   12:03:33.261.07-Aug-2020 5127.01 5903.93 87.14 10.00 466.38 2682.86
   12:03:33.461.07-Aug-2020 5127.01 5902.77 87.14 10.00 466.58 2682.86
   12:03:33.661.07-Aug-2020 5127.01 5903.41 87.14 10.00 466.78 2682.86
   12:03:33.861.07-Aug-2020 5127.01 5902.51 87.14 10.00 466.98 2682.86
   12:03:34.061.07-Aug-2020 5127.01 5902.77 87.14 10.00 467.18 2682.86
   12:03:34.262.07-Aug-2020 5127.01 5893.67 87.14 10.00 467.38 2682.86
   12:03:34.462.07-Aug-2020 5127.01 5903.10 87.14 10.00 467.58 2682.86
   12:03:34.662.07-Aug-2020 5127.01 5904.35 87.14 10.00 467.78 2682.86
   12:03:34.862.07-Aug-2020 5127.01 5889.91 87.14 10.00 467.98 2682.86
   12:03:35.062.07-Aug-2020 5127.01 5900.30 87.14 10.00 468.18 2682.86
   12:03:35.262.07-Aug-2020 5127.01 5900.30 87.14 10.00 468.38 2682.86
   12:03:35.462.07-Aug-2020 5127.01 5896.83 87.14 10.00 468.58 2682.86
   12:03:35.662.07-Aug-2020 5127.01 5900.41 87.14 10.00 468.78 2682.86
   12:03:35.862.07-Aug-2020 5127.01 5895.17 87.14 10.00 468.98 2682.86
   12:03:36.062.07-Aug-2020 5127.01 5901.54 87.13 10.00 469.18 2682.86
   12:03:36.262.07-Aug-2020 5127.01 5901.54 87.13 10.00 469.38 2682.86
   12:03:36.462.07-Aug-2020 5127.01 5898.95 87.13 10.00 469.58 2682.86
   12:03:36.662.07-Aug-2020 5127.01 5901.33 87.13 10.00 469.78 2682.86
   12:03:36.863.07-Aug-2020 5127.01 5895.79 87.13 10.00 469.98 2682.86
   12:03:37.063.07-Aug-2020 5127.01 5900.12 87.13 10.00 470.18 2682.86
   12:03:37.263.07-Aug-2020 5127.01 5900.12 87.13 10.00 470.38 2682.86
   12:03:37.463.07-Aug-2020 5127.01 5899.24 87.13 10.00 470.58 2682.86
   12:03:37.663.07-Aug-2020 5127.01 5900.05 87.13 10.00 470.78 2682.86
   12:03:37.863.07-Aug-2020 5127.01 5901.96 87.13 10.00 470.98 2682.86
   12:03:38.063.07-Aug-2020 5127.01 5902.08 87.13 10.00 471.18 2682.86
   12:03:38.263.07-Aug-2020 5127.01 5902.08 87.13 10.00 471.38 2682.86
   12:03:38.463.07-Aug-2020 5127.01 5902.26 87.13 10.00 471.58 2682.86
   12:03:38.663.07-Aug-2020 5127.01 5903.35 87.13 10.00 471.78 2682.86
   12:03:38.863.07-Aug-2020 5127.01 5901.64 87.13 10.00 471.98 2682.86
   12:03:39.063.07-Aug-2020 5127.01 5902.46 87.13 10.00 472.18 2682.86
   12:03:39.263.07-Aug-2020 5127.01 5902.46 87.13 10.00 472.38 2682.86
   12:03:39.464.07-Aug-2020 5127.01 5903.34 87.13 10.00 472.58 2682.86
   12:03:39.664.07-Aug-2020 5127.01 5895.15 87.13 10.00 472.78 2682.86
   12:03:39.864.07-Aug-2020 5127.01 5902.58 87.13 10.00 472.98 2682.86
