~Version Information
 VERS.                  2.0:   CWLS log ASCII Standard -VERSION 2.0
 WRAP.                   NO:   One line per depth step
~Well Information Block
#MNEM.UNIT     VALUE/NAME     DESCRIPTION
#---------     -----------    ---------------------------
 STRT.S             11:55:46 07-Aug-20: START TIME 11:55:46 07-Aug-20
 STOP.S             12:03:39 07-Aug-20: STOP TIME  12:03:39 07-Aug-20
 STEP.S                   0.00: STEP TIME
 NULL.                 -999.25: NULL VALUE
 DFWT.                        :  DIST FWL TEXT
 DFST.                        :  DIST FSL TEXT
 DMF .             Drill Floor:  DRILL MEAS FROM
 STIM.      12.00.00 03-Jul-20:  START TIME
 DATE.      00.50.00 09-Aug-20:  END TIME
 SPUD.               03-Jul-20:  SPUD DATE
 NREF.                    Grid:  NORTH REFERENCE
 HPTY.       Minimum Curvature:  HOLE POS TYPE
 DMOD.             Drill Model:  DRILL MOD DESC
 SVYD.                  Survey:  SURVEY DESC
 ILTD.               Lithology:  INTERP LTH DESC
 FTOP.          Formation Tops:  FORM TOPS DESC
 PDAT.          Mean Sea Level:  PERMANENT DATUM
 FLD .                     ACG:  FIELD NAME
 CTRY.              Azerbaijan:  COUNTRY NAME
 WELL.                    E04x:  WELL NAME
 SRVC.          Turan Drilling:  CONTRACTOR
 COMP.     BP Exploration (Caspian Sea) Ltd.:  COMPANY
 SON .        AZ-XX-0906531346:  JOB NUMBER
 WTYP.                Deviated:  WELL TYPE
 MDS .        Operator Entered:  MAG DATA SOURCE
 UWI .                     N/A:  UNIQUE WELL IDENTIFIER
 API .                     N/A:  API NUMBER
 BASE.              Azerbaijan:  LOGGING EQUIPMENT BASE LOCATION
 REGN.                   EESSA:  REGION
 PROV.                    Baku:  PROVINCE
 STAT.                    Baku:  STATE NAME
 MWDS.                    Baku:  MWD SHOP
 JOBN.        AZ-XX-0906531346:  JOB TICKET NUMB
 RIG .                     DWG:  RIG NAME
 DOE .                     N/A:  DOE NUMBER
 DCON.         Sperry Drilling:  DIRECTNL CONTR
 UNIT.                     N/A:  LOGGING EQUIPMENT ID
 CNTY.                        :  COUNTY
 LOC .                        :  LOCATION
 LMF .             Drill Floor:  LOG MEASURED FROM
 TVDS.m                  43.16:  TVDSS CORRECTN
 LATI.deg                40.17:  LATITUDE
 LONG.deg                51.17:  LONGITUDE
 WHNS.m                  -0.12:  WELL HEAD N/S
 WHEW.m                  -5.41:  WELL HEAD E/W
 UTMX.m              514337.95:  UTM X
 UTMY.m             4448627.46:  UTM Y
 DFWL.m                   0.00:  DISTANCE FWL
 DFSL.m                   0.00:  DISTANCE FSL
 SDEP.m                3088.01:  START DEPTH
 TDD .m                5200.01:  TOTAL DEPTH (DRILLER)
 VSDR.deg               244.51:  VERT SEC DIRECT
 GVFD.g                   1.00:  GRAVITY FIELD
 MFLD.nT              50329.80:  MAGNETIC FIELD
 MDIP.deg                59.63:  MAGNETIC DIP
 MDEC.deg                 6.59:  MAGNETIC DECL
 GRDC.deg                 0.09:  GRID CORRECTION
 AZTC.deg                 6.50:  AZM TOTAL CORR
 EPD .m                   0.00:  ELEVATION
 EGL .m                   0.00:  GROUND ELEVATION
 WDMS.m                 176.20:  WD ELEV
 APD .m                  43.16:  DEPTH ABOVE PD
 DEP .m                3084.71:  DEPTH
 AGAP.m                  43.16:  AIR GAP
 VSEW.m                  -5.41:  VERT SEC E/W
 VSNS.m                  -0.12:  VERT SEC N/S
 EKB .m                   0.00:  KB ELEVATION
 EDF .m                  43.16:  DF ELEVATION
 TDL .m                 243.00:  TOTAL DEPTH (LOGGER)
 VSC .                       0:  VS TO CLOSURE
 MAGU.                 1853542:  MAGUTM CHECKSUM
~Parameter Information Block
#MNEM.UNIT       Value        Description
#---------     -----------    ---------------------------
 AV  .mps                 1.91:  Ann Velocity 
 AVMX.mps                 2.52:  Max Ann Veloc 
 AZIF.deg               308.97:  Azm, Final 
 BHAT.        Rotary Steerable:  BHA Type 
 BROT.°/30m               1.00:  Build Rotating 
 BS  .in                  6.50:  Bit Size 
 BSZ .in                  6.50:  Bit Size 
 BTPL.psig              350.00:  Bit Press Loss 
 CABU.                      No:  Customer Abuse 
 CGEO.           Asif Pashayev:  Customer Geo 
 COMM.                     ¤4N:  Run Comments 1 
 TCS .hr                 35.86:  Time Ciculation Ended 
 CV  .mps                 2.31:  Crit Velocity 
 CVMX.mps                 2.31:  Max Crit Veloc 
 DD1 .         Intigam Rahimov:  Direct Drillr 1 
 DDSV.               Geo-Pilot:  DD Service 
 DEFF.%                  92.00:  % Det Eff 
 DLRX.°/30m               1.00:  Dogleg Rot Max 
 DLSO.°/30m               1.00:  Dogleg Oriented 
 DLSX.°/30m               1.42:  Dogleg Str Max 
 DRET.      15.50.00 07-Aug-20:  Drill End Time 
 DRST.      10.40.00 06-Aug-20:  Drill Start Tim 
 DTIM.hr                 21.30:  Time Drilling 
 EDEP.m                5200.01:  End Depth 
 ENG1.            Alan Tuganov:  Engineer 1 
 ENG2.         Almaz Almadatov:  Engineer 2 
 ENG3.     Zammelal Abdullah Sani:  Engineer 3 
 ETIM.      22.42.00 08-Aug-20:  End Time 
 FLOI.gpm               395.00:  Flow In 
 FLON.gpm               350.00:  Flow In Min 
 FLOS.cptm                0.00:  Fluid Loss 
 FLOX.gpm               404.00:  Flow In Max 
 FTRO.       Formation Presure:  FTWD Run Obj 
 HFLO.                      No:  High Flow 
 HPRE.                      No:  High Pressure 
 HTEM.                      No:  High Temp 
 HYDO.m                   1.80:  Hydro Offset 
 IFIN.deg                72.64:  Inc, Final 
 IMAX.deg                73.68:  Inc Max 
 IMIN.deg                72.64:  Inc Min 
 IMND.m                5189.69:  Inc Min Depth 
 IMXD.m                5067.88:  Inc Max Depth 
 JARR.                      No:  Jarring 
 LETM.      15.50.00 07-Aug-20:  Log End Time 
 LOST.hr                     0:  Lost Rig Time 
 LSTM.      10.40.00 06-Aug-20:  Log Start Time 
 MDCL.ppm             36000.00:  Mud Chlorides 
 MDES.     Inversion Oil/Synthetic:  Mud Desc 
 DFD .sg                  1.36:  Mud Density 
 MDMN.sg                  1.36:  Dens Mud Min 
 MDMX.sg                  1.36:  Dens Mud Max 
 MOIL.                      70:  Run Mud Oil % 
 MOWR.                   70:30:  Run Mud OWR 
 MSND.                    0.00:  Run Mud Sand % 
 MSOL.                   17.60:  Run Mud Solids% 
 DFV .spqt               73.00:  Mud Viscosity 
 MWOD.in                  4.75:  MWD Tool OD 
 MWSI.                      No:  Serv Intrp, MWD 
 OTIM.hr                 85.66:  Time Operating 
 PCON.           Look Like New:  Pad Condition 
 PMAX.psia             6250.00:  Press Op, Max 
 PV  .cP                 65.00:  Mud PV 
 RUN .                     900:  Run Number 
 ROPA.m/hr               11.40:  ROP Avg 
 ROPN.m/hr                5.00:  ROP Min 
 ROPX.m/hr               20.00:  ROP Max 
 RPMA.rpm               130.00:  RPM Surface Avg 
 RPMN.rpm                40.00:  RPM Surface Min 
 RPMX.rpm               140.00:  RPM Surface Max 
 RRUN.                    L205:  Rig Run Number 
 RTIM.hr                  1.00:  Time Reaming 
 SAZI.deg               313.52:  Azm, Start 
 SDEP.m                4957.01:  Start Depth 
 SIDD.                      No:  Serv Intrp, DD 
 SINC.deg                73.16:  Inc, Start 
 SPPA.psig             5657.00:  SPP Avg 
 SPPN.psig             2500.00:  SPP Min 
 SPPX.psig             5806.00:  SPP Max 
 STIM.      07.12.00 05-Aug-20:  Start Time 
 SVCS.                 DD, MWD:  Services 
 SVER.                    9.20:  Sperry Version 
 TDAT.m                 243.00:  Tot Depth Attmp 
 TDDF.                      No:  Trip for DD 
 TDLG.m                 243.00:  Tot Depth Loggd 
 TFF .                      No:  Trip for Fail 
 TQAA.f-kp               13.00:  Torque Abs Avg 
 TQAN.f-kp               11.00:  Torque Abs Min 
 TQAX.f-kp               16.00:  Torque Abs Max 
 TRRT.°/30m               1.00:  Turn Rotating 
 MRT .                    HCIM:  Maximum Recorded Temperature 
 TTMX.degC               96.08:  Max Tool Temp 
 VS01.                90515411:  Virtual Str1 SN 
 VS02.                90512716:  Virtual Str2 SN 
 VS03.                90522362:  Virtual Str3 SN 
 VS04.                90619415:  Virtual Str4 SN 
 VS05.                90619414:  Virtual Str5 SN 
 VS06.                90597748:  Virtual Str6 SN 
 WBMN.klb                 2.00:  WOB Min 
 WITN.           Adil Mammadov:  Customer Rep 
 WITN.     Alexander Yadullayev:  Customer Rep 2 
 WOBA.klb                 7.00:  WOB Avg 
 WOBX.klb                23.00:  WOB Max 
 YP  .lhf2               37.00:  Yield Point 
~Curve Information Block
#MNEM.UNIT                 API CODE     Curve Description
#---------               -----------    ---------------------------
 TIME.HHMMSS            00 000 000 000:  GT Time & Date
 GTDEPTH.m              00 000 000 000:  GT Depth
 GTPQH.psia             00 000 000 000:  GT HR Quartz Pressure
 GTTQ.degC              00 000 000 000:  GT Quartz Temperature
 GTTN.NONE              00 000 000 000:  GT Test Number
 GTET.sec               00 000 000 000:  GT Elapsed Test Time
 GTTVD.m                00 000 000 000:  GT True Vertical Depth
#Other Information
#
#WARRANTY: Halliburton will use its best efforts to furnish customers with 
#accurate information and interpretations that are part of, and incident to, the services 
#provided.  However, Halliburton cannot and does not warrant the accuracy 
#or correctness of such information and interpretations.  Under no circumstances should any 
#such information or interpretation be relied upon as the sole basis for any drilling, 
#completion, production, or financial decision or any procedure involving any risk to the 
#safety of any drilling venture, drilling rig or its crew or any other third party.  The 
#Customer has full responsibility for all drilling, completion and production operation.  
#Halliburton makes no representations or warranties, either expressed or 
#implied, including, but not limited to, the implied warranties of merchantability or fitness 
#for a particular purpose, with respect to the services rendered.  In no event will 
#Halliburton be liable for failure to obtain any particular results or for 
#any damages, including, but not limited to, indirect, special or consequential damages, 
#resulting from the use of any information or interpretation provided by Halliburton.
#
~A           TIME           GTDEPTH  GTPQH  GTTQ  GTTN   GTET   GTTVD  
# ...
   11:59:10.362.07-Aug-2020 5127.01 3414.10 87.59 10.00 203.48 2682.86
   11:59:10.563.07-Aug-2020 5127.01 3414.22 87.59 10.00 203.68 2682.86
   11:59:10.763.07-Aug-2020 5127.01 3414.20 87.59 10.00 203.88 2682.86
   11:59:10.963.07-Aug-2020 5127.01 3413.99 87.59 10.00 204.08 2682.86
   11:59:11.163.07-Aug-2020 5127.01 3414.32 87.58 10.00 204.28 2682.86
   11:59:11.363.07-Aug-2020 5127.01 3414.23 87.58 10.00 204.48 2682.86
   11:59:11.563.07-Aug-2020 5127.01 3414.10 87.58 10.00 204.68 2682.86
   11:59:11.763.07-Aug-2020 5127.01 3414.22 87.58 10.00 204.88 2682.86
   11:59:11.963.07-Aug-2020 5127.01 3414.20 87.58 10.00 205.08 2682.86
   11:59:12.163.07-Aug-2020 5127.01 3414.20 87.58 10.00 205.28 2682.86
   11:59:12.363.07-Aug-2020 5127.01 3414.22 87.58 10.00 205.48 2682.86
   11:59:12.563.07-Aug-2020 5127.01 3414.24 87.58 10.00 205.68 2682.86
   11:59:12.763.07-Aug-2020 5127.01 3414.12 87.58 10.00 205.88 2682.86
   11:59:12.963.07-Aug-2020 5127.01 3414.19 87.58 10.00 206.08 2682.86
   11:59:13.164.07-Aug-2020 5127.01 3414.19 87.58 10.00 206.28 2682.86
   11:59:13.364.07-Aug-2020 5127.01 3414.16 87.58 10.00 206.48 2682.86
   11:59:13.564.07-Aug-2020 5127.01 3414.18 87.58 10.00 206.68 2682.86
   11:59:13.764.07-Aug-2020 5127.01 3414.17 87.58 10.00 206.88 2682.86
   11:59:13.964.07-Aug-2020 5127.01 3414.19 87.58 10.00 207.08 2682.86
   11:59:14.164.07-Aug-2020 5127.01 3414.18 87.58 10.00 207.28 2682.86
   11:59:14.364.07-Aug-2020 5127.01 3414.18 87.58 10.00 207.48 2682.86
   11:59:14.564.07-Aug-2020 5127.01 3414.16 87.58 10.00 207.68 2682.86
   11:59:14.764.07-Aug-2020 5127.01 3414.14 87.58 10.00 207.88 2682.86
   11:59:14.964.07-Aug-2020 5127.01 3414.23 87.58 10.00 208.08 2682.86
   11:59:15.164.07-Aug-2020 5127.01 3414.23 87.58 10.00 208.28 2682.86
   11:59:15.364.07-Aug-2020 5127.01 3414.11 87.58 10.00 208.48 2682.86
   11:59:15.564.07-Aug-2020 5127.01 3414.22 87.58 10.00 208.68 2682.86
   11:59:15.764.07-Aug-2020 5127.01 3414.19 87.58 10.00 208.88 2682.86
   11:59:15.965.07-Aug-2020 5127.01 3414.17 87.58 10.00 209.08 2682.86
   11:59:16.165.07-Aug-2020 5127.01 3414.17 87.58 10.00 209.28 2682.86
   11:59:16.365.07-Aug-2020 5127.01 3414.18 87.57 10.00 209.48 2682.86
   11:59:16.565.07-Aug-2020 5127.01 3414.19 87.57 10.00 209.68 2682.86
   11:59:16.765.07-Aug-2020 5127.01 3414.16 87.57 10.00 209.88 2682.86
   11:59:16.965.07-Aug-2020 5127.01 3414.16 87.57 10.00 210.08 2682.86
   11:59:17.165.07-Aug-2020 5127.01 3414.16 87.57 10.00 210.28 2682.86
   11:59:17.365.07-Aug-2020 5127.01 3414.17 87.57 10.00 210.48 2682.86
   11:59:17.565.07-Aug-2020 5127.01 3413.94 87.57 10.00 210.68 2682.86
   11:59:17.765.07-Aug-2020 5127.01 3414.36 87.57 10.00 210.88 2682.86
   11:59:17.965.07-Aug-2020 5127.01 3414.20 87.57 10.00 211.08 2682.86
   11:59:18.165.07-Aug-2020 5127.01 3414.20 87.57 10.00 211.28 2682.86
   11:59:18.365.07-Aug-2020 5127.01 3414.15 87.57 10.00 211.48 2682.86
   11:59:18.566.07-Aug-2020 5127.01 3414.22 87.57 10.00 211.68 2682.86
   11:59:18.766.07-Aug-2020 5127.01 3414.17 87.57 10.00 211.88 2682.86
   11:59:18.966.07-Aug-2020 5127.01 3414.14 87.57 10.00 212.08 2682.86
   11:59:19.166.07-Aug-2020 5127.01 3414.14 87.57 10.00 212.28 2682.86
   11:59:19.366.07-Aug-2020 5127.01 3414.19 87.57 10.00 212.48 2682.86
   11:59:19.566.07-Aug-2020 5127.01 3413.91 87.57 10.00 212.68 2682.86
   11:59:19.766.07-Aug-2020 5127.01 3414.37 87.57 10.00 212.88 2682.86
   11:59:19.966.07-Aug-2020 5127.01 3414.22 87.57 10.00 213.08 2682.86
   11:59:20.166.07-Aug-2020 5127.01 3414.22 87.57 10.00 213.28 2682.86
   11:59:20.366.07-Aug-2020 5127.01 3414.20 87.57 10.00 213.48 2682.86
   11:59:20.566.07-Aug-2020 5127.01 3414.20 87.57 10.00 213.68 2682.86
   11:59:20.766.07-Aug-2020 5127.01 3414.09 87.57 10.00 213.88 2682.86
   11:59:20.966.07-Aug-2020 5127.01 3414.19 87.56 10.00 214.08 2682.86
   11:59:21.167.07-Aug-2020 5127.01 3414.19 87.56 10.00 214.28 2682.86
   11:59:21.367.07-Aug-2020 5127.01 3414.11 87.56 10.00 214.48 2682.86
   11:59:21.567.07-Aug-2020 5127.01 3414.18 87.56 10.00 214.68 2682.86
   11:59:21.767.07-Aug-2020 5127.01 3414.19 87.56 10.00 214.88 2682.86
   11:59:21.967.07-Aug-2020 5127.01 3414.15 87.56 10.00 215.08 2682.86
   11:59:22.167.07-Aug-2020 5127.01 3414.16 87.56 10.00 215.28 2682.86
   11:59:22.367.07-Aug-2020 5127.01 3414.19 87.56 10.00 215.48 2682.86
   11:59:22.567.07-Aug-2020 5127.01 3414.15 87.56 10.00 215.68 2682.86
   11:59:22.767.07-Aug-2020 5127.01 3414.18 87.56 10.00 215.88 2682.86
   11:59:22.967.07-Aug-2020 5127.01 3414.16 87.56 10.00 216.08 2682.86
   11:59:23.167.07-Aug-2020 5127.01 3414.16 87.56 10.00 216.28 2682.86
   11:59:23.367.07-Aug-2020 5127.01 3414.06 87.56 10.00 216.48 2682.86
   11:59:23.567.07-Aug-2020 5127.01 3414.23 87.56 10.00 216.68 2682.86
   11:59:23.767.07-Aug-2020 5127.01 3414.17 87.56 10.00 216.88 2682.86
   11:59:23.968.07-Aug-2020 5127.01 3414.12 87.56 10.00 217.08 2682.86
   11:59:24.168.07-Aug-2020 5127.01 3414.12 87.56 10.00 217.28 2682.86
   11:59:24.368.07-Aug-2020 5127.01 3414.18 87.56 10.00 217.48 2682.86
   11:59:24.568.07-Aug-2020 5127.01 3414.15 87.56 10.00 217.68 2682.86
   11:59:24.768.07-Aug-2020 5127.01 3414.17 87.56 10.00 217.88 2682.86
   11:59:24.968.07-Aug-2020 5127.01 3414.16 87.56 10.00 218.08 2682.86
   11:59:25.168.07-Aug-2020 5127.01 3414.16 87.56 10.00 218.28 2682.86
   11:59:25.368.07-Aug-2020 5127.01 3414.15 87.56 10.00 218.48 2682.86
   11:59:25.568.07-Aug-2020 5127.01 3414.17 87.56 10.00 218.68 2682.86
   11:59:25.768.07-Aug-2020 5127.01 3414.16 87.56 10.00 218.88 2682.86
   11:59:25.968.07-Aug-2020 5127.01 3414.15 87.55 10.00 219.08 2682.86
   11:59:26.168.07-Aug-2020 5127.01 3414.00 87.55 10.00 219.28 2682.86
   11:59:26.368.07-Aug-2020 5127.01 3414.29 87.55 10.00 219.48 2682.86
   11:59:26.569.07-Aug-2020 5127.01 3414.21 87.55 10.00 219.68 2682.86
   11:59:26.769.07-Aug-2020 5127.01 3414.06 87.55 10.00 219.88 2682.86
   11:59:26.969.07-Aug-2020 5127.01 3414.14 87.55 10.00 220.08 2682.86
   11:59:27.169.07-Aug-2020 5127.01 3414.14 87.55 10.00 220.28 2682.86
   11:59:27.369.07-Aug-2020 5127.01 3414.17 87.55 10.00 220.48 2682.86
   11:59:27.569.07-Aug-2020 5127.01 3414.14 87.55 10.00 220.68 2682.86
   11:59:27.769.07-Aug-2020 5127.01 3414.19 87.55 10.00 220.88 2682.86
   11:59:27.969.07-Aug-2020 5127.01 3414.16 87.55 10.00 221.08 2682.86
   11:59:28.169.07-Aug-2020 5127.01 3414.16 87.55 10.00 221.28 2682.86
   11:59:28.369.07-Aug-2020 5127.01 3414.28 87.55 10.00 221.48 2682.86
   11:59:28.569.07-Aug-2020 5127.01 3414.22 87.55 10.00 221.68 2682.86
   11:59:28.769.07-Aug-2020 5127.01 3414.04 87.55 10.00 221.88 2682.86
   11:59:28.969.07-Aug-2020 5127.01 3414.22 87.55 10.00 222.08 2682.86
   11:59:29.170.07-Aug-2020 5127.01 3414.22 87.55 10.00 222.28 2682.86
   11:59:29.370.07-Aug-2020 5127.01 3414.08 87.55 10.00 222.48 2682.86
   11:59:29.570.07-Aug-2020 5127.01 3414.19 87.55 10.00 222.68 2682.86
   11:59:29.770.07-Aug-2020 5127.01 3414.19 87.55 10.00 222.88 2682.86
   11:59:29.970.07-Aug-2020 5127.01 3414.11 87.55 10.00 223.08 2682.86
   11:59:30.170.07-Aug-2020 5127.01 3414.16 87.55 10.00 223.28 2682.86
   11:59:30.370.07-Aug-2020 5127.01 3414.17 87.55 10.00 223.48 2682.86
   11:59:30.570.07-Aug-2020 5127.01 3414.14 87.55 10.00 223.68 2682.86
   11:59:30.770.07-Aug-2020 5127.01 3414.14 87.55 10.00 223.88 2682.86
   11:59:30.970.07-Aug-2020 5127.01 3414.16 87.54 10.00 224.08 2682.86
   11:59:31.170.07-Aug-2020 5127.01 3414.16 87.54 10.00 224.28 2682.86
   11:59:31.370.07-Aug-2020 5127.01 3414.15 87.54 10.00 224.48 2682.86
   11:59:31.570.07-Aug-2020 5127.01 3414.15 87.54 10.00 224.68 2682.86
   11:59:31.770.07-Aug-2020 5127.01 3414.14 87.54 10.00 224.88 2682.86
   11:59:31.971.07-Aug-2020 5127.01 3413.98 87.54 10.00 225.08 2682.86
   11:59:32.171.07-Aug-2020 5127.01 3413.98 87.54 10.00 225.28 2682.86
   11:59:32.371.07-Aug-2020 5127.01 3414.22 87.54 10.00 225.48 2682.86
   11:59:32.571.07-Aug-2020 5127.01 3414.07 87.54 10.00 225.68 2682.86
   11:59:32.771.07-Aug-2020 5127.01 3414.20 87.54 10.00 225.88 2682.86
