~Version Information
 VERS.                  2.0:   CWLS log ASCII Standard -VERSION 2.0
 WRAP.                   NO:   One line per depth step
~Well Information Block
#MNEM.UNIT     VALUE/NAME     DESCRIPTION
#---------     -----------    ---------------------------
 STRT.S             16:10:03 06-Aug-20: START TIME 16:10:03 06-Aug-20
 STOP.S             16:17:57 06-Aug-20: STOP TIME  16:17:57 06-Aug-20
 STEP.S                   0.00: STEP TIME
 NULL.                 -999.25: NULL VALUE
 DFWT.                        :  DIST FWL TEXT
 DFST.                        :  DIST FSL TEXT
 DMF .             Drill Floor:  DRILL MEAS FROM
 STIM.      12.00.00 03-Jul-20:  START TIME
 DATE.      00.50.00 09-Aug-20:  END TIME
 SPUD.               03-Jul-20:  SPUD DATE
 NREF.                    Grid:  NORTH REFERENCE
 HPTY.       Minimum Curvature:  HOLE POS TYPE
 DMOD.             Drill Model:  DRILL MOD DESC
 SVYD.                  Survey:  SURVEY DESC
 ILTD.               Lithology:  INTERP LTH DESC
 FTOP.          Formation Tops:  FORM TOPS DESC
 PDAT.          Mean Sea Level:  PERMANENT DATUM
 FLD .                     ACG:  FIELD NAME
 CTRY.              Azerbaijan:  COUNTRY NAME
 WELL.                    E04x:  WELL NAME
 SRVC.          Turan Drilling:  CONTRACTOR
 COMP.     BP Exploration (Caspian Sea) Ltd.:  COMPANY
 SON .        AZ-XX-0906531346:  JOB NUMBER
 WTYP.                Deviated:  WELL TYPE
 MDS .        Operator Entered:  MAG DATA SOURCE
 UWI .                     N/A:  UNIQUE WELL IDENTIFIER
 API .                     N/A:  API NUMBER
 BASE.              Azerbaijan:  LOGGING EQUIPMENT BASE LOCATION
 REGN.                   EESSA:  REGION
 PROV.                    Baku:  PROVINCE
 STAT.                    Baku:  STATE NAME
 MWDS.                    Baku:  MWD SHOP
 JOBN.        AZ-XX-0906531346:  JOB TICKET NUMB
 RIG .                     DWG:  RIG NAME
 DOE .                     N/A:  DOE NUMBER
 DCON.         Sperry Drilling:  DIRECTNL CONTR
 UNIT.                     N/A:  LOGGING EQUIPMENT ID
 CNTY.                        :  COUNTY
 LOC .                        :  LOCATION
 LMF .             Drill Floor:  LOG MEASURED FROM
 TVDS.m                  43.16:  TVDSS CORRECTN
 LATI.deg                40.17:  LATITUDE
 LONG.deg                51.17:  LONGITUDE
 WHNS.m                  -0.12:  WELL HEAD N/S
 WHEW.m                  -5.41:  WELL HEAD E/W
 UTMX.m              514337.95:  UTM X
 UTMY.m             4448627.46:  UTM Y
 DFWL.m                   0.00:  DISTANCE FWL
 DFSL.m                   0.00:  DISTANCE FSL
 SDEP.m                3088.01:  START DEPTH
 TDD .m                5200.01:  TOTAL DEPTH (DRILLER)
 VSDR.deg               244.51:  VERT SEC DIRECT
 GVFD.g                   1.00:  GRAVITY FIELD
 MFLD.nT              50329.80:  MAGNETIC FIELD
 MDIP.deg                59.63:  MAGNETIC DIP
 MDEC.deg                 6.59:  MAGNETIC DECL
 GRDC.deg                 0.09:  GRID CORRECTION
 AZTC.deg                 6.50:  AZM TOTAL CORR
 EPD .m                   0.00:  ELEVATION
 EGL .m                   0.00:  GROUND ELEVATION
 WDMS.m                 176.20:  WD ELEV
 APD .m                  43.16:  DEPTH ABOVE PD
 DEP .m                3084.71:  DEPTH
 AGAP.m                  43.16:  AIR GAP
 VSEW.m                  -5.41:  VERT SEC E/W
 VSNS.m                  -0.12:  VERT SEC N/S
 EKB .m                   0.00:  KB ELEVATION
 EDF .m                  43.16:  DF ELEVATION
 TDL .m                 243.00:  TOTAL DEPTH (LOGGER)
 VSC .                       0:  VS TO CLOSURE
 MAGU.                 1853542:  MAGUTM CHECKSUM
~Parameter Information Block
#MNEM.UNIT       Value        Description
#---------     -----------    ---------------------------
 AV  .mps                 1.91:  Ann Velocity 
 AVMX.mps                 2.52:  Max Ann Veloc 
 AZIF.deg               308.97:  Azm, Final 
 BHAT.        Rotary Steerable:  BHA Type 
 BROT.°/30m               1.00:  Build Rotating 
 BS  .in                  6.50:  Bit Size 
 BSZ .in                  6.50:  Bit Size 
 BTPL.psig              350.00:  Bit Press Loss 
 CABU.                      No:  Customer Abuse 
 CGEO.           Asif Pashayev:  Customer Geo 
 COMM.                     Ôöj:  Run Comments 1 
 TCS .hr                 35.86:  Time Ciculation Ended 
 CV  .mps                 2.31:  Crit Velocity 
 CVMX.mps                 2.31:  Max Crit Veloc 
 DD1 .         Intigam Rahimov:  Direct Drillr 1 
 DDSV.               Geo-Pilot:  DD Service 
 DEFF.%                  92.00:  % Det Eff 
 DLRX.°/30m               1.00:  Dogleg Rot Max 
 DLSO.°/30m               1.00:  Dogleg Oriented 
 DLSX.°/30m               1.42:  Dogleg Str Max 
 DRET.      15.50.00 07-Aug-20:  Drill End Time 
 DRST.      10.40.00 06-Aug-20:  Drill Start Tim 
 DTIM.hr                 21.30:  Time Drilling 
 EDEP.m                5200.01:  End Depth 
 ENG1.            Alan Tuganov:  Engineer 1 
 ENG2.         Almaz Almadatov:  Engineer 2 
 ENG3.     Zammelal Abdullah Sani:  Engineer 3 
 ETIM.      22.42.00 08-Aug-20:  End Time 
 FLOI.gpm               395.00:  Flow In 
 FLON.gpm               350.00:  Flow In Min 
 FLOS.cptm                0.00:  Fluid Loss 
 FLOX.gpm               404.00:  Flow In Max 
 FTRO.       Formation Presure:  FTWD Run Obj 
 HFLO.                      No:  High Flow 
 HPRE.                      No:  High Pressure 
 HTEM.                      No:  High Temp 
 HYDO.m                   1.80:  Hydro Offset 
 IFIN.deg                72.64:  Inc, Final 
 IMAX.deg                73.68:  Inc Max 
 IMIN.deg                72.64:  Inc Min 
 IMND.m                5189.69:  Inc Min Depth 
 IMXD.m                5067.88:  Inc Max Depth 
 JARR.                      No:  Jarring 
 LETM.      15.50.00 07-Aug-20:  Log End Time 
 LOST.hr                     0:  Lost Rig Time 
 LSTM.      10.40.00 06-Aug-20:  Log Start Time 
 MDCL.ppm             36000.00:  Mud Chlorides 
 MDES.     Inversion Oil/Synthetic:  Mud Desc 
 DFD .sg                  1.36:  Mud Density 
 MDMN.sg                  1.36:  Dens Mud Min 
 MDMX.sg                  1.36:  Dens Mud Max 
 MOIL.                      70:  Run Mud Oil % 
 MOWR.                   70:30:  Run Mud OWR 
 MSND.                    0.00:  Run Mud Sand % 
 MSOL.                   17.60:  Run Mud Solids% 
 DFV .spqt               73.00:  Mud Viscosity 
 MWOD.in                  4.75:  MWD Tool OD 
 MWSI.                      No:  Serv Intrp, MWD 
 OTIM.hr                 85.66:  Time Operating 
 PCON.           Look Like New:  Pad Condition 
 PMAX.psia             6250.00:  Press Op, Max 
 PV  .cP                 65.00:  Mud PV 
 RUN .                     900:  Run Number 
 ROPA.m/hr               11.40:  ROP Avg 
 ROPN.m/hr                5.00:  ROP Min 
 ROPX.m/hr               20.00:  ROP Max 
 RPMA.rpm               130.00:  RPM Surface Avg 
 RPMN.rpm                40.00:  RPM Surface Min 
 RPMX.rpm               140.00:  RPM Surface Max 
 RRUN.                    L205:  Rig Run Number 
 RTIM.hr                  1.00:  Time Reaming 
 SAZI.deg               313.52:  Azm, Start 
 SDEP.m                4957.01:  Start Depth 
 SIDD.                      No:  Serv Intrp, DD 
 SINC.deg                73.16:  Inc, Start 
 SPPA.psig             5657.00:  SPP Avg 
 SPPN.psig             2500.00:  SPP Min 
 SPPX.psig             5806.00:  SPP Max 
 STIM.      07.12.00 05-Aug-20:  Start Time 
 SVCS.                 DD, MWD:  Services 
 SVER.                    9.20:  Sperry Version 
 TDAT.m                 243.00:  Tot Depth Attmp 
 TDDF.                      No:  Trip for DD 
 TDLG.m                 243.00:  Tot Depth Loggd 
 TFF .                      No:  Trip for Fail 
 TQAA.f-kp               13.00:  Torque Abs Avg 
 TQAN.f-kp               11.00:  Torque Abs Min 
 TQAX.f-kp               16.00:  Torque Abs Max 
 TRRT.°/30m               1.00:  Turn Rotating 
 MRT .                    HCIM:  Maximum Recorded Temperature 
 TTMX.degC               96.08:  Max Tool Temp 
 VS01.                90515411:  Virtual Str1 SN 
 VS02.                90512716:  Virtual Str2 SN 
 VS03.                90522362:  Virtual Str3 SN 
 VS04.                90619415:  Virtual Str4 SN 
 VS05.                90619414:  Virtual Str5 SN 
 VS06.                90597748:  Virtual Str6 SN 
 WBMN.klb                 2.00:  WOB Min 
 WITN.           Adil Mammadov:  Customer Rep 
 WITN.     Alexander Yadullayev:  Customer Rep 2 
 WOBA.klb                 7.00:  WOB Avg 
 WOBX.klb                23.00:  WOB Max 
 YP  .lhf2               37.00:  Yield Point 
~Curve Information Block
#MNEM.UNIT                 API CODE     Curve Description
#---------               -----------    ---------------------------
 TIME.HHMMSS            00 000 000 000:  GT Time & Date
 GTDEPTH.m              00 000 000 000:  GT Depth
 GTPQH.psia             00 000 000 000:  GT HR Quartz Pressure
 GTTQ.degC              00 000 000 000:  GT Quartz Temperature
 GTTN.NONE              00 000 000 000:  GT Test Number
 GTET.sec               00 000 000 000:  GT Elapsed Test Time
 GTTVD.m                00 000 000 000:  GT True Vertical Depth
#Other Information
#
#WARRANTY: Halliburton will use its best efforts to furnish customers with 
#accurate information and interpretations that are part of, and incident to, the services 
#provided.  However, Halliburton cannot and does not warrant the accuracy 
#or correctness of such information and interpretations.  Under no circumstances should any 
#such information or interpretation be relied upon as the sole basis for any drilling, 
#completion, production, or financial decision or any procedure involving any risk to the 
#safety of any drilling venture, drilling rig or its crew or any other third party.  The 
#Customer has full responsibility for all drilling, completion and production operation.  
#Halliburton makes no representations or warranties, either expressed or 
#implied, including, but not limited to, the implied warranties of merchantability or fitness 
#for a particular purpose, with respect to the services rendered.  In no event will 
#Halliburton be liable for failure to obtain any particular results or for 
#any damages, including, but not limited to, indirect, special or consequential damages, 
#resulting from the use of any information or interpretation provided by Halliburton.
#
~A           TIME           GTDEPTH  GTPQH  GTTQ  GTTN  GTET   GTTVD  
# ...
   16:16:11.536.06-Aug-2020 4955.01 4255.63 80.29 2.00 368.08 2633.27
   16:16:11.736.06-Aug-2020 4955.01 4255.63 80.29 2.00 368.28 2633.27
   16:16:11.936.06-Aug-2020 4955.01 4255.68 80.29 2.00 368.48 2633.27
   16:16:12.136.06-Aug-2020 4955.01 4255.76 80.29 2.00 368.68 2633.27
   16:16:12.336.06-Aug-2020 4955.01 4255.45 80.29 2.00 368.88 2633.27
   16:16:12.536.06-Aug-2020 4955.01 4255.69 80.29 2.00 369.08 2633.27
   16:16:12.736.06-Aug-2020 4955.01 4255.69 80.29 2.00 369.28 2633.27
   16:16:12.936.06-Aug-2020 4955.01 4255.88 80.29 2.00 369.48 2633.27
   16:16:13.136.06-Aug-2020 4955.01 4255.68 80.29 2.00 369.68 2633.27
   16:16:13.336.06-Aug-2020 4955.01 4255.73 80.29 2.00 369.88 2633.27
   16:16:13.536.06-Aug-2020 4955.01 4255.76 80.29 2.00 370.08 2633.27
   16:16:13.736.06-Aug-2020 4955.01 4255.76 80.29 2.00 370.28 2633.27
   16:16:13.936.06-Aug-2020 4955.01 4255.90 80.28 2.00 370.48 2633.27
   16:16:14.136.06-Aug-2020 4955.01 4255.99 80.28 2.00 370.68 2633.27
   16:16:14.337.06-Aug-2020 4955.01 4255.63 80.28 2.00 370.88 2633.27
   16:16:14.537.06-Aug-2020 4955.01 4255.85 80.28 2.00 371.08 2633.27
   16:16:14.737.06-Aug-2020 4955.01 4255.85 80.28 2.00 371.28 2633.27
   16:16:14.937.06-Aug-2020 4955.01 4256.04 80.28 2.00 371.48 2633.27
   16:16:15.137.06-Aug-2020 4955.01 4256.07 80.28 2.00 371.68 2633.27
   16:16:15.337.06-Aug-2020 4955.01 4256.10 80.28 2.00 371.88 2633.27
   16:16:15.537.06-Aug-2020 4955.01 4256.12 80.28 2.00 372.08 2633.27
   16:16:15.737.06-Aug-2020 4955.01 4256.12 80.28 2.00 372.28 2633.27
   16:16:15.937.06-Aug-2020 4955.01 4256.10 80.28 2.00 372.48 2633.27
   16:16:16.137.06-Aug-2020 4955.01 4256.12 80.28 2.00 372.68 2633.27
   16:16:16.337.06-Aug-2020 4955.01 4256.13 80.28 2.00 372.88 2633.27
   16:16:16.537.06-Aug-2020 4955.01 4256.12 80.28 2.00 373.08 2633.27
   16:16:16.737.06-Aug-2020 4955.01 4256.12 80.28 2.00 373.28 2633.27
   16:16:16.937.06-Aug-2020 4955.01 4255.78 80.28 2.00 373.48 2633.27
   16:16:17.137.06-Aug-2020 4955.01 4256.04 80.28 2.00 373.68 2633.27
   16:16:17.337.06-Aug-2020 4955.01 4256.13 80.28 2.00 373.88 2633.27
   16:16:17.537.06-Aug-2020 4955.01 4256.16 80.28 2.00 374.08 2633.27
   16:16:17.737.06-Aug-2020 4955.01 4256.16 80.28 2.00 374.28 2633.27
   16:16:17.937.06-Aug-2020 4955.01 4256.20 80.28 2.00 374.48 2633.27
   16:16:18.137.06-Aug-2020 4955.01 4256.16 80.28 2.00 374.68 2633.27
   16:16:18.337.06-Aug-2020 4955.01 4256.23 80.28 2.00 374.88 2633.27
   16:16:18.537.06-Aug-2020 4955.01 4256.19 80.28 2.00 375.08 2633.27
   16:16:18.737.06-Aug-2020 4955.01 4256.19 80.28 2.00 375.28 2633.27
   16:16:18.937.06-Aug-2020 4955.01 4256.22 80.28 2.00 375.48 2633.27
   16:16:19.138.06-Aug-2020 4955.01 4256.25 80.28 2.00 375.68 2633.27
   16:16:19.338.06-Aug-2020 4955.01 4256.21 80.28 2.00 375.88 2633.27
   16:16:19.538.06-Aug-2020 4955.01 4256.25 80.28 2.00 376.08 2633.27
   16:16:19.738.06-Aug-2020 4955.01 4256.25 80.28 2.00 376.28 2633.27
   16:16:19.938.06-Aug-2020 4955.01 4256.00 80.28 2.00 376.48 2633.27
   16:16:20.138.06-Aug-2020 4955.01 4256.16 80.28 2.00 376.68 2633.27
   16:16:20.338.06-Aug-2020 4955.01 4256.19 80.28 2.00 376.88 2633.27
   16:16:20.538.06-Aug-2020 4955.01 4256.23 80.28 2.00 377.08 2633.27
   16:16:20.738.06-Aug-2020 4955.01 4256.23 80.28 2.00 377.28 2633.27
   16:16:20.938.06-Aug-2020 4955.01 4256.13 80.27 2.00 377.48 2633.27
   16:16:21.138.06-Aug-2020 4955.01 4256.18 80.27 2.00 377.68 2633.27
   16:16:21.338.06-Aug-2020 4955.01 4256.33 80.27 2.00 377.88 2633.27
   16:16:21.538.06-Aug-2020 4955.01 4256.34 80.27 2.00 378.08 2633.27
   16:16:21.738.06-Aug-2020 4955.01 4256.22 80.27 2.00 378.28 2633.27
   16:16:21.938.06-Aug-2020 4955.01 4256.21 80.27 2.00 378.48 2633.27
   16:16:22.138.06-Aug-2020 4955.01 4256.36 80.27 2.00 378.68 2633.27
   16:16:22.338.06-Aug-2020 4955.01 4256.38 80.27 2.00 378.88 2633.27
   16:16:22.538.06-Aug-2020 4955.01 4256.46 80.27 2.00 379.08 2633.27
   16:16:22.738.06-Aug-2020 4955.01 4256.43 80.27 2.00 379.28 2633.27
   16:16:22.938.06-Aug-2020 4955.01 4256.12 80.27 2.00 379.48 2633.27
   16:16:23.138.06-Aug-2020 4955.01 4256.35 80.27 2.00 379.68 2633.27
   16:16:23.338.06-Aug-2020 4955.01 4256.48 80.27 2.00 379.88 2633.27
   16:16:23.538.06-Aug-2020 4955.01 4256.48 80.27 2.00 380.08 2633.27
   16:16:23.739.06-Aug-2020 4955.01 4256.59 80.27 2.00 380.28 2633.27
   16:16:23.939.06-Aug-2020 4955.01 4256.60 80.27 2.00 380.48 2633.27
   16:16:24.139.06-Aug-2020 4955.01 4256.65 80.27 2.00 380.68 2633.27
   16:16:24.339.06-Aug-2020 4955.01 4256.60 80.27 2.00 380.88 2633.27
   16:16:24.539.06-Aug-2020 4955.01 4256.62 80.27 2.00 381.08 2633.27
   16:16:24.739.06-Aug-2020 4955.01 4256.62 80.27 2.00 381.28 2633.27
   16:16:24.939.06-Aug-2020 4955.01 4256.64 80.27 2.00 381.48 2633.27
   16:16:25.139.06-Aug-2020 4955.01 4256.60 80.27 2.00 381.68 2633.27
   16:16:25.339.06-Aug-2020 4955.01 4256.61 80.27 2.00 381.88 2633.27
   16:16:25.539.06-Aug-2020 4955.01 4256.31 80.27 2.00 382.08 2633.27
   16:16:25.739.06-Aug-2020 4955.01 4256.49 80.27 2.00 382.28 2633.27
   16:16:25.939.06-Aug-2020 4955.01 4256.60 80.27 2.00 382.48 2633.27
   16:16:26.139.06-Aug-2020 4955.01 4256.60 80.27 2.00 382.68 2633.27
   16:16:26.339.06-Aug-2020 4955.01 4256.64 80.27 2.00 382.88 2633.27
   16:16:26.539.06-Aug-2020 4955.01 4256.60 80.27 2.00 383.08 2633.27
   16:16:26.739.06-Aug-2020 4955.01 4256.60 80.27 2.00 383.28 2633.27
   16:16:26.939.06-Aug-2020 4955.01 4256.65 80.27 2.00 383.48 2633.27
   16:16:27.139.06-Aug-2020 4955.01 4256.73 80.27 2.00 383.68 2633.27
   16:16:27.339.06-Aug-2020 4955.01 4256.68 80.27 2.00 383.88 2633.27
   16:16:27.539.06-Aug-2020 4955.01 4256.70 80.27 2.00 384.08 2633.27
   16:16:27.739.06-Aug-2020 4955.01 4256.70 80.27 2.00 384.28 2633.27
   16:16:27.939.06-Aug-2020 4955.01 4256.67 80.26 2.00 384.48 2633.27
   16:16:28.139.06-Aug-2020 4955.01 4256.62 80.26 2.00 384.68 2633.27
   16:16:28.340.06-Aug-2020 4955.01 4256.31 80.26 2.00 384.88 2633.27
   16:16:28.540.06-Aug-2020 4955.01 4256.54 80.26 2.00 385.08 2633.27
   16:16:28.740.06-Aug-2020 4955.01 4256.54 80.26 2.00 385.28 2633.27
   16:16:28.940.06-Aug-2020 4955.01 4256.65 80.26 2.00 385.48 2633.27
   16:16:29.140.06-Aug-2020 4955.01 4256.71 80.26 2.00 385.68 2633.27
   16:16:29.340.06-Aug-2020 4955.01 4256.71 80.26 2.00 385.88 2633.27
   16:16:29.540.06-Aug-2020 4955.01 4256.43 80.26 2.00 386.08 2633.27
   16:16:29.740.06-Aug-2020 4955.01 4256.43 80.26 2.00 386.28 2633.27
   16:16:29.940.06-Aug-2020 4955.01 4256.81 80.26 2.00 386.48 2633.27
   16:16:30.140.06-Aug-2020 4955.01 4256.67 80.26 2.00 386.68 2633.27
   16:16:30.340.06-Aug-2020 4955.01 4256.63 80.26 2.00 386.88 2633.27
   16:16:30.540.06-Aug-2020 4955.01 4256.70 80.26 2.00 387.08 2633.27
   16:16:30.740.06-Aug-2020 4955.01 4256.70 80.26 2.00 387.28 2633.27
   16:16:30.940.06-Aug-2020 4955.01 4256.82 80.26 2.00 387.48 2633.27
   16:16:31.140.06-Aug-2020 4955.01 4256.78 80.26 2.00 387.68 2633.27
   16:16:31.340.06-Aug-2020 4955.01 4256.65 80.26 2.00 387.88 2633.27
   16:16:31.540.06-Aug-2020 4955.01 4256.75 80.26 2.00 388.08 2633.27
   16:16:31.740.06-Aug-2020 4955.01 4256.75 80.26 2.00 388.28 2633.27
   16:16:31.940.06-Aug-2020 4955.01 4256.88 80.26 2.00 388.48 2633.27
   16:16:32.140.06-Aug-2020 4955.01 4257.00 80.26 2.00 388.68 2633.27
   16:16:32.340.06-Aug-2020 4955.01 4256.99 80.26 2.00 388.88 2633.27
   16:16:32.540.06-Aug-2020 4955.01 4257.07 80.26 2.00 389.08 2633.27
   16:16:32.740.06-Aug-2020 4955.01 4257.07 80.26 2.00 389.28 2633.27
   16:16:32.940.06-Aug-2020 4955.01 4257.05 80.26 2.00 389.48 2633.27
   16:16:33.141.06-Aug-2020 4955.01 4256.98 80.26 2.00 389.68 2633.27
   16:16:33.341.06-Aug-2020 4955.01 4257.04 80.26 2.00 389.88 2633.27
   16:16:33.541.06-Aug-2020 4955.01 4257.01 80.26 2.00 390.08 2633.27
   16:16:33.741.06-Aug-2020 4955.01 4257.01 80.26 2.00 390.28 2633.27
   16:16:33.941.06-Aug-2020 4955.01 4256.66 80.26 2.00 390.48 2633.27
   16:16:34.141.06-Aug-2020 4955.01 4256.84 80.26 2.00 390.68 2633.27
   16:16:34.341.06-Aug-2020 4955.01 4256.93 80.26 2.00 390.88 2633.27
