~Version Information
 VERS.                  2.0:   CWLS log ASCII Standard -VERSION 2.0
 WRAP.                   NO:   One line per depth step
~Well Information Block
#MNEM.UNIT     VALUE/NAME     DESCRIPTION
#---------     -----------    ---------------------------
 STRT.S             16:10:03 06-Aug-20: START TIME 16:10:03 06-Aug-20
 STOP.S             16:17:57 06-Aug-20: STOP TIME  16:17:57 06-Aug-20
 STEP.S                   0.00: STEP TIME
 NULL.                 -999.25: NULL VALUE
 DFWT.                        :  DIST FWL TEXT
 DFST.                        :  DIST FSL TEXT
 DMF .             Drill Floor:  DRILL MEAS FROM
 STIM.      12.00.00 03-Jul-20:  START TIME
 DATE.      00.50.00 09-Aug-20:  END TIME
 SPUD.               03-Jul-20:  SPUD DATE
 NREF.                    Grid:  NORTH REFERENCE
 HPTY.       Minimum Curvature:  HOLE POS TYPE
 DMOD.             Drill Model:  DRILL MOD DESC
 SVYD.                  Survey:  SURVEY DESC
 ILTD.               Lithology:  INTERP LTH DESC
 FTOP.          Formation Tops:  FORM TOPS DESC
 PDAT.          Mean Sea Level:  PERMANENT DATUM
 FLD .                     ACG:  FIELD NAME
 CTRY.              Azerbaijan:  COUNTRY NAME
 WELL.                    E04x:  WELL NAME
 SRVC.          Turan Drilling:  CONTRACTOR
 COMP.     BP Exploration (Caspian Sea) Ltd.:  COMPANY
 SON .        AZ-XX-0906531346:  JOB NUMBER
 WTYP.                Deviated:  WELL TYPE
 MDS .        Operator Entered:  MAG DATA SOURCE
 UWI .                     N/A:  UNIQUE WELL IDENTIFIER
 API .                     N/A:  API NUMBER
 BASE.              Azerbaijan:  LOGGING EQUIPMENT BASE LOCATION
 REGN.                   EESSA:  REGION
 PROV.                    Baku:  PROVINCE
 STAT.                    Baku:  STATE NAME
 MWDS.                    Baku:  MWD SHOP
 JOBN.        AZ-XX-0906531346:  JOB TICKET NUMB
 RIG .                     DWG:  RIG NAME
 DOE .                     N/A:  DOE NUMBER
 DCON.         Sperry Drilling:  DIRECTNL CONTR
 UNIT.                     N/A:  LOGGING EQUIPMENT ID
 CNTY.                        :  COUNTY
 LOC .                        :  LOCATION
 LMF .             Drill Floor:  LOG MEASURED FROM
 TVDS.m                  43.16:  TVDSS CORRECTN
 LATI.deg                40.17:  LATITUDE
 LONG.deg                51.17:  LONGITUDE
 WHNS.m                  -0.12:  WELL HEAD N/S
 WHEW.m                  -5.41:  WELL HEAD E/W
 UTMX.m              514337.95:  UTM X
 UTMY.m             4448627.46:  UTM Y
 DFWL.m                   0.00:  DISTANCE FWL
 DFSL.m                   0.00:  DISTANCE FSL
 SDEP.m                3088.01:  START DEPTH
 TDD .m                5200.01:  TOTAL DEPTH (DRILLER)
 VSDR.deg               244.51:  VERT SEC DIRECT
 GVFD.g                   1.00:  GRAVITY FIELD
 MFLD.nT              50329.80:  MAGNETIC FIELD
 MDIP.deg                59.63:  MAGNETIC DIP
 MDEC.deg                 6.59:  MAGNETIC DECL
 GRDC.deg                 0.09:  GRID CORRECTION
 AZTC.deg                 6.50:  AZM TOTAL CORR
 EPD .m                   0.00:  ELEVATION
 EGL .m                   0.00:  GROUND ELEVATION
 WDMS.m                 176.20:  WD ELEV
 APD .m                  43.16:  DEPTH ABOVE PD
 DEP .m                3084.71:  DEPTH
 AGAP.m                  43.16:  AIR GAP
 VSEW.m                  -5.41:  VERT SEC E/W
 VSNS.m                  -0.12:  VERT SEC N/S
 EKB .m                   0.00:  KB ELEVATION
 EDF .m                  43.16:  DF ELEVATION
 TDL .m                 243.00:  TOTAL DEPTH (LOGGER)
 VSC .                       0:  VS TO CLOSURE
 MAGU.                 1853542:  MAGUTM CHECKSUM
~Parameter Information Block
#MNEM.UNIT       Value        Description
#---------     -----------    ---------------------------
 AV  .mps                 1.91:  Ann Velocity 
 AVMX.mps                 2.52:  Max Ann Veloc 
 AZIF.deg               308.97:  Azm, Final 
 BHAT.        Rotary Steerable:  BHA Type 
 BROT.°/30m               1.00:  Build Rotating 
 BS  .in                  6.50:  Bit Size 
 BSZ .in                  6.50:  Bit Size 
 BTPL.psig              350.00:  Bit Press Loss 
 CABU.                      No:  Customer Abuse 
 CGEO.           Asif Pashayev:  Customer Geo 
 COMM.                     Ôöj:  Run Comments 1 
 TCS .hr                 35.86:  Time Ciculation Ended 
 CV  .mps                 2.31:  Crit Velocity 
 CVMX.mps                 2.31:  Max Crit Veloc 
 DD1 .         Intigam Rahimov:  Direct Drillr 1 
 DDSV.               Geo-Pilot:  DD Service 
 DEFF.%                  92.00:  % Det Eff 
 DLRX.°/30m               1.00:  Dogleg Rot Max 
 DLSO.°/30m               1.00:  Dogleg Oriented 
 DLSX.°/30m               1.42:  Dogleg Str Max 
 DRET.      15.50.00 07-Aug-20:  Drill End Time 
 DRST.      10.40.00 06-Aug-20:  Drill Start Tim 
 DTIM.hr                 21.30:  Time Drilling 
 EDEP.m                5200.01:  End Depth 
 ENG1.            Alan Tuganov:  Engineer 1 
 ENG2.         Almaz Almadatov:  Engineer 2 
 ENG3.     Zammelal Abdullah Sani:  Engineer 3 
 ETIM.      22.42.00 08-Aug-20:  End Time 
 FLOI.gpm               395.00:  Flow In 
 FLON.gpm               350.00:  Flow In Min 
 FLOS.cptm                0.00:  Fluid Loss 
 FLOX.gpm               404.00:  Flow In Max 
 FTRO.       Formation Presure:  FTWD Run Obj 
 HFLO.                      No:  High Flow 
 HPRE.                      No:  High Pressure 
 HTEM.                      No:  High Temp 
 HYDO.m                   1.80:  Hydro Offset 
 IFIN.deg                72.64:  Inc, Final 
 IMAX.deg                73.68:  Inc Max 
 IMIN.deg                72.64:  Inc Min 
 IMND.m                5189.69:  Inc Min Depth 
 IMXD.m                5067.88:  Inc Max Depth 
 JARR.                      No:  Jarring 
 LETM.      15.50.00 07-Aug-20:  Log End Time 
 LOST.hr                     0:  Lost Rig Time 
 LSTM.      10.40.00 06-Aug-20:  Log Start Time 
 MDCL.ppm             36000.00:  Mud Chlorides 
 MDES.     Inversion Oil/Synthetic:  Mud Desc 
 DFD .sg                  1.36:  Mud Density 
 MDMN.sg                  1.36:  Dens Mud Min 
 MDMX.sg                  1.36:  Dens Mud Max 
 MOIL.                      70:  Run Mud Oil % 
 MOWR.                   70:30:  Run Mud OWR 
 MSND.                    0.00:  Run Mud Sand % 
 MSOL.                   17.60:  Run Mud Solids% 
 DFV .spqt               73.00:  Mud Viscosity 
 MWOD.in                  4.75:  MWD Tool OD 
 MWSI.                      No:  Serv Intrp, MWD 
 OTIM.hr                 85.66:  Time Operating 
 PCON.           Look Like New:  Pad Condition 
 PMAX.psia             6250.00:  Press Op, Max 
 PV  .cP                 65.00:  Mud PV 
 RUN .                     900:  Run Number 
 ROPA.m/hr               11.40:  ROP Avg 
 ROPN.m/hr                5.00:  ROP Min 
 ROPX.m/hr               20.00:  ROP Max 
 RPMA.rpm               130.00:  RPM Surface Avg 
 RPMN.rpm                40.00:  RPM Surface Min 
 RPMX.rpm               140.00:  RPM Surface Max 
 RRUN.                    L205:  Rig Run Number 
 RTIM.hr                  1.00:  Time Reaming 
 SAZI.deg               313.52:  Azm, Start 
 SDEP.m                4957.01:  Start Depth 
 SIDD.                      No:  Serv Intrp, DD 
 SINC.deg                73.16:  Inc, Start 
 SPPA.psig             5657.00:  SPP Avg 
 SPPN.psig             2500.00:  SPP Min 
 SPPX.psig             5806.00:  SPP Max 
 STIM.      07.12.00 05-Aug-20:  Start Time 
 SVCS.                 DD, MWD:  Services 
 SVER.                    9.20:  Sperry Version 
 TDAT.m                 243.00:  Tot Depth Attmp 
 TDDF.                      No:  Trip for DD 
 TDLG.m                 243.00:  Tot Depth Loggd 
 TFF .                      No:  Trip for Fail 
 TQAA.f-kp               13.00:  Torque Abs Avg 
 TQAN.f-kp               11.00:  Torque Abs Min 
 TQAX.f-kp               16.00:  Torque Abs Max 
 TRRT.°/30m               1.00:  Turn Rotating 
 MRT .                    HCIM:  Maximum Recorded Temperature 
 TTMX.degC               96.08:  Max Tool Temp 
 VS01.                90515411:  Virtual Str1 SN 
 VS02.                90512716:  Virtual Str2 SN 
 VS03.                90522362:  Virtual Str3 SN 
 VS04.                90619415:  Virtual Str4 SN 
 VS05.                90619414:  Virtual Str5 SN 
 VS06.                90597748:  Virtual Str6 SN 
 WBMN.klb                 2.00:  WOB Min 
 WITN.           Adil Mammadov:  Customer Rep 
 WITN.     Alexander Yadullayev:  Customer Rep 2 
 WOBA.klb                 7.00:  WOB Avg 
 WOBX.klb                23.00:  WOB Max 
 YP  .lhf2               37.00:  Yield Point 
~Curve Information Block
#MNEM.UNIT                 API CODE     Curve Description
#---------               -----------    ---------------------------
 TIME.HHMMSS            00 000 000 000:  GT Time & Date
 GTDEPTH.m              00 000 000 000:  GT Depth
 GTPQH.psia             00 000 000 000:  GT HR Quartz Pressure
 GTTQ.degC              00 000 000 000:  GT Quartz Temperature
 GTTN.NONE              00 000 000 000:  GT Test Number
 GTET.sec               00 000 000 000:  GT Elapsed Test Time
 GTTVD.m                00 000 000 000:  GT True Vertical Depth
#Other Information
#
#WARRANTY: Halliburton will use its best efforts to furnish customers with 
#accurate information and interpretations that are part of, and incident to, the services 
#provided.  However, Halliburton cannot and does not warrant the accuracy 
#or correctness of such information and interpretations.  Under no circumstances should any 
#such information or interpretation be relied upon as the sole basis for any drilling, 
#completion, production, or financial decision or any procedure involving any risk to the 
#safety of any drilling venture, drilling rig or its crew or any other third party.  The 
#Customer has full responsibility for all drilling, completion and production operation.  
#Halliburton makes no representations or warranties, either expressed or 
#implied, including, but not limited to, the implied warranties of merchantability or fitness 
#for a particular purpose, with respect to the services rendered.  In no event will 
#Halliburton be liable for failure to obtain any particular results or for 
#any damages, including, but not limited to, indirect, special or consequential damages, 
#resulting from the use of any information or interpretation provided by Halliburton.
#
~A           TIME           GTDEPTH  GTPQH  GTTQ  GTTN  GTET   GTTVD  
# ...
   16:15:02.521.06-Aug-2020 4955.01 4258.44 80.39 2.00 299.06 2633.27
   16:15:02.721.06-Aug-2020 4955.01 4258.44 80.39 2.00 299.26 2633.27
   16:15:02.921.06-Aug-2020 4955.01 4258.41 80.39 2.00 299.46 2633.27
   16:15:03.121.06-Aug-2020 4955.01 4258.24 80.39 2.00 299.66 2633.27
   16:15:03.321.06-Aug-2020 4955.01 4258.26 80.39 2.00 299.86 2633.27
   16:15:03.521.06-Aug-2020 4955.01 4258.28 80.39 2.00 300.06 2633.27
   16:15:03.721.06-Aug-2020 4955.01 4258.28 80.39 2.00 300.26 2633.27
   16:15:03.921.06-Aug-2020 4955.01 4258.35 80.39 2.00 300.46 2633.27
   16:15:04.122.06-Aug-2020 4955.01 4258.39 80.39 2.00 300.66 2633.27
   16:15:04.322.06-Aug-2020 4955.01 4258.37 80.39 2.00 300.86 2633.27
   16:15:04.522.06-Aug-2020 4955.01 4258.27 80.39 2.00 301.06 2633.27
   16:15:04.722.06-Aug-2020 4955.01 4258.27 80.39 2.00 301.26 2633.27
   16:15:04.922.06-Aug-2020 4955.01 4258.46 80.39 2.00 301.46 2633.27
   16:15:05.122.06-Aug-2020 4955.01 4258.09 80.39 2.00 301.66 2633.27
   16:15:05.322.06-Aug-2020 4955.01 4258.43 80.39 2.00 301.86 2633.27
   16:15:05.522.06-Aug-2020 4955.01 4258.44 80.39 2.00 302.06 2633.27
   16:15:05.722.06-Aug-2020 4955.01 4258.44 80.39 2.00 302.26 2633.27
   16:15:05.922.06-Aug-2020 4955.01 4258.49 80.39 2.00 302.46 2633.27
   16:15:06.122.06-Aug-2020 4955.01 4258.55 80.39 2.00 302.66 2633.27
   16:15:06.322.06-Aug-2020 4955.01 4258.19 80.39 2.00 302.86 2633.27
   16:15:06.522.06-Aug-2020 4955.01 4190.87 80.39 2.00 303.06 2633.27
   16:15:06.722.06-Aug-2020 4955.01 4190.87 80.39 2.00 303.26 2633.27
   16:15:06.922.06-Aug-2020 4955.01 3608.29 80.39 2.00 303.46 2633.27
   16:15:07.122.06-Aug-2020 4955.01 3436.59 80.39 2.00 303.66 2633.27
   16:15:07.322.06-Aug-2020 4955.01 3293.55 80.39 2.00 303.86 2633.27
   16:15:07.522.06-Aug-2020 4955.01 3180.46 80.38 2.00 304.06 2633.27
   16:15:07.722.06-Aug-2020 4955.01 3180.46 80.38 2.00 304.27 2633.27
   16:15:07.922.06-Aug-2020 4955.01 3015.00 80.38 2.00 304.47 2633.27
   16:15:08.122.06-Aug-2020 4955.01 2964.16 80.38 2.00 304.67 2633.27
   16:15:08.322.06-Aug-2020 4955.01 2921.44 80.38 2.00 304.87 2633.27
   16:15:08.522.06-Aug-2020 4955.01 2883.17 80.38 2.00 305.07 2633.27
   16:15:08.722.06-Aug-2020 4955.01 2883.17 80.38 2.00 305.27 2633.27
   16:15:08.923.06-Aug-2020 4955.01 2822.23 80.38 2.00 305.47 2633.27
   16:15:09.123.06-Aug-2020 4955.01 2801.83 80.38 2.00 305.67 2633.27
   16:15:09.323.06-Aug-2020 4955.01 2786.54 80.38 2.00 305.87 2633.27
   16:15:09.523.06-Aug-2020 4955.01 2769.19 80.38 2.00 306.07 2633.27
   16:15:09.723.06-Aug-2020 4955.01 2769.19 80.38 2.00 306.27 2633.27
   16:15:09.923.06-Aug-2020 4955.01 2742.79 80.38 2.00 306.47 2633.27
   16:15:10.123.06-Aug-2020 4955.01 2733.05 80.38 2.00 306.67 2633.27
   16:15:10.323.06-Aug-2020 4955.01 2726.30 80.38 2.00 306.87 2633.27
   16:15:10.523.06-Aug-2020 4955.01 2719.97 80.38 2.00 307.07 2633.27
   16:15:10.723.06-Aug-2020 4955.01 2719.97 80.38 2.00 307.27 2633.27
   16:15:10.923.06-Aug-2020 4955.01 2705.60 80.38 2.00 307.47 2633.27
   16:15:11.123.06-Aug-2020 4955.01 2700.80 80.38 2.00 307.67 2633.27
   16:15:11.323.06-Aug-2020 4955.01 2697.05 80.37 2.00 307.87 2633.27
   16:15:11.523.06-Aug-2020 4955.01 2691.21 80.37 2.00 308.07 2633.27
   16:15:11.723.06-Aug-2020 4955.01 2691.21 80.37 2.00 308.27 2633.27
   16:15:11.923.06-Aug-2020 4955.01 2679.45 80.37 2.00 308.47 2633.27
   16:15:12.123.06-Aug-2020 4955.01 2681.63 80.37 2.00 308.67 2633.27
   16:15:12.323.06-Aug-2020 4955.01 2676.75 80.37 2.00 308.87 2633.27
   16:15:12.523.06-Aug-2020 4955.01 2671.32 80.37 2.00 309.07 2633.27
   16:15:12.723.06-Aug-2020 4955.01 2671.32 80.37 2.00 309.27 2633.27
   16:15:12.923.06-Aug-2020 4955.01 2652.34 80.37 2.00 309.47 2633.27
   16:15:13.123.06-Aug-2020 4955.01 2649.72 80.37 2.00 309.67 2633.27
   16:15:13.323.06-Aug-2020 4955.01 2655.10 80.37 2.00 309.87 2633.27
   16:15:13.524.06-Aug-2020 4955.01 2655.40 80.37 2.00 310.07 2633.27
   16:15:13.724.06-Aug-2020 4955.01 2655.40 80.37 2.00 310.27 2633.27
   16:15:13.924.06-Aug-2020 4955.01 2651.43 80.37 2.00 310.47 2633.27
   16:15:14.124.06-Aug-2020 4955.01 2652.69 80.36 2.00 310.67 2633.27
   16:15:14.324.06-Aug-2020 4955.01 2652.17 80.36 2.00 310.87 2633.27
   16:15:14.524.06-Aug-2020 4955.01 2650.62 80.36 2.00 311.07 2633.27
   16:15:14.724.06-Aug-2020 4955.01 2650.62 80.36 2.00 311.27 2633.27
   16:15:14.924.06-Aug-2020 4955.01 2639.91 80.36 2.00 311.47 2633.27
   16:15:15.124.06-Aug-2020 4955.01 2642.36 80.36 2.00 311.67 2633.27
   16:15:15.324.06-Aug-2020 4955.01 2645.04 80.36 2.00 311.87 2633.27
   16:15:15.524.06-Aug-2020 4955.01 2646.91 80.36 2.00 312.07 2633.27
   16:15:15.724.06-Aug-2020 4955.01 2646.91 80.36 2.00 312.27 2633.27
   16:15:15.924.06-Aug-2020 4955.01 2642.78 80.36 2.00 312.47 2633.27
   16:15:16.124.06-Aug-2020 4955.01 2637.33 80.36 2.00 312.67 2633.27
   16:15:16.324.06-Aug-2020 4955.01 2633.60 80.36 2.00 312.87 2633.27
   16:15:16.524.06-Aug-2020 4955.01 2631.91 80.36 2.00 313.07 2633.27
   16:15:16.724.06-Aug-2020 4955.01 2631.91 80.36 2.00 313.27 2633.27
   16:15:16.924.06-Aug-2020 4955.01 2992.04 80.36 2.00 313.47 2633.27
   16:15:17.124.06-Aug-2020 4955.01 3202.30 80.35 2.00 313.67 2633.27
   16:15:17.324.06-Aug-2020 4955.01 3379.17 80.35 2.00 313.87 2633.27
   16:15:17.524.06-Aug-2020 4955.01 3522.30 80.35 2.00 314.07 2633.27
   16:15:17.724.06-Aug-2020 4955.01 3639.16 80.35 2.00 314.27 2633.27
   16:15:17.924.06-Aug-2020 4955.01 3735.23 80.35 2.00 314.47 2633.27
   16:15:18.125.06-Aug-2020 4955.01 3813.90 80.35 2.00 314.67 2633.27
   16:15:18.325.06-Aug-2020 4955.01 3878.89 80.35 2.00 314.87 2633.27
   16:15:18.525.06-Aug-2020 4955.01 3932.45 80.35 2.00 315.07 2633.27
   16:15:18.725.06-Aug-2020 4955.01 3977.12 80.35 2.00 315.27 2633.27
   16:15:18.925.06-Aug-2020 4955.01 4014.15 80.35 2.00 315.47 2633.27
   16:15:19.125.06-Aug-2020 4955.01 4045.28 80.35 2.00 315.67 2633.27
   16:15:19.325.06-Aug-2020 4955.01 4071.29 80.35 2.00 315.87 2633.27
   16:15:19.525.06-Aug-2020 4955.01 4093.34 80.35 2.00 316.07 2633.27
   16:15:19.725.06-Aug-2020 4955.01 4093.34 80.35 2.00 316.27 2633.27
   16:15:19.925.06-Aug-2020 4955.01 4127.66 80.35 2.00 316.47 2633.27
   16:15:20.125.06-Aug-2020 4955.01 4140.74 80.35 2.00 316.67 2633.27
   16:15:20.325.06-Aug-2020 4955.01 4151.53 80.35 2.00 316.87 2633.27
   16:15:20.525.06-Aug-2020 4955.01 4161.94 80.35 2.00 317.07 2633.27
   16:15:20.725.06-Aug-2020 4955.01 4161.94 80.35 2.00 317.27 2633.27
   16:15:20.925.06-Aug-2020 4955.01 4178.14 80.35 2.00 317.47 2633.27
   16:15:21.125.06-Aug-2020 4955.01 4184.57 80.35 2.00 317.67 2633.27
   16:15:21.325.06-Aug-2020 4955.01 4189.45 80.35 2.00 317.87 2633.27
   16:15:21.525.06-Aug-2020 4955.01 4194.61 80.35 2.00 318.07 2633.27
   16:15:21.725.06-Aug-2020 4955.01 4194.61 80.35 2.00 318.27 2633.27
   16:15:21.925.06-Aug-2020 4955.01 4203.28 80.35 2.00 318.47 2633.27
   16:15:22.125.06-Aug-2020 4955.01 4206.83 80.35 2.00 318.67 2633.27
   16:15:22.325.06-Aug-2020 4955.01 4209.82 80.35 2.00 318.87 2633.27
   16:15:22.525.06-Aug-2020 4955.01 4211.88 80.35 2.00 319.07 2633.27
   16:15:22.725.06-Aug-2020 4955.01 4211.88 80.35 2.00 319.27 2633.27
   16:15:22.926.06-Aug-2020 4955.01 4216.61 80.35 2.00 319.47 2633.27
   16:15:23.126.06-Aug-2020 4955.01 4218.66 80.35 2.00 319.67 2633.27
   16:15:23.326.06-Aug-2020 4955.01 4220.41 80.35 2.00 319.87 2633.27
   16:15:23.526.06-Aug-2020 4955.01 4222.06 80.35 2.00 320.07 2633.27
   16:15:23.726.06-Aug-2020 4955.01 4223.73 80.35 2.00 320.27 2633.27
   16:15:23.926.06-Aug-2020 4955.01 4225.17 80.35 2.00 320.47 2633.27
   16:15:24.126.06-Aug-2020 4955.01 4226.58 80.35 2.00 320.67 2633.27
   16:15:24.326.06-Aug-2020 4955.01 4227.74 80.35 2.00 320.87 2633.27
   16:15:24.526.06-Aug-2020 4955.01 4228.87 80.35 2.00 321.07 2633.27
   16:15:24.726.06-Aug-2020 4955.01 4228.87 80.35 2.00 321.27 2633.27
   16:15:24.926.06-Aug-2020 4955.01 4230.79 80.35 2.00 321.47 2633.27
   16:15:25.126.06-Aug-2020 4955.01 4231.65 80.35 2.00 321.67 2633.27
   16:15:25.326.06-Aug-2020 4955.01 4232.49 80.35 2.00 321.87 2633.27
