~Version Information
 VERS.                  2.0:   CWLS log ASCII Standard -VERSION 2.0
 WRAP.                   NO:   One line per depth step
~Well Information Block
#MNEM.UNIT     VALUE/NAME     DESCRIPTION
#---------     -----------    ---------------------------
 STRT.S             06:40:56 07-Aug-20: START TIME 06:40:56 07-Aug-20
 STOP.S             06:48:48 07-Aug-20: STOP TIME  06:48:48 07-Aug-20
 STEP.S                   0.00: STEP TIME
 NULL.                 -999.25: NULL VALUE
 DFWT.                        :  DIST FWL TEXT
 DFST.                        :  DIST FSL TEXT
 DMF .             Drill Floor:  DRILL MEAS FROM
 STIM.      12.00.00 03-Jul-20:  START TIME
 DATE.      00.50.00 09-Aug-20:  END TIME
 SPUD.               03-Jul-20:  SPUD DATE
 NREF.                    Grid:  NORTH REFERENCE
 HPTY.       Minimum Curvature:  HOLE POS TYPE
 DMOD.             Drill Model:  DRILL MOD DESC
 SVYD.                  Survey:  SURVEY DESC
 ILTD.               Lithology:  INTERP LTH DESC
 FTOP.          Formation Tops:  FORM TOPS DESC
 PDAT.          Mean Sea Level:  PERMANENT DATUM
 FLD .                     ACG:  FIELD NAME
 CTRY.              Azerbaijan:  COUNTRY NAME
 WELL.                    E04x:  WELL NAME
 SRVC.          Turan Drilling:  CONTRACTOR
 COMP.     BP Exploration (Caspian Sea) Ltd.:  COMPANY
 SON .        AZ-XX-0906531346:  JOB NUMBER
 WTYP.                Deviated:  WELL TYPE
 MDS .        Operator Entered:  MAG DATA SOURCE
 UWI .                     N/A:  UNIQUE WELL IDENTIFIER
 API .                     N/A:  API NUMBER
 BASE.              Azerbaijan:  LOGGING EQUIPMENT BASE LOCATION
 REGN.                   EESSA:  REGION
 PROV.                    Baku:  PROVINCE
 STAT.                    Baku:  STATE NAME
 MWDS.                    Baku:  MWD SHOP
 JOBN.        AZ-XX-0906531346:  JOB TICKET NUMB
 RIG .                     DWG:  RIG NAME
 DOE .                     N/A:  DOE NUMBER
 DCON.         Sperry Drilling:  DIRECTNL CONTR
 UNIT.                     N/A:  LOGGING EQUIPMENT ID
 CNTY.                        :  COUNTY
 LOC .                        :  LOCATION
 LMF .             Drill Floor:  LOG MEASURED FROM
 TVDS.m                  43.16:  TVDSS CORRECTN
 LATI.deg                40.17:  LATITUDE
 LONG.deg                51.17:  LONGITUDE
 WHNS.m                  -0.12:  WELL HEAD N/S
 WHEW.m                  -5.41:  WELL HEAD E/W
 UTMX.m              514337.95:  UTM X
 UTMY.m             4448627.46:  UTM Y
 DFWL.m                   0.00:  DISTANCE FWL
 DFSL.m                   0.00:  DISTANCE FSL
 SDEP.m                3088.01:  START DEPTH
 TDD .m                5200.01:  TOTAL DEPTH (DRILLER)
 VSDR.deg               244.51:  VERT SEC DIRECT
 GVFD.g                   1.00:  GRAVITY FIELD
 MFLD.nT              50329.80:  MAGNETIC FIELD
 MDIP.deg                59.63:  MAGNETIC DIP
 MDEC.deg                 6.59:  MAGNETIC DECL
 GRDC.deg                 0.09:  GRID CORRECTION
 AZTC.deg                 6.50:  AZM TOTAL CORR
 EPD .m                   0.00:  ELEVATION
 EGL .m                   0.00:  GROUND ELEVATION
 WDMS.m                 176.20:  WD ELEV
 APD .m                  43.16:  DEPTH ABOVE PD
 DEP .m                3084.71:  DEPTH
 AGAP.m                  43.16:  AIR GAP
 VSEW.m                  -5.41:  VERT SEC E/W
 VSNS.m                  -0.12:  VERT SEC N/S
 EKB .m                   0.00:  KB ELEVATION
 EDF .m                  43.16:  DF ELEVATION
 TDL .m                 243.00:  TOTAL DEPTH (LOGGER)
 VSC .                       0:  VS TO CLOSURE
 MAGU.                 1853542:  MAGUTM CHECKSUM
~Parameter Information Block
#MNEM.UNIT       Value        Description
#---------     -----------    ---------------------------
 AV  .mps                 1.91:  Ann Velocity 
 AVMX.mps                 2.52:  Max Ann Veloc 
 AZIF.deg               308.97:  Azm, Final 
 BHAT.        Rotary Steerable:  BHA Type 
 BROT.°/30m               1.00:  Build Rotating 
 BS  .in                  6.50:  Bit Size 
 BSZ .in                  6.50:  Bit Size 
 BTPL.psig              350.00:  Bit Press Loss 
 CABU.                      No:  Customer Abuse 
 CGEO.           Asif Pashayev:  Customer Geo 
 TCS .hr                 35.86:  Time Ciculation Ended 
 CV  .mps                 2.31:  Crit Velocity 
 CVMX.mps                 2.31:  Max Crit Veloc 
 DD1 .         Intigam Rahimov:  Direct Drillr 1 
 DDSV.               Geo-Pilot:  DD Service 
 DEFF.%                  92.00:  % Det Eff 
 DLRX.°/30m               1.00:  Dogleg Rot Max 
 DLSO.°/30m               1.00:  Dogleg Oriented 
 DLSX.°/30m               1.42:  Dogleg Str Max 
 DRET.      15.50.00 07-Aug-20:  Drill End Time 
 DRST.      10.40.00 06-Aug-20:  Drill Start Tim 
 DTIM.hr                 21.30:  Time Drilling 
 EDEP.m                5200.01:  End Depth 
 ENG1.            Alan Tuganov:  Engineer 1 
 ENG2.         Almaz Almadatov:  Engineer 2 
 ENG3.     Zammelal Abdullah Sani:  Engineer 3 
 ETIM.      22.42.00 08-Aug-20:  End Time 
 FLOI.gpm               395.00:  Flow In 
 FLON.gpm               350.00:  Flow In Min 
 FLOS.cptm                0.00:  Fluid Loss 
 FLOX.gpm               404.00:  Flow In Max 
 FTRO.       Formation Presure:  FTWD Run Obj 
 HFLO.                      No:  High Flow 
 HPRE.                      No:  High Pressure 
 HTEM.                      No:  High Temp 
 HYDO.m                   1.80:  Hydro Offset 
 IFIN.deg                72.64:  Inc, Final 
 IMAX.deg                73.68:  Inc Max 
 IMIN.deg                72.64:  Inc Min 
 IMND.m                5189.69:  Inc Min Depth 
 IMXD.m                5067.88:  Inc Max Depth 
 JARR.                      No:  Jarring 
 LETM.      15.50.00 07-Aug-20:  Log End Time 
 LOST.hr                     0:  Lost Rig Time 
 LSTM.      10.40.00 06-Aug-20:  Log Start Time 
 MDCL.ppm             36000.00:  Mud Chlorides 
 MDES.     Inversion Oil/Synthetic:  Mud Desc 
 DFD .sg                  1.36:  Mud Density 
 MDMN.sg                  1.36:  Dens Mud Min 
 MDMX.sg                  1.36:  Dens Mud Max 
 MOIL.                      70:  Run Mud Oil % 
 MOWR.                   70:30:  Run Mud OWR 
 MSND.                    0.00:  Run Mud Sand % 
 MSOL.                   17.60:  Run Mud Solids% 
 DFV .spqt               73.00:  Mud Viscosity 
 MWOD.in                  4.75:  MWD Tool OD 
 MWSI.                      No:  Serv Intrp, MWD 
 OTIM.hr                 85.66:  Time Operating 
 PCON.           Look Like New:  Pad Condition 
 PMAX.psia             6250.00:  Press Op, Max 
 PV  .cP                 65.00:  Mud PV 
 RUN .                     900:  Run Number 
 ROPA.m/hr               11.40:  ROP Avg 
 ROPN.m/hr                5.00:  ROP Min 
 ROPX.m/hr               20.00:  ROP Max 
 RPMA.rpm               130.00:  RPM Surface Avg 
 RPMN.rpm                40.00:  RPM Surface Min 
 RPMX.rpm               140.00:  RPM Surface Max 
 RRUN.                    L205:  Rig Run Number 
 RTIM.hr                  1.00:  Time Reaming 
 SAZI.deg               313.52:  Azm, Start 
 SDEP.m                4957.01:  Start Depth 
 SIDD.                      No:  Serv Intrp, DD 
 SINC.deg                73.16:  Inc, Start 
 SPPA.psig             5657.00:  SPP Avg 
 SPPN.psig             2500.00:  SPP Min 
 SPPX.psig             5806.00:  SPP Max 
 STIM.      07.12.00 05-Aug-20:  Start Time 
 SVCS.                 DD, MWD:  Services 
 SVER.                    9.20:  Sperry Version 
 TDAT.m                 243.00:  Tot Depth Attmp 
 TDDF.                      No:  Trip for DD 
 TDLG.m                 243.00:  Tot Depth Loggd 
 TFF .                      No:  Trip for Fail 
 TQAA.f-kp               13.00:  Torque Abs Avg 
 TQAN.f-kp               11.00:  Torque Abs Min 
 TQAX.f-kp               16.00:  Torque Abs Max 
 TRRT.°/30m               1.00:  Turn Rotating 
 MRT .                    HCIM:  Maximum Recorded Temperature 
 TTMX.degC               96.08:  Max Tool Temp 
 VS01.                90515411:  Virtual Str1 SN 
 VS02.                90512716:  Virtual Str2 SN 
 VS03.                90522362:  Virtual Str3 SN 
 VS04.                90619415:  Virtual Str4 SN 
 VS05.                90619414:  Virtual Str5 SN 
 VS06.                90597748:  Virtual Str6 SN 
 WBMN.klb                 2.00:  WOB Min 
 WITN.           Adil Mammadov:  Customer Rep 
 WITN.     Alexander Yadullayev:  Customer Rep 2 
 WOBA.klb                 7.00:  WOB Avg 
 WOBX.klb                23.00:  WOB Max 
 YP  .lhf2               37.00:  Yield Point 
~Curve Information Block
#MNEM.UNIT                 API CODE     Curve Description
#---------               -----------    ---------------------------
 TIME.HHMMSS            00 000 000 000:  GT Time & Date
 GTDEPTH.m              00 000 000 000:  GT Depth
 GTPQH.psia             00 000 000 000:  GT HR Quartz Pressure
 GTTQ.degC              00 000 000 000:  GT Quartz Temperature
 GTTN.NONE              00 000 000 000:  GT Test Number
 GTET.sec               00 000 000 000:  GT Elapsed Test Time
 GTTVD.m                00 000 000 000:  GT True Vertical Depth
#Other Information
#
#WARRANTY: Halliburton will use its best efforts to furnish customers with 
#accurate information and interpretations that are part of, and incident to, the services 
#provided.  However, Halliburton cannot and does not warrant the accuracy 
#or correctness of such information and interpretations.  Under no circumstances should any 
#such information or interpretation be relied upon as the sole basis for any drilling, 
#completion, production, or financial decision or any procedure involving any risk to the 
#safety of any drilling venture, drilling rig or its crew or any other third party.  The 
#Customer has full responsibility for all drilling, completion and production operation.  
#Halliburton makes no representations or warranties, either expressed or 
#implied, including, but not limited to, the implied warranties of merchantability or fitness 
#for a particular purpose, with respect to the services rendered.  In no event will 
#Halliburton be liable for failure to obtain any particular results or for 
#any damages, including, but not limited to, indirect, special or consequential damages, 
#resulting from the use of any information or interpretation provided by Halliburton.
#
~A           TIME           GTDEPTH  GTPQH  GTTQ  GTTN  GTET   GTTVD  
# ...
   06:45:56.026.07-Aug-2020 5088.01 3691.04 88.30 8.00 299.09 2671.45
   06:45:56.226.07-Aug-2020 5088.01 3691.04 88.30 8.00 299.29 2671.45
   06:45:56.426.07-Aug-2020 5088.01 3691.00 88.30 8.00 299.49 2671.45
   06:45:56.626.07-Aug-2020 5088.01 3690.86 88.29 8.00 299.69 2671.45
   06:45:56.826.07-Aug-2020 5088.01 3691.10 88.29 8.00 299.89 2671.45
   06:45:57.026.07-Aug-2020 5088.01 3691.01 88.29 8.00 300.09 2671.45
   06:45:57.226.07-Aug-2020 5088.01 3691.01 88.29 8.00 300.29 2671.45
   06:45:57.426.07-Aug-2020 5088.01 3691.03 88.29 8.00 300.49 2671.45
   06:45:57.626.07-Aug-2020 5088.01 3690.99 88.29 8.00 300.69 2671.45
   06:45:57.826.07-Aug-2020 5088.01 3691.01 88.29 8.00 300.89 2671.45
   06:45:58.026.07-Aug-2020 5088.01 3688.90 88.29 8.00 301.09 2671.45
   06:45:58.226.07-Aug-2020 5088.01 3688.90 88.29 8.00 301.29 2671.45
   06:45:58.427.07-Aug-2020 5088.01 3684.32 88.29 8.00 301.49 2671.45
   06:45:58.627.07-Aug-2020 5088.01 3684.32 88.29 8.00 301.69 2671.45
   06:45:58.827.07-Aug-2020 5088.01 3684.29 88.29 8.00 301.89 2671.45
   06:45:59.027.07-Aug-2020 5088.01 3684.23 88.29 8.00 302.09 2671.45
   06:45:59.227.07-Aug-2020 5088.01 3684.19 88.29 8.00 302.29 2671.45
   06:45:59.427.07-Aug-2020 5088.01 3684.00 88.29 8.00 302.49 2671.45
   06:45:59.627.07-Aug-2020 5088.01 3684.35 88.29 8.00 302.69 2671.45
   06:45:59.827.07-Aug-2020 5088.01 3684.17 88.29 8.00 302.89 2671.45
   06:46:00.027.07-Aug-2020 5088.01 3684.35 88.29 8.00 303.09 2671.45
   06:46:00.227.07-Aug-2020 5088.01 3684.35 88.29 8.00 303.29 2671.45
   06:46:00.427.07-Aug-2020 5088.01 3684.13 88.28 8.00 303.49 2671.45
   06:46:00.627.07-Aug-2020 5088.01 3684.24 88.28 8.00 303.69 2671.45
   06:46:00.827.07-Aug-2020 5088.01 3684.19 88.28 8.00 303.89 2671.45
   06:46:01.027.07-Aug-2020 5088.01 3684.14 88.28 8.00 304.09 2671.45
   06:46:01.227.07-Aug-2020 5088.01 3684.14 88.28 8.00 304.29 2671.45
   06:46:01.427.07-Aug-2020 5088.01 3684.13 88.28 8.00 304.49 2671.45
   06:46:01.627.07-Aug-2020 5088.01 3684.13 88.28 8.00 304.69 2671.45
   06:46:01.828.07-Aug-2020 5088.01 3684.13 88.28 8.00 304.89 2671.45
   06:46:02.028.07-Aug-2020 5088.01 3683.87 88.28 8.00 305.09 2671.45
   06:46:02.228.07-Aug-2020 5088.01 3683.87 88.28 8.00 305.29 2671.45
   06:46:02.428.07-Aug-2020 5088.01 3684.30 88.28 8.00 305.49 2671.45
   06:46:02.628.07-Aug-2020 5088.01 3684.03 88.28 8.00 305.69 2671.45
   06:46:02.828.07-Aug-2020 5088.01 3684.14 88.28 8.00 305.89 2671.45
   06:46:03.028.07-Aug-2020 5088.01 3683.65 88.28 8.00 306.09 2671.45
   06:46:03.228.07-Aug-2020 5088.01 3684.44 88.28 8.00 306.29 2671.45
   06:46:03.428.07-Aug-2020 5088.01 3684.31 88.28 8.00 306.49 2671.45
   06:46:03.628.07-Aug-2020 5088.01 3684.11 88.28 8.00 306.69 2671.45
   06:46:03.828.07-Aug-2020 5088.01 3684.26 88.28 8.00 306.89 2671.45
   06:46:04.028.07-Aug-2020 5088.01 3683.85 88.28 8.00 307.09 2671.45
   06:46:04.228.07-Aug-2020 5088.01 3683.85 88.27 8.00 307.29 2671.45
   06:46:04.428.07-Aug-2020 5088.01 3684.34 88.27 8.00 307.49 2671.45
   06:46:04.628.07-Aug-2020 5088.01 3683.96 88.27 8.00 307.69 2671.45
   06:46:04.828.07-Aug-2020 5088.01 3684.14 88.27 8.00 307.89 2671.45
   06:46:05.028.07-Aug-2020 5088.01 3683.68 88.27 8.00 308.09 2671.45
   06:46:05.229.07-Aug-2020 5088.01 3684.40 88.27 8.00 308.29 2671.45
   06:46:05.429.07-Aug-2020 5088.01 3684.32 88.27 8.00 308.49 2671.45
   06:46:05.629.07-Aug-2020 5088.01 3684.11 88.27 8.00 308.69 2671.45
   06:46:05.829.07-Aug-2020 5088.01 3684.14 88.27 8.00 308.89 2671.45
   06:46:06.029.07-Aug-2020 5088.01 3684.06 88.27 8.00 309.09 2671.45
   06:46:06.229.07-Aug-2020 5088.01 3684.06 88.27 8.00 309.29 2671.45
   06:46:06.429.07-Aug-2020 5088.01 3684.12 88.27 8.00 309.49 2671.45
   06:46:06.629.07-Aug-2020 5088.01 3684.09 88.27 8.00 309.69 2671.45
   06:46:06.829.07-Aug-2020 5088.01 3684.02 88.27 8.00 309.89 2671.45
   06:46:07.029.07-Aug-2020 5088.01 3684.02 88.27 8.00 310.09 2671.45
   06:46:07.229.07-Aug-2020 5088.01 3684.02 88.27 8.00 310.29 2671.45
   06:46:07.429.07-Aug-2020 5088.01 3684.17 88.27 8.00 310.49 2671.45
   06:46:07.629.07-Aug-2020 5088.01 3684.02 88.27 8.00 310.69 2671.45
   06:46:07.829.07-Aug-2020 5088.01 3683.88 88.27 8.00 310.89 2671.45
   06:46:08.029.07-Aug-2020 5088.01 3684.13 88.27 8.00 311.09 2671.45
   06:46:08.229.07-Aug-2020 5088.01 3684.13 88.27 8.00 311.29 2671.45
   06:46:08.429.07-Aug-2020 5088.01 3690.86 88.26 8.00 311.49 2671.45
   06:46:08.629.07-Aug-2020 5088.01 3690.87 88.26 8.00 311.69 2671.45
   06:46:08.830.07-Aug-2020 5088.01 3690.87 88.26 8.00 311.89 2671.45
   06:46:09.030.07-Aug-2020 5088.01 3690.90 88.26 8.00 312.09 2671.45
   06:46:09.230.07-Aug-2020 5088.01 3690.91 88.26 8.00 312.29 2671.45
   06:46:09.430.07-Aug-2020 5088.01 3690.90 88.26 8.00 312.49 2671.45
   06:46:09.630.07-Aug-2020 5088.01 3690.90 88.26 8.00 312.69 2671.45
   06:46:09.830.07-Aug-2020 5088.01 3690.91 88.26 8.00 312.89 2671.45
   06:46:10.030.07-Aug-2020 5088.01 3690.92 88.26 8.00 313.09 2671.45
   06:46:10.230.07-Aug-2020 5088.01 3690.92 88.26 8.00 313.29 2671.45
   06:46:10.430.07-Aug-2020 5088.01 3690.83 88.26 8.00 313.49 2671.45
   06:46:10.630.07-Aug-2020 5088.01 3690.99 88.26 8.00 313.69 2671.45
   06:46:10.830.07-Aug-2020 5088.01 3690.99 88.26 8.00 313.89 2671.45
   06:46:11.030.07-Aug-2020 5088.01 3690.92 88.26 8.00 314.09 2671.45
   06:46:11.230.07-Aug-2020 5088.01 3690.92 88.26 8.00 314.29 2671.45
   06:46:11.430.07-Aug-2020 5088.01 3690.95 88.26 8.00 314.49 2671.45
   06:46:11.630.07-Aug-2020 5088.01 3691.02 88.26 8.00 314.69 2671.45
   06:46:11.830.07-Aug-2020 5088.01 3690.92 88.26 8.00 314.89 2671.45
   06:46:12.030.07-Aug-2020 5088.01 3691.00 88.25 8.00 315.09 2671.45
   06:46:12.231.07-Aug-2020 5088.01 3691.00 88.25 8.00 315.29 2671.45
   06:46:12.431.07-Aug-2020 5088.01 3690.81 88.25 8.00 315.49 2671.45
   06:46:12.631.07-Aug-2020 5088.01 3691.08 88.25 8.00 315.69 2671.45
   06:46:12.831.07-Aug-2020 5088.01 3691.00 88.25 8.00 315.89 2671.45
   06:46:13.031.07-Aug-2020 5088.01 3690.96 88.25 8.00 316.09 2671.45
   06:46:13.231.07-Aug-2020 5088.01 3690.99 88.25 8.00 316.29 2671.45
   06:46:13.431.07-Aug-2020 5088.01 3690.96 88.25 8.00 316.49 2671.45
   06:46:13.631.07-Aug-2020 5088.01 3690.95 88.25 8.00 316.69 2671.45
   06:46:13.831.07-Aug-2020 5088.01 3690.95 88.25 8.00 316.89 2671.45
   06:46:14.031.07-Aug-2020 5088.01 3691.00 88.25 8.00 317.09 2671.45
   06:46:14.231.07-Aug-2020 5088.01 3691.00 88.25 8.00 317.29 2671.45
   06:46:14.431.07-Aug-2020 5088.01 3691.00 88.25 8.00 317.49 2671.45
   06:46:14.631.07-Aug-2020 5088.01 3690.99 88.25 8.00 317.69 2671.45
   06:46:14.831.07-Aug-2020 5088.01 3690.97 88.25 8.00 317.89 2671.45
   06:46:15.031.07-Aug-2020 5088.01 3690.98 88.25 8.00 318.09 2671.45
   06:46:15.231.07-Aug-2020 5088.01 3690.98 88.25 8.00 318.29 2671.45
   06:46:15.431.07-Aug-2020 5088.01 3690.97 88.25 8.00 318.49 2671.45
   06:46:15.632.07-Aug-2020 5088.01 3690.96 88.25 8.00 318.69 2671.45
   06:46:15.832.07-Aug-2020 5088.01 3690.98 88.24 8.00 318.89 2671.45
   06:46:16.032.07-Aug-2020 5088.01 3690.94 88.24 8.00 319.09 2671.45
   06:46:16.232.07-Aug-2020 5088.01 3690.94 88.24 8.00 319.29 2671.45
   06:46:16.432.07-Aug-2020 5088.01 3690.85 88.24 8.00 319.49 2671.45
   06:46:16.632.07-Aug-2020 5088.01 3691.02 88.24 8.00 319.69 2671.45
   06:46:16.832.07-Aug-2020 5088.01 3690.99 88.24 8.00 319.89 2671.45
   06:46:17.032.07-Aug-2020 5088.01 3690.95 88.24 8.00 320.09 2671.45
   06:46:17.232.07-Aug-2020 5088.01 3690.95 88.24 8.00 320.29 2671.45
   06:46:17.432.07-Aug-2020 5088.01 3690.97 88.24 8.00 320.49 2671.45
   06:46:17.632.07-Aug-2020 5088.01 3690.96 88.24 8.00 320.69 2671.45
   06:46:17.832.07-Aug-2020 5088.01 3690.97 88.24 8.00 320.89 2671.45
   06:46:18.032.07-Aug-2020 5088.01 3690.97 88.24 8.00 321.09 2671.45
   06:46:18.232.07-Aug-2020 5088.01 3690.97 88.24 8.00 321.29 2671.45
   06:46:18.432.07-Aug-2020 5088.01 3690.96 88.24 8.00 321.49 2671.45
   06:46:18.632.07-Aug-2020 5088.01 3690.96 88.24 8.00 321.69 2671.45
   06:46:18.832.07-Aug-2020 5088.01 3690.95 88.24 8.00 321.89 2671.45
