~Version Information
 VERS.                  2.0:   CWLS log ASCII Standard -VERSION 2.0
 WRAP.                   NO:   One line per depth step
~Well Information Block
#MNEM.UNIT     VALUE/NAME     DESCRIPTION
#---------     -----------    ---------------------------
 STRT.S             09:21:48 07-Aug-20: START TIME 09:21:48 07-Aug-20
 STOP.S             09:29:41 07-Aug-20: STOP TIME  09:29:41 07-Aug-20
 STEP.S                   0.00: STEP TIME
 NULL.                 -999.25: NULL VALUE
 DFWT.                        :  DIST FWL TEXT
 DFST.                        :  DIST FSL TEXT
 DMF .             Drill Floor:  DRILL MEAS FROM
 STIM.      12.00.00 03-Jul-20:  START TIME
 DATE.      00.50.00 09-Aug-20:  END TIME
 SPUD.               03-Jul-20:  SPUD DATE
 NREF.                    Grid:  NORTH REFERENCE
 HPTY.       Minimum Curvature:  HOLE POS TYPE
 DMOD.             Drill Model:  DRILL MOD DESC
 SVYD.                  Survey:  SURVEY DESC
 ILTD.               Lithology:  INTERP LTH DESC
 FTOP.          Formation Tops:  FORM TOPS DESC
 PDAT.          Mean Sea Level:  PERMANENT DATUM
 FLD .                     ACG:  FIELD NAME
 CTRY.              Azerbaijan:  COUNTRY NAME
 WELL.                    E04x:  WELL NAME
 SRVC.          Turan Drilling:  CONTRACTOR
 COMP.     BP Exploration (Caspian Sea) Ltd.:  COMPANY
 SON .        AZ-XX-0906531346:  JOB NUMBER
 WTYP.                Deviated:  WELL TYPE
 MDS .        Operator Entered:  MAG DATA SOURCE
 UWI .                     N/A:  UNIQUE WELL IDENTIFIER
 API .                     N/A:  API NUMBER
 BASE.              Azerbaijan:  LOGGING EQUIPMENT BASE LOCATION
 REGN.                   EESSA:  REGION
 PROV.                    Baku:  PROVINCE
 STAT.                    Baku:  STATE NAME
 MWDS.                    Baku:  MWD SHOP
 JOBN.        AZ-XX-0906531346:  JOB TICKET NUMB
 RIG .                     DWG:  RIG NAME
 DOE .                     N/A:  DOE NUMBER
 DCON.         Sperry Drilling:  DIRECTNL CONTR
 UNIT.                     N/A:  LOGGING EQUIPMENT ID
 CNTY.                        :  COUNTY
 LOC .                        :  LOCATION
 LMF .             Drill Floor:  LOG MEASURED FROM
 TVDS.m                  43.16:  TVDSS CORRECTN
 LATI.deg                40.17:  LATITUDE
 LONG.deg                51.17:  LONGITUDE
 WHNS.m                  -0.12:  WELL HEAD N/S
 WHEW.m                  -5.41:  WELL HEAD E/W
 UTMX.m              514337.95:  UTM X
 UTMY.m             4448627.46:  UTM Y
 DFWL.m                   0.00:  DISTANCE FWL
 DFSL.m                   0.00:  DISTANCE FSL
 SDEP.m                3088.01:  START DEPTH
 TDD .m                5200.01:  TOTAL DEPTH (DRILLER)
 VSDR.deg               244.51:  VERT SEC DIRECT
 GVFD.g                   1.00:  GRAVITY FIELD
 MFLD.nT              50329.80:  MAGNETIC FIELD
 MDIP.deg                59.63:  MAGNETIC DIP
 MDEC.deg                 6.59:  MAGNETIC DECL
 GRDC.deg                 0.09:  GRID CORRECTION
 AZTC.deg                 6.50:  AZM TOTAL CORR
 EPD .m                   0.00:  ELEVATION
 EGL .m                   0.00:  GROUND ELEVATION
 WDMS.m                 176.20:  WD ELEV
 APD .m                  43.16:  DEPTH ABOVE PD
 DEP .m                3084.71:  DEPTH
 AGAP.m                  43.16:  AIR GAP
 VSEW.m                  -5.41:  VERT SEC E/W
 VSNS.m                  -0.12:  VERT SEC N/S
 EKB .m                   0.00:  KB ELEVATION
 EDF .m                  43.16:  DF ELEVATION
 TDL .m                 243.00:  TOTAL DEPTH (LOGGER)
 VSC .                       0:  VS TO CLOSURE
 MAGU.                 1853542:  MAGUTM CHECKSUM
~Parameter Information Block
#MNEM.UNIT       Value        Description
#---------     -----------    ---------------------------
 AV  .mps                 1.91:  Ann Velocity 
 AVMX.mps                 2.52:  Max Ann Veloc 
 AZIF.deg               308.97:  Azm, Final 
 BHAT.        Rotary Steerable:  BHA Type 
 BROT.∞/30m               1.00:  Build Rotating 
 BS  .in                  6.50:  Bit Size 
 BSZ .in                  6.50:  Bit Size 
 BTPL.psig              350.00:  Bit Press Loss 
 CABU.                      No:  Customer Abuse 
 CGEO.           Asif Pashayev:  Customer Geo 
 COMM.                     ,[Å:  Run Comments 1 
 TCS .hr                 35.86:  Time Ciculation Ended 
 CV  .mps                 2.31:  Crit Velocity 
 CVMX.mps                 2.31:  Max Crit Veloc 
 DD1 .         Intigam Rahimov:  Direct Drillr 1 
 DDSV.               Geo-Pilot:  DD Service 
 DEFF.%                  92.00:  % Det Eff 
 DLRX.∞/30m               1.00:  Dogleg Rot Max 
 DLSO.∞/30m               1.00:  Dogleg Oriented 
 DLSX.∞/30m               1.42:  Dogleg Str Max 
 DRET.      15.50.00 07-Aug-20:  Drill End Time 
 DRST.      10.40.00 06-Aug-20:  Drill Start Tim 
 DTIM.hr                 21.30:  Time Drilling 
 EDEP.m                5200.01:  End Depth 
 ENG1.            Alan Tuganov:  Engineer 1 
 ENG2.         Almaz Almadatov:  Engineer 2 
 ENG3.     Zammelal Abdullah Sani:  Engineer 3 
 ETIM.      22.42.00 08-Aug-20:  End Time 
 FLOI.gpm               395.00:  Flow In 
 FLON.gpm               350.00:  Flow In Min 
 FLOS.cptm                0.00:  Fluid Loss 
 FLOX.gpm               404.00:  Flow In Max 
 FTRO.       Formation Presure:  FTWD Run Obj 
 HFLO.                      No:  High Flow 
 HPRE.                      No:  High Pressure 
 HTEM.                      No:  High Temp 
 HYDO.m                   1.80:  Hydro Offset 
 IFIN.deg                72.64:  Inc, Final 
 IMAX.deg                73.68:  Inc Max 
 IMIN.deg                72.64:  Inc Min 
 IMND.m                5189.69:  Inc Min Depth 
 IMXD.m                5067.88:  Inc Max Depth 
 JARR.                      No:  Jarring 
 LETM.      15.50.00 07-Aug-20:  Log End Time 
 LOST.hr                     0:  Lost Rig Time 
 LSTM.      10.40.00 06-Aug-20:  Log Start Time 
 MDCL.ppm             36000.00:  Mud Chlorides 
 MDES.     Inversion Oil/Synthetic:  Mud Desc 
 DFD .sg                  1.36:  Mud Density 
 MDMN.sg                  1.36:  Dens Mud Min 
 MDMX.sg                  1.36:  Dens Mud Max 
 MOIL.                      70:  Run Mud Oil % 
 MOWR.                   70:30:  Run Mud OWR 
 MSND.                    0.00:  Run Mud Sand % 
 MSOL.                   17.60:  Run Mud Solids% 
 DFV .spqt               73.00:  Mud Viscosity 
 MWOD.in                  4.75:  MWD Tool OD 
 MWSI.                      No:  Serv Intrp, MWD 
 OTIM.hr                 85.66:  Time Operating 
 PCON.           Look Like New:  Pad Condition 
 PMAX.psia             6250.00:  Press Op, Max 
 PV  .cP                 65.00:  Mud PV 
 RUN .                     900:  Run Number 
 ROPA.m/hr               11.40:  ROP Avg 
 ROPN.m/hr                5.00:  ROP Min 
 ROPX.m/hr               20.00:  ROP Max 
 RPMA.rpm               130.00:  RPM Surface Avg 
 RPMN.rpm                40.00:  RPM Surface Min 
 RPMX.rpm               140.00:  RPM Surface Max 
 RRUN.                    L205:  Rig Run Number 
 RTIM.hr                  1.00:  Time Reaming 
 SAZI.deg               313.52:  Azm, Start 
 SDEP.m                4957.01:  Start Depth 
 SIDD.                      No:  Serv Intrp, DD 
 SINC.deg                73.16:  Inc, Start 
 SPPA.psig             5657.00:  SPP Avg 
 SPPN.psig             2500.00:  SPP Min 
 SPPX.psig             5806.00:  SPP Max 
 STIM.      07.12.00 05-Aug-20:  Start Time 
 SVCS.                 DD, MWD:  Services 
 SVER.                    9.20:  Sperry Version 
 TDAT.m                 243.00:  Tot Depth Attmp 
 TDDF.                      No:  Trip for DD 
 TDLG.m                 243.00:  Tot Depth Loggd 
 TFF .                      No:  Trip for Fail 
 TQAA.f-kp               13.00:  Torque Abs Avg 
 TQAN.f-kp               11.00:  Torque Abs Min 
 TQAX.f-kp               16.00:  Torque Abs Max 
 TRRT.∞/30m               1.00:  Turn Rotating 
 MRT .                    HCIM:  Maximum Recorded Temperature 
 TTMX.degC               96.08:  Max Tool Temp 
 VS01.                90515411:  Virtual Str1 SN 
 VS02.                90512716:  Virtual Str2 SN 
 VS03.                90522362:  Virtual Str3 SN 
 VS04.                90619415:  Virtual Str4 SN 
 VS05.                90619414:  Virtual Str5 SN 
 VS06.                90597748:  Virtual Str6 SN 
 WBMN.klb                 2.00:  WOB Min 
 WITN.           Adil Mammadov:  Customer Rep 
 WITN.     Alexander Yadullayev:  Customer Rep 2 
 WOBA.klb                 7.00:  WOB Avg 
 WOBX.klb                23.00:  WOB Max 
 YP  .lhf2               37.00:  Yield Point 
~Curve Information Block
#MNEM.UNIT                 API CODE     Curve Description
#---------               -----------    ---------------------------
 TIME.HHMMSS            00 000 000 000:  GT Time & Date
 GTDEPTH.m              00 000 000 000:  GT Depth
 GTPQH.psia             00 000 000 000:  GT HR Quartz Pressure
 GTTQ.degC              00 000 000 000:  GT Quartz Temperature
 GTTN.NONE              00 000 000 000:  GT Test Number
 GTET.sec               00 000 000 000:  GT Elapsed Test Time
 GTTVD.m                00 000 000 000:  GT True Vertical Depth
#Other Information
#
#WARRANTY: Halliburton will use its best efforts to furnish customers with 
#accurate information and interpretations that are part of, and incident to, the services 
#provided.  However, Halliburton cannot and does not warrant the accuracy 
#or correctness of such information and interpretations.  Under no circumstances should any 
#such information or interpretation be relied upon as the sole basis for any drilling, 
#completion, production, or financial decision or any procedure involving any risk to the 
#safety of any drilling venture, drilling rig or its crew or any other third party.  The 
#Customer has full responsibility for all drilling, completion and production operation.  
#Halliburton makes no representations or warranties, either expressed or 
#implied, including, but not limited to, the implied warranties of merchantability or fitness 
#for a particular purpose, with respect to the services rendered.  In no event will 
#Halliburton be liable for failure to obtain any particular results or for 
#any damages, including, but not limited to, indirect, special or consequential damages, 
#resulting from the use of any information or interpretation provided by Halliburton.
#
~A           TIME           GTDEPTH  GTPQH  GTTQ  GTTN  GTET   GTTVD  
# ...
   09:26:01.498.07-Aug-2020 5109.01 3406.43 86.38 9.00 252.92 2677.54
   09:26:01.698.07-Aug-2020 5109.01 3406.50 86.38 9.00 253.12 2677.54
   09:26:01.898.07-Aug-2020 5109.01 3406.51 86.38 9.00 253.32 2677.54
   09:26:02.098.07-Aug-2020 5109.01 3406.40 86.38 9.00 253.52 2677.54
   09:26:02.298.07-Aug-2020 5109.01 3406.52 86.38 9.00 253.72 2677.54
   09:26:02.498.07-Aug-2020 5109.01 3406.49 86.38 9.00 253.92 2677.54
   09:26:02.698.07-Aug-2020 5109.01 3406.49 86.38 9.00 254.12 2677.54
   09:26:02.898.07-Aug-2020 5109.01 3406.50 86.38 9.00 254.32 2677.54
   09:26:03.098.07-Aug-2020 5109.01 3406.49 86.38 9.00 254.52 2677.54
   09:26:03.298.07-Aug-2020 5109.01 3406.49 86.38 9.00 254.72 2677.54
   09:26:03.498.07-Aug-2020 5109.01 3406.49 86.38 9.00 254.92 2677.54
   09:26:03.698.07-Aug-2020 5109.01 3406.49 86.38 9.00 255.12 2677.54
   09:26:03.898.07-Aug-2020 5109.01 3406.49 86.38 9.00 255.32 2677.54
   09:26:04.098.07-Aug-2020 5109.01 3406.48 86.38 9.00 255.52 2677.54
   09:26:04.298.07-Aug-2020 5109.01 3406.49 86.38 9.00 255.72 2677.54
   09:26:04.498.07-Aug-2020 5109.01 3406.46 86.38 9.00 255.92 2677.54
   09:26:04.697.07-Aug-2020 5109.01 3406.46 86.38 9.00 256.12 2677.54
   09:26:04.897.07-Aug-2020 5109.01 3406.51 86.38 9.00 256.32 2677.54
   09:26:05.097.07-Aug-2020 5109.01 3406.51 86.37 9.00 256.52 2677.54
   09:26:05.297.07-Aug-2020 5109.01 3406.43 86.37 9.00 256.72 2677.54
   09:26:05.497.07-Aug-2020 5109.01 3406.50 86.37 9.00 256.92 2677.54
   09:26:05.697.07-Aug-2020 5109.01 3406.50 86.37 9.00 257.12 2677.54
   09:26:05.897.07-Aug-2020 5109.01 3406.48 86.37 9.00 257.32 2677.54
   09:26:06.097.07-Aug-2020 5109.01 3406.48 86.37 9.00 257.52 2677.54
   09:26:06.297.07-Aug-2020 5109.01 3406.49 86.37 9.00 257.72 2677.54
   09:26:06.497.07-Aug-2020 5109.01 3406.48 86.37 9.00 257.92 2677.54
   09:26:06.697.07-Aug-2020 5109.01 3406.48 86.37 9.00 258.12 2677.54
   09:26:06.897.07-Aug-2020 5109.01 3406.47 86.37 9.00 258.32 2677.54
   09:26:07.097.07-Aug-2020 5109.01 3406.48 86.37 9.00 258.52 2677.54
   09:26:07.297.07-Aug-2020 5109.01 3406.47 86.37 9.00 258.72 2677.54
   09:26:07.497.07-Aug-2020 5109.01 3406.33 86.37 9.00 258.92 2677.54
   09:26:07.697.07-Aug-2020 5109.01 3406.33 86.37 9.00 259.12 2677.54
   09:26:07.897.07-Aug-2020 5109.01 3406.51 86.37 9.00 259.32 2677.54
   09:26:08.096.07-Aug-2020 5109.01 3406.46 86.37 9.00 259.52 2677.54
   09:26:08.296.07-Aug-2020 5109.01 3406.34 86.37 9.00 259.72 2677.54
   09:26:08.496.07-Aug-2020 5109.01 3406.58 86.37 9.00 259.92 2677.54
   09:26:08.696.07-Aug-2020 5109.01 3406.58 86.37 9.00 260.12 2677.54
   09:26:08.896.07-Aug-2020 5109.01 3406.46 86.37 9.00 260.32 2677.54
   09:26:09.096.07-Aug-2020 5109.01 3406.50 86.37 9.00 260.52 2677.54
   09:26:09.296.07-Aug-2020 5109.01 3406.50 86.37 9.00 260.72 2677.54
   09:26:09.496.07-Aug-2020 5109.01 3406.33 86.37 9.00 260.92 2677.54
   09:26:09.696.07-Aug-2020 5109.01 3406.45 86.37 9.00 261.12 2677.54
   09:26:09.896.07-Aug-2020 5109.01 3406.44 86.37 9.00 261.32 2677.54
   09:26:10.096.07-Aug-2020 5109.01 3406.51 86.37 9.00 261.52 2677.54
   09:26:10.296.07-Aug-2020 5109.01 3406.50 86.37 9.00 261.72 2677.54
   09:26:10.496.07-Aug-2020 5109.01 3406.39 86.37 9.00 261.92 2677.54
   09:26:10.696.07-Aug-2020 5109.01 3406.52 86.37 9.00 262.12 2677.54
   09:26:10.896.07-Aug-2020 5109.01 3406.52 86.37 9.00 262.32 2677.54
   09:26:11.096.07-Aug-2020 5109.01 3406.45 86.37 9.00 262.52 2677.54
   09:26:11.295.07-Aug-2020 5109.01 3406.51 86.37 9.00 262.72 2677.54
   09:26:11.495.07-Aug-2020 5109.01 3406.50 86.37 9.00 262.92 2677.54
   09:26:11.695.07-Aug-2020 5109.01 3406.47 86.36 9.00 263.12 2677.54
   09:26:11.895.07-Aug-2020 5109.01 3406.48 86.36 9.00 263.32 2677.54
   09:26:12.095.07-Aug-2020 5109.01 3406.49 86.36 9.00 263.52 2677.54
   09:26:12.295.07-Aug-2020 5109.01 3406.47 86.36 9.00 263.72 2677.54
   09:26:12.495.07-Aug-2020 5109.01 3406.48 86.36 9.00 263.92 2677.54
   09:26:12.695.07-Aug-2020 5109.01 3406.48 86.36 9.00 264.12 2677.54
   09:26:12.895.07-Aug-2020 5109.01 3406.47 86.36 9.00 264.32 2677.54
   09:26:13.095.07-Aug-2020 5109.01 3406.47 86.36 9.00 264.52 2677.54
   09:26:13.295.07-Aug-2020 5109.01 3406.39 86.36 9.00 264.72 2677.54
   09:26:13.495.07-Aug-2020 5109.01 3406.50 86.36 9.00 264.92 2677.54
   09:26:13.695.07-Aug-2020 5109.01 3406.50 86.36 9.00 265.12 2677.54
   09:26:13.895.07-Aug-2020 5109.01 3406.47 86.36 9.00 265.32 2677.54
   09:26:14.095.07-Aug-2020 5109.01 3406.49 86.36 9.00 265.52 2677.54
   09:26:14.295.07-Aug-2020 5109.01 3406.47 86.36 9.00 265.72 2677.54
   09:26:14.495.07-Aug-2020 5109.01 3406.47 86.36 9.00 265.92 2677.54
   09:26:14.694.07-Aug-2020 5109.01 3406.47 86.36 9.00 266.12 2677.54
   09:26:14.894.07-Aug-2020 5109.01 3406.47 86.36 9.00 266.32 2677.54
   09:26:15.094.07-Aug-2020 5109.01 3406.47 86.36 9.00 266.52 2677.54
   09:26:15.294.07-Aug-2020 5109.01 3406.47 86.36 9.00 266.72 2677.54
   09:26:15.494.07-Aug-2020 5109.01 3406.48 86.36 9.00 266.92 2677.54
   09:26:15.694.07-Aug-2020 5109.01 3406.48 86.36 9.00 267.12 2677.54
   09:26:15.894.07-Aug-2020 5109.01 3406.41 86.36 9.00 267.32 2677.54
   09:26:16.094.07-Aug-2020 5109.01 3406.49 86.36 9.00 267.52 2677.54
   09:26:16.294.07-Aug-2020 5109.01 3406.48 86.36 9.00 267.72 2677.54
   09:26:16.494.07-Aug-2020 5109.01 3406.45 86.36 9.00 267.92 2677.54
   09:26:16.694.07-Aug-2020 5109.01 3406.45 86.36 9.00 268.12 2677.54
   09:26:16.894.07-Aug-2020 5109.01 3406.46 86.36 9.00 268.32 2677.54
   09:26:17.094.07-Aug-2020 5109.01 3406.47 86.36 9.00 268.52 2677.54
   09:26:17.294.07-Aug-2020 5109.01 3406.45 86.36 9.00 268.72 2677.54
   09:26:17.494.07-Aug-2020 5109.01 3406.51 86.36 9.00 268.92 2677.54
   09:26:17.694.07-Aug-2020 5109.01 3406.47 86.36 9.00 269.12 2677.54
   09:26:17.894.07-Aug-2020 5109.01 3406.33 86.36 9.00 269.32 2677.54
   09:26:18.093.07-Aug-2020 5109.01 3406.57 86.36 9.00 269.52 2677.54
   09:26:18.293.07-Aug-2020 5109.01 3406.52 86.35 9.00 269.72 2677.54
   09:26:18.493.07-Aug-2020 5109.01 3406.43 86.35 9.00 269.92 2677.54
   09:26:18.693.07-Aug-2020 5109.01 3406.43 86.35 9.00 270.12 2677.54
   09:26:18.893.07-Aug-2020 5109.01 3406.50 86.35 9.00 270.32 2677.54
   09:26:19.093.07-Aug-2020 5109.01 3406.37 86.35 9.00 270.52 2677.54
   09:26:19.293.07-Aug-2020 5109.01 3406.51 86.35 9.00 270.72 2677.54
   09:26:19.493.07-Aug-2020 5109.01 3406.48 86.35 9.00 270.92 2677.54
   09:26:19.693.07-Aug-2020 5109.01 3406.48 86.35 9.00 271.12 2677.54
   09:26:19.893.07-Aug-2020 5109.01 3406.48 86.35 9.00 271.32 2677.54
   09:26:20.093.07-Aug-2020 5109.01 3406.48 86.35 9.00 271.52 2677.54
   09:26:20.293.07-Aug-2020 5109.01 3406.48 86.35 9.00 271.72 2677.54
   09:26:20.493.07-Aug-2020 5109.01 3406.48 86.35 9.00 271.92 2677.54
   09:26:20.693.07-Aug-2020 5109.01 3406.48 86.35 9.00 272.12 2677.54
   09:26:20.893.07-Aug-2020 5109.01 3406.48 86.35 9.00 272.32 2677.54
   09:26:21.093.07-Aug-2020 5109.01 3406.47 86.35 9.00 272.52 2677.54
   09:26:21.292.07-Aug-2020 5109.01 3406.47 86.35 9.00 272.72 2677.54
   09:26:21.492.07-Aug-2020 5109.01 3406.46 86.35 9.00 272.92 2677.54
   09:26:21.692.07-Aug-2020 5109.01 3406.37 86.35 9.00 273.12 2677.54
   09:26:21.892.07-Aug-2020 5109.01 3406.51 86.35 9.00 273.32 2677.54
   09:26:22.092.07-Aug-2020 5109.01 3406.50 86.35 9.00 273.52 2677.54
   09:26:22.292.07-Aug-2020 5109.01 3406.42 86.35 9.00 273.72 2677.54
   09:26:22.492.07-Aug-2020 5109.01 3406.49 86.35 9.00 273.92 2677.54
   09:26:22.692.07-Aug-2020 5109.01 3406.49 86.35 9.00 274.12 2677.54
   09:26:22.892.07-Aug-2020 5109.01 3406.45 86.35 9.00 274.32 2677.54
   09:26:23.092.07-Aug-2020 5109.01 3406.47 86.35 9.00 274.52 2677.54
   09:26:23.292.07-Aug-2020 5109.01 3406.47 86.35 9.00 274.72 2677.54
   09:26:23.492.07-Aug-2020 5109.01 3406.48 86.35 9.00 274.92 2677.54
   09:26:23.692.07-Aug-2020 5109.01 3406.48 86.35 9.00 275.12 2677.54
   09:26:23.892.07-Aug-2020 5109.01 3406.46 86.35 9.00 275.32 2677.54
   09:26:24.092.07-Aug-2020 5109.01 3406.47 86.35 9.00 275.52 2677.54
   09:26:24.292.07-Aug-2020 5109.01 3406.46 86.35 9.00 275.72 2677.54
