~Version Information
 VERS.                  2.0:   CWLS log ASCII Standard -VERSION 2.0
 WRAP.                   NO:   One line per depth step
~Well Information Block
#MNEM.UNIT     VALUE/NAME     DESCRIPTION
#---------     -----------    ---------------------------
 STRT.S             16:10:03 06-Aug-20: START TIME 16:10:03 06-Aug-20
 STOP.S             16:17:57 06-Aug-20: STOP TIME  16:17:57 06-Aug-20
 STEP.S                   0.00: STEP TIME
 NULL.                 -999.25: NULL VALUE
 DFWT.                        :  DIST FWL TEXT
 DFST.                        :  DIST FSL TEXT
 DMF .             Drill Floor:  DRILL MEAS FROM
 STIM.      12.00.00 03-Jul-20:  START TIME
 DATE.      00.50.00 09-Aug-20:  END TIME
 SPUD.               03-Jul-20:  SPUD DATE
 NREF.                    Grid:  NORTH REFERENCE
 HPTY.       Minimum Curvature:  HOLE POS TYPE
 DMOD.             Drill Model:  DRILL MOD DESC
 SVYD.                  Survey:  SURVEY DESC
 ILTD.               Lithology:  INTERP LTH DESC
 FTOP.          Formation Tops:  FORM TOPS DESC
 PDAT.          Mean Sea Level:  PERMANENT DATUM
 FLD .                     ACG:  FIELD NAME
 CTRY.              Azerbaijan:  COUNTRY NAME
 WELL.                    E04x:  WELL NAME
 SRVC.          Turan Drilling:  CONTRACTOR
 COMP.     BP Exploration (Caspian Sea) Ltd.:  COMPANY
 SON .        AZ-XX-0906531346:  JOB NUMBER
 WTYP.                Deviated:  WELL TYPE
 MDS .        Operator Entered:  MAG DATA SOURCE
 UWI .                     N/A:  UNIQUE WELL IDENTIFIER
 API .                     N/A:  API NUMBER
 BASE.              Azerbaijan:  LOGGING EQUIPMENT BASE LOCATION
 REGN.                   EESSA:  REGION
 PROV.                    Baku:  PROVINCE
 STAT.                    Baku:  STATE NAME
 MWDS.                    Baku:  MWD SHOP
 JOBN.        AZ-XX-0906531346:  JOB TICKET NUMB
 RIG .                     DWG:  RIG NAME
 DOE .                     N/A:  DOE NUMBER
 DCON.         Sperry Drilling:  DIRECTNL CONTR
 UNIT.                     N/A:  LOGGING EQUIPMENT ID
 CNTY.                        :  COUNTY
 LOC .                        :  LOCATION
 LMF .             Drill Floor:  LOG MEASURED FROM
 TVDS.m                  43.16:  TVDSS CORRECTN
 LATI.deg                40.17:  LATITUDE
 LONG.deg                51.17:  LONGITUDE
 WHNS.m                  -0.12:  WELL HEAD N/S
 WHEW.m                  -5.41:  WELL HEAD E/W
 UTMX.m              514337.95:  UTM X
 UTMY.m             4448627.46:  UTM Y
 DFWL.m                   0.00:  DISTANCE FWL
 DFSL.m                   0.00:  DISTANCE FSL
 SDEP.m                3088.01:  START DEPTH
 TDD .m                5200.01:  TOTAL DEPTH (DRILLER)
 VSDR.deg               244.51:  VERT SEC DIRECT
 GVFD.g                   1.00:  GRAVITY FIELD
 MFLD.nT              50329.80:  MAGNETIC FIELD
 MDIP.deg                59.63:  MAGNETIC DIP
 MDEC.deg                 6.59:  MAGNETIC DECL
 GRDC.deg                 0.09:  GRID CORRECTION
 AZTC.deg                 6.50:  AZM TOTAL CORR
 EPD .m                   0.00:  ELEVATION
 EGL .m                   0.00:  GROUND ELEVATION
 WDMS.m                 176.20:  WD ELEV
 APD .m                  43.16:  DEPTH ABOVE PD
 DEP .m                3084.71:  DEPTH
 AGAP.m                  43.16:  AIR GAP
 VSEW.m                  -5.41:  VERT SEC E/W
 VSNS.m                  -0.12:  VERT SEC N/S
 EKB .m                   0.00:  KB ELEVATION
 EDF .m                  43.16:  DF ELEVATION
 TDL .m                 243.00:  TOTAL DEPTH (LOGGER)
 VSC .                       0:  VS TO CLOSURE
 MAGU.                 1853542:  MAGUTM CHECKSUM
~Parameter Information Block
#MNEM.UNIT       Value        Description
#---------     -----------    ---------------------------
 AV  .mps                 1.91:  Ann Velocity 
 AVMX.mps                 2.52:  Max Ann Veloc 
 AZIF.deg               308.97:  Azm, Final 
 BHAT.        Rotary Steerable:  BHA Type 
 BROT.°/30m               1.00:  Build Rotating 
 BS  .in                  6.50:  Bit Size 
 BSZ .in                  6.50:  Bit Size 
 BTPL.psig              350.00:  Bit Press Loss 
 CABU.                      No:  Customer Abuse 
 CGEO.           Asif Pashayev:  Customer Geo 
 COMM.                     Ôöj:  Run Comments 1 
 TCS .hr                 35.86:  Time Ciculation Ended 
 CV  .mps                 2.31:  Crit Velocity 
 CVMX.mps                 2.31:  Max Crit Veloc 
 DD1 .         Intigam Rahimov:  Direct Drillr 1 
 DDSV.               Geo-Pilot:  DD Service 
 DEFF.%                  92.00:  % Det Eff 
 DLRX.°/30m               1.00:  Dogleg Rot Max 
 DLSO.°/30m               1.00:  Dogleg Oriented 
 DLSX.°/30m               1.42:  Dogleg Str Max 
 DRET.      15.50.00 07-Aug-20:  Drill End Time 
 DRST.      10.40.00 06-Aug-20:  Drill Start Tim 
 DTIM.hr                 21.30:  Time Drilling 
 EDEP.m                5200.01:  End Depth 
 ENG1.            Alan Tuganov:  Engineer 1 
 ENG2.         Almaz Almadatov:  Engineer 2 
 ENG3.     Zammelal Abdullah Sani:  Engineer 3 
 ETIM.      22.42.00 08-Aug-20:  End Time 
 FLOI.gpm               395.00:  Flow In 
 FLON.gpm               350.00:  Flow In Min 
 FLOS.cptm                0.00:  Fluid Loss 
 FLOX.gpm               404.00:  Flow In Max 
 FTRO.       Formation Presure:  FTWD Run Obj 
 HFLO.                      No:  High Flow 
 HPRE.                      No:  High Pressure 
 HTEM.                      No:  High Temp 
 HYDO.m                   1.80:  Hydro Offset 
 IFIN.deg                72.64:  Inc, Final 
 IMAX.deg                73.68:  Inc Max 
 IMIN.deg                72.64:  Inc Min 
 IMND.m                5189.69:  Inc Min Depth 
 IMXD.m                5067.88:  Inc Max Depth 
 JARR.                      No:  Jarring 
 LETM.      15.50.00 07-Aug-20:  Log End Time 
 LOST.hr                     0:  Lost Rig Time 
 LSTM.      10.40.00 06-Aug-20:  Log Start Time 
 MDCL.ppm             36000.00:  Mud Chlorides 
 MDES.     Inversion Oil/Synthetic:  Mud Desc 
 DFD .sg                  1.36:  Mud Density 
 MDMN.sg                  1.36:  Dens Mud Min 
 MDMX.sg                  1.36:  Dens Mud Max 
 MOIL.                      70:  Run Mud Oil % 
 MOWR.                   70:30:  Run Mud OWR 
 MSND.                    0.00:  Run Mud Sand % 
 MSOL.                   17.60:  Run Mud Solids% 
 DFV .spqt               73.00:  Mud Viscosity 
 MWOD.in                  4.75:  MWD Tool OD 
 MWSI.                      No:  Serv Intrp, MWD 
 OTIM.hr                 85.66:  Time Operating 
 PCON.           Look Like New:  Pad Condition 
 PMAX.psia             6250.00:  Press Op, Max 
 PV  .cP                 65.00:  Mud PV 
 RUN .                     900:  Run Number 
 ROPA.m/hr               11.40:  ROP Avg 
 ROPN.m/hr                5.00:  ROP Min 
 ROPX.m/hr               20.00:  ROP Max 
 RPMA.rpm               130.00:  RPM Surface Avg 
 RPMN.rpm                40.00:  RPM Surface Min 
 RPMX.rpm               140.00:  RPM Surface Max 
 RRUN.                    L205:  Rig Run Number 
 RTIM.hr                  1.00:  Time Reaming 
 SAZI.deg               313.52:  Azm, Start 
 SDEP.m                4957.01:  Start Depth 
 SIDD.                      No:  Serv Intrp, DD 
 SINC.deg                73.16:  Inc, Start 
 SPPA.psig             5657.00:  SPP Avg 
 SPPN.psig             2500.00:  SPP Min 
 SPPX.psig             5806.00:  SPP Max 
 STIM.      07.12.00 05-Aug-20:  Start Time 
 SVCS.                 DD, MWD:  Services 
 SVER.                    9.20:  Sperry Version 
 TDAT.m                 243.00:  Tot Depth Attmp 
 TDDF.                      No:  Trip for DD 
 TDLG.m                 243.00:  Tot Depth Loggd 
 TFF .                      No:  Trip for Fail 
 TQAA.f-kp               13.00:  Torque Abs Avg 
 TQAN.f-kp               11.00:  Torque Abs Min 
 TQAX.f-kp               16.00:  Torque Abs Max 
 TRRT.°/30m               1.00:  Turn Rotating 
 MRT .                    HCIM:  Maximum Recorded Temperature 
 TTMX.degC               96.08:  Max Tool Temp 
 VS01.                90515411:  Virtual Str1 SN 
 VS02.                90512716:  Virtual Str2 SN 
 VS03.                90522362:  Virtual Str3 SN 
 VS04.                90619415:  Virtual Str4 SN 
 VS05.                90619414:  Virtual Str5 SN 
 VS06.                90597748:  Virtual Str6 SN 
 WBMN.klb                 2.00:  WOB Min 
 WITN.           Adil Mammadov:  Customer Rep 
 WITN.     Alexander Yadullayev:  Customer Rep 2 
 WOBA.klb                 7.00:  WOB Avg 
 WOBX.klb                23.00:  WOB Max 
 YP  .lhf2               37.00:  Yield Point 
~Curve Information Block
#MNEM.UNIT                 API CODE     Curve Description
#---------               -----------    ---------------------------
 TIME.HHMMSS            00 000 000 000:  GT Time & Date
 GTDEPTH.m              00 000 000 000:  GT Depth
 GTPQH.psia             00 000 000 000:  GT HR Quartz Pressure
 GTTQ.degC              00 000 000 000:  GT Quartz Temperature
 GTTN.NONE              00 000 000 000:  GT Test Number
 GTET.sec               00 000 000 000:  GT Elapsed Test Time
 GTTVD.m                00 000 000 000:  GT True Vertical Depth
#Other Information
#
#WARRANTY: Halliburton will use its best efforts to furnish customers with 
#accurate information and interpretations that are part of, and incident to, the services 
#provided.  However, Halliburton cannot and does not warrant the accuracy 
#or correctness of such information and interpretations.  Under no circumstances should any 
#such information or interpretation be relied upon as the sole basis for any drilling, 
#completion, production, or financial decision or any procedure involving any risk to the 
#safety of any drilling venture, drilling rig or its crew or any other third party.  The 
#Customer has full responsibility for all drilling, completion and production operation.  
#Halliburton makes no representations or warranties, either expressed or 
#implied, including, but not limited to, the implied warranties of merchantability or fitness 
#for a particular purpose, with respect to the services rendered.  In no event will 
#Halliburton be liable for failure to obtain any particular results or for 
#any damages, including, but not limited to, indirect, special or consequential damages, 
#resulting from the use of any information or interpretation provided by Halliburton.
#
~A           TIME           GTDEPTH  GTPQH  GTTQ  GTTN  GTET   GTTVD  
# ...
   16:15:48.531.06-Aug-2020 4955.01 4252.69 80.32 2.00 345.07 2633.27
   16:15:48.731.06-Aug-2020 4955.01 4252.69 80.32 2.00 345.27 2633.27
   16:15:48.931.06-Aug-2020 4955.01 4252.88 80.32 2.00 345.47 2633.27
   16:15:49.131.06-Aug-2020 4955.01 4252.98 80.32 2.00 345.67 2633.27
   16:15:49.331.06-Aug-2020 4955.01 4253.03 80.32 2.00 345.87 2633.27
   16:15:49.531.06-Aug-2020 4955.01 4253.11 80.32 2.00 346.07 2633.27
   16:15:49.731.06-Aug-2020 4955.01 4253.11 80.32 2.00 346.27 2633.27
   16:15:49.931.06-Aug-2020 4955.01 4253.16 80.32 2.00 346.47 2633.27
   16:15:50.131.06-Aug-2020 4955.01 4253.15 80.32 2.00 346.67 2633.27
   16:15:50.331.06-Aug-2020 4955.01 4253.23 80.32 2.00 346.87 2633.27
   16:15:50.531.06-Aug-2020 4955.01 4253.26 80.32 2.00 347.07 2633.27
   16:15:50.731.06-Aug-2020 4955.01 4253.26 80.32 2.00 347.27 2633.27
   16:15:50.932.06-Aug-2020 4955.01 4253.06 80.32 2.00 347.47 2633.27
   16:15:51.132.06-Aug-2020 4955.01 4253.19 80.32 2.00 347.67 2633.27
   16:15:51.332.06-Aug-2020 4955.01 4253.35 80.32 2.00 347.87 2633.27
   16:15:51.532.06-Aug-2020 4955.01 4253.40 80.32 2.00 348.07 2633.27
   16:15:51.732.06-Aug-2020 4955.01 4253.40 80.32 2.00 348.27 2633.27
   16:15:51.932.06-Aug-2020 4955.01 4253.47 80.32 2.00 348.47 2633.27
   16:15:52.132.06-Aug-2020 4955.01 4253.53 80.32 2.00 348.67 2633.27
   16:15:52.332.06-Aug-2020 4955.01 4253.53 80.32 2.00 348.87 2633.27
   16:15:52.532.06-Aug-2020 4955.01 4253.57 80.32 2.00 349.07 2633.27
   16:15:52.732.06-Aug-2020 4955.01 4253.57 80.32 2.00 349.27 2633.27
   16:15:52.932.06-Aug-2020 4955.01 4253.61 80.31 2.00 349.47 2633.27
   16:15:53.132.06-Aug-2020 4955.01 4253.58 80.31 2.00 349.67 2633.27
   16:15:53.332.06-Aug-2020 4955.01 4253.64 80.31 2.00 349.87 2633.27
   16:15:53.532.06-Aug-2020 4955.01 4253.49 80.31 2.00 350.07 2633.27
   16:15:53.732.06-Aug-2020 4955.01 4253.49 80.31 2.00 350.27 2633.27
   16:15:53.932.06-Aug-2020 4955.01 4253.56 80.31 2.00 350.47 2633.27
   16:15:54.132.06-Aug-2020 4955.01 4253.75 80.31 2.00 350.67 2633.27
   16:15:54.332.06-Aug-2020 4955.01 4253.75 80.31 2.00 350.87 2633.27
   16:15:54.532.06-Aug-2020 4955.01 4253.81 80.31 2.00 351.08 2633.27
   16:15:54.732.06-Aug-2020 4955.01 4253.81 80.31 2.00 351.28 2633.27
   16:15:54.932.06-Aug-2020 4955.01 4253.81 80.31 2.00 351.48 2633.27
   16:15:55.132.06-Aug-2020 4955.01 4253.89 80.31 2.00 351.68 2633.27
   16:15:55.332.06-Aug-2020 4955.01 4253.97 80.31 2.00 351.88 2633.27
   16:15:55.532.06-Aug-2020 4955.01 4253.96 80.31 2.00 352.08 2633.27
   16:15:55.733.06-Aug-2020 4955.01 4253.96 80.31 2.00 352.28 2633.27
   16:15:55.933.06-Aug-2020 4955.01 4253.94 80.31 2.00 352.48 2633.27
   16:15:56.133.06-Aug-2020 4955.01 4254.07 80.31 2.00 352.68 2633.27
   16:15:56.333.06-Aug-2020 4955.01 4254.14 80.31 2.00 352.88 2633.27
   16:15:56.533.06-Aug-2020 4955.01 4254.19 80.31 2.00 353.08 2633.27
   16:15:56.733.06-Aug-2020 4955.01 4254.19 80.31 2.00 353.28 2633.27
   16:15:56.933.06-Aug-2020 4955.01 4253.99 80.31 2.00 353.48 2633.27
   16:15:57.133.06-Aug-2020 4955.01 4254.20 80.31 2.00 353.68 2633.27
   16:15:57.333.06-Aug-2020 4955.01 4254.25 80.31 2.00 353.88 2633.27
   16:15:57.533.06-Aug-2020 4955.01 4254.35 80.31 2.00 354.08 2633.27
   16:15:57.733.06-Aug-2020 4955.01 4254.38 80.31 2.00 354.28 2633.27
   16:15:57.933.06-Aug-2020 4955.01 4254.46 80.31 2.00 354.48 2633.27
   16:15:58.133.06-Aug-2020 4955.01 4254.44 80.31 2.00 354.68 2633.27
   16:15:58.333.06-Aug-2020 4955.01 4254.48 80.31 2.00 354.88 2633.27
   16:15:58.533.06-Aug-2020 4955.01 4254.46 80.31 2.00 355.08 2633.27
   16:15:58.733.06-Aug-2020 4955.01 4254.46 80.31 2.00 355.28 2633.27
   16:15:58.933.06-Aug-2020 4955.01 4254.51 80.31 2.00 355.48 2633.27
   16:15:59.133.06-Aug-2020 4955.01 4254.56 80.31 2.00 355.68 2633.27
   16:15:59.333.06-Aug-2020 4955.01 4254.54 80.31 2.00 355.88 2633.27
   16:15:59.533.06-Aug-2020 4955.01 4254.37 80.31 2.00 356.08 2633.27
   16:15:59.733.06-Aug-2020 4955.01 4254.37 80.31 2.00 356.28 2633.27
   16:15:59.933.06-Aug-2020 4955.01 4254.53 80.30 2.00 356.48 2633.27
   16:16:00.133.06-Aug-2020 4955.01 4254.55 80.30 2.00 356.68 2633.27
   16:16:00.334.06-Aug-2020 4955.01 4254.61 80.30 2.00 356.88 2633.27
   16:16:00.534.06-Aug-2020 4955.01 4254.61 80.30 2.00 357.08 2633.27
   16:16:00.734.06-Aug-2020 4955.01 4254.61 80.30 2.00 357.28 2633.27
   16:16:00.934.06-Aug-2020 4955.01 4254.72 80.30 2.00 357.48 2633.27
   16:16:01.134.06-Aug-2020 4955.01 4254.74 80.30 2.00 357.68 2633.27
   16:16:01.334.06-Aug-2020 4955.01 4254.77 80.30 2.00 357.88 2633.27
   16:16:01.534.06-Aug-2020 4955.01 4254.79 80.30 2.00 358.08 2633.27
   16:16:01.734.06-Aug-2020 4955.01 4254.79 80.30 2.00 358.28 2633.27
   16:16:01.934.06-Aug-2020 4955.01 4254.79 80.30 2.00 358.48 2633.27
   16:16:02.134.06-Aug-2020 4955.01 4254.83 80.30 2.00 358.68 2633.27
   16:16:02.334.06-Aug-2020 4955.01 4254.55 80.30 2.00 358.88 2633.27
   16:16:02.534.06-Aug-2020 4955.01 4254.77 80.30 2.00 359.08 2633.27
   16:16:02.734.06-Aug-2020 4955.01 4254.77 80.30 2.00 359.28 2633.27
   16:16:02.934.06-Aug-2020 4955.01 4254.88 80.30 2.00 359.48 2633.27
   16:16:03.134.06-Aug-2020 4955.01 4254.86 80.30 2.00 359.68 2633.27
   16:16:03.334.06-Aug-2020 4955.01 4254.94 80.30 2.00 359.88 2633.27
   16:16:03.534.06-Aug-2020 4955.01 4254.68 80.30 2.00 360.08 2633.27
   16:16:03.734.06-Aug-2020 4955.01 4254.68 80.30 2.00 360.28 2633.27
   16:16:03.934.06-Aug-2020 4955.01 4255.00 80.30 2.00 360.48 2633.27
   16:16:04.134.06-Aug-2020 4955.01 4255.09 80.30 2.00 360.68 2633.27
   16:16:04.334.06-Aug-2020 4955.01 4255.02 80.30 2.00 360.88 2633.27
   16:16:04.534.06-Aug-2020 4955.01 4254.91 80.30 2.00 361.08 2633.27
   16:16:04.734.06-Aug-2020 4955.01 4254.91 80.30 2.00 361.28 2633.27
   16:16:04.935.06-Aug-2020 4955.01 4255.14 80.30 2.00 361.48 2633.27
   16:16:05.135.06-Aug-2020 4955.01 4255.16 80.30 2.00 361.68 2633.27
   16:16:05.335.06-Aug-2020 4955.01 4255.22 80.30 2.00 361.88 2633.27
   16:16:05.535.06-Aug-2020 4955.01 4255.27 80.30 2.00 362.08 2633.27
   16:16:05.735.06-Aug-2020 4955.01 4255.27 80.30 2.00 362.28 2633.27
   16:16:05.935.06-Aug-2020 4955.01 4255.24 80.30 2.00 362.48 2633.27
   16:16:06.135.06-Aug-2020 4955.01 4255.30 80.30 2.00 362.68 2633.27
   16:16:06.335.06-Aug-2020 4955.01 4255.38 80.30 2.00 362.88 2633.27
   16:16:06.535.06-Aug-2020 4955.01 4255.40 80.30 2.00 363.08 2633.27
   16:16:06.735.06-Aug-2020 4955.01 4255.40 80.30 2.00 363.28 2633.27
   16:16:06.935.06-Aug-2020 4955.01 4255.43 80.29 2.00 363.48 2633.27
   16:16:07.135.06-Aug-2020 4955.01 4255.46 80.29 2.00 363.68 2633.27
   16:16:07.335.06-Aug-2020 4955.01 4255.45 80.29 2.00 363.88 2633.27
   16:16:07.535.06-Aug-2020 4955.01 4255.50 80.29 2.00 364.08 2633.27
   16:16:07.735.06-Aug-2020 4955.01 4255.50 80.29 2.00 364.28 2633.27
   16:16:07.935.06-Aug-2020 4955.01 4255.52 80.29 2.00 364.48 2633.27
   16:16:08.135.06-Aug-2020 4955.01 4255.47 80.29 2.00 364.68 2633.27
   16:16:08.335.06-Aug-2020 4955.01 4255.26 80.29 2.00 364.88 2633.27
   16:16:08.535.06-Aug-2020 4955.01 4255.35 80.29 2.00 365.08 2633.27
   16:16:08.735.06-Aug-2020 4955.01 4255.35 80.29 2.00 365.28 2633.27
   16:16:08.935.06-Aug-2020 4955.01 4255.47 80.29 2.00 365.48 2633.27
   16:16:09.135.06-Aug-2020 4955.01 4255.52 80.29 2.00 365.68 2633.27
   16:16:09.335.06-Aug-2020 4955.01 4255.49 80.29 2.00 365.88 2633.27
   16:16:09.535.06-Aug-2020 4955.01 4255.55 80.29 2.00 366.08 2633.27
   16:16:09.736.06-Aug-2020 4955.01 4255.55 80.29 2.00 366.28 2633.27
   16:16:09.936.06-Aug-2020 4955.01 4255.61 80.29 2.00 366.48 2633.27
   16:16:10.136.06-Aug-2020 4955.01 4255.62 80.29 2.00 366.68 2633.27
   16:16:10.336.06-Aug-2020 4955.01 4255.64 80.29 2.00 366.88 2633.27
   16:16:10.536.06-Aug-2020 4955.01 4255.62 80.29 2.00 367.08 2633.27
   16:16:10.736.06-Aug-2020 4955.01 4255.62 80.29 2.00 367.28 2633.27
   16:16:10.936.06-Aug-2020 4955.01 4255.62 80.29 2.00 367.48 2633.27
   16:16:11.136.06-Aug-2020 4955.01 4255.27 80.29 2.00 367.68 2633.27
   16:16:11.336.06-Aug-2020 4955.01 4255.60 80.29 2.00 367.88 2633.27
