~Version Information
 VERS.                  2.0:   CWLS log ASCII Standard -VERSION 2.0
 WRAP.                   NO:   One line per depth step
~Well Information Block
#MNEM.UNIT     VALUE/NAME     DESCRIPTION
#---------     -----------    ---------------------------
 STRT.S             11:55:46 07-Aug-20: START TIME 11:55:46 07-Aug-20
 STOP.S             12:03:39 07-Aug-20: STOP TIME  12:03:39 07-Aug-20
 STEP.S                   0.00: STEP TIME
 NULL.                 -999.25: NULL VALUE
 DFWT.                        :  DIST FWL TEXT
 DFST.                        :  DIST FSL TEXT
 DMF .             Drill Floor:  DRILL MEAS FROM
 STIM.      12.00.00 03-Jul-20:  START TIME
 DATE.      00.50.00 09-Aug-20:  END TIME
 SPUD.               03-Jul-20:  SPUD DATE
 NREF.                    Grid:  NORTH REFERENCE
 HPTY.       Minimum Curvature:  HOLE POS TYPE
 DMOD.             Drill Model:  DRILL MOD DESC
 SVYD.                  Survey:  SURVEY DESC
 ILTD.               Lithology:  INTERP LTH DESC
 FTOP.          Formation Tops:  FORM TOPS DESC
 PDAT.          Mean Sea Level:  PERMANENT DATUM
 FLD .                     ACG:  FIELD NAME
 CTRY.              Azerbaijan:  COUNTRY NAME
 WELL.                    E04x:  WELL NAME
 SRVC.          Turan Drilling:  CONTRACTOR
 COMP.     BP Exploration (Caspian Sea) Ltd.:  COMPANY
 SON .        AZ-XX-0906531346:  JOB NUMBER
 WTYP.                Deviated:  WELL TYPE
 MDS .        Operator Entered:  MAG DATA SOURCE
 UWI .                     N/A:  UNIQUE WELL IDENTIFIER
 API .                     N/A:  API NUMBER
 BASE.              Azerbaijan:  LOGGING EQUIPMENT BASE LOCATION
 REGN.                   EESSA:  REGION
 PROV.                    Baku:  PROVINCE
 STAT.                    Baku:  STATE NAME
 MWDS.                    Baku:  MWD SHOP
 JOBN.        AZ-XX-0906531346:  JOB TICKET NUMB
 RIG .                     DWG:  RIG NAME
 DOE .                     N/A:  DOE NUMBER
 DCON.         Sperry Drilling:  DIRECTNL CONTR
 UNIT.                     N/A:  LOGGING EQUIPMENT ID
 CNTY.                        :  COUNTY
 LOC .                        :  LOCATION
 LMF .             Drill Floor:  LOG MEASURED FROM
 TVDS.m                  43.16:  TVDSS CORRECTN
 LATI.deg                40.17:  LATITUDE
 LONG.deg                51.17:  LONGITUDE
 WHNS.m                  -0.12:  WELL HEAD N/S
 WHEW.m                  -5.41:  WELL HEAD E/W
 UTMX.m              514337.95:  UTM X
 UTMY.m             4448627.46:  UTM Y
 DFWL.m                   0.00:  DISTANCE FWL
 DFSL.m                   0.00:  DISTANCE FSL
 SDEP.m                3088.01:  START DEPTH
 TDD .m                5200.01:  TOTAL DEPTH (DRILLER)
 VSDR.deg               244.51:  VERT SEC DIRECT
 GVFD.g                   1.00:  GRAVITY FIELD
 MFLD.nT              50329.80:  MAGNETIC FIELD
 MDIP.deg                59.63:  MAGNETIC DIP
 MDEC.deg                 6.59:  MAGNETIC DECL
 GRDC.deg                 0.09:  GRID CORRECTION
 AZTC.deg                 6.50:  AZM TOTAL CORR
 EPD .m                   0.00:  ELEVATION
 EGL .m                   0.00:  GROUND ELEVATION
 WDMS.m                 176.20:  WD ELEV
 APD .m                  43.16:  DEPTH ABOVE PD
 DEP .m                3084.71:  DEPTH
 AGAP.m                  43.16:  AIR GAP
 VSEW.m                  -5.41:  VERT SEC E/W
 VSNS.m                  -0.12:  VERT SEC N/S
 EKB .m                   0.00:  KB ELEVATION
 EDF .m                  43.16:  DF ELEVATION
 TDL .m                 243.00:  TOTAL DEPTH (LOGGER)
 VSC .                       0:  VS TO CLOSURE
 MAGU.                 1853542:  MAGUTM CHECKSUM
~Parameter Information Block
#MNEM.UNIT       Value        Description
#---------     -----------    ---------------------------
 AV  .mps                 1.91:  Ann Velocity 
 AVMX.mps                 2.52:  Max Ann Veloc 
 AZIF.deg               308.97:  Azm, Final 
 BHAT.        Rotary Steerable:  BHA Type 
 BROT.°/30m               1.00:  Build Rotating 
 BS  .in                  6.50:  Bit Size 
 BSZ .in                  6.50:  Bit Size 
 BTPL.psig              350.00:  Bit Press Loss 
 CABU.                      No:  Customer Abuse 
 CGEO.           Asif Pashayev:  Customer Geo 
 COMM.                     ¤4N:  Run Comments 1 
 TCS .hr                 35.86:  Time Ciculation Ended 
 CV  .mps                 2.31:  Crit Velocity 
 CVMX.mps                 2.31:  Max Crit Veloc 
 DD1 .         Intigam Rahimov:  Direct Drillr 1 
 DDSV.               Geo-Pilot:  DD Service 
 DEFF.%                  92.00:  % Det Eff 
 DLRX.°/30m               1.00:  Dogleg Rot Max 
 DLSO.°/30m               1.00:  Dogleg Oriented 
 DLSX.°/30m               1.42:  Dogleg Str Max 
 DRET.      15.50.00 07-Aug-20:  Drill End Time 
 DRST.      10.40.00 06-Aug-20:  Drill Start Tim 
 DTIM.hr                 21.30:  Time Drilling 
 EDEP.m                5200.01:  End Depth 
 ENG1.            Alan Tuganov:  Engineer 1 
 ENG2.         Almaz Almadatov:  Engineer 2 
 ENG3.     Zammelal Abdullah Sani:  Engineer 3 
 ETIM.      22.42.00 08-Aug-20:  End Time 
 FLOI.gpm               395.00:  Flow In 
 FLON.gpm               350.00:  Flow In Min 
 FLOS.cptm                0.00:  Fluid Loss 
 FLOX.gpm               404.00:  Flow In Max 
 FTRO.       Formation Presure:  FTWD Run Obj 
 HFLO.                      No:  High Flow 
 HPRE.                      No:  High Pressure 
 HTEM.                      No:  High Temp 
 HYDO.m                   1.80:  Hydro Offset 
 IFIN.deg                72.64:  Inc, Final 
 IMAX.deg                73.68:  Inc Max 
 IMIN.deg                72.64:  Inc Min 
 IMND.m                5189.69:  Inc Min Depth 
 IMXD.m                5067.88:  Inc Max Depth 
 JARR.                      No:  Jarring 
 LETM.      15.50.00 07-Aug-20:  Log End Time 
 LOST.hr                     0:  Lost Rig Time 
 LSTM.      10.40.00 06-Aug-20:  Log Start Time 
 MDCL.ppm             36000.00:  Mud Chlorides 
 MDES.     Inversion Oil/Synthetic:  Mud Desc 
 DFD .sg                  1.36:  Mud Density 
 MDMN.sg                  1.36:  Dens Mud Min 
 MDMX.sg                  1.36:  Dens Mud Max 
 MOIL.                      70:  Run Mud Oil % 
 MOWR.                   70:30:  Run Mud OWR 
 MSND.                    0.00:  Run Mud Sand % 
 MSOL.                   17.60:  Run Mud Solids% 
 DFV .spqt               73.00:  Mud Viscosity 
 MWOD.in                  4.75:  MWD Tool OD 
 MWSI.                      No:  Serv Intrp, MWD 
 OTIM.hr                 85.66:  Time Operating 
 PCON.           Look Like New:  Pad Condition 
 PMAX.psia             6250.00:  Press Op, Max 
 PV  .cP                 65.00:  Mud PV 
 RUN .                     900:  Run Number 
 ROPA.m/hr               11.40:  ROP Avg 
 ROPN.m/hr                5.00:  ROP Min 
 ROPX.m/hr               20.00:  ROP Max 
 RPMA.rpm               130.00:  RPM Surface Avg 
 RPMN.rpm                40.00:  RPM Surface Min 
 RPMX.rpm               140.00:  RPM Surface Max 
 RRUN.                    L205:  Rig Run Number 
 RTIM.hr                  1.00:  Time Reaming 
 SAZI.deg               313.52:  Azm, Start 
 SDEP.m                4957.01:  Start Depth 
 SIDD.                      No:  Serv Intrp, DD 
 SINC.deg                73.16:  Inc, Start 
 SPPA.psig             5657.00:  SPP Avg 
 SPPN.psig             2500.00:  SPP Min 
 SPPX.psig             5806.00:  SPP Max 
 STIM.      07.12.00 05-Aug-20:  Start Time 
 SVCS.                 DD, MWD:  Services 
 SVER.                    9.20:  Sperry Version 
 TDAT.m                 243.00:  Tot Depth Attmp 
 TDDF.                      No:  Trip for DD 
 TDLG.m                 243.00:  Tot Depth Loggd 
 TFF .                      No:  Trip for Fail 
 TQAA.f-kp               13.00:  Torque Abs Avg 
 TQAN.f-kp               11.00:  Torque Abs Min 
 TQAX.f-kp               16.00:  Torque Abs Max 
 TRRT.°/30m               1.00:  Turn Rotating 
 MRT .                    HCIM:  Maximum Recorded Temperature 
 TTMX.degC               96.08:  Max Tool Temp 
 VS01.                90515411:  Virtual Str1 SN 
 VS02.                90512716:  Virtual Str2 SN 
 VS03.                90522362:  Virtual Str3 SN 
 VS04.                90619415:  Virtual Str4 SN 
 VS05.                90619414:  Virtual Str5 SN 
 VS06.                90597748:  Virtual Str6 SN 
 WBMN.klb                 2.00:  WOB Min 
 WITN.           Adil Mammadov:  Customer Rep 
 WITN.     Alexander Yadullayev:  Customer Rep 2 
 WOBA.klb                 7.00:  WOB Avg 
 WOBX.klb                23.00:  WOB Max 
 YP  .lhf2               37.00:  Yield Point 
~Curve Information Block
#MNEM.UNIT                 API CODE     Curve Description
#---------               -----------    ---------------------------
 TIME.HHMMSS            00 000 000 000:  GT Time & Date
 GTDEPTH.m              00 000 000 000:  GT Depth
 GTPQH.psia             00 000 000 000:  GT HR Quartz Pressure
 GTTQ.degC              00 000 000 000:  GT Quartz Temperature
 GTTN.NONE              00 000 000 000:  GT Test Number
 GTET.sec               00 000 000 000:  GT Elapsed Test Time
 GTTVD.m                00 000 000 000:  GT True Vertical Depth
#Other Information
#
#WARRANTY: Halliburton will use its best efforts to furnish customers with 
#accurate information and interpretations that are part of, and incident to, the services 
#provided.  However, Halliburton cannot and does not warrant the accuracy 
#or correctness of such information and interpretations.  Under no circumstances should any 
#such information or interpretation be relied upon as the sole basis for any drilling, 
#completion, production, or financial decision or any procedure involving any risk to the 
#safety of any drilling venture, drilling rig or its crew or any other third party.  The 
#Customer has full responsibility for all drilling, completion and production operation.  
#Halliburton makes no representations or warranties, either expressed or 
#implied, including, but not limited to, the implied warranties of merchantability or fitness 
#for a particular purpose, with respect to the services rendered.  In no event will 
#Halliburton be liable for failure to obtain any particular results or for 
#any damages, including, but not limited to, indirect, special or consequential damages, 
#resulting from the use of any information or interpretation provided by Halliburton.
#
~A           TIME           GTDEPTH  GTPQH  GTTQ  GTTN   GTET   GTTVD  
   11:55:46.886.07-Aug-2020 5127.01 5854.58 88.16 10.00   0.00 2682.86
   11:55:47.086.07-Aug-2020 5127.01 5854.58 88.16 10.00   0.20 2682.86
   11:55:47.286.07-Aug-2020 5127.01 5864.67 88.16 10.00   0.40 2682.86
   11:55:47.486.07-Aug-2020 5127.01 5858.15 88.16 10.00   0.60 2682.86
   11:55:47.686.07-Aug-2020 5127.01 5862.76 88.16 10.00   0.80 2682.86
   11:55:47.886.07-Aug-2020 5127.01 5863.64 88.16 10.00   1.00 2682.86
   11:55:48.087.07-Aug-2020 5127.01 5863.64 88.16 10.00   1.20 2682.86
   11:55:48.287.07-Aug-2020 5127.01 5858.70 88.16 10.00   1.40 2682.86
   11:55:48.487.07-Aug-2020 5127.01 5863.49 88.16 10.00   1.60 2682.86
   11:55:48.687.07-Aug-2020 5127.01 5862.92 88.16 10.00   1.80 2682.86
   11:55:48.887.07-Aug-2020 5127.01 5852.87 88.16 10.00   2.00 2682.86
   11:55:49.087.07-Aug-2020 5127.01 5852.87 88.16 10.00   2.20 2682.86
   11:55:49.287.07-Aug-2020 5127.01 5866.06 88.15 10.00   2.40 2682.86
   11:55:49.487.07-Aug-2020 5127.01 5855.17 88.15 10.00   2.60 2682.86
   11:55:49.687.07-Aug-2020 5127.01 5856.77 88.15 10.00   2.80 2682.86
   11:55:49.887.07-Aug-2020 5127.01 5863.17 88.15 10.00   3.00 2682.86
   11:55:50.087.07-Aug-2020 5127.01 5859.74 88.15 10.00   3.20 2682.86
   11:55:50.287.07-Aug-2020 5127.01 5852.47 88.15 10.00   3.40 2682.86
   11:55:50.487.07-Aug-2020 5127.01 5863.15 88.15 10.00   3.60 2682.86
   11:55:50.687.07-Aug-2020 5127.01 5865.88 88.15 10.00   3.80 2682.86
   11:55:50.888.07-Aug-2020 5127.01 5855.00 88.15 10.00   4.00 2682.86
   11:55:51.088.07-Aug-2020 5127.01 5855.00 88.15 10.00   4.20 2682.86
   11:55:51.288.07-Aug-2020 5127.01 5864.24 88.15 10.00   4.40 2682.86
   11:55:51.488.07-Aug-2020 5127.01 5861.60 88.15 10.00   4.60 2682.86
   11:55:51.688.07-Aug-2020 5127.01 5852.90 88.15 10.00   4.80 2682.86
   11:55:51.888.07-Aug-2020 5127.01 5864.38 88.15 10.00   5.00 2682.86
   11:55:52.088.07-Aug-2020 5127.01 5864.38 88.15 10.00   5.20 2682.86
   11:55:52.288.07-Aug-2020 5127.01 5857.56 88.14 10.00   5.40 2682.86
   11:55:52.488.07-Aug-2020 5127.01 5863.95 88.14 10.00   5.60 2682.86
   11:55:52.688.07-Aug-2020 5127.01 5857.77 88.14 10.00   5.80 2682.86
   11:55:52.888.07-Aug-2020 5127.01 5863.80 88.14 10.00   6.00 2682.86
   11:55:53.088.07-Aug-2020 5127.01 5863.80 88.14 10.00   6.20 2682.86
   11:55:53.288.07-Aug-2020 5127.01 5860.90 88.14 10.00   6.40 2682.86
   11:55:53.489.07-Aug-2020 5127.01 5864.03 88.14 10.00   6.60 2682.86
   11:55:53.689.07-Aug-2020 5127.01 5865.21 88.14 10.00   6.80 2682.86
   11:55:53.889.07-Aug-2020 5127.01 5864.97 88.14 10.00   7.00 2682.86
   11:55:54.089.07-Aug-2020 5127.01 5865.62 88.14 10.00   7.20 2682.86
   11:55:54.289.07-Aug-2020 5127.01 5865.45 88.14 10.00   7.40 2682.86
   11:55:54.489.07-Aug-2020 5127.01 5866.08 88.14 10.00   7.60 2682.86
   11:55:54.689.07-Aug-2020 5127.01 5866.78 88.14 10.00   7.80 2682.86
   11:55:54.889.07-Aug-2020 5127.01 5866.92 88.14 10.00   8.00 2682.86
   11:55:55.089.07-Aug-2020 5127.01 5866.92 88.14 10.00   8.20 2682.86
   11:55:55.289.07-Aug-2020 5127.01 5868.02 88.13 10.00   8.40 2682.86
   11:55:55.489.07-Aug-2020 5127.01 5867.89 88.13 10.00   8.60 2682.86
   11:55:55.689.07-Aug-2020 5127.01 5859.67 88.13 10.00   8.80 2682.86
   11:55:55.889.07-Aug-2020 5127.01 5868.24 88.13 10.00   9.00 2682.86
   11:55:56.090.07-Aug-2020 5127.01 5868.24 88.13 10.00   9.20 2682.86
   11:55:56.290.07-Aug-2020 5127.01 5863.54 88.13 10.00   9.40 2682.86
   11:55:56.490.07-Aug-2020 5127.01 5855.75 88.13 10.00   9.60 2682.86
   11:55:56.690.07-Aug-2020 5127.01 5847.66 88.13 10.00   9.80 2682.86
   11:55:56.890.07-Aug-2020 5127.01 5841.54 88.13 10.00  10.00 2682.86
   11:55:57.090.07-Aug-2020 5127.01 5841.54 88.13 10.00  10.20 2682.86
   11:55:57.290.07-Aug-2020 5127.01 5838.74 88.13 10.00  10.40 2682.86
   11:55:57.490.07-Aug-2020 5127.01 5838.80 88.13 10.00  10.60 2682.86
   11:55:57.690.07-Aug-2020 5127.01 5830.37 88.13 10.00  10.80 2682.86
   11:55:57.890.07-Aug-2020 5127.01 5831.98 88.13 10.00  11.00 2682.86
   11:55:58.090.07-Aug-2020 5127.01 5831.98 88.13 10.00  11.20 2682.86
   11:55:58.290.07-Aug-2020 5127.01 5821.48 88.12 10.00  11.40 2682.86
   11:55:58.490.07-Aug-2020 5127.01 5826.66 88.12 10.00  11.60 2682.86
   11:55:58.690.07-Aug-2020 5127.01 5828.16 88.12 10.00  11.80 2682.86
   11:55:58.891.07-Aug-2020 5127.01 5810.75 88.12 10.00  12.00 2682.86
   11:55:59.091.07-Aug-2020 5127.01 5810.75 88.12 10.00  12.20 2682.86
   11:55:59.291.07-Aug-2020 5127.01 5721.88 88.12 10.00  12.40 2682.86
   11:55:59.491.07-Aug-2020 5127.01 5671.27 88.12 10.00  12.60 2682.86
   11:55:59.691.07-Aug-2020 5127.01 5613.83 88.12 10.00  12.80 2682.86
   11:55:59.891.07-Aug-2020 5127.01 5546.28 88.12 10.00  13.00 2682.86
   11:56:00.091.07-Aug-2020 5127.01 5546.28 88.12 10.00  13.20 2682.86
   11:56:00.291.07-Aug-2020 5127.01 5546.28 88.12 10.00  13.41 2682.86
   11:56:00.491.07-Aug-2020 5127.01 5533.40 88.12 10.00  13.61 2682.86
   11:56:00.691.07-Aug-2020 5127.01 5435.85 88.12 10.00  13.81 2682.86
   11:56:00.891.07-Aug-2020 5127.01 5351.30 88.12 10.00  14.01 2682.86
   11:56:01.091.07-Aug-2020 5127.01 5351.30 88.12 10.00  14.21 2682.86
   11:56:01.291.07-Aug-2020 5127.01 5351.30 88.12 10.00  14.41 2682.86
   11:56:01.492.07-Aug-2020 5127.01 5339.26 88.11 10.00  14.61 2682.86
   11:56:01.692.07-Aug-2020 5127.01 5355.10 88.11 10.00  14.81 2682.86
   11:56:01.892.07-Aug-2020 5127.01 5336.48 88.11 10.00  15.01 2682.86
   11:56:02.092.07-Aug-2020 5127.01 5369.03 88.11 10.00  15.21 2682.86
   11:56:02.292.07-Aug-2020 5127.01 5368.77 88.11 10.00  15.41 2682.86
   11:56:02.492.07-Aug-2020 5127.01 5475.76 88.11 10.00  15.61 2682.86
   11:56:02.692.07-Aug-2020 5127.01 5401.51 88.11 10.00  15.81 2682.86
   11:56:02.892.07-Aug-2020 5127.01 5334.70 88.11 10.00  16.01 2682.86
   11:56:03.092.07-Aug-2020 5127.01 5334.70 88.11 10.00  16.21 2682.86
   11:56:03.292.07-Aug-2020 5127.01 5386.64 88.11 10.00  16.41 2682.86
   11:56:03.492.07-Aug-2020 5127.01 5401.26 88.11 10.00  16.61 2682.86
   11:56:03.692.07-Aug-2020 5127.01 5462.36 88.10 10.00  16.81 2682.86
   11:56:03.892.07-Aug-2020 5127.01 5682.19 88.10 10.00  17.01 2682.86
   11:56:04.093.07-Aug-2020 5127.01 5682.19 88.10 10.00  17.21 2682.86
   11:56:04.293.07-Aug-2020 5127.01 5850.55 88.10 10.00  17.41 2682.86
   11:56:04.493.07-Aug-2020 5127.01 5907.69 88.10 10.00  17.61 2682.86
   11:56:04.693.07-Aug-2020 5127.01 6007.83 88.10 10.00  17.81 2682.86
   11:56:04.893.07-Aug-2020 5127.01 6043.52 88.10 10.00  18.01 2682.86
   11:56:05.093.07-Aug-2020 5127.01 6043.52 88.10 10.00  18.21 2682.86
   11:56:05.293.07-Aug-2020 5127.01 6140.81 88.10 10.00  18.41 2682.86
   11:56:05.493.07-Aug-2020 5127.01 6223.91 88.10 10.00  18.61 2682.86
   11:56:05.693.07-Aug-2020 5127.01 6341.48 88.10 10.00  18.81 2682.86
   11:56:05.893.07-Aug-2020 5127.01 6454.88 88.10 10.00  19.01 2682.86
   11:56:06.093.07-Aug-2020 5127.01 6605.41 88.10 10.00  19.21 2682.86
   11:56:06.293.07-Aug-2020 5127.01 6668.35 88.10 10.00  19.41 2682.86
   11:56:06.493.07-Aug-2020 5127.01 6658.40 88.09 10.00  19.61 2682.86
   11:56:06.693.07-Aug-2020 5127.01 6662.95 88.09 10.00  19.81 2682.86
   11:56:06.894.07-Aug-2020 5127.01 6633.13 88.09 10.00  20.01 2682.86
   11:56:07.094.07-Aug-2020 5127.01 6633.13 88.09 10.00  20.21 2682.86
   11:56:07.294.07-Aug-2020 5127.01 6667.92 88.09 10.00  20.41 2682.86
   11:56:07.494.07-Aug-2020 5127.01 6722.37 88.09 10.00  20.61 2682.86
   11:56:07.694.07-Aug-2020 5127.01 6594.42 88.09 10.00  20.81 2682.86
   11:56:07.894.07-Aug-2020 5127.01 6699.62 88.09 10.00  21.01 2682.86
   11:56:08.094.07-Aug-2020 5127.01 6699.62 88.09 10.00  21.21 2682.86
   11:56:08.294.07-Aug-2020 5127.01 6387.53 88.09 10.00  21.41 2682.86
   11:56:08.494.07-Aug-2020 5127.01 6545.80 88.09 10.00  21.61 2682.86
   11:56:08.694.07-Aug-2020 5127.01 6547.89 88.09 10.00  21.81 2682.86
   11:56:08.894.07-Aug-2020 5127.01 6553.80 88.09 10.00  22.01 2682.86
   11:56:09.094.07-Aug-2020 5127.01 6553.80 88.09 10.00  22.21 2682.86
   11:56:09.294.07-Aug-2020 5127.01 6560.44 88.09 10.00  22.41 2682.86
