~Version Information
 VERS.                  2.0:   CWLS log ASCII Standard -VERSION 2.0
 WRAP.                   NO:   One line per depth step
~Well Information Block
#MNEM.UNIT     VALUE/NAME     DESCRIPTION
#---------     -----------    ---------------------------
 STRT.S             09:21:48 07-Aug-20: START TIME 09:21:48 07-Aug-20
 STOP.S             09:29:41 07-Aug-20: STOP TIME  09:29:41 07-Aug-20
 STEP.S                   0.00: STEP TIME
 NULL.                 -999.25: NULL VALUE
 DFWT.                        :  DIST FWL TEXT
 DFST.                        :  DIST FSL TEXT
 DMF .             Drill Floor:  DRILL MEAS FROM
 STIM.      12.00.00 03-Jul-20:  START TIME
 DATE.      00.50.00 09-Aug-20:  END TIME
 SPUD.               03-Jul-20:  SPUD DATE
 NREF.                    Grid:  NORTH REFERENCE
 HPTY.       Minimum Curvature:  HOLE POS TYPE
 DMOD.             Drill Model:  DRILL MOD DESC
 SVYD.                  Survey:  SURVEY DESC
 ILTD.               Lithology:  INTERP LTH DESC
 FTOP.          Formation Tops:  FORM TOPS DESC
 PDAT.          Mean Sea Level:  PERMANENT DATUM
 FLD .                     ACG:  FIELD NAME
 CTRY.              Azerbaijan:  COUNTRY NAME
 WELL.                    E04x:  WELL NAME
 SRVC.          Turan Drilling:  CONTRACTOR
 COMP.     BP Exploration (Caspian Sea) Ltd.:  COMPANY
 SON .        AZ-XX-0906531346:  JOB NUMBER
 WTYP.                Deviated:  WELL TYPE
 MDS .        Operator Entered:  MAG DATA SOURCE
 UWI .                     N/A:  UNIQUE WELL IDENTIFIER
 API .                     N/A:  API NUMBER
 BASE.              Azerbaijan:  LOGGING EQUIPMENT BASE LOCATION
 REGN.                   EESSA:  REGION
 PROV.                    Baku:  PROVINCE
 STAT.                    Baku:  STATE NAME
 MWDS.                    Baku:  MWD SHOP
 JOBN.        AZ-XX-0906531346:  JOB TICKET NUMB
 RIG .                     DWG:  RIG NAME
 DOE .                     N/A:  DOE NUMBER
 DCON.         Sperry Drilling:  DIRECTNL CONTR
 UNIT.                     N/A:  LOGGING EQUIPMENT ID
 CNTY.                        :  COUNTY
 LOC .                        :  LOCATION
 LMF .             Drill Floor:  LOG MEASURED FROM
 TVDS.m                  43.16:  TVDSS CORRECTN
 LATI.deg                40.17:  LATITUDE
 LONG.deg                51.17:  LONGITUDE
 WHNS.m                  -0.12:  WELL HEAD N/S
 WHEW.m                  -5.41:  WELL HEAD E/W
 UTMX.m              514337.95:  UTM X
 UTMY.m             4448627.46:  UTM Y
 DFWL.m                   0.00:  DISTANCE FWL
 DFSL.m                   0.00:  DISTANCE FSL
 SDEP.m                3088.01:  START DEPTH
 TDD .m                5200.01:  TOTAL DEPTH (DRILLER)
 VSDR.deg               244.51:  VERT SEC DIRECT
 GVFD.g                   1.00:  GRAVITY FIELD
 MFLD.nT              50329.80:  MAGNETIC FIELD
 MDIP.deg                59.63:  MAGNETIC DIP
 MDEC.deg                 6.59:  MAGNETIC DECL
 GRDC.deg                 0.09:  GRID CORRECTION
 AZTC.deg                 6.50:  AZM TOTAL CORR
 EPD .m                   0.00:  ELEVATION
 EGL .m                   0.00:  GROUND ELEVATION
 WDMS.m                 176.20:  WD ELEV
 APD .m                  43.16:  DEPTH ABOVE PD
 DEP .m                3084.71:  DEPTH
 AGAP.m                  43.16:  AIR GAP
 VSEW.m                  -5.41:  VERT SEC E/W
 VSNS.m                  -0.12:  VERT SEC N/S
 EKB .m                   0.00:  KB ELEVATION
 EDF .m                  43.16:  DF ELEVATION
 TDL .m                 243.00:  TOTAL DEPTH (LOGGER)
 VSC .                       0:  VS TO CLOSURE
 MAGU.                 1853542:  MAGUTM CHECKSUM
~Parameter Information Block
#MNEM.UNIT       Value        Description
#---------     -----------    ---------------------------
 AV  .mps                 1.91:  Ann Velocity 
 AVMX.mps                 2.52:  Max Ann Veloc 
 AZIF.deg               308.97:  Azm, Final 
 BHAT.        Rotary Steerable:  BHA Type 
 BROT.∞/30m               1.00:  Build Rotating 
 BS  .in                  6.50:  Bit Size 
 BSZ .in                  6.50:  Bit Size 
 BTPL.psig              350.00:  Bit Press Loss 
 CABU.                      No:  Customer Abuse 
 CGEO.           Asif Pashayev:  Customer Geo 
 COMM.                     ,[Å:  Run Comments 1 
 TCS .hr                 35.86:  Time Ciculation Ended 
 CV  .mps                 2.31:  Crit Velocity 
 CVMX.mps                 2.31:  Max Crit Veloc 
 DD1 .         Intigam Rahimov:  Direct Drillr 1 
 DDSV.               Geo-Pilot:  DD Service 
 DEFF.%                  92.00:  % Det Eff 
 DLRX.∞/30m               1.00:  Dogleg Rot Max 
 DLSO.∞/30m               1.00:  Dogleg Oriented 
 DLSX.∞/30m               1.42:  Dogleg Str Max 
 DRET.      15.50.00 07-Aug-20:  Drill End Time 
 DRST.      10.40.00 06-Aug-20:  Drill Start Tim 
 DTIM.hr                 21.30:  Time Drilling 
 EDEP.m                5200.01:  End Depth 
 ENG1.            Alan Tuganov:  Engineer 1 
 ENG2.         Almaz Almadatov:  Engineer 2 
 ENG3.     Zammelal Abdullah Sani:  Engineer 3 
 ETIM.      22.42.00 08-Aug-20:  End Time 
 FLOI.gpm               395.00:  Flow In 
 FLON.gpm               350.00:  Flow In Min 
 FLOS.cptm                0.00:  Fluid Loss 
 FLOX.gpm               404.00:  Flow In Max 
 FTRO.       Formation Presure:  FTWD Run Obj 
 HFLO.                      No:  High Flow 
 HPRE.                      No:  High Pressure 
 HTEM.                      No:  High Temp 
 HYDO.m                   1.80:  Hydro Offset 
 IFIN.deg                72.64:  Inc, Final 
 IMAX.deg                73.68:  Inc Max 
 IMIN.deg                72.64:  Inc Min 
 IMND.m                5189.69:  Inc Min Depth 
 IMXD.m                5067.88:  Inc Max Depth 
 JARR.                      No:  Jarring 
 LETM.      15.50.00 07-Aug-20:  Log End Time 
 LOST.hr                     0:  Lost Rig Time 
 LSTM.      10.40.00 06-Aug-20:  Log Start Time 
 MDCL.ppm             36000.00:  Mud Chlorides 
 MDES.     Inversion Oil/Synthetic:  Mud Desc 
 DFD .sg                  1.36:  Mud Density 
 MDMN.sg                  1.36:  Dens Mud Min 
 MDMX.sg                  1.36:  Dens Mud Max 
 MOIL.                      70:  Run Mud Oil % 
 MOWR.                   70:30:  Run Mud OWR 
 MSND.                    0.00:  Run Mud Sand % 
 MSOL.                   17.60:  Run Mud Solids% 
 DFV .spqt               73.00:  Mud Viscosity 
 MWOD.in                  4.75:  MWD Tool OD 
 MWSI.                      No:  Serv Intrp, MWD 
 OTIM.hr                 85.66:  Time Operating 
 PCON.           Look Like New:  Pad Condition 
 PMAX.psia             6250.00:  Press Op, Max 
 PV  .cP                 65.00:  Mud PV 
 RUN .                     900:  Run Number 
 ROPA.m/hr               11.40:  ROP Avg 
 ROPN.m/hr                5.00:  ROP Min 
 ROPX.m/hr               20.00:  ROP Max 
 RPMA.rpm               130.00:  RPM Surface Avg 
 RPMN.rpm                40.00:  RPM Surface Min 
 RPMX.rpm               140.00:  RPM Surface Max 
 RRUN.                    L205:  Rig Run Number 
 RTIM.hr                  1.00:  Time Reaming 
 SAZI.deg               313.52:  Azm, Start 
 SDEP.m                4957.01:  Start Depth 
 SIDD.                      No:  Serv Intrp, DD 
 SINC.deg                73.16:  Inc, Start 
 SPPA.psig             5657.00:  SPP Avg 
 SPPN.psig             2500.00:  SPP Min 
 SPPX.psig             5806.00:  SPP Max 
 STIM.      07.12.00 05-Aug-20:  Start Time 
 SVCS.                 DD, MWD:  Services 
 SVER.                    9.20:  Sperry Version 
 TDAT.m                 243.00:  Tot Depth Attmp 
 TDDF.                      No:  Trip for DD 
 TDLG.m                 243.00:  Tot Depth Loggd 
 TFF .                      No:  Trip for Fail 
 TQAA.f-kp               13.00:  Torque Abs Avg 
 TQAN.f-kp               11.00:  Torque Abs Min 
 TQAX.f-kp               16.00:  Torque Abs Max 
 TRRT.∞/30m               1.00:  Turn Rotating 
 MRT .                    HCIM:  Maximum Recorded Temperature 
 TTMX.degC               96.08:  Max Tool Temp 
 VS01.                90515411:  Virtual Str1 SN 
 VS02.                90512716:  Virtual Str2 SN 
 VS03.                90522362:  Virtual Str3 SN 
 VS04.                90619415:  Virtual Str4 SN 
 VS05.                90619414:  Virtual Str5 SN 
 VS06.                90597748:  Virtual Str6 SN 
 WBMN.klb                 2.00:  WOB Min 
 WITN.           Adil Mammadov:  Customer Rep 
 WITN.     Alexander Yadullayev:  Customer Rep 2 
 WOBA.klb                 7.00:  WOB Avg 
 WOBX.klb                23.00:  WOB Max 
 YP  .lhf2               37.00:  Yield Point 
~Curve Information Block
#MNEM.UNIT                 API CODE     Curve Description
#---------               -----------    ---------------------------
 TIME.HHMMSS            00 000 000 000:  GT Time & Date
 GTDEPTH.m              00 000 000 000:  GT Depth
 GTPQH.psia             00 000 000 000:  GT HR Quartz Pressure
 GTTQ.degC              00 000 000 000:  GT Quartz Temperature
 GTTN.NONE              00 000 000 000:  GT Test Number
 GTET.sec               00 000 000 000:  GT Elapsed Test Time
 GTTVD.m                00 000 000 000:  GT True Vertical Depth
#Other Information
#
#WARRANTY: Halliburton will use its best efforts to furnish customers with 
#accurate information and interpretations that are part of, and incident to, the services 
#provided.  However, Halliburton cannot and does not warrant the accuracy 
#or correctness of such information and interpretations.  Under no circumstances should any 
#such information or interpretation be relied upon as the sole basis for any drilling, 
#completion, production, or financial decision or any procedure involving any risk to the 
#safety of any drilling venture, drilling rig or its crew or any other third party.  The 
#Customer has full responsibility for all drilling, completion and production operation.  
#Halliburton makes no representations or warranties, either expressed or 
#implied, including, but not limited to, the implied warranties of merchantability or fitness 
#for a particular purpose, with respect to the services rendered.  In no event will 
#Halliburton be liable for failure to obtain any particular results or for 
#any damages, including, but not limited to, indirect, special or consequential damages, 
#resulting from the use of any information or interpretation provided by Halliburton.
#
~A           TIME           GTDEPTH  GTPQH  GTTQ  GTTN  GTET   GTTVD  
# ...
   09:23:43.540.07-Aug-2020 5109.01 3406.72 86.61 9.00 114.97 2677.54
   09:23:43.740.07-Aug-2020 5109.01 3406.72 86.61 9.00 115.17 2677.54
   09:23:43.940.07-Aug-2020 5109.01 3406.65 86.61 9.00 115.37 2677.54
   09:23:44.140.07-Aug-2020 5109.01 3406.75 86.61 9.00 115.57 2677.54
   09:23:44.340.07-Aug-2020 5109.01 3406.74 86.61 9.00 115.77 2677.54
   09:23:44.540.07-Aug-2020 5109.01 3406.72 86.61 9.00 115.97 2677.54
   09:23:44.740.07-Aug-2020 5109.01 3406.72 86.61 9.00 116.17 2677.54
   09:23:44.940.07-Aug-2020 5109.01 3406.80 86.61 9.00 116.36 2677.54
   09:23:45.140.07-Aug-2020 5109.01 3406.75 86.61 9.00 116.56 2677.54
   09:23:45.339.07-Aug-2020 5109.01 3406.70 86.61 9.00 116.76 2677.54
   09:23:45.539.07-Aug-2020 5109.01 3406.73 86.61 9.00 116.96 2677.54
   09:23:45.739.07-Aug-2020 5109.01 3406.73 86.61 9.00 117.16 2677.54
   09:23:45.939.07-Aug-2020 5109.01 3406.74 86.61 9.00 117.36 2677.54
   09:23:46.139.07-Aug-2020 5109.01 3406.74 86.61 9.00 117.56 2677.54
   09:23:46.339.07-Aug-2020 5109.01 3406.70 86.61 9.00 117.76 2677.54
   09:23:46.539.07-Aug-2020 5109.01 3406.73 86.61 9.00 117.96 2677.54
   09:23:46.739.07-Aug-2020 5109.01 3406.73 86.61 9.00 118.16 2677.54
   09:23:46.939.07-Aug-2020 5109.01 3406.57 86.61 9.00 118.36 2677.54
   09:23:47.139.07-Aug-2020 5109.01 3406.80 86.61 9.00 118.56 2677.54
   09:23:47.339.07-Aug-2020 5109.01 3406.76 86.60 9.00 118.76 2677.54
   09:23:47.539.07-Aug-2020 5109.01 3406.68 86.60 9.00 118.96 2677.54
   09:23:47.739.07-Aug-2020 5109.01 3406.68 86.60 9.00 119.16 2677.54
   09:23:47.939.07-Aug-2020 5109.01 3406.74 86.60 9.00 119.36 2677.54
   09:23:48.139.07-Aug-2020 5109.01 3406.71 86.60 9.00 119.56 2677.54
   09:23:48.339.07-Aug-2020 5109.01 3406.74 86.60 9.00 119.76 2677.54
   09:23:48.538.07-Aug-2020 5109.01 3406.71 86.60 9.00 119.96 2677.54
   09:23:48.738.07-Aug-2020 5109.01 3406.71 86.60 9.00 120.16 2677.54
   09:23:48.938.07-Aug-2020 5109.01 3406.71 86.60 9.00 120.36 2677.54
   09:23:49.138.07-Aug-2020 5109.01 3406.73 86.60 9.00 120.56 2677.54
   09:23:49.338.07-Aug-2020 5109.01 3406.72 86.60 9.00 120.76 2677.54
   09:23:49.538.07-Aug-2020 5109.01 3406.71 86.60 9.00 120.96 2677.54
   09:23:49.738.07-Aug-2020 5109.01 3406.64 86.60 9.00 121.16 2677.54
   09:23:49.938.07-Aug-2020 5109.01 3406.73 86.60 9.00 121.36 2677.54
   09:23:50.138.07-Aug-2020 5109.01 3406.71 86.60 9.00 121.56 2677.54
   09:23:50.338.07-Aug-2020 5109.01 3406.72 86.60 9.00 121.76 2677.54
   09:23:50.538.07-Aug-2020 5109.01 3406.72 86.60 9.00 121.96 2677.54
   09:23:50.738.07-Aug-2020 5109.01 3406.72 86.60 9.00 122.16 2677.54
   09:23:50.938.07-Aug-2020 5109.01 3406.71 86.60 9.00 122.36 2677.54
   09:23:51.138.07-Aug-2020 5109.01 3406.72 86.60 9.00 122.56 2677.54
   09:23:51.338.07-Aug-2020 5109.01 3406.71 86.60 9.00 122.76 2677.54
   09:23:51.538.07-Aug-2020 5109.01 3406.71 86.60 9.00 122.96 2677.54
   09:23:51.738.07-Aug-2020 5109.01 3406.71 86.60 9.00 123.16 2677.54
   09:23:51.937.07-Aug-2020 5109.01 3406.71 86.60 9.00 123.36 2677.54
   09:23:52.137.07-Aug-2020 5109.01 3406.71 86.60 9.00 123.56 2677.54
   09:23:52.337.07-Aug-2020 5109.01 3406.62 86.60 9.00 123.76 2677.54
   09:23:52.537.07-Aug-2020 5109.01 3406.75 86.59 9.00 123.96 2677.54
   09:23:52.737.07-Aug-2020 5109.01 3406.75 86.59 9.00 124.16 2677.54
   09:23:52.937.07-Aug-2020 5109.01 3406.68 86.59 9.00 124.36 2677.54
   09:23:53.137.07-Aug-2020 5109.01 3406.65 86.59 9.00 124.56 2677.54
   09:23:53.337.07-Aug-2020 5109.01 3406.74 86.59 9.00 124.76 2677.54
   09:23:53.537.07-Aug-2020 5109.01 3406.68 86.59 9.00 124.96 2677.54
   09:23:53.737.07-Aug-2020 5109.01 3406.68 86.59 9.00 125.16 2677.54
   09:23:53.937.07-Aug-2020 5109.01 3406.71 86.59 9.00 125.36 2677.54
   09:23:54.137.07-Aug-2020 5109.01 3406.72 86.59 9.00 125.56 2677.54
   09:23:54.337.07-Aug-2020 5109.01 3406.54 86.59 9.00 125.76 2677.54
   09:23:54.537.07-Aug-2020 5109.01 3406.78 86.59 9.00 125.96 2677.54
   09:23:54.737.07-Aug-2020 5109.01 3406.78 86.59 9.00 126.16 2677.54
   09:23:54.937.07-Aug-2020 5109.01 3406.67 86.59 9.00 126.36 2677.54
   09:23:55.137.07-Aug-2020 5109.01 3406.71 86.59 9.00 126.56 2677.54
   09:23:55.336.07-Aug-2020 5109.01 3406.70 86.59 9.00 126.76 2677.54
   09:23:55.536.07-Aug-2020 5109.01 3406.63 86.59 9.00 126.96 2677.54
   09:23:55.736.07-Aug-2020 5109.01 3406.63 86.59 9.00 127.16 2677.54
   09:23:55.936.07-Aug-2020 5109.01 3406.69 86.59 9.00 127.36 2677.54
   09:23:56.136.07-Aug-2020 5109.01 3406.70 86.59 9.00 127.56 2677.54
   09:23:56.336.07-Aug-2020 5109.01 3406.71 86.59 9.00 127.76 2677.54
   09:23:56.536.07-Aug-2020 5109.01 3406.69 86.59 9.00 127.96 2677.54
   09:23:56.736.07-Aug-2020 5109.01 3406.69 86.59 9.00 128.16 2677.54
   09:23:56.936.07-Aug-2020 5109.01 3406.70 86.59 9.00 128.36 2677.54
   09:23:57.136.07-Aug-2020 5109.01 3406.70 86.59 9.00 128.56 2677.54
   09:23:57.336.07-Aug-2020 5109.01 3406.69 86.59 9.00 128.76 2677.54
   09:23:57.536.07-Aug-2020 5109.01 3406.71 86.59 9.00 128.96 2677.54
   09:23:57.736.07-Aug-2020 5109.01 3406.68 86.59 9.00 129.16 2677.54
   09:23:57.936.07-Aug-2020 5109.01 3406.70 86.58 9.00 129.36 2677.54
   09:23:58.136.07-Aug-2020 5109.01 3406.55 86.58 9.00 129.56 2677.54
   09:23:58.336.07-Aug-2020 5109.01 3406.76 86.58 9.00 129.76 2677.54
   09:23:58.535.07-Aug-2020 5109.01 3406.71 86.58 9.00 129.96 2677.54
   09:23:58.735.07-Aug-2020 5109.01 3406.71 86.58 9.00 130.16 2677.54
   09:23:58.935.07-Aug-2020 5109.01 3406.71 86.58 9.00 130.36 2677.54
   09:23:59.135.07-Aug-2020 5109.01 3406.71 86.58 9.00 130.56 2677.54
   09:23:59.335.07-Aug-2020 5109.01 3406.67 86.58 9.00 130.76 2677.54
   09:23:59.535.07-Aug-2020 5109.01 3406.70 86.58 9.00 130.96 2677.54
   09:23:59.735.07-Aug-2020 5109.01 3406.70 86.58 9.00 131.16 2677.54
   09:23:59.935.07-Aug-2020 5109.01 3406.68 86.58 9.00 131.36 2677.54
   09:24:00.135.07-Aug-2020 5109.01 3406.69 86.58 9.00 131.56 2677.54
   09:24:00.335.07-Aug-2020 5109.01 3406.69 86.58 9.00 131.76 2677.54
   09:24:00.535.07-Aug-2020 5109.01 3406.70 86.58 9.00 131.96 2677.54
   09:24:00.735.07-Aug-2020 5109.01 3406.70 86.58 9.00 132.16 2677.54
   09:24:00.935.07-Aug-2020 5109.01 3406.61 86.58 9.00 132.36 2677.54
   09:24:01.135.07-Aug-2020 5109.01 3406.70 86.58 9.00 132.56 2677.54
   09:24:01.335.07-Aug-2020 5109.01 3406.71 86.58 9.00 132.76 2677.54
   09:24:01.535.07-Aug-2020 5109.01 3406.66 86.58 9.00 132.96 2677.54
   09:24:01.735.07-Aug-2020 5109.01 3406.57 86.58 9.00 133.16 2677.54
   09:24:01.934.07-Aug-2020 5109.01 3406.74 86.58 9.00 133.36 2677.54
   09:24:02.134.07-Aug-2020 5109.01 3406.71 86.58 9.00 133.56 2677.54
   09:24:02.334.07-Aug-2020 5109.01 3406.65 86.58 9.00 133.76 2677.54
   09:24:02.534.07-Aug-2020 5109.01 3406.70 86.58 9.00 133.96 2677.54
   09:24:02.734.07-Aug-2020 5109.01 3406.70 86.58 9.00 134.16 2677.54
   09:24:02.934.07-Aug-2020 5109.01 3406.72 86.58 9.00 134.36 2677.54
   09:24:03.134.07-Aug-2020 5109.01 3406.68 86.57 9.00 134.56 2677.54
   09:24:03.334.07-Aug-2020 5109.01 3406.65 86.57 9.00 134.76 2677.54
   09:24:03.534.07-Aug-2020 5109.01 3406.70 86.57 9.00 134.96 2677.54
   09:24:03.734.07-Aug-2020 5109.01 3406.70 86.57 9.00 135.16 2677.54
   09:24:03.934.07-Aug-2020 5109.01 3406.53 86.57 9.00 135.36 2677.54
   09:24:04.134.07-Aug-2020 5109.01 3406.75 86.57 9.00 135.56 2677.54
   09:24:04.334.07-Aug-2020 5109.01 3406.71 86.57 9.00 135.76 2677.54
   09:24:04.534.07-Aug-2020 5109.01 3406.65 86.57 9.00 135.96 2677.54
   09:24:04.734.07-Aug-2020 5109.01 3406.65 86.57 9.00 136.16 2677.54
   09:24:04.934.07-Aug-2020 5109.01 3406.69 86.57 9.00 136.36 2677.54
   09:24:05.133.07-Aug-2020 5109.01 3406.66 86.57 9.00 136.56 2677.54
   09:24:05.333.07-Aug-2020 5109.01 3406.69 86.57 9.00 136.76 2677.54
   09:24:05.533.07-Aug-2020 5109.01 3406.68 86.57 9.00 136.96 2677.54
   09:24:05.733.07-Aug-2020 5109.01 3406.68 86.57 9.00 137.16 2677.54
   09:24:05.933.07-Aug-2020 5109.01 3406.68 86.57 9.00 137.36 2677.54
   09:24:06.133.07-Aug-2020 5109.01 3406.66 86.57 9.00 137.56 2677.54
   09:24:06.333.07-Aug-2020 5109.01 3406.67 86.57 9.00 137.76 2677.54
