~Version Information
 VERS.                  2.0:   CWLS log ASCII Standard -VERSION 2.0
 WRAP.                   NO:   One line per depth step
~Well Information Block
#MNEM.UNIT     VALUE/NAME     DESCRIPTION
#---------     -----------    ---------------------------
 STRT.S             11:55:46 07-Aug-20: START TIME 11:55:46 07-Aug-20
 STOP.S             12:03:39 07-Aug-20: STOP TIME  12:03:39 07-Aug-20
 STEP.S                   0.00: STEP TIME
 NULL.                 -999.25: NULL VALUE
 DFWT.                        :  DIST FWL TEXT
 DFST.                        :  DIST FSL TEXT
 DMF .             Drill Floor:  DRILL MEAS FROM
 STIM.      12.00.00 03-Jul-20:  START TIME
 DATE.      00.50.00 09-Aug-20:  END TIME
 SPUD.               03-Jul-20:  SPUD DATE
 NREF.                    Grid:  NORTH REFERENCE
 HPTY.       Minimum Curvature:  HOLE POS TYPE
 DMOD.             Drill Model:  DRILL MOD DESC
 SVYD.                  Survey:  SURVEY DESC
 ILTD.               Lithology:  INTERP LTH DESC
 FTOP.          Formation Tops:  FORM TOPS DESC
 PDAT.          Mean Sea Level:  PERMANENT DATUM
 FLD .                     ACG:  FIELD NAME
 CTRY.              Azerbaijan:  COUNTRY NAME
 WELL.                    E04x:  WELL NAME
 SRVC.          Turan Drilling:  CONTRACTOR
 COMP.     BP Exploration (Caspian Sea) Ltd.:  COMPANY
 SON .        AZ-XX-0906531346:  JOB NUMBER
 WTYP.                Deviated:  WELL TYPE
 MDS .        Operator Entered:  MAG DATA SOURCE
 UWI .                     N/A:  UNIQUE WELL IDENTIFIER
 API .                     N/A:  API NUMBER
 BASE.              Azerbaijan:  LOGGING EQUIPMENT BASE LOCATION
 REGN.                   EESSA:  REGION
 PROV.                    Baku:  PROVINCE
 STAT.                    Baku:  STATE NAME
 MWDS.                    Baku:  MWD SHOP
 JOBN.        AZ-XX-0906531346:  JOB TICKET NUMB
 RIG .                     DWG:  RIG NAME
 DOE .                     N/A:  DOE NUMBER
 DCON.         Sperry Drilling:  DIRECTNL CONTR
 UNIT.                     N/A:  LOGGING EQUIPMENT ID
 CNTY.                        :  COUNTY
 LOC .                        :  LOCATION
 LMF .             Drill Floor:  LOG MEASURED FROM
 TVDS.m                  43.16:  TVDSS CORRECTN
 LATI.deg                40.17:  LATITUDE
 LONG.deg                51.17:  LONGITUDE
 WHNS.m                  -0.12:  WELL HEAD N/S
 WHEW.m                  -5.41:  WELL HEAD E/W
 UTMX.m              514337.95:  UTM X
 UTMY.m             4448627.46:  UTM Y
 DFWL.m                   0.00:  DISTANCE FWL
 DFSL.m                   0.00:  DISTANCE FSL
 SDEP.m                3088.01:  START DEPTH
 TDD .m                5200.01:  TOTAL DEPTH (DRILLER)
 VSDR.deg               244.51:  VERT SEC DIRECT
 GVFD.g                   1.00:  GRAVITY FIELD
 MFLD.nT              50329.80:  MAGNETIC FIELD
 MDIP.deg                59.63:  MAGNETIC DIP
 MDEC.deg                 6.59:  MAGNETIC DECL
 GRDC.deg                 0.09:  GRID CORRECTION
 AZTC.deg                 6.50:  AZM TOTAL CORR
 EPD .m                   0.00:  ELEVATION
 EGL .m                   0.00:  GROUND ELEVATION
 WDMS.m                 176.20:  WD ELEV
 APD .m                  43.16:  DEPTH ABOVE PD
 DEP .m                3084.71:  DEPTH
 AGAP.m                  43.16:  AIR GAP
 VSEW.m                  -5.41:  VERT SEC E/W
 VSNS.m                  -0.12:  VERT SEC N/S
 EKB .m                   0.00:  KB ELEVATION
 EDF .m                  43.16:  DF ELEVATION
 TDL .m                 243.00:  TOTAL DEPTH (LOGGER)
 VSC .                       0:  VS TO CLOSURE
 MAGU.                 1853542:  MAGUTM CHECKSUM
~Parameter Information Block
#MNEM.UNIT       Value        Description
#---------     -----------    ---------------------------
 AV  .mps                 1.91:  Ann Velocity 
 AVMX.mps                 2.52:  Max Ann Veloc 
 AZIF.deg               308.97:  Azm, Final 
 BHAT.        Rotary Steerable:  BHA Type 
 BROT.°/30m               1.00:  Build Rotating 
 BS  .in                  6.50:  Bit Size 
 BSZ .in                  6.50:  Bit Size 
 BTPL.psig              350.00:  Bit Press Loss 
 CABU.                      No:  Customer Abuse 
 CGEO.           Asif Pashayev:  Customer Geo 
 COMM.                     ¤4N:  Run Comments 1 
 TCS .hr                 35.86:  Time Ciculation Ended 
 CV  .mps                 2.31:  Crit Velocity 
 CVMX.mps                 2.31:  Max Crit Veloc 
 DD1 .         Intigam Rahimov:  Direct Drillr 1 
 DDSV.               Geo-Pilot:  DD Service 
 DEFF.%                  92.00:  % Det Eff 
 DLRX.°/30m               1.00:  Dogleg Rot Max 
 DLSO.°/30m               1.00:  Dogleg Oriented 
 DLSX.°/30m               1.42:  Dogleg Str Max 
 DRET.      15.50.00 07-Aug-20:  Drill End Time 
 DRST.      10.40.00 06-Aug-20:  Drill Start Tim 
 DTIM.hr                 21.30:  Time Drilling 
 EDEP.m                5200.01:  End Depth 
 ENG1.            Alan Tuganov:  Engineer 1 
 ENG2.         Almaz Almadatov:  Engineer 2 
 ENG3.     Zammelal Abdullah Sani:  Engineer 3 
 ETIM.      22.42.00 08-Aug-20:  End Time 
 FLOI.gpm               395.00:  Flow In 
 FLON.gpm               350.00:  Flow In Min 
 FLOS.cptm                0.00:  Fluid Loss 
 FLOX.gpm               404.00:  Flow In Max 
 FTRO.       Formation Presure:  FTWD Run Obj 
 HFLO.                      No:  High Flow 
 HPRE.                      No:  High Pressure 
 HTEM.                      No:  High Temp 
 HYDO.m                   1.80:  Hydro Offset 
 IFIN.deg                72.64:  Inc, Final 
 IMAX.deg                73.68:  Inc Max 
 IMIN.deg                72.64:  Inc Min 
 IMND.m                5189.69:  Inc Min Depth 
 IMXD.m                5067.88:  Inc Max Depth 
 JARR.                      No:  Jarring 
 LETM.      15.50.00 07-Aug-20:  Log End Time 
 LOST.hr                     0:  Lost Rig Time 
 LSTM.      10.40.00 06-Aug-20:  Log Start Time 
 MDCL.ppm             36000.00:  Mud Chlorides 
 MDES.     Inversion Oil/Synthetic:  Mud Desc 
 DFD .sg                  1.36:  Mud Density 
 MDMN.sg                  1.36:  Dens Mud Min 
 MDMX.sg                  1.36:  Dens Mud Max 
 MOIL.                      70:  Run Mud Oil % 
 MOWR.                   70:30:  Run Mud OWR 
 MSND.                    0.00:  Run Mud Sand % 
 MSOL.                   17.60:  Run Mud Solids% 
 DFV .spqt               73.00:  Mud Viscosity 
 MWOD.in                  4.75:  MWD Tool OD 
 MWSI.                      No:  Serv Intrp, MWD 
 OTIM.hr                 85.66:  Time Operating 
 PCON.           Look Like New:  Pad Condition 
 PMAX.psia             6250.00:  Press Op, Max 
 PV  .cP                 65.00:  Mud PV 
 RUN .                     900:  Run Number 
 ROPA.m/hr               11.40:  ROP Avg 
 ROPN.m/hr                5.00:  ROP Min 
 ROPX.m/hr               20.00:  ROP Max 
 RPMA.rpm               130.00:  RPM Surface Avg 
 RPMN.rpm                40.00:  RPM Surface Min 
 RPMX.rpm               140.00:  RPM Surface Max 
 RRUN.                    L205:  Rig Run Number 
 RTIM.hr                  1.00:  Time Reaming 
 SAZI.deg               313.52:  Azm, Start 
 SDEP.m                4957.01:  Start Depth 
 SIDD.                      No:  Serv Intrp, DD 
 SINC.deg                73.16:  Inc, Start 
 SPPA.psig             5657.00:  SPP Avg 
 SPPN.psig             2500.00:  SPP Min 
 SPPX.psig             5806.00:  SPP Max 
 STIM.      07.12.00 05-Aug-20:  Start Time 
 SVCS.                 DD, MWD:  Services 
 SVER.                    9.20:  Sperry Version 
 TDAT.m                 243.00:  Tot Depth Attmp 
 TDDF.                      No:  Trip for DD 
 TDLG.m                 243.00:  Tot Depth Loggd 
 TFF .                      No:  Trip for Fail 
 TQAA.f-kp               13.00:  Torque Abs Avg 
 TQAN.f-kp               11.00:  Torque Abs Min 
 TQAX.f-kp               16.00:  Torque Abs Max 
 TRRT.°/30m               1.00:  Turn Rotating 
 MRT .                    HCIM:  Maximum Recorded Temperature 
 TTMX.degC               96.08:  Max Tool Temp 
 VS01.                90515411:  Virtual Str1 SN 
 VS02.                90512716:  Virtual Str2 SN 
 VS03.                90522362:  Virtual Str3 SN 
 VS04.                90619415:  Virtual Str4 SN 
 VS05.                90619414:  Virtual Str5 SN 
 VS06.                90597748:  Virtual Str6 SN 
 WBMN.klb                 2.00:  WOB Min 
 WITN.           Adil Mammadov:  Customer Rep 
 WITN.     Alexander Yadullayev:  Customer Rep 2 
 WOBA.klb                 7.00:  WOB Avg 
 WOBX.klb                23.00:  WOB Max 
 YP  .lhf2               37.00:  Yield Point 
~Curve Information Block
#MNEM.UNIT                 API CODE     Curve Description
#---------               -----------    ---------------------------
 TIME.HHMMSS            00 000 000 000:  GT Time & Date
 GTDEPTH.m              00 000 000 000:  GT Depth
 GTPQH.psia             00 000 000 000:  GT HR Quartz Pressure
 GTTQ.degC              00 000 000 000:  GT Quartz Temperature
 GTTN.NONE              00 000 000 000:  GT Test Number
 GTET.sec               00 000 000 000:  GT Elapsed Test Time
 GTTVD.m                00 000 000 000:  GT True Vertical Depth
#Other Information
#
#WARRANTY: Halliburton will use its best efforts to furnish customers with 
#accurate information and interpretations that are part of, and incident to, the services 
#provided.  However, Halliburton cannot and does not warrant the accuracy 
#or correctness of such information and interpretations.  Under no circumstances should any 
#such information or interpretation be relied upon as the sole basis for any drilling, 
#completion, production, or financial decision or any procedure involving any risk to the 
#safety of any drilling venture, drilling rig or its crew or any other third party.  The 
#Customer has full responsibility for all drilling, completion and production operation.  
#Halliburton makes no representations or warranties, either expressed or 
#implied, including, but not limited to, the implied warranties of merchantability or fitness 
#for a particular purpose, with respect to the services rendered.  In no event will 
#Halliburton be liable for failure to obtain any particular results or for 
#any damages, including, but not limited to, indirect, special or consequential damages, 
#resulting from the use of any information or interpretation provided by Halliburton.
#
~A           TIME           GTDEPTH  GTPQH  GTTQ  GTTN   GTET   GTTVD  
# ...
   12:01:48.622.07-Aug-2020 5127.01 3414.04 87.28 10.00 361.74 2682.86
   12:01:48.822.07-Aug-2020 5127.01 3414.06 87.28 10.00 361.94 2682.86
   12:01:49.022.07-Aug-2020 5127.01 3414.01 87.28 10.00 362.14 2682.86
   12:01:49.222.07-Aug-2020 5127.01 3414.05 87.28 10.00 362.34 2682.86
   12:01:49.422.07-Aug-2020 5127.01 3414.06 87.28 10.00 362.54 2682.86
   12:01:49.622.07-Aug-2020 5127.01 3414.05 87.28 10.00 362.74 2682.86
   12:01:49.822.07-Aug-2020 5127.01 3414.02 87.28 10.00 362.94 2682.86
   12:01:50.022.07-Aug-2020 5127.01 3414.08 87.28 10.00 363.14 2682.86
   12:01:50.222.07-Aug-2020 5127.01 3414.05 87.28 10.00 363.34 2682.86
   12:01:50.423.07-Aug-2020 5127.01 3414.04 87.28 10.00 363.54 2682.86
   12:01:50.623.07-Aug-2020 5127.01 3414.05 87.28 10.00 363.74 2682.86
   12:01:50.823.07-Aug-2020 5127.01 3414.07 87.28 10.00 363.94 2682.86
   12:01:51.023.07-Aug-2020 5127.01 3414.03 87.28 10.00 364.14 2682.86
   12:01:51.223.07-Aug-2020 5127.01 3414.03 87.28 10.00 364.34 2682.86
   12:01:51.423.07-Aug-2020 5127.01 3414.03 87.28 10.00 364.54 2682.86
   12:01:51.623.07-Aug-2020 5127.01 3414.05 87.28 10.00 364.74 2682.86
   12:01:51.823.07-Aug-2020 5127.01 3413.93 87.28 10.00 364.94 2682.86
   12:01:52.023.07-Aug-2020 5127.01 3414.13 87.28 10.00 365.14 2682.86
   12:01:52.223.07-Aug-2020 5127.01 3414.13 87.28 10.00 365.34 2682.86
   12:01:52.423.07-Aug-2020 5127.01 3413.99 87.28 10.00 365.54 2682.86
   12:01:52.623.07-Aug-2020 5127.01 3413.92 87.28 10.00 365.74 2682.86
   12:01:52.823.07-Aug-2020 5127.01 3414.19 87.28 10.00 365.94 2682.86
   12:01:53.024.07-Aug-2020 5127.01 3414.09 87.28 10.00 366.14 2682.86
   12:01:53.224.07-Aug-2020 5127.01 3414.09 87.28 10.00 366.34 2682.86
   12:01:53.424.07-Aug-2020 5127.01 3414.11 87.27 10.00 366.54 2682.86
   12:01:53.624.07-Aug-2020 5127.01 3414.05 87.27 10.00 366.74 2682.86
   12:01:53.824.07-Aug-2020 5127.01 3413.92 87.27 10.00 366.94 2682.86
   12:01:54.024.07-Aug-2020 5127.01 3414.14 87.27 10.00 367.14 2682.86
   12:01:54.224.07-Aug-2020 5127.01 3414.09 87.27 10.00 367.34 2682.86
   12:01:54.424.07-Aug-2020 5127.01 3413.96 87.27 10.00 367.54 2682.86
   12:01:54.624.07-Aug-2020 5127.01 3414.10 87.27 10.00 367.74 2682.86
   12:01:54.824.07-Aug-2020 5127.01 3414.06 87.27 10.00 367.94 2682.86
   12:01:55.024.07-Aug-2020 5127.01 3413.89 87.27 10.00 368.14 2682.86
   12:01:55.224.07-Aug-2020 5127.01 3413.89 87.27 10.00 368.34 2682.86
   12:01:55.424.07-Aug-2020 5127.01 3414.12 87.27 10.00 368.54 2682.86
   12:01:55.625.07-Aug-2020 5127.01 3413.95 87.27 10.00 368.74 2682.86
   12:01:55.825.07-Aug-2020 5127.01 3414.09 87.27 10.00 368.94 2682.86
   12:01:56.025.07-Aug-2020 5127.01 3414.08 87.27 10.00 369.14 2682.86
   12:01:56.225.07-Aug-2020 5127.01 3414.08 87.27 10.00 369.34 2682.86
   12:01:56.425.07-Aug-2020 5127.01 3414.05 87.27 10.00 369.54 2682.86
   12:01:56.625.07-Aug-2020 5127.01 3414.07 87.27 10.00 369.74 2682.86
   12:01:56.825.07-Aug-2020 5127.01 3414.04 87.27 10.00 369.94 2682.86
   12:01:57.025.07-Aug-2020 5127.01 3414.04 87.27 10.00 370.14 2682.86
   12:01:57.225.07-Aug-2020 5127.01 3414.04 87.27 10.00 370.34 2682.86
   12:01:57.425.07-Aug-2020 5127.01 3414.04 87.27 10.00 370.54 2682.86
   12:01:57.625.07-Aug-2020 5127.01 3414.00 87.27 10.00 370.74 2682.86
   12:01:57.825.07-Aug-2020 5127.01 3414.07 87.27 10.00 370.94 2682.86
   12:01:58.025.07-Aug-2020 5127.01 3414.04 87.27 10.00 371.14 2682.86
   12:01:58.225.07-Aug-2020 5127.01 3414.04 87.27 10.00 371.34 2682.86
   12:01:58.426.07-Aug-2020 5127.01 3414.09 87.27 10.00 371.54 2682.86
   12:01:58.626.07-Aug-2020 5127.01 3414.03 87.27 10.00 371.74 2682.86
   12:01:58.826.07-Aug-2020 5127.01 3414.06 87.26 10.00 371.94 2682.86
   12:01:59.026.07-Aug-2020 5127.01 3414.03 87.26 10.00 372.14 2682.86
   12:01:59.226.07-Aug-2020 5127.01 3414.03 87.26 10.00 372.34 2682.86
   12:01:59.426.07-Aug-2020 5127.01 3414.03 87.26 10.00 372.54 2682.86
   12:01:59.626.07-Aug-2020 5127.01 3414.04 87.26 10.00 372.74 2682.86
   12:01:59.826.07-Aug-2020 5127.01 3414.03 87.26 10.00 372.94 2682.86
   12:02:00.026.07-Aug-2020 5127.01 3414.05 87.26 10.00 373.14 2682.86
   12:02:00.226.07-Aug-2020 5127.01 3414.05 87.26 10.00 373.34 2682.86
   12:02:00.426.07-Aug-2020 5127.01 3413.87 87.26 10.00 373.54 2682.86
   12:02:00.626.07-Aug-2020 5127.01 3414.18 87.26 10.00 373.74 2682.86
   12:02:00.826.07-Aug-2020 5127.01 3414.12 87.26 10.00 373.94 2682.86
   12:02:01.027.07-Aug-2020 5127.01 3413.95 87.26 10.00 374.14 2682.86
   12:02:01.227.07-Aug-2020 5127.01 3413.95 87.26 10.00 374.34 2682.86
   12:02:01.427.07-Aug-2020 5127.01 3414.08 87.26 10.00 374.54 2682.86
   12:02:01.627.07-Aug-2020 5127.01 3414.08 87.26 10.00 374.74 2682.86
   12:02:01.827.07-Aug-2020 5127.01 3413.96 87.26 10.00 374.94 2682.86
   12:02:02.027.07-Aug-2020 5127.01 3414.08 87.26 10.00 375.14 2682.86
   12:02:02.227.07-Aug-2020 5127.01 3414.07 87.26 10.00 375.34 2682.86
   12:02:02.427.07-Aug-2020 5127.01 3413.82 87.26 10.00 375.54 2682.86
   12:02:02.627.07-Aug-2020 5127.01 3414.22 87.26 10.00 375.74 2682.86
   12:02:02.827.07-Aug-2020 5127.01 3414.10 87.26 10.00 375.94 2682.86
   12:02:03.027.07-Aug-2020 5127.01 3413.97 87.26 10.00 376.14 2682.86
   12:02:03.227.07-Aug-2020 5127.01 3413.97 87.26 10.00 376.34 2682.86
   12:02:03.427.07-Aug-2020 5127.01 3414.08 87.26 10.00 376.54 2682.86
   12:02:03.628.07-Aug-2020 5127.01 3413.96 87.26 10.00 376.74 2682.86
   12:02:03.828.07-Aug-2020 5127.01 3414.08 87.26 10.00 376.94 2682.86
   12:02:04.028.07-Aug-2020 5127.01 3414.09 87.26 10.00 377.14 2682.86
   12:02:04.228.07-Aug-2020 5127.01 3414.09 87.26 10.00 377.34 2682.86
   12:02:04.428.07-Aug-2020 5127.01 3414.06 87.26 10.00 377.54 2682.86
   12:02:04.628.07-Aug-2020 5127.01 3414.08 87.25 10.00 377.74 2682.86
   12:02:04.828.07-Aug-2020 5127.01 3414.01 87.25 10.00 377.94 2682.86
   12:02:05.028.07-Aug-2020 5127.01 3414.06 87.25 10.00 378.14 2682.86
   12:02:05.228.07-Aug-2020 5127.01 3414.06 87.25 10.00 378.34 2682.86
   12:02:05.428.07-Aug-2020 5127.01 3414.06 87.25 10.00 378.54 2682.86
   12:02:05.628.07-Aug-2020 5127.01 3414.03 87.25 10.00 378.74 2682.86
   12:02:05.828.07-Aug-2020 5127.01 3414.04 87.25 10.00 378.94 2682.86
   12:02:06.028.07-Aug-2020 5127.01 3414.03 87.25 10.00 379.14 2682.86
   12:02:06.229.07-Aug-2020 5127.01 3413.98 87.25 10.00 379.34 2682.86
   12:02:06.429.07-Aug-2020 5127.01 3414.11 87.25 10.00 379.54 2682.86
   12:02:06.629.07-Aug-2020 5127.01 3414.04 87.25 10.00 379.74 2682.86
   12:02:06.829.07-Aug-2020 5127.01 3413.99 87.25 10.00 379.94 2682.86
   12:02:07.029.07-Aug-2020 5127.01 3414.07 87.25 10.00 380.14 2682.86
   12:02:07.229.07-Aug-2020 5127.01 3414.07 87.25 10.00 380.34 2682.86
   12:02:07.429.07-Aug-2020 5127.01 3414.03 87.25 10.00 380.54 2682.86
   12:02:07.629.07-Aug-2020 5127.01 3414.03 87.25 10.00 380.74 2682.86
   12:02:07.829.07-Aug-2020 5127.01 3414.03 87.25 10.00 380.94 2682.86
   12:02:08.029.07-Aug-2020 5127.01 3414.06 87.25 10.00 381.14 2682.86
   12:02:08.229.07-Aug-2020 5127.01 3414.06 87.25 10.00 381.34 2682.86
   12:02:08.429.07-Aug-2020 5127.01 3414.05 87.25 10.00 381.54 2682.86
   12:02:08.629.07-Aug-2020 5127.01 3414.02 87.25 10.00 381.74 2682.86
   12:02:08.829.07-Aug-2020 5127.01 3414.05 87.25 10.00 381.94 2682.86
   12:02:09.030.07-Aug-2020 5127.01 3413.79 87.25 10.00 382.14 2682.86
   12:02:09.230.07-Aug-2020 5127.01 3413.79 87.25 10.00 382.34 2682.86
   12:02:09.430.07-Aug-2020 5127.01 3414.06 87.25 10.00 382.54 2682.86
   12:02:09.630.07-Aug-2020 5127.01 3413.97 87.25 10.00 382.74 2682.86
   12:02:09.830.07-Aug-2020 5127.01 3414.00 87.25 10.00 382.94 2682.86
   12:02:10.030.07-Aug-2020 5127.01 3414.10 87.25 10.00 383.14 2682.86
   12:02:10.230.07-Aug-2020 5127.01 3414.10 87.24 10.00 383.34 2682.86
   12:02:10.430.07-Aug-2020 5127.01 3414.01 87.24 10.00 383.54 2682.86
   12:02:10.630.07-Aug-2020 5127.01 3414.06 87.24 10.00 383.74 2682.86
   12:02:10.830.07-Aug-2020 5127.01 3414.06 87.24 10.00 383.94 2682.86
   12:02:11.030.07-Aug-2020 5127.01 3413.77 87.24 10.00 384.14 2682.86
