~Version Information
 VERS.                  2.0:   CWLS log ASCII Standard -VERSION 2.0
 WRAP.                   NO:   One line per depth step
~Well Information Block
#MNEM.UNIT     VALUE/NAME     DESCRIPTION
#---------     -----------    ---------------------------
 STRT.S             06:40:56 07-Aug-20: START TIME 06:40:56 07-Aug-20
 STOP.S             06:48:48 07-Aug-20: STOP TIME  06:48:48 07-Aug-20
 STEP.S                   0.00: STEP TIME
 NULL.                 -999.25: NULL VALUE
 DFWT.                        :  DIST FWL TEXT
 DFST.                        :  DIST FSL TEXT
 DMF .             Drill Floor:  DRILL MEAS FROM
 STIM.      12.00.00 03-Jul-20:  START TIME
 DATE.      00.50.00 09-Aug-20:  END TIME
 SPUD.               03-Jul-20:  SPUD DATE
 NREF.                    Grid:  NORTH REFERENCE
 HPTY.       Minimum Curvature:  HOLE POS TYPE
 DMOD.             Drill Model:  DRILL MOD DESC
 SVYD.                  Survey:  SURVEY DESC
 ILTD.               Lithology:  INTERP LTH DESC
 FTOP.          Formation Tops:  FORM TOPS DESC
 PDAT.          Mean Sea Level:  PERMANENT DATUM
 FLD .                     ACG:  FIELD NAME
 CTRY.              Azerbaijan:  COUNTRY NAME
 WELL.                    E04x:  WELL NAME
 SRVC.          Turan Drilling:  CONTRACTOR
 COMP.     BP Exploration (Caspian Sea) Ltd.:  COMPANY
 SON .        AZ-XX-0906531346:  JOB NUMBER
 WTYP.                Deviated:  WELL TYPE
 MDS .        Operator Entered:  MAG DATA SOURCE
 UWI .                     N/A:  UNIQUE WELL IDENTIFIER
 API .                     N/A:  API NUMBER
 BASE.              Azerbaijan:  LOGGING EQUIPMENT BASE LOCATION
 REGN.                   EESSA:  REGION
 PROV.                    Baku:  PROVINCE
 STAT.                    Baku:  STATE NAME
 MWDS.                    Baku:  MWD SHOP
 JOBN.        AZ-XX-0906531346:  JOB TICKET NUMB
 RIG .                     DWG:  RIG NAME
 DOE .                     N/A:  DOE NUMBER
 DCON.         Sperry Drilling:  DIRECTNL CONTR
 UNIT.                     N/A:  LOGGING EQUIPMENT ID
 CNTY.                        :  COUNTY
 LOC .                        :  LOCATION
 LMF .             Drill Floor:  LOG MEASURED FROM
 TVDS.m                  43.16:  TVDSS CORRECTN
 LATI.deg                40.17:  LATITUDE
 LONG.deg                51.17:  LONGITUDE
 WHNS.m                  -0.12:  WELL HEAD N/S
 WHEW.m                  -5.41:  WELL HEAD E/W
 UTMX.m              514337.95:  UTM X
 UTMY.m             4448627.46:  UTM Y
 DFWL.m                   0.00:  DISTANCE FWL
 DFSL.m                   0.00:  DISTANCE FSL
 SDEP.m                3088.01:  START DEPTH
 TDD .m                5200.01:  TOTAL DEPTH (DRILLER)
 VSDR.deg               244.51:  VERT SEC DIRECT
 GVFD.g                   1.00:  GRAVITY FIELD
 MFLD.nT              50329.80:  MAGNETIC FIELD
 MDIP.deg                59.63:  MAGNETIC DIP
 MDEC.deg                 6.59:  MAGNETIC DECL
 GRDC.deg                 0.09:  GRID CORRECTION
 AZTC.deg                 6.50:  AZM TOTAL CORR
 EPD .m                   0.00:  ELEVATION
 EGL .m                   0.00:  GROUND ELEVATION
 WDMS.m                 176.20:  WD ELEV
 APD .m                  43.16:  DEPTH ABOVE PD
 DEP .m                3084.71:  DEPTH
 AGAP.m                  43.16:  AIR GAP
 VSEW.m                  -5.41:  VERT SEC E/W
 VSNS.m                  -0.12:  VERT SEC N/S
 EKB .m                   0.00:  KB ELEVATION
 EDF .m                  43.16:  DF ELEVATION
 TDL .m                 243.00:  TOTAL DEPTH (LOGGER)
 VSC .                       0:  VS TO CLOSURE
 MAGU.                 1853542:  MAGUTM CHECKSUM
~Parameter Information Block
#MNEM.UNIT       Value        Description
#---------     -----------    ---------------------------
 AV  .mps                 1.91:  Ann Velocity 
 AVMX.mps                 2.52:  Max Ann Veloc 
 AZIF.deg               308.97:  Azm, Final 
 BHAT.        Rotary Steerable:  BHA Type 
 BROT.°/30m               1.00:  Build Rotating 
 BS  .in                  6.50:  Bit Size 
 BSZ .in                  6.50:  Bit Size 
 BTPL.psig              350.00:  Bit Press Loss 
 CABU.                      No:  Customer Abuse 
 CGEO.           Asif Pashayev:  Customer Geo 
 TCS .hr                 35.86:  Time Ciculation Ended 
 CV  .mps                 2.31:  Crit Velocity 
 CVMX.mps                 2.31:  Max Crit Veloc 
 DD1 .         Intigam Rahimov:  Direct Drillr 1 
 DDSV.               Geo-Pilot:  DD Service 
 DEFF.%                  92.00:  % Det Eff 
 DLRX.°/30m               1.00:  Dogleg Rot Max 
 DLSO.°/30m               1.00:  Dogleg Oriented 
 DLSX.°/30m               1.42:  Dogleg Str Max 
 DRET.      15.50.00 07-Aug-20:  Drill End Time 
 DRST.      10.40.00 06-Aug-20:  Drill Start Tim 
 DTIM.hr                 21.30:  Time Drilling 
 EDEP.m                5200.01:  End Depth 
 ENG1.            Alan Tuganov:  Engineer 1 
 ENG2.         Almaz Almadatov:  Engineer 2 
 ENG3.     Zammelal Abdullah Sani:  Engineer 3 
 ETIM.      22.42.00 08-Aug-20:  End Time 
 FLOI.gpm               395.00:  Flow In 
 FLON.gpm               350.00:  Flow In Min 
 FLOS.cptm                0.00:  Fluid Loss 
 FLOX.gpm               404.00:  Flow In Max 
 FTRO.       Formation Presure:  FTWD Run Obj 
 HFLO.                      No:  High Flow 
 HPRE.                      No:  High Pressure 
 HTEM.                      No:  High Temp 
 HYDO.m                   1.80:  Hydro Offset 
 IFIN.deg                72.64:  Inc, Final 
 IMAX.deg                73.68:  Inc Max 
 IMIN.deg                72.64:  Inc Min 
 IMND.m                5189.69:  Inc Min Depth 
 IMXD.m                5067.88:  Inc Max Depth 
 JARR.                      No:  Jarring 
 LETM.      15.50.00 07-Aug-20:  Log End Time 
 LOST.hr                     0:  Lost Rig Time 
 LSTM.      10.40.00 06-Aug-20:  Log Start Time 
 MDCL.ppm             36000.00:  Mud Chlorides 
 MDES.     Inversion Oil/Synthetic:  Mud Desc 
 DFD .sg                  1.36:  Mud Density 
 MDMN.sg                  1.36:  Dens Mud Min 
 MDMX.sg                  1.36:  Dens Mud Max 
 MOIL.                      70:  Run Mud Oil % 
 MOWR.                   70:30:  Run Mud OWR 
 MSND.                    0.00:  Run Mud Sand % 
 MSOL.                   17.60:  Run Mud Solids% 
 DFV .spqt               73.00:  Mud Viscosity 
 MWOD.in                  4.75:  MWD Tool OD 
 MWSI.                      No:  Serv Intrp, MWD 
 OTIM.hr                 85.66:  Time Operating 
 PCON.           Look Like New:  Pad Condition 
 PMAX.psia             6250.00:  Press Op, Max 
 PV  .cP                 65.00:  Mud PV 
 RUN .                     900:  Run Number 
 ROPA.m/hr               11.40:  ROP Avg 
 ROPN.m/hr                5.00:  ROP Min 
 ROPX.m/hr               20.00:  ROP Max 
 RPMA.rpm               130.00:  RPM Surface Avg 
 RPMN.rpm                40.00:  RPM Surface Min 
 RPMX.rpm               140.00:  RPM Surface Max 
 RRUN.                    L205:  Rig Run Number 
 RTIM.hr                  1.00:  Time Reaming 
 SAZI.deg               313.52:  Azm, Start 
 SDEP.m                4957.01:  Start Depth 
 SIDD.                      No:  Serv Intrp, DD 
 SINC.deg                73.16:  Inc, Start 
 SPPA.psig             5657.00:  SPP Avg 
 SPPN.psig             2500.00:  SPP Min 
 SPPX.psig             5806.00:  SPP Max 
 STIM.      07.12.00 05-Aug-20:  Start Time 
 SVCS.                 DD, MWD:  Services 
 SVER.                    9.20:  Sperry Version 
 TDAT.m                 243.00:  Tot Depth Attmp 
 TDDF.                      No:  Trip for DD 
 TDLG.m                 243.00:  Tot Depth Loggd 
 TFF .                      No:  Trip for Fail 
 TQAA.f-kp               13.00:  Torque Abs Avg 
 TQAN.f-kp               11.00:  Torque Abs Min 
 TQAX.f-kp               16.00:  Torque Abs Max 
 TRRT.°/30m               1.00:  Turn Rotating 
 MRT .                    HCIM:  Maximum Recorded Temperature 
 TTMX.degC               96.08:  Max Tool Temp 
 VS01.                90515411:  Virtual Str1 SN 
 VS02.                90512716:  Virtual Str2 SN 
 VS03.                90522362:  Virtual Str3 SN 
 VS04.                90619415:  Virtual Str4 SN 
 VS05.                90619414:  Virtual Str5 SN 
 VS06.                90597748:  Virtual Str6 SN 
 WBMN.klb                 2.00:  WOB Min 
 WITN.           Adil Mammadov:  Customer Rep 
 WITN.     Alexander Yadullayev:  Customer Rep 2 
 WOBA.klb                 7.00:  WOB Avg 
 WOBX.klb                23.00:  WOB Max 
 YP  .lhf2               37.00:  Yield Point 
~Curve Information Block
#MNEM.UNIT                 API CODE     Curve Description
#---------               -----------    ---------------------------
 TIME.HHMMSS            00 000 000 000:  GT Time & Date
 GTDEPTH.m              00 000 000 000:  GT Depth
 GTPQH.psia             00 000 000 000:  GT HR Quartz Pressure
 GTTQ.degC              00 000 000 000:  GT Quartz Temperature
 GTTN.NONE              00 000 000 000:  GT Test Number
 GTET.sec               00 000 000 000:  GT Elapsed Test Time
 GTTVD.m                00 000 000 000:  GT True Vertical Depth
#Other Information
#
#WARRANTY: Halliburton will use its best efforts to furnish customers with 
#accurate information and interpretations that are part of, and incident to, the services 
#provided.  However, Halliburton cannot and does not warrant the accuracy 
#or correctness of such information and interpretations.  Under no circumstances should any 
#such information or interpretation be relied upon as the sole basis for any drilling, 
#completion, production, or financial decision or any procedure involving any risk to the 
#safety of any drilling venture, drilling rig or its crew or any other third party.  The 
#Customer has full responsibility for all drilling, completion and production operation.  
#Halliburton makes no representations or warranties, either expressed or 
#implied, including, but not limited to, the implied warranties of merchantability or fitness 
#for a particular purpose, with respect to the services rendered.  In no event will 
#Halliburton be liable for failure to obtain any particular results or for 
#any damages, including, but not limited to, indirect, special or consequential damages, 
#resulting from the use of any information or interpretation provided by Halliburton.
#
~A           TIME           GTDEPTH  GTPQH  GTTQ  GTTN  GTET   GTTVD  
# ...
   06:42:28.966.07-Aug-2020 5088.01 3691.43 88.90 8.00  92.03 2671.45
   06:42:29.166.07-Aug-2020 5088.01 3691.43 88.90 8.00  92.23 2671.45
   06:42:29.366.07-Aug-2020 5088.01 3691.35 88.90 8.00  92.43 2671.45
   06:42:29.566.07-Aug-2020 5088.01 3691.44 88.90 8.00  92.63 2671.45
   06:42:29.766.07-Aug-2020 5088.01 3691.44 88.90 8.00  92.83 2671.45
   06:42:29.966.07-Aug-2020 5088.01 3691.35 88.90 8.00  93.03 2671.45
   06:42:30.166.07-Aug-2020 5088.01 3691.35 88.90 8.00  93.23 2671.45
   06:42:30.366.07-Aug-2020 5088.01 3691.42 88.90 8.00  93.43 2671.45
   06:42:30.566.07-Aug-2020 5088.01 3691.42 88.90 8.00  93.63 2671.45
   06:42:30.766.07-Aug-2020 5088.01 3691.41 88.89 8.00  93.83 2671.45
   06:42:30.966.07-Aug-2020 5088.01 3691.43 88.89 8.00  94.03 2671.45
   06:42:31.166.07-Aug-2020 5088.01 3691.43 88.89 8.00  94.23 2671.45
   06:42:31.366.07-Aug-2020 5088.01 3691.42 88.89 8.00  94.43 2671.45
   06:42:31.566.07-Aug-2020 5088.01 3691.40 88.89 8.00  94.63 2671.45
   06:42:31.767.07-Aug-2020 5088.01 3691.42 88.89 8.00  94.83 2671.45
   06:42:31.967.07-Aug-2020 5088.01 3691.41 88.89 8.00  95.03 2671.45
   06:42:32.167.07-Aug-2020 5088.01 3691.41 88.89 8.00  95.23 2671.45
   06:42:32.367.07-Aug-2020 5088.01 3691.45 88.89 8.00  95.43 2671.45
   06:42:32.567.07-Aug-2020 5088.01 3691.40 88.89 8.00  95.63 2671.45
   06:42:32.767.07-Aug-2020 5088.01 3691.40 88.89 8.00  95.83 2671.45
   06:42:32.967.07-Aug-2020 5088.01 3691.42 88.89 8.00  96.03 2671.45
   06:42:33.167.07-Aug-2020 5088.01 3691.34 88.89 8.00  96.23 2671.45
   06:42:33.367.07-Aug-2020 5088.01 3691.42 88.89 8.00  96.43 2671.45
   06:42:33.567.07-Aug-2020 5088.01 3691.38 88.89 8.00  96.63 2671.45
   06:42:33.767.07-Aug-2020 5088.01 3691.42 88.88 8.00  96.83 2671.45
   06:42:33.967.07-Aug-2020 5088.01 3691.42 88.88 8.00  97.03 2671.45
   06:42:34.167.07-Aug-2020 5088.01 3691.42 88.88 8.00  97.23 2671.45
   06:42:34.367.07-Aug-2020 5088.01 3691.49 88.88 8.00  97.43 2671.45
   06:42:34.567.07-Aug-2020 5088.01 3691.42 88.88 8.00  97.63 2671.45
   06:42:34.767.07-Aug-2020 5088.01 3691.38 88.88 8.00  97.83 2671.45
   06:42:34.967.07-Aug-2020 5088.01 3691.38 88.88 8.00  98.03 2671.45
   06:42:35.168.07-Aug-2020 5088.01 3691.38 88.88 8.00  98.23 2671.45
   06:42:35.368.07-Aug-2020 5088.01 3691.41 88.88 8.00  98.43 2671.45
   06:42:35.568.07-Aug-2020 5088.01 3691.39 88.88 8.00  98.63 2671.45
   06:42:35.768.07-Aug-2020 5088.01 3691.38 88.88 8.00  98.83 2671.45
   06:42:35.968.07-Aug-2020 5088.01 3691.42 88.88 8.00  99.03 2671.45
   06:42:36.168.07-Aug-2020 5088.01 3691.42 88.88 8.00  99.23 2671.45
   06:42:36.368.07-Aug-2020 5088.01 3691.41 88.88 8.00  99.43 2671.45
   06:42:36.568.07-Aug-2020 5088.01 3691.37 88.88 8.00  99.63 2671.45
   06:42:36.768.07-Aug-2020 5088.01 3691.39 88.87 8.00  99.83 2671.45
   06:42:36.968.07-Aug-2020 5088.01 3691.38 88.87 8.00 100.03 2671.45
   06:42:37.168.07-Aug-2020 5088.01 3691.38 88.87 8.00 100.23 2671.45
   06:42:37.368.07-Aug-2020 5088.01 3691.38 88.87 8.00 100.43 2671.45
   06:42:37.568.07-Aug-2020 5088.01 3691.38 88.87 8.00 100.63 2671.45
   06:42:37.768.07-Aug-2020 5088.01 3691.31 88.87 8.00 100.83 2671.45
   06:42:37.968.07-Aug-2020 5088.01 3691.41 88.87 8.00 101.03 2671.45
   06:42:38.168.07-Aug-2020 5088.01 3691.41 88.87 8.00 101.23 2671.45
   06:42:38.368.07-Aug-2020 5088.01 3691.33 88.87 8.00 101.43 2671.45
   06:42:38.568.07-Aug-2020 5088.01 3691.41 88.87 8.00 101.63 2671.45
   06:42:38.769.07-Aug-2020 5088.01 3691.35 88.87 8.00 101.83 2671.45
   06:42:38.969.07-Aug-2020 5088.01 3691.38 88.87 8.00 102.03 2671.45
   06:42:39.169.07-Aug-2020 5088.01 3691.38 88.87 8.00 102.23 2671.45
   06:42:39.369.07-Aug-2020 5088.01 3691.38 88.87 8.00 102.43 2671.45
   06:42:39.569.07-Aug-2020 5088.01 3691.36 88.87 8.00 102.63 2671.45
   06:42:39.769.07-Aug-2020 5088.01 3691.38 88.86 8.00 102.83 2671.45
   06:42:39.969.07-Aug-2020 5088.01 3691.35 88.86 8.00 103.03 2671.45
   06:42:40.169.07-Aug-2020 5088.01 3691.35 88.86 8.00 103.23 2671.45
   06:42:40.369.07-Aug-2020 5088.01 3691.34 88.86 8.00 103.43 2671.45
   06:42:40.569.07-Aug-2020 5088.01 3691.31 88.86 8.00 103.63 2671.45
   06:42:40.769.07-Aug-2020 5088.01 3691.36 88.86 8.00 103.83 2671.45
   06:42:40.969.07-Aug-2020 5088.01 3691.36 88.86 8.00 104.03 2671.45
   06:42:41.169.07-Aug-2020 5088.01 3691.38 88.86 8.00 104.23 2671.45
   06:42:41.369.07-Aug-2020 5088.01 3691.38 88.86 8.00 104.43 2671.45
   06:42:41.569.07-Aug-2020 5088.01 3691.27 88.86 8.00 104.63 2671.45
   06:42:41.769.07-Aug-2020 5088.01 3691.40 88.86 8.00 104.83 2671.45
   06:42:41.969.07-Aug-2020 5088.01 3691.36 88.86 8.00 105.03 2671.45
   06:42:42.170.07-Aug-2020 5088.01 3691.36 88.86 8.00 105.23 2671.45
   06:42:42.370.07-Aug-2020 5088.01 3691.36 88.86 8.00 105.43 2671.45
   06:42:42.570.07-Aug-2020 5088.01 3691.21 88.86 8.00 105.63 2671.45
   06:42:42.770.07-Aug-2020 5088.01 3691.46 88.85 8.00 105.83 2671.45
   06:42:42.970.07-Aug-2020 5088.01 3691.37 88.85 8.00 106.03 2671.45
   06:42:43.170.07-Aug-2020 5088.01 3691.37 88.85 8.00 106.23 2671.45
   06:42:43.370.07-Aug-2020 5088.01 3691.32 88.85 8.00 106.43 2671.45
   06:42:43.570.07-Aug-2020 5088.01 3691.36 88.85 8.00 106.63 2671.45
   06:42:43.770.07-Aug-2020 5088.01 3691.37 88.85 8.00 106.83 2671.45
   06:42:43.970.07-Aug-2020 5088.01 3691.32 88.85 8.00 107.03 2671.45
   06:42:44.170.07-Aug-2020 5088.01 3691.32 88.85 8.00 107.23 2671.45
   06:42:44.370.07-Aug-2020 5088.01 3691.37 88.85 8.00 107.43 2671.45
   06:42:44.570.07-Aug-2020 5088.01 3691.34 88.85 8.00 107.63 2671.45
   06:42:44.770.07-Aug-2020 5088.01 3691.37 88.85 8.00 107.83 2671.45
   06:42:44.970.07-Aug-2020 5088.01 3691.34 88.85 8.00 108.03 2671.45
   06:42:45.170.07-Aug-2020 5088.01 3691.35 88.85 8.00 108.23 2671.45
   06:42:45.370.07-Aug-2020 5088.01 3691.34 88.85 8.00 108.43 2671.45
   06:42:45.571.07-Aug-2020 5088.01 3691.36 88.85 8.00 108.63 2671.45
   06:42:45.771.07-Aug-2020 5088.01 3691.33 88.84 8.00 108.83 2671.45
   06:42:45.971.07-Aug-2020 5088.01 3691.36 88.84 8.00 109.03 2671.45
   06:42:46.171.07-Aug-2020 5088.01 3691.36 88.84 8.00 109.23 2671.45
   06:42:46.371.07-Aug-2020 5088.01 3691.40 88.84 8.00 109.43 2671.45
   06:42:46.571.07-Aug-2020 5088.01 3691.36 88.84 8.00 109.63 2671.45
   06:42:46.771.07-Aug-2020 5088.01 3691.31 88.84 8.00 109.83 2671.45
   06:42:46.971.07-Aug-2020 5088.01 3691.33 88.84 8.00 110.03 2671.45
   06:42:47.171.07-Aug-2020 5088.01 3691.33 88.84 8.00 110.23 2671.45
   06:42:47.371.07-Aug-2020 5088.01 3691.33 88.84 8.00 110.43 2671.45
   06:42:47.571.07-Aug-2020 5088.01 3691.34 88.84 8.00 110.63 2671.45
   06:42:47.771.07-Aug-2020 5088.01 3691.33 88.84 8.00 110.83 2671.45
   06:42:47.971.07-Aug-2020 5088.01 3691.34 88.84 8.00 111.03 2671.45
   06:42:48.171.07-Aug-2020 5088.01 3691.34 88.84 8.00 111.23 2671.45
   06:42:48.371.07-Aug-2020 5088.01 3691.32 88.84 8.00 111.43 2671.45
   06:42:48.571.07-Aug-2020 5088.01 3691.33 88.84 8.00 111.63 2671.45
   06:42:48.771.07-Aug-2020 5088.01 3691.30 88.83 8.00 111.83 2671.45
   06:42:48.972.07-Aug-2020 5088.01 3691.27 88.83 8.00 112.03 2671.45
   06:42:49.172.07-Aug-2020 5088.01 3691.34 88.83 8.00 112.23 2671.45
   06:42:49.372.07-Aug-2020 5088.01 3691.32 88.83 8.00 112.43 2671.45
   06:42:49.572.07-Aug-2020 5088.01 3691.33 88.83 8.00 112.63 2671.45
   06:42:49.772.07-Aug-2020 5088.01 3691.31 88.83 8.00 112.83 2671.45
   06:42:49.972.07-Aug-2020 5088.01 3691.25 88.83 8.00 113.03 2671.45
   06:42:50.172.07-Aug-2020 5088.01 3691.25 88.83 8.00 113.23 2671.45
   06:42:50.372.07-Aug-2020 5088.01 3691.28 88.83 8.00 113.43 2671.45
   06:42:50.572.07-Aug-2020 5088.01 3691.35 88.83 8.00 113.63 2671.45
   06:42:50.772.07-Aug-2020 5088.01 3691.32 88.83 8.00 113.83 2671.45
   06:42:50.972.07-Aug-2020 5088.01 3691.23 88.83 8.00 114.03 2671.45
   06:42:51.172.07-Aug-2020 5088.01 3691.23 88.83 8.00 114.23 2671.45
   06:42:51.372.07-Aug-2020 5088.01 3691.30 88.83 8.00 114.43 2671.45
   06:42:51.572.07-Aug-2020 5088.01 3691.33 88.83 8.00 114.63 2671.45
   06:42:51.772.07-Aug-2020 5088.01 3691.27 88.83 8.00 114.83 2671.45
