~Version Information
 VERS.                  2.0:   CWLS log ASCII Standard -VERSION 2.0
 WRAP.                   NO:   One line per depth step
~Well Information Block
#MNEM.UNIT     VALUE/NAME     DESCRIPTION
#---------     -----------    ---------------------------
 STRT.S             11:55:46 07-Aug-20: START TIME 11:55:46 07-Aug-20
 STOP.S             12:03:39 07-Aug-20: STOP TIME  12:03:39 07-Aug-20
 STEP.S                   0.00: STEP TIME
 NULL.                 -999.25: NULL VALUE
 DFWT.                        :  DIST FWL TEXT
 DFST.                        :  DIST FSL TEXT
 DMF .             Drill Floor:  DRILL MEAS FROM
 STIM.      12.00.00 03-Jul-20:  START TIME
 DATE.      00.50.00 09-Aug-20:  END TIME
 SPUD.               03-Jul-20:  SPUD DATE
 NREF.                    Grid:  NORTH REFERENCE
 HPTY.       Minimum Curvature:  HOLE POS TYPE
 DMOD.             Drill Model:  DRILL MOD DESC
 SVYD.                  Survey:  SURVEY DESC
 ILTD.               Lithology:  INTERP LTH DESC
 FTOP.          Formation Tops:  FORM TOPS DESC
 PDAT.          Mean Sea Level:  PERMANENT DATUM
 FLD .                     ACG:  FIELD NAME
 CTRY.              Azerbaijan:  COUNTRY NAME
 WELL.                    E04x:  WELL NAME
 SRVC.          Turan Drilling:  CONTRACTOR
 COMP.     BP Exploration (Caspian Sea) Ltd.:  COMPANY
 SON .        AZ-XX-0906531346:  JOB NUMBER
 WTYP.                Deviated:  WELL TYPE
 MDS .        Operator Entered:  MAG DATA SOURCE
 UWI .                     N/A:  UNIQUE WELL IDENTIFIER
 API .                     N/A:  API NUMBER
 BASE.              Azerbaijan:  LOGGING EQUIPMENT BASE LOCATION
 REGN.                   EESSA:  REGION
 PROV.                    Baku:  PROVINCE
 STAT.                    Baku:  STATE NAME
 MWDS.                    Baku:  MWD SHOP
 JOBN.        AZ-XX-0906531346:  JOB TICKET NUMB
 RIG .                     DWG:  RIG NAME
 DOE .                     N/A:  DOE NUMBER
 DCON.         Sperry Drilling:  DIRECTNL CONTR
 UNIT.                     N/A:  LOGGING EQUIPMENT ID
 CNTY.                        :  COUNTY
 LOC .                        :  LOCATION
 LMF .             Drill Floor:  LOG MEASURED FROM
 TVDS.m                  43.16:  TVDSS CORRECTN
 LATI.deg                40.17:  LATITUDE
 LONG.deg                51.17:  LONGITUDE
 WHNS.m                  -0.12:  WELL HEAD N/S
 WHEW.m                  -5.41:  WELL HEAD E/W
 UTMX.m              514337.95:  UTM X
 UTMY.m             4448627.46:  UTM Y
 DFWL.m                   0.00:  DISTANCE FWL
 DFSL.m                   0.00:  DISTANCE FSL
 SDEP.m                3088.01:  START DEPTH
 TDD .m                5200.01:  TOTAL DEPTH (DRILLER)
 VSDR.deg               244.51:  VERT SEC DIRECT
 GVFD.g                   1.00:  GRAVITY FIELD
 MFLD.nT              50329.80:  MAGNETIC FIELD
 MDIP.deg                59.63:  MAGNETIC DIP
 MDEC.deg                 6.59:  MAGNETIC DECL
 GRDC.deg                 0.09:  GRID CORRECTION
 AZTC.deg                 6.50:  AZM TOTAL CORR
 EPD .m                   0.00:  ELEVATION
 EGL .m                   0.00:  GROUND ELEVATION
 WDMS.m                 176.20:  WD ELEV
 APD .m                  43.16:  DEPTH ABOVE PD
 DEP .m                3084.71:  DEPTH
 AGAP.m                  43.16:  AIR GAP
 VSEW.m                  -5.41:  VERT SEC E/W
 VSNS.m                  -0.12:  VERT SEC N/S
 EKB .m                   0.00:  KB ELEVATION
 EDF .m                  43.16:  DF ELEVATION
 TDL .m                 243.00:  TOTAL DEPTH (LOGGER)
 VSC .                       0:  VS TO CLOSURE
 MAGU.                 1853542:  MAGUTM CHECKSUM
~Parameter Information Block
#MNEM.UNIT       Value        Description
#---------     -----------    ---------------------------
 AV  .mps                 1.91:  Ann Velocity 
 AVMX.mps                 2.52:  Max Ann Veloc 
 AZIF.deg               308.97:  Azm, Final 
 BHAT.        Rotary Steerable:  BHA Type 
 BROT.°/30m               1.00:  Build Rotating 
 BS  .in                  6.50:  Bit Size 
 BSZ .in                  6.50:  Bit Size 
 BTPL.psig              350.00:  Bit Press Loss 
 CABU.                      No:  Customer Abuse 
 CGEO.           Asif Pashayev:  Customer Geo 
 COMM.                     ¤4N:  Run Comments 1 
 TCS .hr                 35.86:  Time Ciculation Ended 
 CV  .mps                 2.31:  Crit Velocity 
 CVMX.mps                 2.31:  Max Crit Veloc 
 DD1 .         Intigam Rahimov:  Direct Drillr 1 
 DDSV.               Geo-Pilot:  DD Service 
 DEFF.%                  92.00:  % Det Eff 
 DLRX.°/30m               1.00:  Dogleg Rot Max 
 DLSO.°/30m               1.00:  Dogleg Oriented 
 DLSX.°/30m               1.42:  Dogleg Str Max 
 DRET.      15.50.00 07-Aug-20:  Drill End Time 
 DRST.      10.40.00 06-Aug-20:  Drill Start Tim 
 DTIM.hr                 21.30:  Time Drilling 
 EDEP.m                5200.01:  End Depth 
 ENG1.            Alan Tuganov:  Engineer 1 
 ENG2.         Almaz Almadatov:  Engineer 2 
 ENG3.     Zammelal Abdullah Sani:  Engineer 3 
 ETIM.      22.42.00 08-Aug-20:  End Time 
 FLOI.gpm               395.00:  Flow In 
 FLON.gpm               350.00:  Flow In Min 
 FLOS.cptm                0.00:  Fluid Loss 
 FLOX.gpm               404.00:  Flow In Max 
 FTRO.       Formation Presure:  FTWD Run Obj 
 HFLO.                      No:  High Flow 
 HPRE.                      No:  High Pressure 
 HTEM.                      No:  High Temp 
 HYDO.m                   1.80:  Hydro Offset 
 IFIN.deg                72.64:  Inc, Final 
 IMAX.deg                73.68:  Inc Max 
 IMIN.deg                72.64:  Inc Min 
 IMND.m                5189.69:  Inc Min Depth 
 IMXD.m                5067.88:  Inc Max Depth 
 JARR.                      No:  Jarring 
 LETM.      15.50.00 07-Aug-20:  Log End Time 
 LOST.hr                     0:  Lost Rig Time 
 LSTM.      10.40.00 06-Aug-20:  Log Start Time 
 MDCL.ppm             36000.00:  Mud Chlorides 
 MDES.     Inversion Oil/Synthetic:  Mud Desc 
 DFD .sg                  1.36:  Mud Density 
 MDMN.sg                  1.36:  Dens Mud Min 
 MDMX.sg                  1.36:  Dens Mud Max 
 MOIL.                      70:  Run Mud Oil % 
 MOWR.                   70:30:  Run Mud OWR 
 MSND.                    0.00:  Run Mud Sand % 
 MSOL.                   17.60:  Run Mud Solids% 
 DFV .spqt               73.00:  Mud Viscosity 
 MWOD.in                  4.75:  MWD Tool OD 
 MWSI.                      No:  Serv Intrp, MWD 
 OTIM.hr                 85.66:  Time Operating 
 PCON.           Look Like New:  Pad Condition 
 PMAX.psia             6250.00:  Press Op, Max 
 PV  .cP                 65.00:  Mud PV 
 RUN .                     900:  Run Number 
 ROPA.m/hr               11.40:  ROP Avg 
 ROPN.m/hr                5.00:  ROP Min 
 ROPX.m/hr               20.00:  ROP Max 
 RPMA.rpm               130.00:  RPM Surface Avg 
 RPMN.rpm                40.00:  RPM Surface Min 
 RPMX.rpm               140.00:  RPM Surface Max 
 RRUN.                    L205:  Rig Run Number 
 RTIM.hr                  1.00:  Time Reaming 
 SAZI.deg               313.52:  Azm, Start 
 SDEP.m                4957.01:  Start Depth 
 SIDD.                      No:  Serv Intrp, DD 
 SINC.deg                73.16:  Inc, Start 
 SPPA.psig             5657.00:  SPP Avg 
 SPPN.psig             2500.00:  SPP Min 
 SPPX.psig             5806.00:  SPP Max 
 STIM.      07.12.00 05-Aug-20:  Start Time 
 SVCS.                 DD, MWD:  Services 
 SVER.                    9.20:  Sperry Version 
 TDAT.m                 243.00:  Tot Depth Attmp 
 TDDF.                      No:  Trip for DD 
 TDLG.m                 243.00:  Tot Depth Loggd 
 TFF .                      No:  Trip for Fail 
 TQAA.f-kp               13.00:  Torque Abs Avg 
 TQAN.f-kp               11.00:  Torque Abs Min 
 TQAX.f-kp               16.00:  Torque Abs Max 
 TRRT.°/30m               1.00:  Turn Rotating 
 MRT .                    HCIM:  Maximum Recorded Temperature 
 TTMX.degC               96.08:  Max Tool Temp 
 VS01.                90515411:  Virtual Str1 SN 
 VS02.                90512716:  Virtual Str2 SN 
 VS03.                90522362:  Virtual Str3 SN 
 VS04.                90619415:  Virtual Str4 SN 
 VS05.                90619414:  Virtual Str5 SN 
 VS06.                90597748:  Virtual Str6 SN 
 WBMN.klb                 2.00:  WOB Min 
 WITN.           Adil Mammadov:  Customer Rep 
 WITN.     Alexander Yadullayev:  Customer Rep 2 
 WOBA.klb                 7.00:  WOB Avg 
 WOBX.klb                23.00:  WOB Max 
 YP  .lhf2               37.00:  Yield Point 
~Curve Information Block
#MNEM.UNIT                 API CODE     Curve Description
#---------               -----------    ---------------------------
 TIME.HHMMSS            00 000 000 000:  GT Time & Date
 GTDEPTH.m              00 000 000 000:  GT Depth
 GTPQH.psia             00 000 000 000:  GT HR Quartz Pressure
 GTTQ.degC              00 000 000 000:  GT Quartz Temperature
 GTTN.NONE              00 000 000 000:  GT Test Number
 GTET.sec               00 000 000 000:  GT Elapsed Test Time
 GTTVD.m                00 000 000 000:  GT True Vertical Depth
#Other Information
#
#WARRANTY: Halliburton will use its best efforts to furnish customers with 
#accurate information and interpretations that are part of, and incident to, the services 
#provided.  However, Halliburton cannot and does not warrant the accuracy 
#or correctness of such information and interpretations.  Under no circumstances should any 
#such information or interpretation be relied upon as the sole basis for any drilling, 
#completion, production, or financial decision or any procedure involving any risk to the 
#safety of any drilling venture, drilling rig or its crew or any other third party.  The 
#Customer has full responsibility for all drilling, completion and production operation.  
#Halliburton makes no representations or warranties, either expressed or 
#implied, including, but not limited to, the implied warranties of merchantability or fitness 
#for a particular purpose, with respect to the services rendered.  In no event will 
#Halliburton be liable for failure to obtain any particular results or for 
#any damages, including, but not limited to, indirect, special or consequential damages, 
#resulting from the use of any information or interpretation provided by Halliburton.
#
~A           TIME           GTDEPTH  GTPQH  GTTQ  GTTN   GTET   GTTVD  
# ...
   11:58:47.754.07-Aug-2020 5127.01 3414.22 87.63 10.00 180.87 2682.86
   11:58:47.954.07-Aug-2020 5127.01 3414.20 87.63 10.00 181.07 2682.86
   11:58:48.154.07-Aug-2020 5127.01 3414.20 87.63 10.00 181.27 2682.86
   11:58:48.354.07-Aug-2020 5127.01 3414.18 87.63 10.00 181.47 2682.86
   11:58:48.554.07-Aug-2020 5127.01 3414.20 87.63 10.00 181.67 2682.86
   11:58:48.754.07-Aug-2020 5127.01 3414.19 87.63 10.00 181.87 2682.86
   11:58:48.954.07-Aug-2020 5127.01 3414.20 87.63 10.00 182.07 2682.86
   11:58:49.154.07-Aug-2020 5127.01 3414.20 87.63 10.00 182.27 2682.86
   11:58:49.355.07-Aug-2020 5127.01 3414.23 87.63 10.00 182.47 2682.86
   11:58:49.555.07-Aug-2020 5127.01 3414.22 87.63 10.00 182.67 2682.86
   11:58:49.755.07-Aug-2020 5127.01 3414.19 87.63 10.00 182.87 2682.86
   11:58:49.955.07-Aug-2020 5127.01 3414.21 87.63 10.00 183.07 2682.86
   11:58:50.155.07-Aug-2020 5127.01 3414.21 87.63 10.00 183.27 2682.86
   11:58:50.355.07-Aug-2020 5127.01 3414.17 87.63 10.00 183.47 2682.86
   11:58:50.555.07-Aug-2020 5127.01 3414.20 87.63 10.00 183.67 2682.86
   11:58:50.755.07-Aug-2020 5127.01 3414.21 87.63 10.00 183.87 2682.86
   11:58:50.955.07-Aug-2020 5127.01 3414.19 87.63 10.00 184.07 2682.86
   11:58:51.155.07-Aug-2020 5127.01 3414.19 87.63 10.00 184.27 2682.86
   11:58:51.355.07-Aug-2020 5127.01 3414.21 87.63 10.00 184.47 2682.86
   11:58:51.555.07-Aug-2020 5127.01 3414.18 87.63 10.00 184.67 2682.86
   11:58:51.755.07-Aug-2020 5127.01 3414.13 87.63 10.00 184.87 2682.86
   11:58:51.956.07-Aug-2020 5127.01 3414.26 87.63 10.00 185.07 2682.86
   11:58:52.156.07-Aug-2020 5127.01 3414.26 87.63 10.00 185.27 2682.86
   11:58:52.356.07-Aug-2020 5127.01 3414.14 87.62 10.00 185.47 2682.86
   11:58:52.556.07-Aug-2020 5127.01 3414.02 87.62 10.00 185.67 2682.86
   11:58:52.756.07-Aug-2020 5127.01 3414.39 87.62 10.00 185.87 2682.86
   11:58:52.956.07-Aug-2020 5127.01 3414.23 87.62 10.00 186.07 2682.86
   11:58:53.156.07-Aug-2020 5127.01 3414.23 87.62 10.00 186.27 2682.86
   11:58:53.356.07-Aug-2020 5127.01 3414.24 87.62 10.00 186.47 2682.86
   11:58:53.556.07-Aug-2020 5127.01 3414.23 87.62 10.00 186.67 2682.86
   11:58:53.756.07-Aug-2020 5127.01 3414.10 87.62 10.00 186.87 2682.86
   11:58:53.956.07-Aug-2020 5127.01 3414.26 87.62 10.00 187.07 2682.86
   11:58:54.156.07-Aug-2020 5127.01 3414.19 87.62 10.00 187.27 2682.86
   11:58:54.356.07-Aug-2020 5127.01 3414.15 87.62 10.00 187.47 2682.86
   11:58:54.557.07-Aug-2020 5127.01 3414.22 87.62 10.00 187.67 2682.86
   11:58:54.757.07-Aug-2020 5127.01 3414.22 87.62 10.00 187.87 2682.86
   11:58:54.957.07-Aug-2020 5127.01 3413.96 87.62 10.00 188.07 2682.86
   11:58:55.157.07-Aug-2020 5127.01 3413.96 87.62 10.00 188.27 2682.86
   11:58:55.357.07-Aug-2020 5127.01 3414.26 87.62 10.00 188.47 2682.86
   11:58:55.557.07-Aug-2020 5127.01 3414.12 87.62 10.00 188.67 2682.86
   11:58:55.757.07-Aug-2020 5127.01 3414.21 87.62 10.00 188.87 2682.86
   11:58:55.957.07-Aug-2020 5127.01 3414.23 87.62 10.00 189.07 2682.86
   11:58:56.157.07-Aug-2020 5127.01 3414.23 87.62 10.00 189.27 2682.86
   11:58:56.357.07-Aug-2020 5127.01 3414.20 87.62 10.00 189.47 2682.86
   11:58:56.557.07-Aug-2020 5127.01 3414.20 87.62 10.00 189.67 2682.86
   11:58:56.757.07-Aug-2020 5127.01 3414.20 87.62 10.00 189.87 2682.86
   11:58:56.957.07-Aug-2020 5127.01 3414.20 87.61 10.00 190.07 2682.86
   11:58:57.158.07-Aug-2020 5127.01 3414.20 87.61 10.00 190.27 2682.86
   11:58:57.358.07-Aug-2020 5127.01 3414.20 87.61 10.00 190.47 2682.86
   11:58:57.558.07-Aug-2020 5127.01 3414.17 87.61 10.00 190.67 2682.86
   11:58:57.758.07-Aug-2020 5127.01 3414.19 87.61 10.00 190.87 2682.86
   11:58:57.958.07-Aug-2020 5127.01 3414.21 87.61 10.00 191.07 2682.86
   11:58:58.158.07-Aug-2020 5127.01 3414.21 87.61 10.00 191.27 2682.86
   11:58:58.358.07-Aug-2020 5127.01 3414.19 87.61 10.00 191.47 2682.86
   11:58:58.558.07-Aug-2020 5127.01 3414.20 87.61 10.00 191.67 2682.86
   11:58:58.758.07-Aug-2020 5127.01 3414.18 87.61 10.00 191.87 2682.86
   11:58:58.958.07-Aug-2020 5127.01 3414.18 87.61 10.00 192.07 2682.86
   11:58:59.158.07-Aug-2020 5127.01 3414.18 87.61 10.00 192.27 2682.86
   11:58:59.358.07-Aug-2020 5127.01 3414.22 87.61 10.00 192.47 2682.86
   11:58:59.558.07-Aug-2020 5127.01 3414.17 87.61 10.00 192.67 2682.86
   11:58:59.758.07-Aug-2020 5127.01 3414.19 87.61 10.00 192.87 2682.86
   11:58:59.959.07-Aug-2020 5127.01 3414.17 87.61 10.00 193.07 2682.86
   11:59:00.159.07-Aug-2020 5127.01 3414.17 87.61 10.00 193.27 2682.86
   11:59:00.359.07-Aug-2020 5127.01 3414.08 87.61 10.00 193.47 2682.86
   11:59:00.559.07-Aug-2020 5127.01 3414.26 87.61 10.00 193.67 2682.86
   11:59:00.759.07-Aug-2020 5127.01 3414.19 87.61 10.00 193.87 2682.86
   11:59:00.959.07-Aug-2020 5127.01 3414.13 87.61 10.00 194.07 2682.86
   11:59:01.159.07-Aug-2020 5127.01 3414.13 87.61 10.00 194.27 2682.86
   11:59:01.359.07-Aug-2020 5127.01 3414.35 87.61 10.00 194.47 2682.86
   11:59:01.559.07-Aug-2020 5127.01 3414.22 87.61 10.00 194.67 2682.86
   11:59:01.759.07-Aug-2020 5127.01 3414.10 87.60 10.00 194.87 2682.86
   11:59:01.959.07-Aug-2020 5127.01 3414.24 87.60 10.00 195.07 2682.86
   11:59:02.159.07-Aug-2020 5127.01 3414.21 87.60 10.00 195.27 2682.86
   11:59:02.359.07-Aug-2020 5127.01 3414.07 87.60 10.00 195.47 2682.86
   11:59:02.560.07-Aug-2020 5127.01 3414.27 87.60 10.00 195.67 2682.86
   11:59:02.760.07-Aug-2020 5127.01 3414.22 87.60 10.00 195.87 2682.86
   11:59:02.960.07-Aug-2020 5127.01 3414.11 87.60 10.00 196.07 2682.86
   11:59:03.160.07-Aug-2020 5127.01 3414.11 87.60 10.00 196.27 2682.86
   11:59:03.360.07-Aug-2020 5127.01 3414.19 87.60 10.00 196.47 2682.86
   11:59:03.560.07-Aug-2020 5127.01 3413.99 87.60 10.00 196.67 2682.86
   11:59:03.760.07-Aug-2020 5127.01 3414.33 87.60 10.00 196.87 2682.86
   11:59:03.960.07-Aug-2020 5127.01 3414.25 87.60 10.00 197.07 2682.86
   11:59:04.160.07-Aug-2020 5127.01 3414.25 87.60 10.00 197.27 2682.86
   11:59:04.360.07-Aug-2020 5127.01 3414.24 87.60 10.00 197.47 2682.86
   11:59:04.560.07-Aug-2020 5127.01 3414.20 87.60 10.00 197.67 2682.86
   11:59:04.760.07-Aug-2020 5127.01 3414.17 87.60 10.00 197.87 2682.86
   11:59:04.960.07-Aug-2020 5127.01 3414.18 87.60 10.00 198.07 2682.86
   11:59:05.161.07-Aug-2020 5127.01 3414.18 87.60 10.00 198.27 2682.86
   11:59:05.361.07-Aug-2020 5127.01 3414.18 87.60 10.00 198.47 2682.86
   11:59:05.561.07-Aug-2020 5127.01 3414.17 87.60 10.00 198.67 2682.86
   11:59:05.761.07-Aug-2020 5127.01 3414.19 87.60 10.00 198.87 2682.86
   11:59:05.961.07-Aug-2020 5127.01 3414.18 87.60 10.00 199.07 2682.86
   11:59:06.161.07-Aug-2020 5127.01 3414.14 87.60 10.00 199.27 2682.86
   11:59:06.361.07-Aug-2020 5127.01 3414.21 87.59 10.00 199.47 2682.86
   11:59:06.561.07-Aug-2020 5127.01 3414.18 87.59 10.00 199.67 2682.86
   11:59:06.761.07-Aug-2020 5127.01 3414.13 87.59 10.00 199.88 2682.86
   11:59:06.961.07-Aug-2020 5127.01 3414.21 87.59 10.00 200.08 2682.86
   11:59:07.161.07-Aug-2020 5127.01 3414.21 87.59 10.00 200.28 2682.86
   11:59:07.361.07-Aug-2020 5127.01 3414.19 87.59 10.00 200.48 2682.86
   11:59:07.561.07-Aug-2020 5127.01 3414.18 87.59 10.00 200.68 2682.86
   11:59:07.761.07-Aug-2020 5127.01 3414.19 87.59 10.00 200.88 2682.86
   11:59:07.962.07-Aug-2020 5127.01 3414.17 87.59 10.00 201.08 2682.86
   11:59:08.162.07-Aug-2020 5127.01 3414.17 87.59 10.00 201.28 2682.86
   11:59:08.362.07-Aug-2020 5127.01 3414.16 87.59 10.00 201.48 2682.86
   11:59:08.562.07-Aug-2020 5127.01 3414.20 87.59 10.00 201.68 2682.86
   11:59:08.762.07-Aug-2020 5127.01 3414.15 87.59 10.00 201.88 2682.86
   11:59:08.962.07-Aug-2020 5127.01 3414.03 87.59 10.00 202.08 2682.86
   11:59:09.162.07-Aug-2020 5127.01 3414.03 87.59 10.00 202.28 2682.86
   11:59:09.362.07-Aug-2020 5127.01 3414.25 87.59 10.00 202.48 2682.86
   11:59:09.562.07-Aug-2020 5127.01 3414.09 87.59 10.00 202.68 2682.86
   11:59:09.762.07-Aug-2020 5127.01 3414.16 87.59 10.00 202.88 2682.86
   11:59:09.962.07-Aug-2020 5127.01 3414.20 87.59 10.00 203.08 2682.86
   11:59:10.162.07-Aug-2020 5127.01 3414.21 87.59 10.00 203.28 2682.86
