~Version Information
 VERS.                  2.0:   CWLS log ASCII Standard -VERSION 2.0
 WRAP.                   NO:   One line per depth step
~Well Information Block
#MNEM.UNIT     VALUE/NAME     DESCRIPTION
#---------     -----------    ---------------------------
 STRT.S             15:38:44 07-Aug-20: START TIME 15:38:44 07-Aug-20
 STOP.S             15:46:36 07-Aug-20: STOP TIME  15:46:36 07-Aug-20
 STEP.S                   0.00: STEP TIME
 NULL.                 -999.25: NULL VALUE
 DFWT.                        :  DIST FWL TEXT
 DFST.                        :  DIST FSL TEXT
 DMF .             Drill Floor:  DRILL MEAS FROM
 STIM.      12.00.00 03-Jul-20:  START TIME
 DATE.      00.50.00 09-Aug-20:  END TIME
 SPUD.               03-Jul-20:  SPUD DATE
 NREF.                    Grid:  NORTH REFERENCE
 HPTY.       Minimum Curvature:  HOLE POS TYPE
 DMOD.             Drill Model:  DRILL MOD DESC
 SVYD.                  Survey:  SURVEY DESC
 ILTD.               Lithology:  INTERP LTH DESC
 FTOP.          Formation Tops:  FORM TOPS DESC
 PDAT.          Mean Sea Level:  PERMANENT DATUM
 FLD .                     ACG:  FIELD NAME
 CTRY.              Azerbaijan:  COUNTRY NAME
 WELL.                    E04x:  WELL NAME
 SRVC.          Turan Drilling:  CONTRACTOR
 COMP.     BP Exploration (Caspian Sea) Ltd.:  COMPANY
 SON .        AZ-XX-0906531346:  JOB NUMBER
 WTYP.                Deviated:  WELL TYPE
 MDS .        Operator Entered:  MAG DATA SOURCE
 UWI .                     N/A:  UNIQUE WELL IDENTIFIER
 API .                     N/A:  API NUMBER
 BASE.              Azerbaijan:  LOGGING EQUIPMENT BASE LOCATION
 REGN.                   EESSA:  REGION
 PROV.                    Baku:  PROVINCE
 STAT.                    Baku:  STATE NAME
 MWDS.                    Baku:  MWD SHOP
 JOBN.        AZ-XX-0906531346:  JOB TICKET NUMB
 RIG .                     DWG:  RIG NAME
 DOE .                     N/A:  DOE NUMBER
 DCON.         Sperry Drilling:  DIRECTNL CONTR
 UNIT.                     N/A:  LOGGING EQUIPMENT ID
 CNTY.                        :  COUNTY
 LOC .                        :  LOCATION
 LMF .             Drill Floor:  LOG MEASURED FROM
 TVDS.m                  43.16:  TVDSS CORRECTN
 LATI.deg                40.17:  LATITUDE
 LONG.deg                51.17:  LONGITUDE
 WHNS.m                  -0.12:  WELL HEAD N/S
 WHEW.m                  -5.41:  WELL HEAD E/W
 UTMX.m              514337.95:  UTM X
 UTMY.m             4448627.46:  UTM Y
 DFWL.m                   0.00:  DISTANCE FWL
 DFSL.m                   0.00:  DISTANCE FSL
 SDEP.m                3088.01:  START DEPTH
 TDD .m                5200.01:  TOTAL DEPTH (DRILLER)
 VSDR.deg               244.51:  VERT SEC DIRECT
 GVFD.g                   1.00:  GRAVITY FIELD
 MFLD.nT              50329.80:  MAGNETIC FIELD
 MDIP.deg                59.63:  MAGNETIC DIP
 MDEC.deg                 6.59:  MAGNETIC DECL
 GRDC.deg                 0.09:  GRID CORRECTION
 AZTC.deg                 6.50:  AZM TOTAL CORR
 EPD .m                   0.00:  ELEVATION
 EGL .m                   0.00:  GROUND ELEVATION
 WDMS.m                 176.20:  WD ELEV
 APD .m                  43.16:  DEPTH ABOVE PD
 DEP .m                3084.71:  DEPTH
 AGAP.m                  43.16:  AIR GAP
 VSEW.m                  -5.41:  VERT SEC E/W
 VSNS.m                  -0.12:  VERT SEC N/S
 EKB .m                   0.00:  KB ELEVATION
 EDF .m                  43.16:  DF ELEVATION
 TDL .m                 243.00:  TOTAL DEPTH (LOGGER)
 VSC .                       0:  VS TO CLOSURE
 MAGU.                 1853542:  MAGUTM CHECKSUM
~Parameter Information Block
#MNEM.UNIT       Value        Description
#---------     -----------    ---------------------------
 AV  .mps                 1.91:  Ann Velocity 
 AVMX.mps                 2.52:  Max Ann Veloc 
 AZIF.deg               308.97:  Azm, Final 
 BHAT.        Rotary Steerable:  BHA Type 
 BROT.°/30m               1.00:  Build Rotating 
 BS  .in                  6.50:  Bit Size 
 BSZ .in                  6.50:  Bit Size 
 BTPL.psig              350.00:  Bit Press Loss 
 CABU.                      No:  Customer Abuse 
 CGEO.           Asif Pashayev:  Customer Geo 
 COMM.                     6…:  Run Comments 1 
 TCS .hr                 35.86:  Time Ciculation Ended 
 CV  .mps                 2.31:  Crit Velocity 
 CVMX.mps                 2.31:  Max Crit Veloc 
 DD1 .         Intigam Rahimov:  Direct Drillr 1 
 DDSV.               Geo-Pilot:  DD Service 
 DEFF.%                  92.00:  % Det Eff 
 DLRX.°/30m               1.00:  Dogleg Rot Max 
 DLSO.°/30m               1.00:  Dogleg Oriented 
 DLSX.°/30m               1.42:  Dogleg Str Max 
 DRET.      15.50.00 07-Aug-20:  Drill End Time 
 DRST.      10.40.00 06-Aug-20:  Drill Start Tim 
 DTIM.hr                 21.30:  Time Drilling 
 EDEP.m                5200.01:  End Depth 
 ENG1.            Alan Tuganov:  Engineer 1 
 ENG2.         Almaz Almadatov:  Engineer 2 
 ENG3.     Zammelal Abdullah Sani:  Engineer 3 
 ETIM.      22.42.00 08-Aug-20:  End Time 
 FLOI.gpm               395.00:  Flow In 
 FLON.gpm               350.00:  Flow In Min 
 FLOS.cptm                0.00:  Fluid Loss 
 FLOX.gpm               404.00:  Flow In Max 
 FTRO.       Formation Presure:  FTWD Run Obj 
 HFLO.                      No:  High Flow 
 HPRE.                      No:  High Pressure 
 HTEM.                      No:  High Temp 
 HYDO.m                   1.80:  Hydro Offset 
 IFIN.deg                72.64:  Inc, Final 
 IMAX.deg                73.68:  Inc Max 
 IMIN.deg                72.64:  Inc Min 
 IMND.m                5189.69:  Inc Min Depth 
 IMXD.m                5067.88:  Inc Max Depth 
 JARR.                      No:  Jarring 
 LETM.      15.50.00 07-Aug-20:  Log End Time 
 LOST.hr                     0:  Lost Rig Time 
 LSTM.      10.40.00 06-Aug-20:  Log Start Time 
 MDCL.ppm             36000.00:  Mud Chlorides 
 MDES.     Inversion Oil/Synthetic:  Mud Desc 
 DFD .sg                  1.36:  Mud Density 
 MDMN.sg                  1.36:  Dens Mud Min 
 MDMX.sg                  1.36:  Dens Mud Max 
 MOIL.                      70:  Run Mud Oil % 
 MOWR.                   70:30:  Run Mud OWR 
 MSND.                    0.00:  Run Mud Sand % 
 MSOL.                   17.60:  Run Mud Solids% 
 DFV .spqt               73.00:  Mud Viscosity 
 MWOD.in                  4.75:  MWD Tool OD 
 MWSI.                      No:  Serv Intrp, MWD 
 OTIM.hr                 85.66:  Time Operating 
 PCON.           Look Like New:  Pad Condition 
 PMAX.psia             6250.00:  Press Op, Max 
 PV  .cP                 65.00:  Mud PV 
 RUN .                     900:  Run Number 
 ROPA.m/hr               11.40:  ROP Avg 
 ROPN.m/hr                5.00:  ROP Min 
 ROPX.m/hr               20.00:  ROP Max 
 RPMA.rpm               130.00:  RPM Surface Avg 
 RPMN.rpm                40.00:  RPM Surface Min 
 RPMX.rpm               140.00:  RPM Surface Max 
 RRUN.                    L205:  Rig Run Number 
 RTIM.hr                  1.00:  Time Reaming 
 SAZI.deg               313.52:  Azm, Start 
 SDEP.m                4957.01:  Start Depth 
 SIDD.                      No:  Serv Intrp, DD 
 SINC.deg                73.16:  Inc, Start 
 SPPA.psig             5657.00:  SPP Avg 
 SPPN.psig             2500.00:  SPP Min 
 SPPX.psig             5806.00:  SPP Max 
 STIM.      07.12.00 05-Aug-20:  Start Time 
 SVCS.                 DD, MWD:  Services 
 SVER.                    9.20:  Sperry Version 
 TDAT.m                 243.00:  Tot Depth Attmp 
 TDDF.                      No:  Trip for DD 
 TDLG.m                 243.00:  Tot Depth Loggd 
 TFF .                      No:  Trip for Fail 
 TQAA.f-kp               13.00:  Torque Abs Avg 
 TQAN.f-kp               11.00:  Torque Abs Min 
 TQAX.f-kp               16.00:  Torque Abs Max 
 TRRT.°/30m               1.00:  Turn Rotating 
 MRT .                    HCIM:  Maximum Recorded Temperature 
 TTMX.degC               96.08:  Max Tool Temp 
 VS01.                90515411:  Virtual Str1 SN 
 VS02.                90512716:  Virtual Str2 SN 
 VS03.                90522362:  Virtual Str3 SN 
 VS04.                90619415:  Virtual Str4 SN 
 VS05.                90619414:  Virtual Str5 SN 
 VS06.                90597748:  Virtual Str6 SN 
 WBMN.klb                 2.00:  WOB Min 
 WITN.           Adil Mammadov:  Customer Rep 
 WITN.     Alexander Yadullayev:  Customer Rep 2 
 WOBA.klb                 7.00:  WOB Avg 
 WOBX.klb                23.00:  WOB Max 
 YP  .lhf2               37.00:  Yield Point 
~Curve Information Block
#MNEM.UNIT                 API CODE     Curve Description
#---------               -----------    ---------------------------
 TIME.HHMMSS            00 000 000 000:  GT Time & Date
 GTDEPTH.m              00 000 000 000:  GT Depth
 GTPQH.psia             00 000 000 000:  GT HR Quartz Pressure
 GTTQ.degC              00 000 000 000:  GT Quartz Temperature
 GTTN.NONE              00 000 000 000:  GT Test Number
 GTET.sec               00 000 000 000:  GT Elapsed Test Time
 GTTVD.m                00 000 000 000:  GT True Vertical Depth
#Other Information
#
#WARRANTY: Halliburton will use its best efforts to furnish customers with 
#accurate information and interpretations that are part of, and incident to, the services 
#provided.  However, Halliburton cannot and does not warrant the accuracy 
#or correctness of such information and interpretations.  Under no circumstances should any 
#such information or interpretation be relied upon as the sole basis for any drilling, 
#completion, production, or financial decision or any procedure involving any risk to the 
#safety of any drilling venture, drilling rig or its crew or any other third party.  The 
#Customer has full responsibility for all drilling, completion and production operation.  
#Halliburton makes no representations or warranties, either expressed or 
#implied, including, but not limited to, the implied warranties of merchantability or fitness 
#for a particular purpose, with respect to the services rendered.  In no event will 
#Halliburton be liable for failure to obtain any particular results or for 
#any damages, including, but not limited to, indirect, special or consequential damages, 
#resulting from the use of any information or interpretation provided by Halliburton.
#
~A           TIME           GTDEPTH  GTPQH  GTTQ  GTTN   GTET   GTTVD  
# ...
   15:43:38.695.07-Aug-2020 5157.51 3490.23 88.53 11.00 293.92 2691.72
   15:43:38.895.07-Aug-2020 5157.51 3490.26 88.53 11.00 294.12 2691.72
   15:43:39.095.07-Aug-2020 5157.51 3490.26 88.53 11.00 294.32 2691.72
   15:43:39.295.07-Aug-2020 5157.51 3490.05 88.53 11.00 294.52 2691.72
   15:43:39.495.07-Aug-2020 5157.51 3490.36 88.53 11.00 294.72 2691.72
   15:43:39.695.07-Aug-2020 5157.51 3490.39 88.53 11.00 294.92 2691.72
   15:43:39.895.07-Aug-2020 5157.51 3490.11 88.53 11.00 295.12 2691.72
   15:43:40.096.07-Aug-2020 5157.51 3490.11 88.53 11.00 295.32 2691.72
   15:43:40.296.07-Aug-2020 5157.51 3490.29 88.53 11.00 295.52 2691.72
   15:43:40.496.07-Aug-2020 5157.51 3490.26 88.52 11.00 295.72 2691.72
   15:43:40.696.07-Aug-2020 5157.51 3490.23 88.52 11.00 295.92 2691.72
   15:43:40.896.07-Aug-2020 5157.51 3490.27 88.52 11.00 296.12 2691.72
   15:43:41.096.07-Aug-2020 5157.51 3490.27 88.52 11.00 296.32 2691.72
   15:43:41.296.07-Aug-2020 5157.51 3490.24 88.52 11.00 296.52 2691.72
   15:43:41.496.07-Aug-2020 5157.51 3490.25 88.52 11.00 296.72 2691.72
   15:43:41.696.07-Aug-2020 5157.51 3490.25 88.52 11.00 296.92 2691.72
   15:43:41.896.07-Aug-2020 5157.51 3490.14 88.52 11.00 297.12 2691.72
   15:43:42.096.07-Aug-2020 5157.51 3490.23 88.52 11.00 297.32 2691.72
   15:43:42.296.07-Aug-2020 5157.51 3490.33 88.52 11.00 297.52 2691.72
   15:43:42.497.07-Aug-2020 5157.51 3490.35 88.52 11.00 297.72 2691.72
   15:43:42.697.07-Aug-2020 5157.51 3490.09 88.52 11.00 297.92 2691.72
   15:43:42.897.07-Aug-2020 5157.51 3490.30 88.52 11.00 298.12 2691.72
   15:43:43.097.07-Aug-2020 5157.51 3490.30 88.52 11.00 298.32 2691.72
   15:43:43.297.07-Aug-2020 5157.51 3490.16 88.52 11.00 298.52 2691.72
   15:43:43.497.07-Aug-2020 5157.51 3490.35 88.52 11.00 298.72 2691.72
   15:43:43.697.07-Aug-2020 5157.51 3490.40 88.52 11.00 298.92 2691.72
   15:43:43.897.07-Aug-2020 5157.51 3489.72 88.52 11.00 299.12 2691.72
   15:43:44.097.07-Aug-2020 5157.51 3489.72 88.52 11.00 299.32 2691.72
   15:43:44.297.07-Aug-2020 5157.51 3490.44 88.52 11.00 299.52 2691.72
   15:43:44.497.07-Aug-2020 5157.51 3490.19 88.52 11.00 299.72 2691.72
   15:43:44.697.07-Aug-2020 5157.51 3490.18 88.52 11.00 299.92 2691.72
   15:43:44.898.07-Aug-2020 5157.51 3490.22 88.51 11.00 300.12 2691.72
   15:43:45.098.07-Aug-2020 5157.51 3490.22 88.51 11.00 300.32 2691.72
   15:43:45.298.07-Aug-2020 5157.51 3490.36 88.51 11.00 300.52 2691.72
   15:43:45.498.07-Aug-2020 5157.51 3490.10 88.51 11.00 300.72 2691.72
   15:43:45.698.07-Aug-2020 5157.51 3490.35 88.51 11.00 300.92 2691.72
   15:43:45.898.07-Aug-2020 5157.51 3468.40 88.51 11.00 301.12 2691.72
   15:43:46.098.07-Aug-2020 5157.51 3344.66 88.51 11.00 301.32 2691.72
   15:43:46.298.07-Aug-2020 5157.51 3299.94 88.51 11.00 301.52 2691.72
   15:43:46.498.07-Aug-2020 5157.51 3292.38 88.51 11.00 301.72 2691.72
   15:43:46.698.07-Aug-2020 5157.51 3290.08 88.51 11.00 301.92 2691.72
   15:43:46.898.07-Aug-2020 5157.51 3286.88 88.51 11.00 302.12 2691.72
   15:43:47.098.07-Aug-2020 5157.51 3286.88 88.51 11.00 302.32 2691.72
   15:43:47.298.07-Aug-2020 5157.51 3284.76 88.51 11.00 302.52 2691.72
   15:43:47.499.07-Aug-2020 5157.51 3280.71 88.51 11.00 302.72 2691.72
   15:43:47.699.07-Aug-2020 5157.51 3287.14 88.51 11.00 302.92 2691.72
   15:43:47.899.07-Aug-2020 5157.51 3288.80 88.51 11.00 303.12 2691.72
   15:43:48.099.07-Aug-2020 5157.51 3288.80 88.51 11.00 303.32 2691.72
   15:43:48.299.07-Aug-2020 5157.51 3285.98 88.51 11.00 303.53 2691.72
   15:43:48.499.07-Aug-2020 5157.51 3284.65 88.51 11.00 303.73 2691.72
   15:43:48.699.07-Aug-2020 5157.51 3284.63 88.51 11.00 303.93 2691.72
   15:43:48.899.07-Aug-2020 5157.51 3282.51 88.51 11.00 304.13 2691.72
   15:43:49.099.07-Aug-2020 5157.51 3282.51 88.51 11.00 304.33 2691.72
   15:43:49.299.07-Aug-2020 5157.51 3283.49 88.50 11.00 304.53 2691.72
   15:43:49.499.07-Aug-2020 5157.51 3283.22 88.50 11.00 304.73 2691.72
   15:43:49.699.07-Aug-2020 5157.51 3282.69 88.50 11.00 304.93 2691.72
   15:43:49.900.07-Aug-2020 5157.51 3283.26 88.50 11.00 305.13 2691.72
   15:43:50.100.07-Aug-2020 5157.51 3283.26 88.50 11.00 305.33 2691.72
   15:43:50.300.07-Aug-2020 5157.51 3276.75 88.50 11.00 305.53 2691.72
   15:43:50.500.07-Aug-2020 5157.51 3284.53 88.50 11.00 305.73 2691.72
   15:43:50.700.07-Aug-2020 5157.51 3285.52 88.50 11.00 305.93 2691.72
   15:43:50.900.07-Aug-2020 5157.51 3284.64 88.50 11.00 306.13 2691.72
   15:43:51.100.07-Aug-2020 5157.51 3284.64 88.50 11.00 306.33 2691.72
   15:43:51.300.07-Aug-2020 5157.51 3281.58 88.50 11.00 306.53 2691.72
   15:43:51.500.07-Aug-2020 5157.51 3276.90 88.50 11.00 306.73 2691.72
   15:43:51.700.07-Aug-2020 5157.51 3282.84 88.50 11.00 306.93 2691.72
   15:43:51.900.07-Aug-2020 5157.51 3285.75 88.50 11.00 307.13 2691.72
   15:43:52.100.07-Aug-2020 5157.51 3281.36 88.50 11.00 307.33 2691.72
   15:43:52.301.07-Aug-2020 5157.51 3280.98 88.50 11.00 307.53 2691.72
   15:43:52.501.07-Aug-2020 5157.51 3286.24 88.50 11.00 307.73 2691.72
   15:43:52.701.07-Aug-2020 5157.51 3285.75 88.50 11.00 307.93 2691.72
   15:43:52.901.07-Aug-2020 5157.51 3282.84 88.50 11.00 308.13 2691.72
   15:43:53.101.07-Aug-2020 5157.51 3282.84 88.50 11.00 308.33 2691.72
   15:43:53.301.07-Aug-2020 5157.51 3286.25 88.49 11.00 308.53 2691.72
   15:43:53.501.07-Aug-2020 5157.51 3286.09 88.49 11.00 308.73 2691.72
   15:43:53.701.07-Aug-2020 5157.51 3282.26 88.49 11.00 308.93 2691.72
   15:43:53.901.07-Aug-2020 5157.51 3284.69 88.49 11.00 309.13 2691.72
   15:43:54.101.07-Aug-2020 5157.51 3283.67 88.49 11.00 309.33 2691.72
   15:43:54.301.07-Aug-2020 5157.51 3284.10 88.49 11.00 309.53 2691.72
   15:43:54.501.07-Aug-2020 5157.51 3282.83 88.49 11.00 309.73 2691.72
   15:43:54.702.07-Aug-2020 5157.51 3285.38 88.49 11.00 309.93 2691.72
   15:43:54.902.07-Aug-2020 5157.51 3284.39 88.49 11.00 310.13 2691.72
   15:43:55.102.07-Aug-2020 5157.51 3284.04 88.49 11.00 310.33 2691.72
   15:43:55.302.07-Aug-2020 5157.51 3284.59 88.49 11.00 310.53 2691.72
   15:43:55.502.07-Aug-2020 5157.51 3284.94 88.49 11.00 310.73 2691.72
   15:43:55.702.07-Aug-2020 5157.51 3282.95 88.49 11.00 310.93 2691.72
   15:43:55.902.07-Aug-2020 5157.51 3286.29 88.49 11.00 311.13 2691.72
   15:43:56.102.07-Aug-2020 5157.51 3344.22 88.49 11.00 311.33 2691.72
   15:43:56.302.07-Aug-2020 5157.51 3446.37 88.49 11.00 311.53 2691.72
   15:43:56.502.07-Aug-2020 5157.51 3473.65 88.49 11.00 311.73 2691.72
   15:43:56.702.07-Aug-2020 5157.51 3481.65 88.49 11.00 311.93 2691.72
   15:43:56.902.07-Aug-2020 5157.51 3484.34 88.49 11.00 312.13 2691.72
   15:43:57.103.07-Aug-2020 5157.51 3484.34 88.49 11.00 312.33 2691.72
   15:43:57.303.07-Aug-2020 5157.51 3486.22 88.49 11.00 312.53 2691.72
   15:43:57.503.07-Aug-2020 5157.51 3486.77 88.48 11.00 312.73 2691.72
   15:43:57.703.07-Aug-2020 5157.51 3487.16 88.48 11.00 312.93 2691.72
   15:43:57.903.07-Aug-2020 5157.51 3487.41 88.48 11.00 313.13 2691.72
   15:43:58.103.07-Aug-2020 5157.51 3487.41 88.48 11.00 313.33 2691.72
   15:43:58.303.07-Aug-2020 5157.51 3487.93 88.48 11.00 313.53 2691.72
   15:43:58.503.07-Aug-2020 5157.51 3487.93 88.48 11.00 313.73 2691.72
   15:43:58.703.07-Aug-2020 5157.51 3488.53 88.48 11.00 313.93 2691.72
   15:43:58.903.07-Aug-2020 5157.51 3488.66 88.48 11.00 314.13 2691.72
   15:43:59.103.07-Aug-2020 5157.51 3488.66 88.48 11.00 314.33 2691.72
   15:43:59.303.07-Aug-2020 5157.51 3488.78 88.48 11.00 314.53 2691.72
   15:43:59.504.07-Aug-2020 5157.51 3488.72 88.48 11.00 314.73 2691.72
   15:43:59.704.07-Aug-2020 5157.51 3489.08 88.48 11.00 314.93 2691.72
   15:43:59.904.07-Aug-2020 5157.51 3489.10 88.48 11.00 315.13 2691.72
   15:44:00.104.07-Aug-2020 5157.51 3489.10 88.48 11.00 315.33 2691.72
   15:44:00.304.07-Aug-2020 5157.51 3489.11 88.48 11.00 315.53 2691.72
   15:44:00.504.07-Aug-2020 5157.51 3489.26 88.48 11.00 315.73 2691.72
   15:44:00.704.07-Aug-2020 5157.51 3489.04 88.48 11.00 315.93 2691.72
   15:44:00.904.07-Aug-2020 5157.51 3489.47 88.48 11.00 316.13 2691.72
   15:44:01.104.07-Aug-2020 5157.51 3489.47 88.48 11.00 316.33 2691.72
