~Version Information
 VERS.                  2.0:   CWLS log ASCII Standard -VERSION 2.0
 WRAP.                   NO:   One line per depth step
~Well Information Block
#MNEM.UNIT     VALUE/NAME     DESCRIPTION
#---------     -----------    ---------------------------
 STRT.S             09:21:48 07-Aug-20: START TIME 09:21:48 07-Aug-20
 STOP.S             09:29:41 07-Aug-20: STOP TIME  09:29:41 07-Aug-20
 STEP.S                   0.00: STEP TIME
 NULL.                 -999.25: NULL VALUE
 DFWT.                        :  DIST FWL TEXT
 DFST.                        :  DIST FSL TEXT
 DMF .             Drill Floor:  DRILL MEAS FROM
 STIM.      12.00.00 03-Jul-20:  START TIME
 DATE.      00.50.00 09-Aug-20:  END TIME
 SPUD.               03-Jul-20:  SPUD DATE
 NREF.                    Grid:  NORTH REFERENCE
 HPTY.       Minimum Curvature:  HOLE POS TYPE
 DMOD.             Drill Model:  DRILL MOD DESC
 SVYD.                  Survey:  SURVEY DESC
 ILTD.               Lithology:  INTERP LTH DESC
 FTOP.          Formation Tops:  FORM TOPS DESC
 PDAT.          Mean Sea Level:  PERMANENT DATUM
 FLD .                     ACG:  FIELD NAME
 CTRY.              Azerbaijan:  COUNTRY NAME
 WELL.                    E04x:  WELL NAME
 SRVC.          Turan Drilling:  CONTRACTOR
 COMP.     BP Exploration (Caspian Sea) Ltd.:  COMPANY
 SON .        AZ-XX-0906531346:  JOB NUMBER
 WTYP.                Deviated:  WELL TYPE
 MDS .        Operator Entered:  MAG DATA SOURCE
 UWI .                     N/A:  UNIQUE WELL IDENTIFIER
 API .                     N/A:  API NUMBER
 BASE.              Azerbaijan:  LOGGING EQUIPMENT BASE LOCATION
 REGN.                   EESSA:  REGION
 PROV.                    Baku:  PROVINCE
 STAT.                    Baku:  STATE NAME
 MWDS.                    Baku:  MWD SHOP
 JOBN.        AZ-XX-0906531346:  JOB TICKET NUMB
 RIG .                     DWG:  RIG NAME
 DOE .                     N/A:  DOE NUMBER
 DCON.         Sperry Drilling:  DIRECTNL CONTR
 UNIT.                     N/A:  LOGGING EQUIPMENT ID
 CNTY.                        :  COUNTY
 LOC .                        :  LOCATION
 LMF .             Drill Floor:  LOG MEASURED FROM
 TVDS.m                  43.16:  TVDSS CORRECTN
 LATI.deg                40.17:  LATITUDE
 LONG.deg                51.17:  LONGITUDE
 WHNS.m                  -0.12:  WELL HEAD N/S
 WHEW.m                  -5.41:  WELL HEAD E/W
 UTMX.m              514337.95:  UTM X
 UTMY.m             4448627.46:  UTM Y
 DFWL.m                   0.00:  DISTANCE FWL
 DFSL.m                   0.00:  DISTANCE FSL
 SDEP.m                3088.01:  START DEPTH
 TDD .m                5200.01:  TOTAL DEPTH (DRILLER)
 VSDR.deg               244.51:  VERT SEC DIRECT
 GVFD.g                   1.00:  GRAVITY FIELD
 MFLD.nT              50329.80:  MAGNETIC FIELD
 MDIP.deg                59.63:  MAGNETIC DIP
 MDEC.deg                 6.59:  MAGNETIC DECL
 GRDC.deg                 0.09:  GRID CORRECTION
 AZTC.deg                 6.50:  AZM TOTAL CORR
 EPD .m                   0.00:  ELEVATION
 EGL .m                   0.00:  GROUND ELEVATION
 WDMS.m                 176.20:  WD ELEV
 APD .m                  43.16:  DEPTH ABOVE PD
 DEP .m                3084.71:  DEPTH
 AGAP.m                  43.16:  AIR GAP
 VSEW.m                  -5.41:  VERT SEC E/W
 VSNS.m                  -0.12:  VERT SEC N/S
 EKB .m                   0.00:  KB ELEVATION
 EDF .m                  43.16:  DF ELEVATION
 TDL .m                 243.00:  TOTAL DEPTH (LOGGER)
 VSC .                       0:  VS TO CLOSURE
 MAGU.                 1853542:  MAGUTM CHECKSUM
~Parameter Information Block
#MNEM.UNIT       Value        Description
#---------     -----------    ---------------------------
 AV  .mps                 1.91:  Ann Velocity 
 AVMX.mps                 2.52:  Max Ann Veloc 
 AZIF.deg               308.97:  Azm, Final 
 BHAT.        Rotary Steerable:  BHA Type 
 BROT.∞/30m               1.00:  Build Rotating 
 BS  .in                  6.50:  Bit Size 
 BSZ .in                  6.50:  Bit Size 
 BTPL.psig              350.00:  Bit Press Loss 
 CABU.                      No:  Customer Abuse 
 CGEO.           Asif Pashayev:  Customer Geo 
 COMM.                     ,[Å:  Run Comments 1 
 TCS .hr                 35.86:  Time Ciculation Ended 
 CV  .mps                 2.31:  Crit Velocity 
 CVMX.mps                 2.31:  Max Crit Veloc 
 DD1 .         Intigam Rahimov:  Direct Drillr 1 
 DDSV.               Geo-Pilot:  DD Service 
 DEFF.%                  92.00:  % Det Eff 
 DLRX.∞/30m               1.00:  Dogleg Rot Max 
 DLSO.∞/30m               1.00:  Dogleg Oriented 
 DLSX.∞/30m               1.42:  Dogleg Str Max 
 DRET.      15.50.00 07-Aug-20:  Drill End Time 
 DRST.      10.40.00 06-Aug-20:  Drill Start Tim 
 DTIM.hr                 21.30:  Time Drilling 
 EDEP.m                5200.01:  End Depth 
 ENG1.            Alan Tuganov:  Engineer 1 
 ENG2.         Almaz Almadatov:  Engineer 2 
 ENG3.     Zammelal Abdullah Sani:  Engineer 3 
 ETIM.      22.42.00 08-Aug-20:  End Time 
 FLOI.gpm               395.00:  Flow In 
 FLON.gpm               350.00:  Flow In Min 
 FLOS.cptm                0.00:  Fluid Loss 
 FLOX.gpm               404.00:  Flow In Max 
 FTRO.       Formation Presure:  FTWD Run Obj 
 HFLO.                      No:  High Flow 
 HPRE.                      No:  High Pressure 
 HTEM.                      No:  High Temp 
 HYDO.m                   1.80:  Hydro Offset 
 IFIN.deg                72.64:  Inc, Final 
 IMAX.deg                73.68:  Inc Max 
 IMIN.deg                72.64:  Inc Min 
 IMND.m                5189.69:  Inc Min Depth 
 IMXD.m                5067.88:  Inc Max Depth 
 JARR.                      No:  Jarring 
 LETM.      15.50.00 07-Aug-20:  Log End Time 
 LOST.hr                     0:  Lost Rig Time 
 LSTM.      10.40.00 06-Aug-20:  Log Start Time 
 MDCL.ppm             36000.00:  Mud Chlorides 
 MDES.     Inversion Oil/Synthetic:  Mud Desc 
 DFD .sg                  1.36:  Mud Density 
 MDMN.sg                  1.36:  Dens Mud Min 
 MDMX.sg                  1.36:  Dens Mud Max 
 MOIL.                      70:  Run Mud Oil % 
 MOWR.                   70:30:  Run Mud OWR 
 MSND.                    0.00:  Run Mud Sand % 
 MSOL.                   17.60:  Run Mud Solids% 
 DFV .spqt               73.00:  Mud Viscosity 
 MWOD.in                  4.75:  MWD Tool OD 
 MWSI.                      No:  Serv Intrp, MWD 
 OTIM.hr                 85.66:  Time Operating 
 PCON.           Look Like New:  Pad Condition 
 PMAX.psia             6250.00:  Press Op, Max 
 PV  .cP                 65.00:  Mud PV 
 RUN .                     900:  Run Number 
 ROPA.m/hr               11.40:  ROP Avg 
 ROPN.m/hr                5.00:  ROP Min 
 ROPX.m/hr               20.00:  ROP Max 
 RPMA.rpm               130.00:  RPM Surface Avg 
 RPMN.rpm                40.00:  RPM Surface Min 
 RPMX.rpm               140.00:  RPM Surface Max 
 RRUN.                    L205:  Rig Run Number 
 RTIM.hr                  1.00:  Time Reaming 
 SAZI.deg               313.52:  Azm, Start 
 SDEP.m                4957.01:  Start Depth 
 SIDD.                      No:  Serv Intrp, DD 
 SINC.deg                73.16:  Inc, Start 
 SPPA.psig             5657.00:  SPP Avg 
 SPPN.psig             2500.00:  SPP Min 
 SPPX.psig             5806.00:  SPP Max 
 STIM.      07.12.00 05-Aug-20:  Start Time 
 SVCS.                 DD, MWD:  Services 
 SVER.                    9.20:  Sperry Version 
 TDAT.m                 243.00:  Tot Depth Attmp 
 TDDF.                      No:  Trip for DD 
 TDLG.m                 243.00:  Tot Depth Loggd 
 TFF .                      No:  Trip for Fail 
 TQAA.f-kp               13.00:  Torque Abs Avg 
 TQAN.f-kp               11.00:  Torque Abs Min 
 TQAX.f-kp               16.00:  Torque Abs Max 
 TRRT.∞/30m               1.00:  Turn Rotating 
 MRT .                    HCIM:  Maximum Recorded Temperature 
 TTMX.degC               96.08:  Max Tool Temp 
 VS01.                90515411:  Virtual Str1 SN 
 VS02.                90512716:  Virtual Str2 SN 
 VS03.                90522362:  Virtual Str3 SN 
 VS04.                90619415:  Virtual Str4 SN 
 VS05.                90619414:  Virtual Str5 SN 
 VS06.                90597748:  Virtual Str6 SN 
 WBMN.klb                 2.00:  WOB Min 
 WITN.           Adil Mammadov:  Customer Rep 
 WITN.     Alexander Yadullayev:  Customer Rep 2 
 WOBA.klb                 7.00:  WOB Avg 
 WOBX.klb                23.00:  WOB Max 
 YP  .lhf2               37.00:  Yield Point 
~Curve Information Block
#MNEM.UNIT                 API CODE     Curve Description
#---------               -----------    ---------------------------
 TIME.HHMMSS            00 000 000 000:  GT Time & Date
 GTDEPTH.m              00 000 000 000:  GT Depth
 GTPQH.psia             00 000 000 000:  GT HR Quartz Pressure
 GTTQ.degC              00 000 000 000:  GT Quartz Temperature
 GTTN.NONE              00 000 000 000:  GT Test Number
 GTET.sec               00 000 000 000:  GT Elapsed Test Time
 GTTVD.m                00 000 000 000:  GT True Vertical Depth
#Other Information
#
#WARRANTY: Halliburton will use its best efforts to furnish customers with 
#accurate information and interpretations that are part of, and incident to, the services 
#provided.  However, Halliburton cannot and does not warrant the accuracy 
#or correctness of such information and interpretations.  Under no circumstances should any 
#such information or interpretation be relied upon as the sole basis for any drilling, 
#completion, production, or financial decision or any procedure involving any risk to the 
#safety of any drilling venture, drilling rig or its crew or any other third party.  The 
#Customer has full responsibility for all drilling, completion and production operation.  
#Halliburton makes no representations or warranties, either expressed or 
#implied, including, but not limited to, the implied warranties of merchantability or fitness 
#for a particular purpose, with respect to the services rendered.  In no event will 
#Halliburton be liable for failure to obtain any particular results or for 
#any damages, including, but not limited to, indirect, special or consequential damages, 
#resulting from the use of any information or interpretation provided by Halliburton.
#
~A           TIME           GTDEPTH  GTPQH  GTTQ  GTTN  GTET   GTTVD  
# ...
   09:23:20.547.07-Aug-2020 5109.01 3406.88 86.66 9.00  91.97 2677.54
   09:23:20.747.07-Aug-2020 5109.01 3406.88 86.66 9.00  92.17 2677.54
   09:23:20.947.07-Aug-2020 5109.01 3406.78 86.66 9.00  92.37 2677.54
   09:23:21.147.07-Aug-2020 5109.01 3406.83 86.66 9.00  92.57 2677.54
   09:23:21.347.07-Aug-2020 5109.01 3406.81 86.66 9.00  92.77 2677.54
   09:23:21.547.07-Aug-2020 5109.01 3406.72 86.66 9.00  92.97 2677.54
   09:23:21.747.07-Aug-2020 5109.01 3406.83 86.66 9.00  93.17 2677.54
   09:23:21.947.07-Aug-2020 5109.01 3406.80 86.66 9.00  93.37 2677.54
   09:23:22.146.07-Aug-2020 5109.01 3406.81 86.66 9.00  93.57 2677.54
   09:23:22.346.07-Aug-2020 5109.01 3406.82 86.66 9.00  93.77 2677.54
   09:23:22.546.07-Aug-2020 5109.01 3406.82 86.65 9.00  93.97 2677.54
   09:23:22.746.07-Aug-2020 5109.01 3406.82 86.65 9.00  94.17 2677.54
   09:23:22.946.07-Aug-2020 5109.01 3406.83 86.65 9.00  94.37 2677.54
   09:23:23.146.07-Aug-2020 5109.01 3406.81 86.65 9.00  94.57 2677.54
   09:23:23.346.07-Aug-2020 5109.01 3406.82 86.65 9.00  94.77 2677.54
   09:23:23.546.07-Aug-2020 5109.01 3406.81 86.65 9.00  94.97 2677.54
   09:23:23.746.07-Aug-2020 5109.01 3406.81 86.65 9.00  95.17 2677.54
   09:23:23.946.07-Aug-2020 5109.01 3406.80 86.65 9.00  95.37 2677.54
   09:23:24.146.07-Aug-2020 5109.01 3406.69 86.65 9.00  95.57 2677.54
   09:23:24.346.07-Aug-2020 5109.01 3406.85 86.65 9.00  95.77 2677.54
   09:23:24.546.07-Aug-2020 5109.01 3406.84 86.65 9.00  95.97 2677.54
   09:23:24.746.07-Aug-2020 5109.01 3406.84 86.65 9.00  96.17 2677.54
   09:23:24.946.07-Aug-2020 5109.01 3406.83 86.65 9.00  96.37 2677.54
   09:23:25.146.07-Aug-2020 5109.01 3406.80 86.65 9.00  96.57 2677.54
   09:23:25.345.07-Aug-2020 5109.01 3406.79 86.65 9.00  96.77 2677.54
   09:23:25.545.07-Aug-2020 5109.01 3406.79 86.65 9.00  96.97 2677.54
   09:23:25.745.07-Aug-2020 5109.01 3406.79 86.65 9.00  97.17 2677.54
   09:23:25.945.07-Aug-2020 5109.01 3406.80 86.65 9.00  97.37 2677.54
   09:23:26.145.07-Aug-2020 5109.01 3406.81 86.65 9.00  97.57 2677.54
   09:23:26.345.07-Aug-2020 5109.01 3406.80 86.65 9.00  97.77 2677.54
   09:23:26.545.07-Aug-2020 5109.01 3406.81 86.65 9.00  97.97 2677.54
   09:23:26.745.07-Aug-2020 5109.01 3406.81 86.65 9.00  98.17 2677.54
   09:23:26.945.07-Aug-2020 5109.01 3406.70 86.65 9.00  98.37 2677.54
   09:23:27.145.07-Aug-2020 5109.01 3406.80 86.65 9.00  98.57 2677.54
   09:23:27.345.07-Aug-2020 5109.01 3406.79 86.64 9.00  98.77 2677.54
   09:23:27.545.07-Aug-2020 5109.01 3406.78 86.64 9.00  98.97 2677.54
   09:23:27.745.07-Aug-2020 5109.01 3406.78 86.64 9.00  99.17 2677.54
   09:23:27.945.07-Aug-2020 5109.01 3406.87 86.64 9.00  99.37 2677.54
   09:23:28.145.07-Aug-2020 5109.01 3406.80 86.64 9.00  99.57 2677.54
   09:23:28.345.07-Aug-2020 5109.01 3406.76 86.64 9.00  99.77 2677.54
   09:23:28.545.07-Aug-2020 5109.01 3406.79 86.64 9.00  99.97 2677.54
   09:23:28.744.07-Aug-2020 5109.01 3406.79 86.64 9.00 100.17 2677.54
   09:23:28.944.07-Aug-2020 5109.01 3406.78 86.64 9.00 100.37 2677.54
   09:23:29.144.07-Aug-2020 5109.01 3406.80 86.64 9.00 100.57 2677.54
   09:23:29.344.07-Aug-2020 5109.01 3406.75 86.64 9.00 100.77 2677.54
   09:23:29.544.07-Aug-2020 5109.01 3406.80 86.64 9.00 100.97 2677.54
   09:23:29.744.07-Aug-2020 5109.01 3406.78 86.64 9.00 101.17 2677.54
   09:23:29.944.07-Aug-2020 5109.01 3406.65 86.64 9.00 101.37 2677.54
   09:23:30.144.07-Aug-2020 5109.01 3406.84 86.64 9.00 101.57 2677.54
   09:23:30.344.07-Aug-2020 5109.01 3406.82 86.64 9.00 101.77 2677.54
   09:23:30.544.07-Aug-2020 5109.01 3406.72 86.64 9.00 101.97 2677.54
   09:23:30.744.07-Aug-2020 5109.01 3406.72 86.64 9.00 102.17 2677.54
   09:23:30.944.07-Aug-2020 5109.01 3406.79 86.64 9.00 102.37 2677.54
   09:23:31.144.07-Aug-2020 5109.01 3406.77 86.64 9.00 102.57 2677.54
   09:23:31.344.07-Aug-2020 5109.01 3406.79 86.64 9.00 102.77 2677.54
   09:23:31.544.07-Aug-2020 5109.01 3406.79 86.64 9.00 102.97 2677.54
   09:23:31.744.07-Aug-2020 5109.01 3406.79 86.64 9.00 103.17 2677.54
   09:23:31.943.07-Aug-2020 5109.01 3406.78 86.64 9.00 103.37 2677.54
   09:23:32.143.07-Aug-2020 5109.01 3406.79 86.63 9.00 103.57 2677.54
   09:23:32.343.07-Aug-2020 5109.01 3406.78 86.63 9.00 103.77 2677.54
   09:23:32.543.07-Aug-2020 5109.01 3406.77 86.63 9.00 103.97 2677.54
   09:23:32.743.07-Aug-2020 5109.01 3406.77 86.63 9.00 104.17 2677.54
   09:23:32.943.07-Aug-2020 5109.01 3406.80 86.63 9.00 104.37 2677.54
   09:23:33.143.07-Aug-2020 5109.01 3406.75 86.63 9.00 104.57 2677.54
   09:23:33.343.07-Aug-2020 5109.01 3406.78 86.63 9.00 104.77 2677.54
   09:23:33.543.07-Aug-2020 5109.01 3406.77 86.63 9.00 104.97 2677.54
   09:23:33.743.07-Aug-2020 5109.01 3406.77 86.63 9.00 105.17 2677.54
   09:23:33.943.07-Aug-2020 5109.01 3406.77 86.63 9.00 105.37 2677.54
   09:23:34.143.07-Aug-2020 5109.01 3406.77 86.63 9.00 105.57 2677.54
   09:23:34.343.07-Aug-2020 5109.01 3406.76 86.63 9.00 105.77 2677.54
   09:23:34.543.07-Aug-2020 5109.01 3406.77 86.63 9.00 105.97 2677.54
   09:23:34.743.07-Aug-2020 5109.01 3406.77 86.63 9.00 106.17 2677.54
   09:23:34.943.07-Aug-2020 5109.01 3406.78 86.63 9.00 106.37 2677.54
   09:23:35.143.07-Aug-2020 5109.01 3406.77 86.63 9.00 106.57 2677.54
   09:23:35.342.07-Aug-2020 5109.01 3406.69 86.63 9.00 106.77 2677.54
   09:23:35.542.07-Aug-2020 5109.01 3406.79 86.63 9.00 106.97 2677.54
   09:23:35.742.07-Aug-2020 5109.01 3406.79 86.63 9.00 107.17 2677.54
   09:23:35.942.07-Aug-2020 5109.01 3406.73 86.63 9.00 107.37 2677.54
   09:23:36.142.07-Aug-2020 5109.01 3406.72 86.63 9.00 107.57 2677.54
   09:23:36.342.07-Aug-2020 5109.01 3406.77 86.63 9.00 107.77 2677.54
   09:23:36.542.07-Aug-2020 5109.01 3406.75 86.63 9.00 107.97 2677.54
   09:23:36.742.07-Aug-2020 5109.01 3406.75 86.63 9.00 108.17 2677.54
   09:23:36.942.07-Aug-2020 5109.01 3406.77 86.63 9.00 108.37 2677.54
   09:23:37.142.07-Aug-2020 5109.01 3406.77 86.62 9.00 108.57 2677.54
   09:23:37.342.07-Aug-2020 5109.01 3406.60 86.62 9.00 108.77 2677.54
   09:23:37.542.07-Aug-2020 5109.01 3406.83 86.62 9.00 108.97 2677.54
   09:23:37.742.07-Aug-2020 5109.01 3406.77 86.62 9.00 109.17 2677.54
   09:23:37.942.07-Aug-2020 5109.01 3406.73 86.62 9.00 109.37 2677.54
   09:23:38.142.07-Aug-2020 5109.01 3406.76 86.62 9.00 109.57 2677.54
   09:23:38.342.07-Aug-2020 5109.01 3406.76 86.62 9.00 109.77 2677.54
   09:23:38.542.07-Aug-2020 5109.01 3406.66 86.62 9.00 109.97 2677.54
   09:23:38.741.07-Aug-2020 5109.01 3406.66 86.62 9.00 110.17 2677.54
   09:23:38.941.07-Aug-2020 5109.01 3406.73 86.62 9.00 110.37 2677.54
   09:23:39.141.07-Aug-2020 5109.01 3406.77 86.62 9.00 110.57 2677.54
   09:23:39.341.07-Aug-2020 5109.01 3406.74 86.62 9.00 110.77 2677.54
   09:23:39.541.07-Aug-2020 5109.01 3406.75 86.62 9.00 110.97 2677.54
   09:23:39.741.07-Aug-2020 5109.01 3406.75 86.62 9.00 111.17 2677.54
   09:23:39.941.07-Aug-2020 5109.01 3406.75 86.62 9.00 111.37 2677.54
   09:23:40.141.07-Aug-2020 5109.01 3406.75 86.62 9.00 111.57 2677.54
   09:23:40.341.07-Aug-2020 5109.01 3406.75 86.62 9.00 111.77 2677.54
   09:23:40.541.07-Aug-2020 5109.01 3406.75 86.62 9.00 111.97 2677.54
   09:23:40.741.07-Aug-2020 5109.01 3406.75 86.62 9.00 112.17 2677.54
   09:23:40.941.07-Aug-2020 5109.01 3406.74 86.62 9.00 112.37 2677.54
   09:23:41.141.07-Aug-2020 5109.01 3406.74 86.62 9.00 112.57 2677.54
   09:23:41.341.07-Aug-2020 5109.01 3406.79 86.62 9.00 112.77 2677.54
   09:23:41.541.07-Aug-2020 5109.01 3406.79 86.62 9.00 112.97 2677.54
   09:23:41.741.07-Aug-2020 5109.01 3406.69 86.62 9.00 113.17 2677.54
   09:23:41.940.07-Aug-2020 5109.01 3406.75 86.62 9.00 113.37 2677.54
   09:23:42.140.07-Aug-2020 5109.01 3406.76 86.62 9.00 113.57 2677.54
   09:23:42.340.07-Aug-2020 5109.01 3406.72 86.61 9.00 113.77 2677.54
   09:23:42.540.07-Aug-2020 5109.01 3406.76 86.61 9.00 113.97 2677.54
   09:23:42.740.07-Aug-2020 5109.01 3406.76 86.61 9.00 114.17 2677.54
   09:23:42.940.07-Aug-2020 5109.01 3406.75 86.61 9.00 114.37 2677.54
   09:23:43.140.07-Aug-2020 5109.01 3406.72 86.61 9.00 114.57 2677.54
   09:23:43.340.07-Aug-2020 5109.01 3406.75 86.61 9.00 114.77 2677.54
