~Version Information
 VERS.                  2.0:   CWLS log ASCII Standard -VERSION 2.0
 WRAP.                   NO:   One line per depth step
~Well Information Block
#MNEM.UNIT     VALUE/NAME     DESCRIPTION
#---------     -----------    ---------------------------
 STRT.S             15:38:44 07-Aug-20: START TIME 15:38:44 07-Aug-20
 STOP.S             15:46:36 07-Aug-20: STOP TIME  15:46:36 07-Aug-20
 STEP.S                   0.00: STEP TIME
 NULL.                 -999.25: NULL VALUE
 DFWT.                        :  DIST FWL TEXT
 DFST.                        :  DIST FSL TEXT
 DMF .             Drill Floor:  DRILL MEAS FROM
 STIM.      12.00.00 03-Jul-20:  START TIME
 DATE.      00.50.00 09-Aug-20:  END TIME
 SPUD.               03-Jul-20:  SPUD DATE
 NREF.                    Grid:  NORTH REFERENCE
 HPTY.       Minimum Curvature:  HOLE POS TYPE
 DMOD.             Drill Model:  DRILL MOD DESC
 SVYD.                  Survey:  SURVEY DESC
 ILTD.               Lithology:  INTERP LTH DESC
 FTOP.          Formation Tops:  FORM TOPS DESC
 PDAT.          Mean Sea Level:  PERMANENT DATUM
 FLD .                     ACG:  FIELD NAME
 CTRY.              Azerbaijan:  COUNTRY NAME
 WELL.                    E04x:  WELL NAME
 SRVC.          Turan Drilling:  CONTRACTOR
 COMP.     BP Exploration (Caspian Sea) Ltd.:  COMPANY
 SON .        AZ-XX-0906531346:  JOB NUMBER
 WTYP.                Deviated:  WELL TYPE
 MDS .        Operator Entered:  MAG DATA SOURCE
 UWI .                     N/A:  UNIQUE WELL IDENTIFIER
 API .                     N/A:  API NUMBER
 BASE.              Azerbaijan:  LOGGING EQUIPMENT BASE LOCATION
 REGN.                   EESSA:  REGION
 PROV.                    Baku:  PROVINCE
 STAT.                    Baku:  STATE NAME
 MWDS.                    Baku:  MWD SHOP
 JOBN.        AZ-XX-0906531346:  JOB TICKET NUMB
 RIG .                     DWG:  RIG NAME
 DOE .                     N/A:  DOE NUMBER
 DCON.         Sperry Drilling:  DIRECTNL CONTR
 UNIT.                     N/A:  LOGGING EQUIPMENT ID
 CNTY.                        :  COUNTY
 LOC .                        :  LOCATION
 LMF .             Drill Floor:  LOG MEASURED FROM
 TVDS.m                  43.16:  TVDSS CORRECTN
 LATI.deg                40.17:  LATITUDE
 LONG.deg                51.17:  LONGITUDE
 WHNS.m                  -0.12:  WELL HEAD N/S
 WHEW.m                  -5.41:  WELL HEAD E/W
 UTMX.m              514337.95:  UTM X
 UTMY.m             4448627.46:  UTM Y
 DFWL.m                   0.00:  DISTANCE FWL
 DFSL.m                   0.00:  DISTANCE FSL
 SDEP.m                3088.01:  START DEPTH
 TDD .m                5200.01:  TOTAL DEPTH (DRILLER)
 VSDR.deg               244.51:  VERT SEC DIRECT
 GVFD.g                   1.00:  GRAVITY FIELD
 MFLD.nT              50329.80:  MAGNETIC FIELD
 MDIP.deg                59.63:  MAGNETIC DIP
 MDEC.deg                 6.59:  MAGNETIC DECL
 GRDC.deg                 0.09:  GRID CORRECTION
 AZTC.deg                 6.50:  AZM TOTAL CORR
 EPD .m                   0.00:  ELEVATION
 EGL .m                   0.00:  GROUND ELEVATION
 WDMS.m                 176.20:  WD ELEV
 APD .m                  43.16:  DEPTH ABOVE PD
 DEP .m                3084.71:  DEPTH
 AGAP.m                  43.16:  AIR GAP
 VSEW.m                  -5.41:  VERT SEC E/W
 VSNS.m                  -0.12:  VERT SEC N/S
 EKB .m                   0.00:  KB ELEVATION
 EDF .m                  43.16:  DF ELEVATION
 TDL .m                 243.00:  TOTAL DEPTH (LOGGER)
 VSC .                       0:  VS TO CLOSURE
 MAGU.                 1853542:  MAGUTM CHECKSUM
~Parameter Information Block
#MNEM.UNIT       Value        Description
#---------     -----------    ---------------------------
 AV  .mps                 1.91:  Ann Velocity 
 AVMX.mps                 2.52:  Max Ann Veloc 
 AZIF.deg               308.97:  Azm, Final 
 BHAT.        Rotary Steerable:  BHA Type 
 BROT.°/30m               1.00:  Build Rotating 
 BS  .in                  6.50:  Bit Size 
 BSZ .in                  6.50:  Bit Size 
 BTPL.psig              350.00:  Bit Press Loss 
 CABU.                      No:  Customer Abuse 
 CGEO.           Asif Pashayev:  Customer Geo 
 COMM.                     6…:  Run Comments 1 
 TCS .hr                 35.86:  Time Ciculation Ended 
 CV  .mps                 2.31:  Crit Velocity 
 CVMX.mps                 2.31:  Max Crit Veloc 
 DD1 .         Intigam Rahimov:  Direct Drillr 1 
 DDSV.               Geo-Pilot:  DD Service 
 DEFF.%                  92.00:  % Det Eff 
 DLRX.°/30m               1.00:  Dogleg Rot Max 
 DLSO.°/30m               1.00:  Dogleg Oriented 
 DLSX.°/30m               1.42:  Dogleg Str Max 
 DRET.      15.50.00 07-Aug-20:  Drill End Time 
 DRST.      10.40.00 06-Aug-20:  Drill Start Tim 
 DTIM.hr                 21.30:  Time Drilling 
 EDEP.m                5200.01:  End Depth 
 ENG1.            Alan Tuganov:  Engineer 1 
 ENG2.         Almaz Almadatov:  Engineer 2 
 ENG3.     Zammelal Abdullah Sani:  Engineer 3 
 ETIM.      22.42.00 08-Aug-20:  End Time 
 FLOI.gpm               395.00:  Flow In 
 FLON.gpm               350.00:  Flow In Min 
 FLOS.cptm                0.00:  Fluid Loss 
 FLOX.gpm               404.00:  Flow In Max 
 FTRO.       Formation Presure:  FTWD Run Obj 
 HFLO.                      No:  High Flow 
 HPRE.                      No:  High Pressure 
 HTEM.                      No:  High Temp 
 HYDO.m                   1.80:  Hydro Offset 
 IFIN.deg                72.64:  Inc, Final 
 IMAX.deg                73.68:  Inc Max 
 IMIN.deg                72.64:  Inc Min 
 IMND.m                5189.69:  Inc Min Depth 
 IMXD.m                5067.88:  Inc Max Depth 
 JARR.                      No:  Jarring 
 LETM.      15.50.00 07-Aug-20:  Log End Time 
 LOST.hr                     0:  Lost Rig Time 
 LSTM.      10.40.00 06-Aug-20:  Log Start Time 
 MDCL.ppm             36000.00:  Mud Chlorides 
 MDES.     Inversion Oil/Synthetic:  Mud Desc 
 DFD .sg                  1.36:  Mud Density 
 MDMN.sg                  1.36:  Dens Mud Min 
 MDMX.sg                  1.36:  Dens Mud Max 
 MOIL.                      70:  Run Mud Oil % 
 MOWR.                   70:30:  Run Mud OWR 
 MSND.                    0.00:  Run Mud Sand % 
 MSOL.                   17.60:  Run Mud Solids% 
 DFV .spqt               73.00:  Mud Viscosity 
 MWOD.in                  4.75:  MWD Tool OD 
 MWSI.                      No:  Serv Intrp, MWD 
 OTIM.hr                 85.66:  Time Operating 
 PCON.           Look Like New:  Pad Condition 
 PMAX.psia             6250.00:  Press Op, Max 
 PV  .cP                 65.00:  Mud PV 
 RUN .                     900:  Run Number 
 ROPA.m/hr               11.40:  ROP Avg 
 ROPN.m/hr                5.00:  ROP Min 
 ROPX.m/hr               20.00:  ROP Max 
 RPMA.rpm               130.00:  RPM Surface Avg 
 RPMN.rpm                40.00:  RPM Surface Min 
 RPMX.rpm               140.00:  RPM Surface Max 
 RRUN.                    L205:  Rig Run Number 
 RTIM.hr                  1.00:  Time Reaming 
 SAZI.deg               313.52:  Azm, Start 
 SDEP.m                4957.01:  Start Depth 
 SIDD.                      No:  Serv Intrp, DD 
 SINC.deg                73.16:  Inc, Start 
 SPPA.psig             5657.00:  SPP Avg 
 SPPN.psig             2500.00:  SPP Min 
 SPPX.psig             5806.00:  SPP Max 
 STIM.      07.12.00 05-Aug-20:  Start Time 
 SVCS.                 DD, MWD:  Services 
 SVER.                    9.20:  Sperry Version 
 TDAT.m                 243.00:  Tot Depth Attmp 
 TDDF.                      No:  Trip for DD 
 TDLG.m                 243.00:  Tot Depth Loggd 
 TFF .                      No:  Trip for Fail 
 TQAA.f-kp               13.00:  Torque Abs Avg 
 TQAN.f-kp               11.00:  Torque Abs Min 
 TQAX.f-kp               16.00:  Torque Abs Max 
 TRRT.°/30m               1.00:  Turn Rotating 
 MRT .                    HCIM:  Maximum Recorded Temperature 
 TTMX.degC               96.08:  Max Tool Temp 
 VS01.                90515411:  Virtual Str1 SN 
 VS02.                90512716:  Virtual Str2 SN 
 VS03.                90522362:  Virtual Str3 SN 
 VS04.                90619415:  Virtual Str4 SN 
 VS05.                90619414:  Virtual Str5 SN 
 VS06.                90597748:  Virtual Str6 SN 
 WBMN.klb                 2.00:  WOB Min 
 WITN.           Adil Mammadov:  Customer Rep 
 WITN.     Alexander Yadullayev:  Customer Rep 2 
 WOBA.klb                 7.00:  WOB Avg 
 WOBX.klb                23.00:  WOB Max 
 YP  .lhf2               37.00:  Yield Point 
~Curve Information Block
#MNEM.UNIT                 API CODE     Curve Description
#---------               -----------    ---------------------------
 TIME.HHMMSS            00 000 000 000:  GT Time & Date
 GTDEPTH.m              00 000 000 000:  GT Depth
 GTPQH.psia             00 000 000 000:  GT HR Quartz Pressure
 GTTQ.degC              00 000 000 000:  GT Quartz Temperature
 GTTN.NONE              00 000 000 000:  GT Test Number
 GTET.sec               00 000 000 000:  GT Elapsed Test Time
 GTTVD.m                00 000 000 000:  GT True Vertical Depth
#Other Information
#
#WARRANTY: Halliburton will use its best efforts to furnish customers with 
#accurate information and interpretations that are part of, and incident to, the services 
#provided.  However, Halliburton cannot and does not warrant the accuracy 
#or correctness of such information and interpretations.  Under no circumstances should any 
#such information or interpretation be relied upon as the sole basis for any drilling, 
#completion, production, or financial decision or any procedure involving any risk to the 
#safety of any drilling venture, drilling rig or its crew or any other third party.  The 
#Customer has full responsibility for all drilling, completion and production operation.  
#Halliburton makes no representations or warranties, either expressed or 
#implied, including, but not limited to, the implied warranties of merchantability or fitness 
#for a particular purpose, with respect to the services rendered.  In no event will 
#Halliburton be liable for failure to obtain any particular results or for 
#any damages, including, but not limited to, indirect, special or consequential damages, 
#resulting from the use of any information or interpretation provided by Halliburton.
#
~A           TIME           GTDEPTH  GTPQH  GTTQ  GTTN   GTET   GTTVD  
# ...
   15:42:53.476.07-Aug-2020 5157.51 3490.23 88.63 11.00 248.70 2691.72
   15:42:53.676.07-Aug-2020 5157.51 3489.93 88.63 11.00 248.90 2691.72
   15:42:53.876.07-Aug-2020 5157.51 3490.29 88.63 11.00 249.10 2691.72
   15:42:54.077.07-Aug-2020 5157.51 3490.32 88.63 11.00 249.30 2691.72
   15:42:54.277.07-Aug-2020 5157.51 3489.82 88.63 11.00 249.50 2691.72
   15:42:54.477.07-Aug-2020 5157.51 3490.29 88.63 11.00 249.70 2691.72
   15:42:54.677.07-Aug-2020 5157.51 3490.28 88.63 11.00 249.90 2691.72
   15:42:54.877.07-Aug-2020 5157.51 3490.23 88.63 11.00 250.10 2691.72
   15:42:55.077.07-Aug-2020 5157.51 3490.23 88.63 11.00 250.30 2691.72
   15:42:55.277.07-Aug-2020 5157.51 3489.96 88.63 11.00 250.50 2691.72
   15:42:55.477.07-Aug-2020 5157.51 3490.41 88.63 11.00 250.70 2691.72
   15:42:55.677.07-Aug-2020 5157.51 3490.24 88.63 11.00 250.90 2691.72
   15:42:55.877.07-Aug-2020 5157.51 3490.07 88.63 11.00 251.10 2691.72
   15:42:56.077.07-Aug-2020 5157.51 3490.07 88.63 11.00 251.30 2691.72
   15:42:56.277.07-Aug-2020 5157.51 3490.27 88.63 11.00 251.50 2691.72
   15:42:56.478.07-Aug-2020 5157.51 3490.20 88.62 11.00 251.70 2691.72
   15:42:56.678.07-Aug-2020 5157.51 3490.20 88.62 11.00 251.90 2691.72
   15:42:56.878.07-Aug-2020 5157.51 3490.23 88.62 11.00 252.10 2691.72
   15:42:57.078.07-Aug-2020 5157.51 3490.23 88.62 11.00 252.30 2691.72
   15:42:57.278.07-Aug-2020 5157.51 3490.17 88.62 11.00 252.50 2691.72
   15:42:57.478.07-Aug-2020 5157.51 3490.18 88.62 11.00 252.70 2691.72
   15:42:57.678.07-Aug-2020 5157.51 3490.20 88.62 11.00 252.90 2691.72
   15:42:57.878.07-Aug-2020 5157.51 3489.95 88.62 11.00 253.10 2691.72
   15:42:58.078.07-Aug-2020 5157.51 3489.95 88.62 11.00 253.30 2691.72
   15:42:58.278.07-Aug-2020 5157.51 3490.25 88.62 11.00 253.50 2691.72
   15:42:58.478.07-Aug-2020 5157.51 3490.22 88.62 11.00 253.70 2691.72
   15:42:58.678.07-Aug-2020 5157.51 3490.11 88.62 11.00 253.90 2691.72
   15:42:58.879.07-Aug-2020 5157.51 3490.26 88.62 11.00 254.10 2691.72
   15:42:59.079.07-Aug-2020 5157.51 3490.26 88.62 11.00 254.30 2691.72
   15:42:59.279.07-Aug-2020 5157.51 3490.16 88.62 11.00 254.50 2691.72
   15:42:59.479.07-Aug-2020 5157.51 3490.19 88.62 11.00 254.70 2691.72
   15:42:59.679.07-Aug-2020 5157.51 3490.24 88.62 11.00 254.91 2691.72
   15:42:59.879.07-Aug-2020 5157.51 3490.17 88.62 11.00 255.11 2691.72
   15:43:00.079.07-Aug-2020 5157.51 3490.17 88.62 11.00 255.31 2691.72
   15:43:00.279.07-Aug-2020 5157.51 3490.16 88.62 11.00 255.51 2691.72
   15:43:00.479.07-Aug-2020 5157.51 3490.20 88.62 11.00 255.71 2691.72
   15:43:00.679.07-Aug-2020 5157.51 3489.83 88.61 11.00 255.91 2691.72
   15:43:00.879.07-Aug-2020 5157.51 3490.37 88.61 11.00 256.11 2691.72
   15:43:01.079.07-Aug-2020 5157.51 3490.37 88.61 11.00 256.31 2691.72
   15:43:01.280.07-Aug-2020 5157.51 3490.09 88.61 11.00 256.51 2691.72
   15:43:01.480.07-Aug-2020 5157.51 3490.20 88.61 11.00 256.71 2691.72
   15:43:01.680.07-Aug-2020 5157.51 3490.20 88.61 11.00 256.91 2691.72
   15:43:01.880.07-Aug-2020 5157.51 3489.82 88.61 11.00 257.11 2691.72
   15:43:02.080.07-Aug-2020 5157.51 3490.37 88.61 11.00 257.31 2691.72
   15:43:02.280.07-Aug-2020 5157.51 3490.33 88.61 11.00 257.51 2691.72
   15:43:02.480.07-Aug-2020 5157.51 3490.08 88.61 11.00 257.71 2691.72
   15:43:02.680.07-Aug-2020 5157.51 3490.07 88.61 11.00 257.91 2691.72
   15:43:02.880.07-Aug-2020 5157.51 3490.25 88.61 11.00 258.11 2691.72
   15:43:03.080.07-Aug-2020 5157.51 3490.25 88.61 11.00 258.31 2691.72
   15:43:03.280.07-Aug-2020 5157.51 3489.97 88.61 11.00 258.51 2691.72
   15:43:03.480.07-Aug-2020 5157.51 3489.83 88.61 11.00 258.71 2691.72
   15:43:03.681.07-Aug-2020 5157.51 3490.52 88.61 11.00 258.91 2691.72
   15:43:03.881.07-Aug-2020 5157.51 3490.32 88.61 11.00 259.11 2691.72
   15:43:04.081.07-Aug-2020 5157.51 3490.32 88.61 11.00 259.31 2691.72
   15:43:04.281.07-Aug-2020 5157.51 3490.23 88.61 11.00 259.51 2691.72
   15:43:04.481.07-Aug-2020 5157.51 3490.23 88.61 11.00 259.71 2691.72
   15:43:04.681.07-Aug-2020 5157.51 3490.26 88.61 11.00 259.91 2691.72
   15:43:04.881.07-Aug-2020 5157.51 3490.16 88.61 11.00 260.11 2691.72
   15:43:05.081.07-Aug-2020 5157.51 3490.16 88.60 11.00 260.31 2691.72
   15:43:05.281.07-Aug-2020 5157.51 3490.22 88.60 11.00 260.51 2691.72
   15:43:05.481.07-Aug-2020 5157.51 3490.20 88.60 11.00 260.71 2691.72
   15:43:05.681.07-Aug-2020 5157.51 3490.19 88.60 11.00 260.91 2691.72
   15:43:05.881.07-Aug-2020 5157.51 3490.20 88.60 11.00 261.11 2691.72
   15:43:06.082.07-Aug-2020 5157.51 3490.10 88.60 11.00 261.31 2691.72
   15:43:06.282.07-Aug-2020 5157.51 3490.12 88.60 11.00 261.51 2691.72
   15:43:06.482.07-Aug-2020 5157.51 3490.30 88.60 11.00 261.71 2691.72
   15:43:06.682.07-Aug-2020 5157.51 3490.34 88.60 11.00 261.91 2691.72
   15:43:06.882.07-Aug-2020 5157.51 3490.04 88.60 11.00 262.11 2691.72
   15:43:07.082.07-Aug-2020 5157.51 3490.04 88.60 11.00 262.31 2691.72
   15:43:07.282.07-Aug-2020 5157.51 3490.29 88.60 11.00 262.51 2691.72
   15:43:07.482.07-Aug-2020 5157.51 3490.17 88.60 11.00 262.71 2691.72
   15:43:07.682.07-Aug-2020 5157.51 3490.18 88.60 11.00 262.91 2691.72
   15:43:07.882.07-Aug-2020 5157.51 3490.22 88.60 11.00 263.11 2691.72
   15:43:08.082.07-Aug-2020 5157.51 3490.22 88.60 11.00 263.31 2691.72
   15:43:08.282.07-Aug-2020 5157.51 3490.17 88.60 11.00 263.51 2691.72
   15:43:08.483.07-Aug-2020 5157.51 3490.19 88.60 11.00 263.71 2691.72
   15:43:08.683.07-Aug-2020 5157.51 3490.19 88.60 11.00 263.91 2691.72
   15:43:08.883.07-Aug-2020 5157.51 3489.96 88.60 11.00 264.11 2691.72
   15:43:09.083.07-Aug-2020 5157.51 3489.96 88.60 11.00 264.31 2691.72
   15:43:09.283.07-Aug-2020 5157.51 3490.27 88.60 11.00 264.51 2691.72
   15:43:09.483.07-Aug-2020 5157.51 3490.23 88.59 11.00 264.71 2691.72
   15:43:09.683.07-Aug-2020 5157.51 3490.13 88.59 11.00 264.91 2691.72
   15:43:09.883.07-Aug-2020 5157.51 3490.21 88.59 11.00 265.11 2691.72
   15:43:10.083.07-Aug-2020 5157.51 3490.21 88.59 11.00 265.31 2691.72
   15:43:10.283.07-Aug-2020 5157.51 3490.16 88.59 11.00 265.51 2691.72
   15:43:10.483.07-Aug-2020 5157.51 3490.26 88.59 11.00 265.71 2691.72
   15:43:10.683.07-Aug-2020 5157.51 3490.31 88.59 11.00 265.91 2691.72
   15:43:10.883.07-Aug-2020 5157.51 3489.81 88.59 11.00 266.11 2691.72
   15:43:11.084.07-Aug-2020 5157.51 3489.81 88.59 11.00 266.31 2691.72
   15:43:11.284.07-Aug-2020 5157.51 3490.40 88.59 11.00 266.51 2691.72
   15:43:11.484.07-Aug-2020 5157.51 3490.05 88.59 11.00 266.71 2691.72
   15:43:11.684.07-Aug-2020 5157.51 3490.11 88.59 11.00 266.91 2691.72
   15:43:11.884.07-Aug-2020 5157.51 3490.27 88.59 11.00 267.11 2691.72
   15:43:12.084.07-Aug-2020 5157.51 3490.27 88.59 11.00 267.31 2691.72
   15:43:12.284.07-Aug-2020 5157.51 3490.24 88.59 11.00 267.51 2691.72
   15:43:12.484.07-Aug-2020 5157.51 3490.10 88.59 11.00 267.71 2691.72
   15:43:12.684.07-Aug-2020 5157.51 3490.30 88.59 11.00 267.91 2691.72
   15:43:12.884.07-Aug-2020 5157.51 3490.26 88.59 11.00 268.11 2691.72
   15:43:13.084.07-Aug-2020 5157.51 3490.26 88.59 11.00 268.31 2691.72
   15:43:13.284.07-Aug-2020 5157.51 3490.24 88.59 11.00 268.51 2691.72
   15:43:13.485.07-Aug-2020 5157.51 3490.26 88.59 11.00 268.71 2691.72
   15:43:13.685.07-Aug-2020 5157.51 3490.21 88.59 11.00 268.91 2691.72
   15:43:13.885.07-Aug-2020 5157.51 3490.22 88.58 11.00 269.11 2691.72
   15:43:14.085.07-Aug-2020 5157.51 3490.19 88.58 11.00 269.31 2691.72
   15:43:14.285.07-Aug-2020 5157.51 3490.21 88.58 11.00 269.51 2691.72
   15:43:14.485.07-Aug-2020 5157.51 3489.92 88.58 11.00 269.71 2691.72
   15:43:14.685.07-Aug-2020 5157.51 3490.40 88.58 11.00 269.91 2691.72
   15:43:14.885.07-Aug-2020 5157.51 3490.30 88.58 11.00 270.11 2691.72
   15:43:15.085.07-Aug-2020 5157.51 3490.30 88.58 11.00 270.31 2691.72
   15:43:15.285.07-Aug-2020 5157.51 3490.28 88.58 11.00 270.51 2691.72
   15:43:15.485.07-Aug-2020 5157.51 3490.28 88.58 11.00 270.71 2691.72
   15:43:15.685.07-Aug-2020 5157.51 3490.22 88.58 11.00 270.91 2691.72
   15:43:15.886.07-Aug-2020 5157.51 3490.18 88.58 11.00 271.11 2691.72
