~Version Information
 VERS.                  2.0:   CWLS log ASCII Standard -VERSION 2.0
 WRAP.                   NO:   One line per depth step
~Well Information Block
#MNEM.UNIT     VALUE/NAME     DESCRIPTION
#---------     -----------    ---------------------------
 STRT.S             14:58:59 06-Aug-20: START TIME 14:58:59 06-Aug-20
 STOP.S             15:06:43 06-Aug-20: STOP TIME  15:06:43 06-Aug-20
 STEP.S                   0.00: STEP TIME
 NULL.                 -999.25: NULL VALUE
 DFWT.                        :  DIST FWL TEXT
 DFST.                        :  DIST FSL TEXT
 DMF .             Drill Floor:  DRILL MEAS FROM
 STIM.      12.00.00 03-Jul-20:  START TIME
 DATE.      00.50.00 09-Aug-20:  END TIME
 SPUD.               03-Jul-20:  SPUD DATE
 NREF.                    Grid:  NORTH REFERENCE
 HPTY.       Minimum Curvature:  HOLE POS TYPE
 DMOD.             Drill Model:  DRILL MOD DESC
 SVYD.                  Survey:  SURVEY DESC
 ILTD.               Lithology:  INTERP LTH DESC
 FTOP.          Formation Tops:  FORM TOPS DESC
 PDAT.          Mean Sea Level:  PERMANENT DATUM
 FLD .                     ACG:  FIELD NAME
 CTRY.              Azerbaijan:  COUNTRY NAME
 WELL.                    E04x:  WELL NAME
 SRVC.          Turan Drilling:  CONTRACTOR
 COMP.     BP Exploration (Caspian Sea) Ltd.:  COMPANY
 SON .        AZ-XX-0906531346:  JOB NUMBER
 WTYP.                Deviated:  WELL TYPE
 MDS .        Operator Entered:  MAG DATA SOURCE
 UWI .                     N/A:  UNIQUE WELL IDENTIFIER
 API .                     N/A:  API NUMBER
 BASE.              Azerbaijan:  LOGGING EQUIPMENT BASE LOCATION
 REGN.                   EESSA:  REGION
 PROV.                    Baku:  PROVINCE
 STAT.                    Baku:  STATE NAME
 MWDS.                    Baku:  MWD SHOP
 JOBN.        AZ-XX-0906531346:  JOB TICKET NUMB
 RIG .                     DWG:  RIG NAME
 DOE .                     N/A:  DOE NUMBER
 DCON.         Sperry Drilling:  DIRECTNL CONTR
 UNIT.                     N/A:  LOGGING EQUIPMENT ID
 CNTY.                        :  COUNTY
 LOC .                        :  LOCATION
 LMF .             Drill Floor:  LOG MEASURED FROM
 TVDS.m                  43.16:  TVDSS CORRECTN
 LATI.deg                40.17:  LATITUDE
 LONG.deg                51.17:  LONGITUDE
 WHNS.m                  -0.12:  WELL HEAD N/S
 WHEW.m                  -5.41:  WELL HEAD E/W
 UTMX.m              514337.95:  UTM X
 UTMY.m             4448627.46:  UTM Y
 DFWL.m                   0.00:  DISTANCE FWL
 DFSL.m                   0.00:  DISTANCE FSL
 SDEP.m                3088.01:  START DEPTH
 TDD .m                5200.01:  TOTAL DEPTH (DRILLER)
 VSDR.deg               244.51:  VERT SEC DIRECT
 GVFD.g                   1.00:  GRAVITY FIELD
 MFLD.nT              50329.80:  MAGNETIC FIELD
 MDIP.deg                59.63:  MAGNETIC DIP
 MDEC.deg                 6.59:  MAGNETIC DECL
 GRDC.deg                 0.09:  GRID CORRECTION
 AZTC.deg                 6.50:  AZM TOTAL CORR
 EPD .m                   0.00:  ELEVATION
 EGL .m                   0.00:  GROUND ELEVATION
 WDMS.m                 176.20:  WD ELEV
 APD .m                  43.16:  DEPTH ABOVE PD
 DEP .m                3084.71:  DEPTH
 AGAP.m                  43.16:  AIR GAP
 VSEW.m                  -5.41:  VERT SEC E/W
 VSNS.m                  -0.12:  VERT SEC N/S
 EKB .m                   0.00:  KB ELEVATION
 EDF .m                  43.16:  DF ELEVATION
 TDL .m                 243.00:  TOTAL DEPTH (LOGGER)
 VSC .                       0:  VS TO CLOSURE
 MAGU.                 1853542:  MAGUTM CHECKSUM
~Parameter Information Block
#MNEM.UNIT       Value        Description
#---------     -----------    ---------------------------
 AV  .mps                 1.91:  Ann Velocity 
 AVMX.mps                 2.52:  Max Ann Veloc 
 AZIF.deg               308.97:  Azm, Final 
 BHAT.        Rotary Steerable:  BHA Type 
 BROT.°/30m               1.00:  Build Rotating 
 BS  .in                  6.50:  Bit Size 
 BSZ .in                  6.50:  Bit Size 
 BTPL.psig              350.00:  Bit Press Loss 
 CABU.                      No:  Customer Abuse 
 CGEO.           Asif Pashayev:  Customer Geo 
 COMM.                     ”›T:  Run Comments 1 
 TCS .hr                 35.86:  Time Ciculation Ended 
 CV  .mps                 2.31:  Crit Velocity 
 CVMX.mps                 2.31:  Max Crit Veloc 
 DD1 .         Intigam Rahimov:  Direct Drillr 1 
 DDSV.               Geo-Pilot:  DD Service 
 DEFF.%                  92.00:  % Det Eff 
 DLRX.°/30m               1.00:  Dogleg Rot Max 
 DLSO.°/30m               1.00:  Dogleg Oriented 
 DLSX.°/30m               1.42:  Dogleg Str Max 
 DRET.      15.50.00 07-Aug-20:  Drill End Time 
 DRST.      10.40.00 06-Aug-20:  Drill Start Tim 
 DTIM.hr                 21.30:  Time Drilling 
 EDEP.m                5200.01:  End Depth 
 ENG1.            Alan Tuganov:  Engineer 1 
 ENG2.         Almaz Almadatov:  Engineer 2 
 ENG3.     Zammelal Abdullah Sani:  Engineer 3 
 ETIM.      22.42.00 08-Aug-20:  End Time 
 FLOI.gpm               395.00:  Flow In 
 FLON.gpm               350.00:  Flow In Min 
 FLOS.cptm                0.00:  Fluid Loss 
 FLOX.gpm               404.00:  Flow In Max 
 FTRO.       Formation Presure:  FTWD Run Obj 
 HFLO.                      No:  High Flow 
 HPRE.                      No:  High Pressure 
 HTEM.                      No:  High Temp 
 HYDO.m                   1.80:  Hydro Offset 
 IFIN.deg                72.64:  Inc, Final 
 IMAX.deg                73.68:  Inc Max 
 IMIN.deg                72.64:  Inc Min 
 IMND.m                5189.69:  Inc Min Depth 
 IMXD.m                5067.88:  Inc Max Depth 
 JARR.                      No:  Jarring 
 LETM.      15.50.00 07-Aug-20:  Log End Time 
 LOST.hr                     0:  Lost Rig Time 
 LSTM.      10.40.00 06-Aug-20:  Log Start Time 
 MDCL.ppm             36000.00:  Mud Chlorides 
 MDES.     Inversion Oil/Synthetic:  Mud Desc 
 DFD .sg                  1.36:  Mud Density 
 MDMN.sg                  1.36:  Dens Mud Min 
 MDMX.sg                  1.36:  Dens Mud Max 
 MOIL.                      70:  Run Mud Oil % 
 MOWR.                   70:30:  Run Mud OWR 
 MSND.                    0.00:  Run Mud Sand % 
 MSOL.                   17.60:  Run Mud Solids% 
 DFV .spqt               73.00:  Mud Viscosity 
 MWOD.in                  4.75:  MWD Tool OD 
 MWSI.                      No:  Serv Intrp, MWD 
 OTIM.hr                 85.66:  Time Operating 
 PCON.           Look Like New:  Pad Condition 
 PMAX.psia             6250.00:  Press Op, Max 
 PV  .cP                 65.00:  Mud PV 
 RUN .                     900:  Run Number 
 ROPA.m/hr               11.40:  ROP Avg 
 ROPN.m/hr                5.00:  ROP Min 
 ROPX.m/hr               20.00:  ROP Max 
 RPMA.rpm               130.00:  RPM Surface Avg 
 RPMN.rpm                40.00:  RPM Surface Min 
 RPMX.rpm               140.00:  RPM Surface Max 
 RRUN.                    L205:  Rig Run Number 
 RTIM.hr                  1.00:  Time Reaming 
 SAZI.deg               313.52:  Azm, Start 
 SDEP.m                4957.01:  Start Depth 
 SIDD.                      No:  Serv Intrp, DD 
 SINC.deg                73.16:  Inc, Start 
 SPPA.psig             5657.00:  SPP Avg 
 SPPN.psig             2500.00:  SPP Min 
 SPPX.psig             5806.00:  SPP Max 
 STIM.      07.12.00 05-Aug-20:  Start Time 
 SVCS.                 DD, MWD:  Services 
 SVER.                    9.20:  Sperry Version 
 TDAT.m                 243.00:  Tot Depth Attmp 
 TDDF.                      No:  Trip for DD 
 TDLG.m                 243.00:  Tot Depth Loggd 
 TFF .                      No:  Trip for Fail 
 TQAA.f-kp               13.00:  Torque Abs Avg 
 TQAN.f-kp               11.00:  Torque Abs Min 
 TQAX.f-kp               16.00:  Torque Abs Max 
 TRRT.°/30m               1.00:  Turn Rotating 
 MRT .                    HCIM:  Maximum Recorded Temperature 
 TTMX.degC               96.08:  Max Tool Temp 
 VS01.                90515411:  Virtual Str1 SN 
 VS02.                90512716:  Virtual Str2 SN 
 VS03.                90522362:  Virtual Str3 SN 
 VS04.                90619415:  Virtual Str4 SN 
 VS05.                90619414:  Virtual Str5 SN 
 VS06.                90597748:  Virtual Str6 SN 
 WBMN.klb                 2.00:  WOB Min 
 WITN.           Adil Mammadov:  Customer Rep 
 WITN.     Alexander Yadullayev:  Customer Rep 2 
 WOBA.klb                 7.00:  WOB Avg 
 WOBX.klb                23.00:  WOB Max 
 YP  .lhf2               37.00:  Yield Point 
~Curve Information Block
#MNEM.UNIT                 API CODE     Curve Description
#---------               -----------    ---------------------------
 TIME.HHMMSS            00 000 000 000:  GT Time & Date
 GTDEPTH.m              00 000 000 000:  GT Depth
 GTPQH.psia             00 000 000 000:  GT HR Quartz Pressure
 GTTQ.degC              00 000 000 000:  GT Quartz Temperature
 GTTN.NONE              00 000 000 000:  GT Test Number
 GTET.sec               00 000 000 000:  GT Elapsed Test Time
 GTTVD.m                00 000 000 000:  GT True Vertical Depth
#Other Information
#
#WARRANTY: Halliburton will use its best efforts to furnish customers with 
#accurate information and interpretations that are part of, and incident to, the services 
#provided.  However, Halliburton cannot and does not warrant the accuracy 
#or correctness of such information and interpretations.  Under no circumstances should any 
#such information or interpretation be relied upon as the sole basis for any drilling, 
#completion, production, or financial decision or any procedure involving any risk to the 
#safety of any drilling venture, drilling rig or its crew or any other third party.  The 
#Customer has full responsibility for all drilling, completion and production operation.  
#Halliburton makes no representations or warranties, either expressed or 
#implied, including, but not limited to, the implied warranties of merchantability or fitness 
#for a particular purpose, with respect to the services rendered.  In no event will 
#Halliburton be liable for failure to obtain any particular results or for 
#any damages, including, but not limited to, indirect, special or consequential damages, 
#resulting from the use of any information or interpretation provided by Halliburton.
#
~A           TIME           GTDEPTH  GTPQH  GTTQ  GTTN  GTET   GTTVD  
# ...
   15:03:58.610.06-Aug-2020 4947.01 5731.25 78.35 1.00 299.06 2630.94
   15:03:58.810.06-Aug-2020 4947.01 5731.25 78.35 1.00 299.26 2630.94
   15:03:59.010.06-Aug-2020 4947.01 5732.47 78.35 1.00 299.46 2630.94
   15:03:59.210.06-Aug-2020 4947.01 5726.04 78.35 1.00 299.66 2630.94
   15:03:59.410.06-Aug-2020 4947.01 5727.25 78.35 1.00 299.86 2630.94
   15:03:59.610.06-Aug-2020 4947.01 5729.68 78.35 1.00 300.06 2630.94
   15:03:59.810.06-Aug-2020 4947.01 5729.68 78.35 1.00 300.26 2630.94
   15:04:00.010.06-Aug-2020 4947.01 5730.91 78.35 1.00 300.46 2630.94
   15:04:00.210.06-Aug-2020 4947.01 5731.94 78.34 1.00 300.66 2630.94
   15:04:00.410.06-Aug-2020 4947.01 5727.96 78.34 1.00 300.86 2630.94
   15:04:00.610.06-Aug-2020 4947.01 5725.77 78.34 1.00 301.06 2630.94
   15:04:00.810.06-Aug-2020 4947.01 5725.77 78.34 1.00 301.26 2630.94
   15:04:01.011.06-Aug-2020 4947.01 5732.45 78.34 1.00 301.46 2630.94
   15:04:01.211.06-Aug-2020 4947.01 5732.59 78.34 1.00 301.66 2630.94
   15:04:01.411.06-Aug-2020 4947.01 5733.55 78.34 1.00 301.86 2630.94
   15:04:01.611.06-Aug-2020 4947.01 5732.65 78.34 1.00 302.06 2630.94
   15:04:01.811.06-Aug-2020 4947.01 5732.65 78.34 1.00 302.26 2630.94
   15:04:02.011.06-Aug-2020 4947.01 5734.43 78.34 1.00 302.46 2630.94
   15:04:02.211.06-Aug-2020 4947.01 5734.77 78.34 1.00 302.66 2630.94
   15:04:02.411.06-Aug-2020 4947.01 5734.32 78.34 1.00 302.86 2630.94
   15:04:02.611.06-Aug-2020 4947.01 5733.69 78.34 1.00 303.06 2630.94
   15:04:02.811.06-Aug-2020 4947.01 5733.69 78.34 1.00 303.26 2630.94
   15:04:03.011.06-Aug-2020 4947.01 5733.37 78.34 1.00 303.46 2630.94
   15:04:03.211.06-Aug-2020 4947.01 5726.58 78.34 1.00 303.66 2630.94
   15:04:03.411.06-Aug-2020 4947.01 5729.62 78.34 1.00 303.86 2630.94
   15:04:03.611.06-Aug-2020 4947.01 5732.16 78.34 1.00 304.06 2630.94
   15:04:03.811.06-Aug-2020 4947.01 5732.16 78.34 1.00 304.27 2630.94
   15:04:04.011.06-Aug-2020 4947.01 5732.68 78.34 1.00 304.47 2630.94
   15:04:04.211.06-Aug-2020 4947.01 5732.43 78.34 1.00 304.67 2630.94
   15:04:04.411.06-Aug-2020 4947.01 5733.93 78.34 1.00 304.87 2630.94
   15:04:04.611.06-Aug-2020 4947.01 5733.37 78.34 1.00 305.07 2630.94
   15:04:04.811.06-Aug-2020 4947.01 5733.37 78.34 1.00 305.27 2630.94
   15:04:05.011.06-Aug-2020 4947.01 5733.08 78.34 1.00 305.47 2630.94
   15:04:05.211.06-Aug-2020 4947.01 5733.22 78.34 1.00 305.67 2630.94
   15:04:05.411.06-Aug-2020 4947.01 5731.84 78.34 1.00 305.87 2630.94
   15:04:05.612.06-Aug-2020 4947.01 5732.39 78.34 1.00 306.07 2630.94
   15:04:05.812.06-Aug-2020 4947.01 5732.39 78.34 1.00 306.27 2630.94
   15:04:06.012.06-Aug-2020 4947.01 5726.76 78.34 1.00 306.47 2630.94
   15:04:06.212.06-Aug-2020 4947.01 5725.62 78.34 1.00 306.67 2630.94
   15:04:06.412.06-Aug-2020 4947.01 5730.54 78.34 1.00 306.87 2630.94
   15:04:06.612.06-Aug-2020 4947.01 5731.28 78.34 1.00 307.07 2630.94
   15:04:06.812.06-Aug-2020 4947.01 5731.28 78.34 1.00 307.27 2630.94
   15:04:07.012.06-Aug-2020 4947.01 5728.28 78.34 1.00 307.47 2630.94
   15:04:07.212.06-Aug-2020 4947.01 5731.89 78.34 1.00 307.67 2630.94
   15:04:07.412.06-Aug-2020 4947.01 5732.84 78.34 1.00 307.87 2630.94
   15:04:07.612.06-Aug-2020 4947.01 5733.32 78.34 1.00 308.07 2630.94
   15:04:07.812.06-Aug-2020 4947.01 5733.32 78.34 1.00 308.27 2630.94
   15:04:08.012.06-Aug-2020 4947.01 5726.11 78.34 1.00 308.47 2630.94
   15:04:08.212.06-Aug-2020 4947.01 5728.64 78.34 1.00 308.67 2630.94
   15:04:08.412.06-Aug-2020 4947.01 5730.79 78.34 1.00 308.87 2630.94
   15:04:08.612.06-Aug-2020 4947.01 5732.33 78.34 1.00 309.07 2630.94
   15:04:08.812.06-Aug-2020 4947.01 5732.33 78.34 1.00 309.27 2630.94
   15:04:09.012.06-Aug-2020 4947.01 5732.91 78.34 1.00 309.47 2630.94
   15:04:09.212.06-Aug-2020 4947.01 5726.80 78.34 1.00 309.67 2630.94
   15:04:09.412.06-Aug-2020 4947.01 5729.23 78.34 1.00 309.87 2630.94
   15:04:09.612.06-Aug-2020 4947.01 5731.25 78.34 1.00 310.07 2630.94
   15:04:09.812.06-Aug-2020 4947.01 5731.25 78.34 1.00 310.27 2630.94
   15:04:10.012.06-Aug-2020 4947.01 5733.34 78.34 1.00 310.47 2630.94
   15:04:10.213.06-Aug-2020 4947.01 5734.14 78.34 1.00 310.67 2630.94
   15:04:10.413.06-Aug-2020 4947.01 5733.11 78.34 1.00 310.87 2630.94
   15:04:10.613.06-Aug-2020 4947.01 5734.42 78.34 1.00 311.07 2630.94
   15:04:10.813.06-Aug-2020 4947.01 5734.42 78.34 1.00 311.27 2630.94
   15:04:11.013.06-Aug-2020 4947.01 5734.70 78.34 1.00 311.47 2630.94
   15:04:11.213.06-Aug-2020 4947.01 5733.62 78.34 1.00 311.67 2630.94
   15:04:11.413.06-Aug-2020 4947.01 5733.57 78.34 1.00 311.87 2630.94
   15:04:11.613.06-Aug-2020 4947.01 5732.71 78.34 1.00 312.07 2630.94
   15:04:11.813.06-Aug-2020 4947.01 5732.71 78.34 1.00 312.27 2630.94
   15:04:12.013.06-Aug-2020 4947.01 5725.61 78.34 1.00 312.47 2630.94
   15:04:12.213.06-Aug-2020 4947.01 5729.99 78.34 1.00 312.67 2630.94
   15:04:12.413.06-Aug-2020 4947.01 5732.11 78.34 1.00 312.87 2630.94
   15:04:12.613.06-Aug-2020 4947.01 5732.62 78.34 1.00 313.07 2630.94
   15:04:12.813.06-Aug-2020 4947.01 5732.62 78.34 1.00 313.27 2630.94
   15:04:13.013.06-Aug-2020 4947.01 5732.90 78.34 1.00 313.47 2630.94
   15:04:13.213.06-Aug-2020 4947.01 5733.84 78.34 1.00 313.67 2630.94
   15:04:13.413.06-Aug-2020 4947.01 5733.26 78.34 1.00 313.87 2630.94
   15:04:13.613.06-Aug-2020 4947.01 5733.56 78.34 1.00 314.07 2630.94
   15:04:13.813.06-Aug-2020 4947.01 5733.56 78.34 1.00 314.27 2630.94
   15:04:14.013.06-Aug-2020 4947.01 5732.51 78.34 1.00 314.47 2630.94
   15:04:14.213.06-Aug-2020 4947.01 5731.28 78.34 1.00 314.67 2630.94
   15:04:14.413.06-Aug-2020 4947.01 5732.21 78.34 1.00 314.87 2630.94
   15:04:14.613.06-Aug-2020 4947.01 5731.16 78.34 1.00 315.07 2630.94
   15:04:14.813.06-Aug-2020 4947.01 5731.16 78.34 1.00 315.27 2630.94
   15:04:15.014.06-Aug-2020 4947.01 5726.17 78.34 1.00 315.47 2630.94
   15:04:15.214.06-Aug-2020 4947.01 5730.64 78.34 1.00 315.67 2630.94
   15:04:15.414.06-Aug-2020 4947.01 5731.06 78.34 1.00 315.87 2630.94
   15:04:15.614.06-Aug-2020 4947.01 5724.76 78.34 1.00 316.07 2630.94
   15:04:15.814.06-Aug-2020 4947.01 5724.76 78.34 1.00 316.27 2630.94
   15:04:16.014.06-Aug-2020 4947.01 5732.76 78.34 1.00 316.47 2630.94
   15:04:16.214.06-Aug-2020 4947.01 5733.37 78.34 1.00 316.67 2630.94
   15:04:16.414.06-Aug-2020 4947.01 5734.29 78.34 1.00 316.87 2630.94
   15:04:16.614.06-Aug-2020 4947.01 5733.39 78.33 1.00 317.07 2630.94
   15:04:16.814.06-Aug-2020 4947.01 5733.39 78.33 1.00 317.27 2630.94
   15:04:17.014.06-Aug-2020 4947.01 5728.17 78.33 1.00 317.47 2630.94
   15:04:17.214.06-Aug-2020 4947.01 5731.54 78.33 1.00 317.67 2630.94
   15:04:17.414.06-Aug-2020 4947.01 5732.26 78.33 1.00 317.87 2630.94
   15:04:17.614.06-Aug-2020 4947.01 5732.36 78.33 1.00 318.07 2630.94
   15:04:17.814.06-Aug-2020 4947.01 5732.36 78.33 1.00 318.27 2630.94
   15:04:18.014.06-Aug-2020 4947.01 5727.74 78.33 1.00 318.47 2630.94
   15:04:18.214.06-Aug-2020 4947.01 5727.90 78.33 1.00 318.67 2630.94
   15:04:18.414.06-Aug-2020 4947.01 5731.39 78.33 1.00 318.87 2630.94
   15:04:18.614.06-Aug-2020 4947.01 5734.29 78.33 1.00 319.07 2630.94
   15:04:18.814.06-Aug-2020 4947.01 5734.29 78.33 1.00 319.27 2630.94
   15:04:19.014.06-Aug-2020 4947.01 5734.91 78.33 1.00 319.47 2630.94
   15:04:19.214.06-Aug-2020 4947.01 5733.98 78.33 1.00 319.67 2630.94
   15:04:19.414.06-Aug-2020 4947.01 5735.47 78.33 1.00 319.87 2630.94
   15:04:19.615.06-Aug-2020 4947.01 5734.95 78.33 1.00 320.07 2630.94
   15:04:19.815.06-Aug-2020 4947.01 5734.95 78.33 1.00 320.27 2630.94
   15:04:20.015.06-Aug-2020 4947.01 5734.13 78.33 1.00 320.47 2630.94
   15:04:20.215.06-Aug-2020 4947.01 5734.48 78.33 1.00 320.67 2630.94
   15:04:20.415.06-Aug-2020 4947.01 5733.42 78.33 1.00 320.87 2630.94
   15:04:20.615.06-Aug-2020 4947.01 5728.48 78.33 1.00 321.07 2630.94
   15:04:20.815.06-Aug-2020 4947.01 5728.48 78.33 1.00 321.27 2630.94
   15:04:21.015.06-Aug-2020 4947.01 5733.10 78.33 1.00 321.47 2630.94
   15:04:21.215.06-Aug-2020 4947.01 5733.18 78.33 1.00 321.67 2630.94
   15:04:21.415.06-Aug-2020 4947.01 5733.97 78.33 1.00 321.87 2630.94
