~Version Information
 VERS.                  2.0:   CWLS log ASCII Standard -VERSION 2.0
 WRAP.                   NO:   One line per depth step
~Well Information Block
#MNEM.UNIT     VALUE/NAME     DESCRIPTION
#---------     -----------    ---------------------------
 STRT.S             09:21:48 07-Aug-20: START TIME 09:21:48 07-Aug-20
 STOP.S             09:29:41 07-Aug-20: STOP TIME  09:29:41 07-Aug-20
 STEP.S                   0.00: STEP TIME
 NULL.                 -999.25: NULL VALUE
 DFWT.                        :  DIST FWL TEXT
 DFST.                        :  DIST FSL TEXT
 DMF .             Drill Floor:  DRILL MEAS FROM
 STIM.      12.00.00 03-Jul-20:  START TIME
 DATE.      00.50.00 09-Aug-20:  END TIME
 SPUD.               03-Jul-20:  SPUD DATE
 NREF.                    Grid:  NORTH REFERENCE
 HPTY.       Minimum Curvature:  HOLE POS TYPE
 DMOD.             Drill Model:  DRILL MOD DESC
 SVYD.                  Survey:  SURVEY DESC
 ILTD.               Lithology:  INTERP LTH DESC
 FTOP.          Formation Tops:  FORM TOPS DESC
 PDAT.          Mean Sea Level:  PERMANENT DATUM
 FLD .                     ACG:  FIELD NAME
 CTRY.              Azerbaijan:  COUNTRY NAME
 WELL.                    E04x:  WELL NAME
 SRVC.          Turan Drilling:  CONTRACTOR
 COMP.     BP Exploration (Caspian Sea) Ltd.:  COMPANY
 SON .        AZ-XX-0906531346:  JOB NUMBER
 WTYP.                Deviated:  WELL TYPE
 MDS .        Operator Entered:  MAG DATA SOURCE
 UWI .                     N/A:  UNIQUE WELL IDENTIFIER
 API .                     N/A:  API NUMBER
 BASE.              Azerbaijan:  LOGGING EQUIPMENT BASE LOCATION
 REGN.                   EESSA:  REGION
 PROV.                    Baku:  PROVINCE
 STAT.                    Baku:  STATE NAME
 MWDS.                    Baku:  MWD SHOP
 JOBN.        AZ-XX-0906531346:  JOB TICKET NUMB
 RIG .                     DWG:  RIG NAME
 DOE .                     N/A:  DOE NUMBER
 DCON.         Sperry Drilling:  DIRECTNL CONTR
 UNIT.                     N/A:  LOGGING EQUIPMENT ID
 CNTY.                        :  COUNTY
 LOC .                        :  LOCATION
 LMF .             Drill Floor:  LOG MEASURED FROM
 TVDS.m                  43.16:  TVDSS CORRECTN
 LATI.deg                40.17:  LATITUDE
 LONG.deg                51.17:  LONGITUDE
 WHNS.m                  -0.12:  WELL HEAD N/S
 WHEW.m                  -5.41:  WELL HEAD E/W
 UTMX.m              514337.95:  UTM X
 UTMY.m             4448627.46:  UTM Y
 DFWL.m                   0.00:  DISTANCE FWL
 DFSL.m                   0.00:  DISTANCE FSL
 SDEP.m                3088.01:  START DEPTH
 TDD .m                5200.01:  TOTAL DEPTH (DRILLER)
 VSDR.deg               244.51:  VERT SEC DIRECT
 GVFD.g                   1.00:  GRAVITY FIELD
 MFLD.nT              50329.80:  MAGNETIC FIELD
 MDIP.deg                59.63:  MAGNETIC DIP
 MDEC.deg                 6.59:  MAGNETIC DECL
 GRDC.deg                 0.09:  GRID CORRECTION
 AZTC.deg                 6.50:  AZM TOTAL CORR
 EPD .m                   0.00:  ELEVATION
 EGL .m                   0.00:  GROUND ELEVATION
 WDMS.m                 176.20:  WD ELEV
 APD .m                  43.16:  DEPTH ABOVE PD
 DEP .m                3084.71:  DEPTH
 AGAP.m                  43.16:  AIR GAP
 VSEW.m                  -5.41:  VERT SEC E/W
 VSNS.m                  -0.12:  VERT SEC N/S
 EKB .m                   0.00:  KB ELEVATION
 EDF .m                  43.16:  DF ELEVATION
 TDL .m                 243.00:  TOTAL DEPTH (LOGGER)
 VSC .                       0:  VS TO CLOSURE
 MAGU.                 1853542:  MAGUTM CHECKSUM
~Parameter Information Block
#MNEM.UNIT       Value        Description
#---------     -----------    ---------------------------
 AV  .mps                 1.91:  Ann Velocity 
 AVMX.mps                 2.52:  Max Ann Veloc 
 AZIF.deg               308.97:  Azm, Final 
 BHAT.        Rotary Steerable:  BHA Type 
 BROT.∞/30m               1.00:  Build Rotating 
 BS  .in                  6.50:  Bit Size 
 BSZ .in                  6.50:  Bit Size 
 BTPL.psig              350.00:  Bit Press Loss 
 CABU.                      No:  Customer Abuse 
 CGEO.           Asif Pashayev:  Customer Geo 
 COMM.                     ,[Å:  Run Comments 1 
 TCS .hr                 35.86:  Time Ciculation Ended 
 CV  .mps                 2.31:  Crit Velocity 
 CVMX.mps                 2.31:  Max Crit Veloc 
 DD1 .         Intigam Rahimov:  Direct Drillr 1 
 DDSV.               Geo-Pilot:  DD Service 
 DEFF.%                  92.00:  % Det Eff 
 DLRX.∞/30m               1.00:  Dogleg Rot Max 
 DLSO.∞/30m               1.00:  Dogleg Oriented 
 DLSX.∞/30m               1.42:  Dogleg Str Max 
 DRET.      15.50.00 07-Aug-20:  Drill End Time 
 DRST.      10.40.00 06-Aug-20:  Drill Start Tim 
 DTIM.hr                 21.30:  Time Drilling 
 EDEP.m                5200.01:  End Depth 
 ENG1.            Alan Tuganov:  Engineer 1 
 ENG2.         Almaz Almadatov:  Engineer 2 
 ENG3.     Zammelal Abdullah Sani:  Engineer 3 
 ETIM.      22.42.00 08-Aug-20:  End Time 
 FLOI.gpm               395.00:  Flow In 
 FLON.gpm               350.00:  Flow In Min 
 FLOS.cptm                0.00:  Fluid Loss 
 FLOX.gpm               404.00:  Flow In Max 
 FTRO.       Formation Presure:  FTWD Run Obj 
 HFLO.                      No:  High Flow 
 HPRE.                      No:  High Pressure 
 HTEM.                      No:  High Temp 
 HYDO.m                   1.80:  Hydro Offset 
 IFIN.deg                72.64:  Inc, Final 
 IMAX.deg                73.68:  Inc Max 
 IMIN.deg                72.64:  Inc Min 
 IMND.m                5189.69:  Inc Min Depth 
 IMXD.m                5067.88:  Inc Max Depth 
 JARR.                      No:  Jarring 
 LETM.      15.50.00 07-Aug-20:  Log End Time 
 LOST.hr                     0:  Lost Rig Time 
 LSTM.      10.40.00 06-Aug-20:  Log Start Time 
 MDCL.ppm             36000.00:  Mud Chlorides 
 MDES.     Inversion Oil/Synthetic:  Mud Desc 
 DFD .sg                  1.36:  Mud Density 
 MDMN.sg                  1.36:  Dens Mud Min 
 MDMX.sg                  1.36:  Dens Mud Max 
 MOIL.                      70:  Run Mud Oil % 
 MOWR.                   70:30:  Run Mud OWR 
 MSND.                    0.00:  Run Mud Sand % 
 MSOL.                   17.60:  Run Mud Solids% 
 DFV .spqt               73.00:  Mud Viscosity 
 MWOD.in                  4.75:  MWD Tool OD 
 MWSI.                      No:  Serv Intrp, MWD 
 OTIM.hr                 85.66:  Time Operating 
 PCON.           Look Like New:  Pad Condition 
 PMAX.psia             6250.00:  Press Op, Max 
 PV  .cP                 65.00:  Mud PV 
 RUN .                     900:  Run Number 
 ROPA.m/hr               11.40:  ROP Avg 
 ROPN.m/hr                5.00:  ROP Min 
 ROPX.m/hr               20.00:  ROP Max 
 RPMA.rpm               130.00:  RPM Surface Avg 
 RPMN.rpm                40.00:  RPM Surface Min 
 RPMX.rpm               140.00:  RPM Surface Max 
 RRUN.                    L205:  Rig Run Number 
 RTIM.hr                  1.00:  Time Reaming 
 SAZI.deg               313.52:  Azm, Start 
 SDEP.m                4957.01:  Start Depth 
 SIDD.                      No:  Serv Intrp, DD 
 SINC.deg                73.16:  Inc, Start 
 SPPA.psig             5657.00:  SPP Avg 
 SPPN.psig             2500.00:  SPP Min 
 SPPX.psig             5806.00:  SPP Max 
 STIM.      07.12.00 05-Aug-20:  Start Time 
 SVCS.                 DD, MWD:  Services 
 SVER.                    9.20:  Sperry Version 
 TDAT.m                 243.00:  Tot Depth Attmp 
 TDDF.                      No:  Trip for DD 
 TDLG.m                 243.00:  Tot Depth Loggd 
 TFF .                      No:  Trip for Fail 
 TQAA.f-kp               13.00:  Torque Abs Avg 
 TQAN.f-kp               11.00:  Torque Abs Min 
 TQAX.f-kp               16.00:  Torque Abs Max 
 TRRT.∞/30m               1.00:  Turn Rotating 
 MRT .                    HCIM:  Maximum Recorded Temperature 
 TTMX.degC               96.08:  Max Tool Temp 
 VS01.                90515411:  Virtual Str1 SN 
 VS02.                90512716:  Virtual Str2 SN 
 VS03.                90522362:  Virtual Str3 SN 
 VS04.                90619415:  Virtual Str4 SN 
 VS05.                90619414:  Virtual Str5 SN 
 VS06.                90597748:  Virtual Str6 SN 
 WBMN.klb                 2.00:  WOB Min 
 WITN.           Adil Mammadov:  Customer Rep 
 WITN.     Alexander Yadullayev:  Customer Rep 2 
 WOBA.klb                 7.00:  WOB Avg 
 WOBX.klb                23.00:  WOB Max 
 YP  .lhf2               37.00:  Yield Point 
~Curve Information Block
#MNEM.UNIT                 API CODE     Curve Description
#---------               -----------    ---------------------------
 TIME.HHMMSS            00 000 000 000:  GT Time & Date
 GTDEPTH.m              00 000 000 000:  GT Depth
 GTPQH.psia             00 000 000 000:  GT HR Quartz Pressure
 GTTQ.degC              00 000 000 000:  GT Quartz Temperature
 GTTN.NONE              00 000 000 000:  GT Test Number
 GTET.sec               00 000 000 000:  GT Elapsed Test Time
 GTTVD.m                00 000 000 000:  GT True Vertical Depth
#Other Information
#
#WARRANTY: Halliburton will use its best efforts to furnish customers with 
#accurate information and interpretations that are part of, and incident to, the services 
#provided.  However, Halliburton cannot and does not warrant the accuracy 
#or correctness of such information and interpretations.  Under no circumstances should any 
#such information or interpretation be relied upon as the sole basis for any drilling, 
#completion, production, or financial decision or any procedure involving any risk to the 
#safety of any drilling venture, drilling rig or its crew or any other third party.  The 
#Customer has full responsibility for all drilling, completion and production operation.  
#Halliburton makes no representations or warranties, either expressed or 
#implied, including, but not limited to, the implied warranties of merchantability or fitness 
#for a particular purpose, with respect to the services rendered.  In no event will 
#Halliburton be liable for failure to obtain any particular results or for 
#any damages, including, but not limited to, indirect, special or consequential damages, 
#resulting from the use of any information or interpretation provided by Halliburton.
#
~A           TIME           GTDEPTH  GTPQH  GTTQ  GTTN  GTET   GTTVD  
# ...
   09:25:15.512.07-Aug-2020 5109.01 3406.52 86.45 9.00 206.94 2677.54
   09:25:15.712.07-Aug-2020 5109.01 3406.52 86.45 9.00 207.14 2677.54
   09:25:15.912.07-Aug-2020 5109.01 3406.53 86.45 9.00 207.34 2677.54
   09:25:16.112.07-Aug-2020 5109.01 3406.50 86.45 9.00 207.54 2677.54
   09:25:16.312.07-Aug-2020 5109.01 3406.52 86.45 9.00 207.74 2677.54
   09:25:16.512.07-Aug-2020 5109.01 3406.41 86.45 9.00 207.94 2677.54
   09:25:16.712.07-Aug-2020 5109.01 3406.41 86.45 9.00 208.14 2677.54
   09:25:16.912.07-Aug-2020 5109.01 3406.55 86.45 9.00 208.34 2677.54
   09:25:17.112.07-Aug-2020 5109.01 3406.51 86.45 9.00 208.54 2677.54
   09:25:17.312.07-Aug-2020 5109.01 3406.37 86.45 9.00 208.74 2677.54
   09:25:17.512.07-Aug-2020 5109.01 3406.62 86.45 9.00 208.94 2677.54
   09:25:17.712.07-Aug-2020 5109.01 3406.56 86.45 9.00 209.14 2677.54
   09:25:17.912.07-Aug-2020 5109.01 3406.50 86.45 9.00 209.34 2677.54
   09:25:18.112.07-Aug-2020 5109.01 3406.53 86.45 9.00 209.54 2677.54
   09:25:18.311.07-Aug-2020 5109.01 3406.50 86.45 9.00 209.74 2677.54
   09:25:18.511.07-Aug-2020 5109.01 3406.48 86.45 9.00 209.94 2677.54
   09:25:18.711.07-Aug-2020 5109.01 3406.48 86.45 9.00 210.14 2677.54
   09:25:18.911.07-Aug-2020 5109.01 3406.50 86.45 9.00 210.34 2677.54
   09:25:19.111.07-Aug-2020 5109.01 3406.54 86.45 9.00 210.54 2677.54
   09:25:19.311.07-Aug-2020 5109.01 3406.55 86.45 9.00 210.74 2677.54
   09:25:19.511.07-Aug-2020 5109.01 3406.43 86.45 9.00 210.94 2677.54
   09:25:19.711.07-Aug-2020 5109.01 3406.43 86.45 9.00 211.14 2677.54
   09:25:19.911.07-Aug-2020 5109.01 3406.54 86.44 9.00 211.34 2677.54
   09:25:20.111.07-Aug-2020 5109.01 3406.50 86.44 9.00 211.54 2677.54
   09:25:20.311.07-Aug-2020 5109.01 3406.54 86.44 9.00 211.74 2677.54
   09:25:20.511.07-Aug-2020 5109.01 3406.54 86.44 9.00 211.94 2677.54
   09:25:20.711.07-Aug-2020 5109.01 3406.54 86.44 9.00 212.14 2677.54
   09:25:20.911.07-Aug-2020 5109.01 3406.53 86.44 9.00 212.34 2677.54
   09:25:21.111.07-Aug-2020 5109.01 3406.52 86.44 9.00 212.54 2677.54
   09:25:21.311.07-Aug-2020 5109.01 3406.52 86.44 9.00 212.74 2677.54
   09:25:21.510.07-Aug-2020 5109.01 3406.51 86.44 9.00 212.94 2677.54
   09:25:21.710.07-Aug-2020 5109.01 3406.53 86.44 9.00 213.14 2677.54
   09:25:21.910.07-Aug-2020 5109.01 3406.52 86.44 9.00 213.34 2677.54
   09:25:22.110.07-Aug-2020 5109.01 3406.52 86.44 9.00 213.54 2677.54
   09:25:22.310.07-Aug-2020 5109.01 3406.43 86.44 9.00 213.74 2677.54
   09:25:22.510.07-Aug-2020 5109.01 3406.54 86.44 9.00 213.94 2677.54
   09:25:22.710.07-Aug-2020 5109.01 3406.54 86.44 9.00 214.14 2677.54
   09:25:22.910.07-Aug-2020 5109.01 3406.51 86.44 9.00 214.34 2677.54
   09:25:23.110.07-Aug-2020 5109.01 3406.53 86.44 9.00 214.54 2677.54
   09:25:23.310.07-Aug-2020 5109.01 3406.52 86.44 9.00 214.74 2677.54
   09:25:23.510.07-Aug-2020 5109.01 3406.51 86.44 9.00 214.94 2677.54
   09:25:23.710.07-Aug-2020 5109.01 3406.51 86.44 9.00 215.14 2677.54
   09:25:23.910.07-Aug-2020 5109.01 3406.52 86.44 9.00 215.34 2677.54
   09:25:24.110.07-Aug-2020 5109.01 3406.52 86.44 9.00 215.54 2677.54
   09:25:24.310.07-Aug-2020 5109.01 3406.52 86.44 9.00 215.74 2677.54
   09:25:24.510.07-Aug-2020 5109.01 3406.52 86.44 9.00 215.93 2677.54
   09:25:24.710.07-Aug-2020 5109.01 3406.52 86.44 9.00 216.13 2677.54
   09:25:24.909.07-Aug-2020 5109.01 3406.45 86.44 9.00 216.33 2677.54
   09:25:25.109.07-Aug-2020 5109.01 3406.52 86.44 9.00 216.53 2677.54
   09:25:25.309.07-Aug-2020 5109.01 3406.51 86.44 9.00 216.73 2677.54
   09:25:25.509.07-Aug-2020 5109.01 3406.50 86.44 9.00 216.93 2677.54
   09:25:25.709.07-Aug-2020 5109.01 3406.50 86.44 9.00 217.13 2677.54
   09:25:25.909.07-Aug-2020 5109.01 3406.48 86.44 9.00 217.33 2677.54
   09:25:26.109.07-Aug-2020 5109.01 3406.52 86.43 9.00 217.53 2677.54
   09:25:26.309.07-Aug-2020 5109.01 3406.51 86.43 9.00 217.73 2677.54
   09:25:26.509.07-Aug-2020 5109.01 3406.55 86.43 9.00 217.93 2677.54
   09:25:26.709.07-Aug-2020 5109.01 3406.55 86.43 9.00 218.13 2677.54
   09:25:26.909.07-Aug-2020 5109.01 3406.34 86.43 9.00 218.33 2677.54
   09:25:27.109.07-Aug-2020 5109.01 3406.63 86.43 9.00 218.53 2677.54
   09:25:27.309.07-Aug-2020 5109.01 3406.56 86.43 9.00 218.73 2677.54
   09:25:27.509.07-Aug-2020 5109.01 3406.48 86.43 9.00 218.93 2677.54
   09:25:27.709.07-Aug-2020 5109.01 3406.48 86.43 9.00 219.13 2677.54
   09:25:27.909.07-Aug-2020 5109.01 3406.53 86.43 9.00 219.33 2677.54
   09:25:28.109.07-Aug-2020 5109.01 3406.43 86.43 9.00 219.53 2677.54
   09:25:28.308.07-Aug-2020 5109.01 3406.55 86.43 9.00 219.73 2677.54
   09:25:28.508.07-Aug-2020 5109.01 3406.52 86.43 9.00 219.93 2677.54
   09:25:28.708.07-Aug-2020 5109.01 3406.52 86.43 9.00 220.13 2677.54
   09:25:28.908.07-Aug-2020 5109.01 3406.53 86.43 9.00 220.33 2677.54
   09:25:29.108.07-Aug-2020 5109.01 3406.51 86.43 9.00 220.53 2677.54
   09:25:29.308.07-Aug-2020 5109.01 3406.52 86.43 9.00 220.73 2677.54
   09:25:29.508.07-Aug-2020 5109.01 3406.50 86.43 9.00 220.93 2677.54
   09:25:29.708.07-Aug-2020 5109.01 3406.51 86.43 9.00 221.13 2677.54
   09:25:29.908.07-Aug-2020 5109.01 3406.51 86.43 9.00 221.33 2677.54
   09:25:30.108.07-Aug-2020 5109.01 3406.52 86.43 9.00 221.53 2677.54
   09:25:30.308.07-Aug-2020 5109.01 3406.49 86.43 9.00 221.73 2677.54
   09:25:30.508.07-Aug-2020 5109.01 3406.52 86.43 9.00 221.93 2677.54
   09:25:30.708.07-Aug-2020 5109.01 3406.52 86.43 9.00 222.13 2677.54
   09:25:30.908.07-Aug-2020 5109.01 3406.56 86.43 9.00 222.33 2677.54
   09:25:31.108.07-Aug-2020 5109.01 3406.53 86.43 9.00 222.53 2677.54
   09:25:31.308.07-Aug-2020 5109.01 3406.48 86.43 9.00 222.73 2677.54
   09:25:31.507.07-Aug-2020 5109.01 3406.53 86.43 9.00 222.93 2677.54
   09:25:31.707.07-Aug-2020 5109.01 3406.53 86.43 9.00 223.13 2677.54
   09:25:31.907.07-Aug-2020 5109.01 3406.49 86.43 9.00 223.33 2677.54
   09:25:32.107.07-Aug-2020 5109.01 3406.52 86.43 9.00 223.53 2677.54
   09:25:32.307.07-Aug-2020 5109.01 3406.51 86.42 9.00 223.73 2677.54
   09:25:32.507.07-Aug-2020 5109.01 3406.51 86.42 9.00 223.93 2677.54
   09:25:32.707.07-Aug-2020 5109.01 3406.51 86.42 9.00 224.13 2677.54
   09:25:32.907.07-Aug-2020 5109.01 3406.50 86.42 9.00 224.33 2677.54
   09:25:33.107.07-Aug-2020 5109.01 3406.51 86.42 9.00 224.53 2677.54
   09:25:33.307.07-Aug-2020 5109.01 3406.51 86.42 9.00 224.73 2677.54
   09:25:33.507.07-Aug-2020 5109.01 3406.36 86.42 9.00 224.93 2677.54
   09:25:33.707.07-Aug-2020 5109.01 3406.36 86.42 9.00 225.13 2677.54
   09:25:33.907.07-Aug-2020 5109.01 3406.54 86.42 9.00 225.33 2677.54
   09:25:34.107.07-Aug-2020 5109.01 3406.48 86.42 9.00 225.53 2677.54
   09:25:34.307.07-Aug-2020 5109.01 3406.37 86.42 9.00 225.73 2677.54
   09:25:34.507.07-Aug-2020 5109.01 3406.61 86.42 9.00 225.93 2677.54
   09:25:34.707.07-Aug-2020 5109.01 3406.61 86.42 9.00 226.13 2677.54
   09:25:34.906.07-Aug-2020 5109.01 3406.47 86.42 9.00 226.33 2677.54
   09:25:35.106.07-Aug-2020 5109.01 3406.55 86.42 9.00 226.53 2677.54
   09:25:35.306.07-Aug-2020 5109.01 3406.49 86.42 9.00 226.73 2677.54
   09:25:35.506.07-Aug-2020 5109.01 3406.47 86.42 9.00 226.93 2677.54
   09:25:35.706.07-Aug-2020 5109.01 3406.47 86.42 9.00 227.13 2677.54
   09:25:35.906.07-Aug-2020 5109.01 3406.50 86.42 9.00 227.33 2677.54
   09:25:36.106.07-Aug-2020 5109.01 3406.53 86.42 9.00 227.53 2677.54
   09:25:36.306.07-Aug-2020 5109.01 3406.53 86.42 9.00 227.73 2677.54
   09:25:36.506.07-Aug-2020 5109.01 3406.41 86.42 9.00 227.93 2677.54
   09:25:36.706.07-Aug-2020 5109.01 3406.41 86.42 9.00 228.13 2677.54
   09:25:36.906.07-Aug-2020 5109.01 3406.53 86.42 9.00 228.33 2677.54
   09:25:37.106.07-Aug-2020 5109.01 3406.47 86.42 9.00 228.53 2677.54
   09:25:37.306.07-Aug-2020 5109.01 3406.53 86.42 9.00 228.73 2677.54
   09:25:37.506.07-Aug-2020 5109.01 3406.53 86.42 9.00 228.93 2677.54
   09:25:37.706.07-Aug-2020 5109.01 3406.50 86.42 9.00 229.13 2677.54
   09:25:37.906.07-Aug-2020 5109.01 3406.52 86.42 9.00 229.33 2677.54
   09:25:38.105.07-Aug-2020 5109.01 3406.52 86.42 9.00 229.53 2677.54
   09:25:38.305.07-Aug-2020 5109.01 3406.51 86.42 9.00 229.73 2677.54
