~Version Information
 VERS.                  2.0:   CWLS log ASCII Standard -VERSION 2.0
 WRAP.                   NO:   One line per depth step
~Well Information Block
#MNEM.UNIT     VALUE/NAME     DESCRIPTION
#---------     -----------    ---------------------------
 STRT.S             16:10:03 06-Aug-20: START TIME 16:10:03 06-Aug-20
 STOP.S             16:17:57 06-Aug-20: STOP TIME  16:17:57 06-Aug-20
 STEP.S                   0.00: STEP TIME
 NULL.                 -999.25: NULL VALUE
 DFWT.                        :  DIST FWL TEXT
 DFST.                        :  DIST FSL TEXT
 DMF .             Drill Floor:  DRILL MEAS FROM
 STIM.      12.00.00 03-Jul-20:  START TIME
 DATE.      00.50.00 09-Aug-20:  END TIME
 SPUD.               03-Jul-20:  SPUD DATE
 NREF.                    Grid:  NORTH REFERENCE
 HPTY.       Minimum Curvature:  HOLE POS TYPE
 DMOD.             Drill Model:  DRILL MOD DESC
 SVYD.                  Survey:  SURVEY DESC
 ILTD.               Lithology:  INTERP LTH DESC
 FTOP.          Formation Tops:  FORM TOPS DESC
 PDAT.          Mean Sea Level:  PERMANENT DATUM
 FLD .                     ACG:  FIELD NAME
 CTRY.              Azerbaijan:  COUNTRY NAME
 WELL.                    E04x:  WELL NAME
 SRVC.          Turan Drilling:  CONTRACTOR
 COMP.     BP Exploration (Caspian Sea) Ltd.:  COMPANY
 SON .        AZ-XX-0906531346:  JOB NUMBER
 WTYP.                Deviated:  WELL TYPE
 MDS .        Operator Entered:  MAG DATA SOURCE
 UWI .                     N/A:  UNIQUE WELL IDENTIFIER
 API .                     N/A:  API NUMBER
 BASE.              Azerbaijan:  LOGGING EQUIPMENT BASE LOCATION
 REGN.                   EESSA:  REGION
 PROV.                    Baku:  PROVINCE
 STAT.                    Baku:  STATE NAME
 MWDS.                    Baku:  MWD SHOP
 JOBN.        AZ-XX-0906531346:  JOB TICKET NUMB
 RIG .                     DWG:  RIG NAME
 DOE .                     N/A:  DOE NUMBER
 DCON.         Sperry Drilling:  DIRECTNL CONTR
 UNIT.                     N/A:  LOGGING EQUIPMENT ID
 CNTY.                        :  COUNTY
 LOC .                        :  LOCATION
 LMF .             Drill Floor:  LOG MEASURED FROM
 TVDS.m                  43.16:  TVDSS CORRECTN
 LATI.deg                40.17:  LATITUDE
 LONG.deg                51.17:  LONGITUDE
 WHNS.m                  -0.12:  WELL HEAD N/S
 WHEW.m                  -5.41:  WELL HEAD E/W
 UTMX.m              514337.95:  UTM X
 UTMY.m             4448627.46:  UTM Y
 DFWL.m                   0.00:  DISTANCE FWL
 DFSL.m                   0.00:  DISTANCE FSL
 SDEP.m                3088.01:  START DEPTH
 TDD .m                5200.01:  TOTAL DEPTH (DRILLER)
 VSDR.deg               244.51:  VERT SEC DIRECT
 GVFD.g                   1.00:  GRAVITY FIELD
 MFLD.nT              50329.80:  MAGNETIC FIELD
 MDIP.deg                59.63:  MAGNETIC DIP
 MDEC.deg                 6.59:  MAGNETIC DECL
 GRDC.deg                 0.09:  GRID CORRECTION
 AZTC.deg                 6.50:  AZM TOTAL CORR
 EPD .m                   0.00:  ELEVATION
 EGL .m                   0.00:  GROUND ELEVATION
 WDMS.m                 176.20:  WD ELEV
 APD .m                  43.16:  DEPTH ABOVE PD
 DEP .m                3084.71:  DEPTH
 AGAP.m                  43.16:  AIR GAP
 VSEW.m                  -5.41:  VERT SEC E/W
 VSNS.m                  -0.12:  VERT SEC N/S
 EKB .m                   0.00:  KB ELEVATION
 EDF .m                  43.16:  DF ELEVATION
 TDL .m                 243.00:  TOTAL DEPTH (LOGGER)
 VSC .                       0:  VS TO CLOSURE
 MAGU.                 1853542:  MAGUTM CHECKSUM
~Parameter Information Block
#MNEM.UNIT       Value        Description
#---------     -----------    ---------------------------
 AV  .mps                 1.91:  Ann Velocity 
 AVMX.mps                 2.52:  Max Ann Veloc 
 AZIF.deg               308.97:  Azm, Final 
 BHAT.        Rotary Steerable:  BHA Type 
 BROT.°/30m               1.00:  Build Rotating 
 BS  .in                  6.50:  Bit Size 
 BSZ .in                  6.50:  Bit Size 
 BTPL.psig              350.00:  Bit Press Loss 
 CABU.                      No:  Customer Abuse 
 CGEO.           Asif Pashayev:  Customer Geo 
 COMM.                     Ôöj:  Run Comments 1 
 TCS .hr                 35.86:  Time Ciculation Ended 
 CV  .mps                 2.31:  Crit Velocity 
 CVMX.mps                 2.31:  Max Crit Veloc 
 DD1 .         Intigam Rahimov:  Direct Drillr 1 
 DDSV.               Geo-Pilot:  DD Service 
 DEFF.%                  92.00:  % Det Eff 
 DLRX.°/30m               1.00:  Dogleg Rot Max 
 DLSO.°/30m               1.00:  Dogleg Oriented 
 DLSX.°/30m               1.42:  Dogleg Str Max 
 DRET.      15.50.00 07-Aug-20:  Drill End Time 
 DRST.      10.40.00 06-Aug-20:  Drill Start Tim 
 DTIM.hr                 21.30:  Time Drilling 
 EDEP.m                5200.01:  End Depth 
 ENG1.            Alan Tuganov:  Engineer 1 
 ENG2.         Almaz Almadatov:  Engineer 2 
 ENG3.     Zammelal Abdullah Sani:  Engineer 3 
 ETIM.      22.42.00 08-Aug-20:  End Time 
 FLOI.gpm               395.00:  Flow In 
 FLON.gpm               350.00:  Flow In Min 
 FLOS.cptm                0.00:  Fluid Loss 
 FLOX.gpm               404.00:  Flow In Max 
 FTRO.       Formation Presure:  FTWD Run Obj 
 HFLO.                      No:  High Flow 
 HPRE.                      No:  High Pressure 
 HTEM.                      No:  High Temp 
 HYDO.m                   1.80:  Hydro Offset 
 IFIN.deg                72.64:  Inc, Final 
 IMAX.deg                73.68:  Inc Max 
 IMIN.deg                72.64:  Inc Min 
 IMND.m                5189.69:  Inc Min Depth 
 IMXD.m                5067.88:  Inc Max Depth 
 JARR.                      No:  Jarring 
 LETM.      15.50.00 07-Aug-20:  Log End Time 
 LOST.hr                     0:  Lost Rig Time 
 LSTM.      10.40.00 06-Aug-20:  Log Start Time 
 MDCL.ppm             36000.00:  Mud Chlorides 
 MDES.     Inversion Oil/Synthetic:  Mud Desc 
 DFD .sg                  1.36:  Mud Density 
 MDMN.sg                  1.36:  Dens Mud Min 
 MDMX.sg                  1.36:  Dens Mud Max 
 MOIL.                      70:  Run Mud Oil % 
 MOWR.                   70:30:  Run Mud OWR 
 MSND.                    0.00:  Run Mud Sand % 
 MSOL.                   17.60:  Run Mud Solids% 
 DFV .spqt               73.00:  Mud Viscosity 
 MWOD.in                  4.75:  MWD Tool OD 
 MWSI.                      No:  Serv Intrp, MWD 
 OTIM.hr                 85.66:  Time Operating 
 PCON.           Look Like New:  Pad Condition 
 PMAX.psia             6250.00:  Press Op, Max 
 PV  .cP                 65.00:  Mud PV 
 RUN .                     900:  Run Number 
 ROPA.m/hr               11.40:  ROP Avg 
 ROPN.m/hr                5.00:  ROP Min 
 ROPX.m/hr               20.00:  ROP Max 
 RPMA.rpm               130.00:  RPM Surface Avg 
 RPMN.rpm                40.00:  RPM Surface Min 
 RPMX.rpm               140.00:  RPM Surface Max 
 RRUN.                    L205:  Rig Run Number 
 RTIM.hr                  1.00:  Time Reaming 
 SAZI.deg               313.52:  Azm, Start 
 SDEP.m                4957.01:  Start Depth 
 SIDD.                      No:  Serv Intrp, DD 
 SINC.deg                73.16:  Inc, Start 
 SPPA.psig             5657.00:  SPP Avg 
 SPPN.psig             2500.00:  SPP Min 
 SPPX.psig             5806.00:  SPP Max 
 STIM.      07.12.00 05-Aug-20:  Start Time 
 SVCS.                 DD, MWD:  Services 
 SVER.                    9.20:  Sperry Version 
 TDAT.m                 243.00:  Tot Depth Attmp 
 TDDF.                      No:  Trip for DD 
 TDLG.m                 243.00:  Tot Depth Loggd 
 TFF .                      No:  Trip for Fail 
 TQAA.f-kp               13.00:  Torque Abs Avg 
 TQAN.f-kp               11.00:  Torque Abs Min 
 TQAX.f-kp               16.00:  Torque Abs Max 
 TRRT.°/30m               1.00:  Turn Rotating 
 MRT .                    HCIM:  Maximum Recorded Temperature 
 TTMX.degC               96.08:  Max Tool Temp 
 VS01.                90515411:  Virtual Str1 SN 
 VS02.                90512716:  Virtual Str2 SN 
 VS03.                90522362:  Virtual Str3 SN 
 VS04.                90619415:  Virtual Str4 SN 
 VS05.                90619414:  Virtual Str5 SN 
 VS06.                90597748:  Virtual Str6 SN 
 WBMN.klb                 2.00:  WOB Min 
 WITN.           Adil Mammadov:  Customer Rep 
 WITN.     Alexander Yadullayev:  Customer Rep 2 
 WOBA.klb                 7.00:  WOB Avg 
 WOBX.klb                23.00:  WOB Max 
 YP  .lhf2               37.00:  Yield Point 
~Curve Information Block
#MNEM.UNIT                 API CODE     Curve Description
#---------               -----------    ---------------------------
 TIME.HHMMSS            00 000 000 000:  GT Time & Date
 GTDEPTH.m              00 000 000 000:  GT Depth
 GTPQH.psia             00 000 000 000:  GT HR Quartz Pressure
 GTTQ.degC              00 000 000 000:  GT Quartz Temperature
 GTTN.NONE              00 000 000 000:  GT Test Number
 GTET.sec               00 000 000 000:  GT Elapsed Test Time
 GTTVD.m                00 000 000 000:  GT True Vertical Depth
#Other Information
#
#WARRANTY: Halliburton will use its best efforts to furnish customers with 
#accurate information and interpretations that are part of, and incident to, the services 
#provided.  However, Halliburton cannot and does not warrant the accuracy 
#or correctness of such information and interpretations.  Under no circumstances should any 
#such information or interpretation be relied upon as the sole basis for any drilling, 
#completion, production, or financial decision or any procedure involving any risk to the 
#safety of any drilling venture, drilling rig or its crew or any other third party.  The 
#Customer has full responsibility for all drilling, completion and production operation.  
#Halliburton makes no representations or warranties, either expressed or 
#implied, including, but not limited to, the implied warranties of merchantability or fitness 
#for a particular purpose, with respect to the services rendered.  In no event will 
#Halliburton be liable for failure to obtain any particular results or for 
#any damages, including, but not limited to, indirect, special or consequential damages, 
#resulting from the use of any information or interpretation provided by Halliburton.
#
~A           TIME           GTDEPTH  GTPQH  GTTQ  GTTN  GTET   GTTVD  
# ...
   16:11:35.477.06-Aug-2020 4955.01 4255.61 80.82 2.00  92.02 2633.27
   16:11:35.677.06-Aug-2020 4955.01 4255.61 80.82 2.00  92.22 2633.27
   16:11:35.877.06-Aug-2020 4955.01 4255.67 80.82 2.00  92.42 2633.27
   16:11:36.077.06-Aug-2020 4955.01 4255.65 80.81 2.00  92.62 2633.27
   16:11:36.277.06-Aug-2020 4955.01 4255.65 80.81 2.00  92.82 2633.27
   16:11:36.477.06-Aug-2020 4955.01 4255.70 80.81 2.00  93.02 2633.27
   16:11:36.677.06-Aug-2020 4955.01 4255.70 80.81 2.00  93.22 2633.27
   16:11:36.877.06-Aug-2020 4955.01 4255.70 80.81 2.00  93.42 2633.27
   16:11:37.077.06-Aug-2020 4955.01 4255.71 80.81 2.00  93.62 2633.27
   16:11:37.277.06-Aug-2020 4955.01 4255.70 80.81 2.00  93.82 2633.27
   16:11:37.477.06-Aug-2020 4955.01 4255.39 80.81 2.00  94.02 2633.27
   16:11:37.677.06-Aug-2020 4955.01 4255.39 80.81 2.00  94.22 2633.27
   16:11:37.877.06-Aug-2020 4955.01 4255.73 80.81 2.00  94.42 2633.27
   16:11:38.077.06-Aug-2020 4955.01 4255.74 80.81 2.00  94.62 2633.27
   16:11:38.278.06-Aug-2020 4955.01 4255.77 80.81 2.00  94.82 2633.27
   16:11:38.478.06-Aug-2020 4955.01 4255.77 80.81 2.00  95.02 2633.27
   16:11:38.678.06-Aug-2020 4955.01 4255.77 80.81 2.00  95.22 2633.27
   16:11:38.878.06-Aug-2020 4955.01 4255.84 80.81 2.00  95.42 2633.27
   16:11:39.078.06-Aug-2020 4955.01 4255.86 80.81 2.00  95.62 2633.27
   16:11:39.278.06-Aug-2020 4955.01 4255.87 80.81 2.00  95.82 2633.27
   16:11:39.478.06-Aug-2020 4955.01 4255.88 80.81 2.00  96.02 2633.27
   16:11:39.678.06-Aug-2020 4955.01 4255.88 80.81 2.00  96.22 2633.27
   16:11:39.878.06-Aug-2020 4955.01 4255.88 80.80 2.00  96.42 2633.27
   16:11:40.078.06-Aug-2020 4955.01 4255.89 80.80 2.00  96.62 2633.27
   16:11:40.278.06-Aug-2020 4955.01 4255.59 80.80 2.00  96.82 2633.27
   16:11:40.478.06-Aug-2020 4955.01 4255.76 80.80 2.00  97.02 2633.27
   16:11:40.678.06-Aug-2020 4955.01 4255.76 80.80 2.00  97.22 2633.27
   16:11:40.878.06-Aug-2020 4955.01 4255.92 80.80 2.00  97.42 2633.27
   16:11:41.078.06-Aug-2020 4955.01 4255.93 80.80 2.00  97.62 2633.27
   16:11:41.278.06-Aug-2020 4955.01 4255.94 80.80 2.00  97.82 2633.27
   16:11:41.478.06-Aug-2020 4955.01 4255.75 80.80 2.00  98.02 2633.27
   16:11:41.678.06-Aug-2020 4955.01 4255.75 80.80 2.00  98.22 2633.27
   16:11:41.878.06-Aug-2020 4955.01 4256.03 80.80 2.00  98.42 2633.27
   16:11:42.078.06-Aug-2020 4955.01 4256.05 80.80 2.00  98.62 2633.27
   16:11:42.278.06-Aug-2020 4955.01 4255.96 80.80 2.00  98.82 2633.27
   16:11:42.478.06-Aug-2020 4955.01 4255.87 80.80 2.00  99.02 2633.27
   16:11:42.678.06-Aug-2020 4955.01 4255.95 80.80 2.00  99.22 2633.27
   16:11:42.879.06-Aug-2020 4955.01 4256.05 80.80 2.00  99.42 2633.27
   16:11:43.079.06-Aug-2020 4955.01 4256.11 80.80 2.00  99.62 2633.27
   16:11:43.279.06-Aug-2020 4955.01 4256.14 80.80 2.00  99.82 2633.27
   16:11:43.479.06-Aug-2020 4955.01 4255.95 80.80 2.00 100.02 2633.27
   16:11:43.679.06-Aug-2020 4955.01 4255.95 80.80 2.00 100.22 2633.27
   16:11:43.879.06-Aug-2020 4955.01 4256.15 80.79 2.00 100.42 2633.27
   16:11:44.079.06-Aug-2020 4955.01 4256.24 80.79 2.00 100.62 2633.27
   16:11:44.279.06-Aug-2020 4955.01 4256.28 80.79 2.00 100.82 2633.27
   16:11:44.479.06-Aug-2020 4955.01 4256.34 80.79 2.00 101.02 2633.27
   16:11:44.679.06-Aug-2020 4955.01 4256.34 80.79 2.00 101.22 2633.27
   16:11:44.879.06-Aug-2020 4955.01 4256.33 80.79 2.00 101.42 2633.27
   16:11:45.079.06-Aug-2020 4955.01 4256.32 80.79 2.00 101.62 2633.27
   16:11:45.279.06-Aug-2020 4955.01 4256.37 80.79 2.00 101.82 2633.27
   16:11:45.479.06-Aug-2020 4955.01 4256.36 80.79 2.00 102.02 2633.27
   16:11:45.679.06-Aug-2020 4955.01 4256.38 80.79 2.00 102.22 2633.27
   16:11:45.879.06-Aug-2020 4955.01 4256.36 80.79 2.00 102.42 2633.27
   16:11:46.079.06-Aug-2020 4955.01 4256.14 80.79 2.00 102.62 2633.27
   16:11:46.279.06-Aug-2020 4955.01 4256.24 80.79 2.00 102.82 2633.27
   16:11:46.479.06-Aug-2020 4955.01 4256.34 80.79 2.00 103.02 2633.27
   16:11:46.679.06-Aug-2020 4955.01 4256.34 80.79 2.00 103.22 2633.27
   16:11:46.879.06-Aug-2020 4955.01 4256.42 80.79 2.00 103.42 2633.27
   16:11:47.079.06-Aug-2020 4955.01 4256.41 80.79 2.00 103.62 2633.27
   16:11:47.279.06-Aug-2020 4955.01 4256.44 80.79 2.00 103.82 2633.27
   16:11:47.479.06-Aug-2020 4955.01 4256.43 80.79 2.00 104.02 2633.27
   16:11:47.680.06-Aug-2020 4955.01 4256.43 80.78 2.00 104.22 2633.27
   16:11:47.880.06-Aug-2020 4955.01 4256.46 80.78 2.00 104.42 2633.27
   16:11:48.080.06-Aug-2020 4955.01 4256.45 80.78 2.00 104.62 2633.27
   16:11:48.280.06-Aug-2020 4955.01 4256.45 80.78 2.00 104.82 2633.27
   16:11:48.480.06-Aug-2020 4955.01 4256.45 80.78 2.00 105.02 2633.27
   16:11:48.680.06-Aug-2020 4955.01 4256.45 80.78 2.00 105.22 2633.27
   16:11:48.880.06-Aug-2020 4955.01 4256.18 80.78 2.00 105.42 2633.27
   16:11:49.080.06-Aug-2020 4955.01 4256.34 80.78 2.00 105.62 2633.27
   16:11:49.280.06-Aug-2020 4955.01 4256.41 80.78 2.00 105.82 2633.27
   16:11:49.480.06-Aug-2020 4955.01 4256.49 80.78 2.00 106.02 2633.27
   16:11:49.680.06-Aug-2020 4955.01 4256.49 80.78 2.00 106.22 2633.27
   16:11:49.880.06-Aug-2020 4955.01 4256.54 80.78 2.00 106.42 2633.27
   16:11:50.080.06-Aug-2020 4955.01 4256.25 80.78 2.00 106.62 2633.27
   16:11:50.280.06-Aug-2020 4955.01 4256.46 80.78 2.00 106.82 2633.27
   16:11:50.480.06-Aug-2020 4955.01 4256.58 80.78 2.00 107.02 2633.27
   16:11:50.680.06-Aug-2020 4955.01 4256.60 80.78 2.00 107.22 2633.27
   16:11:50.880.06-Aug-2020 4955.01 4256.61 80.78 2.00 107.42 2633.27
   16:11:51.080.06-Aug-2020 4955.01 4256.33 80.78 2.00 107.62 2633.27
   16:11:51.280.06-Aug-2020 4955.01 4256.48 80.78 2.00 107.82 2633.27
   16:11:51.480.06-Aug-2020 4955.01 4256.61 80.77 2.00 108.02 2633.27
   16:11:51.680.06-Aug-2020 4955.01 4256.65 80.77 2.00 108.22 2633.27
   16:11:51.880.06-Aug-2020 4955.01 4256.68 80.77 2.00 108.42 2633.27
   16:11:52.080.06-Aug-2020 4955.01 4256.61 80.77 2.00 108.62 2633.27
   16:11:52.281.06-Aug-2020 4955.01 4256.54 80.77 2.00 108.82 2633.27
   16:11:52.481.06-Aug-2020 4955.01 4256.62 80.77 2.00 109.02 2633.27
   16:11:52.681.06-Aug-2020 4955.01 4256.62 80.77 2.00 109.22 2633.27
   16:11:52.881.06-Aug-2020 4955.01 4256.78 80.77 2.00 109.42 2633.27
   16:11:53.081.06-Aug-2020 4955.01 4256.82 80.77 2.00 109.62 2633.27
   16:11:53.281.06-Aug-2020 4955.01 4256.86 80.77 2.00 109.82 2633.27
   16:11:53.481.06-Aug-2020 4955.01 4256.87 80.77 2.00 110.02 2633.27
   16:11:53.681.06-Aug-2020 4955.01 4256.86 80.77 2.00 110.22 2633.27
   16:11:53.881.06-Aug-2020 4955.01 4256.87 80.77 2.00 110.42 2633.27
   16:11:54.081.06-Aug-2020 4955.01 4256.88 80.77 2.00 110.62 2633.27
   16:11:54.281.06-Aug-2020 4955.01 4256.86 80.77 2.00 110.82 2633.27
   16:11:54.481.06-Aug-2020 4955.01 4256.87 80.77 2.00 111.02 2633.27
   16:11:54.681.06-Aug-2020 4955.01 4256.87 80.77 2.00 111.22 2633.27
   16:11:54.881.06-Aug-2020 4955.01 4256.58 80.77 2.00 111.42 2633.27
   16:11:55.081.06-Aug-2020 4955.01 4256.73 80.77 2.00 111.62 2633.27
   16:11:55.281.06-Aug-2020 4955.01 4256.84 80.77 2.00 111.82 2633.27
   16:11:55.481.06-Aug-2020 4955.01 4256.87 80.77 2.00 112.02 2633.27
   16:11:55.681.06-Aug-2020 4955.01 4256.87 80.76 2.00 112.22 2633.27
   16:11:55.881.06-Aug-2020 4955.01 4256.89 80.76 2.00 112.42 2633.27
   16:11:56.081.06-Aug-2020 4955.01 4256.93 80.76 2.00 112.62 2633.27
   16:11:56.281.06-Aug-2020 4955.01 4256.91 80.76 2.00 112.82 2633.27
   16:11:56.481.06-Aug-2020 4955.01 4256.95 80.76 2.00 113.02 2633.27
   16:11:56.681.06-Aug-2020 4955.01 4256.95 80.76 2.00 113.22 2633.27
   16:11:56.881.06-Aug-2020 4955.01 4256.94 80.76 2.00 113.42 2633.27
   16:11:57.082.06-Aug-2020 4955.01 4256.94 80.76 2.00 113.62 2633.27
   16:11:57.282.06-Aug-2020 4955.01 4256.94 80.76 2.00 113.82 2633.27
   16:11:57.482.06-Aug-2020 4955.01 4256.83 80.76 2.00 114.02 2633.27
   16:11:57.682.06-Aug-2020 4955.01 4256.73 80.76 2.00 114.22 2633.27
   16:11:57.882.06-Aug-2020 4955.01 4256.83 80.76 2.00 114.42 2633.27
   16:11:58.082.06-Aug-2020 4955.01 4256.92 80.76 2.00 114.62 2633.27
   16:11:58.282.06-Aug-2020 4955.01 4256.99 80.76 2.00 114.82 2633.27
