~Version Information
 VERS.                  2.0:   CWLS log ASCII Standard -VERSION 2.0
 WRAP.                   NO:   One line per depth step
~Well Information Block
#MNEM.UNIT     VALUE/NAME     DESCRIPTION
#---------     -----------    ---------------------------
 STRT.S             09:21:48 07-Aug-20: START TIME 09:21:48 07-Aug-20
 STOP.S             09:29:41 07-Aug-20: STOP TIME  09:29:41 07-Aug-20
 STEP.S                   0.00: STEP TIME
 NULL.                 -999.25: NULL VALUE
 DFWT.                        :  DIST FWL TEXT
 DFST.                        :  DIST FSL TEXT
 DMF .             Drill Floor:  DRILL MEAS FROM
 STIM.      12.00.00 03-Jul-20:  START TIME
 DATE.      00.50.00 09-Aug-20:  END TIME
 SPUD.               03-Jul-20:  SPUD DATE
 NREF.                    Grid:  NORTH REFERENCE
 HPTY.       Minimum Curvature:  HOLE POS TYPE
 DMOD.             Drill Model:  DRILL MOD DESC
 SVYD.                  Survey:  SURVEY DESC
 ILTD.               Lithology:  INTERP LTH DESC
 FTOP.          Formation Tops:  FORM TOPS DESC
 PDAT.          Mean Sea Level:  PERMANENT DATUM
 FLD .                     ACG:  FIELD NAME
 CTRY.              Azerbaijan:  COUNTRY NAME
 WELL.                    E04x:  WELL NAME
 SRVC.          Turan Drilling:  CONTRACTOR
 COMP.     BP Exploration (Caspian Sea) Ltd.:  COMPANY
 SON .        AZ-XX-0906531346:  JOB NUMBER
 WTYP.                Deviated:  WELL TYPE
 MDS .        Operator Entered:  MAG DATA SOURCE
 UWI .                     N/A:  UNIQUE WELL IDENTIFIER
 API .                     N/A:  API NUMBER
 BASE.              Azerbaijan:  LOGGING EQUIPMENT BASE LOCATION
 REGN.                   EESSA:  REGION
 PROV.                    Baku:  PROVINCE
 STAT.                    Baku:  STATE NAME
 MWDS.                    Baku:  MWD SHOP
 JOBN.        AZ-XX-0906531346:  JOB TICKET NUMB
 RIG .                     DWG:  RIG NAME
 DOE .                     N/A:  DOE NUMBER
 DCON.         Sperry Drilling:  DIRECTNL CONTR
 UNIT.                     N/A:  LOGGING EQUIPMENT ID
 CNTY.                        :  COUNTY
 LOC .                        :  LOCATION
 LMF .             Drill Floor:  LOG MEASURED FROM
 TVDS.m                  43.16:  TVDSS CORRECTN
 LATI.deg                40.17:  LATITUDE
 LONG.deg                51.17:  LONGITUDE
 WHNS.m                  -0.12:  WELL HEAD N/S
 WHEW.m                  -5.41:  WELL HEAD E/W
 UTMX.m              514337.95:  UTM X
 UTMY.m             4448627.46:  UTM Y
 DFWL.m                   0.00:  DISTANCE FWL
 DFSL.m                   0.00:  DISTANCE FSL
 SDEP.m                3088.01:  START DEPTH
 TDD .m                5200.01:  TOTAL DEPTH (DRILLER)
 VSDR.deg               244.51:  VERT SEC DIRECT
 GVFD.g                   1.00:  GRAVITY FIELD
 MFLD.nT              50329.80:  MAGNETIC FIELD
 MDIP.deg                59.63:  MAGNETIC DIP
 MDEC.deg                 6.59:  MAGNETIC DECL
 GRDC.deg                 0.09:  GRID CORRECTION
 AZTC.deg                 6.50:  AZM TOTAL CORR
 EPD .m                   0.00:  ELEVATION
 EGL .m                   0.00:  GROUND ELEVATION
 WDMS.m                 176.20:  WD ELEV
 APD .m                  43.16:  DEPTH ABOVE PD
 DEP .m                3084.71:  DEPTH
 AGAP.m                  43.16:  AIR GAP
 VSEW.m                  -5.41:  VERT SEC E/W
 VSNS.m                  -0.12:  VERT SEC N/S
 EKB .m                   0.00:  KB ELEVATION
 EDF .m                  43.16:  DF ELEVATION
 TDL .m                 243.00:  TOTAL DEPTH (LOGGER)
 VSC .                       0:  VS TO CLOSURE
 MAGU.                 1853542:  MAGUTM CHECKSUM
~Parameter Information Block
#MNEM.UNIT       Value        Description
#---------     -----------    ---------------------------
 AV  .mps                 1.91:  Ann Velocity 
 AVMX.mps                 2.52:  Max Ann Veloc 
 AZIF.deg               308.97:  Azm, Final 
 BHAT.        Rotary Steerable:  BHA Type 
 BROT.∞/30m               1.00:  Build Rotating 
 BS  .in                  6.50:  Bit Size 
 BSZ .in                  6.50:  Bit Size 
 BTPL.psig              350.00:  Bit Press Loss 
 CABU.                      No:  Customer Abuse 
 CGEO.           Asif Pashayev:  Customer Geo 
 COMM.                     ,[Å:  Run Comments 1 
 TCS .hr                 35.86:  Time Ciculation Ended 
 CV  .mps                 2.31:  Crit Velocity 
 CVMX.mps                 2.31:  Max Crit Veloc 
 DD1 .         Intigam Rahimov:  Direct Drillr 1 
 DDSV.               Geo-Pilot:  DD Service 
 DEFF.%                  92.00:  % Det Eff 
 DLRX.∞/30m               1.00:  Dogleg Rot Max 
 DLSO.∞/30m               1.00:  Dogleg Oriented 
 DLSX.∞/30m               1.42:  Dogleg Str Max 
 DRET.      15.50.00 07-Aug-20:  Drill End Time 
 DRST.      10.40.00 06-Aug-20:  Drill Start Tim 
 DTIM.hr                 21.30:  Time Drilling 
 EDEP.m                5200.01:  End Depth 
 ENG1.            Alan Tuganov:  Engineer 1 
 ENG2.         Almaz Almadatov:  Engineer 2 
 ENG3.     Zammelal Abdullah Sani:  Engineer 3 
 ETIM.      22.42.00 08-Aug-20:  End Time 
 FLOI.gpm               395.00:  Flow In 
 FLON.gpm               350.00:  Flow In Min 
 FLOS.cptm                0.00:  Fluid Loss 
 FLOX.gpm               404.00:  Flow In Max 
 FTRO.       Formation Presure:  FTWD Run Obj 
 HFLO.                      No:  High Flow 
 HPRE.                      No:  High Pressure 
 HTEM.                      No:  High Temp 
 HYDO.m                   1.80:  Hydro Offset 
 IFIN.deg                72.64:  Inc, Final 
 IMAX.deg                73.68:  Inc Max 
 IMIN.deg                72.64:  Inc Min 
 IMND.m                5189.69:  Inc Min Depth 
 IMXD.m                5067.88:  Inc Max Depth 
 JARR.                      No:  Jarring 
 LETM.      15.50.00 07-Aug-20:  Log End Time 
 LOST.hr                     0:  Lost Rig Time 
 LSTM.      10.40.00 06-Aug-20:  Log Start Time 
 MDCL.ppm             36000.00:  Mud Chlorides 
 MDES.     Inversion Oil/Synthetic:  Mud Desc 
 DFD .sg                  1.36:  Mud Density 
 MDMN.sg                  1.36:  Dens Mud Min 
 MDMX.sg                  1.36:  Dens Mud Max 
 MOIL.                      70:  Run Mud Oil % 
 MOWR.                   70:30:  Run Mud OWR 
 MSND.                    0.00:  Run Mud Sand % 
 MSOL.                   17.60:  Run Mud Solids% 
 DFV .spqt               73.00:  Mud Viscosity 
 MWOD.in                  4.75:  MWD Tool OD 
 MWSI.                      No:  Serv Intrp, MWD 
 OTIM.hr                 85.66:  Time Operating 
 PCON.           Look Like New:  Pad Condition 
 PMAX.psia             6250.00:  Press Op, Max 
 PV  .cP                 65.00:  Mud PV 
 RUN .                     900:  Run Number 
 ROPA.m/hr               11.40:  ROP Avg 
 ROPN.m/hr                5.00:  ROP Min 
 ROPX.m/hr               20.00:  ROP Max 
 RPMA.rpm               130.00:  RPM Surface Avg 
 RPMN.rpm                40.00:  RPM Surface Min 
 RPMX.rpm               140.00:  RPM Surface Max 
 RRUN.                    L205:  Rig Run Number 
 RTIM.hr                  1.00:  Time Reaming 
 SAZI.deg               313.52:  Azm, Start 
 SDEP.m                4957.01:  Start Depth 
 SIDD.                      No:  Serv Intrp, DD 
 SINC.deg                73.16:  Inc, Start 
 SPPA.psig             5657.00:  SPP Avg 
 SPPN.psig             2500.00:  SPP Min 
 SPPX.psig             5806.00:  SPP Max 
 STIM.      07.12.00 05-Aug-20:  Start Time 
 SVCS.                 DD, MWD:  Services 
 SVER.                    9.20:  Sperry Version 
 TDAT.m                 243.00:  Tot Depth Attmp 
 TDDF.                      No:  Trip for DD 
 TDLG.m                 243.00:  Tot Depth Loggd 
 TFF .                      No:  Trip for Fail 
 TQAA.f-kp               13.00:  Torque Abs Avg 
 TQAN.f-kp               11.00:  Torque Abs Min 
 TQAX.f-kp               16.00:  Torque Abs Max 
 TRRT.∞/30m               1.00:  Turn Rotating 
 MRT .                    HCIM:  Maximum Recorded Temperature 
 TTMX.degC               96.08:  Max Tool Temp 
 VS01.                90515411:  Virtual Str1 SN 
 VS02.                90512716:  Virtual Str2 SN 
 VS03.                90522362:  Virtual Str3 SN 
 VS04.                90619415:  Virtual Str4 SN 
 VS05.                90619414:  Virtual Str5 SN 
 VS06.                90597748:  Virtual Str6 SN 
 WBMN.klb                 2.00:  WOB Min 
 WITN.           Adil Mammadov:  Customer Rep 
 WITN.     Alexander Yadullayev:  Customer Rep 2 
 WOBA.klb                 7.00:  WOB Avg 
 WOBX.klb                23.00:  WOB Max 
 YP  .lhf2               37.00:  Yield Point 
~Curve Information Block
#MNEM.UNIT                 API CODE     Curve Description
#---------               -----------    ---------------------------
 TIME.HHMMSS            00 000 000 000:  GT Time & Date
 GTDEPTH.m              00 000 000 000:  GT Depth
 GTPQH.psia             00 000 000 000:  GT HR Quartz Pressure
 GTTQ.degC              00 000 000 000:  GT Quartz Temperature
 GTTN.NONE              00 000 000 000:  GT Test Number
 GTET.sec               00 000 000 000:  GT Elapsed Test Time
 GTTVD.m                00 000 000 000:  GT True Vertical Depth
#Other Information
#
#WARRANTY: Halliburton will use its best efforts to furnish customers with 
#accurate information and interpretations that are part of, and incident to, the services 
#provided.  However, Halliburton cannot and does not warrant the accuracy 
#or correctness of such information and interpretations.  Under no circumstances should any 
#such information or interpretation be relied upon as the sole basis for any drilling, 
#completion, production, or financial decision or any procedure involving any risk to the 
#safety of any drilling venture, drilling rig or its crew or any other third party.  The 
#Customer has full responsibility for all drilling, completion and production operation.  
#Halliburton makes no representations or warranties, either expressed or 
#implied, including, but not limited to, the implied warranties of merchantability or fitness 
#for a particular purpose, with respect to the services rendered.  In no event will 
#Halliburton be liable for failure to obtain any particular results or for 
#any damages, including, but not limited to, indirect, special or consequential damages, 
#resulting from the use of any information or interpretation provided by Halliburton.
#
~A           TIME           GTDEPTH  GTPQH  GTTQ  GTTN  GTET   GTTVD  
# ...
   09:24:29.526.07-Aug-2020 5109.01 3406.55 86.53 9.00 160.95 2677.54
   09:24:29.726.07-Aug-2020 5109.01 3406.64 86.53 9.00 161.15 2677.54
   09:24:29.926.07-Aug-2020 5109.01 3406.60 86.53 9.00 161.35 2677.54
   09:24:30.126.07-Aug-2020 5109.01 3406.62 86.53 9.00 161.55 2677.54
   09:24:30.326.07-Aug-2020 5109.01 3406.61 86.53 9.00 161.75 2677.54
   09:24:30.526.07-Aug-2020 5109.01 3406.62 86.53 9.00 161.95 2677.54
   09:24:30.726.07-Aug-2020 5109.01 3406.62 86.53 9.00 162.15 2677.54
   09:24:30.926.07-Aug-2020 5109.01 3406.62 86.53 9.00 162.35 2677.54
   09:24:31.126.07-Aug-2020 5109.01 3406.59 86.52 9.00 162.55 2677.54
   09:24:31.326.07-Aug-2020 5109.01 3404.39 86.52 9.00 162.75 2677.54
   09:24:31.526.07-Aug-2020 5109.01 3400.17 86.52 9.00 162.95 2677.54
   09:24:31.725.07-Aug-2020 5109.01 3400.17 86.52 9.00 163.15 2677.54
   09:24:31.925.07-Aug-2020 5109.01 3399.98 86.52 9.00 163.35 2677.54
   09:24:32.125.07-Aug-2020 5109.01 3399.71 86.52 9.00 163.55 2677.54
   09:24:32.325.07-Aug-2020 5109.01 3400.04 86.52 9.00 163.75 2677.54
   09:24:32.525.07-Aug-2020 5109.01 3400.04 86.52 9.00 163.95 2677.54
   09:24:32.725.07-Aug-2020 5109.01 3400.04 86.52 9.00 164.15 2677.54
   09:24:32.925.07-Aug-2020 5109.01 3399.86 86.52 9.00 164.35 2677.54
   09:24:33.125.07-Aug-2020 5109.01 3399.73 86.52 9.00 164.55 2677.54
   09:24:33.325.07-Aug-2020 5109.01 3399.83 86.52 9.00 164.75 2677.54
   09:24:33.525.07-Aug-2020 5109.01 3399.84 86.52 9.00 164.95 2677.54
   09:24:33.725.07-Aug-2020 5109.01 3399.84 86.52 9.00 165.15 2677.54
   09:24:33.925.07-Aug-2020 5109.01 3399.78 86.52 9.00 165.35 2677.54
   09:24:34.125.07-Aug-2020 5109.01 3399.75 86.52 9.00 165.55 2677.54
   09:24:34.325.07-Aug-2020 5109.01 3399.84 86.52 9.00 165.75 2677.54
   09:24:34.525.07-Aug-2020 5109.01 3399.79 86.52 9.00 165.95 2677.54
   09:24:34.725.07-Aug-2020 5109.01 3399.79 86.52 9.00 166.15 2677.54
   09:24:34.925.07-Aug-2020 5109.01 3399.55 86.52 9.00 166.35 2677.54
   09:24:35.124.07-Aug-2020 5109.01 3399.95 86.52 9.00 166.55 2677.54
   09:24:35.324.07-Aug-2020 5109.01 3399.91 86.52 9.00 166.75 2677.54
   09:24:35.524.07-Aug-2020 5109.01 3399.79 86.52 9.00 166.95 2677.54
   09:24:35.724.07-Aug-2020 5109.01 3399.79 86.52 9.00 167.15 2677.54
   09:24:35.924.07-Aug-2020 5109.01 3400.04 86.52 9.00 167.35 2677.54
   09:24:36.124.07-Aug-2020 5109.01 3399.95 86.52 9.00 167.55 2677.54
   09:24:36.324.07-Aug-2020 5109.01 3399.65 86.52 9.00 167.75 2677.54
   09:24:36.524.07-Aug-2020 5109.01 3399.69 86.52 9.00 167.95 2677.54
   09:24:36.724.07-Aug-2020 5109.01 3399.69 86.52 9.00 168.15 2677.54
   09:24:36.924.07-Aug-2020 5109.01 3399.75 86.52 9.00 168.35 2677.54
   09:24:37.124.07-Aug-2020 5109.01 3399.86 86.51 9.00 168.55 2677.54
   09:24:37.324.07-Aug-2020 5109.01 3399.76 86.51 9.00 168.75 2677.54
   09:24:37.524.07-Aug-2020 5109.01 3399.84 86.51 9.00 168.95 2677.54
   09:24:37.724.07-Aug-2020 5109.01 3399.81 86.51 9.00 169.15 2677.54
   09:24:37.924.07-Aug-2020 5109.01 3399.49 86.51 9.00 169.35 2677.54
   09:24:38.124.07-Aug-2020 5109.01 3399.98 86.51 9.00 169.55 2677.54
   09:24:38.323.07-Aug-2020 5109.01 3399.89 86.51 9.00 169.75 2677.54
   09:24:38.523.07-Aug-2020 5109.01 3399.65 86.51 9.00 169.95 2677.54
   09:24:38.723.07-Aug-2020 5109.01 3399.65 86.51 9.00 170.15 2677.54
   09:24:38.923.07-Aug-2020 5109.01 3399.73 86.51 9.00 170.35 2677.54
   09:24:39.123.07-Aug-2020 5109.01 3399.79 86.51 9.00 170.55 2677.54
   09:24:39.323.07-Aug-2020 5109.01 3399.73 86.51 9.00 170.75 2677.54
   09:24:39.523.07-Aug-2020 5109.01 3399.76 86.51 9.00 170.95 2677.54
   09:24:39.723.07-Aug-2020 5109.01 3399.76 86.51 9.00 171.15 2677.54
   09:24:39.923.07-Aug-2020 5109.01 3399.71 86.51 9.00 171.35 2677.54
   09:24:40.123.07-Aug-2020 5109.01 3399.90 86.51 9.00 171.55 2677.54
   09:24:40.323.07-Aug-2020 5109.01 3399.93 86.51 9.00 171.75 2677.54
   09:24:40.523.07-Aug-2020 5109.01 3399.53 86.51 9.00 171.95 2677.54
   09:24:40.723.07-Aug-2020 5109.01 3399.53 86.51 9.00 172.15 2677.54
   09:24:40.923.07-Aug-2020 5109.01 3399.87 86.51 9.00 172.35 2677.54
   09:24:41.123.07-Aug-2020 5109.01 3399.79 86.51 9.00 172.55 2677.54
   09:24:41.323.07-Aug-2020 5109.01 3399.82 86.51 9.00 172.75 2677.54
   09:24:41.523.07-Aug-2020 5109.01 3404.52 86.51 9.00 172.95 2677.54
   09:24:41.722.07-Aug-2020 5109.01 3406.36 86.51 9.00 173.15 2677.54
   09:24:41.922.07-Aug-2020 5109.01 3406.38 86.51 9.00 173.35 2677.54
   09:24:42.122.07-Aug-2020 5109.01 3406.43 86.51 9.00 173.55 2677.54
   09:24:42.322.07-Aug-2020 5109.01 3406.43 86.51 9.00 173.75 2677.54
   09:24:42.522.07-Aug-2020 5109.01 3406.45 86.51 9.00 173.95 2677.54
   09:24:42.722.07-Aug-2020 5109.01 3406.45 86.51 9.00 174.15 2677.54
   09:24:42.922.07-Aug-2020 5109.01 3406.47 86.50 9.00 174.35 2677.54
   09:24:43.122.07-Aug-2020 5109.01 3406.46 86.50 9.00 174.55 2677.54
   09:24:43.322.07-Aug-2020 5109.01 3406.41 86.50 9.00 174.75 2677.54
   09:24:43.522.07-Aug-2020 5109.01 3406.54 86.50 9.00 174.95 2677.54
   09:24:43.722.07-Aug-2020 5109.01 3406.54 86.50 9.00 175.15 2677.54
   09:24:43.922.07-Aug-2020 5109.01 3406.49 86.50 9.00 175.35 2677.54
   09:24:44.122.07-Aug-2020 5109.01 3406.39 86.50 9.00 175.55 2677.54
   09:24:44.322.07-Aug-2020 5109.01 3406.64 86.50 9.00 175.75 2677.54
   09:24:44.522.07-Aug-2020 5109.01 3406.56 86.50 9.00 175.95 2677.54
   09:24:44.722.07-Aug-2020 5109.01 3406.56 86.50 9.00 176.15 2677.54
   09:24:44.922.07-Aug-2020 5109.01 3406.56 86.50 9.00 176.35 2677.54
   09:24:45.121.07-Aug-2020 5109.01 3406.55 86.50 9.00 176.55 2677.54
   09:24:45.321.07-Aug-2020 5109.01 3406.45 86.50 9.00 176.75 2677.54
   09:24:45.521.07-Aug-2020 5109.01 3406.56 86.50 9.00 176.95 2677.54
   09:24:45.721.07-Aug-2020 5109.01 3406.56 86.50 9.00 177.15 2677.54
   09:24:45.921.07-Aug-2020 5109.01 3406.50 86.50 9.00 177.35 2677.54
   09:24:46.121.07-Aug-2020 5109.01 3406.57 86.50 9.00 177.55 2677.54
   09:24:46.321.07-Aug-2020 5109.01 3406.55 86.50 9.00 177.75 2677.54
   09:24:46.521.07-Aug-2020 5109.01 3406.51 86.50 9.00 177.95 2677.54
   09:24:46.721.07-Aug-2020 5109.01 3406.51 86.50 9.00 178.15 2677.54
   09:24:46.921.07-Aug-2020 5109.01 3406.55 86.50 9.00 178.35 2677.54
   09:24:47.121.07-Aug-2020 5109.01 3406.54 86.50 9.00 178.55 2677.54
   09:24:47.321.07-Aug-2020 5109.01 3406.55 86.50 9.00 178.75 2677.54
   09:24:47.521.07-Aug-2020 5109.01 3406.55 86.50 9.00 178.95 2677.54
   09:24:47.721.07-Aug-2020 5109.01 3406.55 86.50 9.00 179.15 2677.54
   09:24:47.921.07-Aug-2020 5109.01 3406.55 86.50 9.00 179.35 2677.54
   09:24:48.121.07-Aug-2020 5109.01 3406.55 86.50 9.00 179.55 2677.54
   09:24:48.320.07-Aug-2020 5109.01 3406.56 86.50 9.00 179.75 2677.54
   09:24:48.520.07-Aug-2020 5109.01 3406.54 86.50 9.00 179.95 2677.54
   09:24:48.720.07-Aug-2020 5109.01 3406.54 86.50 9.00 180.15 2677.54
   09:24:48.920.07-Aug-2020 5109.01 3406.60 86.49 9.00 180.35 2677.54
   09:24:49.120.07-Aug-2020 5109.01 3406.58 86.49 9.00 180.55 2677.54
   09:24:49.320.07-Aug-2020 5109.01 3406.52 86.49 9.00 180.75 2677.54
   09:24:49.520.07-Aug-2020 5109.01 3406.55 86.49 9.00 180.95 2677.54
   09:24:49.720.07-Aug-2020 5109.01 3406.56 86.49 9.00 181.15 2677.54
   09:24:49.920.07-Aug-2020 5109.01 3406.55 86.49 9.00 181.35 2677.54
   09:24:50.120.07-Aug-2020 5109.01 3406.55 86.49 9.00 181.55 2677.54
   09:24:50.320.07-Aug-2020 5109.01 3406.55 86.49 9.00 181.75 2677.54
   09:24:50.520.07-Aug-2020 5109.01 3406.55 86.49 9.00 181.95 2677.54
   09:24:50.720.07-Aug-2020 5109.01 3406.55 86.49 9.00 182.15 2677.54
   09:24:50.920.07-Aug-2020 5109.01 3406.56 86.49 9.00 182.35 2677.54
   09:24:51.120.07-Aug-2020 5109.01 3406.53 86.49 9.00 182.55 2677.54
   09:24:51.320.07-Aug-2020 5109.01 3406.54 86.49 9.00 182.74 2677.54
   09:24:51.520.07-Aug-2020 5109.01 3406.49 86.49 9.00 182.94 2677.54
   09:24:51.719.07-Aug-2020 5109.01 3406.49 86.49 9.00 183.14 2677.54
   09:24:51.919.07-Aug-2020 5109.01 3406.53 86.49 9.00 183.34 2677.54
   09:24:52.119.07-Aug-2020 5109.01 3406.51 86.49 9.00 183.54 2677.54
   09:24:52.319.07-Aug-2020 5109.01 3406.58 86.49 9.00 183.74 2677.54
