~Version Information
 VERS.                  2.0:   CWLS log ASCII Standard -VERSION 2.0
 WRAP.                   NO:   One line per depth step
~Well Information Block
#MNEM.UNIT     VALUE/NAME     DESCRIPTION
#---------     -----------    ---------------------------
 STRT.S             20:19:41 06-Aug-20: START TIME 20:19:41 06-Aug-20
 STOP.S             20:27:33 06-Aug-20: STOP TIME  20:27:33 06-Aug-20
 STEP.S                   0.00: STEP TIME
 NULL.                 -999.25: NULL VALUE
 DFWT.                        :  DIST FWL TEXT
 DFST.                        :  DIST FSL TEXT
 DMF .             Drill Floor:  DRILL MEAS FROM
 STIM.      12.00.00 03-Jul-20:  START TIME
 DATE.      00.50.00 09-Aug-20:  END TIME
 SPUD.               03-Jul-20:  SPUD DATE
 NREF.                    Grid:  NORTH REFERENCE
 HPTY.       Minimum Curvature:  HOLE POS TYPE
 DMOD.             Drill Model:  DRILL MOD DESC
 SVYD.                  Survey:  SURVEY DESC
 ILTD.               Lithology:  INTERP LTH DESC
 FTOP.          Formation Tops:  FORM TOPS DESC
 PDAT.          Mean Sea Level:  PERMANENT DATUM
 FLD .                     ACG:  FIELD NAME
 CTRY.              Azerbaijan:  COUNTRY NAME
 WELL.                    E04x:  WELL NAME
 SRVC.          Turan Drilling:  CONTRACTOR
 COMP.     BP Exploration (Caspian Sea) Ltd.:  COMPANY
 SON .        AZ-XX-0906531346:  JOB NUMBER
 WTYP.                Deviated:  WELL TYPE
 MDS .        Operator Entered:  MAG DATA SOURCE
 UWI .                     N/A:  UNIQUE WELL IDENTIFIER
 API .                     N/A:  API NUMBER
 BASE.              Azerbaijan:  LOGGING EQUIPMENT BASE LOCATION
 REGN.                   EESSA:  REGION
 PROV.                    Baku:  PROVINCE
 STAT.                    Baku:  STATE NAME
 MWDS.                    Baku:  MWD SHOP
 JOBN.        AZ-XX-0906531346:  JOB TICKET NUMB
 RIG .                     DWG:  RIG NAME
 DOE .                     N/A:  DOE NUMBER
 DCON.         Sperry Drilling:  DIRECTNL CONTR
 UNIT.                     N/A:  LOGGING EQUIPMENT ID
 CNTY.                        :  COUNTY
 LOC .                        :  LOCATION
 LMF .             Drill Floor:  LOG MEASURED FROM
 TVDS.m                  43.16:  TVDSS CORRECTN
 LATI.deg                40.17:  LATITUDE
 LONG.deg                51.17:  LONGITUDE
 WHNS.m                  -0.12:  WELL HEAD N/S
 WHEW.m                  -5.41:  WELL HEAD E/W
 UTMX.m              514337.95:  UTM X
 UTMY.m             4448627.46:  UTM Y
 DFWL.m                   0.00:  DISTANCE FWL
 DFSL.m                   0.00:  DISTANCE FSL
 SDEP.m                3088.01:  START DEPTH
 TDD .m                5200.01:  TOTAL DEPTH (DRILLER)
 VSDR.deg               244.51:  VERT SEC DIRECT
 GVFD.g                   1.00:  GRAVITY FIELD
 MFLD.nT              50329.80:  MAGNETIC FIELD
 MDIP.deg                59.63:  MAGNETIC DIP
 MDEC.deg                 6.59:  MAGNETIC DECL
 GRDC.deg                 0.09:  GRID CORRECTION
 AZTC.deg                 6.50:  AZM TOTAL CORR
 EPD .m                   0.00:  ELEVATION
 EGL .m                   0.00:  GROUND ELEVATION
 WDMS.m                 176.20:  WD ELEV
 APD .m                  43.16:  DEPTH ABOVE PD
 DEP .m                3084.71:  DEPTH
 AGAP.m                  43.16:  AIR GAP
 VSEW.m                  -5.41:  VERT SEC E/W
 VSNS.m                  -0.12:  VERT SEC N/S
 EKB .m                   0.00:  KB ELEVATION
 EDF .m                  43.16:  DF ELEVATION
 TDL .m                 243.00:  TOTAL DEPTH (LOGGER)
 VSC .                       0:  VS TO CLOSURE
 MAGU.                 1853542:  MAGUTM CHECKSUM
~Parameter Information Block
#MNEM.UNIT       Value        Description
#---------     -----------    ---------------------------
 AV  .mps                 1.91:  Ann Velocity 
 AVMX.mps                 2.52:  Max Ann Veloc 
 AZIF.deg               308.97:  Azm, Final 
 BHAT.        Rotary Steerable:  BHA Type 
 BROT.°/30m               1.00:  Build Rotating 
 BS  .in                  6.50:  Bit Size 
 BSZ .in                  6.50:  Bit Size 
 BTPL.psig              350.00:  Bit Press Loss 
 CABU.                      No:  Customer Abuse 
 CGEO.           Asif Pashayev:  Customer Geo 
 COMM.                     4è‹:  Run Comments 1 
 TCS .hr                 35.86:  Time Ciculation Ended 
 CV  .mps                 2.31:  Crit Velocity 
 CVMX.mps                 2.31:  Max Crit Veloc 
 DD1 .         Intigam Rahimov:  Direct Drillr 1 
 DDSV.               Geo-Pilot:  DD Service 
 DEFF.%                  92.00:  % Det Eff 
 DLRX.°/30m               1.00:  Dogleg Rot Max 
 DLSO.°/30m               1.00:  Dogleg Oriented 
 DLSX.°/30m               1.42:  Dogleg Str Max 
 DRET.      15.50.00 07-Aug-20:  Drill End Time 
 DRST.      10.40.00 06-Aug-20:  Drill Start Tim 
 DTIM.hr                 21.30:  Time Drilling 
 EDEP.m                5200.01:  End Depth 
 ENG1.            Alan Tuganov:  Engineer 1 
 ENG2.         Almaz Almadatov:  Engineer 2 
 ENG3.     Zammelal Abdullah Sani:  Engineer 3 
 ETIM.      22.42.00 08-Aug-20:  End Time 
 FLOI.gpm               395.00:  Flow In 
 FLON.gpm               350.00:  Flow In Min 
 FLOS.cptm                0.00:  Fluid Loss 
 FLOX.gpm               404.00:  Flow In Max 
 FTRO.       Formation Presure:  FTWD Run Obj 
 HFLO.                      No:  High Flow 
 HPRE.                      No:  High Pressure 
 HTEM.                      No:  High Temp 
 HYDO.m                   1.80:  Hydro Offset 
 IFIN.deg                72.64:  Inc, Final 
 IMAX.deg                73.68:  Inc Max 
 IMIN.deg                72.64:  Inc Min 
 IMND.m                5189.69:  Inc Min Depth 
 IMXD.m                5067.88:  Inc Max Depth 
 JARR.                      No:  Jarring 
 LETM.      15.50.00 07-Aug-20:  Log End Time 
 LOST.hr                     0:  Lost Rig Time 
 LSTM.      10.40.00 06-Aug-20:  Log Start Time 
 MDCL.ppm             36000.00:  Mud Chlorides 
 MDES.     Inversion Oil/Synthetic:  Mud Desc 
 DFD .sg                  1.36:  Mud Density 
 MDMN.sg                  1.36:  Dens Mud Min 
 MDMX.sg                  1.36:  Dens Mud Max 
 MOIL.                      70:  Run Mud Oil % 
 MOWR.                   70:30:  Run Mud OWR 
 MSND.                    0.00:  Run Mud Sand % 
 MSOL.                   17.60:  Run Mud Solids% 
 DFV .spqt               73.00:  Mud Viscosity 
 MWOD.in                  4.75:  MWD Tool OD 
 MWSI.                      No:  Serv Intrp, MWD 
 OTIM.hr                 85.66:  Time Operating 
 PCON.           Look Like New:  Pad Condition 
 PMAX.psia             6250.00:  Press Op, Max 
 PV  .cP                 65.00:  Mud PV 
 RUN .                     900:  Run Number 
 ROPA.m/hr               11.40:  ROP Avg 
 ROPN.m/hr                5.00:  ROP Min 
 ROPX.m/hr               20.00:  ROP Max 
 RPMA.rpm               130.00:  RPM Surface Avg 
 RPMN.rpm                40.00:  RPM Surface Min 
 RPMX.rpm               140.00:  RPM Surface Max 
 RRUN.                    L205:  Rig Run Number 
 RTIM.hr                  1.00:  Time Reaming 
 SAZI.deg               313.52:  Azm, Start 
 SDEP.m                4957.01:  Start Depth 
 SIDD.                      No:  Serv Intrp, DD 
 SINC.deg                73.16:  Inc, Start 
 SPPA.psig             5657.00:  SPP Avg 
 SPPN.psig             2500.00:  SPP Min 
 SPPX.psig             5806.00:  SPP Max 
 STIM.      07.12.00 05-Aug-20:  Start Time 
 SVCS.                 DD, MWD:  Services 
 SVER.                    9.20:  Sperry Version 
 TDAT.m                 243.00:  Tot Depth Attmp 
 TDDF.                      No:  Trip for DD 
 TDLG.m                 243.00:  Tot Depth Loggd 
 TFF .                      No:  Trip for Fail 
 TQAA.f-kp               13.00:  Torque Abs Avg 
 TQAN.f-kp               11.00:  Torque Abs Min 
 TQAX.f-kp               16.00:  Torque Abs Max 
 TRRT.°/30m               1.00:  Turn Rotating 
 MRT .                    HCIM:  Maximum Recorded Temperature 
 TTMX.degC               96.08:  Max Tool Temp 
 VS01.                90515411:  Virtual Str1 SN 
 VS02.                90512716:  Virtual Str2 SN 
 VS03.                90522362:  Virtual Str3 SN 
 VS04.                90619415:  Virtual Str4 SN 
 VS05.                90619414:  Virtual Str5 SN 
 VS06.                90597748:  Virtual Str6 SN 
 WBMN.klb                 2.00:  WOB Min 
 WITN.           Adil Mammadov:  Customer Rep 
 WITN.     Alexander Yadullayev:  Customer Rep 2 
 WOBA.klb                 7.00:  WOB Avg 
 WOBX.klb                23.00:  WOB Max 
 YP  .lhf2               37.00:  Yield Point 
~Curve Information Block
#MNEM.UNIT                 API CODE     Curve Description
#---------               -----------    ---------------------------
 TIME.HHMMSS            00 000 000 000:  GT Time & Date
 GTDEPTH.m              00 000 000 000:  GT Depth
 GTPQH.psia             00 000 000 000:  GT HR Quartz Pressure
 GTTQ.degC              00 000 000 000:  GT Quartz Temperature
 GTTN.NONE              00 000 000 000:  GT Test Number
 GTET.sec               00 000 000 000:  GT Elapsed Test Time
 GTTVD.m                00 000 000 000:  GT True Vertical Depth
#Other Information
#
#WARRANTY: Halliburton will use its best efforts to furnish customers with 
#accurate information and interpretations that are part of, and incident to, the services 
#provided.  However, Halliburton cannot and does not warrant the accuracy 
#or correctness of such information and interpretations.  Under no circumstances should any 
#such information or interpretation be relied upon as the sole basis for any drilling, 
#completion, production, or financial decision or any procedure involving any risk to the 
#safety of any drilling venture, drilling rig or its crew or any other third party.  The 
#Customer has full responsibility for all drilling, completion and production operation.  
#Halliburton makes no representations or warranties, either expressed or 
#implied, including, but not limited to, the implied warranties of merchantability or fitness 
#for a particular purpose, with respect to the services rendered.  In no event will 
#Halliburton be liable for failure to obtain any particular results or for 
#any damages, including, but not limited to, indirect, special or consequential damages, 
#resulting from the use of any information or interpretation provided by Halliburton.
#
~A           TIME           GTDEPTH  GTPQH  GTTQ  GTTN  GTET   GTTVD  
# ...
   20:22:45.417.06-Aug-2020 4993.01 3487.03 82.85 3.00 184.07 2644.18
   20:22:45.617.06-Aug-2020 4993.01 3487.03 82.85 3.00 184.27 2644.18
   20:22:45.817.06-Aug-2020 4993.01 3487.03 82.84 3.00 184.47 2644.18
   20:22:46.017.06-Aug-2020 4993.01 3486.98 82.84 3.00 184.67 2644.18
   20:22:46.217.06-Aug-2020 4993.01 3487.02 82.84 3.00 184.87 2644.18
   20:22:46.417.06-Aug-2020 4993.01 3486.95 82.84 3.00 185.07 2644.18
   20:22:46.617.06-Aug-2020 4993.01 3486.95 82.84 3.00 185.27 2644.18
   20:22:46.817.06-Aug-2020 4993.01 3486.94 82.84 3.00 185.47 2644.18
   20:22:47.017.06-Aug-2020 4993.01 3487.10 82.84 3.00 185.67 2644.18
   20:22:47.217.06-Aug-2020 4993.01 3486.97 82.84 3.00 185.87 2644.18
   20:22:47.417.06-Aug-2020 4993.01 3487.01 82.84 3.00 186.07 2644.18
   20:22:47.617.06-Aug-2020 4993.01 3487.01 82.84 3.00 186.27 2644.18
   20:22:47.818.06-Aug-2020 4993.01 3487.01 82.84 3.00 186.47 2644.18
   20:22:48.018.06-Aug-2020 4993.01 3487.00 82.84 3.00 186.67 2644.18
   20:22:48.218.06-Aug-2020 4993.01 3487.00 82.84 3.00 186.87 2644.18
   20:22:48.418.06-Aug-2020 4993.01 3487.00 82.84 3.00 187.07 2644.18
   20:22:48.618.06-Aug-2020 4993.01 3487.00 82.84 3.00 187.27 2644.18
   20:22:48.818.06-Aug-2020 4993.01 3486.98 82.84 3.00 187.47 2644.18
   20:22:49.018.06-Aug-2020 4993.01 3486.97 82.84 3.00 187.67 2644.18
   20:22:49.218.06-Aug-2020 4993.01 3486.87 82.84 3.00 187.87 2644.18
   20:22:49.418.06-Aug-2020 4993.01 3487.08 82.84 3.00 188.07 2644.18
   20:22:49.618.06-Aug-2020 4993.01 3487.08 82.84 3.00 188.27 2644.18
   20:22:49.818.06-Aug-2020 4993.01 3487.03 82.83 3.00 188.47 2644.18
   20:22:50.018.06-Aug-2020 4993.01 3487.04 82.83 3.00 188.67 2644.18
   20:22:50.218.06-Aug-2020 4993.01 3486.98 82.83 3.00 188.87 2644.18
   20:22:50.419.06-Aug-2020 4993.01 3486.84 82.83 3.00 189.07 2644.18
   20:22:50.619.06-Aug-2020 4993.01 3486.84 82.83 3.00 189.27 2644.18
   20:22:50.819.06-Aug-2020 4993.01 3487.04 82.83 3.00 189.47 2644.18
   20:22:51.019.06-Aug-2020 4993.01 3486.98 82.83 3.00 189.67 2644.18
   20:22:51.219.06-Aug-2020 4993.01 3487.06 82.83 3.00 189.87 2644.18
   20:22:51.419.06-Aug-2020 4993.01 3486.77 82.83 3.00 190.07 2644.18
   20:22:51.619.06-Aug-2020 4993.01 3486.77 82.83 3.00 190.27 2644.18
   20:22:51.819.06-Aug-2020 4993.01 3487.05 82.83 3.00 190.47 2644.18
   20:22:52.019.06-Aug-2020 4993.01 3487.01 82.83 3.00 190.67 2644.18
   20:22:52.219.06-Aug-2020 4993.01 3486.84 82.83 3.00 190.87 2644.18
   20:22:52.419.06-Aug-2020 4993.01 3487.10 82.83 3.00 191.07 2644.18
   20:22:52.619.06-Aug-2020 4993.01 3487.10 82.83 3.00 191.27 2644.18
   20:22:52.819.06-Aug-2020 4993.01 3487.02 82.83 3.00 191.47 2644.18
   20:22:53.020.06-Aug-2020 4993.01 3487.03 82.83 3.00 191.67 2644.18
   20:22:53.220.06-Aug-2020 4993.01 3487.03 82.83 3.00 191.87 2644.18
   20:22:53.420.06-Aug-2020 4993.01 3487.02 82.83 3.00 192.07 2644.18
   20:22:53.620.06-Aug-2020 4993.01 3487.02 82.83 3.00 192.27 2644.18
   20:22:53.820.06-Aug-2020 4993.01 3487.02 82.83 3.00 192.47 2644.18
   20:22:54.020.06-Aug-2020 4993.01 3486.98 82.82 3.00 192.67 2644.18
   20:22:54.220.06-Aug-2020 4993.01 3487.02 82.82 3.00 192.87 2644.18
   20:22:54.420.06-Aug-2020 4993.01 3486.98 82.82 3.00 193.07 2644.18
   20:22:54.620.06-Aug-2020 4993.01 3486.98 82.82 3.00 193.27 2644.18
   20:22:54.820.06-Aug-2020 4993.01 3486.86 82.82 3.00 193.47 2644.18
   20:22:55.020.06-Aug-2020 4993.01 3487.13 82.82 3.00 193.67 2644.18
   20:22:55.220.06-Aug-2020 4993.01 3486.91 82.82 3.00 193.87 2644.18
   20:22:55.420.06-Aug-2020 4993.01 3487.07 82.82 3.00 194.07 2644.18
   20:22:55.621.06-Aug-2020 4993.01 3487.07 82.82 3.00 194.27 2644.18
   20:22:55.821.06-Aug-2020 4993.01 3487.02 82.82 3.00 194.47 2644.18
   20:22:56.021.06-Aug-2020 4993.01 3486.99 82.82 3.00 194.67 2644.18
   20:22:56.221.06-Aug-2020 4993.01 3487.01 82.82 3.00 194.87 2644.18
   20:22:56.421.06-Aug-2020 4993.01 3486.98 82.82 3.00 195.07 2644.18
   20:22:56.621.06-Aug-2020 4993.01 3486.98 82.82 3.00 195.27 2644.18
   20:22:56.821.06-Aug-2020 4993.01 3486.98 82.82 3.00 195.47 2644.18
   20:22:57.021.06-Aug-2020 4993.01 3487.01 82.82 3.00 195.67 2644.18
   20:22:57.221.06-Aug-2020 4993.01 3486.98 82.82 3.00 195.87 2644.18
   20:22:57.421.06-Aug-2020 4993.01 3486.99 82.82 3.00 196.08 2644.18
   20:22:57.621.06-Aug-2020 4993.01 3486.99 82.82 3.00 196.28 2644.18
   20:22:57.821.06-Aug-2020 4993.01 3487.13 82.82 3.00 196.48 2644.18
   20:22:58.021.06-Aug-2020 4993.01 3487.00 82.82 3.00 196.68 2644.18
   20:22:58.222.06-Aug-2020 4993.01 3486.97 82.82 3.00 196.88 2644.18
   20:22:58.422.06-Aug-2020 4993.01 3487.03 82.81 3.00 197.08 2644.18
   20:22:58.622.06-Aug-2020 4993.01 3487.03 82.81 3.00 197.28 2644.18
   20:22:58.822.06-Aug-2020 4993.01 3486.92 82.81 3.00 197.48 2644.18
   20:22:59.022.06-Aug-2020 4993.01 3487.00 82.81 3.00 197.68 2644.18
   20:22:59.222.06-Aug-2020 4993.01 3487.10 82.81 3.00 197.88 2644.18
   20:22:59.422.06-Aug-2020 4993.01 3486.97 82.81 3.00 198.08 2644.18
   20:22:59.622.06-Aug-2020 4993.01 3486.97 82.81 3.00 198.28 2644.18
   20:22:59.822.06-Aug-2020 4993.01 3486.95 82.81 3.00 198.48 2644.18
   20:23:00.022.06-Aug-2020 4993.01 3486.97 82.81 3.00 198.68 2644.18
   20:23:00.222.06-Aug-2020 4993.01 3487.05 82.81 3.00 198.88 2644.18
   20:23:00.422.06-Aug-2020 4993.01 3486.98 82.81 3.00 199.08 2644.18
   20:23:00.622.06-Aug-2020 4993.01 3486.98 82.81 3.00 199.28 2644.18
   20:23:00.823.06-Aug-2020 4993.01 3486.98 82.81 3.00 199.48 2644.18
   20:23:01.023.06-Aug-2020 4993.01 3487.04 82.81 3.00 199.68 2644.18
   20:23:01.223.06-Aug-2020 4993.01 3487.02 82.81 3.00 199.88 2644.18
   20:23:01.423.06-Aug-2020 4993.01 3486.99 82.81 3.00 200.08 2644.18
   20:23:01.623.06-Aug-2020 4993.01 3486.99 82.81 3.00 200.28 2644.18
   20:23:01.823.06-Aug-2020 4993.01 3486.99 82.81 3.00 200.48 2644.18
   20:23:02.023.06-Aug-2020 4993.01 3487.01 82.81 3.00 200.68 2644.18
   20:23:02.223.06-Aug-2020 4993.01 3486.98 82.81 3.00 200.88 2644.18
   20:23:02.423.06-Aug-2020 4993.01 3487.01 82.81 3.00 201.08 2644.18
   20:23:02.623.06-Aug-2020 4993.01 3487.01 82.81 3.00 201.28 2644.18
   20:23:02.823.06-Aug-2020 4993.01 3487.00 82.80 3.00 201.48 2644.18
   20:23:03.023.06-Aug-2020 4993.01 3486.99 82.80 3.00 201.68 2644.18
   20:23:03.223.06-Aug-2020 4993.01 3486.81 82.80 3.00 201.88 2644.18
   20:23:03.424.06-Aug-2020 4993.01 3487.11 82.80 3.00 202.08 2644.18
   20:23:03.624.06-Aug-2020 4993.01 3487.11 82.80 3.00 202.28 2644.18
   20:23:03.824.06-Aug-2020 4993.01 3486.99 82.80 3.00 202.48 2644.18
   20:23:04.024.06-Aug-2020 4993.01 3487.01 82.80 3.00 202.68 2644.18
   20:23:04.224.06-Aug-2020 4993.01 3487.01 82.80 3.00 202.88 2644.18
   20:23:04.424.06-Aug-2020 4993.01 3486.99 82.80 3.00 203.08 2644.18
   20:23:04.624.06-Aug-2020 4993.01 3486.99 82.80 3.00 203.28 2644.18
   20:23:04.824.06-Aug-2020 4993.01 3486.97 82.80 3.00 203.48 2644.18
   20:23:05.024.06-Aug-2020 4993.01 3487.00 82.80 3.00 203.68 2644.18
   20:23:05.224.06-Aug-2020 4993.01 3486.97 82.80 3.00 203.88 2644.18
   20:23:05.424.06-Aug-2020 4993.01 3487.00 82.80 3.00 204.08 2644.18
   20:23:05.624.06-Aug-2020 4993.01 3487.00 82.80 3.00 204.28 2644.18
   20:23:05.824.06-Aug-2020 4993.01 3486.99 82.80 3.00 204.48 2644.18
   20:23:06.025.06-Aug-2020 4993.01 3486.86 82.80 3.00 204.68 2644.18
   20:23:06.225.06-Aug-2020 4993.01 3487.01 82.80 3.00 204.88 2644.18
   20:23:06.425.06-Aug-2020 4993.01 3487.06 82.80 3.00 205.08 2644.18
   20:23:06.625.06-Aug-2020 4993.01 3487.06 82.80 3.00 205.28 2644.18
   20:23:06.825.06-Aug-2020 4993.01 3486.98 82.80 3.00 205.48 2644.18
   20:23:07.025.06-Aug-2020 4993.01 3486.92 82.79 3.00 205.68 2644.18
   20:23:07.225.06-Aug-2020 4993.01 3487.03 82.79 3.00 205.88 2644.18
   20:23:07.425.06-Aug-2020 4993.01 3486.95 82.79 3.00 206.08 2644.18
   20:23:07.625.06-Aug-2020 4993.01 3486.95 82.79 3.00 206.28 2644.18
   20:23:07.825.06-Aug-2020 4993.01 3487.02 82.79 3.00 206.48 2644.18
   20:23:08.025.06-Aug-2020 4993.01 3486.87 82.79 3.00 206.68 2644.18
   20:23:08.225.06-Aug-2020 4993.01 3487.14 82.79 3.00 206.88 2644.18
