~Version Information
 VERS.                  2.0:   CWLS log ASCII Standard -VERSION 2.0
 WRAP.                   NO:   One line per depth step
~Well Information Block
#MNEM.UNIT     VALUE/NAME     DESCRIPTION
#---------     -----------    ---------------------------
 STRT.S             11:55:46 07-Aug-20: START TIME 11:55:46 07-Aug-20
 STOP.S             12:03:39 07-Aug-20: STOP TIME  12:03:39 07-Aug-20
 STEP.S                   0.00: STEP TIME
 NULL.                 -999.25: NULL VALUE
 DFWT.                        :  DIST FWL TEXT
 DFST.                        :  DIST FSL TEXT
 DMF .             Drill Floor:  DRILL MEAS FROM
 STIM.      12.00.00 03-Jul-20:  START TIME
 DATE.      00.50.00 09-Aug-20:  END TIME
 SPUD.               03-Jul-20:  SPUD DATE
 NREF.                    Grid:  NORTH REFERENCE
 HPTY.       Minimum Curvature:  HOLE POS TYPE
 DMOD.             Drill Model:  DRILL MOD DESC
 SVYD.                  Survey:  SURVEY DESC
 ILTD.               Lithology:  INTERP LTH DESC
 FTOP.          Formation Tops:  FORM TOPS DESC
 PDAT.          Mean Sea Level:  PERMANENT DATUM
 FLD .                     ACG:  FIELD NAME
 CTRY.              Azerbaijan:  COUNTRY NAME
 WELL.                    E04x:  WELL NAME
 SRVC.          Turan Drilling:  CONTRACTOR
 COMP.     BP Exploration (Caspian Sea) Ltd.:  COMPANY
 SON .        AZ-XX-0906531346:  JOB NUMBER
 WTYP.                Deviated:  WELL TYPE
 MDS .        Operator Entered:  MAG DATA SOURCE
 UWI .                     N/A:  UNIQUE WELL IDENTIFIER
 API .                     N/A:  API NUMBER
 BASE.              Azerbaijan:  LOGGING EQUIPMENT BASE LOCATION
 REGN.                   EESSA:  REGION
 PROV.                    Baku:  PROVINCE
 STAT.                    Baku:  STATE NAME
 MWDS.                    Baku:  MWD SHOP
 JOBN.        AZ-XX-0906531346:  JOB TICKET NUMB
 RIG .                     DWG:  RIG NAME
 DOE .                     N/A:  DOE NUMBER
 DCON.         Sperry Drilling:  DIRECTNL CONTR
 UNIT.                     N/A:  LOGGING EQUIPMENT ID
 CNTY.                        :  COUNTY
 LOC .                        :  LOCATION
 LMF .             Drill Floor:  LOG MEASURED FROM
 TVDS.m                  43.16:  TVDSS CORRECTN
 LATI.deg                40.17:  LATITUDE
 LONG.deg                51.17:  LONGITUDE
 WHNS.m                  -0.12:  WELL HEAD N/S
 WHEW.m                  -5.41:  WELL HEAD E/W
 UTMX.m              514337.95:  UTM X
 UTMY.m             4448627.46:  UTM Y
 DFWL.m                   0.00:  DISTANCE FWL
 DFSL.m                   0.00:  DISTANCE FSL
 SDEP.m                3088.01:  START DEPTH
 TDD .m                5200.01:  TOTAL DEPTH (DRILLER)
 VSDR.deg               244.51:  VERT SEC DIRECT
 GVFD.g                   1.00:  GRAVITY FIELD
 MFLD.nT              50329.80:  MAGNETIC FIELD
 MDIP.deg                59.63:  MAGNETIC DIP
 MDEC.deg                 6.59:  MAGNETIC DECL
 GRDC.deg                 0.09:  GRID CORRECTION
 AZTC.deg                 6.50:  AZM TOTAL CORR
 EPD .m                   0.00:  ELEVATION
 EGL .m                   0.00:  GROUND ELEVATION
 WDMS.m                 176.20:  WD ELEV
 APD .m                  43.16:  DEPTH ABOVE PD
 DEP .m                3084.71:  DEPTH
 AGAP.m                  43.16:  AIR GAP
 VSEW.m                  -5.41:  VERT SEC E/W
 VSNS.m                  -0.12:  VERT SEC N/S
 EKB .m                   0.00:  KB ELEVATION
 EDF .m                  43.16:  DF ELEVATION
 TDL .m                 243.00:  TOTAL DEPTH (LOGGER)
 VSC .                       0:  VS TO CLOSURE
 MAGU.                 1853542:  MAGUTM CHECKSUM
~Parameter Information Block
#MNEM.UNIT       Value        Description
#---------     -----------    ---------------------------
 AV  .mps                 1.91:  Ann Velocity 
 AVMX.mps                 2.52:  Max Ann Veloc 
 AZIF.deg               308.97:  Azm, Final 
 BHAT.        Rotary Steerable:  BHA Type 
 BROT.°/30m               1.00:  Build Rotating 
 BS  .in                  6.50:  Bit Size 
 BSZ .in                  6.50:  Bit Size 
 BTPL.psig              350.00:  Bit Press Loss 
 CABU.                      No:  Customer Abuse 
 CGEO.           Asif Pashayev:  Customer Geo 
 COMM.                     ¤4N:  Run Comments 1 
 TCS .hr                 35.86:  Time Ciculation Ended 
 CV  .mps                 2.31:  Crit Velocity 
 CVMX.mps                 2.31:  Max Crit Veloc 
 DD1 .         Intigam Rahimov:  Direct Drillr 1 
 DDSV.               Geo-Pilot:  DD Service 
 DEFF.%                  92.00:  % Det Eff 
 DLRX.°/30m               1.00:  Dogleg Rot Max 
 DLSO.°/30m               1.00:  Dogleg Oriented 
 DLSX.°/30m               1.42:  Dogleg Str Max 
 DRET.      15.50.00 07-Aug-20:  Drill End Time 
 DRST.      10.40.00 06-Aug-20:  Drill Start Tim 
 DTIM.hr                 21.30:  Time Drilling 
 EDEP.m                5200.01:  End Depth 
 ENG1.            Alan Tuganov:  Engineer 1 
 ENG2.         Almaz Almadatov:  Engineer 2 
 ENG3.     Zammelal Abdullah Sani:  Engineer 3 
 ETIM.      22.42.00 08-Aug-20:  End Time 
 FLOI.gpm               395.00:  Flow In 
 FLON.gpm               350.00:  Flow In Min 
 FLOS.cptm                0.00:  Fluid Loss 
 FLOX.gpm               404.00:  Flow In Max 
 FTRO.       Formation Presure:  FTWD Run Obj 
 HFLO.                      No:  High Flow 
 HPRE.                      No:  High Pressure 
 HTEM.                      No:  High Temp 
 HYDO.m                   1.80:  Hydro Offset 
 IFIN.deg                72.64:  Inc, Final 
 IMAX.deg                73.68:  Inc Max 
 IMIN.deg                72.64:  Inc Min 
 IMND.m                5189.69:  Inc Min Depth 
 IMXD.m                5067.88:  Inc Max Depth 
 JARR.                      No:  Jarring 
 LETM.      15.50.00 07-Aug-20:  Log End Time 
 LOST.hr                     0:  Lost Rig Time 
 LSTM.      10.40.00 06-Aug-20:  Log Start Time 
 MDCL.ppm             36000.00:  Mud Chlorides 
 MDES.     Inversion Oil/Synthetic:  Mud Desc 
 DFD .sg                  1.36:  Mud Density 
 MDMN.sg                  1.36:  Dens Mud Min 
 MDMX.sg                  1.36:  Dens Mud Max 
 MOIL.                      70:  Run Mud Oil % 
 MOWR.                   70:30:  Run Mud OWR 
 MSND.                    0.00:  Run Mud Sand % 
 MSOL.                   17.60:  Run Mud Solids% 
 DFV .spqt               73.00:  Mud Viscosity 
 MWOD.in                  4.75:  MWD Tool OD 
 MWSI.                      No:  Serv Intrp, MWD 
 OTIM.hr                 85.66:  Time Operating 
 PCON.           Look Like New:  Pad Condition 
 PMAX.psia             6250.00:  Press Op, Max 
 PV  .cP                 65.00:  Mud PV 
 RUN .                     900:  Run Number 
 ROPA.m/hr               11.40:  ROP Avg 
 ROPN.m/hr                5.00:  ROP Min 
 ROPX.m/hr               20.00:  ROP Max 
 RPMA.rpm               130.00:  RPM Surface Avg 
 RPMN.rpm                40.00:  RPM Surface Min 
 RPMX.rpm               140.00:  RPM Surface Max 
 RRUN.                    L205:  Rig Run Number 
 RTIM.hr                  1.00:  Time Reaming 
 SAZI.deg               313.52:  Azm, Start 
 SDEP.m                4957.01:  Start Depth 
 SIDD.                      No:  Serv Intrp, DD 
 SINC.deg                73.16:  Inc, Start 
 SPPA.psig             5657.00:  SPP Avg 
 SPPN.psig             2500.00:  SPP Min 
 SPPX.psig             5806.00:  SPP Max 
 STIM.      07.12.00 05-Aug-20:  Start Time 
 SVCS.                 DD, MWD:  Services 
 SVER.                    9.20:  Sperry Version 
 TDAT.m                 243.00:  Tot Depth Attmp 
 TDDF.                      No:  Trip for DD 
 TDLG.m                 243.00:  Tot Depth Loggd 
 TFF .                      No:  Trip for Fail 
 TQAA.f-kp               13.00:  Torque Abs Avg 
 TQAN.f-kp               11.00:  Torque Abs Min 
 TQAX.f-kp               16.00:  Torque Abs Max 
 TRRT.°/30m               1.00:  Turn Rotating 
 MRT .                    HCIM:  Maximum Recorded Temperature 
 TTMX.degC               96.08:  Max Tool Temp 
 VS01.                90515411:  Virtual Str1 SN 
 VS02.                90512716:  Virtual Str2 SN 
 VS03.                90522362:  Virtual Str3 SN 
 VS04.                90619415:  Virtual Str4 SN 
 VS05.                90619414:  Virtual Str5 SN 
 VS06.                90597748:  Virtual Str6 SN 
 WBMN.klb                 2.00:  WOB Min 
 WITN.           Adil Mammadov:  Customer Rep 
 WITN.     Alexander Yadullayev:  Customer Rep 2 
 WOBA.klb                 7.00:  WOB Avg 
 WOBX.klb                23.00:  WOB Max 
 YP  .lhf2               37.00:  Yield Point 
~Curve Information Block
#MNEM.UNIT                 API CODE     Curve Description
#---------               -----------    ---------------------------
 TIME.HHMMSS            00 000 000 000:  GT Time & Date
 GTDEPTH.m              00 000 000 000:  GT Depth
 GTPQH.psia             00 000 000 000:  GT HR Quartz Pressure
 GTTQ.degC              00 000 000 000:  GT Quartz Temperature
 GTTN.NONE              00 000 000 000:  GT Test Number
 GTET.sec               00 000 000 000:  GT Elapsed Test Time
 GTTVD.m                00 000 000 000:  GT True Vertical Depth
#Other Information
#
#WARRANTY: Halliburton will use its best efforts to furnish customers with 
#accurate information and interpretations that are part of, and incident to, the services 
#provided.  However, Halliburton cannot and does not warrant the accuracy 
#or correctness of such information and interpretations.  Under no circumstances should any 
#such information or interpretation be relied upon as the sole basis for any drilling, 
#completion, production, or financial decision or any procedure involving any risk to the 
#safety of any drilling venture, drilling rig or its crew or any other third party.  The 
#Customer has full responsibility for all drilling, completion and production operation.  
#Halliburton makes no representations or warranties, either expressed or 
#implied, including, but not limited to, the implied warranties of merchantability or fitness 
#for a particular purpose, with respect to the services rendered.  In no event will 
#Halliburton be liable for failure to obtain any particular results or for 
#any damages, including, but not limited to, indirect, special or consequential damages, 
#resulting from the use of any information or interpretation provided by Halliburton.
#
~A           TIME           GTDEPTH  GTPQH  GTTQ  GTTN   GTET   GTTVD  
# ...
   12:02:11.230.07-Aug-2020 5127.01 3413.77 87.24 10.00 384.34 2682.86
   12:02:11.430.07-Aug-2020 5127.01 3414.10 87.24 10.00 384.54 2682.86
   12:02:11.631.07-Aug-2020 5127.01 3413.94 87.24 10.00 384.74 2682.86
   12:02:11.831.07-Aug-2020 5127.01 3414.08 87.24 10.00 384.94 2682.86
   12:02:12.031.07-Aug-2020 5127.01 3414.06 87.24 10.00 385.14 2682.86
   12:02:12.231.07-Aug-2020 5127.01 3414.06 87.24 10.00 385.34 2682.86
   12:02:12.431.07-Aug-2020 5127.01 3414.06 87.24 10.00 385.54 2682.86
   12:02:12.631.07-Aug-2020 5127.01 3414.11 87.24 10.00 385.74 2682.86
   12:02:12.831.07-Aug-2020 5127.01 3413.98 87.24 10.00 385.94 2682.86
   12:02:13.031.07-Aug-2020 5127.01 3414.05 87.24 10.00 386.15 2682.86
   12:02:13.231.07-Aug-2020 5127.01 3414.05 87.24 10.00 386.35 2682.86
   12:02:13.431.07-Aug-2020 5127.01 3414.03 87.24 10.00 386.55 2682.86
   12:02:13.631.07-Aug-2020 5127.01 3414.02 87.24 10.00 386.75 2682.86
   12:02:13.831.07-Aug-2020 5127.01 3414.05 87.24 10.00 386.95 2682.86
   12:02:14.031.07-Aug-2020 5127.01 3414.02 87.24 10.00 387.15 2682.86
   12:02:14.232.07-Aug-2020 5127.01 3414.05 87.24 10.00 387.35 2682.86
   12:02:14.432.07-Aug-2020 5127.01 3414.02 87.24 10.00 387.55 2682.86
   12:02:14.632.07-Aug-2020 5127.01 3414.03 87.24 10.00 387.75 2682.86
   12:02:14.832.07-Aug-2020 5127.01 3413.91 87.24 10.00 387.95 2682.86
   12:02:15.032.07-Aug-2020 5127.01 3414.13 87.24 10.00 388.15 2682.86
   12:02:15.232.07-Aug-2020 5127.01 3414.13 87.24 10.00 388.35 2682.86
   12:02:15.432.07-Aug-2020 5127.01 3413.97 87.24 10.00 388.55 2682.86
   12:02:15.632.07-Aug-2020 5127.01 3414.06 87.24 10.00 388.75 2682.86
   12:02:15.832.07-Aug-2020 5127.01 3414.04 87.24 10.00 388.95 2682.86
   12:02:16.032.07-Aug-2020 5127.01 3414.01 87.23 10.00 389.15 2682.86
   12:02:16.232.07-Aug-2020 5127.01 3414.01 87.23 10.00 389.35 2682.86
   12:02:16.432.07-Aug-2020 5127.01 3414.04 87.23 10.00 389.55 2682.86
   12:02:16.632.07-Aug-2020 5127.01 3414.03 87.23 10.00 389.75 2682.86
   12:02:16.832.07-Aug-2020 5127.01 3414.02 87.23 10.00 389.95 2682.86
   12:02:17.033.07-Aug-2020 5127.01 3414.04 87.23 10.00 390.15 2682.86
   12:02:17.233.07-Aug-2020 5127.01 3414.04 87.23 10.00 390.35 2682.86
   12:02:17.433.07-Aug-2020 5127.01 3414.00 87.23 10.00 390.55 2682.86
   12:02:17.633.07-Aug-2020 5127.01 3413.87 87.23 10.00 390.75 2682.86
   12:02:17.833.07-Aug-2020 5127.01 3414.14 87.23 10.00 390.95 2682.86
   12:02:18.033.07-Aug-2020 5127.01 3414.09 87.23 10.00 391.15 2682.86
   12:02:18.233.07-Aug-2020 5127.01 3414.09 87.23 10.00 391.35 2682.86
   12:02:18.433.07-Aug-2020 5127.01 3414.04 87.23 10.00 391.55 2682.86
   12:02:18.633.07-Aug-2020 5127.01 3414.07 87.23 10.00 391.75 2682.86
   12:02:18.833.07-Aug-2020 5127.01 3414.03 87.23 10.00 391.95 2682.86
   12:02:19.033.07-Aug-2020 5127.01 3413.99 87.23 10.00 392.15 2682.86
   12:02:19.233.07-Aug-2020 5127.01 3413.99 87.23 10.00 392.35 2682.86
   12:02:19.433.07-Aug-2020 5127.01 3414.03 87.23 10.00 392.55 2682.86
   12:02:19.634.07-Aug-2020 5127.01 3413.87 87.23 10.00 392.75 2682.86
   12:02:19.834.07-Aug-2020 5127.01 3414.14 87.23 10.00 392.95 2682.86
   12:02:20.034.07-Aug-2020 5127.01 3414.10 87.23 10.00 393.15 2682.86
   12:02:20.234.07-Aug-2020 5127.01 3414.10 87.23 10.00 393.35 2682.86
   12:02:20.434.07-Aug-2020 5127.01 3414.09 87.23 10.00 393.55 2682.86
   12:02:20.634.07-Aug-2020 5127.01 3414.04 87.23 10.00 393.75 2682.86
   12:02:20.834.07-Aug-2020 5127.01 3413.96 87.23 10.00 393.95 2682.86
   12:02:21.034.07-Aug-2020 5127.01 3414.05 87.23 10.00 394.15 2682.86
   12:02:21.234.07-Aug-2020 5127.01 3414.05 87.23 10.00 394.35 2682.86
   12:02:21.434.07-Aug-2020 5127.01 3414.01 87.23 10.00 394.55 2682.86
   12:02:21.634.07-Aug-2020 5127.01 3414.03 87.22 10.00 394.75 2682.86
   12:02:21.834.07-Aug-2020 5127.01 3414.04 87.22 10.00 394.95 2682.86
   12:02:22.034.07-Aug-2020 5127.01 3414.01 87.22 10.00 395.15 2682.86
   12:02:22.235.07-Aug-2020 5127.01 3414.04 87.22 10.00 395.35 2682.86
   12:02:22.435.07-Aug-2020 5127.01 3414.02 87.22 10.00 395.55 2682.86
   12:02:22.635.07-Aug-2020 5127.01 3414.03 87.22 10.00 395.75 2682.86
   12:02:22.835.07-Aug-2020 5127.01 3414.02 87.22 10.00 395.95 2682.86
   12:02:23.035.07-Aug-2020 5127.01 3414.03 87.22 10.00 396.15 2682.86
   12:02:23.235.07-Aug-2020 5127.01 3414.03 87.22 10.00 396.35 2682.86
   12:02:23.435.07-Aug-2020 5127.01 3413.83 87.22 10.00 396.55 2682.86
   12:02:23.635.07-Aug-2020 5127.01 3414.16 87.22 10.00 396.75 2682.86
   12:02:23.835.07-Aug-2020 5127.01 3414.11 87.22 10.00 396.95 2682.86
   12:02:24.035.07-Aug-2020 5127.01 3413.92 87.22 10.00 397.15 2682.86
   12:02:24.235.07-Aug-2020 5127.01 3413.92 87.22 10.00 397.35 2682.86
   12:02:24.435.07-Aug-2020 5127.01 3414.03 87.22 10.00 397.55 2682.86
   12:02:24.635.07-Aug-2020 5127.01 3414.03 87.22 10.00 397.75 2682.86
   12:02:24.835.07-Aug-2020 5127.01 3414.01 87.22 10.00 397.95 2682.86
   12:02:25.036.07-Aug-2020 5127.01 3414.04 87.22 10.00 398.15 2682.86
   12:02:25.236.07-Aug-2020 5127.01 3414.04 87.22 10.00 398.35 2682.86
   12:02:25.436.07-Aug-2020 5127.01 3414.02 87.22 10.00 398.55 2682.86
   12:02:25.636.07-Aug-2020 5127.01 3414.00 87.22 10.00 398.75 2682.86
   12:02:25.836.07-Aug-2020 5127.01 3414.02 87.22 10.00 398.95 2682.86
   12:02:26.036.07-Aug-2020 5127.01 3414.01 87.22 10.00 399.15 2682.86
   12:02:26.236.07-Aug-2020 5127.01 3413.97 87.22 10.00 399.35 2682.86
   12:02:26.436.07-Aug-2020 5127.01 3414.04 87.22 10.00 399.55 2682.86
   12:02:26.636.07-Aug-2020 5127.01 3414.08 87.22 10.00 399.75 2682.86
   12:02:26.836.07-Aug-2020 5127.01 3413.92 87.22 10.00 399.95 2682.86
   12:02:27.036.07-Aug-2020 5127.01 3414.03 87.22 10.00 400.15 2682.86
   12:02:27.236.07-Aug-2020 5127.01 3414.03 87.22 10.00 400.35 2682.86
   12:02:27.436.07-Aug-2020 5127.01 3413.96 87.21 10.00 400.55 2682.86
   12:02:27.637.07-Aug-2020 5127.01 3414.05 87.21 10.00 400.75 2682.86
   12:02:27.837.07-Aug-2020 5127.01 3414.02 87.21 10.00 400.95 2682.86
   12:02:28.037.07-Aug-2020 5127.01 3414.03 87.21 10.00 401.15 2682.86
   12:02:28.237.07-Aug-2020 5127.01 3414.03 87.21 10.00 401.35 2682.86
   12:02:28.437.07-Aug-2020 5127.01 3414.05 87.21 10.00 401.55 2682.86
   12:02:28.637.07-Aug-2020 5127.01 3414.08 87.21 10.00 401.75 2682.86
   12:02:28.837.07-Aug-2020 5127.01 3413.96 87.21 10.00 401.95 2682.86
   12:02:29.037.07-Aug-2020 5127.01 3414.03 87.21 10.00 402.15 2682.86
   12:02:29.237.07-Aug-2020 5127.01 3414.03 87.21 10.00 402.35 2682.86
   12:02:29.437.07-Aug-2020 5127.01 3413.98 87.21 10.00 402.55 2682.86
   12:02:29.637.07-Aug-2020 5127.01 3414.05 87.21 10.00 402.75 2682.86
   12:02:29.837.07-Aug-2020 5127.01 3413.99 87.21 10.00 402.95 2682.86
   12:02:30.037.07-Aug-2020 5127.01 3414.03 87.21 10.00 403.15 2682.86
   12:02:30.238.07-Aug-2020 5127.01 3414.03 87.21 10.00 403.35 2682.86
   12:02:30.438.07-Aug-2020 5127.01 3414.06 87.21 10.00 403.55 2682.86
   12:02:30.638.07-Aug-2020 5127.01 3414.01 87.21 10.00 403.75 2682.86
   12:02:30.838.07-Aug-2020 5127.01 3414.02 87.21 10.00 403.95 2682.86
   12:02:31.038.07-Aug-2020 5127.01 3414.02 87.21 10.00 404.15 2682.86
   12:02:31.238.07-Aug-2020 5127.01 3414.02 87.21 10.00 404.35 2682.86
   12:02:31.438.07-Aug-2020 5127.01 3414.02 87.21 10.00 404.55 2682.86
   12:02:31.638.07-Aug-2020 5127.01 3414.01 87.21 10.00 404.75 2682.86
   12:02:31.838.07-Aug-2020 5127.01 3414.01 87.21 10.00 404.95 2682.86
   12:02:32.038.07-Aug-2020 5127.01 3413.79 87.21 10.00 405.15 2682.86
   12:02:32.238.07-Aug-2020 5127.01 3413.79 87.21 10.00 405.35 2682.86
   12:02:32.438.07-Aug-2020 5127.01 3414.08 87.21 10.00 405.55 2682.86
   12:02:32.638.07-Aug-2020 5127.01 3413.95 87.21 10.00 405.75 2682.86
   12:02:32.838.07-Aug-2020 5127.01 3414.04 87.21 10.00 405.95 2682.86
   12:02:33.039.07-Aug-2020 5127.01 3414.06 87.21 10.00 406.15 2682.86
   12:02:33.239.07-Aug-2020 5127.01 3414.06 87.21 10.00 406.35 2682.86
   12:02:33.439.07-Aug-2020 5127.01 3414.03 87.20 10.00 406.55 2682.86
   12:02:33.639.07-Aug-2020 5127.01 3414.02 87.20 10.00 406.75 2682.86
