~Version Information
 VERS.                  2.0:   CWLS log ASCII Standard -VERSION 2.0
 WRAP.                   NO:   One line per depth step
~Well Information Block
#MNEM.UNIT     VALUE/NAME     DESCRIPTION
#---------     -----------    ---------------------------
 STRT.S             16:10:03 06-Aug-20: START TIME 16:10:03 06-Aug-20
 STOP.S             16:17:57 06-Aug-20: STOP TIME  16:17:57 06-Aug-20
 STEP.S                   0.00: STEP TIME
 NULL.                 -999.25: NULL VALUE
 DFWT.                        :  DIST FWL TEXT
 DFST.                        :  DIST FSL TEXT
 DMF .             Drill Floor:  DRILL MEAS FROM
 STIM.      12.00.00 03-Jul-20:  START TIME
 DATE.      00.50.00 09-Aug-20:  END TIME
 SPUD.               03-Jul-20:  SPUD DATE
 NREF.                    Grid:  NORTH REFERENCE
 HPTY.       Minimum Curvature:  HOLE POS TYPE
 DMOD.             Drill Model:  DRILL MOD DESC
 SVYD.                  Survey:  SURVEY DESC
 ILTD.               Lithology:  INTERP LTH DESC
 FTOP.          Formation Tops:  FORM TOPS DESC
 PDAT.          Mean Sea Level:  PERMANENT DATUM
 FLD .                     ACG:  FIELD NAME
 CTRY.              Azerbaijan:  COUNTRY NAME
 WELL.                    E04x:  WELL NAME
 SRVC.          Turan Drilling:  CONTRACTOR
 COMP.     BP Exploration (Caspian Sea) Ltd.:  COMPANY
 SON .        AZ-XX-0906531346:  JOB NUMBER
 WTYP.                Deviated:  WELL TYPE
 MDS .        Operator Entered:  MAG DATA SOURCE
 UWI .                     N/A:  UNIQUE WELL IDENTIFIER
 API .                     N/A:  API NUMBER
 BASE.              Azerbaijan:  LOGGING EQUIPMENT BASE LOCATION
 REGN.                   EESSA:  REGION
 PROV.                    Baku:  PROVINCE
 STAT.                    Baku:  STATE NAME
 MWDS.                    Baku:  MWD SHOP
 JOBN.        AZ-XX-0906531346:  JOB TICKET NUMB
 RIG .                     DWG:  RIG NAME
 DOE .                     N/A:  DOE NUMBER
 DCON.         Sperry Drilling:  DIRECTNL CONTR
 UNIT.                     N/A:  LOGGING EQUIPMENT ID
 CNTY.                        :  COUNTY
 LOC .                        :  LOCATION
 LMF .             Drill Floor:  LOG MEASURED FROM
 TVDS.m                  43.16:  TVDSS CORRECTN
 LATI.deg                40.17:  LATITUDE
 LONG.deg                51.17:  LONGITUDE
 WHNS.m                  -0.12:  WELL HEAD N/S
 WHEW.m                  -5.41:  WELL HEAD E/W
 UTMX.m              514337.95:  UTM X
 UTMY.m             4448627.46:  UTM Y
 DFWL.m                   0.00:  DISTANCE FWL
 DFSL.m                   0.00:  DISTANCE FSL
 SDEP.m                3088.01:  START DEPTH
 TDD .m                5200.01:  TOTAL DEPTH (DRILLER)
 VSDR.deg               244.51:  VERT SEC DIRECT
 GVFD.g                   1.00:  GRAVITY FIELD
 MFLD.nT              50329.80:  MAGNETIC FIELD
 MDIP.deg                59.63:  MAGNETIC DIP
 MDEC.deg                 6.59:  MAGNETIC DECL
 GRDC.deg                 0.09:  GRID CORRECTION
 AZTC.deg                 6.50:  AZM TOTAL CORR
 EPD .m                   0.00:  ELEVATION
 EGL .m                   0.00:  GROUND ELEVATION
 WDMS.m                 176.20:  WD ELEV
 APD .m                  43.16:  DEPTH ABOVE PD
 DEP .m                3084.71:  DEPTH
 AGAP.m                  43.16:  AIR GAP
 VSEW.m                  -5.41:  VERT SEC E/W
 VSNS.m                  -0.12:  VERT SEC N/S
 EKB .m                   0.00:  KB ELEVATION
 EDF .m                  43.16:  DF ELEVATION
 TDL .m                 243.00:  TOTAL DEPTH (LOGGER)
 VSC .                       0:  VS TO CLOSURE
 MAGU.                 1853542:  MAGUTM CHECKSUM
~Parameter Information Block
#MNEM.UNIT       Value        Description
#---------     -----------    ---------------------------
 AV  .mps                 1.91:  Ann Velocity 
 AVMX.mps                 2.52:  Max Ann Veloc 
 AZIF.deg               308.97:  Azm, Final 
 BHAT.        Rotary Steerable:  BHA Type 
 BROT.°/30m               1.00:  Build Rotating 
 BS  .in                  6.50:  Bit Size 
 BSZ .in                  6.50:  Bit Size 
 BTPL.psig              350.00:  Bit Press Loss 
 CABU.                      No:  Customer Abuse 
 CGEO.           Asif Pashayev:  Customer Geo 
 COMM.                     Ôöj:  Run Comments 1 
 TCS .hr                 35.86:  Time Ciculation Ended 
 CV  .mps                 2.31:  Crit Velocity 
 CVMX.mps                 2.31:  Max Crit Veloc 
 DD1 .         Intigam Rahimov:  Direct Drillr 1 
 DDSV.               Geo-Pilot:  DD Service 
 DEFF.%                  92.00:  % Det Eff 
 DLRX.°/30m               1.00:  Dogleg Rot Max 
 DLSO.°/30m               1.00:  Dogleg Oriented 
 DLSX.°/30m               1.42:  Dogleg Str Max 
 DRET.      15.50.00 07-Aug-20:  Drill End Time 
 DRST.      10.40.00 06-Aug-20:  Drill Start Tim 
 DTIM.hr                 21.30:  Time Drilling 
 EDEP.m                5200.01:  End Depth 
 ENG1.            Alan Tuganov:  Engineer 1 
 ENG2.         Almaz Almadatov:  Engineer 2 
 ENG3.     Zammelal Abdullah Sani:  Engineer 3 
 ETIM.      22.42.00 08-Aug-20:  End Time 
 FLOI.gpm               395.00:  Flow In 
 FLON.gpm               350.00:  Flow In Min 
 FLOS.cptm                0.00:  Fluid Loss 
 FLOX.gpm               404.00:  Flow In Max 
 FTRO.       Formation Presure:  FTWD Run Obj 
 HFLO.                      No:  High Flow 
 HPRE.                      No:  High Pressure 
 HTEM.                      No:  High Temp 
 HYDO.m                   1.80:  Hydro Offset 
 IFIN.deg                72.64:  Inc, Final 
 IMAX.deg                73.68:  Inc Max 
 IMIN.deg                72.64:  Inc Min 
 IMND.m                5189.69:  Inc Min Depth 
 IMXD.m                5067.88:  Inc Max Depth 
 JARR.                      No:  Jarring 
 LETM.      15.50.00 07-Aug-20:  Log End Time 
 LOST.hr                     0:  Lost Rig Time 
 LSTM.      10.40.00 06-Aug-20:  Log Start Time 
 MDCL.ppm             36000.00:  Mud Chlorides 
 MDES.     Inversion Oil/Synthetic:  Mud Desc 
 DFD .sg                  1.36:  Mud Density 
 MDMN.sg                  1.36:  Dens Mud Min 
 MDMX.sg                  1.36:  Dens Mud Max 
 MOIL.                      70:  Run Mud Oil % 
 MOWR.                   70:30:  Run Mud OWR 
 MSND.                    0.00:  Run Mud Sand % 
 MSOL.                   17.60:  Run Mud Solids% 
 DFV .spqt               73.00:  Mud Viscosity 
 MWOD.in                  4.75:  MWD Tool OD 
 MWSI.                      No:  Serv Intrp, MWD 
 OTIM.hr                 85.66:  Time Operating 
 PCON.           Look Like New:  Pad Condition 
 PMAX.psia             6250.00:  Press Op, Max 
 PV  .cP                 65.00:  Mud PV 
 RUN .                     900:  Run Number 
 ROPA.m/hr               11.40:  ROP Avg 
 ROPN.m/hr                5.00:  ROP Min 
 ROPX.m/hr               20.00:  ROP Max 
 RPMA.rpm               130.00:  RPM Surface Avg 
 RPMN.rpm                40.00:  RPM Surface Min 
 RPMX.rpm               140.00:  RPM Surface Max 
 RRUN.                    L205:  Rig Run Number 
 RTIM.hr                  1.00:  Time Reaming 
 SAZI.deg               313.52:  Azm, Start 
 SDEP.m                4957.01:  Start Depth 
 SIDD.                      No:  Serv Intrp, DD 
 SINC.deg                73.16:  Inc, Start 
 SPPA.psig             5657.00:  SPP Avg 
 SPPN.psig             2500.00:  SPP Min 
 SPPX.psig             5806.00:  SPP Max 
 STIM.      07.12.00 05-Aug-20:  Start Time 
 SVCS.                 DD, MWD:  Services 
 SVER.                    9.20:  Sperry Version 
 TDAT.m                 243.00:  Tot Depth Attmp 
 TDDF.                      No:  Trip for DD 
 TDLG.m                 243.00:  Tot Depth Loggd 
 TFF .                      No:  Trip for Fail 
 TQAA.f-kp               13.00:  Torque Abs Avg 
 TQAN.f-kp               11.00:  Torque Abs Min 
 TQAX.f-kp               16.00:  Torque Abs Max 
 TRRT.°/30m               1.00:  Turn Rotating 
 MRT .                    HCIM:  Maximum Recorded Temperature 
 TTMX.degC               96.08:  Max Tool Temp 
 VS01.                90515411:  Virtual Str1 SN 
 VS02.                90512716:  Virtual Str2 SN 
 VS03.                90522362:  Virtual Str3 SN 
 VS04.                90619415:  Virtual Str4 SN 
 VS05.                90619414:  Virtual Str5 SN 
 VS06.                90597748:  Virtual Str6 SN 
 WBMN.klb                 2.00:  WOB Min 
 WITN.           Adil Mammadov:  Customer Rep 
 WITN.     Alexander Yadullayev:  Customer Rep 2 
 WOBA.klb                 7.00:  WOB Avg 
 WOBX.klb                23.00:  WOB Max 
 YP  .lhf2               37.00:  Yield Point 
~Curve Information Block
#MNEM.UNIT                 API CODE     Curve Description
#---------               -----------    ---------------------------
 TIME.HHMMSS            00 000 000 000:  GT Time & Date
 GTDEPTH.m              00 000 000 000:  GT Depth
 GTPQH.psia             00 000 000 000:  GT HR Quartz Pressure
 GTTQ.degC              00 000 000 000:  GT Quartz Temperature
 GTTN.NONE              00 000 000 000:  GT Test Number
 GTET.sec               00 000 000 000:  GT Elapsed Test Time
 GTTVD.m                00 000 000 000:  GT True Vertical Depth
#Other Information
#
#WARRANTY: Halliburton will use its best efforts to furnish customers with 
#accurate information and interpretations that are part of, and incident to, the services 
#provided.  However, Halliburton cannot and does not warrant the accuracy 
#or correctness of such information and interpretations.  Under no circumstances should any 
#such information or interpretation be relied upon as the sole basis for any drilling, 
#completion, production, or financial decision or any procedure involving any risk to the 
#safety of any drilling venture, drilling rig or its crew or any other third party.  The 
#Customer has full responsibility for all drilling, completion and production operation.  
#Halliburton makes no representations or warranties, either expressed or 
#implied, including, but not limited to, the implied warranties of merchantability or fitness 
#for a particular purpose, with respect to the services rendered.  In no event will 
#Halliburton be liable for failure to obtain any particular results or for 
#any damages, including, but not limited to, indirect, special or consequential damages, 
#resulting from the use of any information or interpretation provided by Halliburton.
#
~A           TIME           GTDEPTH  GTPQH  GTTQ  GTTN  GTET   GTTVD  
# ...
   16:16:34.541.06-Aug-2020 4955.01 4256.98 80.26 2.00 391.08 2633.27
   16:16:34.741.06-Aug-2020 4955.01 4256.98 80.26 2.00 391.28 2633.27
   16:16:34.941.06-Aug-2020 4955.01 4257.01 80.25 2.00 391.48 2633.27
   16:16:35.141.06-Aug-2020 4955.01 4257.02 80.25 2.00 391.68 2633.27
   16:16:35.341.06-Aug-2020 4955.01 4257.03 80.25 2.00 391.88 2633.27
   16:16:35.541.06-Aug-2020 4955.01 4257.05 80.25 2.00 392.08 2633.27
   16:16:35.741.06-Aug-2020 4955.01 4257.05 80.25 2.00 392.28 2633.27
   16:16:35.941.06-Aug-2020 4955.01 4257.07 80.25 2.00 392.48 2633.27
   16:16:36.141.06-Aug-2020 4955.01 4257.03 80.25 2.00 392.68 2633.27
   16:16:36.341.06-Aug-2020 4955.01 4257.04 80.25 2.00 392.88 2633.27
   16:16:36.541.06-Aug-2020 4955.01 4256.91 80.25 2.00 393.08 2633.27
   16:16:36.741.06-Aug-2020 4955.01 4256.91 80.25 2.00 393.28 2633.27
   16:16:36.941.06-Aug-2020 4955.01 4256.85 80.25 2.00 393.48 2633.27
   16:16:37.141.06-Aug-2020 4955.01 4257.02 80.25 2.00 393.68 2633.27
   16:16:37.341.06-Aug-2020 4955.01 4256.98 80.25 2.00 393.88 2633.27
   16:16:37.541.06-Aug-2020 4955.01 4257.06 80.25 2.00 394.08 2633.27
   16:16:37.742.06-Aug-2020 4955.01 4257.06 80.25 2.00 394.28 2633.27
   16:16:37.942.06-Aug-2020 4955.01 4256.95 80.25 2.00 394.48 2633.27
   16:16:38.142.06-Aug-2020 4955.01 4256.98 80.25 2.00 394.68 2633.27
   16:16:38.342.06-Aug-2020 4955.01 4257.12 80.25 2.00 394.88 2633.27
   16:16:38.542.06-Aug-2020 4955.01 4256.71 80.25 2.00 395.08 2633.27
   16:16:38.742.06-Aug-2020 4955.01 4256.71 80.25 2.00 395.28 2633.27
   16:16:38.942.06-Aug-2020 4955.01 4257.14 80.25 2.00 395.48 2633.27
   16:16:39.142.06-Aug-2020 4955.01 4257.20 80.25 2.00 395.68 2633.27
   16:16:39.342.06-Aug-2020 4955.01 4257.18 80.25 2.00 395.88 2633.27
   16:16:39.542.06-Aug-2020 4955.01 4256.83 80.25 2.00 396.08 2633.27
   16:16:39.742.06-Aug-2020 4955.01 4256.83 80.25 2.00 396.28 2633.27
   16:16:39.942.06-Aug-2020 4955.01 4257.21 80.25 2.00 396.48 2633.27
   16:16:40.142.06-Aug-2020 4955.01 4257.23 80.25 2.00 396.68 2633.27
   16:16:40.342.06-Aug-2020 4955.01 4257.22 80.25 2.00 396.88 2633.27
   16:16:40.542.06-Aug-2020 4955.01 4257.29 80.25 2.00 397.08 2633.27
   16:16:40.742.06-Aug-2020 4955.01 4257.29 80.25 2.00 397.28 2633.27
   16:16:40.942.06-Aug-2020 4955.01 4257.36 80.25 2.00 397.48 2633.27
   16:16:41.142.06-Aug-2020 4955.01 4257.33 80.25 2.00 397.68 2633.27
   16:16:41.342.06-Aug-2020 4955.01 4257.35 80.25 2.00 397.89 2633.27
   16:16:41.542.06-Aug-2020 4955.01 4257.30 80.25 2.00 398.09 2633.27
   16:16:41.742.06-Aug-2020 4955.01 4257.30 80.25 2.00 398.29 2633.27
   16:16:41.942.06-Aug-2020 4955.01 4257.32 80.24 2.00 398.49 2633.27
   16:16:42.142.06-Aug-2020 4955.01 4257.03 80.24 2.00 398.69 2633.27
   16:16:42.342.06-Aug-2020 4955.01 4257.17 80.24 2.00 398.89 2633.27
   16:16:42.543.06-Aug-2020 4955.01 4257.29 80.25 2.00 399.09 2633.27
   16:16:42.743.06-Aug-2020 4955.01 4257.30 80.24 2.00 399.29 2633.27
   16:16:42.943.06-Aug-2020 4955.01 4257.30 80.24 2.00 399.49 2633.27
   16:16:43.143.06-Aug-2020 4955.01 4257.30 80.24 2.00 399.69 2633.27
   16:16:43.343.06-Aug-2020 4955.01 4257.31 80.24 2.00 399.89 2633.27
   16:16:43.543.06-Aug-2020 4955.01 4257.29 80.24 2.00 400.09 2633.27
   16:16:43.743.06-Aug-2020 4955.01 4257.29 80.24 2.00 400.29 2633.27
   16:16:43.943.06-Aug-2020 4955.01 4257.35 80.24 2.00 400.49 2633.27
   16:16:44.143.06-Aug-2020 4955.01 4257.35 80.24 2.00 400.69 2633.27
   16:16:44.343.06-Aug-2020 4955.01 4257.35 80.24 2.00 400.89 2633.27
   16:16:44.543.06-Aug-2020 4955.01 4257.36 80.24 2.00 401.09 2633.27
   16:16:44.743.06-Aug-2020 4955.01 4257.36 80.24 2.00 401.29 2633.27
   16:16:44.943.06-Aug-2020 4955.01 4256.97 80.24 2.00 401.49 2633.27
   16:16:45.143.06-Aug-2020 4955.01 4257.26 80.24 2.00 401.69 2633.27
   16:16:45.343.06-Aug-2020 4955.01 4257.30 80.24 2.00 401.89 2633.27
   16:16:45.543.06-Aug-2020 4955.01 4257.33 80.24 2.00 402.09 2633.27
   16:16:45.743.06-Aug-2020 4955.01 4257.33 80.24 2.00 402.29 2633.27
   16:16:45.943.06-Aug-2020 4955.01 4257.35 80.24 2.00 402.49 2633.27
   16:16:46.143.06-Aug-2020 4955.01 4256.98 80.24 2.00 402.69 2633.27
   16:16:46.343.06-Aug-2020 4955.01 4257.28 80.24 2.00 402.89 2633.27
   16:16:46.543.06-Aug-2020 4955.01 4257.35 80.24 2.00 403.09 2633.27
   16:16:46.743.06-Aug-2020 4955.01 4257.35 80.24 2.00 403.29 2633.27
   16:16:46.943.06-Aug-2020 4955.01 4257.15 80.24 2.00 403.49 2633.27
   16:16:47.144.06-Aug-2020 4955.01 4257.32 80.24 2.00 403.69 2633.27
   16:16:47.344.06-Aug-2020 4955.01 4257.37 80.24 2.00 403.89 2633.27
   16:16:47.544.06-Aug-2020 4955.01 4257.46 80.24 2.00 404.09 2633.27
   16:16:47.744.06-Aug-2020 4955.01 4257.46 80.24 2.00 404.29 2633.27
   16:16:47.944.06-Aug-2020 4955.01 4257.27 80.24 2.00 404.49 2633.27
   16:16:48.144.06-Aug-2020 4955.01 4257.33 80.24 2.00 404.69 2633.27
   16:16:48.344.06-Aug-2020 4955.01 4257.47 80.24 2.00 404.89 2633.27
   16:16:48.544.06-Aug-2020 4955.01 4257.46 80.24 2.00 405.09 2633.27
   16:16:48.744.06-Aug-2020 4955.01 4257.46 80.24 2.00 405.29 2633.27
   16:16:48.944.06-Aug-2020 4955.01 4257.54 80.24 2.00 405.49 2633.27
   16:16:49.144.06-Aug-2020 4955.01 4257.62 80.24 2.00 405.69 2633.27
   16:16:49.344.06-Aug-2020 4955.01 4257.57 80.23 2.00 405.89 2633.27
   16:16:49.544.06-Aug-2020 4955.01 4257.58 80.23 2.00 406.09 2633.27
   16:16:49.744.06-Aug-2020 4955.01 4257.58 80.23 2.00 406.29 2633.27
   16:16:49.944.06-Aug-2020 4955.01 4257.57 80.23 2.00 406.49 2633.27
   16:16:50.144.06-Aug-2020 4955.01 4257.59 80.23 2.00 406.69 2633.27
   16:16:50.344.06-Aug-2020 4955.01 4257.54 80.23 2.00 406.89 2633.27
   16:16:50.544.06-Aug-2020 4955.01 4257.28 80.23 2.00 407.09 2633.27
   16:16:50.744.06-Aug-2020 4955.01 4257.28 80.23 2.00 407.29 2633.27
   16:16:50.944.06-Aug-2020 4955.01 4257.53 80.23 2.00 407.49 2633.27
   16:16:51.144.06-Aug-2020 4955.01 4257.49 80.23 2.00 407.69 2633.27
   16:16:51.344.06-Aug-2020 4955.01 4257.56 80.23 2.00 407.89 2633.27
   16:16:51.544.06-Aug-2020 4955.01 4257.52 80.23 2.00 408.09 2633.27
   16:16:51.745.06-Aug-2020 4955.01 4257.52 80.23 2.00 408.29 2633.27
   16:16:51.945.06-Aug-2020 4955.01 4257.53 80.23 2.00 408.49 2633.27
   16:16:52.145.06-Aug-2020 4955.01 4257.61 80.23 2.00 408.69 2633.27
   16:16:52.345.06-Aug-2020 4955.01 4257.54 80.23 2.00 408.89 2633.27
   16:16:52.545.06-Aug-2020 4955.01 4257.59 80.23 2.00 409.09 2633.27
   16:16:52.745.06-Aug-2020 4955.01 4257.59 80.23 2.00 409.29 2633.27
   16:16:52.945.06-Aug-2020 4955.01 4257.60 80.23 2.00 409.49 2633.27
   16:16:53.145.06-Aug-2020 4955.01 4257.47 80.23 2.00 409.69 2633.27
   16:16:53.345.06-Aug-2020 4955.01 4257.35 80.23 2.00 409.89 2633.27
   16:16:53.545.06-Aug-2020 4955.01 4257.41 80.23 2.00 410.09 2633.27
   16:16:53.745.06-Aug-2020 4955.01 4257.41 80.23 2.00 410.29 2633.27
   16:16:53.945.06-Aug-2020 4955.01 4257.54 80.23 2.00 410.49 2633.27
   16:16:54.145.06-Aug-2020 4955.01 4257.59 80.23 2.00 410.69 2633.27
   16:16:54.345.06-Aug-2020 4955.01 4257.43 80.23 2.00 410.89 2633.27
   16:16:54.545.06-Aug-2020 4955.01 4257.40 80.23 2.00 411.09 2633.27
   16:16:54.745.06-Aug-2020 4955.01 4257.40 80.23 2.00 411.29 2633.27
   16:16:54.945.06-Aug-2020 4955.01 4257.57 80.23 2.00 411.49 2633.27
   16:16:55.145.06-Aug-2020 4955.01 4257.24 80.23 2.00 411.69 2633.27
   16:16:55.345.06-Aug-2020 4955.01 4257.46 80.23 2.00 411.89 2633.27
   16:16:55.545.06-Aug-2020 4955.01 4257.57 80.23 2.00 412.09 2633.27
   16:16:55.745.06-Aug-2020 4955.01 4257.57 80.23 2.00 412.29 2633.27
   16:16:55.945.06-Aug-2020 4955.01 4257.65 80.23 2.00 412.49 2633.27
   16:16:56.145.06-Aug-2020 4955.01 4257.63 80.23 2.00 412.69 2633.27
   16:16:56.345.06-Aug-2020 4955.01 4257.47 80.23 2.00 412.89 2633.27
   16:16:56.546.06-Aug-2020 4955.01 4257.55 80.22 2.00 413.09 2633.27
   16:16:56.746.06-Aug-2020 4955.01 4257.55 80.22 2.00 413.29 2633.27
   16:16:56.946.06-Aug-2020 4955.01 4257.73 80.22 2.00 413.49 2633.27
   16:16:57.146.06-Aug-2020 4955.01 4257.83 80.22 2.00 413.69 2633.27
   16:16:57.346.06-Aug-2020 4955.01 4257.79 80.22 2.00 413.89 2633.27
