~Version Information
 VERS.                  2.0:   CWLS log ASCII Standard -VERSION 2.0
 WRAP.                   NO:   One line per depth step
~Well Information Block
#MNEM.UNIT     VALUE/NAME     DESCRIPTION
#---------     -----------    ---------------------------
 STRT.S             09:21:48 07-Aug-20: START TIME 09:21:48 07-Aug-20
 STOP.S             09:29:41 07-Aug-20: STOP TIME  09:29:41 07-Aug-20
 STEP.S                   0.00: STEP TIME
 NULL.                 -999.25: NULL VALUE
 DFWT.                        :  DIST FWL TEXT
 DFST.                        :  DIST FSL TEXT
 DMF .             Drill Floor:  DRILL MEAS FROM
 STIM.      12.00.00 03-Jul-20:  START TIME
 DATE.      00.50.00 09-Aug-20:  END TIME
 SPUD.               03-Jul-20:  SPUD DATE
 NREF.                    Grid:  NORTH REFERENCE
 HPTY.       Minimum Curvature:  HOLE POS TYPE
 DMOD.             Drill Model:  DRILL MOD DESC
 SVYD.                  Survey:  SURVEY DESC
 ILTD.               Lithology:  INTERP LTH DESC
 FTOP.          Formation Tops:  FORM TOPS DESC
 PDAT.          Mean Sea Level:  PERMANENT DATUM
 FLD .                     ACG:  FIELD NAME
 CTRY.              Azerbaijan:  COUNTRY NAME
 WELL.                    E04x:  WELL NAME
 SRVC.          Turan Drilling:  CONTRACTOR
 COMP.     BP Exploration (Caspian Sea) Ltd.:  COMPANY
 SON .        AZ-XX-0906531346:  JOB NUMBER
 WTYP.                Deviated:  WELL TYPE
 MDS .        Operator Entered:  MAG DATA SOURCE
 UWI .                     N/A:  UNIQUE WELL IDENTIFIER
 API .                     N/A:  API NUMBER
 BASE.              Azerbaijan:  LOGGING EQUIPMENT BASE LOCATION
 REGN.                   EESSA:  REGION
 PROV.                    Baku:  PROVINCE
 STAT.                    Baku:  STATE NAME
 MWDS.                    Baku:  MWD SHOP
 JOBN.        AZ-XX-0906531346:  JOB TICKET NUMB
 RIG .                     DWG:  RIG NAME
 DOE .                     N/A:  DOE NUMBER
 DCON.         Sperry Drilling:  DIRECTNL CONTR
 UNIT.                     N/A:  LOGGING EQUIPMENT ID
 CNTY.                        :  COUNTY
 LOC .                        :  LOCATION
 LMF .             Drill Floor:  LOG MEASURED FROM
 TVDS.m                  43.16:  TVDSS CORRECTN
 LATI.deg                40.17:  LATITUDE
 LONG.deg                51.17:  LONGITUDE
 WHNS.m                  -0.12:  WELL HEAD N/S
 WHEW.m                  -5.41:  WELL HEAD E/W
 UTMX.m              514337.95:  UTM X
 UTMY.m             4448627.46:  UTM Y
 DFWL.m                   0.00:  DISTANCE FWL
 DFSL.m                   0.00:  DISTANCE FSL
 SDEP.m                3088.01:  START DEPTH
 TDD .m                5200.01:  TOTAL DEPTH (DRILLER)
 VSDR.deg               244.51:  VERT SEC DIRECT
 GVFD.g                   1.00:  GRAVITY FIELD
 MFLD.nT              50329.80:  MAGNETIC FIELD
 MDIP.deg                59.63:  MAGNETIC DIP
 MDEC.deg                 6.59:  MAGNETIC DECL
 GRDC.deg                 0.09:  GRID CORRECTION
 AZTC.deg                 6.50:  AZM TOTAL CORR
 EPD .m                   0.00:  ELEVATION
 EGL .m                   0.00:  GROUND ELEVATION
 WDMS.m                 176.20:  WD ELEV
 APD .m                  43.16:  DEPTH ABOVE PD
 DEP .m                3084.71:  DEPTH
 AGAP.m                  43.16:  AIR GAP
 VSEW.m                  -5.41:  VERT SEC E/W
 VSNS.m                  -0.12:  VERT SEC N/S
 EKB .m                   0.00:  KB ELEVATION
 EDF .m                  43.16:  DF ELEVATION
 TDL .m                 243.00:  TOTAL DEPTH (LOGGER)
 VSC .                       0:  VS TO CLOSURE
 MAGU.                 1853542:  MAGUTM CHECKSUM
~Parameter Information Block
#MNEM.UNIT       Value        Description
#---------     -----------    ---------------------------
 AV  .mps                 1.91:  Ann Velocity 
 AVMX.mps                 2.52:  Max Ann Veloc 
 AZIF.deg               308.97:  Azm, Final 
 BHAT.        Rotary Steerable:  BHA Type 
 BROT.∞/30m               1.00:  Build Rotating 
 BS  .in                  6.50:  Bit Size 
 BSZ .in                  6.50:  Bit Size 
 BTPL.psig              350.00:  Bit Press Loss 
 CABU.                      No:  Customer Abuse 
 CGEO.           Asif Pashayev:  Customer Geo 
 COMM.                     ,[Å:  Run Comments 1 
 TCS .hr                 35.86:  Time Ciculation Ended 
 CV  .mps                 2.31:  Crit Velocity 
 CVMX.mps                 2.31:  Max Crit Veloc 
 DD1 .         Intigam Rahimov:  Direct Drillr 1 
 DDSV.               Geo-Pilot:  DD Service 
 DEFF.%                  92.00:  % Det Eff 
 DLRX.∞/30m               1.00:  Dogleg Rot Max 
 DLSO.∞/30m               1.00:  Dogleg Oriented 
 DLSX.∞/30m               1.42:  Dogleg Str Max 
 DRET.      15.50.00 07-Aug-20:  Drill End Time 
 DRST.      10.40.00 06-Aug-20:  Drill Start Tim 
 DTIM.hr                 21.30:  Time Drilling 
 EDEP.m                5200.01:  End Depth 
 ENG1.            Alan Tuganov:  Engineer 1 
 ENG2.         Almaz Almadatov:  Engineer 2 
 ENG3.     Zammelal Abdullah Sani:  Engineer 3 
 ETIM.      22.42.00 08-Aug-20:  End Time 
 FLOI.gpm               395.00:  Flow In 
 FLON.gpm               350.00:  Flow In Min 
 FLOS.cptm                0.00:  Fluid Loss 
 FLOX.gpm               404.00:  Flow In Max 
 FTRO.       Formation Presure:  FTWD Run Obj 
 HFLO.                      No:  High Flow 
 HPRE.                      No:  High Pressure 
 HTEM.                      No:  High Temp 
 HYDO.m                   1.80:  Hydro Offset 
 IFIN.deg                72.64:  Inc, Final 
 IMAX.deg                73.68:  Inc Max 
 IMIN.deg                72.64:  Inc Min 
 IMND.m                5189.69:  Inc Min Depth 
 IMXD.m                5067.88:  Inc Max Depth 
 JARR.                      No:  Jarring 
 LETM.      15.50.00 07-Aug-20:  Log End Time 
 LOST.hr                     0:  Lost Rig Time 
 LSTM.      10.40.00 06-Aug-20:  Log Start Time 
 MDCL.ppm             36000.00:  Mud Chlorides 
 MDES.     Inversion Oil/Synthetic:  Mud Desc 
 DFD .sg                  1.36:  Mud Density 
 MDMN.sg                  1.36:  Dens Mud Min 
 MDMX.sg                  1.36:  Dens Mud Max 
 MOIL.                      70:  Run Mud Oil % 
 MOWR.                   70:30:  Run Mud OWR 
 MSND.                    0.00:  Run Mud Sand % 
 MSOL.                   17.60:  Run Mud Solids% 
 DFV .spqt               73.00:  Mud Viscosity 
 MWOD.in                  4.75:  MWD Tool OD 
 MWSI.                      No:  Serv Intrp, MWD 
 OTIM.hr                 85.66:  Time Operating 
 PCON.           Look Like New:  Pad Condition 
 PMAX.psia             6250.00:  Press Op, Max 
 PV  .cP                 65.00:  Mud PV 
 RUN .                     900:  Run Number 
 ROPA.m/hr               11.40:  ROP Avg 
 ROPN.m/hr                5.00:  ROP Min 
 ROPX.m/hr               20.00:  ROP Max 
 RPMA.rpm               130.00:  RPM Surface Avg 
 RPMN.rpm                40.00:  RPM Surface Min 
 RPMX.rpm               140.00:  RPM Surface Max 
 RRUN.                    L205:  Rig Run Number 
 RTIM.hr                  1.00:  Time Reaming 
 SAZI.deg               313.52:  Azm, Start 
 SDEP.m                4957.01:  Start Depth 
 SIDD.                      No:  Serv Intrp, DD 
 SINC.deg                73.16:  Inc, Start 
 SPPA.psig             5657.00:  SPP Avg 
 SPPN.psig             2500.00:  SPP Min 
 SPPX.psig             5806.00:  SPP Max 
 STIM.      07.12.00 05-Aug-20:  Start Time 
 SVCS.                 DD, MWD:  Services 
 SVER.                    9.20:  Sperry Version 
 TDAT.m                 243.00:  Tot Depth Attmp 
 TDDF.                      No:  Trip for DD 
 TDLG.m                 243.00:  Tot Depth Loggd 
 TFF .                      No:  Trip for Fail 
 TQAA.f-kp               13.00:  Torque Abs Avg 
 TQAN.f-kp               11.00:  Torque Abs Min 
 TQAX.f-kp               16.00:  Torque Abs Max 
 TRRT.∞/30m               1.00:  Turn Rotating 
 MRT .                    HCIM:  Maximum Recorded Temperature 
 TTMX.degC               96.08:  Max Tool Temp 
 VS01.                90515411:  Virtual Str1 SN 
 VS02.                90512716:  Virtual Str2 SN 
 VS03.                90522362:  Virtual Str3 SN 
 VS04.                90619415:  Virtual Str4 SN 
 VS05.                90619414:  Virtual Str5 SN 
 VS06.                90597748:  Virtual Str6 SN 
 WBMN.klb                 2.00:  WOB Min 
 WITN.           Adil Mammadov:  Customer Rep 
 WITN.     Alexander Yadullayev:  Customer Rep 2 
 WOBA.klb                 7.00:  WOB Avg 
 WOBX.klb                23.00:  WOB Max 
 YP  .lhf2               37.00:  Yield Point 
~Curve Information Block
#MNEM.UNIT                 API CODE     Curve Description
#---------               -----------    ---------------------------
 TIME.HHMMSS            00 000 000 000:  GT Time & Date
 GTDEPTH.m              00 000 000 000:  GT Depth
 GTPQH.psia             00 000 000 000:  GT HR Quartz Pressure
 GTTQ.degC              00 000 000 000:  GT Quartz Temperature
 GTTN.NONE              00 000 000 000:  GT Test Number
 GTET.sec               00 000 000 000:  GT Elapsed Test Time
 GTTVD.m                00 000 000 000:  GT True Vertical Depth
#Other Information
#
#WARRANTY: Halliburton will use its best efforts to furnish customers with 
#accurate information and interpretations that are part of, and incident to, the services 
#provided.  However, Halliburton cannot and does not warrant the accuracy 
#or correctness of such information and interpretations.  Under no circumstances should any 
#such information or interpretation be relied upon as the sole basis for any drilling, 
#completion, production, or financial decision or any procedure involving any risk to the 
#safety of any drilling venture, drilling rig or its crew or any other third party.  The 
#Customer has full responsibility for all drilling, completion and production operation.  
#Halliburton makes no representations or warranties, either expressed or 
#implied, including, but not limited to, the implied warranties of merchantability or fitness 
#for a particular purpose, with respect to the services rendered.  In no event will 
#Halliburton be liable for failure to obtain any particular results or for 
#any damages, including, but not limited to, indirect, special or consequential damages, 
#resulting from the use of any information or interpretation provided by Halliburton.
#
~A           TIME           GTDEPTH  GTPQH  GTTQ  GTTN  GTET   GTTVD  
# ...
   09:29:05.443.07-Aug-2020 5109.01 3406.23 86.12 9.00 436.87 2677.54
   09:29:05.643.07-Aug-2020 5109.01 3406.23 86.12 9.00 437.07 2677.54
   09:29:05.843.07-Aug-2020 5109.01 3406.42 86.12 9.00 437.27 2677.54
   09:29:06.043.07-Aug-2020 5109.01 3406.32 86.12 9.00 437.47 2677.54
   09:29:06.243.07-Aug-2020 5109.01 3406.30 86.12 9.00 437.67 2677.54
   09:29:06.443.07-Aug-2020 5109.01 3406.42 86.12 9.00 437.87 2677.54
   09:29:06.643.07-Aug-2020 5109.01 3406.42 86.12 9.00 438.07 2677.54
   09:29:06.843.07-Aug-2020 5109.01 3406.33 86.12 9.00 438.27 2677.54
   09:29:07.043.07-Aug-2020 5109.01 3406.40 86.12 9.00 438.47 2677.54
   09:29:07.242.07-Aug-2020 5109.01 3406.85 86.12 9.00 438.67 2677.54
   09:29:07.442.07-Aug-2020 5109.01 3409.32 86.12 9.00 438.87 2677.54
   09:29:07.642.07-Aug-2020 5109.01 3409.32 86.12 9.00 439.07 2677.54
   09:29:07.842.07-Aug-2020 5109.01 5868.00 86.11 9.00 439.27 2677.54
   09:29:08.042.07-Aug-2020 5109.01 5857.00 86.11 9.00 439.47 2677.54
   09:29:08.242.07-Aug-2020 5109.01 5862.93 86.11 9.00 439.67 2677.54
   09:29:08.442.07-Aug-2020 5109.01 5865.35 86.11 9.00 439.87 2677.54
   09:29:08.642.07-Aug-2020 5109.01 5865.35 86.11 9.00 440.07 2677.54
   09:29:08.842.07-Aug-2020 5109.01 5865.81 86.11 9.00 440.27 2677.54
   09:29:09.042.07-Aug-2020 5109.01 5865.85 86.11 9.00 440.47 2677.54
   09:29:09.242.07-Aug-2020 5109.01 5863.88 86.11 9.00 440.67 2677.54
   09:29:09.442.07-Aug-2020 5109.01 5867.22 86.11 9.00 440.87 2677.54
   09:29:09.642.07-Aug-2020 5109.01 5868.32 86.11 9.00 441.07 2677.54
   09:29:09.842.07-Aug-2020 5109.01 5866.57 86.11 9.00 441.27 2677.54
   09:29:10.042.07-Aug-2020 5109.01 5870.06 86.11 9.00 441.47 2677.54
   09:29:10.242.07-Aug-2020 5109.01 5869.54 86.11 9.00 441.67 2677.54
   09:29:10.442.07-Aug-2020 5109.01 5870.20 86.12 9.00 441.87 2677.54
   09:29:10.641.07-Aug-2020 5109.01 5870.20 86.12 9.00 442.07 2677.54
   09:29:10.841.07-Aug-2020 5109.01 5871.35 86.12 9.00 442.27 2677.54
   09:29:11.041.07-Aug-2020 5109.01 5870.87 86.12 9.00 442.47 2677.54
   09:29:11.241.07-Aug-2020 5109.01 5861.75 86.12 9.00 442.67 2677.54
   09:29:11.441.07-Aug-2020 5109.01 5872.65 86.12 9.00 442.87 2677.54
   09:29:11.641.07-Aug-2020 5109.01 5872.65 86.12 9.00 443.07 2677.54
   09:29:11.841.07-Aug-2020 5109.01 5865.43 86.12 9.00 443.27 2677.54
   09:29:12.041.07-Aug-2020 5109.01 5870.57 86.12 9.00 443.47 2677.54
   09:29:12.241.07-Aug-2020 5109.01 5872.77 86.12 9.00 443.67 2677.54
   09:29:12.441.07-Aug-2020 5109.01 5869.67 86.12 9.00 443.87 2677.54
   09:29:12.641.07-Aug-2020 5109.01 5869.67 86.12 9.00 444.07 2677.54
   09:29:12.841.07-Aug-2020 5109.01 5871.93 86.12 9.00 444.27 2677.54
   09:29:13.041.07-Aug-2020 5109.01 5871.93 86.12 9.00 444.47 2677.54
   09:29:13.241.07-Aug-2020 5109.01 5871.31 86.12 9.00 444.67 2677.54
   09:29:13.441.07-Aug-2020 5109.01 5872.05 86.12 9.00 444.87 2677.54
   09:29:13.641.07-Aug-2020 5109.01 5871.29 86.12 9.00 445.07 2677.54
   09:29:13.841.07-Aug-2020 5109.01 5871.04 86.12 9.00 445.27 2677.54
   09:29:14.040.07-Aug-2020 5109.01 5861.93 86.12 9.00 445.47 2677.54
   09:29:14.240.07-Aug-2020 5109.01 5872.30 86.12 9.00 445.67 2677.54
   09:29:14.440.07-Aug-2020 5109.01 5872.27 86.12 9.00 445.87 2677.54
   09:29:14.640.07-Aug-2020 5109.01 5872.27 86.12 9.00 446.07 2677.54
   09:29:14.840.07-Aug-2020 5109.01 5861.74 86.12 9.00 446.27 2677.54
   09:29:15.040.07-Aug-2020 5109.01 5872.49 86.12 9.00 446.47 2677.54
   09:29:15.240.07-Aug-2020 5109.01 5872.01 86.12 9.00 446.67 2677.54
   09:29:15.440.07-Aug-2020 5109.01 5865.39 86.12 9.00 446.87 2677.54
   09:29:15.640.07-Aug-2020 5109.01 5865.39 86.12 9.00 447.07 2677.54
   09:29:15.840.07-Aug-2020 5109.01 5870.38 86.12 9.00 447.27 2677.54
   09:29:16.040.07-Aug-2020 5109.01 5864.33 86.12 9.00 447.47 2677.54
   09:29:16.240.07-Aug-2020 5109.01 5872.40 86.12 9.00 447.67 2677.54
   09:29:16.440.07-Aug-2020 5109.01 5868.11 86.12 9.00 447.87 2677.54
   09:29:16.640.07-Aug-2020 5109.01 5868.11 86.12 9.00 448.07 2677.54
   09:29:16.840.07-Aug-2020 5109.01 5872.06 86.13 9.00 448.26 2677.54
   09:29:17.040.07-Aug-2020 5109.01 5860.58 86.12 9.00 448.46 2677.54
   09:29:17.239.07-Aug-2020 5109.01 5872.15 86.13 9.00 448.66 2677.54
   09:29:17.439.07-Aug-2020 5109.01 5874.67 86.13 9.00 448.86 2677.54
   09:29:17.639.07-Aug-2020 5109.01 5865.11 86.13 9.00 449.06 2677.54
   09:29:17.839.07-Aug-2020 5109.01 5869.99 86.13 9.00 449.26 2677.54
   09:29:18.039.07-Aug-2020 5109.01 5872.56 86.13 9.00 449.46 2677.54
   09:29:18.239.07-Aug-2020 5109.01 5870.02 86.13 9.00 449.66 2677.54
   09:29:18.439.07-Aug-2020 5109.01 5871.77 86.13 9.00 449.86 2677.54
   09:29:18.639.07-Aug-2020 5109.01 5871.77 86.13 9.00 450.06 2677.54
   09:29:18.839.07-Aug-2020 5109.01 5871.46 86.13 9.00 450.26 2677.54
   09:29:19.039.07-Aug-2020 5109.01 5871.57 86.13 9.00 450.46 2677.54
   09:29:19.239.07-Aug-2020 5109.01 5872.79 86.13 9.00 450.66 2677.54
   09:29:19.439.07-Aug-2020 5109.01 5871.81 86.13 9.00 450.86 2677.54
   09:29:19.639.07-Aug-2020 5109.01 5871.81 86.13 9.00 451.06 2677.54
   09:29:19.839.07-Aug-2020 5109.01 5865.87 86.13 9.00 451.26 2677.54
   09:29:20.039.07-Aug-2020 5109.01 5871.99 86.13 9.00 451.46 2677.54
   09:29:20.239.07-Aug-2020 5109.01 5868.68 86.13 9.00 451.66 2677.54
   09:29:20.439.07-Aug-2020 5109.01 5870.44 86.13 9.00 451.86 2677.54
   09:29:20.638.07-Aug-2020 5109.01 5870.44 86.13 9.00 452.06 2677.54
   09:29:20.838.07-Aug-2020 5109.01 5870.93 86.13 9.00 452.26 2677.54
   09:29:21.038.07-Aug-2020 5109.01 5870.89 86.13 9.00 452.46 2677.54
   09:29:21.238.07-Aug-2020 5109.01 5871.55 86.13 9.00 452.66 2677.54
   09:29:21.438.07-Aug-2020 5109.01 5871.80 86.13 9.00 452.86 2677.54
   09:29:21.638.07-Aug-2020 5109.01 5871.49 86.13 9.00 453.06 2677.54
   09:29:21.838.07-Aug-2020 5109.01 5871.68 86.13 9.00 453.26 2677.54
   09:29:22.038.07-Aug-2020 5109.01 5871.69 86.13 9.00 453.46 2677.54
   09:29:22.238.07-Aug-2020 5109.01 5871.39 86.13 9.00 453.66 2677.54
   09:29:22.438.07-Aug-2020 5109.01 5870.64 86.13 9.00 453.86 2677.54
   09:29:22.638.07-Aug-2020 5109.01 5870.64 86.13 9.00 454.06 2677.54
   09:29:22.838.07-Aug-2020 5109.01 5871.28 86.13 9.00 454.26 2677.54
   09:29:23.038.07-Aug-2020 5109.01 5870.81 86.13 9.00 454.46 2677.54
   09:29:23.238.07-Aug-2020 5109.01 5866.38 86.13 9.00 454.66 2677.54
   09:29:23.438.07-Aug-2020 5109.01 5870.48 86.13 9.00 454.86 2677.54
   09:29:23.638.07-Aug-2020 5109.01 5870.48 86.13 9.00 455.06 2677.54
   09:29:23.838.07-Aug-2020 5109.01 5859.70 86.13 9.00 455.26 2677.54
   09:29:24.037.07-Aug-2020 5109.01 5871.39 86.13 9.00 455.46 2677.54
   09:29:24.237.07-Aug-2020 5109.01 5874.28 86.13 9.00 455.66 2677.54
   09:29:24.437.07-Aug-2020 5109.01 5863.73 86.13 9.00 455.86 2677.54
   09:29:24.637.07-Aug-2020 5109.01 5863.73 86.13 9.00 456.06 2677.54
   09:29:24.837.07-Aug-2020 5109.01 5867.51 86.13 9.00 456.26 2677.54
   09:29:25.037.07-Aug-2020 5109.01 5866.24 86.12 9.00 456.46 2677.54
   09:29:25.237.07-Aug-2020 5109.01 5871.65 86.12 9.00 456.66 2677.54
   09:29:25.437.07-Aug-2020 5109.01 5867.19 86.12 9.00 456.86 2677.54
   09:29:25.637.07-Aug-2020 5109.01 5867.19 86.12 9.00 457.06 2677.54
   09:29:25.837.07-Aug-2020 5109.01 5867.02 86.12 9.00 457.26 2677.54
   09:29:26.037.07-Aug-2020 5109.01 5870.83 86.12 9.00 457.46 2677.54
   09:29:26.237.07-Aug-2020 5109.01 5867.65 86.12 9.00 457.66 2677.54
   09:29:26.437.07-Aug-2020 5109.01 5869.95 86.12 9.00 457.86 2677.54
   09:29:26.637.07-Aug-2020 5109.01 5869.95 86.12 9.00 458.06 2677.54
   09:29:26.837.07-Aug-2020 5109.01 5871.11 86.12 9.00 458.26 2677.54
   09:29:27.037.07-Aug-2020 5109.01 5871.81 86.12 9.00 458.46 2677.54
   09:29:27.236.07-Aug-2020 5109.01 5872.32 86.12 9.00 458.66 2677.54
   09:29:27.436.07-Aug-2020 5109.01 5871.72 86.12 9.00 458.86 2677.54
   09:29:27.636.07-Aug-2020 5109.01 5871.72 86.12 9.00 459.06 2677.54
   09:29:27.836.07-Aug-2020 5109.01 5871.50 86.12 9.00 459.26 2677.54
   09:29:28.036.07-Aug-2020 5109.01 5872.24 86.12 9.00 459.46 2677.54
   09:29:28.236.07-Aug-2020 5109.01 5871.98 86.12 9.00 459.66 2677.54
