~Version Information
 VERS.                  2.0:   CWLS log ASCII Standard -VERSION 2.0
 WRAP.                   NO:   One line per depth step
~Well Information Block
#MNEM.UNIT     VALUE/NAME     DESCRIPTION
#---------     -----------    ---------------------------
 STRT.S             01:47:02 07-Aug-20: START TIME 01:47:02 07-Aug-20
 STOP.S             01:54:54 07-Aug-20: STOP TIME  01:54:54 07-Aug-20
 STEP.S                   0.00: STEP TIME
 NULL.                 -999.25: NULL VALUE
 DFWT.                        :  DIST FWL TEXT
 DFST.                        :  DIST FSL TEXT
 DMF .             Drill Floor:  DRILL MEAS FROM
 STIM.      12.00.00 03-Jul-20:  START TIME
 DATE.      00.50.00 09-Aug-20:  END TIME
 SPUD.               03-Jul-20:  SPUD DATE
 NREF.                    Grid:  NORTH REFERENCE
 HPTY.       Minimum Curvature:  HOLE POS TYPE
 DMOD.             Drill Model:  DRILL MOD DESC
 SVYD.                  Survey:  SURVEY DESC
 ILTD.               Lithology:  INTERP LTH DESC
 FTOP.          Formation Tops:  FORM TOPS DESC
 PDAT.          Mean Sea Level:  PERMANENT DATUM
 FLD .                     ACG:  FIELD NAME
 CTRY.              Azerbaijan:  COUNTRY NAME
 WELL.                    E04x:  WELL NAME
 SRVC.          Turan Drilling:  CONTRACTOR
 COMP.     BP Exploration (Caspian Sea) Ltd.:  COMPANY
 SON .        AZ-XX-0906531346:  JOB NUMBER
 WTYP.                Deviated:  WELL TYPE
 MDS .        Operator Entered:  MAG DATA SOURCE
 UWI .                     N/A:  UNIQUE WELL IDENTIFIER
 API .                     N/A:  API NUMBER
 BASE.              Azerbaijan:  LOGGING EQUIPMENT BASE LOCATION
 REGN.                   EESSA:  REGION
 PROV.                    Baku:  PROVINCE
 STAT.                    Baku:  STATE NAME
 MWDS.                    Baku:  MWD SHOP
 JOBN.        AZ-XX-0906531346:  JOB TICKET NUMB
 RIG .                     DWG:  RIG NAME
 DOE .                     N/A:  DOE NUMBER
 DCON.         Sperry Drilling:  DIRECTNL CONTR
 UNIT.                     N/A:  LOGGING EQUIPMENT ID
 CNTY.                        :  COUNTY
 LOC .                        :  LOCATION
 LMF .             Drill Floor:  LOG MEASURED FROM
 TVDS.m                  43.16:  TVDSS CORRECTN
 LATI.deg                40.17:  LATITUDE
 LONG.deg                51.17:  LONGITUDE
 WHNS.m                  -0.12:  WELL HEAD N/S
 WHEW.m                  -5.41:  WELL HEAD E/W
 UTMX.m              514337.95:  UTM X
 UTMY.m             4448627.46:  UTM Y
 DFWL.m                   0.00:  DISTANCE FWL
 DFSL.m                   0.00:  DISTANCE FSL
 SDEP.m                3088.01:  START DEPTH
 TDD .m                5200.01:  TOTAL DEPTH (DRILLER)
 VSDR.deg               244.51:  VERT SEC DIRECT
 GVFD.g                   1.00:  GRAVITY FIELD
 MFLD.nT              50329.80:  MAGNETIC FIELD
 MDIP.deg                59.63:  MAGNETIC DIP
 MDEC.deg                 6.59:  MAGNETIC DECL
 GRDC.deg                 0.09:  GRID CORRECTION
 AZTC.deg                 6.50:  AZM TOTAL CORR
 EPD .m                   0.00:  ELEVATION
 EGL .m                   0.00:  GROUND ELEVATION
 WDMS.m                 176.20:  WD ELEV
 APD .m                  43.16:  DEPTH ABOVE PD
 DEP .m                3084.71:  DEPTH
 AGAP.m                  43.16:  AIR GAP
 VSEW.m                  -5.41:  VERT SEC E/W
 VSNS.m                  -0.12:  VERT SEC N/S
 EKB .m                   0.00:  KB ELEVATION
 EDF .m                  43.16:  DF ELEVATION
 TDL .m                 243.00:  TOTAL DEPTH (LOGGER)
 VSC .                       0:  VS TO CLOSURE
 MAGU.                 1853542:  MAGUTM CHECKSUM
~Parameter Information Block
#MNEM.UNIT       Value        Description
#---------     -----------    ---------------------------
 AV  .mps                 1.91:  Ann Velocity 
 AVMX.mps                 2.52:  Max Ann Veloc 
 AZIF.deg               308.97:  Azm, Final 
 BHAT.        Rotary Steerable:  BHA Type 
 BROT.°/30m               1.00:  Build Rotating 
 BS  .in                  6.50:  Bit Size 
 BSZ .in                  6.50:  Bit Size 
 BTPL.psig              350.00:  Bit Press Loss 
 CABU.                      No:  Customer Abuse 
 CGEO.           Asif Pashayev:  Customer Geo 
 COMM.                     Ô¿r:  Run Comments 1 
 TCS .hr                 35.86:  Time Ciculation Ended 
 CV  .mps                 2.31:  Crit Velocity 
 CVMX.mps                 2.31:  Max Crit Veloc 
 DD1 .         Intigam Rahimov:  Direct Drillr 1 
 DDSV.               Geo-Pilot:  DD Service 
 DEFF.%                  92.00:  % Det Eff 
 DLRX.°/30m               1.00:  Dogleg Rot Max 
 DLSO.°/30m               1.00:  Dogleg Oriented 
 DLSX.°/30m               1.42:  Dogleg Str Max 
 DRET.      15.50.00 07-Aug-20:  Drill End Time 
 DRST.      10.40.00 06-Aug-20:  Drill Start Tim 
 DTIM.hr                 21.30:  Time Drilling 
 EDEP.m                5200.01:  End Depth 
 ENG1.            Alan Tuganov:  Engineer 1 
 ENG2.         Almaz Almadatov:  Engineer 2 
 ENG3.     Zammelal Abdullah Sani:  Engineer 3 
 ETIM.      22.42.00 08-Aug-20:  End Time 
 FLOI.gpm               395.00:  Flow In 
 FLON.gpm               350.00:  Flow In Min 
 FLOS.cptm                0.00:  Fluid Loss 
 FLOX.gpm               404.00:  Flow In Max 
 FTRO.       Formation Presure:  FTWD Run Obj 
 HFLO.                      No:  High Flow 
 HPRE.                      No:  High Pressure 
 HTEM.                      No:  High Temp 
 HYDO.m                   1.80:  Hydro Offset 
 IFIN.deg                72.64:  Inc, Final 
 IMAX.deg                73.68:  Inc Max 
 IMIN.deg                72.64:  Inc Min 
 IMND.m                5189.69:  Inc Min Depth 
 IMXD.m                5067.88:  Inc Max Depth 
 JARR.                      No:  Jarring 
 LETM.      15.50.00 07-Aug-20:  Log End Time 
 LOST.hr                     0:  Lost Rig Time 
 LSTM.      10.40.00 06-Aug-20:  Log Start Time 
 MDCL.ppm             36000.00:  Mud Chlorides 
 MDES.     Inversion Oil/Synthetic:  Mud Desc 
 DFD .sg                  1.36:  Mud Density 
 MDMN.sg                  1.36:  Dens Mud Min 
 MDMX.sg                  1.36:  Dens Mud Max 
 MOIL.                      70:  Run Mud Oil % 
 MOWR.                   70:30:  Run Mud OWR 
 MSND.                    0.00:  Run Mud Sand % 
 MSOL.                   17.60:  Run Mud Solids% 
 DFV .spqt               73.00:  Mud Viscosity 
 MWOD.in                  4.75:  MWD Tool OD 
 MWSI.                      No:  Serv Intrp, MWD 
 OTIM.hr                 85.66:  Time Operating 
 PCON.           Look Like New:  Pad Condition 
 PMAX.psia             6250.00:  Press Op, Max 
 PV  .cP                 65.00:  Mud PV 
 RUN .                     900:  Run Number 
 ROPA.m/hr               11.40:  ROP Avg 
 ROPN.m/hr                5.00:  ROP Min 
 ROPX.m/hr               20.00:  ROP Max 
 RPMA.rpm               130.00:  RPM Surface Avg 
 RPMN.rpm                40.00:  RPM Surface Min 
 RPMX.rpm               140.00:  RPM Surface Max 
 RRUN.                    L205:  Rig Run Number 
 RTIM.hr                  1.00:  Time Reaming 
 SAZI.deg               313.52:  Azm, Start 
 SDEP.m                4957.01:  Start Depth 
 SIDD.                      No:  Serv Intrp, DD 
 SINC.deg                73.16:  Inc, Start 
 SPPA.psig             5657.00:  SPP Avg 
 SPPN.psig             2500.00:  SPP Min 
 SPPX.psig             5806.00:  SPP Max 
 STIM.      07.12.00 05-Aug-20:  Start Time 
 SVCS.                 DD, MWD:  Services 
 SVER.                    9.20:  Sperry Version 
 TDAT.m                 243.00:  Tot Depth Attmp 
 TDDF.                      No:  Trip for DD 
 TDLG.m                 243.00:  Tot Depth Loggd 
 TFF .                      No:  Trip for Fail 
 TQAA.f-kp               13.00:  Torque Abs Avg 
 TQAN.f-kp               11.00:  Torque Abs Min 
 TQAX.f-kp               16.00:  Torque Abs Max 
 TRRT.°/30m               1.00:  Turn Rotating 
 MRT .                    HCIM:  Maximum Recorded Temperature 
 TTMX.degC               96.08:  Max Tool Temp 
 VS01.                90515411:  Virtual Str1 SN 
 VS02.                90512716:  Virtual Str2 SN 
 VS03.                90522362:  Virtual Str3 SN 
 VS04.                90619415:  Virtual Str4 SN 
 VS05.                90619414:  Virtual Str5 SN 
 VS06.                90597748:  Virtual Str6 SN 
 WBMN.klb                 2.00:  WOB Min 
 WITN.           Adil Mammadov:  Customer Rep 
 WITN.     Alexander Yadullayev:  Customer Rep 2 
 WOBA.klb                 7.00:  WOB Avg 
 WOBX.klb                23.00:  WOB Max 
 YP  .lhf2               37.00:  Yield Point 
~Curve Information Block
#MNEM.UNIT                 API CODE     Curve Description
#---------               -----------    ---------------------------
 TIME.HHMMSS            00 000 000 000:  GT Time & Date
 GTDEPTH.m              00 000 000 000:  GT Depth
 GTPQH.psia             00 000 000 000:  GT HR Quartz Pressure
 GTTQ.degC              00 000 000 000:  GT Quartz Temperature
 GTTN.NONE              00 000 000 000:  GT Test Number
 GTET.sec               00 000 000 000:  GT Elapsed Test Time
 GTTVD.m                00 000 000 000:  GT True Vertical Depth
#Other Information
#
#WARRANTY: Halliburton will use its best efforts to furnish customers with 
#accurate information and interpretations that are part of, and incident to, the services 
#provided.  However, Halliburton cannot and does not warrant the accuracy 
#or correctness of such information and interpretations.  Under no circumstances should any 
#such information or interpretation be relied upon as the sole basis for any drilling, 
#completion, production, or financial decision or any procedure involving any risk to the 
#safety of any drilling venture, drilling rig or its crew or any other third party.  The 
#Customer has full responsibility for all drilling, completion and production operation.  
#Halliburton makes no representations or warranties, either expressed or 
#implied, including, but not limited to, the implied warranties of merchantability or fitness 
#for a particular purpose, with respect to the services rendered.  In no event will 
#Halliburton be liable for failure to obtain any particular results or for 
#any damages, including, but not limited to, indirect, special or consequential damages, 
#resulting from the use of any information or interpretation provided by Halliburton.
#
~A           TIME           GTDEPTH  GTPQH  GTTQ  GTTN  GTET   GTTVD  
   01:47:02.421.07-Aug-2020 5042.01 5779.60 85.92 6.00   0.00 2658.32
   01:47:02.621.07-Aug-2020 5042.01 5779.60 85.92 6.00   0.20 2658.32
   01:47:02.821.07-Aug-2020 5042.01 5784.57 85.92 6.00   0.40 2658.32
   01:47:03.021.07-Aug-2020 5042.01 5790.09 85.92 6.00   0.60 2658.32
   01:47:03.221.07-Aug-2020 5042.01 5787.87 85.92 6.00   0.80 2658.32
   01:47:03.421.07-Aug-2020 5042.01 5791.18 85.91 6.00   1.00 2658.32
   01:47:03.621.07-Aug-2020 5042.01 5791.18 85.91 6.00   1.20 2658.32
   01:47:03.821.07-Aug-2020 5042.01 5791.85 85.91 6.00   1.40 2658.32
   01:47:04.021.07-Aug-2020 5042.01 5790.61 85.91 6.00   1.60 2658.32
   01:47:04.221.07-Aug-2020 5042.01 5789.53 85.91 6.00   1.80 2658.32
   01:47:04.421.07-Aug-2020 5042.01 5785.95 85.91 6.00   2.00 2658.32
   01:47:04.621.07-Aug-2020 5042.01 5787.58 85.91 6.00   2.20 2658.32
   01:47:04.821.07-Aug-2020 5042.01 5788.33 85.91 6.00   2.40 2658.32
   01:47:05.021.07-Aug-2020 5042.01 5788.76 85.91 6.00   2.60 2658.32
   01:47:05.221.07-Aug-2020 5042.01 5779.30 85.91 6.00   2.80 2658.32
   01:47:05.421.07-Aug-2020 5042.01 5793.72 85.91 6.00   3.00 2658.32
   01:47:05.621.07-Aug-2020 5042.01 5793.72 85.91 6.00   3.20 2658.32
   01:47:05.821.07-Aug-2020 5042.01 5789.55 85.91 6.00   3.40 2658.32
   01:47:06.021.07-Aug-2020 5042.01 5788.59 85.91 6.00   3.60 2658.32
   01:47:06.221.07-Aug-2020 5042.01 5781.05 85.91 6.00   3.80 2658.32
   01:47:06.421.07-Aug-2020 5042.01 5793.02 85.91 6.00   4.00 2658.32
   01:47:06.621.07-Aug-2020 5042.01 5784.73 85.90 6.00   4.20 2658.32
   01:47:06.822.07-Aug-2020 5042.01 5791.08 85.90 6.00   4.40 2658.32
   01:47:07.022.07-Aug-2020 5042.01 5786.75 85.90 6.00   4.60 2658.32
   01:47:07.222.07-Aug-2020 5042.01 5783.55 85.90 6.00   4.80 2658.32
   01:47:07.422.07-Aug-2020 5042.01 5790.02 85.90 6.00   5.00 2658.32
   01:47:07.622.07-Aug-2020 5042.01 5790.02 85.90 6.00   5.20 2658.32
   01:47:07.822.07-Aug-2020 5042.01 5790.02 85.90 6.00   5.40 2658.32
   01:47:08.022.07-Aug-2020 5042.01 5788.84 85.90 6.00   5.60 2658.32
   01:47:08.222.07-Aug-2020 5042.01 5780.67 85.90 6.00   5.80 2658.32
   01:47:08.422.07-Aug-2020 5042.01 5793.88 85.90 6.00   6.00 2658.32
   01:47:08.622.07-Aug-2020 5042.01 5793.88 85.90 6.00   6.20 2658.32
   01:47:08.822.07-Aug-2020 5042.01 5792.47 85.90 6.00   6.40 2658.32
   01:47:09.022.07-Aug-2020 5042.01 5792.47 85.90 6.00   6.60 2658.32
   01:47:09.222.07-Aug-2020 5042.01 5792.40 85.90 6.00   6.80 2658.32
   01:47:09.422.07-Aug-2020 5042.01 5783.14 85.90 6.00   7.00 2658.32
   01:47:09.622.07-Aug-2020 5042.01 5783.14 85.90 6.00   7.20 2658.32
   01:47:09.822.07-Aug-2020 5042.01 5787.16 85.90 6.00   7.40 2658.32
   01:47:10.022.07-Aug-2020 5042.01 5792.98 85.89 6.00   7.60 2658.32
   01:47:10.222.07-Aug-2020 5042.01 5789.17 85.89 6.00   7.80 2658.32
   01:47:10.422.07-Aug-2020 5042.01 5789.16 85.89 6.00   8.00 2658.32
   01:47:10.622.07-Aug-2020 5042.01 5789.16 85.89 6.00   8.20 2658.32
   01:47:10.822.07-Aug-2020 5042.01 5791.85 85.89 6.00   8.40 2658.32
   01:47:11.023.07-Aug-2020 5042.01 5793.55 85.89 6.00   8.60 2658.32
   01:47:11.223.07-Aug-2020 5042.01 5792.02 85.89 6.00   8.80 2658.32
   01:47:11.423.07-Aug-2020 5042.01 5790.44 85.89 6.00   9.00 2658.32
   01:47:11.623.07-Aug-2020 5042.01 5790.44 85.89 6.00   9.20 2658.32
   01:47:11.823.07-Aug-2020 5042.01 5792.91 85.89 6.00   9.40 2658.32
   01:47:12.023.07-Aug-2020 5042.01 5791.93 85.89 6.00   9.60 2658.32
   01:47:12.223.07-Aug-2020 5042.01 5795.03 85.89 6.00   9.80 2658.32
   01:47:12.423.07-Aug-2020 5042.01 5784.70 85.89 6.00  10.00 2658.32
   01:47:12.623.07-Aug-2020 5042.01 5784.70 85.89 6.00  10.20 2658.32
   01:47:12.823.07-Aug-2020 5042.01 5785.44 85.89 6.00  10.40 2658.32
   01:47:13.023.07-Aug-2020 5042.01 5789.78 85.89 6.00  10.60 2658.32
   01:47:13.223.07-Aug-2020 5042.01 5776.54 85.88 6.00  10.80 2658.32
   01:47:13.423.07-Aug-2020 5042.01 5781.55 85.88 6.00  11.00 2658.32
   01:47:13.623.07-Aug-2020 5042.01 5781.55 85.88 6.00  11.20 2658.32
   01:47:13.823.07-Aug-2020 5042.01 5763.73 85.88 6.00  11.40 2658.32
   01:47:14.023.07-Aug-2020 5042.01 5751.16 85.88 6.00  11.60 2658.32
   01:47:14.223.07-Aug-2020 5042.01 5750.59 85.88 6.00  11.80 2658.32
   01:47:14.423.07-Aug-2020 5042.01 5738.55 85.88 6.00  12.00 2658.32
   01:47:14.623.07-Aug-2020 5042.01 5738.55 85.88 6.00  12.20 2658.32
   01:47:14.823.07-Aug-2020 5042.01 5650.50 85.88 6.00  12.40 2658.32
   01:47:15.023.07-Aug-2020 5042.01 5591.57 85.88 6.00  12.60 2658.32
   01:47:15.224.07-Aug-2020 5042.01 5528.25 85.88 6.00  12.80 2658.32
   01:47:15.424.07-Aug-2020 5042.01 5471.00 85.88 6.00  13.00 2658.32
   01:47:15.624.07-Aug-2020 5042.01 5471.00 85.88 6.00  13.20 2658.32
   01:47:15.824.07-Aug-2020 5042.01 5336.90 85.88 6.00  13.40 2658.32
   01:47:16.024.07-Aug-2020 5042.01 5247.87 85.88 6.00  13.60 2658.32
   01:47:16.224.07-Aug-2020 5042.01 5144.34 85.88 6.00  13.80 2658.32
   01:47:16.424.07-Aug-2020 5042.01 5055.83 85.87 6.00  14.00 2658.32
   01:47:16.624.07-Aug-2020 5042.01 5055.83 85.87 6.00  14.20 2658.32
   01:47:16.824.07-Aug-2020 5042.01 4896.58 85.87 6.00  14.40 2658.32
   01:47:17.024.07-Aug-2020 5042.01 4841.04 85.87 6.00  14.60 2658.32
   01:47:17.224.07-Aug-2020 5042.01 4756.27 85.87 6.00  14.80 2658.32
   01:47:17.424.07-Aug-2020 5042.01 4654.84 85.87 6.00  15.00 2658.32
   01:47:17.624.07-Aug-2020 5042.01 4654.84 85.87 6.00  15.20 2658.32
   01:47:17.824.07-Aug-2020 5042.01 4631.55 85.87 6.00  15.40 2658.32
   01:47:18.024.07-Aug-2020 5042.01 4529.75 85.87 6.00  15.60 2658.32
   01:47:18.224.07-Aug-2020 5042.01 4439.06 85.87 6.00  15.80 2658.32
   01:47:18.424.07-Aug-2020 5042.01 4364.61 85.87 6.00  16.00 2658.32
   01:47:18.624.07-Aug-2020 5042.01 4364.61 85.87 6.00  16.20 2658.32
   01:47:18.824.07-Aug-2020 5042.01 4424.91 85.87 6.00  16.40 2658.32
   01:47:19.024.07-Aug-2020 5042.01 4471.23 85.87 6.00  16.60 2658.32
   01:47:19.224.07-Aug-2020 5042.01 4721.07 85.86 6.00  16.80 2658.32
   01:47:19.425.07-Aug-2020 5042.01 4830.03 85.86 6.00  17.00 2658.32
   01:47:19.625.07-Aug-2020 5042.01 4830.03 85.86 6.00  17.20 2658.32
   01:47:19.825.07-Aug-2020 5042.01 4693.24 85.86 6.00  17.40 2658.32
   01:47:20.025.07-Aug-2020 5042.01 4637.78 85.86 6.00  17.60 2658.32
   01:47:20.225.07-Aug-2020 5042.01 4585.98 85.86 6.00  17.80 2658.32
   01:47:20.425.07-Aug-2020 5042.01 4558.36 85.86 6.00  18.00 2658.32
   01:47:20.625.07-Aug-2020 5042.01 4558.36 85.86 6.00  18.20 2658.32
   01:47:20.825.07-Aug-2020 5042.01 4507.43 85.86 6.00  18.40 2658.32
   01:47:21.025.07-Aug-2020 5042.01 4566.52 85.86 6.00  18.60 2658.32
   01:47:21.225.07-Aug-2020 5042.01 5372.05 85.86 6.00  18.80 2658.32
   01:47:21.425.07-Aug-2020 5042.01 5954.00 85.85 6.00  19.00 2658.32
   01:47:21.625.07-Aug-2020 5042.01 5954.00 85.85 6.00  19.20 2658.32
   01:47:21.825.07-Aug-2020 5042.01 6382.14 85.85 6.00  19.40 2658.32
   01:47:22.025.07-Aug-2020 5042.01 6530.60 85.85 6.00  19.60 2658.32
   01:47:22.225.07-Aug-2020 5042.01 6533.15 85.85 6.00  19.80 2658.32
   01:47:22.425.07-Aug-2020 5042.01 6545.23 85.85 6.00  20.00 2658.32
   01:47:22.625.07-Aug-2020 5042.01 6545.23 85.85 6.00  20.20 2658.32
   01:47:22.825.07-Aug-2020 5042.01 6446.87 85.85 6.00  20.40 2658.32
   01:47:23.025.07-Aug-2020 5042.01 6558.18 85.85 6.00  20.60 2658.32
   01:47:23.225.07-Aug-2020 5042.01 6533.19 85.85 6.00  20.80 2658.32
   01:47:23.425.07-Aug-2020 5042.01 6590.83 85.85 6.00  21.00 2658.32
   01:47:23.625.07-Aug-2020 5042.01 6590.83 85.85 6.00  21.20 2658.32
   01:47:23.826.07-Aug-2020 5042.01 6342.97 85.85 6.00  21.41 2658.32
   01:47:24.026.07-Aug-2020 5042.01 6316.88 85.85 6.00  21.61 2658.32
   01:47:24.226.07-Aug-2020 5042.01 6362.65 85.85 6.00  21.81 2658.32
   01:47:24.426.07-Aug-2020 5042.01 6401.58 85.84 6.00  22.01 2658.32
   01:47:24.626.07-Aug-2020 5042.01 6401.58 85.84 6.00  22.21 2658.32
   01:47:24.826.07-Aug-2020 5042.01 6448.28 85.84 6.00  22.41 2658.32
   01:47:25.026.07-Aug-2020 5042.01 6456.21 85.84 6.00  22.61 2658.32
   01:47:25.226.07-Aug-2020 5042.01 6465.44 85.84 6.00  22.81 2658.32
