~Version Information
 VERS.                  2.0:   CWLS log ASCII Standard -VERSION 2.0
 WRAP.                   NO:   One line per depth step
~Well Information Block
#MNEM.UNIT     VALUE/NAME     DESCRIPTION
#---------     -----------    ---------------------------
 STRT.S             00:43:02 07-Aug-20: START TIME 00:43:02 07-Aug-20
 STOP.S             00:50:54 07-Aug-20: STOP TIME  00:50:54 07-Aug-20
 STEP.S                   0.00: STEP TIME
 NULL.                 -999.25: NULL VALUE
 DFWT.                        :  DIST FWL TEXT
 DFST.                        :  DIST FSL TEXT
 DMF .             Drill Floor:  DRILL MEAS FROM
 STIM.      12.00.00 03-Jul-20:  START TIME
 DATE.      00.50.00 09-Aug-20:  END TIME
 SPUD.               03-Jul-20:  SPUD DATE
 NREF.                    Grid:  NORTH REFERENCE
 HPTY.       Minimum Curvature:  HOLE POS TYPE
 DMOD.             Drill Model:  DRILL MOD DESC
 SVYD.                  Survey:  SURVEY DESC
 ILTD.               Lithology:  INTERP LTH DESC
 FTOP.          Formation Tops:  FORM TOPS DESC
 PDAT.          Mean Sea Level:  PERMANENT DATUM
 FLD .                     ACG:  FIELD NAME
 CTRY.              Azerbaijan:  COUNTRY NAME
 WELL.                    E04x:  WELL NAME
 SRVC.          Turan Drilling:  CONTRACTOR
 COMP.     BP Exploration (Caspian Sea) Ltd.:  COMPANY
 SON .        AZ-XX-0906531346:  JOB NUMBER
 WTYP.                Deviated:  WELL TYPE
 MDS .        Operator Entered:  MAG DATA SOURCE
 UWI .                     N/A:  UNIQUE WELL IDENTIFIER
 API .                     N/A:  API NUMBER
 BASE.              Azerbaijan:  LOGGING EQUIPMENT BASE LOCATION
 REGN.                   EESSA:  REGION
 PROV.                    Baku:  PROVINCE
 STAT.                    Baku:  STATE NAME
 MWDS.                    Baku:  MWD SHOP
 JOBN.        AZ-XX-0906531346:  JOB TICKET NUMB
 RIG .                     DWG:  RIG NAME
 DOE .                     N/A:  DOE NUMBER
 DCON.         Sperry Drilling:  DIRECTNL CONTR
 UNIT.                     N/A:  LOGGING EQUIPMENT ID
 CNTY.                        :  COUNTY
 LOC .                        :  LOCATION
 LMF .             Drill Floor:  LOG MEASURED FROM
 TVDS.m                  43.16:  TVDSS CORRECTN
 LATI.deg                40.17:  LATITUDE
 LONG.deg                51.17:  LONGITUDE
 WHNS.m                  -0.12:  WELL HEAD N/S
 WHEW.m                  -5.41:  WELL HEAD E/W
 UTMX.m              514337.95:  UTM X
 UTMY.m             4448627.46:  UTM Y
 DFWL.m                   0.00:  DISTANCE FWL
 DFSL.m                   0.00:  DISTANCE FSL
 SDEP.m                3088.01:  START DEPTH
 TDD .m                5200.01:  TOTAL DEPTH (DRILLER)
 VSDR.deg               244.51:  VERT SEC DIRECT
 GVFD.g                   1.00:  GRAVITY FIELD
 MFLD.nT              50329.80:  MAGNETIC FIELD
 MDIP.deg                59.63:  MAGNETIC DIP
 MDEC.deg                 6.59:  MAGNETIC DECL
 GRDC.deg                 0.09:  GRID CORRECTION
 AZTC.deg                 6.50:  AZM TOTAL CORR
 EPD .m                   0.00:  ELEVATION
 EGL .m                   0.00:  GROUND ELEVATION
 WDMS.m                 176.20:  WD ELEV
 APD .m                  43.16:  DEPTH ABOVE PD
 DEP .m                3084.71:  DEPTH
 AGAP.m                  43.16:  AIR GAP
 VSEW.m                  -5.41:  VERT SEC E/W
 VSNS.m                  -0.12:  VERT SEC N/S
 EKB .m                   0.00:  KB ELEVATION
 EDF .m                  43.16:  DF ELEVATION
 TDL .m                 243.00:  TOTAL DEPTH (LOGGER)
 VSC .                       0:  VS TO CLOSURE
 MAGU.                 1853542:  MAGUTM CHECKSUM
~Parameter Information Block
#MNEM.UNIT       Value        Description
#---------     -----------    ---------------------------
 AV  .mps                 1.91:  Ann Velocity 
 AVMX.mps                 2.52:  Max Ann Veloc 
 AZIF.deg               308.97:  Azm, Final 
 BHAT.        Rotary Steerable:  BHA Type 
 BROT.°/30m               1.00:  Build Rotating 
 BS  .in                  6.50:  Bit Size 
 BSZ .in                  6.50:  Bit Size 
 BTPL.psig              350.00:  Bit Press Loss 
 CABU.                      No:  Customer Abuse 
 CGEO.           Asif Pashayev:  Customer Geo 
 COMM.                     ´è„:  Run Comments 1 
 TCS .hr                 35.86:  Time Ciculation Ended 
 CV  .mps                 2.31:  Crit Velocity 
 CVMX.mps                 2.31:  Max Crit Veloc 
 DD1 .         Intigam Rahimov:  Direct Drillr 1 
 DDSV.               Geo-Pilot:  DD Service 
 DEFF.%                  92.00:  % Det Eff 
 DLRX.°/30m               1.00:  Dogleg Rot Max 
 DLSO.°/30m               1.00:  Dogleg Oriented 
 DLSX.°/30m               1.42:  Dogleg Str Max 
 DRET.      15.50.00 07-Aug-20:  Drill End Time 
 DRST.      10.40.00 06-Aug-20:  Drill Start Tim 
 DTIM.hr                 21.30:  Time Drilling 
 EDEP.m                5200.01:  End Depth 
 ENG1.            Alan Tuganov:  Engineer 1 
 ENG2.         Almaz Almadatov:  Engineer 2 
 ENG3.     Zammelal Abdullah Sani:  Engineer 3 
 ETIM.      22.42.00 08-Aug-20:  End Time 
 FLOI.gpm               395.00:  Flow In 
 FLON.gpm               350.00:  Flow In Min 
 FLOS.cptm                0.00:  Fluid Loss 
 FLOX.gpm               404.00:  Flow In Max 
 FTRO.       Formation Presure:  FTWD Run Obj 
 HFLO.                      No:  High Flow 
 HPRE.                      No:  High Pressure 
 HTEM.                      No:  High Temp 
 HYDO.m                   1.80:  Hydro Offset 
 IFIN.deg                72.64:  Inc, Final 
 IMAX.deg                73.68:  Inc Max 
 IMIN.deg                72.64:  Inc Min 
 IMND.m                5189.69:  Inc Min Depth 
 IMXD.m                5067.88:  Inc Max Depth 
 JARR.                      No:  Jarring 
 LETM.      15.50.00 07-Aug-20:  Log End Time 
 LOST.hr                     0:  Lost Rig Time 
 LSTM.      10.40.00 06-Aug-20:  Log Start Time 
 MDCL.ppm             36000.00:  Mud Chlorides 
 MDES.     Inversion Oil/Synthetic:  Mud Desc 
 DFD .sg                  1.36:  Mud Density 
 MDMN.sg                  1.36:  Dens Mud Min 
 MDMX.sg                  1.36:  Dens Mud Max 
 MOIL.                      70:  Run Mud Oil % 
 MOWR.                   70:30:  Run Mud OWR 
 MSND.                    0.00:  Run Mud Sand % 
 MSOL.                   17.60:  Run Mud Solids% 
 DFV .spqt               73.00:  Mud Viscosity 
 MWOD.in                  4.75:  MWD Tool OD 
 MWSI.                      No:  Serv Intrp, MWD 
 OTIM.hr                 85.66:  Time Operating 
 PCON.           Look Like New:  Pad Condition 
 PMAX.psia             6250.00:  Press Op, Max 
 PV  .cP                 65.00:  Mud PV 
 RUN .                     900:  Run Number 
 ROPA.m/hr               11.40:  ROP Avg 
 ROPN.m/hr                5.00:  ROP Min 
 ROPX.m/hr               20.00:  ROP Max 
 RPMA.rpm               130.00:  RPM Surface Avg 
 RPMN.rpm                40.00:  RPM Surface Min 
 RPMX.rpm               140.00:  RPM Surface Max 
 RRUN.                    L205:  Rig Run Number 
 RTIM.hr                  1.00:  Time Reaming 
 SAZI.deg               313.52:  Azm, Start 
 SDEP.m                4957.01:  Start Depth 
 SIDD.                      No:  Serv Intrp, DD 
 SINC.deg                73.16:  Inc, Start 
 SPPA.psig             5657.00:  SPP Avg 
 SPPN.psig             2500.00:  SPP Min 
 SPPX.psig             5806.00:  SPP Max 
 STIM.      07.12.00 05-Aug-20:  Start Time 
 SVCS.                 DD, MWD:  Services 
 SVER.                    9.20:  Sperry Version 
 TDAT.m                 243.00:  Tot Depth Attmp 
 TDDF.                      No:  Trip for DD 
 TDLG.m                 243.00:  Tot Depth Loggd 
 TFF .                      No:  Trip for Fail 
 TQAA.f-kp               13.00:  Torque Abs Avg 
 TQAN.f-kp               11.00:  Torque Abs Min 
 TQAX.f-kp               16.00:  Torque Abs Max 
 TRRT.°/30m               1.00:  Turn Rotating 
 MRT .                    HCIM:  Maximum Recorded Temperature 
 TTMX.degC               96.08:  Max Tool Temp 
 VS01.                90515411:  Virtual Str1 SN 
 VS02.                90512716:  Virtual Str2 SN 
 VS03.                90522362:  Virtual Str3 SN 
 VS04.                90619415:  Virtual Str4 SN 
 VS05.                90619414:  Virtual Str5 SN 
 VS06.                90597748:  Virtual Str6 SN 
 WBMN.klb                 2.00:  WOB Min 
 WITN.           Adil Mammadov:  Customer Rep 
 WITN.     Alexander Yadullayev:  Customer Rep 2 
 WOBA.klb                 7.00:  WOB Avg 
 WOBX.klb                23.00:  WOB Max 
 YP  .lhf2               37.00:  Yield Point 
~Curve Information Block
#MNEM.UNIT                 API CODE     Curve Description
#---------               -----------    ---------------------------
 TIME.HHMMSS            00 000 000 000:  GT Time & Date
 GTDEPTH.m              00 000 000 000:  GT Depth
 GTPQH.psia             00 000 000 000:  GT HR Quartz Pressure
 GTTQ.degC              00 000 000 000:  GT Quartz Temperature
 GTTN.NONE              00 000 000 000:  GT Test Number
 GTET.sec               00 000 000 000:  GT Elapsed Test Time
 GTTVD.m                00 000 000 000:  GT True Vertical Depth
#Other Information
#
#WARRANTY: Halliburton will use its best efforts to furnish customers with 
#accurate information and interpretations that are part of, and incident to, the services 
#provided.  However, Halliburton cannot and does not warrant the accuracy 
#or correctness of such information and interpretations.  Under no circumstances should any 
#such information or interpretation be relied upon as the sole basis for any drilling, 
#completion, production, or financial decision or any procedure involving any risk to the 
#safety of any drilling venture, drilling rig or its crew or any other third party.  The 
#Customer has full responsibility for all drilling, completion and production operation.  
#Halliburton makes no representations or warranties, either expressed or 
#implied, including, but not limited to, the implied warranties of merchantability or fitness 
#for a particular purpose, with respect to the services rendered.  In no event will 
#Halliburton be liable for failure to obtain any particular results or for 
#any damages, including, but not limited to, indirect, special or consequential damages, 
#resulting from the use of any information or interpretation provided by Halliburton.
#
~A           TIME           GTDEPTH  GTPQH  GTTQ  GTTN  GTET   GTTVD  
# ...
   00:48:01.587.07-Aug-2020 5032.01 3673.59 86.08 5.00 299.07 2655.40
   00:48:01.787.07-Aug-2020 5032.01 3673.63 86.08 5.00 299.27 2655.40
   00:48:01.987.07-Aug-2020 5032.01 3673.58 86.08 5.00 299.47 2655.40
   00:48:02.187.07-Aug-2020 5032.01 3673.62 86.08 5.00 299.67 2655.40
   00:48:02.387.07-Aug-2020 5032.01 3673.59 86.08 5.00 299.87 2655.40
   00:48:02.587.07-Aug-2020 5032.01 3673.56 86.08 5.00 300.07 2655.40
   00:48:02.787.07-Aug-2020 5032.01 3673.56 86.08 5.00 300.27 2655.40
   00:48:02.987.07-Aug-2020 5032.01 3673.58 86.08 5.00 300.47 2655.40
   00:48:03.187.07-Aug-2020 5032.01 3673.63 86.08 5.00 300.67 2655.40
   00:48:03.387.07-Aug-2020 5032.01 3673.51 86.08 5.00 300.87 2655.40
   00:48:03.587.07-Aug-2020 5032.01 3672.92 86.08 5.00 301.07 2655.40
   00:48:03.787.07-Aug-2020 5032.01 3672.92 86.08 5.00 301.27 2655.40
   00:48:03.988.07-Aug-2020 5032.01 3658.82 86.08 5.00 301.47 2655.40
   00:48:04.188.07-Aug-2020 5032.01 3658.84 86.08 5.00 301.67 2655.40
   00:48:04.388.07-Aug-2020 5032.01 3659.06 86.08 5.00 301.87 2655.40
   00:48:04.588.07-Aug-2020 5032.01 3658.31 86.08 5.00 302.07 2655.40
   00:48:04.788.07-Aug-2020 5032.01 3659.02 86.08 5.00 302.27 2655.40
   00:48:04.988.07-Aug-2020 5032.01 3658.91 86.07 5.00 302.47 2655.40
   00:48:05.188.07-Aug-2020 5032.01 3659.36 86.07 5.00 302.67 2655.40
   00:48:05.388.07-Aug-2020 5032.01 3659.03 86.07 5.00 302.87 2655.40
   00:48:05.588.07-Aug-2020 5032.01 3658.84 86.07 5.00 303.07 2655.40
   00:48:05.788.07-Aug-2020 5032.01 3658.84 86.07 5.00 303.27 2655.40
   00:48:05.988.07-Aug-2020 5032.01 3660.48 86.07 5.00 303.47 2655.40
   00:48:06.188.07-Aug-2020 5032.01 3662.04 86.07 5.00 303.67 2655.40
   00:48:06.388.07-Aug-2020 5032.01 3663.92 86.07 5.00 303.87 2655.40
   00:48:06.588.07-Aug-2020 5032.01 3661.83 86.07 5.00 304.07 2655.40
   00:48:06.788.07-Aug-2020 5032.01 3660.99 86.07 5.00 304.27 2655.40
   00:48:06.988.07-Aug-2020 5032.01 3660.87 86.07 5.00 304.47 2655.40
   00:48:07.188.07-Aug-2020 5032.01 3660.99 86.07 5.00 304.67 2655.40
   00:48:07.388.07-Aug-2020 5032.01 3660.93 86.07 5.00 304.87 2655.40
   00:48:07.588.07-Aug-2020 5032.01 3660.89 86.07 5.00 305.07 2655.40
   00:48:07.788.07-Aug-2020 5032.01 3660.89 86.07 5.00 305.27 2655.40
   00:48:07.988.07-Aug-2020 5032.01 3660.75 86.07 5.00 305.47 2655.40
   00:48:08.189.07-Aug-2020 5032.01 3660.87 86.07 5.00 305.67 2655.40
   00:48:08.389.07-Aug-2020 5032.01 3660.19 86.07 5.00 305.87 2655.40
   00:48:08.589.07-Aug-2020 5032.01 3661.46 86.07 5.00 306.07 2655.40
   00:48:08.789.07-Aug-2020 5032.01 3661.46 86.07 5.00 306.27 2655.40
   00:48:08.989.07-Aug-2020 5032.01 3661.06 86.07 5.00 306.47 2655.40
   00:48:09.189.07-Aug-2020 5032.01 3660.70 86.07 5.00 306.67 2655.40
   00:48:09.389.07-Aug-2020 5032.01 3660.99 86.06 5.00 306.87 2655.40
   00:48:09.589.07-Aug-2020 5032.01 3660.63 86.06 5.00 307.07 2655.40
   00:48:09.789.07-Aug-2020 5032.01 3660.63 86.06 5.00 307.27 2655.40
   00:48:09.989.07-Aug-2020 5032.01 3660.78 86.06 5.00 307.47 2655.40
   00:48:10.189.07-Aug-2020 5032.01 3660.83 86.06 5.00 307.67 2655.40
   00:48:10.389.07-Aug-2020 5032.01 3660.63 86.06 5.00 307.87 2655.40
   00:48:10.589.07-Aug-2020 5032.01 3661.00 86.06 5.00 308.07 2655.40
   00:48:10.789.07-Aug-2020 5032.01 3660.79 86.06 5.00 308.27 2655.40
   00:48:10.989.07-Aug-2020 5032.01 3660.89 86.06 5.00 308.47 2655.40
   00:48:11.189.07-Aug-2020 5032.01 3660.48 86.06 5.00 308.67 2655.40
   00:48:11.389.07-Aug-2020 5032.01 3660.95 86.06 5.00 308.87 2655.40
   00:48:11.589.07-Aug-2020 5032.01 3661.20 86.06 5.00 309.07 2655.40
   00:48:11.789.07-Aug-2020 5032.01 3661.20 86.06 5.00 309.27 2655.40
   00:48:11.989.07-Aug-2020 5032.01 3661.22 86.06 5.00 309.47 2655.40
   00:48:12.189.07-Aug-2020 5032.01 3660.78 86.06 5.00 309.67 2655.40
   00:48:12.390.07-Aug-2020 5032.01 3661.29 86.06 5.00 309.87 2655.40
   00:48:12.590.07-Aug-2020 5032.01 3661.03 86.06 5.00 310.07 2655.40
   00:48:12.790.07-Aug-2020 5032.01 3661.03 86.06 5.00 310.27 2655.40
   00:48:12.990.07-Aug-2020 5032.01 3660.70 86.06 5.00 310.47 2655.40
   00:48:13.190.07-Aug-2020 5032.01 3660.90 86.06 5.00 310.67 2655.40
   00:48:13.390.07-Aug-2020 5032.01 3661.20 86.06 5.00 310.87 2655.40
   00:48:13.590.07-Aug-2020 5032.01 3661.31 86.05 5.00 311.07 2655.40
   00:48:13.790.07-Aug-2020 5032.01 3664.71 86.05 5.00 311.27 2655.40
   00:48:13.990.07-Aug-2020 5032.01 3673.46 86.05 5.00 311.47 2655.40
   00:48:14.190.07-Aug-2020 5032.01 3673.21 86.05 5.00 311.67 2655.40
   00:48:14.390.07-Aug-2020 5032.01 3673.58 86.05 5.00 311.87 2655.40
   00:48:14.590.07-Aug-2020 5032.01 3673.56 86.05 5.00 312.07 2655.40
   00:48:14.790.07-Aug-2020 5032.01 3673.58 86.05 5.00 312.27 2655.40
   00:48:14.990.07-Aug-2020 5032.01 3673.56 86.05 5.00 312.47 2655.40
   00:48:15.190.07-Aug-2020 5032.01 3673.60 86.05 5.00 312.67 2655.40
   00:48:15.390.07-Aug-2020 5032.01 3673.56 86.05 5.00 312.87 2655.40
   00:48:15.590.07-Aug-2020 5032.01 3673.58 86.05 5.00 313.07 2655.40
   00:48:15.790.07-Aug-2020 5032.01 3673.58 86.05 5.00 313.27 2655.40
   00:48:15.990.07-Aug-2020 5032.01 3673.60 86.05 5.00 313.47 2655.40
   00:48:16.190.07-Aug-2020 5032.01 3673.56 86.05 5.00 313.67 2655.40
   00:48:16.390.07-Aug-2020 5032.01 3673.61 86.05 5.00 313.87 2655.40
   00:48:16.591.07-Aug-2020 5032.01 3673.58 86.05 5.00 314.07 2655.40
   00:48:16.791.07-Aug-2020 5032.01 3673.58 86.05 5.00 314.27 2655.40
   00:48:16.991.07-Aug-2020 5032.01 3673.66 86.05 5.00 314.47 2655.40
   00:48:17.191.07-Aug-2020 5032.01 3673.57 86.05 5.00 314.67 2655.40
   00:48:17.391.07-Aug-2020 5032.01 3673.64 86.05 5.00 314.87 2655.40
   00:48:17.591.07-Aug-2020 5032.01 3673.61 86.05 5.00 315.07 2655.40
   00:48:17.791.07-Aug-2020 5032.01 3673.61 86.05 5.00 315.27 2655.40
   00:48:17.991.07-Aug-2020 5032.01 3673.59 86.04 5.00 315.47 2655.40
   00:48:18.191.07-Aug-2020 5032.01 3673.63 86.04 5.00 315.67 2655.40
   00:48:18.391.07-Aug-2020 5032.01 3673.60 86.04 5.00 315.87 2655.40
   00:48:18.591.07-Aug-2020 5032.01 3673.61 86.04 5.00 316.07 2655.40
   00:48:18.791.07-Aug-2020 5032.01 3673.60 86.04 5.00 316.27 2655.40
   00:48:18.991.07-Aug-2020 5032.01 3673.61 86.04 5.00 316.47 2655.40
   00:48:19.191.07-Aug-2020 5032.01 3673.58 86.04 5.00 316.67 2655.40
   00:48:19.391.07-Aug-2020 5032.01 3673.62 86.04 5.00 316.87 2655.40
   00:48:19.591.07-Aug-2020 5032.01 3673.53 86.04 5.00 317.07 2655.40
   00:48:19.791.07-Aug-2020 5032.01 3673.53 86.04 5.00 317.27 2655.40
   00:48:19.991.07-Aug-2020 5032.01 3673.56 86.04 5.00 317.47 2655.40
   00:48:20.191.07-Aug-2020 5032.01 3673.65 86.04 5.00 317.67 2655.40
   00:48:20.391.07-Aug-2020 5032.01 3673.54 86.04 5.00 317.87 2655.40
   00:48:20.591.07-Aug-2020 5032.01 3673.66 86.04 5.00 318.07 2655.40
   00:48:20.791.07-Aug-2020 5032.01 3673.66 86.04 5.00 318.27 2655.40
   00:48:20.992.07-Aug-2020 5032.01 3673.64 86.04 5.00 318.47 2655.40
   00:48:21.192.07-Aug-2020 5032.01 3673.59 86.04 5.00 318.68 2655.40
   00:48:21.392.07-Aug-2020 5032.01 3673.57 86.04 5.00 318.88 2655.40
   00:48:21.592.07-Aug-2020 5032.01 3673.66 86.04 5.00 319.08 2655.40
   00:48:21.792.07-Aug-2020 5032.01 3673.66 86.04 5.00 319.28 2655.40
   00:48:21.992.07-Aug-2020 5032.01 3673.63 86.04 5.00 319.48 2655.40
   00:48:22.192.07-Aug-2020 5032.01 3673.61 86.04 5.00 319.68 2655.40
   00:48:22.392.07-Aug-2020 5032.01 3673.52 86.03 5.00 319.88 2655.40
   00:48:22.592.07-Aug-2020 5032.01 3673.70 86.03 5.00 320.08 2655.40
   00:48:22.792.07-Aug-2020 5032.01 3673.70 86.03 5.00 320.28 2655.40
   00:48:22.992.07-Aug-2020 5032.01 3673.65 86.03 5.00 320.48 2655.40
   00:48:23.192.07-Aug-2020 5032.01 3673.60 86.03 5.00 320.68 2655.40
   00:48:23.392.07-Aug-2020 5032.01 3673.60 86.03 5.00 320.88 2655.40
   00:48:23.592.07-Aug-2020 5032.01 3673.63 86.03 5.00 321.08 2655.40
   00:48:23.792.07-Aug-2020 5032.01 3673.63 86.03 5.00 321.28 2655.40
   00:48:23.992.07-Aug-2020 5032.01 3673.61 86.03 5.00 321.48 2655.40
   00:48:24.192.07-Aug-2020 5032.01 3673.60 86.03 5.00 321.68 2655.40
   00:48:24.392.07-Aug-2020 5032.01 3673.62 86.03 5.00 321.88 2655.40
