~Version Information
 VERS.                  2.0:   CWLS log ASCII Standard -VERSION 2.0
 WRAP.                   NO:   One line per depth step
~Well Information Block
#MNEM.UNIT     VALUE/NAME     DESCRIPTION
#---------     -----------    ---------------------------
 STRT.S             00:43:02 07-Aug-20: START TIME 00:43:02 07-Aug-20
 STOP.S             00:50:54 07-Aug-20: STOP TIME  00:50:54 07-Aug-20
 STEP.S                   0.00: STEP TIME
 NULL.                 -999.25: NULL VALUE
 DFWT.                        :  DIST FWL TEXT
 DFST.                        :  DIST FSL TEXT
 DMF .             Drill Floor:  DRILL MEAS FROM
 STIM.      12.00.00 03-Jul-20:  START TIME
 DATE.      00.50.00 09-Aug-20:  END TIME
 SPUD.               03-Jul-20:  SPUD DATE
 NREF.                    Grid:  NORTH REFERENCE
 HPTY.       Minimum Curvature:  HOLE POS TYPE
 DMOD.             Drill Model:  DRILL MOD DESC
 SVYD.                  Survey:  SURVEY DESC
 ILTD.               Lithology:  INTERP LTH DESC
 FTOP.          Formation Tops:  FORM TOPS DESC
 PDAT.          Mean Sea Level:  PERMANENT DATUM
 FLD .                     ACG:  FIELD NAME
 CTRY.              Azerbaijan:  COUNTRY NAME
 WELL.                    E04x:  WELL NAME
 SRVC.          Turan Drilling:  CONTRACTOR
 COMP.     BP Exploration (Caspian Sea) Ltd.:  COMPANY
 SON .        AZ-XX-0906531346:  JOB NUMBER
 WTYP.                Deviated:  WELL TYPE
 MDS .        Operator Entered:  MAG DATA SOURCE
 UWI .                     N/A:  UNIQUE WELL IDENTIFIER
 API .                     N/A:  API NUMBER
 BASE.              Azerbaijan:  LOGGING EQUIPMENT BASE LOCATION
 REGN.                   EESSA:  REGION
 PROV.                    Baku:  PROVINCE
 STAT.                    Baku:  STATE NAME
 MWDS.                    Baku:  MWD SHOP
 JOBN.        AZ-XX-0906531346:  JOB TICKET NUMB
 RIG .                     DWG:  RIG NAME
 DOE .                     N/A:  DOE NUMBER
 DCON.         Sperry Drilling:  DIRECTNL CONTR
 UNIT.                     N/A:  LOGGING EQUIPMENT ID
 CNTY.                        :  COUNTY
 LOC .                        :  LOCATION
 LMF .             Drill Floor:  LOG MEASURED FROM
 TVDS.m                  43.16:  TVDSS CORRECTN
 LATI.deg                40.17:  LATITUDE
 LONG.deg                51.17:  LONGITUDE
 WHNS.m                  -0.12:  WELL HEAD N/S
 WHEW.m                  -5.41:  WELL HEAD E/W
 UTMX.m              514337.95:  UTM X
 UTMY.m             4448627.46:  UTM Y
 DFWL.m                   0.00:  DISTANCE FWL
 DFSL.m                   0.00:  DISTANCE FSL
 SDEP.m                3088.01:  START DEPTH
 TDD .m                5200.01:  TOTAL DEPTH (DRILLER)
 VSDR.deg               244.51:  VERT SEC DIRECT
 GVFD.g                   1.00:  GRAVITY FIELD
 MFLD.nT              50329.80:  MAGNETIC FIELD
 MDIP.deg                59.63:  MAGNETIC DIP
 MDEC.deg                 6.59:  MAGNETIC DECL
 GRDC.deg                 0.09:  GRID CORRECTION
 AZTC.deg                 6.50:  AZM TOTAL CORR
 EPD .m                   0.00:  ELEVATION
 EGL .m                   0.00:  GROUND ELEVATION
 WDMS.m                 176.20:  WD ELEV
 APD .m                  43.16:  DEPTH ABOVE PD
 DEP .m                3084.71:  DEPTH
 AGAP.m                  43.16:  AIR GAP
 VSEW.m                  -5.41:  VERT SEC E/W
 VSNS.m                  -0.12:  VERT SEC N/S
 EKB .m                   0.00:  KB ELEVATION
 EDF .m                  43.16:  DF ELEVATION
 TDL .m                 243.00:  TOTAL DEPTH (LOGGER)
 VSC .                       0:  VS TO CLOSURE
 MAGU.                 1853542:  MAGUTM CHECKSUM
~Parameter Information Block
#MNEM.UNIT       Value        Description
#---------     -----------    ---------------------------
 AV  .mps                 1.91:  Ann Velocity 
 AVMX.mps                 2.52:  Max Ann Veloc 
 AZIF.deg               308.97:  Azm, Final 
 BHAT.        Rotary Steerable:  BHA Type 
 BROT.°/30m               1.00:  Build Rotating 
 BS  .in                  6.50:  Bit Size 
 BSZ .in                  6.50:  Bit Size 
 BTPL.psig              350.00:  Bit Press Loss 
 CABU.                      No:  Customer Abuse 
 CGEO.           Asif Pashayev:  Customer Geo 
 COMM.                     ´è„:  Run Comments 1 
 TCS .hr                 35.86:  Time Ciculation Ended 
 CV  .mps                 2.31:  Crit Velocity 
 CVMX.mps                 2.31:  Max Crit Veloc 
 DD1 .         Intigam Rahimov:  Direct Drillr 1 
 DDSV.               Geo-Pilot:  DD Service 
 DEFF.%                  92.00:  % Det Eff 
 DLRX.°/30m               1.00:  Dogleg Rot Max 
 DLSO.°/30m               1.00:  Dogleg Oriented 
 DLSX.°/30m               1.42:  Dogleg Str Max 
 DRET.      15.50.00 07-Aug-20:  Drill End Time 
 DRST.      10.40.00 06-Aug-20:  Drill Start Tim 
 DTIM.hr                 21.30:  Time Drilling 
 EDEP.m                5200.01:  End Depth 
 ENG1.            Alan Tuganov:  Engineer 1 
 ENG2.         Almaz Almadatov:  Engineer 2 
 ENG3.     Zammelal Abdullah Sani:  Engineer 3 
 ETIM.      22.42.00 08-Aug-20:  End Time 
 FLOI.gpm               395.00:  Flow In 
 FLON.gpm               350.00:  Flow In Min 
 FLOS.cptm                0.00:  Fluid Loss 
 FLOX.gpm               404.00:  Flow In Max 
 FTRO.       Formation Presure:  FTWD Run Obj 
 HFLO.                      No:  High Flow 
 HPRE.                      No:  High Pressure 
 HTEM.                      No:  High Temp 
 HYDO.m                   1.80:  Hydro Offset 
 IFIN.deg                72.64:  Inc, Final 
 IMAX.deg                73.68:  Inc Max 
 IMIN.deg                72.64:  Inc Min 
 IMND.m                5189.69:  Inc Min Depth 
 IMXD.m                5067.88:  Inc Max Depth 
 JARR.                      No:  Jarring 
 LETM.      15.50.00 07-Aug-20:  Log End Time 
 LOST.hr                     0:  Lost Rig Time 
 LSTM.      10.40.00 06-Aug-20:  Log Start Time 
 MDCL.ppm             36000.00:  Mud Chlorides 
 MDES.     Inversion Oil/Synthetic:  Mud Desc 
 DFD .sg                  1.36:  Mud Density 
 MDMN.sg                  1.36:  Dens Mud Min 
 MDMX.sg                  1.36:  Dens Mud Max 
 MOIL.                      70:  Run Mud Oil % 
 MOWR.                   70:30:  Run Mud OWR 
 MSND.                    0.00:  Run Mud Sand % 
 MSOL.                   17.60:  Run Mud Solids% 
 DFV .spqt               73.00:  Mud Viscosity 
 MWOD.in                  4.75:  MWD Tool OD 
 MWSI.                      No:  Serv Intrp, MWD 
 OTIM.hr                 85.66:  Time Operating 
 PCON.           Look Like New:  Pad Condition 
 PMAX.psia             6250.00:  Press Op, Max 
 PV  .cP                 65.00:  Mud PV 
 RUN .                     900:  Run Number 
 ROPA.m/hr               11.40:  ROP Avg 
 ROPN.m/hr                5.00:  ROP Min 
 ROPX.m/hr               20.00:  ROP Max 
 RPMA.rpm               130.00:  RPM Surface Avg 
 RPMN.rpm                40.00:  RPM Surface Min 
 RPMX.rpm               140.00:  RPM Surface Max 
 RRUN.                    L205:  Rig Run Number 
 RTIM.hr                  1.00:  Time Reaming 
 SAZI.deg               313.52:  Azm, Start 
 SDEP.m                4957.01:  Start Depth 
 SIDD.                      No:  Serv Intrp, DD 
 SINC.deg                73.16:  Inc, Start 
 SPPA.psig             5657.00:  SPP Avg 
 SPPN.psig             2500.00:  SPP Min 
 SPPX.psig             5806.00:  SPP Max 
 STIM.      07.12.00 05-Aug-20:  Start Time 
 SVCS.                 DD, MWD:  Services 
 SVER.                    9.20:  Sperry Version 
 TDAT.m                 243.00:  Tot Depth Attmp 
 TDDF.                      No:  Trip for DD 
 TDLG.m                 243.00:  Tot Depth Loggd 
 TFF .                      No:  Trip for Fail 
 TQAA.f-kp               13.00:  Torque Abs Avg 
 TQAN.f-kp               11.00:  Torque Abs Min 
 TQAX.f-kp               16.00:  Torque Abs Max 
 TRRT.°/30m               1.00:  Turn Rotating 
 MRT .                    HCIM:  Maximum Recorded Temperature 
 TTMX.degC               96.08:  Max Tool Temp 
 VS01.                90515411:  Virtual Str1 SN 
 VS02.                90512716:  Virtual Str2 SN 
 VS03.                90522362:  Virtual Str3 SN 
 VS04.                90619415:  Virtual Str4 SN 
 VS05.                90619414:  Virtual Str5 SN 
 VS06.                90597748:  Virtual Str6 SN 
 WBMN.klb                 2.00:  WOB Min 
 WITN.           Adil Mammadov:  Customer Rep 
 WITN.     Alexander Yadullayev:  Customer Rep 2 
 WOBA.klb                 7.00:  WOB Avg 
 WOBX.klb                23.00:  WOB Max 
 YP  .lhf2               37.00:  Yield Point 
~Curve Information Block
#MNEM.UNIT                 API CODE     Curve Description
#---------               -----------    ---------------------------
 TIME.HHMMSS            00 000 000 000:  GT Time & Date
 GTDEPTH.m              00 000 000 000:  GT Depth
 GTPQH.psia             00 000 000 000:  GT HR Quartz Pressure
 GTTQ.degC              00 000 000 000:  GT Quartz Temperature
 GTTN.NONE              00 000 000 000:  GT Test Number
 GTET.sec               00 000 000 000:  GT Elapsed Test Time
 GTTVD.m                00 000 000 000:  GT True Vertical Depth
#Other Information
#
#WARRANTY: Halliburton will use its best efforts to furnish customers with 
#accurate information and interpretations that are part of, and incident to, the services 
#provided.  However, Halliburton cannot and does not warrant the accuracy 
#or correctness of such information and interpretations.  Under no circumstances should any 
#such information or interpretation be relied upon as the sole basis for any drilling, 
#completion, production, or financial decision or any procedure involving any risk to the 
#safety of any drilling venture, drilling rig or its crew or any other third party.  The 
#Customer has full responsibility for all drilling, completion and production operation.  
#Halliburton makes no representations or warranties, either expressed or 
#implied, including, but not limited to, the implied warranties of merchantability or fitness 
#for a particular purpose, with respect to the services rendered.  In no event will 
#Halliburton be liable for failure to obtain any particular results or for 
#any damages, including, but not limited to, indirect, special or consequential damages, 
#resulting from the use of any information or interpretation provided by Halliburton.
#
~A           TIME           GTDEPTH  GTPQH  GTTQ  GTTN  GTET   GTTVD  
# ...
   00:50:19.619.07-Aug-2020 5032.01 3673.49 85.78 5.00 437.10 2655.40
   00:50:19.820.07-Aug-2020 5032.01 3673.49 85.78 5.00 437.30 2655.40
   00:50:20.020.07-Aug-2020 5032.01 3673.59 85.78 5.00 437.50 2655.40
   00:50:20.220.07-Aug-2020 5032.01 3673.45 85.78 5.00 437.70 2655.40
   00:50:20.420.07-Aug-2020 5032.01 3673.51 85.78 5.00 437.90 2655.40
   00:50:20.620.07-Aug-2020 5032.01 3673.47 85.78 5.00 438.10 2655.40
   00:50:20.820.07-Aug-2020 5032.01 3673.47 85.78 5.00 438.30 2655.40
   00:50:21.020.07-Aug-2020 5032.01 3673.56 85.78 5.00 438.50 2655.40
   00:50:21.220.07-Aug-2020 5032.01 3673.46 85.78 5.00 438.70 2655.40
   00:50:21.420.07-Aug-2020 5032.01 3673.50 85.78 5.00 438.90 2655.40
   00:50:21.620.07-Aug-2020 5032.01 3673.66 85.78 5.00 439.10 2655.40
   00:50:21.820.07-Aug-2020 5032.01 3673.66 85.78 5.00 439.30 2655.40
   00:50:22.020.07-Aug-2020 5032.01 3684.07 85.78 5.00 439.50 2655.40
   00:50:22.220.07-Aug-2020 5032.01 5075.48 85.78 5.00 439.70 2655.40
   00:50:22.420.07-Aug-2020 5032.01 5813.61 85.78 5.00 439.90 2655.40
   00:50:22.620.07-Aug-2020 5032.01 5811.17 85.78 5.00 440.10 2655.40
   00:50:22.820.07-Aug-2020 5032.01 5811.17 85.78 5.00 440.30 2655.40
   00:50:23.020.07-Aug-2020 5032.01 5812.66 85.78 5.00 440.50 2655.40
   00:50:23.220.07-Aug-2020 5032.01 5814.70 85.78 5.00 440.70 2655.40
   00:50:23.420.07-Aug-2020 5032.01 5813.84 85.78 5.00 440.90 2655.40
   00:50:23.620.07-Aug-2020 5032.01 5804.49 85.78 5.00 441.10 2655.40
   00:50:23.820.07-Aug-2020 5032.01 5804.49 85.78 5.00 441.30 2655.40
   00:50:24.021.07-Aug-2020 5032.01 5808.07 85.78 5.00 441.50 2655.40
   00:50:24.221.07-Aug-2020 5032.01 5817.53 85.77 5.00 441.70 2655.40
   00:50:24.421.07-Aug-2020 5032.01 5812.75 85.78 5.00 441.90 2655.40
   00:50:24.621.07-Aug-2020 5032.01 5817.35 85.77 5.00 442.10 2655.40
   00:50:24.821.07-Aug-2020 5032.01 5817.35 85.77 5.00 442.30 2655.40
   00:50:25.021.07-Aug-2020 5032.01 5817.77 85.78 5.00 442.50 2655.40
   00:50:25.221.07-Aug-2020 5032.01 5814.25 85.77 5.00 442.70 2655.40
   00:50:25.421.07-Aug-2020 5032.01 5818.71 85.78 5.00 442.90 2655.40
   00:50:25.621.07-Aug-2020 5032.01 5814.86 85.78 5.00 443.10 2655.40
   00:50:25.821.07-Aug-2020 5032.01 5814.86 85.78 5.00 443.30 2655.40
   00:50:26.021.07-Aug-2020 5032.01 5815.08 85.78 5.00 443.50 2655.40
   00:50:26.221.07-Aug-2020 5032.01 5818.86 85.78 5.00 443.70 2655.40
   00:50:26.421.07-Aug-2020 5032.01 5808.54 85.78 5.00 443.90 2655.40
   00:50:26.621.07-Aug-2020 5032.01 5816.99 85.78 5.00 444.10 2655.40
   00:50:26.821.07-Aug-2020 5032.01 5813.31 85.78 5.00 444.30 2655.40
   00:50:27.021.07-Aug-2020 5032.01 5816.55 85.78 5.00 444.50 2655.40
   00:50:27.221.07-Aug-2020 5032.01 5809.23 85.78 5.00 444.70 2655.40
   00:50:27.421.07-Aug-2020 5032.01 5814.14 85.78 5.00 444.90 2655.40
   00:50:27.621.07-Aug-2020 5032.01 5814.19 85.78 5.00 445.10 2655.40
   00:50:27.821.07-Aug-2020 5032.01 5814.19 85.78 5.00 445.30 2655.40
   00:50:28.021.07-Aug-2020 5032.01 5815.89 85.78 5.00 445.50 2655.40
   00:50:28.221.07-Aug-2020 5032.01 5816.73 85.78 5.00 445.70 2655.40
   00:50:28.422.07-Aug-2020 5032.01 5809.88 85.78 5.00 445.90 2655.40
   00:50:28.622.07-Aug-2020 5032.01 5814.16 85.78 5.00 446.11 2655.40
   00:50:28.822.07-Aug-2020 5032.01 5814.16 85.78 5.00 446.31 2655.40
   00:50:29.022.07-Aug-2020 5032.01 5815.26 85.78 5.00 446.51 2655.40
   00:50:29.222.07-Aug-2020 5032.01 5816.76 85.78 5.00 446.71 2655.40
   00:50:29.422.07-Aug-2020 5032.01 5807.63 85.78 5.00 446.91 2655.40
   00:50:29.622.07-Aug-2020 5032.01 5817.74 85.78 5.00 447.11 2655.40
   00:50:29.822.07-Aug-2020 5032.01 5817.74 85.78 5.00 447.31 2655.40
   00:50:30.022.07-Aug-2020 5032.01 5818.40 85.78 5.00 447.51 2655.40
   00:50:30.222.07-Aug-2020 5032.01 5814.19 85.78 5.00 447.71 2655.40
   00:50:30.422.07-Aug-2020 5032.01 5819.52 85.78 5.00 447.91 2655.40
   00:50:30.622.07-Aug-2020 5032.01 5815.37 85.78 5.00 448.11 2655.40
   00:50:30.822.07-Aug-2020 5032.01 5819.83 85.78 5.00 448.31 2655.40
   00:50:31.022.07-Aug-2020 5032.01 5815.39 85.78 5.00 448.51 2655.40
   00:50:31.222.07-Aug-2020 5032.01 5820.26 85.78 5.00 448.71 2655.40
   00:50:31.422.07-Aug-2020 5032.01 5816.37 85.78 5.00 448.91 2655.40
   00:50:31.622.07-Aug-2020 5032.01 5820.13 85.78 5.00 449.11 2655.40
   00:50:31.822.07-Aug-2020 5032.01 5820.13 85.78 5.00 449.31 2655.40
   00:50:32.022.07-Aug-2020 5032.01 5809.87 85.78 5.00 449.51 2655.40
   00:50:32.222.07-Aug-2020 5032.01 5819.51 85.78 5.00 449.71 2655.40
   00:50:32.422.07-Aug-2020 5032.01 5812.31 85.78 5.00 449.91 2655.40
   00:50:32.623.07-Aug-2020 5032.01 5817.68 85.78 5.00 450.11 2655.40
   00:50:32.823.07-Aug-2020 5032.01 5817.68 85.78 5.00 450.31 2655.40
   00:50:33.023.07-Aug-2020 5032.01 5816.95 85.78 5.00 450.51 2655.40
   00:50:33.223.07-Aug-2020 5032.01 5816.62 85.78 5.00 450.71 2655.40
   00:50:33.423.07-Aug-2020 5032.01 5817.44 85.78 5.00 450.91 2655.40
   00:50:33.623.07-Aug-2020 5032.01 5816.65 85.78 5.00 451.11 2655.40
   00:50:33.823.07-Aug-2020 5032.01 5818.12 85.78 5.00 451.31 2655.40
   00:50:34.023.07-Aug-2020 5032.01 5816.68 85.78 5.00 451.51 2655.40
   00:50:34.223.07-Aug-2020 5032.01 5818.64 85.78 5.00 451.71 2655.40
   00:50:34.423.07-Aug-2020 5032.01 5815.69 85.78 5.00 451.91 2655.40
   00:50:34.623.07-Aug-2020 5032.01 5818.64 85.78 5.00 452.11 2655.40
   00:50:34.823.07-Aug-2020 5032.01 5808.26 85.78 5.00 452.31 2655.40
   00:50:35.023.07-Aug-2020 5032.01 5820.10 85.78 5.00 452.51 2655.40
   00:50:35.223.07-Aug-2020 5032.01 5809.63 85.78 5.00 452.71 2655.40
   00:50:35.423.07-Aug-2020 5032.01 5819.02 85.78 5.00 452.91 2655.40
   00:50:35.623.07-Aug-2020 5032.01 5812.72 85.78 5.00 453.11 2655.40
   00:50:35.823.07-Aug-2020 5032.01 5818.94 85.78 5.00 453.31 2655.40
   00:50:36.023.07-Aug-2020 5032.01 5804.15 85.78 5.00 453.51 2655.40
   00:50:36.223.07-Aug-2020 5032.01 5823.69 85.78 5.00 453.71 2655.40
   00:50:36.423.07-Aug-2020 5032.01 5808.26 85.78 5.00 453.91 2655.40
   00:50:36.623.07-Aug-2020 5032.01 5820.18 85.77 5.00 454.11 2655.40
   00:50:36.824.07-Aug-2020 5032.01 5820.18 85.77 5.00 454.31 2655.40
   00:50:37.024.07-Aug-2020 5032.01 5809.05 85.77 5.00 454.51 2655.40
   00:50:37.224.07-Aug-2020 5032.01 5818.76 85.77 5.00 454.71 2655.40
   00:50:37.424.07-Aug-2020 5032.01 5810.65 85.77 5.00 454.91 2655.40
   00:50:37.624.07-Aug-2020 5032.01 5816.41 85.77 5.00 455.11 2655.40
   00:50:37.824.07-Aug-2020 5032.01 5816.41 85.77 5.00 455.31 2655.40
   00:50:38.024.07-Aug-2020 5032.01 5807.58 85.77 5.00 455.51 2655.40
   00:50:38.224.07-Aug-2020 5032.01 5817.74 85.77 5.00 455.71 2655.40
   00:50:38.424.07-Aug-2020 5032.01 5811.43 85.77 5.00 455.91 2655.40
   00:50:38.624.07-Aug-2020 5032.01 5816.08 85.77 5.00 456.11 2655.40
   00:50:38.824.07-Aug-2020 5032.01 5815.82 85.77 5.00 456.31 2655.40
   00:50:39.024.07-Aug-2020 5032.01 5816.26 85.77 5.00 456.51 2655.40
   00:50:39.224.07-Aug-2020 5032.01 5817.92 85.77 5.00 456.71 2655.40
   00:50:39.424.07-Aug-2020 5032.01 5815.71 85.77 5.00 456.91 2655.40
   00:50:39.624.07-Aug-2020 5032.01 5818.58 85.77 5.00 457.11 2655.40
   00:50:39.824.07-Aug-2020 5032.01 5818.58 85.77 5.00 457.31 2655.40
   00:50:40.024.07-Aug-2020 5032.01 5818.72 85.77 5.00 457.51 2655.40
   00:50:40.224.07-Aug-2020 5032.01 5815.08 85.77 5.00 457.71 2655.40
   00:50:40.424.07-Aug-2020 5032.01 5818.96 85.77 5.00 457.91 2655.40
   00:50:40.624.07-Aug-2020 5032.01 5805.14 85.77 5.00 458.11 2655.40
   00:50:40.824.07-Aug-2020 5032.01 5805.14 85.77 5.00 458.31 2655.40
   00:50:41.025.07-Aug-2020 5032.01 5807.34 85.77 5.00 458.51 2655.40
   00:50:41.225.07-Aug-2020 5032.01 5819.98 85.77 5.00 458.71 2655.40
   00:50:41.425.07-Aug-2020 5032.01 5812.79 85.77 5.00 458.91 2655.40
   00:50:41.625.07-Aug-2020 5032.01 5818.91 85.77 5.00 459.11 2655.40
   00:50:41.825.07-Aug-2020 5032.01 5818.91 85.77 5.00 459.31 2655.40
   00:50:42.025.07-Aug-2020 5032.01 5818.44 85.77 5.00 459.51 2655.40
   00:50:42.225.07-Aug-2020 5032.01 5815.66 85.77 5.00 459.71 2655.40
   00:50:42.425.07-Aug-2020 5032.01 5818.46 85.77 5.00 459.91 2655.40
