~Version Information
 VERS.                  2.0:   CWLS log ASCII Standard -VERSION 2.0
 WRAP.                   NO:   One line per depth step
~Well Information Block
#MNEM.UNIT     VALUE/NAME     DESCRIPTION
#---------     -----------    ---------------------------
 STRT.S             14:58:59 06-Aug-20: START TIME 14:58:59 06-Aug-20
 STOP.S             15:06:43 06-Aug-20: STOP TIME  15:06:43 06-Aug-20
 STEP.S                   0.00: STEP TIME
 NULL.                 -999.25: NULL VALUE
 DFWT.                        :  DIST FWL TEXT
 DFST.                        :  DIST FSL TEXT
 DMF .             Drill Floor:  DRILL MEAS FROM
 STIM.      12.00.00 03-Jul-20:  START TIME
 DATE.      00.50.00 09-Aug-20:  END TIME
 SPUD.               03-Jul-20:  SPUD DATE
 NREF.                    Grid:  NORTH REFERENCE
 HPTY.       Minimum Curvature:  HOLE POS TYPE
 DMOD.             Drill Model:  DRILL MOD DESC
 SVYD.                  Survey:  SURVEY DESC
 ILTD.               Lithology:  INTERP LTH DESC
 FTOP.          Formation Tops:  FORM TOPS DESC
 PDAT.          Mean Sea Level:  PERMANENT DATUM
 FLD .                     ACG:  FIELD NAME
 CTRY.              Azerbaijan:  COUNTRY NAME
 WELL.                    E04x:  WELL NAME
 SRVC.          Turan Drilling:  CONTRACTOR
 COMP.     BP Exploration (Caspian Sea) Ltd.:  COMPANY
 SON .        AZ-XX-0906531346:  JOB NUMBER
 WTYP.                Deviated:  WELL TYPE
 MDS .        Operator Entered:  MAG DATA SOURCE
 UWI .                     N/A:  UNIQUE WELL IDENTIFIER
 API .                     N/A:  API NUMBER
 BASE.              Azerbaijan:  LOGGING EQUIPMENT BASE LOCATION
 REGN.                   EESSA:  REGION
 PROV.                    Baku:  PROVINCE
 STAT.                    Baku:  STATE NAME
 MWDS.                    Baku:  MWD SHOP
 JOBN.        AZ-XX-0906531346:  JOB TICKET NUMB
 RIG .                     DWG:  RIG NAME
 DOE .                     N/A:  DOE NUMBER
 DCON.         Sperry Drilling:  DIRECTNL CONTR
 UNIT.                     N/A:  LOGGING EQUIPMENT ID
 CNTY.                        :  COUNTY
 LOC .                        :  LOCATION
 LMF .             Drill Floor:  LOG MEASURED FROM
 TVDS.m                  43.16:  TVDSS CORRECTN
 LATI.deg                40.17:  LATITUDE
 LONG.deg                51.17:  LONGITUDE
 WHNS.m                  -0.12:  WELL HEAD N/S
 WHEW.m                  -5.41:  WELL HEAD E/W
 UTMX.m              514337.95:  UTM X
 UTMY.m             4448627.46:  UTM Y
 DFWL.m                   0.00:  DISTANCE FWL
 DFSL.m                   0.00:  DISTANCE FSL
 SDEP.m                3088.01:  START DEPTH
 TDD .m                5200.01:  TOTAL DEPTH (DRILLER)
 VSDR.deg               244.51:  VERT SEC DIRECT
 GVFD.g                   1.00:  GRAVITY FIELD
 MFLD.nT              50329.80:  MAGNETIC FIELD
 MDIP.deg                59.63:  MAGNETIC DIP
 MDEC.deg                 6.59:  MAGNETIC DECL
 GRDC.deg                 0.09:  GRID CORRECTION
 AZTC.deg                 6.50:  AZM TOTAL CORR
 EPD .m                   0.00:  ELEVATION
 EGL .m                   0.00:  GROUND ELEVATION
 WDMS.m                 176.20:  WD ELEV
 APD .m                  43.16:  DEPTH ABOVE PD
 DEP .m                3084.71:  DEPTH
 AGAP.m                  43.16:  AIR GAP
 VSEW.m                  -5.41:  VERT SEC E/W
 VSNS.m                  -0.12:  VERT SEC N/S
 EKB .m                   0.00:  KB ELEVATION
 EDF .m                  43.16:  DF ELEVATION
 TDL .m                 243.00:  TOTAL DEPTH (LOGGER)
 VSC .                       0:  VS TO CLOSURE
 MAGU.                 1853542:  MAGUTM CHECKSUM
~Parameter Information Block
#MNEM.UNIT       Value        Description
#---------     -----------    ---------------------------
 AV  .mps                 1.91:  Ann Velocity 
 AVMX.mps                 2.52:  Max Ann Veloc 
 AZIF.deg               308.97:  Azm, Final 
 BHAT.        Rotary Steerable:  BHA Type 
 BROT.°/30m               1.00:  Build Rotating 
 BS  .in                  6.50:  Bit Size 
 BSZ .in                  6.50:  Bit Size 
 BTPL.psig              350.00:  Bit Press Loss 
 CABU.                      No:  Customer Abuse 
 CGEO.           Asif Pashayev:  Customer Geo 
 COMM.                     ”›T:  Run Comments 1 
 TCS .hr                 35.86:  Time Ciculation Ended 
 CV  .mps                 2.31:  Crit Velocity 
 CVMX.mps                 2.31:  Max Crit Veloc 
 DD1 .         Intigam Rahimov:  Direct Drillr 1 
 DDSV.               Geo-Pilot:  DD Service 
 DEFF.%                  92.00:  % Det Eff 
 DLRX.°/30m               1.00:  Dogleg Rot Max 
 DLSO.°/30m               1.00:  Dogleg Oriented 
 DLSX.°/30m               1.42:  Dogleg Str Max 
 DRET.      15.50.00 07-Aug-20:  Drill End Time 
 DRST.      10.40.00 06-Aug-20:  Drill Start Tim 
 DTIM.hr                 21.30:  Time Drilling 
 EDEP.m                5200.01:  End Depth 
 ENG1.            Alan Tuganov:  Engineer 1 
 ENG2.         Almaz Almadatov:  Engineer 2 
 ENG3.     Zammelal Abdullah Sani:  Engineer 3 
 ETIM.      22.42.00 08-Aug-20:  End Time 
 FLOI.gpm               395.00:  Flow In 
 FLON.gpm               350.00:  Flow In Min 
 FLOS.cptm                0.00:  Fluid Loss 
 FLOX.gpm               404.00:  Flow In Max 
 FTRO.       Formation Presure:  FTWD Run Obj 
 HFLO.                      No:  High Flow 
 HPRE.                      No:  High Pressure 
 HTEM.                      No:  High Temp 
 HYDO.m                   1.80:  Hydro Offset 
 IFIN.deg                72.64:  Inc, Final 
 IMAX.deg                73.68:  Inc Max 
 IMIN.deg                72.64:  Inc Min 
 IMND.m                5189.69:  Inc Min Depth 
 IMXD.m                5067.88:  Inc Max Depth 
 JARR.                      No:  Jarring 
 LETM.      15.50.00 07-Aug-20:  Log End Time 
 LOST.hr                     0:  Lost Rig Time 
 LSTM.      10.40.00 06-Aug-20:  Log Start Time 
 MDCL.ppm             36000.00:  Mud Chlorides 
 MDES.     Inversion Oil/Synthetic:  Mud Desc 
 DFD .sg                  1.36:  Mud Density 
 MDMN.sg                  1.36:  Dens Mud Min 
 MDMX.sg                  1.36:  Dens Mud Max 
 MOIL.                      70:  Run Mud Oil % 
 MOWR.                   70:30:  Run Mud OWR 
 MSND.                    0.00:  Run Mud Sand % 
 MSOL.                   17.60:  Run Mud Solids% 
 DFV .spqt               73.00:  Mud Viscosity 
 MWOD.in                  4.75:  MWD Tool OD 
 MWSI.                      No:  Serv Intrp, MWD 
 OTIM.hr                 85.66:  Time Operating 
 PCON.           Look Like New:  Pad Condition 
 PMAX.psia             6250.00:  Press Op, Max 
 PV  .cP                 65.00:  Mud PV 
 RUN .                     900:  Run Number 
 ROPA.m/hr               11.40:  ROP Avg 
 ROPN.m/hr                5.00:  ROP Min 
 ROPX.m/hr               20.00:  ROP Max 
 RPMA.rpm               130.00:  RPM Surface Avg 
 RPMN.rpm                40.00:  RPM Surface Min 
 RPMX.rpm               140.00:  RPM Surface Max 
 RRUN.                    L205:  Rig Run Number 
 RTIM.hr                  1.00:  Time Reaming 
 SAZI.deg               313.52:  Azm, Start 
 SDEP.m                4957.01:  Start Depth 
 SIDD.                      No:  Serv Intrp, DD 
 SINC.deg                73.16:  Inc, Start 
 SPPA.psig             5657.00:  SPP Avg 
 SPPN.psig             2500.00:  SPP Min 
 SPPX.psig             5806.00:  SPP Max 
 STIM.      07.12.00 05-Aug-20:  Start Time 
 SVCS.                 DD, MWD:  Services 
 SVER.                    9.20:  Sperry Version 
 TDAT.m                 243.00:  Tot Depth Attmp 
 TDDF.                      No:  Trip for DD 
 TDLG.m                 243.00:  Tot Depth Loggd 
 TFF .                      No:  Trip for Fail 
 TQAA.f-kp               13.00:  Torque Abs Avg 
 TQAN.f-kp               11.00:  Torque Abs Min 
 TQAX.f-kp               16.00:  Torque Abs Max 
 TRRT.°/30m               1.00:  Turn Rotating 
 MRT .                    HCIM:  Maximum Recorded Temperature 
 TTMX.degC               96.08:  Max Tool Temp 
 VS01.                90515411:  Virtual Str1 SN 
 VS02.                90512716:  Virtual Str2 SN 
 VS03.                90522362:  Virtual Str3 SN 
 VS04.                90619415:  Virtual Str4 SN 
 VS05.                90619414:  Virtual Str5 SN 
 VS06.                90597748:  Virtual Str6 SN 
 WBMN.klb                 2.00:  WOB Min 
 WITN.           Adil Mammadov:  Customer Rep 
 WITN.     Alexander Yadullayev:  Customer Rep 2 
 WOBA.klb                 7.00:  WOB Avg 
 WOBX.klb                23.00:  WOB Max 
 YP  .lhf2               37.00:  Yield Point 
~Curve Information Block
#MNEM.UNIT                 API CODE     Curve Description
#---------               -----------    ---------------------------
 TIME.HHMMSS            00 000 000 000:  GT Time & Date
 GTDEPTH.m              00 000 000 000:  GT Depth
 GTPQH.psia             00 000 000 000:  GT HR Quartz Pressure
 GTTQ.degC              00 000 000 000:  GT Quartz Temperature
 GTTN.NONE              00 000 000 000:  GT Test Number
 GTET.sec               00 000 000 000:  GT Elapsed Test Time
 GTTVD.m                00 000 000 000:  GT True Vertical Depth
#Other Information
#
#WARRANTY: Halliburton will use its best efforts to furnish customers with 
#accurate information and interpretations that are part of, and incident to, the services 
#provided.  However, Halliburton cannot and does not warrant the accuracy 
#or correctness of such information and interpretations.  Under no circumstances should any 
#such information or interpretation be relied upon as the sole basis for any drilling, 
#completion, production, or financial decision or any procedure involving any risk to the 
#safety of any drilling venture, drilling rig or its crew or any other third party.  The 
#Customer has full responsibility for all drilling, completion and production operation.  
#Halliburton makes no representations or warranties, either expressed or 
#implied, including, but not limited to, the implied warranties of merchantability or fitness 
#for a particular purpose, with respect to the services rendered.  In no event will 
#Halliburton be liable for failure to obtain any particular results or for 
#any damages, including, but not limited to, indirect, special or consequential damages, 
#resulting from the use of any information or interpretation provided by Halliburton.
#
~A           TIME           GTDEPTH  GTPQH  GTTQ  GTTN  GTET   GTTVD  
# ...
   15:01:17.576.06-Aug-2020 4947.01 5726.91 78.49 1.00 138.03 2630.94
   15:01:17.776.06-Aug-2020 4947.01 5726.91 78.49 1.00 138.23 2630.94
   15:01:17.976.06-Aug-2020 4947.01 5731.99 78.49 1.00 138.43 2630.94
   15:01:18.176.06-Aug-2020 4947.01 5732.05 78.49 1.00 138.63 2630.94
   15:01:18.376.06-Aug-2020 4947.01 5731.69 78.49 1.00 138.83 2630.94
   15:01:18.576.06-Aug-2020 4947.01 5732.71 78.49 1.00 139.03 2630.94
   15:01:18.776.06-Aug-2020 4947.01 5732.71 78.49 1.00 139.23 2630.94
   15:01:18.976.06-Aug-2020 4947.01 5733.16 78.49 1.00 139.43 2630.94
   15:01:19.176.06-Aug-2020 4947.01 5732.72 78.49 1.00 139.63 2630.94
   15:01:19.376.06-Aug-2020 4947.01 5732.52 78.49 1.00 139.83 2630.94
   15:01:19.576.06-Aug-2020 4947.01 5731.72 78.49 1.00 140.03 2630.94
   15:01:19.776.06-Aug-2020 4947.01 5731.72 78.49 1.00 140.23 2630.94
   15:01:19.976.06-Aug-2020 4947.01 5731.20 78.49 1.00 140.43 2630.94
   15:01:20.176.06-Aug-2020 4947.01 5726.79 78.49 1.00 140.63 2630.94
   15:01:20.376.06-Aug-2020 4947.01 5725.03 78.48 1.00 140.83 2630.94
   15:01:20.576.06-Aug-2020 4947.01 5728.86 78.48 1.00 141.03 2630.94
   15:01:20.776.06-Aug-2020 4947.01 5728.86 78.48 1.00 141.23 2630.94
   15:01:20.976.06-Aug-2020 4947.01 5730.50 78.48 1.00 141.43 2630.94
   15:01:21.176.06-Aug-2020 4947.01 5725.34 78.48 1.00 141.63 2630.94
   15:01:21.376.06-Aug-2020 4947.01 5727.23 78.48 1.00 141.83 2630.94
   15:01:21.576.06-Aug-2020 4947.01 5730.41 78.48 1.00 142.03 2630.94
   15:01:21.777.06-Aug-2020 4947.01 5730.41 78.48 1.00 142.23 2630.94
   15:01:21.977.06-Aug-2020 4947.01 5732.28 78.48 1.00 142.43 2630.94
   15:01:22.177.06-Aug-2020 4947.01 5724.37 78.48 1.00 142.63 2630.94
   15:01:22.377.06-Aug-2020 4947.01 5728.08 78.48 1.00 142.83 2630.94
   15:01:22.577.06-Aug-2020 4947.01 5730.52 78.48 1.00 143.03 2630.94
   15:01:22.777.06-Aug-2020 4947.01 5730.52 78.48 1.00 143.23 2630.94
   15:01:22.977.06-Aug-2020 4947.01 5731.40 78.48 1.00 143.43 2630.94
   15:01:23.177.06-Aug-2020 4947.01 5731.77 78.48 1.00 143.63 2630.94
   15:01:23.377.06-Aug-2020 4947.01 5724.70 78.48 1.00 143.83 2630.94
   15:01:23.577.06-Aug-2020 4947.01 5727.96 78.48 1.00 144.03 2630.94
   15:01:23.777.06-Aug-2020 4947.01 5727.96 78.48 1.00 144.23 2630.94
   15:01:23.977.06-Aug-2020 4947.01 5732.03 78.48 1.00 144.43 2630.94
   15:01:24.177.06-Aug-2020 4947.01 5732.53 78.48 1.00 144.63 2630.94
   15:01:24.377.06-Aug-2020 4947.01 5732.96 78.48 1.00 144.83 2630.94
   15:01:24.577.06-Aug-2020 4947.01 5732.51 78.48 1.00 145.03 2630.94
   15:01:24.777.06-Aug-2020 4947.01 5732.51 78.48 1.00 145.23 2630.94
   15:01:24.977.06-Aug-2020 4947.01 5733.65 78.48 1.00 145.43 2630.94
   15:01:25.177.06-Aug-2020 4947.01 5733.93 78.48 1.00 145.63 2630.94
   15:01:25.377.06-Aug-2020 4947.01 5733.30 78.48 1.00 145.83 2630.94
   15:01:25.577.06-Aug-2020 4947.01 5732.86 78.48 1.00 146.03 2630.94
   15:01:25.777.06-Aug-2020 4947.01 5732.86 78.48 1.00 146.23 2630.94
   15:01:25.977.06-Aug-2020 4947.01 5731.88 78.48 1.00 146.43 2630.94
   15:01:26.177.06-Aug-2020 4947.01 5725.13 78.48 1.00 146.63 2630.94
   15:01:26.377.06-Aug-2020 4947.01 5729.21 78.48 1.00 146.83 2630.94
   15:01:26.578.06-Aug-2020 4947.01 5731.63 78.48 1.00 147.03 2630.94
   15:01:26.778.06-Aug-2020 4947.01 5731.63 78.48 1.00 147.23 2630.94
   15:01:26.978.06-Aug-2020 4947.01 5731.99 78.48 1.00 147.43 2630.94
   15:01:27.178.06-Aug-2020 4947.01 5732.28 78.48 1.00 147.63 2630.94
   15:01:27.378.06-Aug-2020 4947.01 5732.98 78.48 1.00 147.83 2630.94
   15:01:27.578.06-Aug-2020 4947.01 5732.74 78.48 1.00 148.03 2630.94
   15:01:27.778.06-Aug-2020 4947.01 5732.74 78.48 1.00 148.23 2630.94
   15:01:27.978.06-Aug-2020 4947.01 5732.25 78.48 1.00 148.43 2630.94
   15:01:28.178.06-Aug-2020 4947.01 5731.85 78.48 1.00 148.63 2630.94
   15:01:28.378.06-Aug-2020 4947.01 5730.78 78.48 1.00 148.83 2630.94
   15:01:28.578.06-Aug-2020 4947.01 5730.90 78.48 1.00 149.03 2630.94
   15:01:28.778.06-Aug-2020 4947.01 5730.90 78.48 1.00 149.23 2630.94
   15:01:28.978.06-Aug-2020 4947.01 5724.96 78.48 1.00 149.43 2630.94
   15:01:29.178.06-Aug-2020 4947.01 5726.14 78.47 1.00 149.63 2630.94
   15:01:29.378.06-Aug-2020 4947.01 5729.39 78.47 1.00 149.83 2630.94
   15:01:29.578.06-Aug-2020 4947.01 5730.30 78.47 1.00 150.03 2630.94
   15:01:29.778.06-Aug-2020 4947.01 5730.30 78.47 1.00 150.23 2630.94
   15:01:29.978.06-Aug-2020 4947.01 5726.59 78.47 1.00 150.43 2630.94
   15:01:30.178.06-Aug-2020 4947.01 5730.83 78.47 1.00 150.63 2630.94
   15:01:30.378.06-Aug-2020 4947.01 5732.20 78.47 1.00 150.83 2630.94
   15:01:30.578.06-Aug-2020 4947.01 5732.83 78.47 1.00 151.03 2630.94
   15:01:30.778.06-Aug-2020 4947.01 5732.83 78.47 1.00 151.23 2630.94
   15:01:30.978.06-Aug-2020 4947.01 5724.94 78.47 1.00 151.43 2630.94
   15:01:31.179.06-Aug-2020 4947.01 5728.65 78.47 1.00 151.63 2630.94
   15:01:31.379.06-Aug-2020 4947.01 5730.92 78.47 1.00 151.83 2630.94
   15:01:31.579.06-Aug-2020 4947.01 5731.76 78.47 1.00 152.03 2630.94
   15:01:31.779.06-Aug-2020 4947.01 5731.76 78.47 1.00 152.23 2630.94
   15:01:31.979.06-Aug-2020 4947.01 5732.16 78.47 1.00 152.43 2630.94
   15:01:32.179.06-Aug-2020 4947.01 5725.30 78.47 1.00 152.63 2630.94
   15:01:32.379.06-Aug-2020 4947.01 5728.10 78.47 1.00 152.83 2630.94
   15:01:32.579.06-Aug-2020 4947.01 5730.47 78.47 1.00 153.03 2630.94
   15:01:32.779.06-Aug-2020 4947.01 5730.47 78.47 1.00 153.23 2630.94
   15:01:32.979.06-Aug-2020 4947.01 5733.06 78.47 1.00 153.43 2630.94
   15:01:33.179.06-Aug-2020 4947.01 5733.58 78.47 1.00 153.63 2630.94
   15:01:33.379.06-Aug-2020 4947.01 5733.15 78.47 1.00 153.83 2630.94
   15:01:33.579.06-Aug-2020 4947.01 5732.72 78.47 1.00 154.03 2630.94
   15:01:33.779.06-Aug-2020 4947.01 5732.72 78.47 1.00 154.23 2630.94
   15:01:33.979.06-Aug-2020 4947.01 5732.70 78.47 1.00 154.43 2630.94
   15:01:34.179.06-Aug-2020 4947.01 5732.19 78.47 1.00 154.63 2630.94
   15:01:34.379.06-Aug-2020 4947.01 5731.67 78.47 1.00 154.83 2630.94
   15:01:34.579.06-Aug-2020 4947.01 5731.48 78.47 1.00 155.03 2630.94
   15:01:34.779.06-Aug-2020 4947.01 5731.48 78.47 1.00 155.23 2630.94
   15:01:34.979.06-Aug-2020 4947.01 5726.01 78.47 1.00 155.43 2630.94
   15:01:35.179.06-Aug-2020 4947.01 5730.34 78.47 1.00 155.63 2630.94
   15:01:35.379.06-Aug-2020 4947.01 5731.34 78.47 1.00 155.83 2630.94
   15:01:35.579.06-Aug-2020 4947.01 5731.33 78.47 1.00 156.03 2630.94
   15:01:35.780.06-Aug-2020 4947.01 5731.33 78.47 1.00 156.23 2630.94
   15:01:35.980.06-Aug-2020 4947.01 5732.36 78.47 1.00 156.43 2630.94
   15:01:36.180.06-Aug-2020 4947.01 5732.87 78.47 1.00 156.63 2630.94
   15:01:36.380.06-Aug-2020 4947.01 5732.98 78.47 1.00 156.83 2630.94
   15:01:36.580.06-Aug-2020 4947.01 5733.11 78.47 1.00 157.03 2630.94
   15:01:36.780.06-Aug-2020 4947.01 5733.11 78.47 1.00 157.23 2630.94
   15:01:36.980.06-Aug-2020 4947.01 5731.89 78.47 1.00 157.43 2630.94
   15:01:37.180.06-Aug-2020 4947.01 5731.21 78.47 1.00 157.63 2630.94
   15:01:37.380.06-Aug-2020 4947.01 5731.15 78.47 1.00 157.83 2630.94
   15:01:37.580.06-Aug-2020 4947.01 5726.34 78.46 1.00 158.03 2630.94
   15:01:37.780.06-Aug-2020 4947.01 5726.34 78.46 1.00 158.23 2630.94
   15:01:37.980.06-Aug-2020 4947.01 5728.71 78.46 1.00 158.43 2630.94
   15:01:38.180.06-Aug-2020 4947.01 5730.10 78.46 1.00 158.63 2630.94
   15:01:38.380.06-Aug-2020 4947.01 5730.43 78.46 1.00 158.83 2630.94
   15:01:38.580.06-Aug-2020 4947.01 5724.10 78.46 1.00 159.03 2630.94
   15:01:38.780.06-Aug-2020 4947.01 5724.10 78.46 1.00 159.23 2630.94
   15:01:38.980.06-Aug-2020 4947.01 5731.42 78.46 1.00 159.43 2630.94
   15:01:39.180.06-Aug-2020 4947.01 5732.36 78.46 1.00 159.63 2630.94
   15:01:39.380.06-Aug-2020 4947.01 5732.96 78.46 1.00 159.83 2630.94
   15:01:39.580.06-Aug-2020 4947.01 5725.05 78.46 1.00 160.03 2630.94
   15:01:39.780.06-Aug-2020 4947.01 5725.05 78.46 1.00 160.23 2630.94
   15:01:39.980.06-Aug-2020 4947.01 5730.95 78.46 1.00 160.43 2630.94
   15:01:40.180.06-Aug-2020 4947.01 5731.65 78.46 1.00 160.63 2630.94
   15:01:40.380.06-Aug-2020 4947.01 5731.47 78.46 1.00 160.83 2630.94
