~Version Information
 VERS.                  2.0:   CWLS log ASCII Standard -VERSION 2.0
 WRAP.                   NO:   One line per depth step
~Well Information Block
#MNEM.UNIT     VALUE/NAME     DESCRIPTION
#---------     -----------    ---------------------------
 STRT.S             14:58:59 06-Aug-20: START TIME 14:58:59 06-Aug-20
 STOP.S             15:06:43 06-Aug-20: STOP TIME  15:06:43 06-Aug-20
 STEP.S                   0.00: STEP TIME
 NULL.                 -999.25: NULL VALUE
 DFWT.                        :  DIST FWL TEXT
 DFST.                        :  DIST FSL TEXT
 DMF .             Drill Floor:  DRILL MEAS FROM
 STIM.      12.00.00 03-Jul-20:  START TIME
 DATE.      00.50.00 09-Aug-20:  END TIME
 SPUD.               03-Jul-20:  SPUD DATE
 NREF.                    Grid:  NORTH REFERENCE
 HPTY.       Minimum Curvature:  HOLE POS TYPE
 DMOD.             Drill Model:  DRILL MOD DESC
 SVYD.                  Survey:  SURVEY DESC
 ILTD.               Lithology:  INTERP LTH DESC
 FTOP.          Formation Tops:  FORM TOPS DESC
 PDAT.          Mean Sea Level:  PERMANENT DATUM
 FLD .                     ACG:  FIELD NAME
 CTRY.              Azerbaijan:  COUNTRY NAME
 WELL.                    E04x:  WELL NAME
 SRVC.          Turan Drilling:  CONTRACTOR
 COMP.     BP Exploration (Caspian Sea) Ltd.:  COMPANY
 SON .        AZ-XX-0906531346:  JOB NUMBER
 WTYP.                Deviated:  WELL TYPE
 MDS .        Operator Entered:  MAG DATA SOURCE
 UWI .                     N/A:  UNIQUE WELL IDENTIFIER
 API .                     N/A:  API NUMBER
 BASE.              Azerbaijan:  LOGGING EQUIPMENT BASE LOCATION
 REGN.                   EESSA:  REGION
 PROV.                    Baku:  PROVINCE
 STAT.                    Baku:  STATE NAME
 MWDS.                    Baku:  MWD SHOP
 JOBN.        AZ-XX-0906531346:  JOB TICKET NUMB
 RIG .                     DWG:  RIG NAME
 DOE .                     N/A:  DOE NUMBER
 DCON.         Sperry Drilling:  DIRECTNL CONTR
 UNIT.                     N/A:  LOGGING EQUIPMENT ID
 CNTY.                        :  COUNTY
 LOC .                        :  LOCATION
 LMF .             Drill Floor:  LOG MEASURED FROM
 TVDS.m                  43.16:  TVDSS CORRECTN
 LATI.deg                40.17:  LATITUDE
 LONG.deg                51.17:  LONGITUDE
 WHNS.m                  -0.12:  WELL HEAD N/S
 WHEW.m                  -5.41:  WELL HEAD E/W
 UTMX.m              514337.95:  UTM X
 UTMY.m             4448627.46:  UTM Y
 DFWL.m                   0.00:  DISTANCE FWL
 DFSL.m                   0.00:  DISTANCE FSL
 SDEP.m                3088.01:  START DEPTH
 TDD .m                5200.01:  TOTAL DEPTH (DRILLER)
 VSDR.deg               244.51:  VERT SEC DIRECT
 GVFD.g                   1.00:  GRAVITY FIELD
 MFLD.nT              50329.80:  MAGNETIC FIELD
 MDIP.deg                59.63:  MAGNETIC DIP
 MDEC.deg                 6.59:  MAGNETIC DECL
 GRDC.deg                 0.09:  GRID CORRECTION
 AZTC.deg                 6.50:  AZM TOTAL CORR
 EPD .m                   0.00:  ELEVATION
 EGL .m                   0.00:  GROUND ELEVATION
 WDMS.m                 176.20:  WD ELEV
 APD .m                  43.16:  DEPTH ABOVE PD
 DEP .m                3084.71:  DEPTH
 AGAP.m                  43.16:  AIR GAP
 VSEW.m                  -5.41:  VERT SEC E/W
 VSNS.m                  -0.12:  VERT SEC N/S
 EKB .m                   0.00:  KB ELEVATION
 EDF .m                  43.16:  DF ELEVATION
 TDL .m                 243.00:  TOTAL DEPTH (LOGGER)
 VSC .                       0:  VS TO CLOSURE
 MAGU.                 1853542:  MAGUTM CHECKSUM
~Parameter Information Block
#MNEM.UNIT       Value        Description
#---------     -----------    ---------------------------
 AV  .mps                 1.91:  Ann Velocity 
 AVMX.mps                 2.52:  Max Ann Veloc 
 AZIF.deg               308.97:  Azm, Final 
 BHAT.        Rotary Steerable:  BHA Type 
 BROT.°/30m               1.00:  Build Rotating 
 BS  .in                  6.50:  Bit Size 
 BSZ .in                  6.50:  Bit Size 
 BTPL.psig              350.00:  Bit Press Loss 
 CABU.                      No:  Customer Abuse 
 CGEO.           Asif Pashayev:  Customer Geo 
 COMM.                     ”›T:  Run Comments 1 
 TCS .hr                 35.86:  Time Ciculation Ended 
 CV  .mps                 2.31:  Crit Velocity 
 CVMX.mps                 2.31:  Max Crit Veloc 
 DD1 .         Intigam Rahimov:  Direct Drillr 1 
 DDSV.               Geo-Pilot:  DD Service 
 DEFF.%                  92.00:  % Det Eff 
 DLRX.°/30m               1.00:  Dogleg Rot Max 
 DLSO.°/30m               1.00:  Dogleg Oriented 
 DLSX.°/30m               1.42:  Dogleg Str Max 
 DRET.      15.50.00 07-Aug-20:  Drill End Time 
 DRST.      10.40.00 06-Aug-20:  Drill Start Tim 
 DTIM.hr                 21.30:  Time Drilling 
 EDEP.m                5200.01:  End Depth 
 ENG1.            Alan Tuganov:  Engineer 1 
 ENG2.         Almaz Almadatov:  Engineer 2 
 ENG3.     Zammelal Abdullah Sani:  Engineer 3 
 ETIM.      22.42.00 08-Aug-20:  End Time 
 FLOI.gpm               395.00:  Flow In 
 FLON.gpm               350.00:  Flow In Min 
 FLOS.cptm                0.00:  Fluid Loss 
 FLOX.gpm               404.00:  Flow In Max 
 FTRO.       Formation Presure:  FTWD Run Obj 
 HFLO.                      No:  High Flow 
 HPRE.                      No:  High Pressure 
 HTEM.                      No:  High Temp 
 HYDO.m                   1.80:  Hydro Offset 
 IFIN.deg                72.64:  Inc, Final 
 IMAX.deg                73.68:  Inc Max 
 IMIN.deg                72.64:  Inc Min 
 IMND.m                5189.69:  Inc Min Depth 
 IMXD.m                5067.88:  Inc Max Depth 
 JARR.                      No:  Jarring 
 LETM.      15.50.00 07-Aug-20:  Log End Time 
 LOST.hr                     0:  Lost Rig Time 
 LSTM.      10.40.00 06-Aug-20:  Log Start Time 
 MDCL.ppm             36000.00:  Mud Chlorides 
 MDES.     Inversion Oil/Synthetic:  Mud Desc 
 DFD .sg                  1.36:  Mud Density 
 MDMN.sg                  1.36:  Dens Mud Min 
 MDMX.sg                  1.36:  Dens Mud Max 
 MOIL.                      70:  Run Mud Oil % 
 MOWR.                   70:30:  Run Mud OWR 
 MSND.                    0.00:  Run Mud Sand % 
 MSOL.                   17.60:  Run Mud Solids% 
 DFV .spqt               73.00:  Mud Viscosity 
 MWOD.in                  4.75:  MWD Tool OD 
 MWSI.                      No:  Serv Intrp, MWD 
 OTIM.hr                 85.66:  Time Operating 
 PCON.           Look Like New:  Pad Condition 
 PMAX.psia             6250.00:  Press Op, Max 
 PV  .cP                 65.00:  Mud PV 
 RUN .                     900:  Run Number 
 ROPA.m/hr               11.40:  ROP Avg 
 ROPN.m/hr                5.00:  ROP Min 
 ROPX.m/hr               20.00:  ROP Max 
 RPMA.rpm               130.00:  RPM Surface Avg 
 RPMN.rpm                40.00:  RPM Surface Min 
 RPMX.rpm               140.00:  RPM Surface Max 
 RRUN.                    L205:  Rig Run Number 
 RTIM.hr                  1.00:  Time Reaming 
 SAZI.deg               313.52:  Azm, Start 
 SDEP.m                4957.01:  Start Depth 
 SIDD.                      No:  Serv Intrp, DD 
 SINC.deg                73.16:  Inc, Start 
 SPPA.psig             5657.00:  SPP Avg 
 SPPN.psig             2500.00:  SPP Min 
 SPPX.psig             5806.00:  SPP Max 
 STIM.      07.12.00 05-Aug-20:  Start Time 
 SVCS.                 DD, MWD:  Services 
 SVER.                    9.20:  Sperry Version 
 TDAT.m                 243.00:  Tot Depth Attmp 
 TDDF.                      No:  Trip for DD 
 TDLG.m                 243.00:  Tot Depth Loggd 
 TFF .                      No:  Trip for Fail 
 TQAA.f-kp               13.00:  Torque Abs Avg 
 TQAN.f-kp               11.00:  Torque Abs Min 
 TQAX.f-kp               16.00:  Torque Abs Max 
 TRRT.°/30m               1.00:  Turn Rotating 
 MRT .                    HCIM:  Maximum Recorded Temperature 
 TTMX.degC               96.08:  Max Tool Temp 
 VS01.                90515411:  Virtual Str1 SN 
 VS02.                90512716:  Virtual Str2 SN 
 VS03.                90522362:  Virtual Str3 SN 
 VS04.                90619415:  Virtual Str4 SN 
 VS05.                90619414:  Virtual Str5 SN 
 VS06.                90597748:  Virtual Str6 SN 
 WBMN.klb                 2.00:  WOB Min 
 WITN.           Adil Mammadov:  Customer Rep 
 WITN.     Alexander Yadullayev:  Customer Rep 2 
 WOBA.klb                 7.00:  WOB Avg 
 WOBX.klb                23.00:  WOB Max 
 YP  .lhf2               37.00:  Yield Point 
~Curve Information Block
#MNEM.UNIT                 API CODE     Curve Description
#---------               -----------    ---------------------------
 TIME.HHMMSS            00 000 000 000:  GT Time & Date
 GTDEPTH.m              00 000 000 000:  GT Depth
 GTPQH.psia             00 000 000 000:  GT HR Quartz Pressure
 GTTQ.degC              00 000 000 000:  GT Quartz Temperature
 GTTN.NONE              00 000 000 000:  GT Test Number
 GTET.sec               00 000 000 000:  GT Elapsed Test Time
 GTTVD.m                00 000 000 000:  GT True Vertical Depth
#Other Information
#
#WARRANTY: Halliburton will use its best efforts to furnish customers with 
#accurate information and interpretations that are part of, and incident to, the services 
#provided.  However, Halliburton cannot and does not warrant the accuracy 
#or correctness of such information and interpretations.  Under no circumstances should any 
#such information or interpretation be relied upon as the sole basis for any drilling, 
#completion, production, or financial decision or any procedure involving any risk to the 
#safety of any drilling venture, drilling rig or its crew or any other third party.  The 
#Customer has full responsibility for all drilling, completion and production operation.  
#Halliburton makes no representations or warranties, either expressed or 
#implied, including, but not limited to, the implied warranties of merchantability or fitness 
#for a particular purpose, with respect to the services rendered.  In no event will 
#Halliburton be liable for failure to obtain any particular results or for 
#any damages, including, but not limited to, indirect, special or consequential damages, 
#resulting from the use of any information or interpretation provided by Halliburton.
#
~A           TIME           GTDEPTH  GTPQH  GTTQ  GTTN  GTET   GTTVD  
# ...
   15:05:07.625.06-Aug-2020 4947.01 5728.82 78.31 1.00 368.08 2630.94
   15:05:07.825.06-Aug-2020 4947.01 5728.82 78.31 1.00 368.28 2630.94
   15:05:08.025.06-Aug-2020 4947.01 5730.52 78.31 1.00 368.48 2630.94
   15:05:08.225.06-Aug-2020 4947.01 5725.21 78.31 1.00 368.68 2630.94
   15:05:08.425.06-Aug-2020 4947.01 5728.29 78.31 1.00 368.88 2630.94
   15:05:08.625.06-Aug-2020 4947.01 5732.48 78.31 1.00 369.08 2630.94
   15:05:08.825.06-Aug-2020 4947.01 5732.48 78.31 1.00 369.28 2630.94
   15:05:09.025.06-Aug-2020 4947.01 5733.98 78.31 1.00 369.48 2630.94
   15:05:09.225.06-Aug-2020 4947.01 5725.16 78.31 1.00 369.68 2630.94
   15:05:09.425.06-Aug-2020 4947.01 5730.36 78.31 1.00 369.88 2630.94
   15:05:09.625.06-Aug-2020 4947.01 5731.66 78.31 1.00 370.08 2630.94
   15:05:09.825.06-Aug-2020 4947.01 5731.66 78.31 1.00 370.28 2630.94
   15:05:10.025.06-Aug-2020 4947.01 5732.69 78.31 1.00 370.48 2630.94
   15:05:10.225.06-Aug-2020 4947.01 5733.46 78.31 1.00 370.68 2630.94
   15:05:10.425.06-Aug-2020 4947.01 5732.77 78.31 1.00 370.88 2630.94
   15:05:10.625.06-Aug-2020 4947.01 5726.26 78.31 1.00 371.08 2630.94
   15:05:10.825.06-Aug-2020 4947.01 5729.07 78.31 1.00 371.28 2630.94
   15:05:11.026.06-Aug-2020 4947.01 5732.24 78.31 1.00 371.48 2630.94
   15:05:11.226.06-Aug-2020 4947.01 5733.44 78.31 1.00 371.68 2630.94
   15:05:11.426.06-Aug-2020 4947.01 5733.45 78.31 1.00 371.88 2630.94
   15:05:11.626.06-Aug-2020 4947.01 5733.48 78.30 1.00 372.08 2630.94
   15:05:11.826.06-Aug-2020 4947.01 5733.30 78.30 1.00 372.28 2630.94
   15:05:12.026.06-Aug-2020 4947.01 5734.75 78.30 1.00 372.48 2630.94
   15:05:12.226.06-Aug-2020 4947.01 5733.85 78.30 1.00 372.68 2630.94
   15:05:12.426.06-Aug-2020 4947.01 5734.17 78.30 1.00 372.88 2630.94
   15:05:12.626.06-Aug-2020 4947.01 5732.59 78.30 1.00 373.08 2630.94
   15:05:12.826.06-Aug-2020 4947.01 5732.59 78.30 1.00 373.28 2630.94
   15:05:13.026.06-Aug-2020 4947.01 5732.53 78.30 1.00 373.48 2630.94
   15:05:13.226.06-Aug-2020 4947.01 5728.46 78.30 1.00 373.68 2630.94
   15:05:13.426.06-Aug-2020 4947.01 5726.84 78.30 1.00 373.88 2630.94
   15:05:13.626.06-Aug-2020 4947.01 5732.23 78.30 1.00 374.08 2630.94
   15:05:13.826.06-Aug-2020 4947.01 5732.23 78.30 1.00 374.28 2630.94
   15:05:14.026.06-Aug-2020 4947.01 5733.09 78.30 1.00 374.48 2630.94
   15:05:14.226.06-Aug-2020 4947.01 5731.92 78.30 1.00 374.68 2630.94
   15:05:14.426.06-Aug-2020 4947.01 5734.03 78.30 1.00 374.88 2630.94
   15:05:14.626.06-Aug-2020 4947.01 5733.38 78.30 1.00 375.08 2630.94
   15:05:14.826.06-Aug-2020 4947.01 5733.38 78.30 1.00 375.28 2630.94
   15:05:15.026.06-Aug-2020 4947.01 5733.12 78.30 1.00 375.48 2630.94
   15:05:15.226.06-Aug-2020 4947.01 5733.29 78.30 1.00 375.68 2630.94
   15:05:15.426.06-Aug-2020 4947.01 5732.10 78.30 1.00 375.88 2630.94
   15:05:15.626.06-Aug-2020 4947.01 5732.32 78.30 1.00 376.08 2630.94
   15:05:15.827.06-Aug-2020 4947.01 5732.32 78.30 1.00 376.28 2630.94
   15:05:16.027.06-Aug-2020 4947.01 5726.27 78.30 1.00 376.48 2630.94
   15:05:16.227.06-Aug-2020 4947.01 5727.27 78.30 1.00 376.68 2630.94
   15:05:16.427.06-Aug-2020 4947.01 5730.32 78.30 1.00 376.88 2630.94
   15:05:16.627.06-Aug-2020 4947.01 5731.53 78.30 1.00 377.08 2630.94
   15:05:16.827.06-Aug-2020 4947.01 5731.53 78.30 1.00 377.28 2630.94
   15:05:17.027.06-Aug-2020 4947.01 5724.81 78.30 1.00 377.48 2630.94
   15:05:17.227.06-Aug-2020 4947.01 5728.96 78.30 1.00 377.68 2630.94
   15:05:17.427.06-Aug-2020 4947.01 5732.74 78.30 1.00 377.88 2630.94
   15:05:17.627.06-Aug-2020 4947.01 5732.64 78.30 1.00 378.08 2630.94
   15:05:17.827.06-Aug-2020 4947.01 5732.64 78.30 1.00 378.28 2630.94
   15:05:18.027.06-Aug-2020 4947.01 5726.95 78.30 1.00 378.48 2630.94
   15:05:18.227.06-Aug-2020 4947.01 5729.13 78.30 1.00 378.68 2630.94
   15:05:18.427.06-Aug-2020 4947.01 5730.78 78.30 1.00 378.88 2630.94
   15:05:18.627.06-Aug-2020 4947.01 5733.26 78.30 1.00 379.08 2630.94
   15:05:18.827.06-Aug-2020 4947.01 5733.26 78.30 1.00 379.28 2630.94
   15:05:19.027.06-Aug-2020 4947.01 5733.53 78.30 1.00 379.48 2630.94
   15:05:19.227.06-Aug-2020 4947.01 5729.48 78.30 1.00 379.68 2630.94
   15:05:19.427.06-Aug-2020 4947.01 5727.30 78.30 1.00 379.88 2630.94
   15:05:19.627.06-Aug-2020 4947.01 5730.02 78.30 1.00 380.08 2630.94
   15:05:19.827.06-Aug-2020 4947.01 5730.02 78.30 1.00 380.28 2630.94
   15:05:20.027.06-Aug-2020 4947.01 5732.89 78.30 1.00 380.48 2630.94
   15:05:20.227.06-Aug-2020 4947.01 5733.68 78.30 1.00 380.68 2630.94
   15:05:20.428.06-Aug-2020 4947.01 5732.82 78.30 1.00 380.88 2630.94
   15:05:20.628.06-Aug-2020 4947.01 5733.29 78.30 1.00 381.08 2630.94
   15:05:20.828.06-Aug-2020 4947.01 5733.29 78.30 1.00 381.28 2630.94
   15:05:21.028.06-Aug-2020 4947.01 5733.53 78.30 1.00 381.48 2630.94
   15:05:21.228.06-Aug-2020 4947.01 5733.58 78.30 1.00 381.68 2630.94
   15:05:21.428.06-Aug-2020 4947.01 5732.87 78.30 1.00 381.88 2630.94
   15:05:21.628.06-Aug-2020 4947.01 5733.06 78.30 1.00 382.08 2630.94
   15:05:21.828.06-Aug-2020 4947.01 5733.06 78.30 1.00 382.28 2630.94
   15:05:22.028.06-Aug-2020 4947.01 5726.82 78.30 1.00 382.48 2630.94
   15:05:22.228.06-Aug-2020 4947.01 5729.47 78.30 1.00 382.68 2630.94
   15:05:22.428.06-Aug-2020 4947.01 5733.03 78.30 1.00 382.88 2630.94
   15:05:22.628.06-Aug-2020 4947.01 5732.58 78.30 1.00 383.08 2630.94
   15:05:22.828.06-Aug-2020 4947.01 5732.58 78.30 1.00 383.28 2630.94
   15:05:23.028.06-Aug-2020 4947.01 5732.41 78.30 1.00 383.48 2630.94
   15:05:23.228.06-Aug-2020 4947.01 5734.32 78.30 1.00 383.68 2630.94
   15:05:23.428.06-Aug-2020 4947.01 5733.16 78.30 1.00 383.88 2630.94
   15:05:23.628.06-Aug-2020 4947.01 5734.49 78.30 1.00 384.08 2630.94
   15:05:23.828.06-Aug-2020 4947.01 5734.49 78.30 1.00 384.28 2630.94
   15:05:24.028.06-Aug-2020 4947.01 5733.38 78.30 1.00 384.48 2630.94
   15:05:24.228.06-Aug-2020 4947.01 5731.66 78.30 1.00 384.68 2630.94
   15:05:24.428.06-Aug-2020 4947.01 5732.38 78.30 1.00 384.88 2630.94
   15:05:24.628.06-Aug-2020 4947.01 5731.06 78.30 1.00 385.08 2630.94
   15:05:24.828.06-Aug-2020 4947.01 5731.06 78.30 1.00 385.28 2630.94
   15:05:25.028.06-Aug-2020 4947.01 5724.70 78.30 1.00 385.48 2630.94
   15:05:25.229.06-Aug-2020 4947.01 5729.29 78.30 1.00 385.68 2630.94
   15:05:25.429.06-Aug-2020 4947.01 5729.75 78.30 1.00 385.88 2630.94
   15:05:25.629.06-Aug-2020 4947.01 5729.29 78.30 1.00 386.08 2630.94
   15:05:25.829.06-Aug-2020 4947.01 5729.29 78.30 1.00 386.28 2630.94
   15:05:26.029.06-Aug-2020 4947.01 5728.27 78.30 1.00 386.48 2630.94
   15:05:26.229.06-Aug-2020 4947.01 5730.74 78.30 1.00 386.68 2630.94
   15:05:26.429.06-Aug-2020 4947.01 5731.52 78.30 1.00 386.88 2630.94
   15:05:26.629.06-Aug-2020 4947.01 5732.29 78.30 1.00 387.08 2630.94
   15:05:26.829.06-Aug-2020 4947.01 5732.29 78.30 1.00 387.28 2630.94
   15:05:27.029.06-Aug-2020 4947.01 5728.54 78.30 1.00 387.48 2630.94
   15:05:27.229.06-Aug-2020 4947.01 5730.59 78.30 1.00 387.68 2630.94
   15:05:27.429.06-Aug-2020 4947.01 5732.79 78.30 1.00 387.88 2630.94
   15:05:27.629.06-Aug-2020 4947.01 5731.68 78.30 1.00 388.08 2630.94
   15:05:27.829.06-Aug-2020 4947.01 5731.68 78.30 1.00 388.28 2630.94
   15:05:28.029.06-Aug-2020 4947.01 5725.97 78.30 1.00 388.48 2630.94
   15:05:28.229.06-Aug-2020 4947.01 5727.97 78.30 1.00 388.68 2630.94
   15:05:28.429.06-Aug-2020 4947.01 5729.72 78.30 1.00 388.88 2630.94
   15:05:28.629.06-Aug-2020 4947.01 5733.03 78.30 1.00 389.08 2630.94
   15:05:28.829.06-Aug-2020 4947.01 5733.03 78.30 1.00 389.28 2630.94
   15:05:29.029.06-Aug-2020 4947.01 5734.20 78.30 1.00 389.48 2630.94
   15:05:29.229.06-Aug-2020 4947.01 5733.44 78.30 1.00 389.68 2630.94
   15:05:29.429.06-Aug-2020 4947.01 5734.98 78.30 1.00 389.88 2630.94
   15:05:29.629.06-Aug-2020 4947.01 5734.88 78.30 1.00 390.08 2630.94
   15:05:29.830.06-Aug-2020 4947.01 5734.88 78.30 1.00 390.28 2630.94
   15:05:30.030.06-Aug-2020 4947.01 5734.49 78.30 1.00 390.48 2630.94
   15:05:30.230.06-Aug-2020 4947.01 5734.24 78.30 1.00 390.68 2630.94
   15:05:30.430.06-Aug-2020 4947.01 5733.61 78.30 1.00 390.88 2630.94
