~Version Information
 VERS.                  2.0:   CWLS log ASCII Standard -VERSION 2.0
 WRAP.                   NO:   One line per depth step
~Well Information Block
#MNEM.UNIT     VALUE/NAME     DESCRIPTION
#---------     -----------    ---------------------------
 STRT.S             09:21:48 07-Aug-20: START TIME 09:21:48 07-Aug-20
 STOP.S             09:29:41 07-Aug-20: STOP TIME  09:29:41 07-Aug-20
 STEP.S                   0.00: STEP TIME
 NULL.                 -999.25: NULL VALUE
 DFWT.                        :  DIST FWL TEXT
 DFST.                        :  DIST FSL TEXT
 DMF .             Drill Floor:  DRILL MEAS FROM
 STIM.      12.00.00 03-Jul-20:  START TIME
 DATE.      00.50.00 09-Aug-20:  END TIME
 SPUD.               03-Jul-20:  SPUD DATE
 NREF.                    Grid:  NORTH REFERENCE
 HPTY.       Minimum Curvature:  HOLE POS TYPE
 DMOD.             Drill Model:  DRILL MOD DESC
 SVYD.                  Survey:  SURVEY DESC
 ILTD.               Lithology:  INTERP LTH DESC
 FTOP.          Formation Tops:  FORM TOPS DESC
 PDAT.          Mean Sea Level:  PERMANENT DATUM
 FLD .                     ACG:  FIELD NAME
 CTRY.              Azerbaijan:  COUNTRY NAME
 WELL.                    E04x:  WELL NAME
 SRVC.          Turan Drilling:  CONTRACTOR
 COMP.     BP Exploration (Caspian Sea) Ltd.:  COMPANY
 SON .        AZ-XX-0906531346:  JOB NUMBER
 WTYP.                Deviated:  WELL TYPE
 MDS .        Operator Entered:  MAG DATA SOURCE
 UWI .                     N/A:  UNIQUE WELL IDENTIFIER
 API .                     N/A:  API NUMBER
 BASE.              Azerbaijan:  LOGGING EQUIPMENT BASE LOCATION
 REGN.                   EESSA:  REGION
 PROV.                    Baku:  PROVINCE
 STAT.                    Baku:  STATE NAME
 MWDS.                    Baku:  MWD SHOP
 JOBN.        AZ-XX-0906531346:  JOB TICKET NUMB
 RIG .                     DWG:  RIG NAME
 DOE .                     N/A:  DOE NUMBER
 DCON.         Sperry Drilling:  DIRECTNL CONTR
 UNIT.                     N/A:  LOGGING EQUIPMENT ID
 CNTY.                        :  COUNTY
 LOC .                        :  LOCATION
 LMF .             Drill Floor:  LOG MEASURED FROM
 TVDS.m                  43.16:  TVDSS CORRECTN
 LATI.deg                40.17:  LATITUDE
 LONG.deg                51.17:  LONGITUDE
 WHNS.m                  -0.12:  WELL HEAD N/S
 WHEW.m                  -5.41:  WELL HEAD E/W
 UTMX.m              514337.95:  UTM X
 UTMY.m             4448627.46:  UTM Y
 DFWL.m                   0.00:  DISTANCE FWL
 DFSL.m                   0.00:  DISTANCE FSL
 SDEP.m                3088.01:  START DEPTH
 TDD .m                5200.01:  TOTAL DEPTH (DRILLER)
 VSDR.deg               244.51:  VERT SEC DIRECT
 GVFD.g                   1.00:  GRAVITY FIELD
 MFLD.nT              50329.80:  MAGNETIC FIELD
 MDIP.deg                59.63:  MAGNETIC DIP
 MDEC.deg                 6.59:  MAGNETIC DECL
 GRDC.deg                 0.09:  GRID CORRECTION
 AZTC.deg                 6.50:  AZM TOTAL CORR
 EPD .m                   0.00:  ELEVATION
 EGL .m                   0.00:  GROUND ELEVATION
 WDMS.m                 176.20:  WD ELEV
 APD .m                  43.16:  DEPTH ABOVE PD
 DEP .m                3084.71:  DEPTH
 AGAP.m                  43.16:  AIR GAP
 VSEW.m                  -5.41:  VERT SEC E/W
 VSNS.m                  -0.12:  VERT SEC N/S
 EKB .m                   0.00:  KB ELEVATION
 EDF .m                  43.16:  DF ELEVATION
 TDL .m                 243.00:  TOTAL DEPTH (LOGGER)
 VSC .                       0:  VS TO CLOSURE
 MAGU.                 1853542:  MAGUTM CHECKSUM
~Parameter Information Block
#MNEM.UNIT       Value        Description
#---------     -----------    ---------------------------
 AV  .mps                 1.91:  Ann Velocity 
 AVMX.mps                 2.52:  Max Ann Veloc 
 AZIF.deg               308.97:  Azm, Final 
 BHAT.        Rotary Steerable:  BHA Type 
 BROT.∞/30m               1.00:  Build Rotating 
 BS  .in                  6.50:  Bit Size 
 BSZ .in                  6.50:  Bit Size 
 BTPL.psig              350.00:  Bit Press Loss 
 CABU.                      No:  Customer Abuse 
 CGEO.           Asif Pashayev:  Customer Geo 
 COMM.                     ,[Å:  Run Comments 1 
 TCS .hr                 35.86:  Time Ciculation Ended 
 CV  .mps                 2.31:  Crit Velocity 
 CVMX.mps                 2.31:  Max Crit Veloc 
 DD1 .         Intigam Rahimov:  Direct Drillr 1 
 DDSV.               Geo-Pilot:  DD Service 
 DEFF.%                  92.00:  % Det Eff 
 DLRX.∞/30m               1.00:  Dogleg Rot Max 
 DLSO.∞/30m               1.00:  Dogleg Oriented 
 DLSX.∞/30m               1.42:  Dogleg Str Max 
 DRET.      15.50.00 07-Aug-20:  Drill End Time 
 DRST.      10.40.00 06-Aug-20:  Drill Start Tim 
 DTIM.hr                 21.30:  Time Drilling 
 EDEP.m                5200.01:  End Depth 
 ENG1.            Alan Tuganov:  Engineer 1 
 ENG2.         Almaz Almadatov:  Engineer 2 
 ENG3.     Zammelal Abdullah Sani:  Engineer 3 
 ETIM.      22.42.00 08-Aug-20:  End Time 
 FLOI.gpm               395.00:  Flow In 
 FLON.gpm               350.00:  Flow In Min 
 FLOS.cptm                0.00:  Fluid Loss 
 FLOX.gpm               404.00:  Flow In Max 
 FTRO.       Formation Presure:  FTWD Run Obj 
 HFLO.                      No:  High Flow 
 HPRE.                      No:  High Pressure 
 HTEM.                      No:  High Temp 
 HYDO.m                   1.80:  Hydro Offset 
 IFIN.deg                72.64:  Inc, Final 
 IMAX.deg                73.68:  Inc Max 
 IMIN.deg                72.64:  Inc Min 
 IMND.m                5189.69:  Inc Min Depth 
 IMXD.m                5067.88:  Inc Max Depth 
 JARR.                      No:  Jarring 
 LETM.      15.50.00 07-Aug-20:  Log End Time 
 LOST.hr                     0:  Lost Rig Time 
 LSTM.      10.40.00 06-Aug-20:  Log Start Time 
 MDCL.ppm             36000.00:  Mud Chlorides 
 MDES.     Inversion Oil/Synthetic:  Mud Desc 
 DFD .sg                  1.36:  Mud Density 
 MDMN.sg                  1.36:  Dens Mud Min 
 MDMX.sg                  1.36:  Dens Mud Max 
 MOIL.                      70:  Run Mud Oil % 
 MOWR.                   70:30:  Run Mud OWR 
 MSND.                    0.00:  Run Mud Sand % 
 MSOL.                   17.60:  Run Mud Solids% 
 DFV .spqt               73.00:  Mud Viscosity 
 MWOD.in                  4.75:  MWD Tool OD 
 MWSI.                      No:  Serv Intrp, MWD 
 OTIM.hr                 85.66:  Time Operating 
 PCON.           Look Like New:  Pad Condition 
 PMAX.psia             6250.00:  Press Op, Max 
 PV  .cP                 65.00:  Mud PV 
 RUN .                     900:  Run Number 
 ROPA.m/hr               11.40:  ROP Avg 
 ROPN.m/hr                5.00:  ROP Min 
 ROPX.m/hr               20.00:  ROP Max 
 RPMA.rpm               130.00:  RPM Surface Avg 
 RPMN.rpm                40.00:  RPM Surface Min 
 RPMX.rpm               140.00:  RPM Surface Max 
 RRUN.                    L205:  Rig Run Number 
 RTIM.hr                  1.00:  Time Reaming 
 SAZI.deg               313.52:  Azm, Start 
 SDEP.m                4957.01:  Start Depth 
 SIDD.                      No:  Serv Intrp, DD 
 SINC.deg                73.16:  Inc, Start 
 SPPA.psig             5657.00:  SPP Avg 
 SPPN.psig             2500.00:  SPP Min 
 SPPX.psig             5806.00:  SPP Max 
 STIM.      07.12.00 05-Aug-20:  Start Time 
 SVCS.                 DD, MWD:  Services 
 SVER.                    9.20:  Sperry Version 
 TDAT.m                 243.00:  Tot Depth Attmp 
 TDDF.                      No:  Trip for DD 
 TDLG.m                 243.00:  Tot Depth Loggd 
 TFF .                      No:  Trip for Fail 
 TQAA.f-kp               13.00:  Torque Abs Avg 
 TQAN.f-kp               11.00:  Torque Abs Min 
 TQAX.f-kp               16.00:  Torque Abs Max 
 TRRT.∞/30m               1.00:  Turn Rotating 
 MRT .                    HCIM:  Maximum Recorded Temperature 
 TTMX.degC               96.08:  Max Tool Temp 
 VS01.                90515411:  Virtual Str1 SN 
 VS02.                90512716:  Virtual Str2 SN 
 VS03.                90522362:  Virtual Str3 SN 
 VS04.                90619415:  Virtual Str4 SN 
 VS05.                90619414:  Virtual Str5 SN 
 VS06.                90597748:  Virtual Str6 SN 
 WBMN.klb                 2.00:  WOB Min 
 WITN.           Adil Mammadov:  Customer Rep 
 WITN.     Alexander Yadullayev:  Customer Rep 2 
 WOBA.klb                 7.00:  WOB Avg 
 WOBX.klb                23.00:  WOB Max 
 YP  .lhf2               37.00:  Yield Point 
~Curve Information Block
#MNEM.UNIT                 API CODE     Curve Description
#---------               -----------    ---------------------------
 TIME.HHMMSS            00 000 000 000:  GT Time & Date
 GTDEPTH.m              00 000 000 000:  GT Depth
 GTPQH.psia             00 000 000 000:  GT HR Quartz Pressure
 GTTQ.degC              00 000 000 000:  GT Quartz Temperature
 GTTN.NONE              00 000 000 000:  GT Test Number
 GTET.sec               00 000 000 000:  GT Elapsed Test Time
 GTTVD.m                00 000 000 000:  GT True Vertical Depth
#Other Information
#
#WARRANTY: Halliburton will use its best efforts to furnish customers with 
#accurate information and interpretations that are part of, and incident to, the services 
#provided.  However, Halliburton cannot and does not warrant the accuracy 
#or correctness of such information and interpretations.  Under no circumstances should any 
#such information or interpretation be relied upon as the sole basis for any drilling, 
#completion, production, or financial decision or any procedure involving any risk to the 
#safety of any drilling venture, drilling rig or its crew or any other third party.  The 
#Customer has full responsibility for all drilling, completion and production operation.  
#Halliburton makes no representations or warranties, either expressed or 
#implied, including, but not limited to, the implied warranties of merchantability or fitness 
#for a particular purpose, with respect to the services rendered.  In no event will 
#Halliburton be liable for failure to obtain any particular results or for 
#any damages, including, but not limited to, indirect, special or consequential damages, 
#resulting from the use of any information or interpretation provided by Halliburton.
#
~A           TIME           GTDEPTH  GTPQH  GTTQ  GTTN  GTET   GTTVD  
# ...
   09:22:57.554.07-Aug-2020 5109.01 3406.90 86.71 9.00  68.98 2677.54
   09:22:57.754.07-Aug-2020 5109.01 3406.89 86.71 9.00  69.18 2677.54
   09:22:57.954.07-Aug-2020 5109.01 3406.91 86.71 9.00  69.38 2677.54
   09:22:58.154.07-Aug-2020 5109.01 3406.90 86.71 9.00  69.58 2677.54
   09:22:58.354.07-Aug-2020 5109.01 3406.91 86.71 9.00  69.78 2677.54
   09:22:58.554.07-Aug-2020 5109.01 3406.90 86.71 9.00  69.98 2677.54
   09:22:58.753.07-Aug-2020 5109.01 3406.90 86.71 9.00  70.18 2677.54
   09:22:58.953.07-Aug-2020 5109.01 3406.88 86.71 9.00  70.38 2677.54
   09:22:59.153.07-Aug-2020 5109.01 3406.89 86.71 9.00  70.58 2677.54
   09:22:59.353.07-Aug-2020 5109.01 3406.87 86.71 9.00  70.78 2677.54
   09:22:59.553.07-Aug-2020 5109.01 3406.91 86.70 9.00  70.98 2677.54
   09:22:59.753.07-Aug-2020 5109.01 3406.91 86.70 9.00  71.18 2677.54
   09:22:59.953.07-Aug-2020 5109.01 3406.90 86.70 9.00  71.38 2677.54
   09:23:00.153.07-Aug-2020 5109.01 3406.88 86.70 9.00  71.58 2677.54
   09:23:00.353.07-Aug-2020 5109.01 3406.91 86.70 9.00  71.78 2677.54
   09:23:00.553.07-Aug-2020 5109.01 3406.88 86.70 9.00  71.98 2677.54
   09:23:00.753.07-Aug-2020 5109.01 3406.88 86.70 9.00  72.18 2677.54
   09:23:00.953.07-Aug-2020 5109.01 3406.90 86.70 9.00  72.38 2677.54
   09:23:01.153.07-Aug-2020 5109.01 3406.91 86.70 9.00  72.58 2677.54
   09:23:01.353.07-Aug-2020 5109.01 3406.83 86.70 9.00  72.78 2677.54
   09:23:01.553.07-Aug-2020 5109.01 3406.91 86.70 9.00  72.98 2677.54
   09:23:01.753.07-Aug-2020 5109.01 3406.88 86.70 9.00  73.18 2677.54
   09:23:01.953.07-Aug-2020 5109.01 3406.84 86.70 9.00  73.38 2677.54
   09:23:02.152.07-Aug-2020 5109.01 3406.84 86.70 9.00  73.58 2677.54
   09:23:02.352.07-Aug-2020 5109.01 3406.87 86.70 9.00  73.78 2677.54
   09:23:02.552.07-Aug-2020 5109.01 3406.87 86.70 9.00  73.98 2677.54
   09:23:02.752.07-Aug-2020 5109.01 3406.87 86.70 9.00  74.18 2677.54
   09:23:02.952.07-Aug-2020 5109.01 3406.90 86.70 9.00  74.38 2677.54
   09:23:03.152.07-Aug-2020 5109.01 3406.88 86.70 9.00  74.58 2677.54
   09:23:03.352.07-Aug-2020 5109.01 3406.73 86.70 9.00  74.78 2677.54
   09:23:03.552.07-Aug-2020 5109.01 3406.93 86.70 9.00  74.98 2677.54
   09:23:03.752.07-Aug-2020 5109.01 3406.93 86.70 9.00  75.18 2677.54
   09:23:03.952.07-Aug-2020 5109.01 3406.82 86.69 9.00  75.38 2677.54
   09:23:04.152.07-Aug-2020 5109.01 3406.89 86.69 9.00  75.58 2677.54
   09:23:04.352.07-Aug-2020 5109.01 3406.87 86.69 9.00  75.78 2677.54
   09:23:04.552.07-Aug-2020 5109.01 3406.79 86.69 9.00  75.98 2677.54
   09:23:04.752.07-Aug-2020 5109.01 3406.79 86.69 9.00  76.18 2677.54
   09:23:04.952.07-Aug-2020 5109.01 3406.87 86.69 9.00  76.38 2677.54
   09:23:05.152.07-Aug-2020 5109.01 3406.87 86.69 9.00  76.58 2677.54
   09:23:05.352.07-Aug-2020 5109.01 3406.89 86.69 9.00  76.78 2677.54
   09:23:05.551.07-Aug-2020 5109.01 3406.86 86.69 9.00  76.98 2677.54
   09:23:05.751.07-Aug-2020 5109.01 3406.86 86.69 9.00  77.18 2677.54
   09:23:05.951.07-Aug-2020 5109.01 3406.88 86.69 9.00  77.38 2677.54
   09:23:06.151.07-Aug-2020 5109.01 3406.88 86.69 9.00  77.58 2677.54
   09:23:06.351.07-Aug-2020 5109.01 3406.88 86.69 9.00  77.78 2677.54
   09:23:06.551.07-Aug-2020 5109.01 3406.88 86.69 9.00  77.98 2677.54
   09:23:06.751.07-Aug-2020 5109.01 3406.88 86.69 9.00  78.18 2677.54
   09:23:06.951.07-Aug-2020 5109.01 3406.88 86.69 9.00  78.38 2677.54
   09:23:07.151.07-Aug-2020 5109.01 3406.74 86.69 9.00  78.58 2677.54
   09:23:07.351.07-Aug-2020 5109.01 3406.92 86.69 9.00  78.78 2677.54
   09:23:07.551.07-Aug-2020 5109.01 3406.90 86.69 9.00  78.98 2677.54
   09:23:07.751.07-Aug-2020 5109.01 3406.90 86.69 9.00  79.18 2677.54
   09:23:07.951.07-Aug-2020 5109.01 3406.88 86.69 9.00  79.38 2677.54
   09:23:08.151.07-Aug-2020 5109.01 3406.88 86.69 9.00  79.58 2677.54
   09:23:08.351.07-Aug-2020 5109.01 3406.87 86.69 9.00  79.78 2677.54
   09:23:08.551.07-Aug-2020 5109.01 3406.86 86.68 9.00  79.98 2677.54
   09:23:08.750.07-Aug-2020 5109.01 3406.86 86.68 9.00  80.18 2677.54
   09:23:08.950.07-Aug-2020 5109.01 3406.86 86.68 9.00  80.38 2677.54
   09:23:09.150.07-Aug-2020 5109.01 3406.89 86.68 9.00  80.58 2677.54
   09:23:09.350.07-Aug-2020 5109.01 3406.86 86.68 9.00  80.78 2677.54
   09:23:09.550.07-Aug-2020 5109.01 3406.89 86.68 9.00  80.98 2677.54
   09:23:09.750.07-Aug-2020 5109.01 3406.86 86.68 9.00  81.18 2677.54
   09:23:09.950.07-Aug-2020 5109.01 3406.78 86.68 9.00  81.38 2677.54
   09:23:10.150.07-Aug-2020 5109.01 3406.87 86.68 9.00  81.58 2677.54
   09:23:10.350.07-Aug-2020 5109.01 3406.88 86.68 9.00  81.78 2677.54
   09:23:10.550.07-Aug-2020 5109.01 3406.82 86.68 9.00  81.98 2677.54
   09:23:10.750.07-Aug-2020 5109.01 3406.82 86.68 9.00  82.18 2677.54
   09:23:10.950.07-Aug-2020 5109.01 3406.92 86.68 9.00  82.38 2677.54
   09:23:11.150.07-Aug-2020 5109.01 3406.88 86.68 9.00  82.58 2677.54
   09:23:11.350.07-Aug-2020 5109.01 3406.83 86.68 9.00  82.78 2677.54
   09:23:11.550.07-Aug-2020 5109.01 3406.86 86.68 9.00  82.98 2677.54
   09:23:11.750.07-Aug-2020 5109.01 3406.86 86.68 9.00  83.17 2677.54
   09:23:11.950.07-Aug-2020 5109.01 3406.85 86.68 9.00  83.37 2677.54
   09:23:12.149.07-Aug-2020 5109.01 3406.85 86.68 9.00  83.57 2677.54
   09:23:12.349.07-Aug-2020 5109.01 3406.82 86.68 9.00  83.77 2677.54
   09:23:12.549.07-Aug-2020 5109.01 3406.87 86.68 9.00  83.97 2677.54
   09:23:12.749.07-Aug-2020 5109.01 3406.87 86.68 9.00  84.17 2677.54
   09:23:12.949.07-Aug-2020 5109.01 3406.72 86.67 9.00  84.37 2677.54
   09:23:13.149.07-Aug-2020 5109.01 3406.90 86.67 9.00  84.57 2677.54
   09:23:13.349.07-Aug-2020 5109.01 3406.88 86.67 9.00  84.77 2677.54
   09:23:13.549.07-Aug-2020 5109.01 3406.78 86.67 9.00  84.97 2677.54
   09:23:13.749.07-Aug-2020 5109.01 3406.78 86.67 9.00  85.17 2677.54
   09:23:13.949.07-Aug-2020 5109.01 3406.86 86.67 9.00  85.37 2677.54
   09:23:14.149.07-Aug-2020 5109.01 3406.85 86.67 9.00  85.57 2677.54
   09:23:14.349.07-Aug-2020 5109.01 3406.85 86.67 9.00  85.77 2677.54
   09:23:14.549.07-Aug-2020 5109.01 3406.86 86.67 9.00  85.97 2677.54
   09:23:14.749.07-Aug-2020 5109.01 3406.86 86.67 9.00  86.17 2677.54
   09:23:14.949.07-Aug-2020 5109.01 3406.86 86.67 9.00  86.37 2677.54
   09:23:15.149.07-Aug-2020 5109.01 3406.84 86.67 9.00  86.57 2677.54
   09:23:15.348.07-Aug-2020 5109.01 3406.84 86.67 9.00  86.77 2677.54
   09:23:15.548.07-Aug-2020 5109.01 3406.83 86.67 9.00  86.97 2677.54
   09:23:15.748.07-Aug-2020 5109.01 3406.83 86.67 9.00  87.17 2677.54
   09:23:15.948.07-Aug-2020 5109.01 3406.85 86.67 9.00  87.37 2677.54
   09:23:16.148.07-Aug-2020 5109.01 3406.82 86.67 9.00  87.57 2677.54
   09:23:16.348.07-Aug-2020 5109.01 3406.83 86.67 9.00  87.77 2677.54
   09:23:16.548.07-Aug-2020 5109.01 3406.84 86.67 9.00  87.97 2677.54
   09:23:16.748.07-Aug-2020 5109.01 3406.84 86.67 9.00  88.17 2677.54
   09:23:16.948.07-Aug-2020 5109.01 3406.83 86.67 9.00  88.37 2677.54
   09:23:17.148.07-Aug-2020 5109.01 3406.84 86.67 9.00  88.57 2677.54
   09:23:17.348.07-Aug-2020 5109.01 3406.84 86.67 9.00  88.77 2677.54
   09:23:17.548.07-Aug-2020 5109.01 3406.85 86.67 9.00  88.97 2677.54
   09:23:17.748.07-Aug-2020 5109.01 3406.83 86.66 9.00  89.17 2677.54
   09:23:17.948.07-Aug-2020 5109.01 3406.84 86.66 9.00  89.37 2677.54
   09:23:18.148.07-Aug-2020 5109.01 3406.83 86.66 9.00  89.57 2677.54
   09:23:18.348.07-Aug-2020 5109.01 3406.76 86.66 9.00  89.77 2677.54
   09:23:18.548.07-Aug-2020 5109.01 3406.84 86.66 9.00  89.97 2677.54
   09:23:18.747.07-Aug-2020 5109.01 3406.84 86.66 9.00  90.17 2677.54
   09:23:18.947.07-Aug-2020 5109.01 3406.78 86.66 9.00  90.37 2677.54
   09:23:19.147.07-Aug-2020 5109.01 3406.80 86.66 9.00  90.57 2677.54
   09:23:19.347.07-Aug-2020 5109.01 3406.82 86.66 9.00  90.77 2677.54
   09:23:19.547.07-Aug-2020 5109.01 3406.82 86.66 9.00  90.97 2677.54
   09:23:19.747.07-Aug-2020 5109.01 3406.82 86.66 9.00  91.17 2677.54
   09:23:19.947.07-Aug-2020 5109.01 3406.84 86.66 9.00  91.37 2677.54
   09:23:20.147.07-Aug-2020 5109.01 3406.82 86.66 9.00  91.57 2677.54
   09:23:20.347.07-Aug-2020 5109.01 3406.67 86.66 9.00  91.77 2677.54
