~Version Information
 VERS.                  2.0:   CWLS log ASCII Standard -VERSION 2.0
 WRAP.                   NO:   One line per depth step
~Well Information Block
#MNEM.UNIT     VALUE/NAME     DESCRIPTION
#---------     -----------    ---------------------------
 STRT.S             20:19:41 06-Aug-20: START TIME 20:19:41 06-Aug-20
 STOP.S             20:27:33 06-Aug-20: STOP TIME  20:27:33 06-Aug-20
 STEP.S                   0.00: STEP TIME
 NULL.                 -999.25: NULL VALUE
 DFWT.                        :  DIST FWL TEXT
 DFST.                        :  DIST FSL TEXT
 DMF .             Drill Floor:  DRILL MEAS FROM
 STIM.      12.00.00 03-Jul-20:  START TIME
 DATE.      00.50.00 09-Aug-20:  END TIME
 SPUD.               03-Jul-20:  SPUD DATE
 NREF.                    Grid:  NORTH REFERENCE
 HPTY.       Minimum Curvature:  HOLE POS TYPE
 DMOD.             Drill Model:  DRILL MOD DESC
 SVYD.                  Survey:  SURVEY DESC
 ILTD.               Lithology:  INTERP LTH DESC
 FTOP.          Formation Tops:  FORM TOPS DESC
 PDAT.          Mean Sea Level:  PERMANENT DATUM
 FLD .                     ACG:  FIELD NAME
 CTRY.              Azerbaijan:  COUNTRY NAME
 WELL.                    E04x:  WELL NAME
 SRVC.          Turan Drilling:  CONTRACTOR
 COMP.     BP Exploration (Caspian Sea) Ltd.:  COMPANY
 SON .        AZ-XX-0906531346:  JOB NUMBER
 WTYP.                Deviated:  WELL TYPE
 MDS .        Operator Entered:  MAG DATA SOURCE
 UWI .                     N/A:  UNIQUE WELL IDENTIFIER
 API .                     N/A:  API NUMBER
 BASE.              Azerbaijan:  LOGGING EQUIPMENT BASE LOCATION
 REGN.                   EESSA:  REGION
 PROV.                    Baku:  PROVINCE
 STAT.                    Baku:  STATE NAME
 MWDS.                    Baku:  MWD SHOP
 JOBN.        AZ-XX-0906531346:  JOB TICKET NUMB
 RIG .                     DWG:  RIG NAME
 DOE .                     N/A:  DOE NUMBER
 DCON.         Sperry Drilling:  DIRECTNL CONTR
 UNIT.                     N/A:  LOGGING EQUIPMENT ID
 CNTY.                        :  COUNTY
 LOC .                        :  LOCATION
 LMF .             Drill Floor:  LOG MEASURED FROM
 TVDS.m                  43.16:  TVDSS CORRECTN
 LATI.deg                40.17:  LATITUDE
 LONG.deg                51.17:  LONGITUDE
 WHNS.m                  -0.12:  WELL HEAD N/S
 WHEW.m                  -5.41:  WELL HEAD E/W
 UTMX.m              514337.95:  UTM X
 UTMY.m             4448627.46:  UTM Y
 DFWL.m                   0.00:  DISTANCE FWL
 DFSL.m                   0.00:  DISTANCE FSL
 SDEP.m                3088.01:  START DEPTH
 TDD .m                5200.01:  TOTAL DEPTH (DRILLER)
 VSDR.deg               244.51:  VERT SEC DIRECT
 GVFD.g                   1.00:  GRAVITY FIELD
 MFLD.nT              50329.80:  MAGNETIC FIELD
 MDIP.deg                59.63:  MAGNETIC DIP
 MDEC.deg                 6.59:  MAGNETIC DECL
 GRDC.deg                 0.09:  GRID CORRECTION
 AZTC.deg                 6.50:  AZM TOTAL CORR
 EPD .m                   0.00:  ELEVATION
 EGL .m                   0.00:  GROUND ELEVATION
 WDMS.m                 176.20:  WD ELEV
 APD .m                  43.16:  DEPTH ABOVE PD
 DEP .m                3084.71:  DEPTH
 AGAP.m                  43.16:  AIR GAP
 VSEW.m                  -5.41:  VERT SEC E/W
 VSNS.m                  -0.12:  VERT SEC N/S
 EKB .m                   0.00:  KB ELEVATION
 EDF .m                  43.16:  DF ELEVATION
 TDL .m                 243.00:  TOTAL DEPTH (LOGGER)
 VSC .                       0:  VS TO CLOSURE
 MAGU.                 1853542:  MAGUTM CHECKSUM
~Parameter Information Block
#MNEM.UNIT       Value        Description
#---------     -----------    ---------------------------
 AV  .mps                 1.91:  Ann Velocity 
 AVMX.mps                 2.52:  Max Ann Veloc 
 AZIF.deg               308.97:  Azm, Final 
 BHAT.        Rotary Steerable:  BHA Type 
 BROT.°/30m               1.00:  Build Rotating 
 BS  .in                  6.50:  Bit Size 
 BSZ .in                  6.50:  Bit Size 
 BTPL.psig              350.00:  Bit Press Loss 
 CABU.                      No:  Customer Abuse 
 CGEO.           Asif Pashayev:  Customer Geo 
 COMM.                     4è‹:  Run Comments 1 
 TCS .hr                 35.86:  Time Ciculation Ended 
 CV  .mps                 2.31:  Crit Velocity 
 CVMX.mps                 2.31:  Max Crit Veloc 
 DD1 .         Intigam Rahimov:  Direct Drillr 1 
 DDSV.               Geo-Pilot:  DD Service 
 DEFF.%                  92.00:  % Det Eff 
 DLRX.°/30m               1.00:  Dogleg Rot Max 
 DLSO.°/30m               1.00:  Dogleg Oriented 
 DLSX.°/30m               1.42:  Dogleg Str Max 
 DRET.      15.50.00 07-Aug-20:  Drill End Time 
 DRST.      10.40.00 06-Aug-20:  Drill Start Tim 
 DTIM.hr                 21.30:  Time Drilling 
 EDEP.m                5200.01:  End Depth 
 ENG1.            Alan Tuganov:  Engineer 1 
 ENG2.         Almaz Almadatov:  Engineer 2 
 ENG3.     Zammelal Abdullah Sani:  Engineer 3 
 ETIM.      22.42.00 08-Aug-20:  End Time 
 FLOI.gpm               395.00:  Flow In 
 FLON.gpm               350.00:  Flow In Min 
 FLOS.cptm                0.00:  Fluid Loss 
 FLOX.gpm               404.00:  Flow In Max 
 FTRO.       Formation Presure:  FTWD Run Obj 
 HFLO.                      No:  High Flow 
 HPRE.                      No:  High Pressure 
 HTEM.                      No:  High Temp 
 HYDO.m                   1.80:  Hydro Offset 
 IFIN.deg                72.64:  Inc, Final 
 IMAX.deg                73.68:  Inc Max 
 IMIN.deg                72.64:  Inc Min 
 IMND.m                5189.69:  Inc Min Depth 
 IMXD.m                5067.88:  Inc Max Depth 
 JARR.                      No:  Jarring 
 LETM.      15.50.00 07-Aug-20:  Log End Time 
 LOST.hr                     0:  Lost Rig Time 
 LSTM.      10.40.00 06-Aug-20:  Log Start Time 
 MDCL.ppm             36000.00:  Mud Chlorides 
 MDES.     Inversion Oil/Synthetic:  Mud Desc 
 DFD .sg                  1.36:  Mud Density 
 MDMN.sg                  1.36:  Dens Mud Min 
 MDMX.sg                  1.36:  Dens Mud Max 
 MOIL.                      70:  Run Mud Oil % 
 MOWR.                   70:30:  Run Mud OWR 
 MSND.                    0.00:  Run Mud Sand % 
 MSOL.                   17.60:  Run Mud Solids% 
 DFV .spqt               73.00:  Mud Viscosity 
 MWOD.in                  4.75:  MWD Tool OD 
 MWSI.                      No:  Serv Intrp, MWD 
 OTIM.hr                 85.66:  Time Operating 
 PCON.           Look Like New:  Pad Condition 
 PMAX.psia             6250.00:  Press Op, Max 
 PV  .cP                 65.00:  Mud PV 
 RUN .                     900:  Run Number 
 ROPA.m/hr               11.40:  ROP Avg 
 ROPN.m/hr                5.00:  ROP Min 
 ROPX.m/hr               20.00:  ROP Max 
 RPMA.rpm               130.00:  RPM Surface Avg 
 RPMN.rpm                40.00:  RPM Surface Min 
 RPMX.rpm               140.00:  RPM Surface Max 
 RRUN.                    L205:  Rig Run Number 
 RTIM.hr                  1.00:  Time Reaming 
 SAZI.deg               313.52:  Azm, Start 
 SDEP.m                4957.01:  Start Depth 
 SIDD.                      No:  Serv Intrp, DD 
 SINC.deg                73.16:  Inc, Start 
 SPPA.psig             5657.00:  SPP Avg 
 SPPN.psig             2500.00:  SPP Min 
 SPPX.psig             5806.00:  SPP Max 
 STIM.      07.12.00 05-Aug-20:  Start Time 
 SVCS.                 DD, MWD:  Services 
 SVER.                    9.20:  Sperry Version 
 TDAT.m                 243.00:  Tot Depth Attmp 
 TDDF.                      No:  Trip for DD 
 TDLG.m                 243.00:  Tot Depth Loggd 
 TFF .                      No:  Trip for Fail 
 TQAA.f-kp               13.00:  Torque Abs Avg 
 TQAN.f-kp               11.00:  Torque Abs Min 
 TQAX.f-kp               16.00:  Torque Abs Max 
 TRRT.°/30m               1.00:  Turn Rotating 
 MRT .                    HCIM:  Maximum Recorded Temperature 
 TTMX.degC               96.08:  Max Tool Temp 
 VS01.                90515411:  Virtual Str1 SN 
 VS02.                90512716:  Virtual Str2 SN 
 VS03.                90522362:  Virtual Str3 SN 
 VS04.                90619415:  Virtual Str4 SN 
 VS05.                90619414:  Virtual Str5 SN 
 VS06.                90597748:  Virtual Str6 SN 
 WBMN.klb                 2.00:  WOB Min 
 WITN.           Adil Mammadov:  Customer Rep 
 WITN.     Alexander Yadullayev:  Customer Rep 2 
 WOBA.klb                 7.00:  WOB Avg 
 WOBX.klb                23.00:  WOB Max 
 YP  .lhf2               37.00:  Yield Point 
~Curve Information Block
#MNEM.UNIT                 API CODE     Curve Description
#---------               -----------    ---------------------------
 TIME.HHMMSS            00 000 000 000:  GT Time & Date
 GTDEPTH.m              00 000 000 000:  GT Depth
 GTPQH.psia             00 000 000 000:  GT HR Quartz Pressure
 GTTQ.degC              00 000 000 000:  GT Quartz Temperature
 GTTN.NONE              00 000 000 000:  GT Test Number
 GTET.sec               00 000 000 000:  GT Elapsed Test Time
 GTTVD.m                00 000 000 000:  GT True Vertical Depth
#Other Information
#
#WARRANTY: Halliburton will use its best efforts to furnish customers with 
#accurate information and interpretations that are part of, and incident to, the services 
#provided.  However, Halliburton cannot and does not warrant the accuracy 
#or correctness of such information and interpretations.  Under no circumstances should any 
#such information or interpretation be relied upon as the sole basis for any drilling, 
#completion, production, or financial decision or any procedure involving any risk to the 
#safety of any drilling venture, drilling rig or its crew or any other third party.  The 
#Customer has full responsibility for all drilling, completion and production operation.  
#Halliburton makes no representations or warranties, either expressed or 
#implied, including, but not limited to, the implied warranties of merchantability or fitness 
#for a particular purpose, with respect to the services rendered.  In no event will 
#Halliburton be liable for failure to obtain any particular results or for 
#any damages, including, but not limited to, indirect, special or consequential damages, 
#resulting from the use of any information or interpretation provided by Halliburton.
#
~A           TIME           GTDEPTH  GTPQH  GTTQ  GTTN  GTET   GTTVD  
# ...
   20:25:49.487.06-Aug-2020 4993.01 3486.91 82.45 3.00 368.14 2644.18
   20:25:49.687.06-Aug-2020 4993.01 3486.91 82.45 3.00 368.34 2644.18
   20:25:49.887.06-Aug-2020 4993.01 3486.88 82.45 3.00 368.54 2644.18
   20:25:50.087.06-Aug-2020 4993.01 3486.88 82.45 3.00 368.74 2644.18
   20:25:50.287.06-Aug-2020 4993.01 3486.88 82.44 3.00 368.94 2644.18
   20:25:50.487.06-Aug-2020 4993.01 3486.86 82.44 3.00 369.14 2644.18
   20:25:50.688.06-Aug-2020 4993.01 3486.86 82.44 3.00 369.34 2644.18
   20:25:50.888.06-Aug-2020 4993.01 3486.85 82.44 3.00 369.54 2644.18
   20:25:51.088.06-Aug-2020 4993.01 3486.88 82.44 3.00 369.74 2644.18
   20:25:51.288.06-Aug-2020 4993.01 3486.83 82.44 3.00 369.94 2644.18
   20:25:51.488.06-Aug-2020 4993.01 3486.78 82.44 3.00 370.14 2644.18
   20:25:51.688.06-Aug-2020 4993.01 3486.78 82.44 3.00 370.34 2644.18
   20:25:51.888.06-Aug-2020 4993.01 3486.97 82.44 3.00 370.54 2644.18
   20:25:52.088.06-Aug-2020 4993.01 3486.84 82.44 3.00 370.74 2644.18
   20:25:52.288.06-Aug-2020 4993.01 3486.90 82.44 3.00 370.94 2644.18
   20:25:52.488.06-Aug-2020 4993.01 3486.78 82.44 3.00 371.14 2644.18
   20:25:52.688.06-Aug-2020 4993.01 3486.78 82.44 3.00 371.34 2644.18
   20:25:52.888.06-Aug-2020 4993.01 3486.81 82.44 3.00 371.54 2644.18
   20:25:53.088.06-Aug-2020 4993.01 3486.96 82.44 3.00 371.74 2644.18
   20:25:53.289.06-Aug-2020 4993.01 3486.88 82.44 3.00 371.94 2644.18
   20:25:53.489.06-Aug-2020 4993.01 3486.76 82.44 3.00 372.14 2644.18
   20:25:53.689.06-Aug-2020 4993.01 3486.76 82.44 3.00 372.34 2644.18
   20:25:53.889.06-Aug-2020 4993.01 3486.86 82.44 3.00 372.54 2644.18
   20:25:54.089.06-Aug-2020 4993.01 3486.83 82.44 3.00 372.74 2644.18
   20:25:54.289.06-Aug-2020 4993.01 3486.89 82.44 3.00 372.94 2644.18
   20:25:54.489.06-Aug-2020 4993.01 3486.83 82.44 3.00 373.14 2644.18
   20:25:54.689.06-Aug-2020 4993.01 3486.97 82.44 3.00 373.34 2644.18
   20:25:54.889.06-Aug-2020 4993.01 3486.87 82.44 3.00 373.54 2644.18
   20:25:55.089.06-Aug-2020 4993.01 3486.89 82.44 3.00 373.74 2644.18
   20:25:55.289.06-Aug-2020 4993.01 3486.91 82.43 3.00 373.94 2644.18
   20:25:55.489.06-Aug-2020 4993.01 3486.88 82.43 3.00 374.14 2644.18
   20:25:55.689.06-Aug-2020 4993.01 3486.88 82.43 3.00 374.34 2644.18
   20:25:55.890.06-Aug-2020 4993.01 3486.86 82.43 3.00 374.54 2644.18
   20:25:56.090.06-Aug-2020 4993.01 3486.89 82.43 3.00 374.74 2644.18
   20:25:56.290.06-Aug-2020 4993.01 3486.85 82.43 3.00 374.94 2644.18
   20:25:56.490.06-Aug-2020 4993.01 3486.89 82.43 3.00 375.14 2644.18
   20:25:56.690.06-Aug-2020 4993.01 3486.89 82.43 3.00 375.34 2644.18
   20:25:56.890.06-Aug-2020 4993.01 3486.77 82.43 3.00 375.54 2644.18
   20:25:57.090.06-Aug-2020 4993.01 3486.99 82.43 3.00 375.74 2644.18
   20:25:57.290.06-Aug-2020 4993.01 3486.86 82.43 3.00 375.94 2644.18
   20:25:57.490.06-Aug-2020 4993.01 3486.85 82.43 3.00 376.14 2644.18
   20:25:57.690.06-Aug-2020 4993.01 3486.85 82.43 3.00 376.34 2644.18
   20:25:57.890.06-Aug-2020 4993.01 3486.86 82.43 3.00 376.54 2644.18
   20:25:58.090.06-Aug-2020 4993.01 3486.90 82.43 3.00 376.74 2644.18
   20:25:58.290.06-Aug-2020 4993.01 3486.87 82.43 3.00 376.94 2644.18
   20:25:58.491.06-Aug-2020 4993.01 3486.87 82.43 3.00 377.14 2644.18
   20:25:58.691.06-Aug-2020 4993.01 3486.85 82.43 3.00 377.34 2644.18
   20:25:58.891.06-Aug-2020 4993.01 3486.87 82.43 3.00 377.54 2644.18
   20:25:59.091.06-Aug-2020 4993.01 3486.84 82.43 3.00 377.74 2644.18
   20:25:59.291.06-Aug-2020 4993.01 3486.87 82.43 3.00 377.94 2644.18
   20:25:59.491.06-Aug-2020 4993.01 3486.86 82.43 3.00 378.14 2644.18
   20:25:59.691.06-Aug-2020 4993.01 3486.86 82.43 3.00 378.34 2644.18
   20:25:59.891.06-Aug-2020 4993.01 3486.95 82.43 3.00 378.54 2644.18
   20:26:00.091.06-Aug-2020 4993.01 3486.94 82.43 3.00 378.74 2644.18
   20:26:00.291.06-Aug-2020 4993.01 3486.88 82.42 3.00 378.94 2644.18
   20:26:00.491.06-Aug-2020 4993.01 3486.88 82.42 3.00 379.15 2644.18
   20:26:00.691.06-Aug-2020 4993.01 3486.88 82.42 3.00 379.35 2644.18
   20:26:00.891.06-Aug-2020 4993.01 3486.87 82.42 3.00 379.55 2644.18
   20:26:01.092.06-Aug-2020 4993.01 3486.82 82.42 3.00 379.75 2644.18
   20:26:01.292.06-Aug-2020 4993.01 3486.92 82.42 3.00 379.95 2644.18
   20:26:01.492.06-Aug-2020 4993.01 3486.88 82.42 3.00 380.15 2644.18
   20:26:01.692.06-Aug-2020 4993.01 3486.88 82.42 3.00 380.35 2644.18
   20:26:01.892.06-Aug-2020 4993.01 3487.07 82.42 3.00 380.55 2644.18
   20:26:02.092.06-Aug-2020 4993.01 3486.76 82.42 3.00 380.75 2644.18
   20:26:02.292.06-Aug-2020 4993.01 3486.92 82.42 3.00 380.95 2644.18
   20:26:02.492.06-Aug-2020 4993.01 3486.79 82.42 3.00 381.15 2644.18
   20:26:02.692.06-Aug-2020 4993.01 3486.88 82.42 3.00 381.35 2644.18
   20:26:02.892.06-Aug-2020 4993.01 3486.96 82.42 3.00 381.55 2644.18
   20:26:03.092.06-Aug-2020 4993.01 3486.88 82.42 3.00 381.75 2644.18
   20:26:03.292.06-Aug-2020 4993.01 3486.87 82.42 3.00 381.95 2644.18
   20:26:03.492.06-Aug-2020 4993.01 3486.89 82.42 3.00 382.15 2644.18
   20:26:03.692.06-Aug-2020 4993.01 3486.89 82.42 3.00 382.35 2644.18
   20:26:03.893.06-Aug-2020 4993.01 3486.88 82.42 3.00 382.55 2644.18
   20:26:04.093.06-Aug-2020 4993.01 3486.88 82.42 3.00 382.75 2644.18
   20:26:04.293.06-Aug-2020 4993.01 3486.87 82.42 3.00 382.95 2644.18
   20:26:04.493.06-Aug-2020 4993.01 3486.87 82.42 3.00 383.15 2644.18
   20:26:04.693.06-Aug-2020 4993.01 3486.87 82.42 3.00 383.35 2644.18
   20:26:04.893.06-Aug-2020 4993.01 3486.86 82.42 3.00 383.55 2644.18
   20:26:05.093.06-Aug-2020 4993.01 3486.72 82.42 3.00 383.75 2644.18
   20:26:05.293.06-Aug-2020 4993.01 3487.04 82.42 3.00 383.95 2644.18
   20:26:05.493.06-Aug-2020 4993.01 3486.79 82.41 3.00 384.15 2644.18
   20:26:05.693.06-Aug-2020 4993.01 3486.79 82.41 3.00 384.35 2644.18
   20:26:05.893.06-Aug-2020 4993.01 3486.89 82.41 3.00 384.55 2644.18
   20:26:06.093.06-Aug-2020 4993.01 3486.89 82.41 3.00 384.75 2644.18
   20:26:06.293.06-Aug-2020 4993.01 3486.85 82.41 3.00 384.95 2644.18
   20:26:06.494.06-Aug-2020 4993.01 3486.90 82.41 3.00 385.15 2644.18
   20:26:06.694.06-Aug-2020 4993.01 3486.84 82.41 3.00 385.35 2644.18
   20:26:06.894.06-Aug-2020 4993.01 3486.88 82.41 3.00 385.55 2644.18
   20:26:07.094.06-Aug-2020 4993.01 3486.84 82.41 3.00 385.75 2644.18
   20:26:07.294.06-Aug-2020 4993.01 3486.88 82.41 3.00 385.95 2644.18
   20:26:07.494.06-Aug-2020 4993.01 3486.83 82.41 3.00 386.15 2644.18
   20:26:07.694.06-Aug-2020 4993.01 3486.83 82.41 3.00 386.35 2644.18
   20:26:07.894.06-Aug-2020 4993.01 3486.59 82.41 3.00 386.55 2644.18
   20:26:08.094.06-Aug-2020 4993.01 3487.00 82.41 3.00 386.75 2644.18
   20:26:08.294.06-Aug-2020 4993.01 3486.91 82.41 3.00 386.95 2644.18
   20:26:08.494.06-Aug-2020 4993.01 3486.87 82.41 3.00 387.15 2644.18
   20:26:08.694.06-Aug-2020 4993.01 3486.87 82.41 3.00 387.35 2644.18
   20:26:08.894.06-Aug-2020 4993.01 3486.86 82.41 3.00 387.55 2644.18
   20:26:09.095.06-Aug-2020 4993.01 3486.82 82.41 3.00 387.75 2644.18
   20:26:09.295.06-Aug-2020 4993.01 3486.84 82.41 3.00 387.95 2644.18
   20:26:09.495.06-Aug-2020 4993.01 3486.94 82.41 3.00 388.15 2644.18
   20:26:09.695.06-Aug-2020 4993.01 3486.94 82.41 3.00 388.35 2644.18
   20:26:09.895.06-Aug-2020 4993.01 3486.75 82.41 3.00 388.55 2644.18
   20:26:10.095.06-Aug-2020 4993.01 3487.00 82.41 3.00 388.75 2644.18
   20:26:10.295.06-Aug-2020 4993.01 3486.80 82.41 3.00 388.95 2644.18
   20:26:10.495.06-Aug-2020 4993.01 3486.90 82.41 3.00 389.15 2644.18
   20:26:10.695.06-Aug-2020 4993.01 3486.90 82.40 3.00 389.35 2644.18
   20:26:10.895.06-Aug-2020 4993.01 3486.93 82.40 3.00 389.55 2644.18
   20:26:11.095.06-Aug-2020 4993.01 3486.99 82.40 3.00 389.75 2644.18
   20:26:11.295.06-Aug-2020 4993.01 3486.84 82.40 3.00 389.95 2644.18
   20:26:11.495.06-Aug-2020 4993.01 3486.92 82.40 3.00 390.15 2644.18
   20:26:11.696.06-Aug-2020 4993.01 3486.92 82.40 3.00 390.35 2644.18
   20:26:11.896.06-Aug-2020 4993.01 3486.90 82.40 3.00 390.55 2644.18
   20:26:12.096.06-Aug-2020 4993.01 3486.85 82.40 3.00 390.75 2644.18
   20:26:12.296.06-Aug-2020 4993.01 3486.89 82.40 3.00 390.95 2644.18
