~Version Information
 VERS.                  2.0:   CWLS log ASCII Standard -VERSION 2.0
 WRAP.                   NO:   One line per depth step
~Well Information Block
#MNEM.UNIT     VALUE/NAME     DESCRIPTION
#---------     -----------    ---------------------------
 STRT.S             01:47:02 07-Aug-20: START TIME 01:47:02 07-Aug-20
 STOP.S             01:54:54 07-Aug-20: STOP TIME  01:54:54 07-Aug-20
 STEP.S                   0.00: STEP TIME
 NULL.                 -999.25: NULL VALUE
 DFWT.                        :  DIST FWL TEXT
 DFST.                        :  DIST FSL TEXT
 DMF .             Drill Floor:  DRILL MEAS FROM
 STIM.      12.00.00 03-Jul-20:  START TIME
 DATE.      00.50.00 09-Aug-20:  END TIME
 SPUD.               03-Jul-20:  SPUD DATE
 NREF.                    Grid:  NORTH REFERENCE
 HPTY.       Minimum Curvature:  HOLE POS TYPE
 DMOD.             Drill Model:  DRILL MOD DESC
 SVYD.                  Survey:  SURVEY DESC
 ILTD.               Lithology:  INTERP LTH DESC
 FTOP.          Formation Tops:  FORM TOPS DESC
 PDAT.          Mean Sea Level:  PERMANENT DATUM
 FLD .                     ACG:  FIELD NAME
 CTRY.              Azerbaijan:  COUNTRY NAME
 WELL.                    E04x:  WELL NAME
 SRVC.          Turan Drilling:  CONTRACTOR
 COMP.     BP Exploration (Caspian Sea) Ltd.:  COMPANY
 SON .        AZ-XX-0906531346:  JOB NUMBER
 WTYP.                Deviated:  WELL TYPE
 MDS .        Operator Entered:  MAG DATA SOURCE
 UWI .                     N/A:  UNIQUE WELL IDENTIFIER
 API .                     N/A:  API NUMBER
 BASE.              Azerbaijan:  LOGGING EQUIPMENT BASE LOCATION
 REGN.                   EESSA:  REGION
 PROV.                    Baku:  PROVINCE
 STAT.                    Baku:  STATE NAME
 MWDS.                    Baku:  MWD SHOP
 JOBN.        AZ-XX-0906531346:  JOB TICKET NUMB
 RIG .                     DWG:  RIG NAME
 DOE .                     N/A:  DOE NUMBER
 DCON.         Sperry Drilling:  DIRECTNL CONTR
 UNIT.                     N/A:  LOGGING EQUIPMENT ID
 CNTY.                        :  COUNTY
 LOC .                        :  LOCATION
 LMF .             Drill Floor:  LOG MEASURED FROM
 TVDS.m                  43.16:  TVDSS CORRECTN
 LATI.deg                40.17:  LATITUDE
 LONG.deg                51.17:  LONGITUDE
 WHNS.m                  -0.12:  WELL HEAD N/S
 WHEW.m                  -5.41:  WELL HEAD E/W
 UTMX.m              514337.95:  UTM X
 UTMY.m             4448627.46:  UTM Y
 DFWL.m                   0.00:  DISTANCE FWL
 DFSL.m                   0.00:  DISTANCE FSL
 SDEP.m                3088.01:  START DEPTH
 TDD .m                5200.01:  TOTAL DEPTH (DRILLER)
 VSDR.deg               244.51:  VERT SEC DIRECT
 GVFD.g                   1.00:  GRAVITY FIELD
 MFLD.nT              50329.80:  MAGNETIC FIELD
 MDIP.deg                59.63:  MAGNETIC DIP
 MDEC.deg                 6.59:  MAGNETIC DECL
 GRDC.deg                 0.09:  GRID CORRECTION
 AZTC.deg                 6.50:  AZM TOTAL CORR
 EPD .m                   0.00:  ELEVATION
 EGL .m                   0.00:  GROUND ELEVATION
 WDMS.m                 176.20:  WD ELEV
 APD .m                  43.16:  DEPTH ABOVE PD
 DEP .m                3084.71:  DEPTH
 AGAP.m                  43.16:  AIR GAP
 VSEW.m                  -5.41:  VERT SEC E/W
 VSNS.m                  -0.12:  VERT SEC N/S
 EKB .m                   0.00:  KB ELEVATION
 EDF .m                  43.16:  DF ELEVATION
 TDL .m                 243.00:  TOTAL DEPTH (LOGGER)
 VSC .                       0:  VS TO CLOSURE
 MAGU.                 1853542:  MAGUTM CHECKSUM
~Parameter Information Block
#MNEM.UNIT       Value        Description
#---------     -----------    ---------------------------
 AV  .mps                 1.91:  Ann Velocity 
 AVMX.mps                 2.52:  Max Ann Veloc 
 AZIF.deg               308.97:  Azm, Final 
 BHAT.        Rotary Steerable:  BHA Type 
 BROT.°/30m               1.00:  Build Rotating 
 BS  .in                  6.50:  Bit Size 
 BSZ .in                  6.50:  Bit Size 
 BTPL.psig              350.00:  Bit Press Loss 
 CABU.                      No:  Customer Abuse 
 CGEO.           Asif Pashayev:  Customer Geo 
 COMM.                     Ô¿r:  Run Comments 1 
 TCS .hr                 35.86:  Time Ciculation Ended 
 CV  .mps                 2.31:  Crit Velocity 
 CVMX.mps                 2.31:  Max Crit Veloc 
 DD1 .         Intigam Rahimov:  Direct Drillr 1 
 DDSV.               Geo-Pilot:  DD Service 
 DEFF.%                  92.00:  % Det Eff 
 DLRX.°/30m               1.00:  Dogleg Rot Max 
 DLSO.°/30m               1.00:  Dogleg Oriented 
 DLSX.°/30m               1.42:  Dogleg Str Max 
 DRET.      15.50.00 07-Aug-20:  Drill End Time 
 DRST.      10.40.00 06-Aug-20:  Drill Start Tim 
 DTIM.hr                 21.30:  Time Drilling 
 EDEP.m                5200.01:  End Depth 
 ENG1.            Alan Tuganov:  Engineer 1 
 ENG2.         Almaz Almadatov:  Engineer 2 
 ENG3.     Zammelal Abdullah Sani:  Engineer 3 
 ETIM.      22.42.00 08-Aug-20:  End Time 
 FLOI.gpm               395.00:  Flow In 
 FLON.gpm               350.00:  Flow In Min 
 FLOS.cptm                0.00:  Fluid Loss 
 FLOX.gpm               404.00:  Flow In Max 
 FTRO.       Formation Presure:  FTWD Run Obj 
 HFLO.                      No:  High Flow 
 HPRE.                      No:  High Pressure 
 HTEM.                      No:  High Temp 
 HYDO.m                   1.80:  Hydro Offset 
 IFIN.deg                72.64:  Inc, Final 
 IMAX.deg                73.68:  Inc Max 
 IMIN.deg                72.64:  Inc Min 
 IMND.m                5189.69:  Inc Min Depth 
 IMXD.m                5067.88:  Inc Max Depth 
 JARR.                      No:  Jarring 
 LETM.      15.50.00 07-Aug-20:  Log End Time 
 LOST.hr                     0:  Lost Rig Time 
 LSTM.      10.40.00 06-Aug-20:  Log Start Time 
 MDCL.ppm             36000.00:  Mud Chlorides 
 MDES.     Inversion Oil/Synthetic:  Mud Desc 
 DFD .sg                  1.36:  Mud Density 
 MDMN.sg                  1.36:  Dens Mud Min 
 MDMX.sg                  1.36:  Dens Mud Max 
 MOIL.                      70:  Run Mud Oil % 
 MOWR.                   70:30:  Run Mud OWR 
 MSND.                    0.00:  Run Mud Sand % 
 MSOL.                   17.60:  Run Mud Solids% 
 DFV .spqt               73.00:  Mud Viscosity 
 MWOD.in                  4.75:  MWD Tool OD 
 MWSI.                      No:  Serv Intrp, MWD 
 OTIM.hr                 85.66:  Time Operating 
 PCON.           Look Like New:  Pad Condition 
 PMAX.psia             6250.00:  Press Op, Max 
 PV  .cP                 65.00:  Mud PV 
 RUN .                     900:  Run Number 
 ROPA.m/hr               11.40:  ROP Avg 
 ROPN.m/hr                5.00:  ROP Min 
 ROPX.m/hr               20.00:  ROP Max 
 RPMA.rpm               130.00:  RPM Surface Avg 
 RPMN.rpm                40.00:  RPM Surface Min 
 RPMX.rpm               140.00:  RPM Surface Max 
 RRUN.                    L205:  Rig Run Number 
 RTIM.hr                  1.00:  Time Reaming 
 SAZI.deg               313.52:  Azm, Start 
 SDEP.m                4957.01:  Start Depth 
 SIDD.                      No:  Serv Intrp, DD 
 SINC.deg                73.16:  Inc, Start 
 SPPA.psig             5657.00:  SPP Avg 
 SPPN.psig             2500.00:  SPP Min 
 SPPX.psig             5806.00:  SPP Max 
 STIM.      07.12.00 05-Aug-20:  Start Time 
 SVCS.                 DD, MWD:  Services 
 SVER.                    9.20:  Sperry Version 
 TDAT.m                 243.00:  Tot Depth Attmp 
 TDDF.                      No:  Trip for DD 
 TDLG.m                 243.00:  Tot Depth Loggd 
 TFF .                      No:  Trip for Fail 
 TQAA.f-kp               13.00:  Torque Abs Avg 
 TQAN.f-kp               11.00:  Torque Abs Min 
 TQAX.f-kp               16.00:  Torque Abs Max 
 TRRT.°/30m               1.00:  Turn Rotating 
 MRT .                    HCIM:  Maximum Recorded Temperature 
 TTMX.degC               96.08:  Max Tool Temp 
 VS01.                90515411:  Virtual Str1 SN 
 VS02.                90512716:  Virtual Str2 SN 
 VS03.                90522362:  Virtual Str3 SN 
 VS04.                90619415:  Virtual Str4 SN 
 VS05.                90619414:  Virtual Str5 SN 
 VS06.                90597748:  Virtual Str6 SN 
 WBMN.klb                 2.00:  WOB Min 
 WITN.           Adil Mammadov:  Customer Rep 
 WITN.     Alexander Yadullayev:  Customer Rep 2 
 WOBA.klb                 7.00:  WOB Avg 
 WOBX.klb                23.00:  WOB Max 
 YP  .lhf2               37.00:  Yield Point 
~Curve Information Block
#MNEM.UNIT                 API CODE     Curve Description
#---------               -----------    ---------------------------
 TIME.HHMMSS            00 000 000 000:  GT Time & Date
 GTDEPTH.m              00 000 000 000:  GT Depth
 GTPQH.psia             00 000 000 000:  GT HR Quartz Pressure
 GTTQ.degC              00 000 000 000:  GT Quartz Temperature
 GTTN.NONE              00 000 000 000:  GT Test Number
 GTET.sec               00 000 000 000:  GT Elapsed Test Time
 GTTVD.m                00 000 000 000:  GT True Vertical Depth
#Other Information
#
#WARRANTY: Halliburton will use its best efforts to furnish customers with 
#accurate information and interpretations that are part of, and incident to, the services 
#provided.  However, Halliburton cannot and does not warrant the accuracy 
#or correctness of such information and interpretations.  Under no circumstances should any 
#such information or interpretation be relied upon as the sole basis for any drilling, 
#completion, production, or financial decision or any procedure involving any risk to the 
#safety of any drilling venture, drilling rig or its crew or any other third party.  The 
#Customer has full responsibility for all drilling, completion and production operation.  
#Halliburton makes no representations or warranties, either expressed or 
#implied, including, but not limited to, the implied warranties of merchantability or fitness 
#for a particular purpose, with respect to the services rendered.  In no event will 
#Halliburton be liable for failure to obtain any particular results or for 
#any damages, including, but not limited to, indirect, special or consequential damages, 
#resulting from the use of any information or interpretation provided by Halliburton.
#
~A           TIME           GTDEPTH  GTPQH  GTTQ  GTTN  GTET   GTTVD  
# ...
   01:48:34.442.07-Aug-2020 5042.01 3681.37 85.64 6.00  92.02 2658.32
   01:48:34.642.07-Aug-2020 5042.01 3681.37 85.64 6.00  92.22 2658.32
   01:48:34.842.07-Aug-2020 5042.01 3681.38 85.64 6.00  92.42 2658.32
   01:48:35.042.07-Aug-2020 5042.01 3681.44 85.63 6.00  92.62 2658.32
   01:48:35.242.07-Aug-2020 5042.01 3681.41 85.63 6.00  92.82 2658.32
   01:48:35.442.07-Aug-2020 5042.01 3681.42 85.63 6.00  93.02 2658.32
   01:48:35.642.07-Aug-2020 5042.01 3681.42 85.63 6.00  93.22 2658.32
   01:48:35.842.07-Aug-2020 5042.01 3681.33 85.63 6.00  93.42 2658.32
   01:48:36.043.07-Aug-2020 5042.01 3681.50 85.63 6.00  93.62 2658.32
   01:48:36.243.07-Aug-2020 5042.01 3681.27 85.63 6.00  93.82 2658.32
   01:48:36.443.07-Aug-2020 5042.01 3681.53 85.63 6.00  94.02 2658.32
   01:48:36.643.07-Aug-2020 5042.01 3681.53 85.63 6.00  94.22 2658.32
   01:48:36.843.07-Aug-2020 5042.01 3681.42 85.63 6.00  94.42 2658.32
   01:48:37.043.07-Aug-2020 5042.01 3681.37 85.63 6.00  94.62 2658.32
   01:48:37.243.07-Aug-2020 5042.01 3681.45 85.63 6.00  94.82 2658.32
   01:48:37.443.07-Aug-2020 5042.01 3681.36 85.63 6.00  95.02 2658.32
   01:48:37.643.07-Aug-2020 5042.01 3681.36 85.63 6.00  95.22 2658.32
   01:48:37.843.07-Aug-2020 5042.01 3681.20 85.63 6.00  95.42 2658.32
   01:48:38.043.07-Aug-2020 5042.01 3681.58 85.63 6.00  95.62 2658.32
   01:48:38.243.07-Aug-2020 5042.01 3681.24 85.63 6.00  95.82 2658.32
   01:48:38.443.07-Aug-2020 5042.01 3681.53 85.63 6.00  96.02 2658.32
   01:48:38.643.07-Aug-2020 5042.01 3681.53 85.63 6.00  96.22 2658.32
   01:48:38.843.07-Aug-2020 5042.01 3681.30 85.63 6.00  96.42 2658.32
   01:48:39.043.07-Aug-2020 5042.01 3681.47 85.63 6.00  96.62 2658.32
   01:48:39.243.07-Aug-2020 5042.01 3681.38 85.63 6.00  96.82 2658.32
   01:48:39.443.07-Aug-2020 5042.01 3681.43 85.62 6.00  97.02 2658.32
   01:48:39.643.07-Aug-2020 5042.01 3681.43 85.62 6.00  97.22 2658.32
   01:48:39.843.07-Aug-2020 5042.01 3681.40 85.62 6.00  97.42 2658.32
   01:48:40.043.07-Aug-2020 5042.01 3681.39 85.62 6.00  97.62 2658.32
   01:48:40.244.07-Aug-2020 5042.01 3681.39 85.62 6.00  97.82 2658.32
   01:48:40.444.07-Aug-2020 5042.01 3681.38 85.62 6.00  98.02 2658.32
   01:48:40.644.07-Aug-2020 5042.01 3681.38 85.62 6.00  98.22 2658.32
   01:48:40.844.07-Aug-2020 5042.01 3681.38 85.62 6.00  98.42 2658.32
   01:48:41.044.07-Aug-2020 5042.01 3681.44 85.62 6.00  98.62 2658.32
   01:48:41.244.07-Aug-2020 5042.01 3681.35 85.62 6.00  98.82 2658.32
   01:48:41.444.07-Aug-2020 5042.01 3681.42 85.62 6.00  99.02 2658.32
   01:48:41.644.07-Aug-2020 5042.01 3681.19 85.62 6.00  99.22 2658.32
   01:48:41.844.07-Aug-2020 5042.01 3681.54 85.62 6.00  99.42 2658.32
   01:48:42.044.07-Aug-2020 5042.01 3681.23 85.62 6.00  99.62 2658.32
   01:48:42.244.07-Aug-2020 5042.01 3681.52 85.62 6.00  99.82 2658.32
   01:48:42.444.07-Aug-2020 5042.01 3681.30 85.62 6.00 100.02 2658.32
   01:48:42.644.07-Aug-2020 5042.01 3681.30 85.62 6.00 100.22 2658.32
   01:48:42.844.07-Aug-2020 5042.01 3681.32 85.62 6.00 100.42 2658.32
   01:48:43.044.07-Aug-2020 5042.01 3681.45 85.62 6.00 100.62 2658.32
   01:48:43.244.07-Aug-2020 5042.01 3681.32 85.62 6.00 100.82 2658.32
   01:48:43.444.07-Aug-2020 5042.01 3681.45 85.62 6.00 101.02 2658.32
   01:48:43.644.07-Aug-2020 5042.01 3681.45 85.62 6.00 101.22 2658.32
   01:48:43.844.07-Aug-2020 5042.01 3681.44 85.62 6.00 101.42 2658.32
   01:48:44.044.07-Aug-2020 5042.01 3681.34 85.61 6.00 101.62 2658.32
   01:48:44.244.07-Aug-2020 5042.01 3681.38 85.61 6.00 101.82 2658.32
   01:48:44.445.07-Aug-2020 5042.01 3681.42 85.61 6.00 102.02 2658.32
   01:48:44.645.07-Aug-2020 5042.01 3681.42 85.61 6.00 102.22 2658.32
   01:48:44.845.07-Aug-2020 5042.01 3681.43 85.61 6.00 102.42 2658.32
   01:48:45.045.07-Aug-2020 5042.01 3681.36 85.61 6.00 102.62 2658.32
   01:48:45.245.07-Aug-2020 5042.01 3681.31 85.61 6.00 102.82 2658.32
   01:48:45.445.07-Aug-2020 5042.01 3681.43 85.61 6.00 103.02 2658.32
   01:48:45.645.07-Aug-2020 5042.01 3681.43 85.61 6.00 103.22 2658.32
   01:48:45.845.07-Aug-2020 5042.01 3681.37 85.61 6.00 103.42 2658.32
   01:48:46.045.07-Aug-2020 5042.01 3681.40 85.61 6.00 103.62 2658.32
   01:48:46.245.07-Aug-2020 5042.01 3681.03 85.61 6.00 103.82 2658.32
   01:48:46.445.07-Aug-2020 5042.01 3681.70 85.61 6.00 104.02 2658.32
   01:48:46.645.07-Aug-2020 5042.01 3681.70 85.61 6.00 104.22 2658.32
   01:48:46.845.07-Aug-2020 5042.01 3681.50 85.61 6.00 104.42 2658.32
   01:48:47.045.07-Aug-2020 5042.01 3681.30 85.61 6.00 104.62 2658.32
   01:48:47.245.07-Aug-2020 5042.01 3681.37 85.61 6.00 104.82 2658.32
   01:48:47.445.07-Aug-2020 5042.01 3681.39 85.61 6.00 105.02 2658.32
   01:48:47.645.07-Aug-2020 5042.01 3681.39 85.61 6.00 105.22 2658.32
   01:48:47.845.07-Aug-2020 5042.01 3681.39 85.61 6.00 105.42 2658.32
   01:48:48.045.07-Aug-2020 5042.01 3681.37 85.61 6.00 105.62 2658.32
   01:48:48.245.07-Aug-2020 5042.01 3681.35 85.61 6.00 105.82 2658.32
   01:48:48.445.07-Aug-2020 5042.01 3681.42 85.61 6.00 106.02 2658.32
   01:48:48.646.07-Aug-2020 5042.01 3681.42 85.61 6.00 106.23 2658.32
   01:48:48.846.07-Aug-2020 5042.01 3681.41 85.60 6.00 106.43 2658.32
   01:48:49.046.07-Aug-2020 5042.01 3681.35 85.60 6.00 106.63 2658.32
   01:48:49.246.07-Aug-2020 5042.01 3681.39 85.60 6.00 106.83 2658.32
   01:48:49.446.07-Aug-2020 5042.01 3681.35 85.60 6.00 107.03 2658.32
   01:48:49.646.07-Aug-2020 5042.01 3681.35 85.60 6.00 107.23 2658.32
   01:48:49.846.07-Aug-2020 5042.01 3681.35 85.60 6.00 107.43 2658.32
   01:48:50.046.07-Aug-2020 5042.01 3681.05 85.60 6.00 107.63 2658.32
   01:48:50.246.07-Aug-2020 5042.01 3681.66 85.60 6.00 107.83 2658.32
   01:48:50.446.07-Aug-2020 5042.01 3681.27 85.60 6.00 108.03 2658.32
   01:48:50.646.07-Aug-2020 5042.01 3681.27 85.60 6.00 108.23 2658.32
   01:48:50.846.07-Aug-2020 5042.01 3681.32 85.60 6.00 108.43 2658.32
   01:48:51.046.07-Aug-2020 5042.01 3681.42 85.60 6.00 108.63 2658.32
   01:48:51.246.07-Aug-2020 5042.01 3681.31 85.60 6.00 108.83 2658.32
   01:48:51.446.07-Aug-2020 5042.01 3681.42 85.60 6.00 109.03 2658.32
   01:48:51.646.07-Aug-2020 5042.01 3681.42 85.60 6.00 109.23 2658.32
   01:48:51.846.07-Aug-2020 5042.01 3681.42 85.60 6.00 109.43 2658.32
   01:48:52.046.07-Aug-2020 5042.01 3681.30 85.60 6.00 109.63 2658.32
   01:48:52.246.07-Aug-2020 5042.01 3681.41 85.60 6.00 109.83 2658.32
   01:48:52.446.07-Aug-2020 5042.01 3681.31 85.60 6.00 110.03 2658.32
   01:48:52.646.07-Aug-2020 5042.01 3681.31 85.60 6.00 110.23 2658.32
   01:48:52.846.07-Aug-2020 5042.01 3681.29 85.60 6.00 110.43 2658.32
   01:48:53.047.07-Aug-2020 5042.01 3681.33 85.60 6.00 110.63 2658.32
   01:48:53.247.07-Aug-2020 5042.01 3681.33 85.59 6.00 110.83 2658.32
   01:48:53.447.07-Aug-2020 5042.01 3681.39 85.59 6.00 111.03 2658.32
   01:48:53.647.07-Aug-2020 5042.01 3681.39 85.59 6.00 111.23 2658.32
   01:48:53.847.07-Aug-2020 5042.01 3681.41 85.59 6.00 111.43 2658.32
   01:48:54.047.07-Aug-2020 5042.01 3681.24 85.59 6.00 111.63 2658.32
   01:48:54.247.07-Aug-2020 5042.01 3681.43 85.59 6.00 111.83 2658.32
   01:48:54.447.07-Aug-2020 5042.01 3681.29 85.59 6.00 112.03 2658.32
   01:48:54.647.07-Aug-2020 5042.01 3681.29 85.59 6.00 112.23 2658.32
   01:48:54.847.07-Aug-2020 5042.01 3681.61 85.59 6.00 112.43 2658.32
   01:48:55.047.07-Aug-2020 5042.01 3681.27 85.59 6.00 112.63 2658.32
   01:48:55.247.07-Aug-2020 5042.01 3681.42 85.59 6.00 112.83 2658.32
   01:48:55.447.07-Aug-2020 5042.01 3681.30 85.59 6.00 113.03 2658.32
   01:48:55.647.07-Aug-2020 5042.01 3681.30 85.59 6.00 113.23 2658.32
   01:48:55.847.07-Aug-2020 5042.01 3681.36 85.59 6.00 113.43 2658.32
   01:48:56.047.07-Aug-2020 5042.01 3681.25 85.59 6.00 113.63 2658.32
   01:48:56.247.07-Aug-2020 5042.01 3681.36 85.59 6.00 113.83 2658.32
   01:48:56.447.07-Aug-2020 5042.01 3681.37 85.59 6.00 114.03 2658.32
   01:48:56.647.07-Aug-2020 5042.01 3681.37 85.59 6.00 114.23 2658.32
   01:48:56.847.07-Aug-2020 5042.01 3681.40 85.59 6.00 114.43 2658.32
   01:48:57.047.07-Aug-2020 5042.01 3681.29 85.59 6.00 114.63 2658.32
   01:48:57.248.07-Aug-2020 5042.01 3681.39 85.59 6.00 114.83 2658.32
