~Version Information
 VERS.                  2.0:   CWLS log ASCII Standard -VERSION 2.0
 WRAP.                   NO:   One line per depth step
~Well Information Block
#MNEM.UNIT     VALUE/NAME     DESCRIPTION
#---------     -----------    ---------------------------
 STRT.S             20:19:41 06-Aug-20: START TIME 20:19:41 06-Aug-20
 STOP.S             20:27:33 06-Aug-20: STOP TIME  20:27:33 06-Aug-20
 STEP.S                   0.00: STEP TIME
 NULL.                 -999.25: NULL VALUE
 DFWT.                        :  DIST FWL TEXT
 DFST.                        :  DIST FSL TEXT
 DMF .             Drill Floor:  DRILL MEAS FROM
 STIM.      12.00.00 03-Jul-20:  START TIME
 DATE.      00.50.00 09-Aug-20:  END TIME
 SPUD.               03-Jul-20:  SPUD DATE
 NREF.                    Grid:  NORTH REFERENCE
 HPTY.       Minimum Curvature:  HOLE POS TYPE
 DMOD.             Drill Model:  DRILL MOD DESC
 SVYD.                  Survey:  SURVEY DESC
 ILTD.               Lithology:  INTERP LTH DESC
 FTOP.          Formation Tops:  FORM TOPS DESC
 PDAT.          Mean Sea Level:  PERMANENT DATUM
 FLD .                     ACG:  FIELD NAME
 CTRY.              Azerbaijan:  COUNTRY NAME
 WELL.                    E04x:  WELL NAME
 SRVC.          Turan Drilling:  CONTRACTOR
 COMP.     BP Exploration (Caspian Sea) Ltd.:  COMPANY
 SON .        AZ-XX-0906531346:  JOB NUMBER
 WTYP.                Deviated:  WELL TYPE
 MDS .        Operator Entered:  MAG DATA SOURCE
 UWI .                     N/A:  UNIQUE WELL IDENTIFIER
 API .                     N/A:  API NUMBER
 BASE.              Azerbaijan:  LOGGING EQUIPMENT BASE LOCATION
 REGN.                   EESSA:  REGION
 PROV.                    Baku:  PROVINCE
 STAT.                    Baku:  STATE NAME
 MWDS.                    Baku:  MWD SHOP
 JOBN.        AZ-XX-0906531346:  JOB TICKET NUMB
 RIG .                     DWG:  RIG NAME
 DOE .                     N/A:  DOE NUMBER
 DCON.         Sperry Drilling:  DIRECTNL CONTR
 UNIT.                     N/A:  LOGGING EQUIPMENT ID
 CNTY.                        :  COUNTY
 LOC .                        :  LOCATION
 LMF .             Drill Floor:  LOG MEASURED FROM
 TVDS.m                  43.16:  TVDSS CORRECTN
 LATI.deg                40.17:  LATITUDE
 LONG.deg                51.17:  LONGITUDE
 WHNS.m                  -0.12:  WELL HEAD N/S
 WHEW.m                  -5.41:  WELL HEAD E/W
 UTMX.m              514337.95:  UTM X
 UTMY.m             4448627.46:  UTM Y
 DFWL.m                   0.00:  DISTANCE FWL
 DFSL.m                   0.00:  DISTANCE FSL
 SDEP.m                3088.01:  START DEPTH
 TDD .m                5200.01:  TOTAL DEPTH (DRILLER)
 VSDR.deg               244.51:  VERT SEC DIRECT
 GVFD.g                   1.00:  GRAVITY FIELD
 MFLD.nT              50329.80:  MAGNETIC FIELD
 MDIP.deg                59.63:  MAGNETIC DIP
 MDEC.deg                 6.59:  MAGNETIC DECL
 GRDC.deg                 0.09:  GRID CORRECTION
 AZTC.deg                 6.50:  AZM TOTAL CORR
 EPD .m                   0.00:  ELEVATION
 EGL .m                   0.00:  GROUND ELEVATION
 WDMS.m                 176.20:  WD ELEV
 APD .m                  43.16:  DEPTH ABOVE PD
 DEP .m                3084.71:  DEPTH
 AGAP.m                  43.16:  AIR GAP
 VSEW.m                  -5.41:  VERT SEC E/W
 VSNS.m                  -0.12:  VERT SEC N/S
 EKB .m                   0.00:  KB ELEVATION
 EDF .m                  43.16:  DF ELEVATION
 TDL .m                 243.00:  TOTAL DEPTH (LOGGER)
 VSC .                       0:  VS TO CLOSURE
 MAGU.                 1853542:  MAGUTM CHECKSUM
~Parameter Information Block
#MNEM.UNIT       Value        Description
#---------     -----------    ---------------------------
 AV  .mps                 1.91:  Ann Velocity 
 AVMX.mps                 2.52:  Max Ann Veloc 
 AZIF.deg               308.97:  Azm, Final 
 BHAT.        Rotary Steerable:  BHA Type 
 BROT.°/30m               1.00:  Build Rotating 
 BS  .in                  6.50:  Bit Size 
 BSZ .in                  6.50:  Bit Size 
 BTPL.psig              350.00:  Bit Press Loss 
 CABU.                      No:  Customer Abuse 
 CGEO.           Asif Pashayev:  Customer Geo 
 COMM.                     4è‹:  Run Comments 1 
 TCS .hr                 35.86:  Time Ciculation Ended 
 CV  .mps                 2.31:  Crit Velocity 
 CVMX.mps                 2.31:  Max Crit Veloc 
 DD1 .         Intigam Rahimov:  Direct Drillr 1 
 DDSV.               Geo-Pilot:  DD Service 
 DEFF.%                  92.00:  % Det Eff 
 DLRX.°/30m               1.00:  Dogleg Rot Max 
 DLSO.°/30m               1.00:  Dogleg Oriented 
 DLSX.°/30m               1.42:  Dogleg Str Max 
 DRET.      15.50.00 07-Aug-20:  Drill End Time 
 DRST.      10.40.00 06-Aug-20:  Drill Start Tim 
 DTIM.hr                 21.30:  Time Drilling 
 EDEP.m                5200.01:  End Depth 
 ENG1.            Alan Tuganov:  Engineer 1 
 ENG2.         Almaz Almadatov:  Engineer 2 
 ENG3.     Zammelal Abdullah Sani:  Engineer 3 
 ETIM.      22.42.00 08-Aug-20:  End Time 
 FLOI.gpm               395.00:  Flow In 
 FLON.gpm               350.00:  Flow In Min 
 FLOS.cptm                0.00:  Fluid Loss 
 FLOX.gpm               404.00:  Flow In Max 
 FTRO.       Formation Presure:  FTWD Run Obj 
 HFLO.                      No:  High Flow 
 HPRE.                      No:  High Pressure 
 HTEM.                      No:  High Temp 
 HYDO.m                   1.80:  Hydro Offset 
 IFIN.deg                72.64:  Inc, Final 
 IMAX.deg                73.68:  Inc Max 
 IMIN.deg                72.64:  Inc Min 
 IMND.m                5189.69:  Inc Min Depth 
 IMXD.m                5067.88:  Inc Max Depth 
 JARR.                      No:  Jarring 
 LETM.      15.50.00 07-Aug-20:  Log End Time 
 LOST.hr                     0:  Lost Rig Time 
 LSTM.      10.40.00 06-Aug-20:  Log Start Time 
 MDCL.ppm             36000.00:  Mud Chlorides 
 MDES.     Inversion Oil/Synthetic:  Mud Desc 
 DFD .sg                  1.36:  Mud Density 
 MDMN.sg                  1.36:  Dens Mud Min 
 MDMX.sg                  1.36:  Dens Mud Max 
 MOIL.                      70:  Run Mud Oil % 
 MOWR.                   70:30:  Run Mud OWR 
 MSND.                    0.00:  Run Mud Sand % 
 MSOL.                   17.60:  Run Mud Solids% 
 DFV .spqt               73.00:  Mud Viscosity 
 MWOD.in                  4.75:  MWD Tool OD 
 MWSI.                      No:  Serv Intrp, MWD 
 OTIM.hr                 85.66:  Time Operating 
 PCON.           Look Like New:  Pad Condition 
 PMAX.psia             6250.00:  Press Op, Max 
 PV  .cP                 65.00:  Mud PV 
 RUN .                     900:  Run Number 
 ROPA.m/hr               11.40:  ROP Avg 
 ROPN.m/hr                5.00:  ROP Min 
 ROPX.m/hr               20.00:  ROP Max 
 RPMA.rpm               130.00:  RPM Surface Avg 
 RPMN.rpm                40.00:  RPM Surface Min 
 RPMX.rpm               140.00:  RPM Surface Max 
 RRUN.                    L205:  Rig Run Number 
 RTIM.hr                  1.00:  Time Reaming 
 SAZI.deg               313.52:  Azm, Start 
 SDEP.m                4957.01:  Start Depth 
 SIDD.                      No:  Serv Intrp, DD 
 SINC.deg                73.16:  Inc, Start 
 SPPA.psig             5657.00:  SPP Avg 
 SPPN.psig             2500.00:  SPP Min 
 SPPX.psig             5806.00:  SPP Max 
 STIM.      07.12.00 05-Aug-20:  Start Time 
 SVCS.                 DD, MWD:  Services 
 SVER.                    9.20:  Sperry Version 
 TDAT.m                 243.00:  Tot Depth Attmp 
 TDDF.                      No:  Trip for DD 
 TDLG.m                 243.00:  Tot Depth Loggd 
 TFF .                      No:  Trip for Fail 
 TQAA.f-kp               13.00:  Torque Abs Avg 
 TQAN.f-kp               11.00:  Torque Abs Min 
 TQAX.f-kp               16.00:  Torque Abs Max 
 TRRT.°/30m               1.00:  Turn Rotating 
 MRT .                    HCIM:  Maximum Recorded Temperature 
 TTMX.degC               96.08:  Max Tool Temp 
 VS01.                90515411:  Virtual Str1 SN 
 VS02.                90512716:  Virtual Str2 SN 
 VS03.                90522362:  Virtual Str3 SN 
 VS04.                90619415:  Virtual Str4 SN 
 VS05.                90619414:  Virtual Str5 SN 
 VS06.                90597748:  Virtual Str6 SN 
 WBMN.klb                 2.00:  WOB Min 
 WITN.           Adil Mammadov:  Customer Rep 
 WITN.     Alexander Yadullayev:  Customer Rep 2 
 WOBA.klb                 7.00:  WOB Avg 
 WOBX.klb                23.00:  WOB Max 
 YP  .lhf2               37.00:  Yield Point 
~Curve Information Block
#MNEM.UNIT                 API CODE     Curve Description
#---------               -----------    ---------------------------
 TIME.HHMMSS            00 000 000 000:  GT Time & Date
 GTDEPTH.m              00 000 000 000:  GT Depth
 GTPQH.psia             00 000 000 000:  GT HR Quartz Pressure
 GTTQ.degC              00 000 000 000:  GT Quartz Temperature
 GTTN.NONE              00 000 000 000:  GT Test Number
 GTET.sec               00 000 000 000:  GT Elapsed Test Time
 GTTVD.m                00 000 000 000:  GT True Vertical Depth
#Other Information
#
#WARRANTY: Halliburton will use its best efforts to furnish customers with 
#accurate information and interpretations that are part of, and incident to, the services 
#provided.  However, Halliburton cannot and does not warrant the accuracy 
#or correctness of such information and interpretations.  Under no circumstances should any 
#such information or interpretation be relied upon as the sole basis for any drilling, 
#completion, production, or financial decision or any procedure involving any risk to the 
#safety of any drilling venture, drilling rig or its crew or any other third party.  The 
#Customer has full responsibility for all drilling, completion and production operation.  
#Halliburton makes no representations or warranties, either expressed or 
#implied, including, but not limited to, the implied warranties of merchantability or fitness 
#for a particular purpose, with respect to the services rendered.  In no event will 
#Halliburton be liable for failure to obtain any particular results or for 
#any damages, including, but not limited to, indirect, special or consequential damages, 
#resulting from the use of any information or interpretation provided by Halliburton.
#
~A           TIME           GTDEPTH  GTPQH  GTTQ  GTTN  GTET   GTTVD  
# ...
   20:24:40.461.06-Aug-2020 4993.01 3486.93 82.59 3.00 299.11 2644.18
   20:24:40.661.06-Aug-2020 4993.01 3486.93 82.59 3.00 299.31 2644.18
   20:24:40.861.06-Aug-2020 4993.01 3486.94 82.59 3.00 299.51 2644.18
   20:24:41.061.06-Aug-2020 4993.01 3486.92 82.59 3.00 299.71 2644.18
   20:24:41.261.06-Aug-2020 4993.01 3486.91 82.59 3.00 299.91 2644.18
   20:24:41.461.06-Aug-2020 4993.01 3486.92 82.59 3.00 300.11 2644.18
   20:24:41.661.06-Aug-2020 4993.01 3486.92 82.59 3.00 300.31 2644.18
   20:24:41.861.06-Aug-2020 4993.01 3463.20 82.59 3.00 300.51 2644.18
   20:24:42.061.06-Aug-2020 4993.01 3440.32 82.59 3.00 300.72 2644.18
   20:24:42.261.06-Aug-2020 4993.01 3440.67 82.58 3.00 300.92 2644.18
   20:24:42.461.06-Aug-2020 4993.01 3441.42 82.58 3.00 301.12 2644.18
   20:24:42.661.06-Aug-2020 4993.01 3441.42 82.58 3.00 301.32 2644.18
   20:24:42.862.06-Aug-2020 4993.01 3440.90 82.58 3.00 301.52 2644.18
   20:24:43.062.06-Aug-2020 4993.01 3441.58 82.58 3.00 301.72 2644.18
   20:24:43.262.06-Aug-2020 4993.01 3440.53 82.58 3.00 301.92 2644.18
   20:24:43.462.06-Aug-2020 4993.01 3440.91 82.58 3.00 302.12 2644.18
   20:24:43.662.06-Aug-2020 4993.01 3440.91 82.58 3.00 302.32 2644.18
   20:24:43.862.06-Aug-2020 4993.01 3441.32 82.58 3.00 302.52 2644.18
   20:24:44.062.06-Aug-2020 4993.01 3441.00 82.58 3.00 302.72 2644.18
   20:24:44.262.06-Aug-2020 4993.01 3440.79 82.58 3.00 302.92 2644.18
   20:24:44.462.06-Aug-2020 4993.01 3440.21 82.58 3.00 303.12 2644.18
   20:24:44.662.06-Aug-2020 4993.01 3440.21 82.58 3.00 303.32 2644.18
   20:24:44.862.06-Aug-2020 4993.01 3440.82 82.58 3.00 303.52 2644.18
   20:24:45.062.06-Aug-2020 4993.01 3439.27 82.58 3.00 303.72 2644.18
   20:24:45.262.06-Aug-2020 4993.01 3440.99 82.58 3.00 303.92 2644.18
   20:24:45.463.06-Aug-2020 4993.01 3442.24 82.58 3.00 304.12 2644.18
   20:24:45.663.06-Aug-2020 4993.01 3442.24 82.58 3.00 304.32 2644.18
   20:24:45.863.06-Aug-2020 4993.01 3441.20 82.58 3.00 304.52 2644.18
   20:24:46.063.06-Aug-2020 4993.01 3439.66 82.58 3.00 304.72 2644.18
   20:24:46.263.06-Aug-2020 4993.01 3440.10 82.58 3.00 304.92 2644.18
   20:24:46.463.06-Aug-2020 4993.01 3441.02 82.58 3.00 305.12 2644.18
   20:24:46.663.06-Aug-2020 4993.01 3441.77 82.58 3.00 305.32 2644.18
   20:24:46.863.06-Aug-2020 4993.01 3440.84 82.57 3.00 305.52 2644.18
   20:24:47.063.06-Aug-2020 4993.01 3439.67 82.57 3.00 305.72 2644.18
   20:24:47.263.06-Aug-2020 4993.01 3440.97 82.57 3.00 305.92 2644.18
   20:24:47.463.06-Aug-2020 4993.01 3440.88 82.57 3.00 306.12 2644.18
   20:24:47.663.06-Aug-2020 4993.01 3440.88 82.57 3.00 306.32 2644.18
   20:24:47.863.06-Aug-2020 4993.01 3439.29 82.57 3.00 306.52 2644.18
   20:24:48.064.06-Aug-2020 4993.01 3441.17 82.57 3.00 306.72 2644.18
   20:24:48.264.06-Aug-2020 4993.01 3442.49 82.57 3.00 306.92 2644.18
   20:24:48.464.06-Aug-2020 4993.01 3440.58 82.57 3.00 307.12 2644.18
   20:24:48.664.06-Aug-2020 4993.01 3440.58 82.57 3.00 307.32 2644.18
   20:24:48.864.06-Aug-2020 4993.01 3441.09 82.57 3.00 307.52 2644.18
   20:24:49.064.06-Aug-2020 4993.01 3440.64 82.57 3.00 307.72 2644.18
   20:24:49.264.06-Aug-2020 4993.01 3443.10 82.57 3.00 307.92 2644.18
   20:24:49.464.06-Aug-2020 4993.01 3440.47 82.57 3.00 308.12 2644.18
   20:24:49.664.06-Aug-2020 4993.01 3440.47 82.57 3.00 308.32 2644.18
   20:24:49.864.06-Aug-2020 4993.01 3441.12 82.57 3.00 308.52 2644.18
   20:24:50.064.06-Aug-2020 4993.01 3441.30 82.57 3.00 308.72 2644.18
   20:24:50.264.06-Aug-2020 4993.01 3440.97 82.57 3.00 308.92 2644.18
   20:24:50.464.06-Aug-2020 4993.01 3439.93 82.57 3.00 309.12 2644.18
   20:24:50.665.06-Aug-2020 4993.01 3439.93 82.57 3.00 309.32 2644.18
   20:24:50.865.06-Aug-2020 4993.01 3441.09 82.57 3.00 309.52 2644.18
   20:24:51.065.06-Aug-2020 4993.01 3440.95 82.57 3.00 309.72 2644.18
   20:24:51.265.06-Aug-2020 4993.01 3441.16 82.57 3.00 309.92 2644.18
   20:24:51.465.06-Aug-2020 4993.01 3441.25 82.56 3.00 310.12 2644.18
   20:24:51.665.06-Aug-2020 4993.01 3441.25 82.56 3.00 310.32 2644.18
   20:24:51.865.06-Aug-2020 4993.01 3440.60 82.56 3.00 310.52 2644.18
   20:24:52.065.06-Aug-2020 4993.01 3474.12 82.56 3.00 310.72 2644.18
   20:24:52.265.06-Aug-2020 4993.01 3486.62 82.56 3.00 310.92 2644.18
   20:24:52.465.06-Aug-2020 4993.01 3486.56 82.56 3.00 311.12 2644.18
   20:24:52.665.06-Aug-2020 4993.01 3486.56 82.56 3.00 311.32 2644.18
   20:24:52.865.06-Aug-2020 4993.01 3486.58 82.56 3.00 311.52 2644.18
   20:24:53.065.06-Aug-2020 4993.01 3486.64 82.56 3.00 311.72 2644.18
   20:24:53.266.06-Aug-2020 4993.01 3486.50 82.56 3.00 311.92 2644.18
   20:24:53.466.06-Aug-2020 4993.01 3486.84 82.56 3.00 312.12 2644.18
   20:24:53.666.06-Aug-2020 4993.01 3486.84 82.56 3.00 312.32 2644.18
   20:24:53.866.06-Aug-2020 4993.01 3486.79 82.56 3.00 312.52 2644.18
   20:24:54.066.06-Aug-2020 4993.01 3486.62 82.56 3.00 312.72 2644.18
   20:24:54.266.06-Aug-2020 4993.01 3487.00 82.56 3.00 312.92 2644.18
   20:24:54.466.06-Aug-2020 4993.01 3486.81 82.56 3.00 313.12 2644.18
   20:24:54.666.06-Aug-2020 4993.01 3486.81 82.56 3.00 313.32 2644.18
   20:24:54.866.06-Aug-2020 4993.01 3486.87 82.56 3.00 313.52 2644.18
   20:24:55.066.06-Aug-2020 4993.01 3486.87 82.56 3.00 313.72 2644.18
   20:24:55.266.06-Aug-2020 4993.01 3486.71 82.56 3.00 313.92 2644.18
   20:24:55.466.06-Aug-2020 4993.01 3487.04 82.56 3.00 314.12 2644.18
   20:24:55.666.06-Aug-2020 4993.01 3487.04 82.56 3.00 314.32 2644.18
   20:24:55.867.06-Aug-2020 4993.01 3486.87 82.56 3.00 314.52 2644.18
   20:24:56.067.06-Aug-2020 4993.01 3486.91 82.56 3.00 314.72 2644.18
   20:24:56.267.06-Aug-2020 4993.01 3486.73 82.55 3.00 314.92 2644.18
   20:24:56.467.06-Aug-2020 4993.01 3487.03 82.55 3.00 315.12 2644.18
   20:24:56.667.06-Aug-2020 4993.01 3487.03 82.55 3.00 315.32 2644.18
   20:24:56.867.06-Aug-2020 4993.01 3486.96 82.55 3.00 315.52 2644.18
   20:24:57.067.06-Aug-2020 4993.01 3486.90 82.55 3.00 315.72 2644.18
   20:24:57.267.06-Aug-2020 4993.01 3486.92 82.55 3.00 315.92 2644.18
   20:24:57.467.06-Aug-2020 4993.01 3486.88 82.55 3.00 316.12 2644.18
   20:24:57.667.06-Aug-2020 4993.01 3486.88 82.55 3.00 316.32 2644.18
   20:24:57.867.06-Aug-2020 4993.01 3486.86 82.55 3.00 316.52 2644.18
   20:24:58.067.06-Aug-2020 4993.01 3486.91 82.55 3.00 316.72 2644.18
   20:24:58.267.06-Aug-2020 4993.01 3486.86 82.55 3.00 316.92 2644.18
   20:24:58.468.06-Aug-2020 4993.01 3486.89 82.55 3.00 317.12 2644.18
   20:24:58.668.06-Aug-2020 4993.01 3486.84 82.55 3.00 317.32 2644.18
   20:24:58.868.06-Aug-2020 4993.01 3486.88 82.55 3.00 317.52 2644.18
   20:24:59.068.06-Aug-2020 4993.01 3486.69 82.55 3.00 317.72 2644.18
   20:24:59.268.06-Aug-2020 4993.01 3486.97 82.55 3.00 317.92 2644.18
   20:24:59.468.06-Aug-2020 4993.01 3486.96 82.55 3.00 318.12 2644.18
   20:24:59.668.06-Aug-2020 4993.01 3486.96 82.55 3.00 318.32 2644.18
   20:24:59.868.06-Aug-2020 4993.01 3486.90 82.55 3.00 318.52 2644.18
   20:25:00.068.06-Aug-2020 4993.01 3486.91 82.55 3.00 318.72 2644.18
   20:25:00.268.06-Aug-2020 4993.01 3486.87 82.55 3.00 318.92 2644.18
   20:25:00.468.06-Aug-2020 4993.01 3486.89 82.55 3.00 319.12 2644.18
   20:25:00.668.06-Aug-2020 4993.01 3486.89 82.55 3.00 319.32 2644.18
   20:25:00.868.06-Aug-2020 4993.01 3486.88 82.55 3.00 319.52 2644.18
   20:25:01.069.06-Aug-2020 4993.01 3486.89 82.55 3.00 319.72 2644.18
   20:25:01.269.06-Aug-2020 4993.01 3486.86 82.54 3.00 319.92 2644.18
   20:25:01.469.06-Aug-2020 4993.01 3486.87 82.54 3.00 320.12 2644.18
   20:25:01.669.06-Aug-2020 4993.01 3486.87 82.54 3.00 320.32 2644.18
   20:25:01.869.06-Aug-2020 4993.01 3486.93 82.54 3.00 320.52 2644.18
   20:25:02.069.06-Aug-2020 4993.01 3486.82 82.54 3.00 320.72 2644.18
   20:25:02.269.06-Aug-2020 4993.01 3486.97 82.54 3.00 320.92 2644.18
   20:25:02.469.06-Aug-2020 4993.01 3486.88 82.54 3.00 321.12 2644.18
   20:25:02.669.06-Aug-2020 4993.01 3486.88 82.54 3.00 321.32 2644.18
   20:25:02.869.06-Aug-2020 4993.01 3486.93 82.54 3.00 321.52 2644.18
   20:25:03.069.06-Aug-2020 4993.01 3487.01 82.54 3.00 321.72 2644.18
   20:25:03.269.06-Aug-2020 4993.01 3486.88 82.54 3.00 321.92 2644.18
