~Version Information
 VERS.                  2.0:   CWLS log ASCII Standard -VERSION 2.0
 WRAP.                   NO:   One line per depth step
~Well Information Block
#MNEM.UNIT     VALUE/NAME     DESCRIPTION
#---------     -----------    ---------------------------
 STRT.S             03:58:24 07-Aug-20: START TIME 03:58:24 07-Aug-20
 STOP.S             04:06:16 07-Aug-20: STOP TIME  04:06:16 07-Aug-20
 STEP.S                   0.00: STEP TIME
 NULL.                 -999.25: NULL VALUE
 DFWT.                        :  DIST FWL TEXT
 DFST.                        :  DIST FSL TEXT
 DMF .             Drill Floor:  DRILL MEAS FROM
 STIM.      12.00.00 03-Jul-20:  START TIME
 DATE.      00.50.00 09-Aug-20:  END TIME
 SPUD.               03-Jul-20:  SPUD DATE
 NREF.                    Grid:  NORTH REFERENCE
 HPTY.       Minimum Curvature:  HOLE POS TYPE
 DMOD.             Drill Model:  DRILL MOD DESC
 SVYD.                  Survey:  SURVEY DESC
 ILTD.               Lithology:  INTERP LTH DESC
 FTOP.          Formation Tops:  FORM TOPS DESC
 PDAT.          Mean Sea Level:  PERMANENT DATUM
 FLD .                     ACG:  FIELD NAME
 CTRY.              Azerbaijan:  COUNTRY NAME
 WELL.                    E04x:  WELL NAME
 SRVC.          Turan Drilling:  CONTRACTOR
 COMP.     BP Exploration (Caspian Sea) Ltd.:  COMPANY
 SON .        AZ-XX-0906531346:  JOB NUMBER
 WTYP.                Deviated:  WELL TYPE
 MDS .        Operator Entered:  MAG DATA SOURCE
 UWI .                     N/A:  UNIQUE WELL IDENTIFIER
 API .                     N/A:  API NUMBER
 BASE.              Azerbaijan:  LOGGING EQUIPMENT BASE LOCATION
 REGN.                   EESSA:  REGION
 PROV.                    Baku:  PROVINCE
 STAT.                    Baku:  STATE NAME
 MWDS.                    Baku:  MWD SHOP
 JOBN.        AZ-XX-0906531346:  JOB TICKET NUMB
 RIG .                     DWG:  RIG NAME
 DOE .                     N/A:  DOE NUMBER
 DCON.         Sperry Drilling:  DIRECTNL CONTR
 UNIT.                     N/A:  LOGGING EQUIPMENT ID
 CNTY.                        :  COUNTY
 LOC .                        :  LOCATION
 LMF .             Drill Floor:  LOG MEASURED FROM
 TVDS.m                  43.16:  TVDSS CORRECTN
 LATI.deg                40.17:  LATITUDE
 LONG.deg                51.17:  LONGITUDE
 WHNS.m                  -0.12:  WELL HEAD N/S
 WHEW.m                  -5.41:  WELL HEAD E/W
 UTMX.m              514337.95:  UTM X
 UTMY.m             4448627.46:  UTM Y
 DFWL.m                   0.00:  DISTANCE FWL
 DFSL.m                   0.00:  DISTANCE FSL
 SDEP.m                3088.01:  START DEPTH
 TDD .m                5200.01:  TOTAL DEPTH (DRILLER)
 VSDR.deg               244.51:  VERT SEC DIRECT
 GVFD.g                   1.00:  GRAVITY FIELD
 MFLD.nT              50329.80:  MAGNETIC FIELD
 MDIP.deg                59.63:  MAGNETIC DIP
 MDEC.deg                 6.59:  MAGNETIC DECL
 GRDC.deg                 0.09:  GRID CORRECTION
 AZTC.deg                 6.50:  AZM TOTAL CORR
 EPD .m                   0.00:  ELEVATION
 EGL .m                   0.00:  GROUND ELEVATION
 WDMS.m                 176.20:  WD ELEV
 APD .m                  43.16:  DEPTH ABOVE PD
 DEP .m                3084.71:  DEPTH
 AGAP.m                  43.16:  AIR GAP
 VSEW.m                  -5.41:  VERT SEC E/W
 VSNS.m                  -0.12:  VERT SEC N/S
 EKB .m                   0.00:  KB ELEVATION
 EDF .m                  43.16:  DF ELEVATION
 TDL .m                 243.00:  TOTAL DEPTH (LOGGER)
 VSC .                       0:  VS TO CLOSURE
 MAGU.                 1853542:  MAGUTM CHECKSUM
~Parameter Information Block
#MNEM.UNIT       Value        Description
#---------     -----------    ---------------------------
 AV  .mps                 1.91:  Ann Velocity 
 AVMX.mps                 2.52:  Max Ann Veloc 
 AZIF.deg               308.97:  Azm, Final 
 BHAT.        Rotary Steerable:  BHA Type 
 BROT.°/30m               1.00:  Build Rotating 
 BS  .in                  6.50:  Bit Size 
 BSZ .in                  6.50:  Bit Size 
 BTPL.psig              350.00:  Bit Press Loss 
 CABU.                      No:  Customer Abuse 
 CGEO.           Asif Pashayev:  Customer Geo 
 TCS .hr                 35.86:  Time Ciculation Ended 
 CV  .mps                 2.31:  Crit Velocity 
 CVMX.mps                 2.31:  Max Crit Veloc 
 DD1 .         Intigam Rahimov:  Direct Drillr 1 
 DDSV.               Geo-Pilot:  DD Service 
 DEFF.%                  92.00:  % Det Eff 
 DLRX.°/30m               1.00:  Dogleg Rot Max 
 DLSO.°/30m               1.00:  Dogleg Oriented 
 DLSX.°/30m               1.42:  Dogleg Str Max 
 DRET.      15.50.00 07-Aug-20:  Drill End Time 
 DRST.      10.40.00 06-Aug-20:  Drill Start Tim 
 DTIM.hr                 21.30:  Time Drilling 
 EDEP.m                5200.01:  End Depth 
 ENG1.            Alan Tuganov:  Engineer 1 
 ENG2.         Almaz Almadatov:  Engineer 2 
 ENG3.     Zammelal Abdullah Sani:  Engineer 3 
 ETIM.      22.42.00 08-Aug-20:  End Time 
 FLOI.gpm               395.00:  Flow In 
 FLON.gpm               350.00:  Flow In Min 
 FLOS.cptm                0.00:  Fluid Loss 
 FLOX.gpm               404.00:  Flow In Max 
 FTRO.       Formation Presure:  FTWD Run Obj 
 HFLO.                      No:  High Flow 
 HPRE.                      No:  High Pressure 
 HTEM.                      No:  High Temp 
 HYDO.m                   1.80:  Hydro Offset 
 IFIN.deg                72.64:  Inc, Final 
 IMAX.deg                73.68:  Inc Max 
 IMIN.deg                72.64:  Inc Min 
 IMND.m                5189.69:  Inc Min Depth 
 IMXD.m                5067.88:  Inc Max Depth 
 JARR.                      No:  Jarring 
 LETM.      15.50.00 07-Aug-20:  Log End Time 
 LOST.hr                     0:  Lost Rig Time 
 LSTM.      10.40.00 06-Aug-20:  Log Start Time 
 MDCL.ppm             36000.00:  Mud Chlorides 
 MDES.     Inversion Oil/Synthetic:  Mud Desc 
 DFD .sg                  1.36:  Mud Density 
 MDMN.sg                  1.36:  Dens Mud Min 
 MDMX.sg                  1.36:  Dens Mud Max 
 MOIL.                      70:  Run Mud Oil % 
 MOWR.                   70:30:  Run Mud OWR 
 MSND.                    0.00:  Run Mud Sand % 
 MSOL.                   17.60:  Run Mud Solids% 
 DFV .spqt               73.00:  Mud Viscosity 
 MWOD.in                  4.75:  MWD Tool OD 
 MWSI.                      No:  Serv Intrp, MWD 
 OTIM.hr                 85.66:  Time Operating 
 PCON.           Look Like New:  Pad Condition 
 PMAX.psia             6250.00:  Press Op, Max 
 PV  .cP                 65.00:  Mud PV 
 RUN .                     900:  Run Number 
 ROPA.m/hr               11.40:  ROP Avg 
 ROPN.m/hr                5.00:  ROP Min 
 ROPX.m/hr               20.00:  ROP Max 
 RPMA.rpm               130.00:  RPM Surface Avg 
 RPMN.rpm                40.00:  RPM Surface Min 
 RPMX.rpm               140.00:  RPM Surface Max 
 RRUN.                    L205:  Rig Run Number 
 RTIM.hr                  1.00:  Time Reaming 
 SAZI.deg               313.52:  Azm, Start 
 SDEP.m                4957.01:  Start Depth 
 SIDD.                      No:  Serv Intrp, DD 
 SINC.deg                73.16:  Inc, Start 
 SPPA.psig             5657.00:  SPP Avg 
 SPPN.psig             2500.00:  SPP Min 
 SPPX.psig             5806.00:  SPP Max 
 STIM.      07.12.00 05-Aug-20:  Start Time 
 SVCS.                 DD, MWD:  Services 
 SVER.                    9.20:  Sperry Version 
 TDAT.m                 243.00:  Tot Depth Attmp 
 TDDF.                      No:  Trip for DD 
 TDLG.m                 243.00:  Tot Depth Loggd 
 TFF .                      No:  Trip for Fail 
 TQAA.f-kp               13.00:  Torque Abs Avg 
 TQAN.f-kp               11.00:  Torque Abs Min 
 TQAX.f-kp               16.00:  Torque Abs Max 
 TRRT.°/30m               1.00:  Turn Rotating 
 MRT .                    HCIM:  Maximum Recorded Temperature 
 TTMX.degC               96.08:  Max Tool Temp 
 VS01.                90515411:  Virtual Str1 SN 
 VS02.                90512716:  Virtual Str2 SN 
 VS03.                90522362:  Virtual Str3 SN 
 VS04.                90619415:  Virtual Str4 SN 
 VS05.                90619414:  Virtual Str5 SN 
 VS06.                90597748:  Virtual Str6 SN 
 WBMN.klb                 2.00:  WOB Min 
 WITN.           Adil Mammadov:  Customer Rep 
 WITN.     Alexander Yadullayev:  Customer Rep 2 
 WOBA.klb                 7.00:  WOB Avg 
 WOBX.klb                23.00:  WOB Max 
 YP  .lhf2               37.00:  Yield Point 
~Curve Information Block
#MNEM.UNIT                 API CODE     Curve Description
#---------               -----------    ---------------------------
 TIME.HHMMSS            00 000 000 000:  GT Time & Date
 GTDEPTH.m              00 000 000 000:  GT Depth
 GTPQH.psia             00 000 000 000:  GT HR Quartz Pressure
 GTTQ.degC              00 000 000 000:  GT Quartz Temperature
 GTTN.NONE              00 000 000 000:  GT Test Number
 GTET.sec               00 000 000 000:  GT Elapsed Test Time
 GTTVD.m                00 000 000 000:  GT True Vertical Depth
#Other Information
#
#WARRANTY: Halliburton will use its best efforts to furnish customers with 
#accurate information and interpretations that are part of, and incident to, the services 
#provided.  However, Halliburton cannot and does not warrant the accuracy 
#or correctness of such information and interpretations.  Under no circumstances should any 
#such information or interpretation be relied upon as the sole basis for any drilling, 
#completion, production, or financial decision or any procedure involving any risk to the 
#safety of any drilling venture, drilling rig or its crew or any other third party.  The 
#Customer has full responsibility for all drilling, completion and production operation.  
#Halliburton makes no representations or warranties, either expressed or 
#implied, including, but not limited to, the implied warranties of merchantability or fitness 
#for a particular purpose, with respect to the services rendered.  In no event will 
#Halliburton be liable for failure to obtain any particular results or for 
#any damages, including, but not limited to, indirect, special or consequential damages, 
#resulting from the use of any information or interpretation provided by Halliburton.
#
~A           TIME           GTDEPTH  GTPQH  GTTQ  GTTN  GTET   GTTVD  
# ...
   03:59:56.298.07-Aug-2020 5060.51 3684.56 87.82 7.00  92.02 2663.65
   03:59:56.498.07-Aug-2020 5060.51 3684.56 87.82 7.00  92.22 2663.65
   03:59:56.698.07-Aug-2020 5060.51 3684.57 87.82 7.00  92.42 2663.65
   03:59:56.898.07-Aug-2020 5060.51 3684.59 87.82 7.00  92.62 2663.65
   03:59:57.098.07-Aug-2020 5060.51 3684.51 87.82 7.00  92.82 2663.65
   03:59:57.298.07-Aug-2020 5060.51 3684.57 87.82 7.00  93.02 2663.65
   03:59:57.498.07-Aug-2020 5060.51 3684.57 87.82 7.00  93.22 2663.65
   03:59:57.698.07-Aug-2020 5060.51 3684.55 87.82 7.00  93.42 2663.65
   03:59:57.898.07-Aug-2020 5060.51 3684.59 87.82 7.00  93.62 2663.65
   03:59:58.098.07-Aug-2020 5060.51 3684.57 87.82 7.00  93.82 2663.65
   03:59:58.298.07-Aug-2020 5060.51 3684.58 87.82 7.00  94.02 2663.65
   03:59:58.498.07-Aug-2020 5060.51 3684.58 87.82 7.00  94.22 2663.65
   03:59:58.698.07-Aug-2020 5060.51 3684.57 87.82 7.00  94.42 2663.65
   03:59:58.898.07-Aug-2020 5060.51 3684.56 87.81 7.00  94.62 2663.65
   03:59:59.098.07-Aug-2020 5060.51 3684.57 87.81 7.00  94.82 2663.65
   03:59:59.298.07-Aug-2020 5060.51 3684.56 87.81 7.00  95.02 2663.65
   03:59:59.498.07-Aug-2020 5060.51 3684.56 87.81 7.00  95.22 2663.65
   03:59:59.698.07-Aug-2020 5060.51 3684.53 87.81 7.00  95.42 2663.65
   03:59:59.898.07-Aug-2020 5060.51 3684.47 87.81 7.00  95.62 2663.65
   04:00:00.098.07-Aug-2020 5060.51 3684.59 87.81 7.00  95.82 2663.65
   04:00:00.299.07-Aug-2020 5060.51 3684.56 87.81 7.00  96.02 2663.65
   04:00:00.499.07-Aug-2020 5060.51 3684.56 87.81 7.00  96.22 2663.65
   04:00:00.699.07-Aug-2020 5060.51 3684.58 87.81 7.00  96.42 2663.65
   04:00:00.899.07-Aug-2020 5060.51 3684.54 87.81 7.00  96.62 2663.65
   04:00:01.099.07-Aug-2020 5060.51 3684.56 87.81 7.00  96.82 2663.65
   04:00:01.299.07-Aug-2020 5060.51 3684.55 87.81 7.00  97.02 2663.65
   04:00:01.499.07-Aug-2020 5060.51 3684.55 87.81 7.00  97.22 2663.65
   04:00:01.699.07-Aug-2020 5060.51 3684.54 87.81 7.00  97.42 2663.65
   04:00:01.899.07-Aug-2020 5060.51 3684.55 87.81 7.00  97.62 2663.65
   04:00:02.099.07-Aug-2020 5060.51 3684.54 87.80 7.00  97.82 2663.65
   04:00:02.299.07-Aug-2020 5060.51 3684.55 87.80 7.00  98.02 2663.65
   04:00:02.499.07-Aug-2020 5060.51 3684.55 87.80 7.00  98.22 2663.65
   04:00:02.699.07-Aug-2020 5060.51 3684.47 87.80 7.00  98.42 2663.65
   04:00:02.899.07-Aug-2020 5060.51 3684.57 87.80 7.00  98.62 2663.65
   04:00:03.099.07-Aug-2020 5060.51 3684.51 87.80 7.00  98.82 2663.65
   04:00:03.299.07-Aug-2020 5060.51 3684.56 87.80 7.00  99.02 2663.65
   04:00:03.499.07-Aug-2020 5060.51 3684.56 87.80 7.00  99.22 2663.65
   04:00:03.699.07-Aug-2020 5060.51 3684.62 87.80 7.00  99.42 2663.65
   04:00:03.899.07-Aug-2020 5060.51 3684.52 87.80 7.00  99.62 2663.65
   04:00:04.099.07-Aug-2020 5060.51 3684.57 87.80 7.00  99.82 2663.65
   04:00:04.299.07-Aug-2020 5060.51 3684.54 87.80 7.00 100.02 2663.65
   04:00:04.500.07-Aug-2020 5060.51 3684.54 87.80 7.00 100.22 2663.65
   04:00:04.700.07-Aug-2020 5060.51 3684.53 87.80 7.00 100.42 2663.65
   04:00:04.900.07-Aug-2020 5060.51 3684.56 87.80 7.00 100.62 2663.65
   04:00:05.100.07-Aug-2020 5060.51 3684.50 87.80 7.00 100.82 2663.65
   04:00:05.300.07-Aug-2020 5060.51 3684.56 87.79 7.00 101.02 2663.65
   04:00:05.500.07-Aug-2020 5060.51 3684.56 87.79 7.00 101.22 2663.65
   04:00:05.700.07-Aug-2020 5060.51 3684.54 87.79 7.00 101.42 2663.65
   04:00:05.900.07-Aug-2020 5060.51 3684.40 87.79 7.00 101.62 2663.65
   04:00:06.100.07-Aug-2020 5060.51 3684.60 87.79 7.00 101.82 2663.65
   04:00:06.300.07-Aug-2020 5060.51 3684.51 87.79 7.00 102.02 2663.65
   04:00:06.500.07-Aug-2020 5060.51 3684.51 87.79 7.00 102.22 2663.65
   04:00:06.700.07-Aug-2020 5060.51 3684.53 87.79 7.00 102.42 2663.65
   04:00:06.900.07-Aug-2020 5060.51 3684.53 87.79 7.00 102.62 2663.65
   04:00:07.100.07-Aug-2020 5060.51 3684.53 87.79 7.00 102.82 2663.65
   04:00:07.300.07-Aug-2020 5060.51 3684.52 87.79 7.00 103.02 2663.65
   04:00:07.500.07-Aug-2020 5060.51 3684.52 87.79 7.00 103.22 2663.65
   04:00:07.700.07-Aug-2020 5060.51 3684.52 87.79 7.00 103.42 2663.65
   04:00:07.900.07-Aug-2020 5060.51 3684.53 87.79 7.00 103.62 2663.65
   04:00:08.100.07-Aug-2020 5060.51 3684.51 87.79 7.00 103.82 2663.65
   04:00:08.300.07-Aug-2020 5060.51 3684.52 87.79 7.00 104.02 2663.65
   04:00:08.500.07-Aug-2020 5060.51 3684.52 87.79 7.00 104.22 2663.65
   04:00:08.701.07-Aug-2020 5060.51 3684.46 87.78 7.00 104.42 2663.65
   04:00:08.901.07-Aug-2020 5060.51 3684.54 87.78 7.00 104.62 2663.65
   04:00:09.101.07-Aug-2020 5060.51 3684.50 87.78 7.00 104.82 2663.65
   04:00:09.301.07-Aug-2020 5060.51 3684.53 87.78 7.00 105.02 2663.65
   04:00:09.501.07-Aug-2020 5060.51 3684.53 87.78 7.00 105.22 2663.65
   04:00:09.701.07-Aug-2020 5060.51 3684.51 87.78 7.00 105.42 2663.65
   04:00:09.901.07-Aug-2020 5060.51 3684.51 87.78 7.00 105.62 2663.65
   04:00:10.101.07-Aug-2020 5060.51 3684.49 87.78 7.00 105.82 2663.65
   04:00:10.301.07-Aug-2020 5060.51 3684.52 87.78 7.00 106.02 2663.65
   04:00:10.501.07-Aug-2020 5060.51 3684.52 87.78 7.00 106.23 2663.65
   04:00:10.701.07-Aug-2020 5060.51 3684.51 87.78 7.00 106.43 2663.65
   04:00:10.901.07-Aug-2020 5060.51 3684.49 87.78 7.00 106.63 2663.65
   04:00:11.101.07-Aug-2020 5060.51 3684.50 87.78 7.00 106.83 2663.65
   04:00:11.301.07-Aug-2020 5060.51 3684.41 87.78 7.00 107.03 2663.65
   04:00:11.501.07-Aug-2020 5060.51 3684.41 87.78 7.00 107.23 2663.65
   04:00:11.701.07-Aug-2020 5060.51 3684.48 87.77 7.00 107.43 2663.65
   04:00:11.901.07-Aug-2020 5060.51 3684.50 87.77 7.00 107.63 2663.65
   04:00:12.101.07-Aug-2020 5060.51 3684.46 87.77 7.00 107.83 2663.65
   04:00:12.301.07-Aug-2020 5060.51 3684.46 87.77 7.00 108.03 2663.65
   04:00:12.501.07-Aug-2020 5060.51 3684.46 87.77 7.00 108.23 2663.65
   04:00:12.701.07-Aug-2020 5060.51 3684.48 87.77 7.00 108.43 2663.65
   04:00:12.902.07-Aug-2020 5060.51 3684.52 87.77 7.00 108.63 2663.65
   04:00:13.102.07-Aug-2020 5060.51 3684.48 87.77 7.00 108.83 2663.65
   04:00:13.302.07-Aug-2020 5060.51 3684.39 87.77 7.00 109.03 2663.65
   04:00:13.502.07-Aug-2020 5060.51 3684.39 87.77 7.00 109.23 2663.65
   04:00:13.702.07-Aug-2020 5060.51 3684.49 87.77 7.00 109.43 2663.65
   04:00:13.902.07-Aug-2020 5060.51 3684.51 87.77 7.00 109.63 2663.65
   04:00:14.102.07-Aug-2020 5060.51 3684.50 87.77 7.00 109.83 2663.65
   04:00:14.302.07-Aug-2020 5060.51 3684.47 87.77 7.00 110.03 2663.65
   04:00:14.502.07-Aug-2020 5060.51 3684.47 87.77 7.00 110.23 2663.65
   04:00:14.702.07-Aug-2020 5060.51 3684.45 87.77 7.00 110.43 2663.65
   04:00:14.902.07-Aug-2020 5060.51 3684.53 87.76 7.00 110.63 2663.65
   04:00:15.102.07-Aug-2020 5060.51 3684.45 87.76 7.00 110.83 2663.65
   04:00:15.302.07-Aug-2020 5060.51 3684.51 87.76 7.00 111.03 2663.65
   04:00:15.502.07-Aug-2020 5060.51 3684.51 87.76 7.00 111.23 2663.65
   04:00:15.702.07-Aug-2020 5060.51 3684.50 87.76 7.00 111.43 2663.65
   04:00:15.902.07-Aug-2020 5060.51 3684.47 87.76 7.00 111.63 2663.65
   04:00:16.102.07-Aug-2020 5060.51 3684.49 87.76 7.00 111.83 2663.65
   04:00:16.302.07-Aug-2020 5060.51 3684.47 87.76 7.00 112.03 2663.65
   04:00:16.502.07-Aug-2020 5060.51 3684.47 87.76 7.00 112.23 2663.65
   04:00:16.702.07-Aug-2020 5060.51 3684.47 87.76 7.00 112.43 2663.65
   04:00:16.902.07-Aug-2020 5060.51 3684.47 87.76 7.00 112.63 2663.65
   04:00:17.102.07-Aug-2020 5060.51 3684.46 87.76 7.00 112.83 2663.65
   04:00:17.303.07-Aug-2020 5060.51 3684.39 87.76 7.00 113.03 2663.65
   04:00:17.503.07-Aug-2020 5060.51 3684.39 87.76 7.00 113.23 2663.65
   04:00:17.703.07-Aug-2020 5060.51 3684.46 87.76 7.00 113.43 2663.65
   04:00:17.903.07-Aug-2020 5060.51 3684.48 87.76 7.00 113.63 2663.65
   04:00:18.103.07-Aug-2020 5060.51 3684.47 87.75 7.00 113.83 2663.65
   04:00:18.303.07-Aug-2020 5060.51 3684.46 87.75 7.00 114.03 2663.65
   04:00:18.503.07-Aug-2020 5060.51 3684.46 87.75 7.00 114.23 2663.65
   04:00:18.703.07-Aug-2020 5060.51 3684.47 87.75 7.00 114.43 2663.65
   04:00:18.903.07-Aug-2020 5060.51 3684.46 87.75 7.00 114.63 2663.65
   04:00:19.103.07-Aug-2020 5060.51 3684.47 87.75 7.00 114.83 2663.65
