~Version Information
 VERS.                  2.0:   CWLS log ASCII Standard -VERSION 2.0
 WRAP.                   NO:   One line per depth step
~Well Information Block
#MNEM.UNIT     VALUE/NAME     DESCRIPTION
#---------     -----------    ---------------------------
 STRT.S             20:19:41 06-Aug-20: START TIME 20:19:41 06-Aug-20
 STOP.S             20:27:33 06-Aug-20: STOP TIME  20:27:33 06-Aug-20
 STEP.S                   0.00: STEP TIME
 NULL.                 -999.25: NULL VALUE
 DFWT.                        :  DIST FWL TEXT
 DFST.                        :  DIST FSL TEXT
 DMF .             Drill Floor:  DRILL MEAS FROM
 STIM.      12.00.00 03-Jul-20:  START TIME
 DATE.      00.50.00 09-Aug-20:  END TIME
 SPUD.               03-Jul-20:  SPUD DATE
 NREF.                    Grid:  NORTH REFERENCE
 HPTY.       Minimum Curvature:  HOLE POS TYPE
 DMOD.             Drill Model:  DRILL MOD DESC
 SVYD.                  Survey:  SURVEY DESC
 ILTD.               Lithology:  INTERP LTH DESC
 FTOP.          Formation Tops:  FORM TOPS DESC
 PDAT.          Mean Sea Level:  PERMANENT DATUM
 FLD .                     ACG:  FIELD NAME
 CTRY.              Azerbaijan:  COUNTRY NAME
 WELL.                    E04x:  WELL NAME
 SRVC.          Turan Drilling:  CONTRACTOR
 COMP.     BP Exploration (Caspian Sea) Ltd.:  COMPANY
 SON .        AZ-XX-0906531346:  JOB NUMBER
 WTYP.                Deviated:  WELL TYPE
 MDS .        Operator Entered:  MAG DATA SOURCE
 UWI .                     N/A:  UNIQUE WELL IDENTIFIER
 API .                     N/A:  API NUMBER
 BASE.              Azerbaijan:  LOGGING EQUIPMENT BASE LOCATION
 REGN.                   EESSA:  REGION
 PROV.                    Baku:  PROVINCE
 STAT.                    Baku:  STATE NAME
 MWDS.                    Baku:  MWD SHOP
 JOBN.        AZ-XX-0906531346:  JOB TICKET NUMB
 RIG .                     DWG:  RIG NAME
 DOE .                     N/A:  DOE NUMBER
 DCON.         Sperry Drilling:  DIRECTNL CONTR
 UNIT.                     N/A:  LOGGING EQUIPMENT ID
 CNTY.                        :  COUNTY
 LOC .                        :  LOCATION
 LMF .             Drill Floor:  LOG MEASURED FROM
 TVDS.m                  43.16:  TVDSS CORRECTN
 LATI.deg                40.17:  LATITUDE
 LONG.deg                51.17:  LONGITUDE
 WHNS.m                  -0.12:  WELL HEAD N/S
 WHEW.m                  -5.41:  WELL HEAD E/W
 UTMX.m              514337.95:  UTM X
 UTMY.m             4448627.46:  UTM Y
 DFWL.m                   0.00:  DISTANCE FWL
 DFSL.m                   0.00:  DISTANCE FSL
 SDEP.m                3088.01:  START DEPTH
 TDD .m                5200.01:  TOTAL DEPTH (DRILLER)
 VSDR.deg               244.51:  VERT SEC DIRECT
 GVFD.g                   1.00:  GRAVITY FIELD
 MFLD.nT              50329.80:  MAGNETIC FIELD
 MDIP.deg                59.63:  MAGNETIC DIP
 MDEC.deg                 6.59:  MAGNETIC DECL
 GRDC.deg                 0.09:  GRID CORRECTION
 AZTC.deg                 6.50:  AZM TOTAL CORR
 EPD .m                   0.00:  ELEVATION
 EGL .m                   0.00:  GROUND ELEVATION
 WDMS.m                 176.20:  WD ELEV
 APD .m                  43.16:  DEPTH ABOVE PD
 DEP .m                3084.71:  DEPTH
 AGAP.m                  43.16:  AIR GAP
 VSEW.m                  -5.41:  VERT SEC E/W
 VSNS.m                  -0.12:  VERT SEC N/S
 EKB .m                   0.00:  KB ELEVATION
 EDF .m                  43.16:  DF ELEVATION
 TDL .m                 243.00:  TOTAL DEPTH (LOGGER)
 VSC .                       0:  VS TO CLOSURE
 MAGU.                 1853542:  MAGUTM CHECKSUM
~Parameter Information Block
#MNEM.UNIT       Value        Description
#---------     -----------    ---------------------------
 AV  .mps                 1.91:  Ann Velocity 
 AVMX.mps                 2.52:  Max Ann Veloc 
 AZIF.deg               308.97:  Azm, Final 
 BHAT.        Rotary Steerable:  BHA Type 
 BROT.°/30m               1.00:  Build Rotating 
 BS  .in                  6.50:  Bit Size 
 BSZ .in                  6.50:  Bit Size 
 BTPL.psig              350.00:  Bit Press Loss 
 CABU.                      No:  Customer Abuse 
 CGEO.           Asif Pashayev:  Customer Geo 
 COMM.                     4è‹:  Run Comments 1 
 TCS .hr                 35.86:  Time Ciculation Ended 
 CV  .mps                 2.31:  Crit Velocity 
 CVMX.mps                 2.31:  Max Crit Veloc 
 DD1 .         Intigam Rahimov:  Direct Drillr 1 
 DDSV.               Geo-Pilot:  DD Service 
 DEFF.%                  92.00:  % Det Eff 
 DLRX.°/30m               1.00:  Dogleg Rot Max 
 DLSO.°/30m               1.00:  Dogleg Oriented 
 DLSX.°/30m               1.42:  Dogleg Str Max 
 DRET.      15.50.00 07-Aug-20:  Drill End Time 
 DRST.      10.40.00 06-Aug-20:  Drill Start Tim 
 DTIM.hr                 21.30:  Time Drilling 
 EDEP.m                5200.01:  End Depth 
 ENG1.            Alan Tuganov:  Engineer 1 
 ENG2.         Almaz Almadatov:  Engineer 2 
 ENG3.     Zammelal Abdullah Sani:  Engineer 3 
 ETIM.      22.42.00 08-Aug-20:  End Time 
 FLOI.gpm               395.00:  Flow In 
 FLON.gpm               350.00:  Flow In Min 
 FLOS.cptm                0.00:  Fluid Loss 
 FLOX.gpm               404.00:  Flow In Max 
 FTRO.       Formation Presure:  FTWD Run Obj 
 HFLO.                      No:  High Flow 
 HPRE.                      No:  High Pressure 
 HTEM.                      No:  High Temp 
 HYDO.m                   1.80:  Hydro Offset 
 IFIN.deg                72.64:  Inc, Final 
 IMAX.deg                73.68:  Inc Max 
 IMIN.deg                72.64:  Inc Min 
 IMND.m                5189.69:  Inc Min Depth 
 IMXD.m                5067.88:  Inc Max Depth 
 JARR.                      No:  Jarring 
 LETM.      15.50.00 07-Aug-20:  Log End Time 
 LOST.hr                     0:  Lost Rig Time 
 LSTM.      10.40.00 06-Aug-20:  Log Start Time 
 MDCL.ppm             36000.00:  Mud Chlorides 
 MDES.     Inversion Oil/Synthetic:  Mud Desc 
 DFD .sg                  1.36:  Mud Density 
 MDMN.sg                  1.36:  Dens Mud Min 
 MDMX.sg                  1.36:  Dens Mud Max 
 MOIL.                      70:  Run Mud Oil % 
 MOWR.                   70:30:  Run Mud OWR 
 MSND.                    0.00:  Run Mud Sand % 
 MSOL.                   17.60:  Run Mud Solids% 
 DFV .spqt               73.00:  Mud Viscosity 
 MWOD.in                  4.75:  MWD Tool OD 
 MWSI.                      No:  Serv Intrp, MWD 
 OTIM.hr                 85.66:  Time Operating 
 PCON.           Look Like New:  Pad Condition 
 PMAX.psia             6250.00:  Press Op, Max 
 PV  .cP                 65.00:  Mud PV 
 RUN .                     900:  Run Number 
 ROPA.m/hr               11.40:  ROP Avg 
 ROPN.m/hr                5.00:  ROP Min 
 ROPX.m/hr               20.00:  ROP Max 
 RPMA.rpm               130.00:  RPM Surface Avg 
 RPMN.rpm                40.00:  RPM Surface Min 
 RPMX.rpm               140.00:  RPM Surface Max 
 RRUN.                    L205:  Rig Run Number 
 RTIM.hr                  1.00:  Time Reaming 
 SAZI.deg               313.52:  Azm, Start 
 SDEP.m                4957.01:  Start Depth 
 SIDD.                      No:  Serv Intrp, DD 
 SINC.deg                73.16:  Inc, Start 
 SPPA.psig             5657.00:  SPP Avg 
 SPPN.psig             2500.00:  SPP Min 
 SPPX.psig             5806.00:  SPP Max 
 STIM.      07.12.00 05-Aug-20:  Start Time 
 SVCS.                 DD, MWD:  Services 
 SVER.                    9.20:  Sperry Version 
 TDAT.m                 243.00:  Tot Depth Attmp 
 TDDF.                      No:  Trip for DD 
 TDLG.m                 243.00:  Tot Depth Loggd 
 TFF .                      No:  Trip for Fail 
 TQAA.f-kp               13.00:  Torque Abs Avg 
 TQAN.f-kp               11.00:  Torque Abs Min 
 TQAX.f-kp               16.00:  Torque Abs Max 
 TRRT.°/30m               1.00:  Turn Rotating 
 MRT .                    HCIM:  Maximum Recorded Temperature 
 TTMX.degC               96.08:  Max Tool Temp 
 VS01.                90515411:  Virtual Str1 SN 
 VS02.                90512716:  Virtual Str2 SN 
 VS03.                90522362:  Virtual Str3 SN 
 VS04.                90619415:  Virtual Str4 SN 
 VS05.                90619414:  Virtual Str5 SN 
 VS06.                90597748:  Virtual Str6 SN 
 WBMN.klb                 2.00:  WOB Min 
 WITN.           Adil Mammadov:  Customer Rep 
 WITN.     Alexander Yadullayev:  Customer Rep 2 
 WOBA.klb                 7.00:  WOB Avg 
 WOBX.klb                23.00:  WOB Max 
 YP  .lhf2               37.00:  Yield Point 
~Curve Information Block
#MNEM.UNIT                 API CODE     Curve Description
#---------               -----------    ---------------------------
 TIME.HHMMSS            00 000 000 000:  GT Time & Date
 GTDEPTH.m              00 000 000 000:  GT Depth
 GTPQH.psia             00 000 000 000:  GT HR Quartz Pressure
 GTTQ.degC              00 000 000 000:  GT Quartz Temperature
 GTTN.NONE              00 000 000 000:  GT Test Number
 GTET.sec               00 000 000 000:  GT Elapsed Test Time
 GTTVD.m                00 000 000 000:  GT True Vertical Depth
#Other Information
#
#WARRANTY: Halliburton will use its best efforts to furnish customers with 
#accurate information and interpretations that are part of, and incident to, the services 
#provided.  However, Halliburton cannot and does not warrant the accuracy 
#or correctness of such information and interpretations.  Under no circumstances should any 
#such information or interpretation be relied upon as the sole basis for any drilling, 
#completion, production, or financial decision or any procedure involving any risk to the 
#safety of any drilling venture, drilling rig or its crew or any other third party.  The 
#Customer has full responsibility for all drilling, completion and production operation.  
#Halliburton makes no representations or warranties, either expressed or 
#implied, including, but not limited to, the implied warranties of merchantability or fitness 
#for a particular purpose, with respect to the services rendered.  In no event will 
#Halliburton be liable for failure to obtain any particular results or for 
#any damages, including, but not limited to, indirect, special or consequential damages, 
#resulting from the use of any information or interpretation provided by Halliburton.
#
~A           TIME           GTDEPTH  GTPQH  GTTQ  GTTN  GTET   GTTVD  
# ...
   20:22:22.408.06-Aug-2020 4993.01 3487.12 82.90 3.00 161.06 2644.18
   20:22:22.608.06-Aug-2020 4993.01 3487.12 82.90 3.00 161.26 2644.18
   20:22:22.808.06-Aug-2020 4993.01 3487.09 82.90 3.00 161.46 2644.18
   20:22:23.008.06-Aug-2020 4993.01 3487.09 82.90 3.00 161.66 2644.18
   20:22:23.208.06-Aug-2020 4993.01 3487.09 82.90 3.00 161.86 2644.18
   20:22:23.408.06-Aug-2020 4993.01 3487.08 82.90 3.00 162.06 2644.18
   20:22:23.608.06-Aug-2020 4993.01 3487.08 82.90 3.00 162.26 2644.18
   20:22:23.808.06-Aug-2020 4993.01 3463.02 82.90 3.00 162.46 2644.18
   20:22:24.008.06-Aug-2020 4993.01 3440.33 82.90 3.00 162.66 2644.18
   20:22:24.209.06-Aug-2020 4993.01 3440.86 82.90 3.00 162.86 2644.18
   20:22:24.409.06-Aug-2020 4993.01 3440.96 82.90 3.00 163.06 2644.18
   20:22:24.609.06-Aug-2020 4993.01 3440.96 82.90 3.00 163.26 2644.18
   20:22:24.809.06-Aug-2020 4993.01 3440.17 82.89 3.00 163.46 2644.18
   20:22:25.009.06-Aug-2020 4993.01 3440.47 82.89 3.00 163.66 2644.18
   20:22:25.209.06-Aug-2020 4993.01 3439.53 82.89 3.00 163.86 2644.18
   20:22:25.409.06-Aug-2020 4993.01 3439.47 82.89 3.00 164.06 2644.18
   20:22:25.609.06-Aug-2020 4993.01 3439.47 82.89 3.00 164.26 2644.18
   20:22:25.809.06-Aug-2020 4993.01 3440.33 82.89 3.00 164.46 2644.18
   20:22:26.009.06-Aug-2020 4993.01 3440.54 82.89 3.00 164.66 2644.18
   20:22:26.209.06-Aug-2020 4993.01 3439.27 82.89 3.00 164.86 2644.18
   20:22:26.409.06-Aug-2020 4993.01 3440.50 82.89 3.00 165.06 2644.18
   20:22:26.609.06-Aug-2020 4993.01 3440.50 82.89 3.00 165.26 2644.18
   20:22:26.810.06-Aug-2020 4993.01 3439.70 82.89 3.00 165.46 2644.18
   20:22:27.010.06-Aug-2020 4993.01 3440.03 82.89 3.00 165.66 2644.18
   20:22:27.210.06-Aug-2020 4993.01 3440.42 82.89 3.00 165.86 2644.18
   20:22:27.410.06-Aug-2020 4993.01 3441.15 82.89 3.00 166.06 2644.18
   20:22:27.610.06-Aug-2020 4993.01 3441.15 82.89 3.00 166.26 2644.18
   20:22:27.810.06-Aug-2020 4993.01 3440.21 82.89 3.00 166.46 2644.18
   20:22:28.010.06-Aug-2020 4993.01 3440.46 82.89 3.00 166.66 2644.18
   20:22:28.210.06-Aug-2020 4993.01 3440.42 82.89 3.00 166.86 2644.18
   20:22:28.410.06-Aug-2020 4993.01 3439.71 82.89 3.00 167.06 2644.18
   20:22:28.610.06-Aug-2020 4993.01 3439.71 82.89 3.00 167.26 2644.18
   20:22:28.810.06-Aug-2020 4993.01 3440.21 82.88 3.00 167.46 2644.18
   20:22:29.010.06-Aug-2020 4993.01 3440.43 82.88 3.00 167.66 2644.18
   20:22:29.210.06-Aug-2020 4993.01 3440.30 82.88 3.00 167.86 2644.18
   20:22:29.411.06-Aug-2020 4993.01 3439.84 82.88 3.00 168.06 2644.18
   20:22:29.611.06-Aug-2020 4993.01 3439.84 82.88 3.00 168.26 2644.18
   20:22:29.811.06-Aug-2020 4993.01 3440.02 82.88 3.00 168.46 2644.18
   20:22:30.011.06-Aug-2020 4993.01 3440.84 82.88 3.00 168.66 2644.18
   20:22:30.211.06-Aug-2020 4993.01 3439.92 82.88 3.00 168.86 2644.18
   20:22:30.411.06-Aug-2020 4993.01 3440.44 82.88 3.00 169.06 2644.18
   20:22:30.611.06-Aug-2020 4993.01 3440.44 82.88 3.00 169.26 2644.18
   20:22:30.811.06-Aug-2020 4993.01 3439.85 82.88 3.00 169.46 2644.18
   20:22:31.011.06-Aug-2020 4993.01 3439.99 82.88 3.00 169.66 2644.18
   20:22:31.211.06-Aug-2020 4993.01 3439.99 82.88 3.00 169.86 2644.18
   20:22:31.411.06-Aug-2020 4993.01 3439.92 82.88 3.00 170.07 2644.18
   20:22:31.611.06-Aug-2020 4993.01 3439.92 82.88 3.00 170.27 2644.18
   20:22:31.811.06-Aug-2020 4993.01 3440.13 82.88 3.00 170.47 2644.18
   20:22:32.012.06-Aug-2020 4993.01 3439.95 82.88 3.00 170.67 2644.18
   20:22:32.212.06-Aug-2020 4993.01 3439.99 82.88 3.00 170.87 2644.18
   20:22:32.412.06-Aug-2020 4993.01 3438.84 82.88 3.00 171.07 2644.18
   20:22:32.612.06-Aug-2020 4993.01 3438.84 82.88 3.00 171.27 2644.18
   20:22:32.812.06-Aug-2020 4993.01 3441.08 82.87 3.00 171.47 2644.18
   20:22:33.012.06-Aug-2020 4993.01 3440.34 82.87 3.00 171.67 2644.18
   20:22:33.212.06-Aug-2020 4993.01 3440.39 82.87 3.00 171.87 2644.18
   20:22:33.412.06-Aug-2020 4993.01 3439.01 82.87 3.00 172.07 2644.18
   20:22:33.612.06-Aug-2020 4993.01 3439.01 82.87 3.00 172.27 2644.18
   20:22:33.812.06-Aug-2020 4993.01 3440.61 82.87 3.00 172.47 2644.18
   20:22:34.012.06-Aug-2020 4993.01 3476.74 82.87 3.00 172.67 2644.18
   20:22:34.212.06-Aug-2020 4993.01 3486.70 82.87 3.00 172.87 2644.18
   20:22:34.412.06-Aug-2020 4993.01 3486.58 82.87 3.00 173.07 2644.18
   20:22:34.613.06-Aug-2020 4993.01 3486.58 82.87 3.00 173.27 2644.18
   20:22:34.813.06-Aug-2020 4993.01 3486.75 82.87 3.00 173.47 2644.18
   20:22:35.013.06-Aug-2020 4993.01 3486.90 82.87 3.00 173.67 2644.18
   20:22:35.213.06-Aug-2020 4993.01 3486.71 82.87 3.00 173.87 2644.18
   20:22:35.413.06-Aug-2020 4993.01 3487.06 82.87 3.00 174.07 2644.18
   20:22:35.613.06-Aug-2020 4993.01 3487.06 82.87 3.00 174.27 2644.18
   20:22:35.813.06-Aug-2020 4993.01 3486.96 82.87 3.00 174.47 2644.18
   20:22:36.013.06-Aug-2020 4993.01 3486.93 82.87 3.00 174.67 2644.18
   20:22:36.213.06-Aug-2020 4993.01 3486.96 82.87 3.00 174.87 2644.18
   20:22:36.413.06-Aug-2020 4993.01 3486.92 82.87 3.00 175.07 2644.18
   20:22:36.613.06-Aug-2020 4993.01 3486.92 82.87 3.00 175.27 2644.18
   20:22:36.813.06-Aug-2020 4993.01 3486.92 82.87 3.00 175.47 2644.18
   20:22:37.013.06-Aug-2020 4993.01 3486.97 82.86 3.00 175.67 2644.18
   20:22:37.214.06-Aug-2020 4993.01 3486.93 82.86 3.00 175.87 2644.18
   20:22:37.414.06-Aug-2020 4993.01 3486.97 82.86 3.00 176.07 2644.18
   20:22:37.614.06-Aug-2020 4993.01 3486.97 82.86 3.00 176.27 2644.18
   20:22:37.814.06-Aug-2020 4993.01 3486.95 82.86 3.00 176.47 2644.18
   20:22:38.014.06-Aug-2020 4993.01 3486.84 82.86 3.00 176.67 2644.18
   20:22:38.214.06-Aug-2020 4993.01 3487.00 82.86 3.00 176.87 2644.18
   20:22:38.414.06-Aug-2020 4993.01 3487.07 82.86 3.00 177.07 2644.18
   20:22:38.614.06-Aug-2020 4993.01 3487.07 82.86 3.00 177.27 2644.18
   20:22:38.814.06-Aug-2020 4993.01 3487.00 82.86 3.00 177.47 2644.18
   20:22:39.014.06-Aug-2020 4993.01 3486.99 82.86 3.00 177.67 2644.18
   20:22:39.214.06-Aug-2020 4993.01 3486.99 82.86 3.00 177.87 2644.18
   20:22:39.414.06-Aug-2020 4993.01 3486.98 82.86 3.00 178.07 2644.18
   20:22:39.614.06-Aug-2020 4993.01 3486.98 82.86 3.00 178.27 2644.18
   20:22:39.815.06-Aug-2020 4993.01 3486.96 82.86 3.00 178.47 2644.18
   20:22:40.015.06-Aug-2020 4993.01 3487.02 82.86 3.00 178.67 2644.18
   20:22:40.215.06-Aug-2020 4993.01 3486.95 82.86 3.00 178.87 2644.18
   20:22:40.415.06-Aug-2020 4993.01 3487.00 82.86 3.00 179.07 2644.18
   20:22:40.615.06-Aug-2020 4993.01 3487.00 82.86 3.00 179.27 2644.18
   20:22:40.815.06-Aug-2020 4993.01 3487.05 82.86 3.00 179.47 2644.18
   20:22:41.015.06-Aug-2020 4993.01 3486.93 82.86 3.00 179.67 2644.18
   20:22:41.215.06-Aug-2020 4993.01 3487.07 82.85 3.00 179.87 2644.18
   20:22:41.415.06-Aug-2020 4993.01 3486.99 82.85 3.00 180.07 2644.18
   20:22:41.615.06-Aug-2020 4993.01 3486.99 82.85 3.00 180.27 2644.18
   20:22:41.815.06-Aug-2020 4993.01 3487.09 82.85 3.00 180.47 2644.18
   20:22:42.015.06-Aug-2020 4993.01 3486.96 82.85 3.00 180.67 2644.18
   20:22:42.215.06-Aug-2020 4993.01 3487.04 82.85 3.00 180.87 2644.18
   20:22:42.415.06-Aug-2020 4993.01 3487.05 82.85 3.00 181.07 2644.18
   20:22:42.616.06-Aug-2020 4993.01 3487.05 82.85 3.00 181.27 2644.18
   20:22:42.816.06-Aug-2020 4993.01 3486.84 82.85 3.00 181.47 2644.18
   20:22:43.016.06-Aug-2020 4993.01 3487.13 82.85 3.00 181.67 2644.18
   20:22:43.216.06-Aug-2020 4993.01 3487.02 82.85 3.00 181.87 2644.18
   20:22:43.416.06-Aug-2020 4993.01 3487.00 82.85 3.00 182.07 2644.18
   20:22:43.616.06-Aug-2020 4993.01 3487.00 82.85 3.00 182.27 2644.18
   20:22:43.816.06-Aug-2020 4993.01 3486.89 82.85 3.00 182.47 2644.18
   20:22:44.016.06-Aug-2020 4993.01 3487.15 82.85 3.00 182.67 2644.18
   20:22:44.216.06-Aug-2020 4993.01 3486.97 82.85 3.00 182.87 2644.18
   20:22:44.416.06-Aug-2020 4993.01 3486.98 82.85 3.00 183.07 2644.18
   20:22:44.616.06-Aug-2020 4993.01 3486.98 82.85 3.00 183.27 2644.18
   20:22:44.816.06-Aug-2020 4993.01 3486.98 82.85 3.00 183.47 2644.18
   20:22:45.016.06-Aug-2020 4993.01 3487.04 82.85 3.00 183.67 2644.18
   20:22:45.217.06-Aug-2020 4993.01 3487.00 82.85 3.00 183.87 2644.18
