~Version Information
 VERS.                  2.0:   CWLS log ASCII Standard -VERSION 2.0
 WRAP.                   NO:   One line per depth step
~Well Information Block
#MNEM.UNIT     VALUE/NAME     DESCRIPTION
#---------     -----------    ---------------------------
 STRT.S             00:43:02 07-Aug-20: START TIME 00:43:02 07-Aug-20
 STOP.S             00:50:54 07-Aug-20: STOP TIME  00:50:54 07-Aug-20
 STEP.S                   0.00: STEP TIME
 NULL.                 -999.25: NULL VALUE
 DFWT.                        :  DIST FWL TEXT
 DFST.                        :  DIST FSL TEXT
 DMF .             Drill Floor:  DRILL MEAS FROM
 STIM.      12.00.00 03-Jul-20:  START TIME
 DATE.      00.50.00 09-Aug-20:  END TIME
 SPUD.               03-Jul-20:  SPUD DATE
 NREF.                    Grid:  NORTH REFERENCE
 HPTY.       Minimum Curvature:  HOLE POS TYPE
 DMOD.             Drill Model:  DRILL MOD DESC
 SVYD.                  Survey:  SURVEY DESC
 ILTD.               Lithology:  INTERP LTH DESC
 FTOP.          Formation Tops:  FORM TOPS DESC
 PDAT.          Mean Sea Level:  PERMANENT DATUM
 FLD .                     ACG:  FIELD NAME
 CTRY.              Azerbaijan:  COUNTRY NAME
 WELL.                    E04x:  WELL NAME
 SRVC.          Turan Drilling:  CONTRACTOR
 COMP.     BP Exploration (Caspian Sea) Ltd.:  COMPANY
 SON .        AZ-XX-0906531346:  JOB NUMBER
 WTYP.                Deviated:  WELL TYPE
 MDS .        Operator Entered:  MAG DATA SOURCE
 UWI .                     N/A:  UNIQUE WELL IDENTIFIER
 API .                     N/A:  API NUMBER
 BASE.              Azerbaijan:  LOGGING EQUIPMENT BASE LOCATION
 REGN.                   EESSA:  REGION
 PROV.                    Baku:  PROVINCE
 STAT.                    Baku:  STATE NAME
 MWDS.                    Baku:  MWD SHOP
 JOBN.        AZ-XX-0906531346:  JOB TICKET NUMB
 RIG .                     DWG:  RIG NAME
 DOE .                     N/A:  DOE NUMBER
 DCON.         Sperry Drilling:  DIRECTNL CONTR
 UNIT.                     N/A:  LOGGING EQUIPMENT ID
 CNTY.                        :  COUNTY
 LOC .                        :  LOCATION
 LMF .             Drill Floor:  LOG MEASURED FROM
 TVDS.m                  43.16:  TVDSS CORRECTN
 LATI.deg                40.17:  LATITUDE
 LONG.deg                51.17:  LONGITUDE
 WHNS.m                  -0.12:  WELL HEAD N/S
 WHEW.m                  -5.41:  WELL HEAD E/W
 UTMX.m              514337.95:  UTM X
 UTMY.m             4448627.46:  UTM Y
 DFWL.m                   0.00:  DISTANCE FWL
 DFSL.m                   0.00:  DISTANCE FSL
 SDEP.m                3088.01:  START DEPTH
 TDD .m                5200.01:  TOTAL DEPTH (DRILLER)
 VSDR.deg               244.51:  VERT SEC DIRECT
 GVFD.g                   1.00:  GRAVITY FIELD
 MFLD.nT              50329.80:  MAGNETIC FIELD
 MDIP.deg                59.63:  MAGNETIC DIP
 MDEC.deg                 6.59:  MAGNETIC DECL
 GRDC.deg                 0.09:  GRID CORRECTION
 AZTC.deg                 6.50:  AZM TOTAL CORR
 EPD .m                   0.00:  ELEVATION
 EGL .m                   0.00:  GROUND ELEVATION
 WDMS.m                 176.20:  WD ELEV
 APD .m                  43.16:  DEPTH ABOVE PD
 DEP .m                3084.71:  DEPTH
 AGAP.m                  43.16:  AIR GAP
 VSEW.m                  -5.41:  VERT SEC E/W
 VSNS.m                  -0.12:  VERT SEC N/S
 EKB .m                   0.00:  KB ELEVATION
 EDF .m                  43.16:  DF ELEVATION
 TDL .m                 243.00:  TOTAL DEPTH (LOGGER)
 VSC .                       0:  VS TO CLOSURE
 MAGU.                 1853542:  MAGUTM CHECKSUM
~Parameter Information Block
#MNEM.UNIT       Value        Description
#---------     -----------    ---------------------------
 AV  .mps                 1.91:  Ann Velocity 
 AVMX.mps                 2.52:  Max Ann Veloc 
 AZIF.deg               308.97:  Azm, Final 
 BHAT.        Rotary Steerable:  BHA Type 
 BROT.°/30m               1.00:  Build Rotating 
 BS  .in                  6.50:  Bit Size 
 BSZ .in                  6.50:  Bit Size 
 BTPL.psig              350.00:  Bit Press Loss 
 CABU.                      No:  Customer Abuse 
 CGEO.           Asif Pashayev:  Customer Geo 
 COMM.                     ´è„:  Run Comments 1 
 TCS .hr                 35.86:  Time Ciculation Ended 
 CV  .mps                 2.31:  Crit Velocity 
 CVMX.mps                 2.31:  Max Crit Veloc 
 DD1 .         Intigam Rahimov:  Direct Drillr 1 
 DDSV.               Geo-Pilot:  DD Service 
 DEFF.%                  92.00:  % Det Eff 
 DLRX.°/30m               1.00:  Dogleg Rot Max 
 DLSO.°/30m               1.00:  Dogleg Oriented 
 DLSX.°/30m               1.42:  Dogleg Str Max 
 DRET.      15.50.00 07-Aug-20:  Drill End Time 
 DRST.      10.40.00 06-Aug-20:  Drill Start Tim 
 DTIM.hr                 21.30:  Time Drilling 
 EDEP.m                5200.01:  End Depth 
 ENG1.            Alan Tuganov:  Engineer 1 
 ENG2.         Almaz Almadatov:  Engineer 2 
 ENG3.     Zammelal Abdullah Sani:  Engineer 3 
 ETIM.      22.42.00 08-Aug-20:  End Time 
 FLOI.gpm               395.00:  Flow In 
 FLON.gpm               350.00:  Flow In Min 
 FLOS.cptm                0.00:  Fluid Loss 
 FLOX.gpm               404.00:  Flow In Max 
 FTRO.       Formation Presure:  FTWD Run Obj 
 HFLO.                      No:  High Flow 
 HPRE.                      No:  High Pressure 
 HTEM.                      No:  High Temp 
 HYDO.m                   1.80:  Hydro Offset 
 IFIN.deg                72.64:  Inc, Final 
 IMAX.deg                73.68:  Inc Max 
 IMIN.deg                72.64:  Inc Min 
 IMND.m                5189.69:  Inc Min Depth 
 IMXD.m                5067.88:  Inc Max Depth 
 JARR.                      No:  Jarring 
 LETM.      15.50.00 07-Aug-20:  Log End Time 
 LOST.hr                     0:  Lost Rig Time 
 LSTM.      10.40.00 06-Aug-20:  Log Start Time 
 MDCL.ppm             36000.00:  Mud Chlorides 
 MDES.     Inversion Oil/Synthetic:  Mud Desc 
 DFD .sg                  1.36:  Mud Density 
 MDMN.sg                  1.36:  Dens Mud Min 
 MDMX.sg                  1.36:  Dens Mud Max 
 MOIL.                      70:  Run Mud Oil % 
 MOWR.                   70:30:  Run Mud OWR 
 MSND.                    0.00:  Run Mud Sand % 
 MSOL.                   17.60:  Run Mud Solids% 
 DFV .spqt               73.00:  Mud Viscosity 
 MWOD.in                  4.75:  MWD Tool OD 
 MWSI.                      No:  Serv Intrp, MWD 
 OTIM.hr                 85.66:  Time Operating 
 PCON.           Look Like New:  Pad Condition 
 PMAX.psia             6250.00:  Press Op, Max 
 PV  .cP                 65.00:  Mud PV 
 RUN .                     900:  Run Number 
 ROPA.m/hr               11.40:  ROP Avg 
 ROPN.m/hr                5.00:  ROP Min 
 ROPX.m/hr               20.00:  ROP Max 
 RPMA.rpm               130.00:  RPM Surface Avg 
 RPMN.rpm                40.00:  RPM Surface Min 
 RPMX.rpm               140.00:  RPM Surface Max 
 RRUN.                    L205:  Rig Run Number 
 RTIM.hr                  1.00:  Time Reaming 
 SAZI.deg               313.52:  Azm, Start 
 SDEP.m                4957.01:  Start Depth 
 SIDD.                      No:  Serv Intrp, DD 
 SINC.deg                73.16:  Inc, Start 
 SPPA.psig             5657.00:  SPP Avg 
 SPPN.psig             2500.00:  SPP Min 
 SPPX.psig             5806.00:  SPP Max 
 STIM.      07.12.00 05-Aug-20:  Start Time 
 SVCS.                 DD, MWD:  Services 
 SVER.                    9.20:  Sperry Version 
 TDAT.m                 243.00:  Tot Depth Attmp 
 TDDF.                      No:  Trip for DD 
 TDLG.m                 243.00:  Tot Depth Loggd 
 TFF .                      No:  Trip for Fail 
 TQAA.f-kp               13.00:  Torque Abs Avg 
 TQAN.f-kp               11.00:  Torque Abs Min 
 TQAX.f-kp               16.00:  Torque Abs Max 
 TRRT.°/30m               1.00:  Turn Rotating 
 MRT .                    HCIM:  Maximum Recorded Temperature 
 TTMX.degC               96.08:  Max Tool Temp 
 VS01.                90515411:  Virtual Str1 SN 
 VS02.                90512716:  Virtual Str2 SN 
 VS03.                90522362:  Virtual Str3 SN 
 VS04.                90619415:  Virtual Str4 SN 
 VS05.                90619414:  Virtual Str5 SN 
 VS06.                90597748:  Virtual Str6 SN 
 WBMN.klb                 2.00:  WOB Min 
 WITN.           Adil Mammadov:  Customer Rep 
 WITN.     Alexander Yadullayev:  Customer Rep 2 
 WOBA.klb                 7.00:  WOB Avg 
 WOBX.klb                23.00:  WOB Max 
 YP  .lhf2               37.00:  Yield Point 
~Curve Information Block
#MNEM.UNIT                 API CODE     Curve Description
#---------               -----------    ---------------------------
 TIME.HHMMSS            00 000 000 000:  GT Time & Date
 GTDEPTH.m              00 000 000 000:  GT Depth
 GTPQH.psia             00 000 000 000:  GT HR Quartz Pressure
 GTTQ.degC              00 000 000 000:  GT Quartz Temperature
 GTTN.NONE              00 000 000 000:  GT Test Number
 GTET.sec               00 000 000 000:  GT Elapsed Test Time
 GTTVD.m                00 000 000 000:  GT True Vertical Depth
#Other Information
#
#WARRANTY: Halliburton will use its best efforts to furnish customers with 
#accurate information and interpretations that are part of, and incident to, the services 
#provided.  However, Halliburton cannot and does not warrant the accuracy 
#or correctness of such information and interpretations.  Under no circumstances should any 
#such information or interpretation be relied upon as the sole basis for any drilling, 
#completion, production, or financial decision or any procedure involving any risk to the 
#safety of any drilling venture, drilling rig or its crew or any other third party.  The 
#Customer has full responsibility for all drilling, completion and production operation.  
#Halliburton makes no representations or warranties, either expressed or 
#implied, including, but not limited to, the implied warranties of merchantability or fitness 
#for a particular purpose, with respect to the services rendered.  In no event will 
#Halliburton be liable for failure to obtain any particular results or for 
#any damages, including, but not limited to, indirect, special or consequential damages, 
#resulting from the use of any information or interpretation provided by Halliburton.
#
~A           TIME           GTDEPTH  GTPQH  GTTQ  GTTN  GTET   GTTVD  
# ...
   00:46:06.560.07-Aug-2020 5032.01 3673.71 86.37 5.00 184.04 2655.40
   00:46:06.760.07-Aug-2020 5032.01 3673.78 86.37 5.00 184.24 2655.40
   00:46:06.960.07-Aug-2020 5032.01 3673.75 86.37 5.00 184.44 2655.40
   00:46:07.160.07-Aug-2020 5032.01 3673.68 86.37 5.00 184.64 2655.40
   00:46:07.360.07-Aug-2020 5032.01 3673.81 86.37 5.00 184.84 2655.40
   00:46:07.560.07-Aug-2020 5032.01 3673.72 86.37 5.00 185.04 2655.40
   00:46:07.760.07-Aug-2020 5032.01 3673.72 86.37 5.00 185.24 2655.40
   00:46:07.960.07-Aug-2020 5032.01 3673.73 86.37 5.00 185.44 2655.40
   00:46:08.160.07-Aug-2020 5032.01 3673.76 86.37 5.00 185.64 2655.40
   00:46:08.360.07-Aug-2020 5032.01 3673.76 86.37 5.00 185.84 2655.40
   00:46:08.560.07-Aug-2020 5032.01 3673.74 86.36 5.00 186.04 2655.40
   00:46:08.760.07-Aug-2020 5032.01 3673.74 86.36 5.00 186.24 2655.40
   00:46:08.960.07-Aug-2020 5032.01 3673.74 86.36 5.00 186.44 2655.40
   00:46:09.161.07-Aug-2020 5032.01 3673.75 86.36 5.00 186.64 2655.40
   00:46:09.361.07-Aug-2020 5032.01 3673.73 86.36 5.00 186.84 2655.40
   00:46:09.561.07-Aug-2020 5032.01 3673.74 86.36 5.00 187.04 2655.40
   00:46:09.761.07-Aug-2020 5032.01 3673.74 86.36 5.00 187.24 2655.40
   00:46:09.961.07-Aug-2020 5032.01 3673.64 86.36 5.00 187.44 2655.40
   00:46:10.161.07-Aug-2020 5032.01 3673.84 86.36 5.00 187.64 2655.40
   00:46:10.361.07-Aug-2020 5032.01 3673.72 86.36 5.00 187.84 2655.40
   00:46:10.561.07-Aug-2020 5032.01 3673.77 86.36 5.00 188.04 2655.40
   00:46:10.761.07-Aug-2020 5032.01 3673.73 86.36 5.00 188.24 2655.40
   00:46:10.961.07-Aug-2020 5032.01 3673.75 86.36 5.00 188.44 2655.40
   00:46:11.161.07-Aug-2020 5032.01 3673.74 86.36 5.00 188.64 2655.40
   00:46:11.361.07-Aug-2020 5032.01 3673.75 86.36 5.00 188.84 2655.40
   00:46:11.561.07-Aug-2020 5032.01 3673.73 86.36 5.00 189.04 2655.40
   00:46:11.761.07-Aug-2020 5032.01 3673.73 86.36 5.00 189.24 2655.40
   00:46:11.961.07-Aug-2020 5032.01 3673.73 86.36 5.00 189.44 2655.40
   00:46:12.161.07-Aug-2020 5032.01 3673.74 86.36 5.00 189.64 2655.40
   00:46:12.361.07-Aug-2020 5032.01 3673.72 86.35 5.00 189.84 2655.40
   00:46:12.561.07-Aug-2020 5032.01 3673.69 86.35 5.00 190.04 2655.40
   00:46:12.761.07-Aug-2020 5032.01 3673.69 86.35 5.00 190.24 2655.40
   00:46:12.961.07-Aug-2020 5032.01 3673.69 86.35 5.00 190.44 2655.40
   00:46:13.161.07-Aug-2020 5032.01 3673.78 86.35 5.00 190.64 2655.40
   00:46:13.361.07-Aug-2020 5032.01 3673.67 86.35 5.00 190.84 2655.40
   00:46:13.562.07-Aug-2020 5032.01 3673.81 86.35 5.00 191.04 2655.40
   00:46:13.762.07-Aug-2020 5032.01 3673.81 86.35 5.00 191.25 2655.40
   00:46:13.962.07-Aug-2020 5032.01 3673.78 86.35 5.00 191.45 2655.40
   00:46:14.162.07-Aug-2020 5032.01 3673.73 86.35 5.00 191.65 2655.40
   00:46:14.362.07-Aug-2020 5032.01 3673.75 86.35 5.00 191.85 2655.40
   00:46:14.562.07-Aug-2020 5032.01 3673.70 86.35 5.00 192.05 2655.40
   00:46:14.762.07-Aug-2020 5032.01 3673.78 86.35 5.00 192.25 2655.40
   00:46:14.962.07-Aug-2020 5032.01 3673.68 86.35 5.00 192.45 2655.40
   00:46:15.162.07-Aug-2020 5032.01 3673.79 86.35 5.00 192.65 2655.40
   00:46:15.362.07-Aug-2020 5032.01 3673.72 86.35 5.00 192.85 2655.40
   00:46:15.562.07-Aug-2020 5032.01 3673.74 86.35 5.00 193.05 2655.40
   00:46:15.762.07-Aug-2020 5032.01 3673.74 86.35 5.00 193.25 2655.40
   00:46:15.962.07-Aug-2020 5032.01 3673.71 86.35 5.00 193.45 2655.40
   00:46:16.162.07-Aug-2020 5032.01 3673.77 86.34 5.00 193.65 2655.40
   00:46:16.362.07-Aug-2020 5032.01 3673.74 86.34 5.00 193.85 2655.40
   00:46:16.562.07-Aug-2020 5032.01 3673.75 86.34 5.00 194.05 2655.40
   00:46:16.762.07-Aug-2020 5032.01 3673.75 86.34 5.00 194.25 2655.40
   00:46:16.962.07-Aug-2020 5032.01 3673.74 86.34 5.00 194.45 2655.40
   00:46:17.162.07-Aug-2020 5032.01 3673.74 86.34 5.00 194.65 2655.40
   00:46:17.362.07-Aug-2020 5032.01 3673.72 86.34 5.00 194.85 2655.40
   00:46:17.562.07-Aug-2020 5032.01 3673.73 86.34 5.00 195.05 2655.40
   00:46:17.763.07-Aug-2020 5032.01 3673.73 86.34 5.00 195.25 2655.40
   00:46:17.963.07-Aug-2020 5032.01 3673.74 86.34 5.00 195.45 2655.40
   00:46:18.163.07-Aug-2020 5032.01 3673.71 86.34 5.00 195.65 2655.40
   00:46:18.363.07-Aug-2020 5032.01 3673.64 86.34 5.00 195.85 2655.40
   00:46:18.563.07-Aug-2020 5032.01 3673.80 86.34 5.00 196.05 2655.40
   00:46:18.763.07-Aug-2020 5032.01 3673.69 86.34 5.00 196.25 2655.40
   00:46:18.963.07-Aug-2020 5032.01 3673.75 86.34 5.00 196.45 2655.40
   00:46:19.163.07-Aug-2020 5032.01 3673.73 86.34 5.00 196.65 2655.40
   00:46:19.363.07-Aug-2020 5032.01 3673.75 86.34 5.00 196.85 2655.40
   00:46:19.563.07-Aug-2020 5032.01 3673.73 86.34 5.00 197.05 2655.40
   00:46:19.763.07-Aug-2020 5032.01 3673.73 86.34 5.00 197.25 2655.40
   00:46:19.963.07-Aug-2020 5032.01 3673.73 86.33 5.00 197.45 2655.40
   00:46:20.163.07-Aug-2020 5032.01 3673.72 86.33 5.00 197.65 2655.40
   00:46:20.363.07-Aug-2020 5032.01 3673.72 86.33 5.00 197.85 2655.40
   00:46:20.563.07-Aug-2020 5032.01 3673.72 86.33 5.00 198.05 2655.40
   00:46:20.763.07-Aug-2020 5032.01 3673.72 86.33 5.00 198.25 2655.40
   00:46:20.963.07-Aug-2020 5032.01 3673.72 86.33 5.00 198.45 2655.40
   00:46:21.163.07-Aug-2020 5032.01 3673.66 86.33 5.00 198.65 2655.40
   00:46:21.363.07-Aug-2020 5032.01 3673.76 86.33 5.00 198.85 2655.40
   00:46:21.563.07-Aug-2020 5032.01 3673.74 86.33 5.00 199.05 2655.40
   00:46:21.763.07-Aug-2020 5032.01 3673.72 86.33 5.00 199.25 2655.40
   00:46:21.964.07-Aug-2020 5032.01 3673.68 86.33 5.00 199.45 2655.40
   00:46:22.164.07-Aug-2020 5032.01 3673.74 86.33 5.00 199.65 2655.40
   00:46:22.364.07-Aug-2020 5032.01 3673.76 86.33 5.00 199.85 2655.40
   00:46:22.564.07-Aug-2020 5032.01 3673.73 86.33 5.00 200.05 2655.40
   00:46:22.764.07-Aug-2020 5032.01 3673.73 86.33 5.00 200.25 2655.40
   00:46:22.964.07-Aug-2020 5032.01 3673.74 86.33 5.00 200.45 2655.40
   00:46:23.164.07-Aug-2020 5032.01 3673.66 86.33 5.00 200.65 2655.40
   00:46:23.364.07-Aug-2020 5032.01 3673.76 86.33 5.00 200.85 2655.40
   00:46:23.564.07-Aug-2020 5032.01 3673.73 86.33 5.00 201.05 2655.40
   00:46:23.764.07-Aug-2020 5032.01 3673.74 86.32 5.00 201.25 2655.40
   00:46:23.964.07-Aug-2020 5032.01 3673.73 86.32 5.00 201.45 2655.40
   00:46:24.164.07-Aug-2020 5032.01 3673.68 86.32 5.00 201.65 2655.40
   00:46:24.364.07-Aug-2020 5032.01 3673.76 86.32 5.00 201.85 2655.40
   00:46:24.564.07-Aug-2020 5032.01 3673.72 86.32 5.00 202.05 2655.40
   00:46:24.764.07-Aug-2020 5032.01 3673.74 86.32 5.00 202.25 2655.40
   00:46:24.964.07-Aug-2020 5032.01 3673.72 86.32 5.00 202.45 2655.40
   00:46:25.164.07-Aug-2020 5032.01 3673.73 86.32 5.00 202.65 2655.40
   00:46:25.364.07-Aug-2020 5032.01 3673.72 86.32 5.00 202.85 2655.40
   00:46:25.564.07-Aug-2020 5032.01 3673.73 86.32 5.00 203.05 2655.40
   00:46:25.764.07-Aug-2020 5032.01 3673.72 86.32 5.00 203.25 2655.40
   00:46:25.964.07-Aug-2020 5032.01 3673.73 86.32 5.00 203.45 2655.40
   00:46:26.165.07-Aug-2020 5032.01 3673.72 86.32 5.00 203.65 2655.40
   00:46:26.365.07-Aug-2020 5032.01 3673.72 86.32 5.00 203.85 2655.40
   00:46:26.565.07-Aug-2020 5032.01 3673.71 86.32 5.00 204.05 2655.40
   00:46:26.765.07-Aug-2020 5032.01 3673.69 86.32 5.00 204.25 2655.40
   00:46:26.965.07-Aug-2020 5032.01 3673.73 86.32 5.00 204.45 2655.40
   00:46:27.165.07-Aug-2020 5032.01 3673.69 86.32 5.00 204.65 2655.40
   00:46:27.365.07-Aug-2020 5032.01 3673.75 86.32 5.00 204.85 2655.40
   00:46:27.565.07-Aug-2020 5032.01 3673.73 86.31 5.00 205.05 2655.40
   00:46:27.765.07-Aug-2020 5032.01 3673.73 86.31 5.00 205.25 2655.40
   00:46:27.965.07-Aug-2020 5032.01 3673.72 86.31 5.00 205.45 2655.40
   00:46:28.165.07-Aug-2020 5032.01 3673.72 86.31 5.00 205.65 2655.40
   00:46:28.365.07-Aug-2020 5032.01 3673.73 86.31 5.00 205.85 2655.40
   00:46:28.565.07-Aug-2020 5032.01 3673.70 86.31 5.00 206.05 2655.40
   00:46:28.765.07-Aug-2020 5032.01 3673.70 86.31 5.00 206.25 2655.40
   00:46:28.965.07-Aug-2020 5032.01 3673.71 86.31 5.00 206.45 2655.40
   00:46:29.165.07-Aug-2020 5032.01 3673.72 86.31 5.00 206.65 2655.40
   00:46:29.365.07-Aug-2020 5032.01 3673.69 86.31 5.00 206.85 2655.40
