~Version Information
 VERS.                  2.0:   CWLS log ASCII Standard -VERSION 2.0
 WRAP.                   NO:   One line per depth step
~Well Information Block
#MNEM.UNIT     VALUE/NAME     DESCRIPTION
#---------     -----------    ---------------------------
 STRT.S             06:40:56 07-Aug-20: START TIME 06:40:56 07-Aug-20
 STOP.S             06:48:48 07-Aug-20: STOP TIME  06:48:48 07-Aug-20
 STEP.S                   0.00: STEP TIME
 NULL.                 -999.25: NULL VALUE
 DFWT.                        :  DIST FWL TEXT
 DFST.                        :  DIST FSL TEXT
 DMF .             Drill Floor:  DRILL MEAS FROM
 STIM.      12.00.00 03-Jul-20:  START TIME
 DATE.      00.50.00 09-Aug-20:  END TIME
 SPUD.               03-Jul-20:  SPUD DATE
 NREF.                    Grid:  NORTH REFERENCE
 HPTY.       Minimum Curvature:  HOLE POS TYPE
 DMOD.             Drill Model:  DRILL MOD DESC
 SVYD.                  Survey:  SURVEY DESC
 ILTD.               Lithology:  INTERP LTH DESC
 FTOP.          Formation Tops:  FORM TOPS DESC
 PDAT.          Mean Sea Level:  PERMANENT DATUM
 FLD .                     ACG:  FIELD NAME
 CTRY.              Azerbaijan:  COUNTRY NAME
 WELL.                    E04x:  WELL NAME
 SRVC.          Turan Drilling:  CONTRACTOR
 COMP.     BP Exploration (Caspian Sea) Ltd.:  COMPANY
 SON .        AZ-XX-0906531346:  JOB NUMBER
 WTYP.                Deviated:  WELL TYPE
 MDS .        Operator Entered:  MAG DATA SOURCE
 UWI .                     N/A:  UNIQUE WELL IDENTIFIER
 API .                     N/A:  API NUMBER
 BASE.              Azerbaijan:  LOGGING EQUIPMENT BASE LOCATION
 REGN.                   EESSA:  REGION
 PROV.                    Baku:  PROVINCE
 STAT.                    Baku:  STATE NAME
 MWDS.                    Baku:  MWD SHOP
 JOBN.        AZ-XX-0906531346:  JOB TICKET NUMB
 RIG .                     DWG:  RIG NAME
 DOE .                     N/A:  DOE NUMBER
 DCON.         Sperry Drilling:  DIRECTNL CONTR
 UNIT.                     N/A:  LOGGING EQUIPMENT ID
 CNTY.                        :  COUNTY
 LOC .                        :  LOCATION
 LMF .             Drill Floor:  LOG MEASURED FROM
 TVDS.m                  43.16:  TVDSS CORRECTN
 LATI.deg                40.17:  LATITUDE
 LONG.deg                51.17:  LONGITUDE
 WHNS.m                  -0.12:  WELL HEAD N/S
 WHEW.m                  -5.41:  WELL HEAD E/W
 UTMX.m              514337.95:  UTM X
 UTMY.m             4448627.46:  UTM Y
 DFWL.m                   0.00:  DISTANCE FWL
 DFSL.m                   0.00:  DISTANCE FSL
 SDEP.m                3088.01:  START DEPTH
 TDD .m                5200.01:  TOTAL DEPTH (DRILLER)
 VSDR.deg               244.51:  VERT SEC DIRECT
 GVFD.g                   1.00:  GRAVITY FIELD
 MFLD.nT              50329.80:  MAGNETIC FIELD
 MDIP.deg                59.63:  MAGNETIC DIP
 MDEC.deg                 6.59:  MAGNETIC DECL
 GRDC.deg                 0.09:  GRID CORRECTION
 AZTC.deg                 6.50:  AZM TOTAL CORR
 EPD .m                   0.00:  ELEVATION
 EGL .m                   0.00:  GROUND ELEVATION
 WDMS.m                 176.20:  WD ELEV
 APD .m                  43.16:  DEPTH ABOVE PD
 DEP .m                3084.71:  DEPTH
 AGAP.m                  43.16:  AIR GAP
 VSEW.m                  -5.41:  VERT SEC E/W
 VSNS.m                  -0.12:  VERT SEC N/S
 EKB .m                   0.00:  KB ELEVATION
 EDF .m                  43.16:  DF ELEVATION
 TDL .m                 243.00:  TOTAL DEPTH (LOGGER)
 VSC .                       0:  VS TO CLOSURE
 MAGU.                 1853542:  MAGUTM CHECKSUM
~Parameter Information Block
#MNEM.UNIT       Value        Description
#---------     -----------    ---------------------------
 AV  .mps                 1.91:  Ann Velocity 
 AVMX.mps                 2.52:  Max Ann Veloc 
 AZIF.deg               308.97:  Azm, Final 
 BHAT.        Rotary Steerable:  BHA Type 
 BROT.°/30m               1.00:  Build Rotating 
 BS  .in                  6.50:  Bit Size 
 BSZ .in                  6.50:  Bit Size 
 BTPL.psig              350.00:  Bit Press Loss 
 CABU.                      No:  Customer Abuse 
 CGEO.           Asif Pashayev:  Customer Geo 
 TCS .hr                 35.86:  Time Ciculation Ended 
 CV  .mps                 2.31:  Crit Velocity 
 CVMX.mps                 2.31:  Max Crit Veloc 
 DD1 .         Intigam Rahimov:  Direct Drillr 1 
 DDSV.               Geo-Pilot:  DD Service 
 DEFF.%                  92.00:  % Det Eff 
 DLRX.°/30m               1.00:  Dogleg Rot Max 
 DLSO.°/30m               1.00:  Dogleg Oriented 
 DLSX.°/30m               1.42:  Dogleg Str Max 
 DRET.      15.50.00 07-Aug-20:  Drill End Time 
 DRST.      10.40.00 06-Aug-20:  Drill Start Tim 
 DTIM.hr                 21.30:  Time Drilling 
 EDEP.m                5200.01:  End Depth 
 ENG1.            Alan Tuganov:  Engineer 1 
 ENG2.         Almaz Almadatov:  Engineer 2 
 ENG3.     Zammelal Abdullah Sani:  Engineer 3 
 ETIM.      22.42.00 08-Aug-20:  End Time 
 FLOI.gpm               395.00:  Flow In 
 FLON.gpm               350.00:  Flow In Min 
 FLOS.cptm                0.00:  Fluid Loss 
 FLOX.gpm               404.00:  Flow In Max 
 FTRO.       Formation Presure:  FTWD Run Obj 
 HFLO.                      No:  High Flow 
 HPRE.                      No:  High Pressure 
 HTEM.                      No:  High Temp 
 HYDO.m                   1.80:  Hydro Offset 
 IFIN.deg                72.64:  Inc, Final 
 IMAX.deg                73.68:  Inc Max 
 IMIN.deg                72.64:  Inc Min 
 IMND.m                5189.69:  Inc Min Depth 
 IMXD.m                5067.88:  Inc Max Depth 
 JARR.                      No:  Jarring 
 LETM.      15.50.00 07-Aug-20:  Log End Time 
 LOST.hr                     0:  Lost Rig Time 
 LSTM.      10.40.00 06-Aug-20:  Log Start Time 
 MDCL.ppm             36000.00:  Mud Chlorides 
 MDES.     Inversion Oil/Synthetic:  Mud Desc 
 DFD .sg                  1.36:  Mud Density 
 MDMN.sg                  1.36:  Dens Mud Min 
 MDMX.sg                  1.36:  Dens Mud Max 
 MOIL.                      70:  Run Mud Oil % 
 MOWR.                   70:30:  Run Mud OWR 
 MSND.                    0.00:  Run Mud Sand % 
 MSOL.                   17.60:  Run Mud Solids% 
 DFV .spqt               73.00:  Mud Viscosity 
 MWOD.in                  4.75:  MWD Tool OD 
 MWSI.                      No:  Serv Intrp, MWD 
 OTIM.hr                 85.66:  Time Operating 
 PCON.           Look Like New:  Pad Condition 
 PMAX.psia             6250.00:  Press Op, Max 
 PV  .cP                 65.00:  Mud PV 
 RUN .                     900:  Run Number 
 ROPA.m/hr               11.40:  ROP Avg 
 ROPN.m/hr                5.00:  ROP Min 
 ROPX.m/hr               20.00:  ROP Max 
 RPMA.rpm               130.00:  RPM Surface Avg 
 RPMN.rpm                40.00:  RPM Surface Min 
 RPMX.rpm               140.00:  RPM Surface Max 
 RRUN.                    L205:  Rig Run Number 
 RTIM.hr                  1.00:  Time Reaming 
 SAZI.deg               313.52:  Azm, Start 
 SDEP.m                4957.01:  Start Depth 
 SIDD.                      No:  Serv Intrp, DD 
 SINC.deg                73.16:  Inc, Start 
 SPPA.psig             5657.00:  SPP Avg 
 SPPN.psig             2500.00:  SPP Min 
 SPPX.psig             5806.00:  SPP Max 
 STIM.      07.12.00 05-Aug-20:  Start Time 
 SVCS.                 DD, MWD:  Services 
 SVER.                    9.20:  Sperry Version 
 TDAT.m                 243.00:  Tot Depth Attmp 
 TDDF.                      No:  Trip for DD 
 TDLG.m                 243.00:  Tot Depth Loggd 
 TFF .                      No:  Trip for Fail 
 TQAA.f-kp               13.00:  Torque Abs Avg 
 TQAN.f-kp               11.00:  Torque Abs Min 
 TQAX.f-kp               16.00:  Torque Abs Max 
 TRRT.°/30m               1.00:  Turn Rotating 
 MRT .                    HCIM:  Maximum Recorded Temperature 
 TTMX.degC               96.08:  Max Tool Temp 
 VS01.                90515411:  Virtual Str1 SN 
 VS02.                90512716:  Virtual Str2 SN 
 VS03.                90522362:  Virtual Str3 SN 
 VS04.                90619415:  Virtual Str4 SN 
 VS05.                90619414:  Virtual Str5 SN 
 VS06.                90597748:  Virtual Str6 SN 
 WBMN.klb                 2.00:  WOB Min 
 WITN.           Adil Mammadov:  Customer Rep 
 WITN.     Alexander Yadullayev:  Customer Rep 2 
 WOBA.klb                 7.00:  WOB Avg 
 WOBX.klb                23.00:  WOB Max 
 YP  .lhf2               37.00:  Yield Point 
~Curve Information Block
#MNEM.UNIT                 API CODE     Curve Description
#---------               -----------    ---------------------------
 TIME.HHMMSS            00 000 000 000:  GT Time & Date
 GTDEPTH.m              00 000 000 000:  GT Depth
 GTPQH.psia             00 000 000 000:  GT HR Quartz Pressure
 GTTQ.degC              00 000 000 000:  GT Quartz Temperature
 GTTN.NONE              00 000 000 000:  GT Test Number
 GTET.sec               00 000 000 000:  GT Elapsed Test Time
 GTTVD.m                00 000 000 000:  GT True Vertical Depth
#Other Information
#
#WARRANTY: Halliburton will use its best efforts to furnish customers with 
#accurate information and interpretations that are part of, and incident to, the services 
#provided.  However, Halliburton cannot and does not warrant the accuracy 
#or correctness of such information and interpretations.  Under no circumstances should any 
#such information or interpretation be relied upon as the sole basis for any drilling, 
#completion, production, or financial decision or any procedure involving any risk to the 
#safety of any drilling venture, drilling rig or its crew or any other third party.  The 
#Customer has full responsibility for all drilling, completion and production operation.  
#Halliburton makes no representations or warranties, either expressed or 
#implied, including, but not limited to, the implied warranties of merchantability or fitness 
#for a particular purpose, with respect to the services rendered.  In no event will 
#Halliburton be liable for failure to obtain any particular results or for 
#any damages, including, but not limited to, indirect, special or consequential damages, 
#resulting from the use of any information or interpretation provided by Halliburton.
#
~A           TIME           GTDEPTH  GTPQH  GTTQ  GTTN  GTET   GTTVD  
   06:40:56.939.07-Aug-2020 5088.01 5814.59 89.29 8.00   0.00 2671.45
   06:40:57.139.07-Aug-2020 5088.01 5814.59 89.29 8.00   0.20 2671.45
   06:40:57.339.07-Aug-2020 5088.01 5824.51 89.29 8.00   0.40 2671.45
   06:40:57.539.07-Aug-2020 5088.01 5823.37 89.29 8.00   0.60 2671.45
   06:40:57.739.07-Aug-2020 5088.01 5820.88 89.28 8.00   0.80 2671.45
   06:40:57.939.07-Aug-2020 5088.01 5825.31 89.28 8.00   1.00 2671.45
   06:40:58.139.07-Aug-2020 5088.01 5825.31 89.28 8.00   1.20 2671.45
   06:40:58.339.07-Aug-2020 5088.01 5825.21 89.28 8.00   1.40 2671.45
   06:40:58.539.07-Aug-2020 5088.01 5825.86 89.28 8.00   1.60 2671.45
   06:40:58.740.07-Aug-2020 5088.01 5816.41 89.28 8.00   1.80 2671.45
   06:40:58.940.07-Aug-2020 5088.01 5826.76 89.28 8.00   2.00 2671.45
   06:40:59.140.07-Aug-2020 5088.01 5826.76 89.28 8.00   2.20 2671.45
   06:40:59.340.07-Aug-2020 5088.01 5820.00 89.28 8.00   2.40 2671.45
   06:40:59.540.07-Aug-2020 5088.01 5821.85 89.28 8.00   2.60 2671.45
   06:40:59.740.07-Aug-2020 5088.01 5825.40 89.28 8.00   2.80 2671.45
   06:40:59.940.07-Aug-2020 5088.01 5817.87 89.28 8.00   3.00 2671.45
   06:41:00.140.07-Aug-2020 5088.01 5826.21 89.27 8.00   3.20 2671.45
   06:41:00.340.07-Aug-2020 5088.01 5824.21 89.27 8.00   3.40 2671.45
   06:41:00.540.07-Aug-2020 5088.01 5824.71 89.27 8.00   3.60 2671.45
   06:41:00.740.07-Aug-2020 5088.01 5824.75 89.27 8.00   3.80 2671.45
   06:41:00.940.07-Aug-2020 5088.01 5825.63 89.27 8.00   4.00 2671.45
   06:41:01.140.07-Aug-2020 5088.01 5825.00 89.27 8.00   4.20 2671.45
   06:41:01.340.07-Aug-2020 5088.01 5826.91 89.27 8.00   4.40 2671.45
   06:41:01.540.07-Aug-2020 5088.01 5825.28 89.27 8.00   4.60 2671.45
   06:41:01.740.07-Aug-2020 5088.01 5826.56 89.27 8.00   4.80 2671.45
   06:41:01.940.07-Aug-2020 5088.01 5826.67 89.27 8.00   5.00 2671.45
   06:41:02.140.07-Aug-2020 5088.01 5826.67 89.27 8.00   5.20 2671.45
   06:41:02.341.07-Aug-2020 5088.01 5818.16 89.27 8.00   5.40 2671.45
   06:41:02.541.07-Aug-2020 5088.01 5828.23 89.26 8.00   5.60 2671.45
   06:41:02.741.07-Aug-2020 5088.01 5826.93 89.26 8.00   5.80 2671.45
   06:41:02.941.07-Aug-2020 5088.01 5823.29 89.26 8.00   6.00 2671.45
   06:41:03.141.07-Aug-2020 5088.01 5823.29 89.26 8.00   6.20 2671.45
   06:41:03.341.07-Aug-2020 5088.01 5826.02 89.26 8.00   6.40 2671.45
   06:41:03.541.07-Aug-2020 5088.01 5827.43 89.26 8.00   6.60 2671.45
   06:41:03.741.07-Aug-2020 5088.01 5827.69 89.26 8.00   6.80 2671.45
   06:41:03.941.07-Aug-2020 5088.01 5827.97 89.26 8.00   7.00 2671.45
   06:41:04.141.07-Aug-2020 5088.01 5827.97 89.26 8.00   7.20 2671.45
   06:41:04.341.07-Aug-2020 5088.01 5829.01 89.26 8.00   7.40 2671.45
   06:41:04.541.07-Aug-2020 5088.01 5827.12 89.26 8.00   7.60 2671.45
   06:41:04.741.07-Aug-2020 5088.01 5829.31 89.26 8.00   7.80 2671.45
   06:41:04.941.07-Aug-2020 5088.01 5823.25 89.25 8.00   8.00 2671.45
   06:41:05.141.07-Aug-2020 5088.01 5826.63 89.25 8.00   8.20 2671.45
   06:41:05.341.07-Aug-2020 5088.01 5830.08 89.25 8.00   8.40 2671.45
   06:41:05.541.07-Aug-2020 5088.01 5823.73 89.25 8.00   8.60 2671.45
   06:41:05.742.07-Aug-2020 5088.01 5828.33 89.25 8.00   8.80 2671.45
   06:41:05.942.07-Aug-2020 5088.01 5822.71 89.25 8.00   9.00 2671.45
   06:41:06.142.07-Aug-2020 5088.01 5822.71 89.25 8.00   9.20 2671.45
   06:41:06.342.07-Aug-2020 5088.01 5822.71 89.25 8.00   9.40 2671.45
   06:41:06.542.07-Aug-2020 5088.01 5823.64 89.25 8.00   9.60 2671.45
   06:41:06.742.07-Aug-2020 5088.01 5826.71 89.25 8.00   9.80 2671.45
   06:41:06.942.07-Aug-2020 5088.01 5823.31 89.25 8.00  10.00 2671.45
   06:41:07.142.07-Aug-2020 5088.01 5823.31 89.25 8.00  10.20 2671.45
   06:41:07.342.07-Aug-2020 5088.01 5811.65 89.24 8.00  10.40 2671.45
   06:41:07.542.07-Aug-2020 5088.01 5793.24 89.24 8.00  10.60 2671.45
   06:41:07.742.07-Aug-2020 5088.01 5818.75 89.24 8.00  10.80 2671.45
   06:41:07.942.07-Aug-2020 5088.01 5794.02 89.24 8.00  11.00 2671.45
   06:41:08.142.07-Aug-2020 5088.01 5794.02 89.24 8.00  11.20 2671.45
   06:41:08.342.07-Aug-2020 5088.01 5799.73 89.24 8.00  11.40 2671.45
   06:41:08.542.07-Aug-2020 5088.01 5799.05 89.24 8.00  11.60 2671.45
   06:41:08.742.07-Aug-2020 5088.01 5776.82 89.24 8.00  11.80 2671.45
   06:41:08.942.07-Aug-2020 5088.01 5762.56 89.24 8.00  12.00 2671.45
   06:41:09.143.07-Aug-2020 5088.01 5714.27 89.24 8.00  12.20 2671.45
   06:41:09.343.07-Aug-2020 5088.01 5668.29 89.24 8.00  12.40 2671.45
   06:41:09.543.07-Aug-2020 5088.01 5647.18 89.24 8.00  12.60 2671.45
   06:41:09.743.07-Aug-2020 5088.01 5582.45 89.23 8.00  12.80 2671.45
   06:41:09.943.07-Aug-2020 5088.01 5536.14 89.23 8.00  13.00 2671.45
   06:41:10.143.07-Aug-2020 5088.01 5536.14 89.23 8.00  13.20 2671.45
   06:41:10.343.07-Aug-2020 5088.01 5433.58 89.23 8.00  13.40 2671.45
   06:41:10.543.07-Aug-2020 5088.01 5402.20 89.23 8.00  13.60 2671.45
   06:41:10.743.07-Aug-2020 5088.01 5323.19 89.23 8.00  13.80 2671.45
   06:41:10.943.07-Aug-2020 5088.01 5265.26 89.23 8.00  14.00 2671.45
   06:41:11.143.07-Aug-2020 5088.01 5265.26 89.23 8.00  14.20 2671.45
   06:41:11.343.07-Aug-2020 5088.01 5172.74 89.23 8.00  14.40 2671.45
   06:41:11.543.07-Aug-2020 5088.01 5086.51 89.23 8.00  14.60 2671.45
   06:41:11.743.07-Aug-2020 5088.01 5019.68 89.23 8.00  14.80 2671.45
   06:41:11.943.07-Aug-2020 5088.01 4991.44 89.22 8.00  15.00 2671.45
   06:41:12.143.07-Aug-2020 5088.01 4991.44 89.22 8.00  15.20 2671.45
   06:41:12.343.07-Aug-2020 5088.01 4987.51 89.22 8.00  15.40 2671.45
   06:41:12.544.07-Aug-2020 5088.01 4943.32 89.22 8.00  15.60 2671.45
   06:41:12.744.07-Aug-2020 5088.01 4910.32 89.22 8.00  15.80 2671.45
   06:41:12.944.07-Aug-2020 5088.01 4853.04 89.22 8.00  16.00 2671.45
   06:41:13.144.07-Aug-2020 5088.01 4785.37 89.22 8.00  16.20 2671.45
   06:41:13.344.07-Aug-2020 5088.01 4763.45 89.22 8.00  16.40 2671.45
   06:41:13.544.07-Aug-2020 5088.01 4756.40 89.22 8.00  16.60 2671.45
   06:41:13.744.07-Aug-2020 5088.01 4790.24 89.22 8.00  16.80 2671.45
   06:41:13.944.07-Aug-2020 5088.01 4812.35 89.21 8.00  17.00 2671.45
   06:41:14.144.07-Aug-2020 5088.01 4812.35 89.21 8.00  17.20 2671.45
   06:41:14.344.07-Aug-2020 5088.01 5298.87 89.21 8.00  17.41 2671.45
   06:41:14.544.07-Aug-2020 5088.01 5514.45 89.21 8.00  17.61 2671.45
   06:41:14.744.07-Aug-2020 5088.01 5623.92 89.21 8.00  17.81 2671.45
   06:41:14.944.07-Aug-2020 5088.01 5730.45 89.21 8.00  18.01 2671.45
   06:41:15.144.07-Aug-2020 5088.01 5730.45 89.21 8.00  18.21 2671.45
   06:41:15.344.07-Aug-2020 5088.01 5912.84 89.21 8.00  18.41 2671.45
   06:41:15.544.07-Aug-2020 5088.01 5999.86 89.21 8.00  18.61 2671.45
   06:41:15.744.07-Aug-2020 5088.01 6105.44 89.21 8.00  18.81 2671.45
   06:41:15.945.07-Aug-2020 5088.01 6256.11 89.20 8.00  19.01 2671.45
   06:41:16.145.07-Aug-2020 5088.01 6256.11 89.20 8.00  19.21 2671.45
   06:41:16.345.07-Aug-2020 5088.01 6548.63 89.20 8.00  19.41 2671.45
   06:41:16.545.07-Aug-2020 5088.01 6534.26 89.20 8.00  19.61 2671.45
   06:41:16.745.07-Aug-2020 5088.01 6532.54 89.20 8.00  19.81 2671.45
   06:41:16.945.07-Aug-2020 5088.01 6546.46 89.20 8.00  20.01 2671.45
   06:41:17.145.07-Aug-2020 5088.01 6546.46 89.20 8.00  20.21 2671.45
   06:41:17.345.07-Aug-2020 5088.01 6603.68 89.20 8.00  20.41 2671.45
   06:41:17.545.07-Aug-2020 5088.01 6601.28 89.20 8.00  20.61 2671.45
   06:41:17.745.07-Aug-2020 5088.01 6588.14 89.20 8.00  20.81 2671.45
   06:41:17.945.07-Aug-2020 5088.01 6316.59 89.20 8.00  21.01 2671.45
   06:41:18.145.07-Aug-2020 5088.01 6554.31 89.20 8.00  21.21 2671.45
   06:41:18.345.07-Aug-2020 5088.01 6559.43 89.20 8.00  21.41 2671.45
   06:41:18.545.07-Aug-2020 5088.01 6596.08 89.19 8.00  21.61 2671.45
   06:41:18.745.07-Aug-2020 5088.01 6414.28 89.19 8.00  21.81 2671.45
   06:41:18.945.07-Aug-2020 5088.01 6357.31 89.19 8.00  22.01 2671.45
   06:41:19.145.07-Aug-2020 5088.01 6357.31 89.19 8.00  22.21 2671.45
   06:41:19.345.07-Aug-2020 5088.01 6412.91 89.19 8.00  22.41 2671.45
   06:41:19.546.07-Aug-2020 5088.01 6422.95 89.19 8.00  22.61 2671.45
   06:41:19.746.07-Aug-2020 5088.01 6430.51 89.19 8.00  22.81 2671.45
