~Version Information
 VERS.                  2.0:   CWLS log ASCII Standard -VERSION 2.0
 WRAP.                   NO:   One line per depth step
~Well Information Block
#MNEM.UNIT     VALUE/NAME     DESCRIPTION
#---------     -----------    ---------------------------
 STRT.S             03:58:24 07-Aug-20: START TIME 03:58:24 07-Aug-20
 STOP.S             04:06:16 07-Aug-20: STOP TIME  04:06:16 07-Aug-20
 STEP.S                   0.00: STEP TIME
 NULL.                 -999.25: NULL VALUE
 DFWT.                        :  DIST FWL TEXT
 DFST.                        :  DIST FSL TEXT
 DMF .             Drill Floor:  DRILL MEAS FROM
 STIM.      12.00.00 03-Jul-20:  START TIME
 DATE.      00.50.00 09-Aug-20:  END TIME
 SPUD.               03-Jul-20:  SPUD DATE
 NREF.                    Grid:  NORTH REFERENCE
 HPTY.       Minimum Curvature:  HOLE POS TYPE
 DMOD.             Drill Model:  DRILL MOD DESC
 SVYD.                  Survey:  SURVEY DESC
 ILTD.               Lithology:  INTERP LTH DESC
 FTOP.          Formation Tops:  FORM TOPS DESC
 PDAT.          Mean Sea Level:  PERMANENT DATUM
 FLD .                     ACG:  FIELD NAME
 CTRY.              Azerbaijan:  COUNTRY NAME
 WELL.                    E04x:  WELL NAME
 SRVC.          Turan Drilling:  CONTRACTOR
 COMP.     BP Exploration (Caspian Sea) Ltd.:  COMPANY
 SON .        AZ-XX-0906531346:  JOB NUMBER
 WTYP.                Deviated:  WELL TYPE
 MDS .        Operator Entered:  MAG DATA SOURCE
 UWI .                     N/A:  UNIQUE WELL IDENTIFIER
 API .                     N/A:  API NUMBER
 BASE.              Azerbaijan:  LOGGING EQUIPMENT BASE LOCATION
 REGN.                   EESSA:  REGION
 PROV.                    Baku:  PROVINCE
 STAT.                    Baku:  STATE NAME
 MWDS.                    Baku:  MWD SHOP
 JOBN.        AZ-XX-0906531346:  JOB TICKET NUMB
 RIG .                     DWG:  RIG NAME
 DOE .                     N/A:  DOE NUMBER
 DCON.         Sperry Drilling:  DIRECTNL CONTR
 UNIT.                     N/A:  LOGGING EQUIPMENT ID
 CNTY.                        :  COUNTY
 LOC .                        :  LOCATION
 LMF .             Drill Floor:  LOG MEASURED FROM
 TVDS.m                  43.16:  TVDSS CORRECTN
 LATI.deg                40.17:  LATITUDE
 LONG.deg                51.17:  LONGITUDE
 WHNS.m                  -0.12:  WELL HEAD N/S
 WHEW.m                  -5.41:  WELL HEAD E/W
 UTMX.m              514337.95:  UTM X
 UTMY.m             4448627.46:  UTM Y
 DFWL.m                   0.00:  DISTANCE FWL
 DFSL.m                   0.00:  DISTANCE FSL
 SDEP.m                3088.01:  START DEPTH
 TDD .m                5200.01:  TOTAL DEPTH (DRILLER)
 VSDR.deg               244.51:  VERT SEC DIRECT
 GVFD.g                   1.00:  GRAVITY FIELD
 MFLD.nT              50329.80:  MAGNETIC FIELD
 MDIP.deg                59.63:  MAGNETIC DIP
 MDEC.deg                 6.59:  MAGNETIC DECL
 GRDC.deg                 0.09:  GRID CORRECTION
 AZTC.deg                 6.50:  AZM TOTAL CORR
 EPD .m                   0.00:  ELEVATION
 EGL .m                   0.00:  GROUND ELEVATION
 WDMS.m                 176.20:  WD ELEV
 APD .m                  43.16:  DEPTH ABOVE PD
 DEP .m                3084.71:  DEPTH
 AGAP.m                  43.16:  AIR GAP
 VSEW.m                  -5.41:  VERT SEC E/W
 VSNS.m                  -0.12:  VERT SEC N/S
 EKB .m                   0.00:  KB ELEVATION
 EDF .m                  43.16:  DF ELEVATION
 TDL .m                 243.00:  TOTAL DEPTH (LOGGER)
 VSC .                       0:  VS TO CLOSURE
 MAGU.                 1853542:  MAGUTM CHECKSUM
~Parameter Information Block
#MNEM.UNIT       Value        Description
#---------     -----------    ---------------------------
 AV  .mps                 1.91:  Ann Velocity 
 AVMX.mps                 2.52:  Max Ann Veloc 
 AZIF.deg               308.97:  Azm, Final 
 BHAT.        Rotary Steerable:  BHA Type 
 BROT.°/30m               1.00:  Build Rotating 
 BS  .in                  6.50:  Bit Size 
 BSZ .in                  6.50:  Bit Size 
 BTPL.psig              350.00:  Bit Press Loss 
 CABU.                      No:  Customer Abuse 
 CGEO.           Asif Pashayev:  Customer Geo 
 TCS .hr                 35.86:  Time Ciculation Ended 
 CV  .mps                 2.31:  Crit Velocity 
 CVMX.mps                 2.31:  Max Crit Veloc 
 DD1 .         Intigam Rahimov:  Direct Drillr 1 
 DDSV.               Geo-Pilot:  DD Service 
 DEFF.%                  92.00:  % Det Eff 
 DLRX.°/30m               1.00:  Dogleg Rot Max 
 DLSO.°/30m               1.00:  Dogleg Oriented 
 DLSX.°/30m               1.42:  Dogleg Str Max 
 DRET.      15.50.00 07-Aug-20:  Drill End Time 
 DRST.      10.40.00 06-Aug-20:  Drill Start Tim 
 DTIM.hr                 21.30:  Time Drilling 
 EDEP.m                5200.01:  End Depth 
 ENG1.            Alan Tuganov:  Engineer 1 
 ENG2.         Almaz Almadatov:  Engineer 2 
 ENG3.     Zammelal Abdullah Sani:  Engineer 3 
 ETIM.      22.42.00 08-Aug-20:  End Time 
 FLOI.gpm               395.00:  Flow In 
 FLON.gpm               350.00:  Flow In Min 
 FLOS.cptm                0.00:  Fluid Loss 
 FLOX.gpm               404.00:  Flow In Max 
 FTRO.       Formation Presure:  FTWD Run Obj 
 HFLO.                      No:  High Flow 
 HPRE.                      No:  High Pressure 
 HTEM.                      No:  High Temp 
 HYDO.m                   1.80:  Hydro Offset 
 IFIN.deg                72.64:  Inc, Final 
 IMAX.deg                73.68:  Inc Max 
 IMIN.deg                72.64:  Inc Min 
 IMND.m                5189.69:  Inc Min Depth 
 IMXD.m                5067.88:  Inc Max Depth 
 JARR.                      No:  Jarring 
 LETM.      15.50.00 07-Aug-20:  Log End Time 
 LOST.hr                     0:  Lost Rig Time 
 LSTM.      10.40.00 06-Aug-20:  Log Start Time 
 MDCL.ppm             36000.00:  Mud Chlorides 
 MDES.     Inversion Oil/Synthetic:  Mud Desc 
 DFD .sg                  1.36:  Mud Density 
 MDMN.sg                  1.36:  Dens Mud Min 
 MDMX.sg                  1.36:  Dens Mud Max 
 MOIL.                      70:  Run Mud Oil % 
 MOWR.                   70:30:  Run Mud OWR 
 MSND.                    0.00:  Run Mud Sand % 
 MSOL.                   17.60:  Run Mud Solids% 
 DFV .spqt               73.00:  Mud Viscosity 
 MWOD.in                  4.75:  MWD Tool OD 
 MWSI.                      No:  Serv Intrp, MWD 
 OTIM.hr                 85.66:  Time Operating 
 PCON.           Look Like New:  Pad Condition 
 PMAX.psia             6250.00:  Press Op, Max 
 PV  .cP                 65.00:  Mud PV 
 RUN .                     900:  Run Number 
 ROPA.m/hr               11.40:  ROP Avg 
 ROPN.m/hr                5.00:  ROP Min 
 ROPX.m/hr               20.00:  ROP Max 
 RPMA.rpm               130.00:  RPM Surface Avg 
 RPMN.rpm                40.00:  RPM Surface Min 
 RPMX.rpm               140.00:  RPM Surface Max 
 RRUN.                    L205:  Rig Run Number 
 RTIM.hr                  1.00:  Time Reaming 
 SAZI.deg               313.52:  Azm, Start 
 SDEP.m                4957.01:  Start Depth 
 SIDD.                      No:  Serv Intrp, DD 
 SINC.deg                73.16:  Inc, Start 
 SPPA.psig             5657.00:  SPP Avg 
 SPPN.psig             2500.00:  SPP Min 
 SPPX.psig             5806.00:  SPP Max 
 STIM.      07.12.00 05-Aug-20:  Start Time 
 SVCS.                 DD, MWD:  Services 
 SVER.                    9.20:  Sperry Version 
 TDAT.m                 243.00:  Tot Depth Attmp 
 TDDF.                      No:  Trip for DD 
 TDLG.m                 243.00:  Tot Depth Loggd 
 TFF .                      No:  Trip for Fail 
 TQAA.f-kp               13.00:  Torque Abs Avg 
 TQAN.f-kp               11.00:  Torque Abs Min 
 TQAX.f-kp               16.00:  Torque Abs Max 
 TRRT.°/30m               1.00:  Turn Rotating 
 MRT .                    HCIM:  Maximum Recorded Temperature 
 TTMX.degC               96.08:  Max Tool Temp 
 VS01.                90515411:  Virtual Str1 SN 
 VS02.                90512716:  Virtual Str2 SN 
 VS03.                90522362:  Virtual Str3 SN 
 VS04.                90619415:  Virtual Str4 SN 
 VS05.                90619414:  Virtual Str5 SN 
 VS06.                90597748:  Virtual Str6 SN 
 WBMN.klb                 2.00:  WOB Min 
 WITN.           Adil Mammadov:  Customer Rep 
 WITN.     Alexander Yadullayev:  Customer Rep 2 
 WOBA.klb                 7.00:  WOB Avg 
 WOBX.klb                23.00:  WOB Max 
 YP  .lhf2               37.00:  Yield Point 
~Curve Information Block
#MNEM.UNIT                 API CODE     Curve Description
#---------               -----------    ---------------------------
 TIME.HHMMSS            00 000 000 000:  GT Time & Date
 GTDEPTH.m              00 000 000 000:  GT Depth
 GTPQH.psia             00 000 000 000:  GT HR Quartz Pressure
 GTTQ.degC              00 000 000 000:  GT Quartz Temperature
 GTTN.NONE              00 000 000 000:  GT Test Number
 GTET.sec               00 000 000 000:  GT Elapsed Test Time
 GTTVD.m                00 000 000 000:  GT True Vertical Depth
#Other Information
#
#WARRANTY: Halliburton will use its best efforts to furnish customers with 
#accurate information and interpretations that are part of, and incident to, the services 
#provided.  However, Halliburton cannot and does not warrant the accuracy 
#or correctness of such information and interpretations.  Under no circumstances should any 
#such information or interpretation be relied upon as the sole basis for any drilling, 
#completion, production, or financial decision or any procedure involving any risk to the 
#safety of any drilling venture, drilling rig or its crew or any other third party.  The 
#Customer has full responsibility for all drilling, completion and production operation.  
#Halliburton makes no representations or warranties, either expressed or 
#implied, including, but not limited to, the implied warranties of merchantability or fitness 
#for a particular purpose, with respect to the services rendered.  In no event will 
#Halliburton be liable for failure to obtain any particular results or for 
#any damages, including, but not limited to, indirect, special or consequential damages, 
#resulting from the use of any information or interpretation provided by Halliburton.
#
~A           TIME           GTDEPTH  GTPQH  GTTQ  GTTN  GTET   GTTVD  
# ...
   04:01:51.325.07-Aug-2020 5060.51 3684.24 87.49 7.00 207.05 2663.65
   04:01:51.525.07-Aug-2020 5060.51 3684.24 87.49 7.00 207.25 2663.65
   04:01:51.725.07-Aug-2020 5060.51 3684.23 87.49 7.00 207.45 2663.65
   04:01:51.925.07-Aug-2020 5060.51 3684.21 87.49 7.00 207.65 2663.65
   04:01:52.125.07-Aug-2020 5060.51 3684.24 87.49 7.00 207.85 2663.65
   04:01:52.325.07-Aug-2020 5060.51 3684.20 87.49 7.00 208.05 2663.65
   04:01:52.525.07-Aug-2020 5060.51 3684.20 87.49 7.00 208.25 2663.65
   04:01:52.725.07-Aug-2020 5060.51 3684.20 87.49 7.00 208.45 2663.65
   04:01:52.925.07-Aug-2020 5060.51 3684.10 87.49 7.00 208.65 2663.65
   04:01:53.125.07-Aug-2020 5060.51 3684.28 87.49 7.00 208.85 2663.65
   04:01:53.325.07-Aug-2020 5060.51 3684.21 87.48 7.00 209.05 2663.65
   04:01:53.525.07-Aug-2020 5060.51 3684.21 87.48 7.00 209.25 2663.65
   04:01:53.725.07-Aug-2020 5060.51 3684.24 87.48 7.00 209.45 2663.65
   04:01:53.925.07-Aug-2020 5060.51 3684.20 87.48 7.00 209.65 2663.65
   04:01:54.125.07-Aug-2020 5060.51 3684.22 87.48 7.00 209.85 2663.65
   04:01:54.325.07-Aug-2020 5060.51 3684.21 87.48 7.00 210.05 2663.65
   04:01:54.525.07-Aug-2020 5060.51 3684.21 87.48 7.00 210.25 2663.65
   04:01:54.725.07-Aug-2020 5060.51 3684.22 87.48 7.00 210.45 2663.65
   04:01:54.926.07-Aug-2020 5060.51 3684.21 87.48 7.00 210.65 2663.65
   04:01:55.126.07-Aug-2020 5060.51 3684.20 87.48 7.00 210.85 2663.65
   04:01:55.326.07-Aug-2020 5060.51 3684.21 87.48 7.00 211.05 2663.65
   04:01:55.526.07-Aug-2020 5060.51 3684.21 87.48 7.00 211.25 2663.65
   04:01:55.726.07-Aug-2020 5060.51 3684.17 87.48 7.00 211.45 2663.65
   04:01:55.926.07-Aug-2020 5060.51 3684.25 87.48 7.00 211.65 2663.65
   04:01:56.126.07-Aug-2020 5060.51 3684.19 87.48 7.00 211.85 2663.65
   04:01:56.326.07-Aug-2020 5060.51 3684.25 87.48 7.00 212.05 2663.65
   04:01:56.526.07-Aug-2020 5060.51 3684.25 87.48 7.00 212.25 2663.65
   04:01:56.726.07-Aug-2020 5060.51 3684.28 87.48 7.00 212.45 2663.65
   04:01:56.926.07-Aug-2020 5060.51 3684.20 87.48 7.00 212.65 2663.65
   04:01:57.126.07-Aug-2020 5060.51 3684.24 87.48 7.00 212.85 2663.65
   04:01:57.326.07-Aug-2020 5060.51 3684.20 87.47 7.00 213.05 2663.65
   04:01:57.526.07-Aug-2020 5060.51 3684.20 87.47 7.00 213.25 2663.65
   04:01:57.726.07-Aug-2020 5060.51 3684.23 87.47 7.00 213.45 2663.65
   04:01:57.926.07-Aug-2020 5060.51 3684.23 87.47 7.00 213.65 2663.65
   04:01:58.126.07-Aug-2020 5060.51 3684.21 87.47 7.00 213.85 2663.65
   04:01:58.326.07-Aug-2020 5060.51 3684.23 87.47 7.00 214.05 2663.65
   04:01:58.526.07-Aug-2020 5060.51 3684.23 87.47 7.00 214.25 2663.65
   04:01:58.726.07-Aug-2020 5060.51 3684.22 87.47 7.00 214.45 2663.65
   04:01:58.926.07-Aug-2020 5060.51 3684.13 87.47 7.00 214.65 2663.65
   04:01:59.127.07-Aug-2020 5060.51 3684.27 87.47 7.00 214.85 2663.65
   04:01:59.327.07-Aug-2020 5060.51 3684.20 87.47 7.00 215.05 2663.65
   04:01:59.527.07-Aug-2020 5060.51 3684.20 87.47 7.00 215.25 2663.65
   04:01:59.727.07-Aug-2020 5060.51 3684.21 87.47 7.00 215.45 2663.65
   04:01:59.927.07-Aug-2020 5060.51 3684.22 87.47 7.00 215.65 2663.65
   04:02:00.127.07-Aug-2020 5060.51 3684.21 87.47 7.00 215.85 2663.65
   04:02:00.327.07-Aug-2020 5060.51 3684.20 87.47 7.00 216.05 2663.65
   04:02:00.527.07-Aug-2020 5060.51 3684.20 87.47 7.00 216.25 2663.65
   04:02:00.727.07-Aug-2020 5060.51 3684.20 87.47 7.00 216.45 2663.65
   04:02:00.927.07-Aug-2020 5060.51 3684.21 87.47 7.00 216.65 2663.65
   04:02:01.127.07-Aug-2020 5060.51 3684.20 87.46 7.00 216.85 2663.65
   04:02:01.327.07-Aug-2020 5060.51 3684.20 87.46 7.00 217.05 2663.65
   04:02:01.527.07-Aug-2020 5060.51 3684.20 87.46 7.00 217.25 2663.65
   04:02:01.727.07-Aug-2020 5060.51 3684.18 87.46 7.00 217.45 2663.65
   04:02:01.927.07-Aug-2020 5060.51 3684.24 87.46 7.00 217.65 2663.65
   04:02:02.127.07-Aug-2020 5060.51 3684.18 87.46 7.00 217.85 2663.65
   04:02:02.327.07-Aug-2020 5060.51 3684.23 87.46 7.00 218.05 2663.65
   04:02:02.527.07-Aug-2020 5060.51 3684.23 87.46 7.00 218.25 2663.65
   04:02:02.727.07-Aug-2020 5060.51 3684.21 87.46 7.00 218.45 2663.65
   04:02:02.927.07-Aug-2020 5060.51 3684.20 87.46 7.00 218.65 2663.65
   04:02:03.127.07-Aug-2020 5060.51 3684.19 87.46 7.00 218.85 2663.65
   04:02:03.327.07-Aug-2020 5060.51 3684.21 87.46 7.00 219.05 2663.65
   04:02:03.528.07-Aug-2020 5060.51 3684.21 87.46 7.00 219.25 2663.65
   04:02:03.728.07-Aug-2020 5060.51 3684.19 87.46 7.00 219.45 2663.65
   04:02:03.928.07-Aug-2020 5060.51 3684.19 87.46 7.00 219.65 2663.65
   04:02:04.128.07-Aug-2020 5060.51 3684.19 87.46 7.00 219.85 2663.65
   04:02:04.328.07-Aug-2020 5060.51 3684.09 87.46 7.00 220.05 2663.65
   04:02:04.528.07-Aug-2020 5060.51 3684.09 87.46 7.00 220.25 2663.65
   04:02:04.728.07-Aug-2020 5060.51 3684.20 87.46 7.00 220.45 2663.65
   04:02:04.928.07-Aug-2020 5060.51 3684.22 87.45 7.00 220.65 2663.65
   04:02:05.128.07-Aug-2020 5060.51 3684.16 87.45 7.00 220.85 2663.65
   04:02:05.328.07-Aug-2020 5060.51 3684.22 87.45 7.00 221.05 2663.65
   04:02:05.528.07-Aug-2020 5060.51 3684.22 87.45 7.00 221.25 2663.65
   04:02:05.728.07-Aug-2020 5060.51 3684.19 87.45 7.00 221.45 2663.65
   04:02:05.928.07-Aug-2020 5060.51 3684.23 87.45 7.00 221.65 2663.65
   04:02:06.128.07-Aug-2020 5060.51 3684.19 87.45 7.00 221.85 2663.65
   04:02:06.328.07-Aug-2020 5060.51 3684.15 87.45 7.00 222.05 2663.65
   04:02:06.528.07-Aug-2020 5060.51 3684.15 87.45 7.00 222.25 2663.65
   04:02:06.728.07-Aug-2020 5060.51 3684.20 87.45 7.00 222.45 2663.65
   04:02:06.928.07-Aug-2020 5060.51 3684.23 87.45 7.00 222.65 2663.65
   04:02:07.128.07-Aug-2020 5060.51 3684.21 87.45 7.00 222.85 2663.65
   04:02:07.328.07-Aug-2020 5060.51 3684.19 87.45 7.00 223.05 2663.65
   04:02:07.528.07-Aug-2020 5060.51 3684.19 87.45 7.00 223.25 2663.65
   04:02:07.729.07-Aug-2020 5060.51 3684.23 87.45 7.00 223.45 2663.65
   04:02:07.929.07-Aug-2020 5060.51 3684.22 87.45 7.00 223.65 2663.65
   04:02:08.129.07-Aug-2020 5060.51 3684.19 87.45 7.00 223.85 2663.65
   04:02:08.329.07-Aug-2020 5060.51 3684.23 87.45 7.00 224.05 2663.65
   04:02:08.529.07-Aug-2020 5060.51 3684.23 87.45 7.00 224.25 2663.65
   04:02:08.729.07-Aug-2020 5060.51 3684.21 87.45 7.00 224.45 2663.65
   04:02:08.929.07-Aug-2020 5060.51 3684.20 87.44 7.00 224.65 2663.65
   04:02:09.129.07-Aug-2020 5060.51 3684.20 87.44 7.00 224.85 2663.65
   04:02:09.329.07-Aug-2020 5060.51 3684.19 87.44 7.00 225.05 2663.65
   04:02:09.529.07-Aug-2020 5060.51 3684.19 87.44 7.00 225.25 2663.65
   04:02:09.729.07-Aug-2020 5060.51 3684.19 87.44 7.00 225.45 2663.65
   04:02:09.929.07-Aug-2020 5060.51 3684.19 87.44 7.00 225.65 2663.65
   04:02:10.129.07-Aug-2020 5060.51 3684.18 87.44 7.00 225.85 2663.65
   04:02:10.329.07-Aug-2020 5060.51 3684.07 87.44 7.00 226.05 2663.65
   04:02:10.529.07-Aug-2020 5060.51 3684.07 87.44 7.00 226.25 2663.65
   04:02:10.729.07-Aug-2020 5060.51 3684.19 87.44 7.00 226.45 2663.65
   04:02:10.929.07-Aug-2020 5060.51 3684.21 87.44 7.00 226.65 2663.65
   04:02:11.129.07-Aug-2020 5060.51 3684.21 87.44 7.00 226.85 2663.65
   04:02:11.329.07-Aug-2020 5060.51 3684.19 87.44 7.00 227.05 2663.65
   04:02:11.529.07-Aug-2020 5060.51 3684.19 87.44 7.00 227.25 2663.65
   04:02:11.729.07-Aug-2020 5060.51 3684.20 87.44 7.00 227.45 2663.65
   04:02:11.930.07-Aug-2020 5060.51 3684.19 87.44 7.00 227.65 2663.65
   04:02:12.130.07-Aug-2020 5060.51 3684.19 87.44 7.00 227.85 2663.65
   04:02:12.330.07-Aug-2020 5060.51 3684.18 87.44 7.00 228.05 2663.65
   04:02:12.530.07-Aug-2020 5060.51 3684.18 87.44 7.00 228.25 2663.65
   04:02:12.730.07-Aug-2020 5060.51 3684.17 87.43 7.00 228.45 2663.65
   04:02:12.930.07-Aug-2020 5060.51 3684.14 87.43 7.00 228.65 2663.65
   04:02:13.130.07-Aug-2020 5060.51 3684.15 87.43 7.00 228.85 2663.65
   04:02:13.330.07-Aug-2020 5060.51 3684.24 87.43 7.00 229.05 2663.65
   04:02:13.530.07-Aug-2020 5060.51 3684.24 87.43 7.00 229.25 2663.65
   04:02:13.730.07-Aug-2020 5060.51 3684.21 87.43 7.00 229.45 2663.65
   04:02:13.930.07-Aug-2020 5060.51 3684.11 87.43 7.00 229.65 2663.65
   04:02:14.130.07-Aug-2020 5060.51 3684.25 87.43 7.00 229.85 2663.65
