~Version Information
 VERS.                  2.0:   CWLS log ASCII Standard -VERSION 2.0
 WRAP.                   NO:   One line per depth step
~Well Information Block
#MNEM.UNIT     VALUE/NAME     DESCRIPTION
#---------     -----------    ---------------------------
 STRT.S             20:19:41 06-Aug-20: START TIME 20:19:41 06-Aug-20
 STOP.S             20:27:33 06-Aug-20: STOP TIME  20:27:33 06-Aug-20
 STEP.S                   0.00: STEP TIME
 NULL.                 -999.25: NULL VALUE
 DFWT.                        :  DIST FWL TEXT
 DFST.                        :  DIST FSL TEXT
 DMF .             Drill Floor:  DRILL MEAS FROM
 STIM.      12.00.00 03-Jul-20:  START TIME
 DATE.      00.50.00 09-Aug-20:  END TIME
 SPUD.               03-Jul-20:  SPUD DATE
 NREF.                    Grid:  NORTH REFERENCE
 HPTY.       Minimum Curvature:  HOLE POS TYPE
 DMOD.             Drill Model:  DRILL MOD DESC
 SVYD.                  Survey:  SURVEY DESC
 ILTD.               Lithology:  INTERP LTH DESC
 FTOP.          Formation Tops:  FORM TOPS DESC
 PDAT.          Mean Sea Level:  PERMANENT DATUM
 FLD .                     ACG:  FIELD NAME
 CTRY.              Azerbaijan:  COUNTRY NAME
 WELL.                    E04x:  WELL NAME
 SRVC.          Turan Drilling:  CONTRACTOR
 COMP.     BP Exploration (Caspian Sea) Ltd.:  COMPANY
 SON .        AZ-XX-0906531346:  JOB NUMBER
 WTYP.                Deviated:  WELL TYPE
 MDS .        Operator Entered:  MAG DATA SOURCE
 UWI .                     N/A:  UNIQUE WELL IDENTIFIER
 API .                     N/A:  API NUMBER
 BASE.              Azerbaijan:  LOGGING EQUIPMENT BASE LOCATION
 REGN.                   EESSA:  REGION
 PROV.                    Baku:  PROVINCE
 STAT.                    Baku:  STATE NAME
 MWDS.                    Baku:  MWD SHOP
 JOBN.        AZ-XX-0906531346:  JOB TICKET NUMB
 RIG .                     DWG:  RIG NAME
 DOE .                     N/A:  DOE NUMBER
 DCON.         Sperry Drilling:  DIRECTNL CONTR
 UNIT.                     N/A:  LOGGING EQUIPMENT ID
 CNTY.                        :  COUNTY
 LOC .                        :  LOCATION
 LMF .             Drill Floor:  LOG MEASURED FROM
 TVDS.m                  43.16:  TVDSS CORRECTN
 LATI.deg                40.17:  LATITUDE
 LONG.deg                51.17:  LONGITUDE
 WHNS.m                  -0.12:  WELL HEAD N/S
 WHEW.m                  -5.41:  WELL HEAD E/W
 UTMX.m              514337.95:  UTM X
 UTMY.m             4448627.46:  UTM Y
 DFWL.m                   0.00:  DISTANCE FWL
 DFSL.m                   0.00:  DISTANCE FSL
 SDEP.m                3088.01:  START DEPTH
 TDD .m                5200.01:  TOTAL DEPTH (DRILLER)
 VSDR.deg               244.51:  VERT SEC DIRECT
 GVFD.g                   1.00:  GRAVITY FIELD
 MFLD.nT              50329.80:  MAGNETIC FIELD
 MDIP.deg                59.63:  MAGNETIC DIP
 MDEC.deg                 6.59:  MAGNETIC DECL
 GRDC.deg                 0.09:  GRID CORRECTION
 AZTC.deg                 6.50:  AZM TOTAL CORR
 EPD .m                   0.00:  ELEVATION
 EGL .m                   0.00:  GROUND ELEVATION
 WDMS.m                 176.20:  WD ELEV
 APD .m                  43.16:  DEPTH ABOVE PD
 DEP .m                3084.71:  DEPTH
 AGAP.m                  43.16:  AIR GAP
 VSEW.m                  -5.41:  VERT SEC E/W
 VSNS.m                  -0.12:  VERT SEC N/S
 EKB .m                   0.00:  KB ELEVATION
 EDF .m                  43.16:  DF ELEVATION
 TDL .m                 243.00:  TOTAL DEPTH (LOGGER)
 VSC .                       0:  VS TO CLOSURE
 MAGU.                 1853542:  MAGUTM CHECKSUM
~Parameter Information Block
#MNEM.UNIT       Value        Description
#---------     -----------    ---------------------------
 AV  .mps                 1.91:  Ann Velocity 
 AVMX.mps                 2.52:  Max Ann Veloc 
 AZIF.deg               308.97:  Azm, Final 
 BHAT.        Rotary Steerable:  BHA Type 
 BROT.°/30m               1.00:  Build Rotating 
 BS  .in                  6.50:  Bit Size 
 BSZ .in                  6.50:  Bit Size 
 BTPL.psig              350.00:  Bit Press Loss 
 CABU.                      No:  Customer Abuse 
 CGEO.           Asif Pashayev:  Customer Geo 
 COMM.                     4è‹:  Run Comments 1 
 TCS .hr                 35.86:  Time Ciculation Ended 
 CV  .mps                 2.31:  Crit Velocity 
 CVMX.mps                 2.31:  Max Crit Veloc 
 DD1 .         Intigam Rahimov:  Direct Drillr 1 
 DDSV.               Geo-Pilot:  DD Service 
 DEFF.%                  92.00:  % Det Eff 
 DLRX.°/30m               1.00:  Dogleg Rot Max 
 DLSO.°/30m               1.00:  Dogleg Oriented 
 DLSX.°/30m               1.42:  Dogleg Str Max 
 DRET.      15.50.00 07-Aug-20:  Drill End Time 
 DRST.      10.40.00 06-Aug-20:  Drill Start Tim 
 DTIM.hr                 21.30:  Time Drilling 
 EDEP.m                5200.01:  End Depth 
 ENG1.            Alan Tuganov:  Engineer 1 
 ENG2.         Almaz Almadatov:  Engineer 2 
 ENG3.     Zammelal Abdullah Sani:  Engineer 3 
 ETIM.      22.42.00 08-Aug-20:  End Time 
 FLOI.gpm               395.00:  Flow In 
 FLON.gpm               350.00:  Flow In Min 
 FLOS.cptm                0.00:  Fluid Loss 
 FLOX.gpm               404.00:  Flow In Max 
 FTRO.       Formation Presure:  FTWD Run Obj 
 HFLO.                      No:  High Flow 
 HPRE.                      No:  High Pressure 
 HTEM.                      No:  High Temp 
 HYDO.m                   1.80:  Hydro Offset 
 IFIN.deg                72.64:  Inc, Final 
 IMAX.deg                73.68:  Inc Max 
 IMIN.deg                72.64:  Inc Min 
 IMND.m                5189.69:  Inc Min Depth 
 IMXD.m                5067.88:  Inc Max Depth 
 JARR.                      No:  Jarring 
 LETM.      15.50.00 07-Aug-20:  Log End Time 
 LOST.hr                     0:  Lost Rig Time 
 LSTM.      10.40.00 06-Aug-20:  Log Start Time 
 MDCL.ppm             36000.00:  Mud Chlorides 
 MDES.     Inversion Oil/Synthetic:  Mud Desc 
 DFD .sg                  1.36:  Mud Density 
 MDMN.sg                  1.36:  Dens Mud Min 
 MDMX.sg                  1.36:  Dens Mud Max 
 MOIL.                      70:  Run Mud Oil % 
 MOWR.                   70:30:  Run Mud OWR 
 MSND.                    0.00:  Run Mud Sand % 
 MSOL.                   17.60:  Run Mud Solids% 
 DFV .spqt               73.00:  Mud Viscosity 
 MWOD.in                  4.75:  MWD Tool OD 
 MWSI.                      No:  Serv Intrp, MWD 
 OTIM.hr                 85.66:  Time Operating 
 PCON.           Look Like New:  Pad Condition 
 PMAX.psia             6250.00:  Press Op, Max 
 PV  .cP                 65.00:  Mud PV 
 RUN .                     900:  Run Number 
 ROPA.m/hr               11.40:  ROP Avg 
 ROPN.m/hr                5.00:  ROP Min 
 ROPX.m/hr               20.00:  ROP Max 
 RPMA.rpm               130.00:  RPM Surface Avg 
 RPMN.rpm                40.00:  RPM Surface Min 
 RPMX.rpm               140.00:  RPM Surface Max 
 RRUN.                    L205:  Rig Run Number 
 RTIM.hr                  1.00:  Time Reaming 
 SAZI.deg               313.52:  Azm, Start 
 SDEP.m                4957.01:  Start Depth 
 SIDD.                      No:  Serv Intrp, DD 
 SINC.deg                73.16:  Inc, Start 
 SPPA.psig             5657.00:  SPP Avg 
 SPPN.psig             2500.00:  SPP Min 
 SPPX.psig             5806.00:  SPP Max 
 STIM.      07.12.00 05-Aug-20:  Start Time 
 SVCS.                 DD, MWD:  Services 
 SVER.                    9.20:  Sperry Version 
 TDAT.m                 243.00:  Tot Depth Attmp 
 TDDF.                      No:  Trip for DD 
 TDLG.m                 243.00:  Tot Depth Loggd 
 TFF .                      No:  Trip for Fail 
 TQAA.f-kp               13.00:  Torque Abs Avg 
 TQAN.f-kp               11.00:  Torque Abs Min 
 TQAX.f-kp               16.00:  Torque Abs Max 
 TRRT.°/30m               1.00:  Turn Rotating 
 MRT .                    HCIM:  Maximum Recorded Temperature 
 TTMX.degC               96.08:  Max Tool Temp 
 VS01.                90515411:  Virtual Str1 SN 
 VS02.                90512716:  Virtual Str2 SN 
 VS03.                90522362:  Virtual Str3 SN 
 VS04.                90619415:  Virtual Str4 SN 
 VS05.                90619414:  Virtual Str5 SN 
 VS06.                90597748:  Virtual Str6 SN 
 WBMN.klb                 2.00:  WOB Min 
 WITN.           Adil Mammadov:  Customer Rep 
 WITN.     Alexander Yadullayev:  Customer Rep 2 
 WOBA.klb                 7.00:  WOB Avg 
 WOBX.klb                23.00:  WOB Max 
 YP  .lhf2               37.00:  Yield Point 
~Curve Information Block
#MNEM.UNIT                 API CODE     Curve Description
#---------               -----------    ---------------------------
 TIME.HHMMSS            00 000 000 000:  GT Time & Date
 GTDEPTH.m              00 000 000 000:  GT Depth
 GTPQH.psia             00 000 000 000:  GT HR Quartz Pressure
 GTTQ.degC              00 000 000 000:  GT Quartz Temperature
 GTTN.NONE              00 000 000 000:  GT Test Number
 GTET.sec               00 000 000 000:  GT Elapsed Test Time
 GTTVD.m                00 000 000 000:  GT True Vertical Depth
#Other Information
#
#WARRANTY: Halliburton will use its best efforts to furnish customers with 
#accurate information and interpretations that are part of, and incident to, the services 
#provided.  However, Halliburton cannot and does not warrant the accuracy 
#or correctness of such information and interpretations.  Under no circumstances should any 
#such information or interpretation be relied upon as the sole basis for any drilling, 
#completion, production, or financial decision or any procedure involving any risk to the 
#safety of any drilling venture, drilling rig or its crew or any other third party.  The 
#Customer has full responsibility for all drilling, completion and production operation.  
#Halliburton makes no representations or warranties, either expressed or 
#implied, including, but not limited to, the implied warranties of merchantability or fitness 
#for a particular purpose, with respect to the services rendered.  In no event will 
#Halliburton be liable for failure to obtain any particular results or for 
#any damages, including, but not limited to, indirect, special or consequential damages, 
#resulting from the use of any information or interpretation provided by Halliburton.
#
~A           TIME           GTDEPTH  GTPQH  GTTQ  GTTN  GTET   GTTVD  
# ...
   20:20:50.373.06-Aug-2020 4993.01 3487.38 83.14 3.00  69.03 2644.18
   20:20:50.573.06-Aug-2020 4993.01 3487.38 83.14 3.00  69.23 2644.18
   20:20:50.773.06-Aug-2020 4993.01 3487.38 83.14 3.00  69.43 2644.18
   20:20:50.973.06-Aug-2020 4993.01 3487.39 83.14 3.00  69.63 2644.18
   20:20:51.173.06-Aug-2020 4993.01 3487.41 83.14 3.00  69.83 2644.18
   20:20:51.373.06-Aug-2020 4993.01 3487.38 83.14 3.00  70.03 2644.18
   20:20:51.573.06-Aug-2020 4993.01 3487.38 83.14 3.00  70.23 2644.18
   20:20:51.773.06-Aug-2020 4993.01 3487.39 83.14 3.00  70.43 2644.18
   20:20:51.973.06-Aug-2020 4993.01 3487.40 83.14 3.00  70.63 2644.18
   20:20:52.173.06-Aug-2020 4993.01 3487.29 83.14 3.00  70.83 2644.18
   20:20:52.373.06-Aug-2020 4993.01 3487.42 83.14 3.00  71.03 2644.18
   20:20:52.573.06-Aug-2020 4993.01 3487.42 83.14 3.00  71.23 2644.18
   20:20:52.774.06-Aug-2020 4993.01 3487.42 83.14 3.00  71.43 2644.18
   20:20:52.974.06-Aug-2020 4993.01 3487.38 83.14 3.00  71.63 2644.18
   20:20:53.174.06-Aug-2020 4993.01 3487.38 83.14 3.00  71.83 2644.18
   20:20:53.374.06-Aug-2020 4993.01 3487.25 83.13 3.00  72.03 2644.18
   20:20:53.574.06-Aug-2020 4993.01 3487.25 83.13 3.00  72.23 2644.18
   20:20:53.774.06-Aug-2020 4993.01 3487.33 83.13 3.00  72.43 2644.18
   20:20:53.974.06-Aug-2020 4993.01 3487.36 83.13 3.00  72.63 2644.18
   20:20:54.174.06-Aug-2020 4993.01 3487.39 83.13 3.00  72.83 2644.18
   20:20:54.374.06-Aug-2020 4993.01 3487.21 83.13 3.00  73.03 2644.18
   20:20:54.574.06-Aug-2020 4993.01 3487.21 83.13 3.00  73.23 2644.18
   20:20:54.774.06-Aug-2020 4993.01 3487.40 83.13 3.00  73.43 2644.18
   20:20:54.974.06-Aug-2020 4993.01 3487.35 83.13 3.00  73.63 2644.18
   20:20:55.174.06-Aug-2020 4993.01 3487.17 83.13 3.00  73.83 2644.18
   20:20:55.375.06-Aug-2020 4993.01 3487.44 83.13 3.00  74.03 2644.18
   20:20:55.575.06-Aug-2020 4993.01 3487.44 83.13 3.00  74.23 2644.18
   20:20:55.775.06-Aug-2020 4993.01 3487.36 83.13 3.00  74.43 2644.18
   20:20:55.975.06-Aug-2020 4993.01 3487.37 83.13 3.00  74.63 2644.18
   20:20:56.175.06-Aug-2020 4993.01 3487.38 83.13 3.00  74.83 2644.18
   20:20:56.375.06-Aug-2020 4993.01 3487.36 83.13 3.00  75.03 2644.18
   20:20:56.575.06-Aug-2020 4993.01 3487.36 83.13 3.00  75.23 2644.18
   20:20:56.775.06-Aug-2020 4993.01 3487.36 83.13 3.00  75.43 2644.18
   20:20:56.975.06-Aug-2020 4993.01 3487.37 83.12 3.00  75.63 2644.18
   20:20:57.175.06-Aug-2020 4993.01 3487.37 83.12 3.00  75.83 2644.18
   20:20:57.375.06-Aug-2020 4993.01 3487.39 83.12 3.00  76.03 2644.18
   20:20:57.575.06-Aug-2020 4993.01 3487.39 83.12 3.00  76.23 2644.18
   20:20:57.775.06-Aug-2020 4993.01 3487.29 83.12 3.00  76.43 2644.18
   20:20:57.976.06-Aug-2020 4993.01 3487.38 83.12 3.00  76.63 2644.18
   20:20:58.176.06-Aug-2020 4993.01 3487.31 83.12 3.00  76.83 2644.18
   20:20:58.376.06-Aug-2020 4993.01 3487.38 83.12 3.00  77.03 2644.18
   20:20:58.576.06-Aug-2020 4993.01 3487.38 83.12 3.00  77.23 2644.18
   20:20:58.776.06-Aug-2020 4993.01 3487.34 83.12 3.00  77.43 2644.18
   20:20:58.976.06-Aug-2020 4993.01 3487.39 83.12 3.00  77.63 2644.18
   20:20:59.176.06-Aug-2020 4993.01 3487.35 83.12 3.00  77.83 2644.18
   20:20:59.376.06-Aug-2020 4993.01 3487.37 83.12 3.00  78.03 2644.18
   20:20:59.576.06-Aug-2020 4993.01 3487.37 83.12 3.00  78.23 2644.18
   20:20:59.776.06-Aug-2020 4993.01 3487.37 83.12 3.00  78.43 2644.18
   20:20:59.976.06-Aug-2020 4993.01 3487.36 83.12 3.00  78.63 2644.18
   20:21:00.176.06-Aug-2020 4993.01 3487.36 83.12 3.00  78.83 2644.18
   20:21:00.376.06-Aug-2020 4993.01 3487.36 83.11 3.00  79.03 2644.18
   20:21:00.577.06-Aug-2020 4993.01 3487.36 83.11 3.00  79.23 2644.18
   20:21:00.777.06-Aug-2020 4993.01 3487.45 83.11 3.00  79.43 2644.18
   20:21:00.977.06-Aug-2020 4993.01 3487.32 83.11 3.00  79.63 2644.18
   20:21:01.177.06-Aug-2020 4993.01 3487.32 83.11 3.00  79.83 2644.18
   20:21:01.377.06-Aug-2020 4993.01 3487.36 83.11 3.00  80.03 2644.18
   20:21:01.577.06-Aug-2020 4993.01 3487.36 83.11 3.00  80.23 2644.18
   20:21:01.777.06-Aug-2020 4993.01 3487.22 83.11 3.00  80.43 2644.18
   20:21:01.977.06-Aug-2020 4993.01 3487.39 83.11 3.00  80.63 2644.18
   20:21:02.177.06-Aug-2020 4993.01 3487.39 83.11 3.00  80.83 2644.18
   20:21:02.377.06-Aug-2020 4993.01 3487.34 83.11 3.00  81.03 2644.18
   20:21:02.577.06-Aug-2020 4993.01 3487.34 83.11 3.00  81.23 2644.18
   20:21:02.777.06-Aug-2020 4993.01 3487.30 83.11 3.00  81.43 2644.18
   20:21:02.977.06-Aug-2020 4993.01 3487.28 83.11 3.00  81.63 2644.18
   20:21:03.178.06-Aug-2020 4993.01 3487.40 83.11 3.00  81.83 2644.18
   20:21:03.378.06-Aug-2020 4993.01 3487.28 83.11 3.00  82.03 2644.18
   20:21:03.578.06-Aug-2020 4993.01 3487.28 83.11 3.00  82.23 2644.18
   20:21:03.778.06-Aug-2020 4993.01 3487.27 83.11 3.00  82.43 2644.18
   20:21:03.978.06-Aug-2020 4993.01 3487.40 83.10 3.00  82.63 2644.18
   20:21:04.178.06-Aug-2020 4993.01 3487.30 83.10 3.00  82.83 2644.18
   20:21:04.378.06-Aug-2020 4993.01 3487.34 83.10 3.00  83.03 2644.18
   20:21:04.578.06-Aug-2020 4993.01 3487.34 83.10 3.00  83.23 2644.18
   20:21:04.778.06-Aug-2020 4993.01 3487.34 83.10 3.00  83.43 2644.18
   20:21:04.978.06-Aug-2020 4993.01 3487.34 83.10 3.00  83.63 2644.18
   20:21:05.178.06-Aug-2020 4993.01 3487.34 83.10 3.00  83.83 2644.18
   20:21:05.378.06-Aug-2020 4993.01 3487.33 83.10 3.00  84.03 2644.18
   20:21:05.578.06-Aug-2020 4993.01 3487.33 83.10 3.00  84.23 2644.18
   20:21:05.779.06-Aug-2020 4993.01 3487.34 83.10 3.00  84.43 2644.18
   20:21:05.979.06-Aug-2020 4993.01 3487.33 83.10 3.00  84.63 2644.18
   20:21:06.179.06-Aug-2020 4993.01 3487.20 83.10 3.00  84.83 2644.18
   20:21:06.379.06-Aug-2020 4993.01 3487.40 83.10 3.00  85.03 2644.18
   20:21:06.579.06-Aug-2020 4993.01 3487.40 83.10 3.00  85.23 2644.18
   20:21:06.779.06-Aug-2020 4993.01 3487.28 83.10 3.00  85.43 2644.18
   20:21:06.979.06-Aug-2020 4993.01 3487.37 83.10 3.00  85.63 2644.18
   20:21:07.179.06-Aug-2020 4993.01 3487.30 83.10 3.00  85.83 2644.18
   20:21:07.379.06-Aug-2020 4993.01 3487.34 83.09 3.00  86.03 2644.18
   20:21:07.579.06-Aug-2020 4993.01 3487.34 83.09 3.00  86.23 2644.18
   20:21:07.779.06-Aug-2020 4993.01 3487.33 83.09 3.00  86.43 2644.18
   20:21:07.979.06-Aug-2020 4993.01 3487.31 83.09 3.00  86.63 2644.18
   20:21:08.179.06-Aug-2020 4993.01 3487.34 83.09 3.00  86.83 2644.18
   20:21:08.380.06-Aug-2020 4993.01 3487.32 83.09 3.00  87.03 2644.18
   20:21:08.580.06-Aug-2020 4993.01 3487.32 83.09 3.00  87.23 2644.18
   20:21:08.780.06-Aug-2020 4993.01 3487.31 83.09 3.00  87.43 2644.18
   20:21:08.980.06-Aug-2020 4993.01 3487.17 83.09 3.00  87.63 2644.18
   20:21:09.180.06-Aug-2020 4993.01 3487.32 83.09 3.00  87.83 2644.18
   20:21:09.380.06-Aug-2020 4993.01 3487.38 83.09 3.00  88.03 2644.18
   20:21:09.580.06-Aug-2020 4993.01 3487.38 83.09 3.00  88.23 2644.18
   20:21:09.780.06-Aug-2020 4993.01 3487.32 83.09 3.00  88.43 2644.18
   20:21:09.980.06-Aug-2020 4993.01 3487.27 83.09 3.00  88.63 2644.18
   20:21:10.180.06-Aug-2020 4993.01 3487.31 83.09 3.00  88.83 2644.18
   20:21:10.380.06-Aug-2020 4993.01 3487.25 83.09 3.00  89.03 2644.18
   20:21:10.580.06-Aug-2020 4993.01 3487.25 83.09 3.00  89.23 2644.18
   20:21:10.780.06-Aug-2020 4993.01 3487.30 83.09 3.00  89.43 2644.18
   20:21:10.981.06-Aug-2020 4993.01 3487.21 83.08 3.00  89.63 2644.18
   20:21:11.181.06-Aug-2020 4993.01 3487.38 83.08 3.00  89.83 2644.18
   20:21:11.381.06-Aug-2020 4993.01 3487.23 83.08 3.00  90.03 2644.18
   20:21:11.581.06-Aug-2020 4993.01 3487.23 83.08 3.00  90.23 2644.18
   20:21:11.781.06-Aug-2020 4993.01 3487.21 83.08 3.00  90.43 2644.18
   20:21:11.981.06-Aug-2020 4993.01 3487.41 83.08 3.00  90.63 2644.18
   20:21:12.181.06-Aug-2020 4993.01 3487.21 83.08 3.00  90.83 2644.18
   20:21:12.381.06-Aug-2020 4993.01 3487.32 83.08 3.00  91.03 2644.18
   20:21:12.581.06-Aug-2020 4993.01 3487.32 83.08 3.00  91.23 2644.18
   20:21:12.781.06-Aug-2020 4993.01 3487.31 83.08 3.00  91.43 2644.18
   20:21:12.981.06-Aug-2020 4993.01 3487.30 83.08 3.00  91.64 2644.18
   20:21:13.181.06-Aug-2020 4993.01 3487.32 83.08 3.00  91.84 2644.18
