~Version Information
 VERS.                  2.0:   CWLS log ASCII Standard -VERSION 2.0
 WRAP.                   NO:   One line per depth step
~Well Information Block
#MNEM.UNIT     VALUE/NAME     DESCRIPTION
#---------     -----------    ---------------------------
 STRT.S             03:58:24 07-Aug-20: START TIME 03:58:24 07-Aug-20
 STOP.S             04:06:16 07-Aug-20: STOP TIME  04:06:16 07-Aug-20
 STEP.S                   0.00: STEP TIME
 NULL.                 -999.25: NULL VALUE
 DFWT.                        :  DIST FWL TEXT
 DFST.                        :  DIST FSL TEXT
 DMF .             Drill Floor:  DRILL MEAS FROM
 STIM.      12.00.00 03-Jul-20:  START TIME
 DATE.      00.50.00 09-Aug-20:  END TIME
 SPUD.               03-Jul-20:  SPUD DATE
 NREF.                    Grid:  NORTH REFERENCE
 HPTY.       Minimum Curvature:  HOLE POS TYPE
 DMOD.             Drill Model:  DRILL MOD DESC
 SVYD.                  Survey:  SURVEY DESC
 ILTD.               Lithology:  INTERP LTH DESC
 FTOP.          Formation Tops:  FORM TOPS DESC
 PDAT.          Mean Sea Level:  PERMANENT DATUM
 FLD .                     ACG:  FIELD NAME
 CTRY.              Azerbaijan:  COUNTRY NAME
 WELL.                    E04x:  WELL NAME
 SRVC.          Turan Drilling:  CONTRACTOR
 COMP.     BP Exploration (Caspian Sea) Ltd.:  COMPANY
 SON .        AZ-XX-0906531346:  JOB NUMBER
 WTYP.                Deviated:  WELL TYPE
 MDS .        Operator Entered:  MAG DATA SOURCE
 UWI .                     N/A:  UNIQUE WELL IDENTIFIER
 API .                     N/A:  API NUMBER
 BASE.              Azerbaijan:  LOGGING EQUIPMENT BASE LOCATION
 REGN.                   EESSA:  REGION
 PROV.                    Baku:  PROVINCE
 STAT.                    Baku:  STATE NAME
 MWDS.                    Baku:  MWD SHOP
 JOBN.        AZ-XX-0906531346:  JOB TICKET NUMB
 RIG .                     DWG:  RIG NAME
 DOE .                     N/A:  DOE NUMBER
 DCON.         Sperry Drilling:  DIRECTNL CONTR
 UNIT.                     N/A:  LOGGING EQUIPMENT ID
 CNTY.                        :  COUNTY
 LOC .                        :  LOCATION
 LMF .             Drill Floor:  LOG MEASURED FROM
 TVDS.m                  43.16:  TVDSS CORRECTN
 LATI.deg                40.17:  LATITUDE
 LONG.deg                51.17:  LONGITUDE
 WHNS.m                  -0.12:  WELL HEAD N/S
 WHEW.m                  -5.41:  WELL HEAD E/W
 UTMX.m              514337.95:  UTM X
 UTMY.m             4448627.46:  UTM Y
 DFWL.m                   0.00:  DISTANCE FWL
 DFSL.m                   0.00:  DISTANCE FSL
 SDEP.m                3088.01:  START DEPTH
 TDD .m                5200.01:  TOTAL DEPTH (DRILLER)
 VSDR.deg               244.51:  VERT SEC DIRECT
 GVFD.g                   1.00:  GRAVITY FIELD
 MFLD.nT              50329.80:  MAGNETIC FIELD
 MDIP.deg                59.63:  MAGNETIC DIP
 MDEC.deg                 6.59:  MAGNETIC DECL
 GRDC.deg                 0.09:  GRID CORRECTION
 AZTC.deg                 6.50:  AZM TOTAL CORR
 EPD .m                   0.00:  ELEVATION
 EGL .m                   0.00:  GROUND ELEVATION
 WDMS.m                 176.20:  WD ELEV
 APD .m                  43.16:  DEPTH ABOVE PD
 DEP .m                3084.71:  DEPTH
 AGAP.m                  43.16:  AIR GAP
 VSEW.m                  -5.41:  VERT SEC E/W
 VSNS.m                  -0.12:  VERT SEC N/S
 EKB .m                   0.00:  KB ELEVATION
 EDF .m                  43.16:  DF ELEVATION
 TDL .m                 243.00:  TOTAL DEPTH (LOGGER)
 VSC .                       0:  VS TO CLOSURE
 MAGU.                 1853542:  MAGUTM CHECKSUM
~Parameter Information Block
#MNEM.UNIT       Value        Description
#---------     -----------    ---------------------------
 AV  .mps                 1.91:  Ann Velocity 
 AVMX.mps                 2.52:  Max Ann Veloc 
 AZIF.deg               308.97:  Azm, Final 
 BHAT.        Rotary Steerable:  BHA Type 
 BROT.°/30m               1.00:  Build Rotating 
 BS  .in                  6.50:  Bit Size 
 BSZ .in                  6.50:  Bit Size 
 BTPL.psig              350.00:  Bit Press Loss 
 CABU.                      No:  Customer Abuse 
 CGEO.           Asif Pashayev:  Customer Geo 
 TCS .hr                 35.86:  Time Ciculation Ended 
 CV  .mps                 2.31:  Crit Velocity 
 CVMX.mps                 2.31:  Max Crit Veloc 
 DD1 .         Intigam Rahimov:  Direct Drillr 1 
 DDSV.               Geo-Pilot:  DD Service 
 DEFF.%                  92.00:  % Det Eff 
 DLRX.°/30m               1.00:  Dogleg Rot Max 
 DLSO.°/30m               1.00:  Dogleg Oriented 
 DLSX.°/30m               1.42:  Dogleg Str Max 
 DRET.      15.50.00 07-Aug-20:  Drill End Time 
 DRST.      10.40.00 06-Aug-20:  Drill Start Tim 
 DTIM.hr                 21.30:  Time Drilling 
 EDEP.m                5200.01:  End Depth 
 ENG1.            Alan Tuganov:  Engineer 1 
 ENG2.         Almaz Almadatov:  Engineer 2 
 ENG3.     Zammelal Abdullah Sani:  Engineer 3 
 ETIM.      22.42.00 08-Aug-20:  End Time 
 FLOI.gpm               395.00:  Flow In 
 FLON.gpm               350.00:  Flow In Min 
 FLOS.cptm                0.00:  Fluid Loss 
 FLOX.gpm               404.00:  Flow In Max 
 FTRO.       Formation Presure:  FTWD Run Obj 
 HFLO.                      No:  High Flow 
 HPRE.                      No:  High Pressure 
 HTEM.                      No:  High Temp 
 HYDO.m                   1.80:  Hydro Offset 
 IFIN.deg                72.64:  Inc, Final 
 IMAX.deg                73.68:  Inc Max 
 IMIN.deg                72.64:  Inc Min 
 IMND.m                5189.69:  Inc Min Depth 
 IMXD.m                5067.88:  Inc Max Depth 
 JARR.                      No:  Jarring 
 LETM.      15.50.00 07-Aug-20:  Log End Time 
 LOST.hr                     0:  Lost Rig Time 
 LSTM.      10.40.00 06-Aug-20:  Log Start Time 
 MDCL.ppm             36000.00:  Mud Chlorides 
 MDES.     Inversion Oil/Synthetic:  Mud Desc 
 DFD .sg                  1.36:  Mud Density 
 MDMN.sg                  1.36:  Dens Mud Min 
 MDMX.sg                  1.36:  Dens Mud Max 
 MOIL.                      70:  Run Mud Oil % 
 MOWR.                   70:30:  Run Mud OWR 
 MSND.                    0.00:  Run Mud Sand % 
 MSOL.                   17.60:  Run Mud Solids% 
 DFV .spqt               73.00:  Mud Viscosity 
 MWOD.in                  4.75:  MWD Tool OD 
 MWSI.                      No:  Serv Intrp, MWD 
 OTIM.hr                 85.66:  Time Operating 
 PCON.           Look Like New:  Pad Condition 
 PMAX.psia             6250.00:  Press Op, Max 
 PV  .cP                 65.00:  Mud PV 
 RUN .                     900:  Run Number 
 ROPA.m/hr               11.40:  ROP Avg 
 ROPN.m/hr                5.00:  ROP Min 
 ROPX.m/hr               20.00:  ROP Max 
 RPMA.rpm               130.00:  RPM Surface Avg 
 RPMN.rpm                40.00:  RPM Surface Min 
 RPMX.rpm               140.00:  RPM Surface Max 
 RRUN.                    L205:  Rig Run Number 
 RTIM.hr                  1.00:  Time Reaming 
 SAZI.deg               313.52:  Azm, Start 
 SDEP.m                4957.01:  Start Depth 
 SIDD.                      No:  Serv Intrp, DD 
 SINC.deg                73.16:  Inc, Start 
 SPPA.psig             5657.00:  SPP Avg 
 SPPN.psig             2500.00:  SPP Min 
 SPPX.psig             5806.00:  SPP Max 
 STIM.      07.12.00 05-Aug-20:  Start Time 
 SVCS.                 DD, MWD:  Services 
 SVER.                    9.20:  Sperry Version 
 TDAT.m                 243.00:  Tot Depth Attmp 
 TDDF.                      No:  Trip for DD 
 TDLG.m                 243.00:  Tot Depth Loggd 
 TFF .                      No:  Trip for Fail 
 TQAA.f-kp               13.00:  Torque Abs Avg 
 TQAN.f-kp               11.00:  Torque Abs Min 
 TQAX.f-kp               16.00:  Torque Abs Max 
 TRRT.°/30m               1.00:  Turn Rotating 
 MRT .                    HCIM:  Maximum Recorded Temperature 
 TTMX.degC               96.08:  Max Tool Temp 
 VS01.                90515411:  Virtual Str1 SN 
 VS02.                90512716:  Virtual Str2 SN 
 VS03.                90522362:  Virtual Str3 SN 
 VS04.                90619415:  Virtual Str4 SN 
 VS05.                90619414:  Virtual Str5 SN 
 VS06.                90597748:  Virtual Str6 SN 
 WBMN.klb                 2.00:  WOB Min 
 WITN.           Adil Mammadov:  Customer Rep 
 WITN.     Alexander Yadullayev:  Customer Rep 2 
 WOBA.klb                 7.00:  WOB Avg 
 WOBX.klb                23.00:  WOB Max 
 YP  .lhf2               37.00:  Yield Point 
~Curve Information Block
#MNEM.UNIT                 API CODE     Curve Description
#---------               -----------    ---------------------------
 TIME.HHMMSS            00 000 000 000:  GT Time & Date
 GTDEPTH.m              00 000 000 000:  GT Depth
 GTPQH.psia             00 000 000 000:  GT HR Quartz Pressure
 GTTQ.degC              00 000 000 000:  GT Quartz Temperature
 GTTN.NONE              00 000 000 000:  GT Test Number
 GTET.sec               00 000 000 000:  GT Elapsed Test Time
 GTTVD.m                00 000 000 000:  GT True Vertical Depth
#Other Information
#
#WARRANTY: Halliburton will use its best efforts to furnish customers with 
#accurate information and interpretations that are part of, and incident to, the services 
#provided.  However, Halliburton cannot and does not warrant the accuracy 
#or correctness of such information and interpretations.  Under no circumstances should any 
#such information or interpretation be relied upon as the sole basis for any drilling, 
#completion, production, or financial decision or any procedure involving any risk to the 
#safety of any drilling venture, drilling rig or its crew or any other third party.  The 
#Customer has full responsibility for all drilling, completion and production operation.  
#Halliburton makes no representations or warranties, either expressed or 
#implied, including, but not limited to, the implied warranties of merchantability or fitness 
#for a particular purpose, with respect to the services rendered.  In no event will 
#Halliburton be liable for failure to obtain any particular results or for 
#any damages, including, but not limited to, indirect, special or consequential damages, 
#resulting from the use of any information or interpretation provided by Halliburton.
#
~A           TIME           GTDEPTH  GTPQH  GTTQ  GTTN  GTET   GTTVD  
# ...
   03:58:47.281.07-Aug-2020 5060.51 6104.19 88.09 7.00  23.01 2663.65
   03:58:47.481.07-Aug-2020 5060.51 6104.19 88.09 7.00  23.21 2663.65
   03:58:47.681.07-Aug-2020 5060.51 6132.17 88.09 7.00  23.41 2663.65
   03:58:47.881.07-Aug-2020 5060.51 6139.43 88.09 7.00  23.61 2663.65
   03:58:48.082.07-Aug-2020 5060.51 6143.66 88.09 7.00  23.81 2663.65
   03:58:48.282.07-Aug-2020 5060.51 6147.94 88.09 7.00  24.01 2663.65
   03:58:48.482.07-Aug-2020 5060.51 6147.94 88.09 7.00  24.21 2663.65
   03:58:48.682.07-Aug-2020 5060.51 6153.51 88.09 7.00  24.41 2663.65
   03:58:48.882.07-Aug-2020 5060.51 6155.13 88.09 7.00  24.61 2663.65
   03:58:49.082.07-Aug-2020 5060.51 6094.08 88.09 7.00  24.81 2663.65
   03:58:49.282.07-Aug-2020 5060.51 5558.60 88.09 7.00  25.01 2663.65
   03:58:49.482.07-Aug-2020 5060.51 5558.60 88.09 7.00  25.21 2663.65
   03:58:49.682.07-Aug-2020 5060.51 4732.62 88.09 7.00  25.41 2663.65
   03:58:49.882.07-Aug-2020 5060.51 4212.66 88.09 7.00  25.61 2663.65
   03:58:50.082.07-Aug-2020 5060.51 3811.30 88.09 7.00  25.81 2663.65
   03:58:50.282.07-Aug-2020 5060.51 3679.34 88.09 7.00  26.01 2663.65
   03:58:50.482.07-Aug-2020 5060.51 3679.34 88.09 7.00  26.21 2663.65
   03:58:50.682.07-Aug-2020 5060.51 3682.06 88.09 7.00  26.41 2663.65
   03:58:50.882.07-Aug-2020 5060.51 3683.55 88.08 7.00  26.61 2663.65
   03:58:51.082.07-Aug-2020 5060.51 3685.65 88.08 7.00  26.81 2663.65
   03:58:51.282.07-Aug-2020 5060.51 3685.56 88.08 7.00  27.01 2663.65
   03:58:51.482.07-Aug-2020 5060.51 3685.56 88.08 7.00  27.21 2663.65
   03:58:51.682.07-Aug-2020 5060.51 3684.09 88.08 7.00  27.41 2663.65
   03:58:51.882.07-Aug-2020 5060.51 3683.19 88.08 7.00  27.61 2663.65
   03:58:52.082.07-Aug-2020 5060.51 3682.50 88.08 7.00  27.81 2663.65
   03:58:52.283.07-Aug-2020 5060.51 3682.88 88.08 7.00  28.01 2663.65
   03:58:52.483.07-Aug-2020 5060.51 3682.88 88.08 7.00  28.21 2663.65
   03:58:52.683.07-Aug-2020 5060.51 3681.61 88.08 7.00  28.41 2663.65
   03:58:52.883.07-Aug-2020 5060.51 3681.19 88.08 7.00  28.61 2663.65
   03:58:53.083.07-Aug-2020 5060.51 3681.02 88.07 7.00  28.81 2663.65
   03:58:53.283.07-Aug-2020 5060.51 3680.67 88.07 7.00  29.01 2663.65
   03:58:53.483.07-Aug-2020 5060.51 3680.66 88.07 7.00  29.21 2663.65
   03:58:53.683.07-Aug-2020 5060.51 3680.58 88.07 7.00  29.41 2663.65
   03:58:53.883.07-Aug-2020 5060.51 3680.38 88.07 7.00  29.61 2663.65
   03:58:54.083.07-Aug-2020 5060.51 3680.32 88.07 7.00  29.81 2663.65
   03:58:54.283.07-Aug-2020 5060.51 3680.31 88.07 7.00  30.01 2663.65
   03:58:54.483.07-Aug-2020 5060.51 3680.31 88.07 7.00  30.21 2663.65
   03:58:54.683.07-Aug-2020 5060.51 3680.56 88.06 7.00  30.41 2663.65
   03:58:54.883.07-Aug-2020 5060.51 3680.76 88.06 7.00  30.61 2663.65
   03:58:55.083.07-Aug-2020 5060.51 3681.01 88.06 7.00  30.81 2663.65
   03:58:55.283.07-Aug-2020 5060.51 3681.78 88.06 7.00  31.01 2663.65
   03:58:55.483.07-Aug-2020 5060.51 3680.18 88.06 7.00  31.21 2663.65
   03:58:55.683.07-Aug-2020 5060.51 3680.19 88.06 7.00  31.41 2663.65
   03:58:55.883.07-Aug-2020 5060.51 3679.98 88.06 7.00  31.61 2663.65
   03:58:56.083.07-Aug-2020 5060.51 3680.00 88.06 7.00  31.81 2663.65
   03:58:56.283.07-Aug-2020 5060.51 3679.88 88.05 7.00  32.01 2663.65
   03:58:56.484.07-Aug-2020 5060.51 3679.88 88.05 7.00  32.21 2663.65
   03:58:56.684.07-Aug-2020 5060.51 3679.86 88.05 7.00  32.41 2663.65
   03:58:56.884.07-Aug-2020 5060.51 3679.88 88.05 7.00  32.61 2663.65
   03:58:57.084.07-Aug-2020 5060.51 3679.69 88.05 7.00  32.81 2663.65
   03:58:57.284.07-Aug-2020 5060.51 3679.73 88.05 7.00  33.01 2663.65
   03:58:57.484.07-Aug-2020 5060.51 3679.73 88.05 7.00  33.21 2663.65
   03:58:57.684.07-Aug-2020 5060.51 3679.77 88.05 7.00  33.41 2663.65
   03:58:57.884.07-Aug-2020 5060.51 3679.62 88.04 7.00  33.61 2663.65
   03:58:58.084.07-Aug-2020 5060.51 3679.63 88.04 7.00  33.81 2663.65
   03:58:58.284.07-Aug-2020 5060.51 3679.78 88.04 7.00  34.01 2663.65
   03:58:58.484.07-Aug-2020 5060.51 3679.78 88.04 7.00  34.21 2663.65
   03:58:58.684.07-Aug-2020 5060.51 3680.80 88.04 7.00  34.41 2663.65
   03:58:58.884.07-Aug-2020 5060.51 3684.36 88.04 7.00  34.61 2663.65
   03:58:59.084.07-Aug-2020 5060.51 3684.48 88.04 7.00  34.81 2663.65
   03:58:59.284.07-Aug-2020 5060.51 3684.50 88.04 7.00  35.01 2663.65
   03:58:59.484.07-Aug-2020 5060.51 3684.50 88.04 7.00  35.21 2663.65
   03:58:59.684.07-Aug-2020 5060.51 3684.54 88.03 7.00  35.41 2663.65
   03:58:59.884.07-Aug-2020 5060.51 3684.58 88.03 7.00  35.61 2663.65
   03:59:00.084.07-Aug-2020 5060.51 3684.57 88.03 7.00  35.81 2663.65
   03:59:00.284.07-Aug-2020 5060.51 3684.60 88.03 7.00  36.01 2663.65
   03:59:00.484.07-Aug-2020 5060.51 3684.60 88.03 7.00  36.21 2663.65
   03:59:00.685.07-Aug-2020 5060.51 3684.54 88.03 7.00  36.41 2663.65
   03:59:00.885.07-Aug-2020 5060.51 3684.60 88.03 7.00  36.61 2663.65
   03:59:01.085.07-Aug-2020 5060.51 3684.58 88.03 7.00  36.81 2663.65
   03:59:01.285.07-Aug-2020 5060.51 3684.61 88.03 7.00  37.01 2663.65
   03:59:01.485.07-Aug-2020 5060.51 3684.61 88.03 7.00  37.21 2663.65
   03:59:01.685.07-Aug-2020 5060.51 3684.53 88.02 7.00  37.41 2663.65
   03:59:01.885.07-Aug-2020 5060.51 3684.62 88.02 7.00  37.61 2663.65
   03:59:02.085.07-Aug-2020 5060.51 3684.57 88.02 7.00  37.81 2663.65
   03:59:02.285.07-Aug-2020 5060.51 3684.66 88.02 7.00  38.01 2663.65
   03:59:02.485.07-Aug-2020 5060.51 3684.66 88.02 7.00  38.21 2663.65
   03:59:02.685.07-Aug-2020 5060.51 3684.64 88.02 7.00  38.41 2663.65
   03:59:02.885.07-Aug-2020 5060.51 3684.58 88.02 7.00  38.61 2663.65
   03:59:03.085.07-Aug-2020 5060.51 3684.58 88.02 7.00  38.81 2663.65
   03:59:03.285.07-Aug-2020 5060.51 3684.62 88.02 7.00  39.01 2663.65
   03:59:03.485.07-Aug-2020 5060.51 3684.62 88.02 7.00  39.21 2663.65
   03:59:03.685.07-Aug-2020 5060.51 3684.61 88.01 7.00  39.41 2663.65
   03:59:03.885.07-Aug-2020 5060.51 3684.52 88.01 7.00  39.61 2663.65
   03:59:04.085.07-Aug-2020 5060.51 3684.66 88.01 7.00  39.81 2663.65
   03:59:04.285.07-Aug-2020 5060.51 3684.62 88.01 7.00  40.01 2663.65
   03:59:04.485.07-Aug-2020 5060.51 3684.62 88.01 7.00  40.21 2663.65
   03:59:04.685.07-Aug-2020 5060.51 3684.64 88.01 7.00  40.41 2663.65
   03:59:04.885.07-Aug-2020 5060.51 3684.61 88.01 7.00  40.61 2663.65
   03:59:05.086.07-Aug-2020 5060.51 3684.59 88.01 7.00  40.81 2663.65
   03:59:05.286.07-Aug-2020 5060.51 3684.65 88.01 7.00  41.01 2663.65
   03:59:05.486.07-Aug-2020 5060.51 3684.65 88.01 7.00  41.21 2663.65
   03:59:05.686.07-Aug-2020 5060.51 3684.67 88.00 7.00  41.41 2663.65
   03:59:05.886.07-Aug-2020 5060.51 3684.64 88.00 7.00  41.61 2663.65
   03:59:06.086.07-Aug-2020 5060.51 3684.68 88.00 7.00  41.81 2663.65
   03:59:06.286.07-Aug-2020 5060.51 3684.67 88.00 7.00  42.01 2663.65
   03:59:06.486.07-Aug-2020 5060.51 3684.67 88.00 7.00  42.21 2663.65
   03:59:06.686.07-Aug-2020 5060.51 3684.68 88.00 7.00  42.41 2663.65
   03:59:06.886.07-Aug-2020 5060.51 3684.70 88.00 7.00  42.61 2663.65
   03:59:07.086.07-Aug-2020 5060.51 3684.68 88.00 7.00  42.81 2663.65
   03:59:07.286.07-Aug-2020 5060.51 3684.71 88.00 7.00  43.01 2663.65
   03:59:07.486.07-Aug-2020 5060.51 3684.69 88.00 7.00  43.21 2663.65
   03:59:07.686.07-Aug-2020 5060.51 3684.60 88.00 7.00  43.41 2663.65
   03:59:07.886.07-Aug-2020 5060.51 3684.67 87.99 7.00  43.61 2663.65
   03:59:08.086.07-Aug-2020 5060.51 3684.65 87.99 7.00  43.81 2663.65
   03:59:08.286.07-Aug-2020 5060.51 3684.66 87.99 7.00  44.01 2663.65
   03:59:08.486.07-Aug-2020 5060.51 3684.66 87.99 7.00  44.21 2663.65
   03:59:08.686.07-Aug-2020 5060.51 3684.67 87.99 7.00  44.41 2663.65
   03:59:08.886.07-Aug-2020 5060.51 3684.69 87.99 7.00  44.61 2663.65
   03:59:09.086.07-Aug-2020 5060.51 3684.70 87.99 7.00  44.81 2663.65
   03:59:09.287.07-Aug-2020 5060.51 3684.70 87.99 7.00  45.01 2663.65
   03:59:09.487.07-Aug-2020 5060.51 3684.70 87.99 7.00  45.21 2663.65
   03:59:09.687.07-Aug-2020 5060.51 3684.70 87.99 7.00  45.41 2663.65
   03:59:09.887.07-Aug-2020 5060.51 3684.71 87.99 7.00  45.61 2663.65
   03:59:10.087.07-Aug-2020 5060.51 3684.72 87.99 7.00  45.81 2663.65
