~Version Information
 VERS.                  2.0:   CWLS log ASCII Standard -VERSION 2.0
 WRAP.                   NO:   One line per depth step
~Well Information Block
#MNEM.UNIT     VALUE/NAME     DESCRIPTION
#---------     -----------    ---------------------------
 STRT.S             03:58:24 07-Aug-20: START TIME 03:58:24 07-Aug-20
 STOP.S             04:06:16 07-Aug-20: STOP TIME  04:06:16 07-Aug-20
 STEP.S                   0.00: STEP TIME
 NULL.                 -999.25: NULL VALUE
 DFWT.                        :  DIST FWL TEXT
 DFST.                        :  DIST FSL TEXT
 DMF .             Drill Floor:  DRILL MEAS FROM
 STIM.      12.00.00 03-Jul-20:  START TIME
 DATE.      00.50.00 09-Aug-20:  END TIME
 SPUD.               03-Jul-20:  SPUD DATE
 NREF.                    Grid:  NORTH REFERENCE
 HPTY.       Minimum Curvature:  HOLE POS TYPE
 DMOD.             Drill Model:  DRILL MOD DESC
 SVYD.                  Survey:  SURVEY DESC
 ILTD.               Lithology:  INTERP LTH DESC
 FTOP.          Formation Tops:  FORM TOPS DESC
 PDAT.          Mean Sea Level:  PERMANENT DATUM
 FLD .                     ACG:  FIELD NAME
 CTRY.              Azerbaijan:  COUNTRY NAME
 WELL.                    E04x:  WELL NAME
 SRVC.          Turan Drilling:  CONTRACTOR
 COMP.     BP Exploration (Caspian Sea) Ltd.:  COMPANY
 SON .        AZ-XX-0906531346:  JOB NUMBER
 WTYP.                Deviated:  WELL TYPE
 MDS .        Operator Entered:  MAG DATA SOURCE
 UWI .                     N/A:  UNIQUE WELL IDENTIFIER
 API .                     N/A:  API NUMBER
 BASE.              Azerbaijan:  LOGGING EQUIPMENT BASE LOCATION
 REGN.                   EESSA:  REGION
 PROV.                    Baku:  PROVINCE
 STAT.                    Baku:  STATE NAME
 MWDS.                    Baku:  MWD SHOP
 JOBN.        AZ-XX-0906531346:  JOB TICKET NUMB
 RIG .                     DWG:  RIG NAME
 DOE .                     N/A:  DOE NUMBER
 DCON.         Sperry Drilling:  DIRECTNL CONTR
 UNIT.                     N/A:  LOGGING EQUIPMENT ID
 CNTY.                        :  COUNTY
 LOC .                        :  LOCATION
 LMF .             Drill Floor:  LOG MEASURED FROM
 TVDS.m                  43.16:  TVDSS CORRECTN
 LATI.deg                40.17:  LATITUDE
 LONG.deg                51.17:  LONGITUDE
 WHNS.m                  -0.12:  WELL HEAD N/S
 WHEW.m                  -5.41:  WELL HEAD E/W
 UTMX.m              514337.95:  UTM X
 UTMY.m             4448627.46:  UTM Y
 DFWL.m                   0.00:  DISTANCE FWL
 DFSL.m                   0.00:  DISTANCE FSL
 SDEP.m                3088.01:  START DEPTH
 TDD .m                5200.01:  TOTAL DEPTH (DRILLER)
 VSDR.deg               244.51:  VERT SEC DIRECT
 GVFD.g                   1.00:  GRAVITY FIELD
 MFLD.nT              50329.80:  MAGNETIC FIELD
 MDIP.deg                59.63:  MAGNETIC DIP
 MDEC.deg                 6.59:  MAGNETIC DECL
 GRDC.deg                 0.09:  GRID CORRECTION
 AZTC.deg                 6.50:  AZM TOTAL CORR
 EPD .m                   0.00:  ELEVATION
 EGL .m                   0.00:  GROUND ELEVATION
 WDMS.m                 176.20:  WD ELEV
 APD .m                  43.16:  DEPTH ABOVE PD
 DEP .m                3084.71:  DEPTH
 AGAP.m                  43.16:  AIR GAP
 VSEW.m                  -5.41:  VERT SEC E/W
 VSNS.m                  -0.12:  VERT SEC N/S
 EKB .m                   0.00:  KB ELEVATION
 EDF .m                  43.16:  DF ELEVATION
 TDL .m                 243.00:  TOTAL DEPTH (LOGGER)
 VSC .                       0:  VS TO CLOSURE
 MAGU.                 1853542:  MAGUTM CHECKSUM
~Parameter Information Block
#MNEM.UNIT       Value        Description
#---------     -----------    ---------------------------
 AV  .mps                 1.91:  Ann Velocity 
 AVMX.mps                 2.52:  Max Ann Veloc 
 AZIF.deg               308.97:  Azm, Final 
 BHAT.        Rotary Steerable:  BHA Type 
 BROT.°/30m               1.00:  Build Rotating 
 BS  .in                  6.50:  Bit Size 
 BSZ .in                  6.50:  Bit Size 
 BTPL.psig              350.00:  Bit Press Loss 
 CABU.                      No:  Customer Abuse 
 CGEO.           Asif Pashayev:  Customer Geo 
 TCS .hr                 35.86:  Time Ciculation Ended 
 CV  .mps                 2.31:  Crit Velocity 
 CVMX.mps                 2.31:  Max Crit Veloc 
 DD1 .         Intigam Rahimov:  Direct Drillr 1 
 DDSV.               Geo-Pilot:  DD Service 
 DEFF.%                  92.00:  % Det Eff 
 DLRX.°/30m               1.00:  Dogleg Rot Max 
 DLSO.°/30m               1.00:  Dogleg Oriented 
 DLSX.°/30m               1.42:  Dogleg Str Max 
 DRET.      15.50.00 07-Aug-20:  Drill End Time 
 DRST.      10.40.00 06-Aug-20:  Drill Start Tim 
 DTIM.hr                 21.30:  Time Drilling 
 EDEP.m                5200.01:  End Depth 
 ENG1.            Alan Tuganov:  Engineer 1 
 ENG2.         Almaz Almadatov:  Engineer 2 
 ENG3.     Zammelal Abdullah Sani:  Engineer 3 
 ETIM.      22.42.00 08-Aug-20:  End Time 
 FLOI.gpm               395.00:  Flow In 
 FLON.gpm               350.00:  Flow In Min 
 FLOS.cptm                0.00:  Fluid Loss 
 FLOX.gpm               404.00:  Flow In Max 
 FTRO.       Formation Presure:  FTWD Run Obj 
 HFLO.                      No:  High Flow 
 HPRE.                      No:  High Pressure 
 HTEM.                      No:  High Temp 
 HYDO.m                   1.80:  Hydro Offset 
 IFIN.deg                72.64:  Inc, Final 
 IMAX.deg                73.68:  Inc Max 
 IMIN.deg                72.64:  Inc Min 
 IMND.m                5189.69:  Inc Min Depth 
 IMXD.m                5067.88:  Inc Max Depth 
 JARR.                      No:  Jarring 
 LETM.      15.50.00 07-Aug-20:  Log End Time 
 LOST.hr                     0:  Lost Rig Time 
 LSTM.      10.40.00 06-Aug-20:  Log Start Time 
 MDCL.ppm             36000.00:  Mud Chlorides 
 MDES.     Inversion Oil/Synthetic:  Mud Desc 
 DFD .sg                  1.36:  Mud Density 
 MDMN.sg                  1.36:  Dens Mud Min 
 MDMX.sg                  1.36:  Dens Mud Max 
 MOIL.                      70:  Run Mud Oil % 
 MOWR.                   70:30:  Run Mud OWR 
 MSND.                    0.00:  Run Mud Sand % 
 MSOL.                   17.60:  Run Mud Solids% 
 DFV .spqt               73.00:  Mud Viscosity 
 MWOD.in                  4.75:  MWD Tool OD 
 MWSI.                      No:  Serv Intrp, MWD 
 OTIM.hr                 85.66:  Time Operating 
 PCON.           Look Like New:  Pad Condition 
 PMAX.psia             6250.00:  Press Op, Max 
 PV  .cP                 65.00:  Mud PV 
 RUN .                     900:  Run Number 
 ROPA.m/hr               11.40:  ROP Avg 
 ROPN.m/hr                5.00:  ROP Min 
 ROPX.m/hr               20.00:  ROP Max 
 RPMA.rpm               130.00:  RPM Surface Avg 
 RPMN.rpm                40.00:  RPM Surface Min 
 RPMX.rpm               140.00:  RPM Surface Max 
 RRUN.                    L205:  Rig Run Number 
 RTIM.hr                  1.00:  Time Reaming 
 SAZI.deg               313.52:  Azm, Start 
 SDEP.m                4957.01:  Start Depth 
 SIDD.                      No:  Serv Intrp, DD 
 SINC.deg                73.16:  Inc, Start 
 SPPA.psig             5657.00:  SPP Avg 
 SPPN.psig             2500.00:  SPP Min 
 SPPX.psig             5806.00:  SPP Max 
 STIM.      07.12.00 05-Aug-20:  Start Time 
 SVCS.                 DD, MWD:  Services 
 SVER.                    9.20:  Sperry Version 
 TDAT.m                 243.00:  Tot Depth Attmp 
 TDDF.                      No:  Trip for DD 
 TDLG.m                 243.00:  Tot Depth Loggd 
 TFF .                      No:  Trip for Fail 
 TQAA.f-kp               13.00:  Torque Abs Avg 
 TQAN.f-kp               11.00:  Torque Abs Min 
 TQAX.f-kp               16.00:  Torque Abs Max 
 TRRT.°/30m               1.00:  Turn Rotating 
 MRT .                    HCIM:  Maximum Recorded Temperature 
 TTMX.degC               96.08:  Max Tool Temp 
 VS01.                90515411:  Virtual Str1 SN 
 VS02.                90512716:  Virtual Str2 SN 
 VS03.                90522362:  Virtual Str3 SN 
 VS04.                90619415:  Virtual Str4 SN 
 VS05.                90619414:  Virtual Str5 SN 
 VS06.                90597748:  Virtual Str6 SN 
 WBMN.klb                 2.00:  WOB Min 
 WITN.           Adil Mammadov:  Customer Rep 
 WITN.     Alexander Yadullayev:  Customer Rep 2 
 WOBA.klb                 7.00:  WOB Avg 
 WOBX.klb                23.00:  WOB Max 
 YP  .lhf2               37.00:  Yield Point 
~Curve Information Block
#MNEM.UNIT                 API CODE     Curve Description
#---------               -----------    ---------------------------
 TIME.HHMMSS            00 000 000 000:  GT Time & Date
 GTDEPTH.m              00 000 000 000:  GT Depth
 GTPQH.psia             00 000 000 000:  GT HR Quartz Pressure
 GTTQ.degC              00 000 000 000:  GT Quartz Temperature
 GTTN.NONE              00 000 000 000:  GT Test Number
 GTET.sec               00 000 000 000:  GT Elapsed Test Time
 GTTVD.m                00 000 000 000:  GT True Vertical Depth
#Other Information
#
#WARRANTY: Halliburton will use its best efforts to furnish customers with 
#accurate information and interpretations that are part of, and incident to, the services 
#provided.  However, Halliburton cannot and does not warrant the accuracy 
#or correctness of such information and interpretations.  Under no circumstances should any 
#such information or interpretation be relied upon as the sole basis for any drilling, 
#completion, production, or financial decision or any procedure involving any risk to the 
#safety of any drilling venture, drilling rig or its crew or any other third party.  The 
#Customer has full responsibility for all drilling, completion and production operation.  
#Halliburton makes no representations or warranties, either expressed or 
#implied, including, but not limited to, the implied warranties of merchantability or fitness 
#for a particular purpose, with respect to the services rendered.  In no event will 
#Halliburton be liable for failure to obtain any particular results or for 
#any damages, including, but not limited to, indirect, special or consequential damages, 
#resulting from the use of any information or interpretation provided by Halliburton.
#
~A           TIME           GTDEPTH  GTPQH  GTTQ  GTTN  GTET   GTTVD  
# ...
   03:59:33.292.07-Aug-2020 5060.51 3684.70 87.90 7.00  69.02 2663.65
   03:59:33.492.07-Aug-2020 5060.51 3684.70 87.90 7.00  69.22 2663.65
   03:59:33.692.07-Aug-2020 5060.51 3684.69 87.90 7.00  69.42 2663.65
   03:59:33.892.07-Aug-2020 5060.51 3684.60 87.90 7.00  69.62 2663.65
   03:59:34.092.07-Aug-2020 5060.51 3684.71 87.90 7.00  69.82 2663.65
   03:59:34.292.07-Aug-2020 5060.51 3684.64 87.90 7.00  70.02 2663.65
   03:59:34.492.07-Aug-2020 5060.51 3684.64 87.90 7.00  70.22 2663.65
   03:59:34.693.07-Aug-2020 5060.51 3684.67 87.90 7.00  70.42 2663.65
   03:59:34.893.07-Aug-2020 5060.51 3684.70 87.89 7.00  70.62 2663.65
   03:59:35.093.07-Aug-2020 5060.51 3684.67 87.89 7.00  70.82 2663.65
   03:59:35.293.07-Aug-2020 5060.51 3684.70 87.89 7.00  71.02 2663.65
   03:59:35.493.07-Aug-2020 5060.51 3684.70 87.89 7.00  71.22 2663.65
   03:59:35.693.07-Aug-2020 5060.51 3684.70 87.89 7.00  71.42 2663.65
   03:59:35.893.07-Aug-2020 5060.51 3684.68 87.89 7.00  71.62 2663.65
   03:59:36.093.07-Aug-2020 5060.51 3684.70 87.89 7.00  71.82 2663.65
   03:59:36.293.07-Aug-2020 5060.51 3684.67 87.89 7.00  72.02 2663.65
   03:59:36.493.07-Aug-2020 5060.51 3684.67 87.89 7.00  72.22 2663.65
   03:59:36.693.07-Aug-2020 5060.51 3684.69 87.89 7.00  72.42 2663.65
   03:59:36.893.07-Aug-2020 5060.51 3684.67 87.89 7.00  72.62 2663.65
   03:59:37.093.07-Aug-2020 5060.51 3684.67 87.89 7.00  72.82 2663.65
   03:59:37.293.07-Aug-2020 5060.51 3684.63 87.89 7.00  73.02 2663.65
   03:59:37.493.07-Aug-2020 5060.51 3684.63 87.89 7.00  73.22 2663.65
   03:59:37.693.07-Aug-2020 5060.51 3684.70 87.89 7.00  73.42 2663.65
   03:59:37.893.07-Aug-2020 5060.51 3684.64 87.88 7.00  73.62 2663.65
   03:59:38.093.07-Aug-2020 5060.51 3684.69 87.88 7.00  73.82 2663.65
   03:59:38.293.07-Aug-2020 5060.51 3684.66 87.88 7.00  74.02 2663.65
   03:59:38.493.07-Aug-2020 5060.51 3684.66 87.88 7.00  74.22 2663.65
   03:59:38.693.07-Aug-2020 5060.51 3684.73 87.88 7.00  74.42 2663.65
   03:59:38.893.07-Aug-2020 5060.51 3684.65 87.88 7.00  74.62 2663.65
   03:59:39.094.07-Aug-2020 5060.51 3684.68 87.88 7.00  74.82 2663.65
   03:59:39.294.07-Aug-2020 5060.51 3684.66 87.88 7.00  75.02 2663.65
   03:59:39.494.07-Aug-2020 5060.51 3684.66 87.88 7.00  75.22 2663.65
   03:59:39.694.07-Aug-2020 5060.51 3684.58 87.88 7.00  75.42 2663.65
   03:59:39.894.07-Aug-2020 5060.51 3684.66 87.88 7.00  75.62 2663.65
   03:59:40.094.07-Aug-2020 5060.51 3684.66 87.88 7.00  75.82 2663.65
   03:59:40.294.07-Aug-2020 5060.51 3684.64 87.88 7.00  76.02 2663.65
   03:59:40.494.07-Aug-2020 5060.51 3684.64 87.88 7.00  76.22 2663.65
   03:59:40.694.07-Aug-2020 5060.51 3684.67 87.88 7.00  76.42 2663.65
   03:59:40.894.07-Aug-2020 5060.51 3684.65 87.87 7.00  76.62 2663.65
   03:59:41.094.07-Aug-2020 5060.51 3684.66 87.87 7.00  76.82 2663.65
   03:59:41.294.07-Aug-2020 5060.51 3684.64 87.87 7.00  77.02 2663.65
   03:59:41.494.07-Aug-2020 5060.51 3684.64 87.87 7.00  77.22 2663.65
   03:59:41.694.07-Aug-2020 5060.51 3684.64 87.87 7.00  77.42 2663.65
   03:59:41.894.07-Aug-2020 5060.51 3684.66 87.87 7.00  77.62 2663.65
   03:59:42.094.07-Aug-2020 5060.51 3684.65 87.87 7.00  77.82 2663.65
   03:59:42.294.07-Aug-2020 5060.51 3684.65 87.87 7.00  78.02 2663.65
   03:59:42.494.07-Aug-2020 5060.51 3684.65 87.87 7.00  78.22 2663.65
   03:59:42.694.07-Aug-2020 5060.51 3684.68 87.87 7.00  78.42 2663.65
   03:59:42.894.07-Aug-2020 5060.51 3684.64 87.87 7.00  78.62 2663.65
   03:59:43.094.07-Aug-2020 5060.51 3684.64 87.87 7.00  78.82 2663.65
   03:59:43.295.07-Aug-2020 5060.51 3684.65 87.87 7.00  79.02 2663.65
   03:59:43.495.07-Aug-2020 5060.51 3684.65 87.87 7.00  79.22 2663.65
   03:59:43.695.07-Aug-2020 5060.51 3684.65 87.86 7.00  79.42 2663.65
   03:59:43.895.07-Aug-2020 5060.51 3684.64 87.86 7.00  79.62 2663.65
   03:59:44.095.07-Aug-2020 5060.51 3684.66 87.86 7.00  79.82 2663.65
   03:59:44.295.07-Aug-2020 5060.51 3684.62 87.86 7.00  80.02 2663.65
   03:59:44.495.07-Aug-2020 5060.51 3684.62 87.86 7.00  80.22 2663.65
   03:59:44.695.07-Aug-2020 5060.51 3684.62 87.86 7.00  80.42 2663.65
   03:59:44.895.07-Aug-2020 5060.51 3684.64 87.86 7.00  80.62 2663.65
   03:59:45.095.07-Aug-2020 5060.51 3684.63 87.86 7.00  80.82 2663.65
   03:59:45.295.07-Aug-2020 5060.51 3684.58 87.86 7.00  81.02 2663.65
   03:59:45.495.07-Aug-2020 5060.51 3684.65 87.86 7.00  81.22 2663.65
   03:59:45.695.07-Aug-2020 5060.51 3684.61 87.86 7.00  81.42 2663.65
   03:59:45.895.07-Aug-2020 5060.51 3684.63 87.86 7.00  81.62 2663.65
   03:59:46.095.07-Aug-2020 5060.51 3684.51 87.86 7.00  81.82 2663.65
   03:59:46.295.07-Aug-2020 5060.51 3684.68 87.86 7.00  82.02 2663.65
   03:59:46.495.07-Aug-2020 5060.51 3684.68 87.86 7.00  82.22 2663.65
   03:59:46.695.07-Aug-2020 5060.51 3684.63 87.85 7.00  82.42 2663.65
   03:59:46.895.07-Aug-2020 5060.51 3684.63 87.85 7.00  82.62 2663.65
   03:59:47.095.07-Aug-2020 5060.51 3684.55 87.85 7.00  82.82 2663.65
   03:59:47.295.07-Aug-2020 5060.51 3684.63 87.85 7.00  83.02 2663.65
   03:59:47.496.07-Aug-2020 5060.51 3684.63 87.85 7.00  83.22 2663.65
   03:59:47.696.07-Aug-2020 5060.51 3684.61 87.85 7.00  83.42 2663.65
   03:59:47.896.07-Aug-2020 5060.51 3684.63 87.85 7.00  83.62 2663.65
   03:59:48.096.07-Aug-2020 5060.51 3684.61 87.85 7.00  83.82 2663.65
   03:59:48.296.07-Aug-2020 5060.51 3684.63 87.85 7.00  84.02 2663.65
   03:59:48.496.07-Aug-2020 5060.51 3684.63 87.85 7.00  84.22 2663.65
   03:59:48.696.07-Aug-2020 5060.51 3684.69 87.85 7.00  84.42 2663.65
   03:59:48.896.07-Aug-2020 5060.51 3684.61 87.85 7.00  84.62 2663.65
   03:59:49.096.07-Aug-2020 5060.51 3684.64 87.85 7.00  84.82 2663.65
   03:59:49.296.07-Aug-2020 5060.51 3684.60 87.85 7.00  85.02 2663.65
   03:59:49.496.07-Aug-2020 5060.51 3684.60 87.85 7.00  85.22 2663.65
   03:59:49.696.07-Aug-2020 5060.51 3684.61 87.85 7.00  85.42 2663.65
   03:59:49.896.07-Aug-2020 5060.51 3684.63 87.84 7.00  85.62 2663.65
   03:59:50.096.07-Aug-2020 5060.51 3684.61 87.84 7.00  85.82 2663.65
   03:59:50.296.07-Aug-2020 5060.51 3684.62 87.84 7.00  86.02 2663.65
   03:59:50.496.07-Aug-2020 5060.51 3684.62 87.84 7.00  86.22 2663.65
   03:59:50.696.07-Aug-2020 5060.51 3684.62 87.84 7.00  86.42 2663.65
   03:59:50.896.07-Aug-2020 5060.51 3684.60 87.84 7.00  86.62 2663.65
   03:59:51.096.07-Aug-2020 5060.51 3684.60 87.84 7.00  86.82 2663.65
   03:59:51.296.07-Aug-2020 5060.51 3684.53 87.84 7.00  87.02 2663.65
   03:59:51.496.07-Aug-2020 5060.51 3684.53 87.84 7.00  87.22 2663.65
   03:59:51.697.07-Aug-2020 5060.51 3684.57 87.84 7.00  87.42 2663.65
   03:59:51.897.07-Aug-2020 5060.51 3684.62 87.84 7.00  87.62 2663.65
   03:59:52.097.07-Aug-2020 5060.51 3684.60 87.84 7.00  87.82 2663.65
   03:59:52.297.07-Aug-2020 5060.51 3684.61 87.84 7.00  88.02 2663.65
   03:59:52.497.07-Aug-2020 5060.51 3684.61 87.84 7.00  88.22 2663.65
   03:59:52.697.07-Aug-2020 5060.51 3684.59 87.84 7.00  88.42 2663.65
   03:59:52.897.07-Aug-2020 5060.51 3684.60 87.83 7.00  88.62 2663.65
   03:59:53.097.07-Aug-2020 5060.51 3684.60 87.83 7.00  88.82 2663.65
   03:59:53.297.07-Aug-2020 5060.51 3684.60 87.83 7.00  89.02 2663.65
   03:59:53.497.07-Aug-2020 5060.51 3684.60 87.83 7.00  89.22 2663.65
   03:59:53.697.07-Aug-2020 5060.51 3684.60 87.83 7.00  89.42 2663.65
   03:59:53.897.07-Aug-2020 5060.51 3684.48 87.83 7.00  89.62 2663.65
   03:59:54.097.07-Aug-2020 5060.51 3684.64 87.83 7.00  89.82 2663.65
   03:59:54.297.07-Aug-2020 5060.51 3684.58 87.83 7.00  90.02 2663.65
   03:59:54.497.07-Aug-2020 5060.51 3684.58 87.83 7.00  90.22 2663.65
   03:59:54.697.07-Aug-2020 5060.51 3684.52 87.83 7.00  90.42 2663.65
   03:59:54.897.07-Aug-2020 5060.51 3684.59 87.83 7.00  90.62 2663.65
   03:59:55.097.07-Aug-2020 5060.51 3684.60 87.83 7.00  90.82 2663.65
   03:59:55.297.07-Aug-2020 5060.51 3684.58 87.83 7.00  91.02 2663.65
   03:59:55.497.07-Aug-2020 5060.51 3684.58 87.83 7.00  91.22 2663.65
   03:59:55.697.07-Aug-2020 5060.51 3684.60 87.83 7.00  91.42 2663.65
   03:59:55.897.07-Aug-2020 5060.51 3684.45 87.82 7.00  91.62 2663.65
   03:59:56.098.07-Aug-2020 5060.51 3684.65 87.82 7.00  91.82 2663.65
