~Version Information
 VERS.                  2.0:   CWLS log ASCII Standard -VERSION 2.0
 WRAP.                   NO:   One line per depth step
~Well Information Block
#MNEM.UNIT     VALUE/NAME     DESCRIPTION
#---------     -----------    ---------------------------
 STRT.S             15:38:44 07-Aug-20: START TIME 15:38:44 07-Aug-20
 STOP.S             15:46:36 07-Aug-20: STOP TIME  15:46:36 07-Aug-20
 STEP.S                   0.00: STEP TIME
 NULL.                 -999.25: NULL VALUE
 DFWT.                        :  DIST FWL TEXT
 DFST.                        :  DIST FSL TEXT
 DMF .             Drill Floor:  DRILL MEAS FROM
 STIM.      12.00.00 03-Jul-20:  START TIME
 DATE.      00.50.00 09-Aug-20:  END TIME
 SPUD.               03-Jul-20:  SPUD DATE
 NREF.                    Grid:  NORTH REFERENCE
 HPTY.       Minimum Curvature:  HOLE POS TYPE
 DMOD.             Drill Model:  DRILL MOD DESC
 SVYD.                  Survey:  SURVEY DESC
 ILTD.               Lithology:  INTERP LTH DESC
 FTOP.          Formation Tops:  FORM TOPS DESC
 PDAT.          Mean Sea Level:  PERMANENT DATUM
 FLD .                     ACG:  FIELD NAME
 CTRY.              Azerbaijan:  COUNTRY NAME
 WELL.                    E04x:  WELL NAME
 SRVC.          Turan Drilling:  CONTRACTOR
 COMP.     BP Exploration (Caspian Sea) Ltd.:  COMPANY
 SON .        AZ-XX-0906531346:  JOB NUMBER
 WTYP.                Deviated:  WELL TYPE
 MDS .        Operator Entered:  MAG DATA SOURCE
 UWI .                     N/A:  UNIQUE WELL IDENTIFIER
 API .                     N/A:  API NUMBER
 BASE.              Azerbaijan:  LOGGING EQUIPMENT BASE LOCATION
 REGN.                   EESSA:  REGION
 PROV.                    Baku:  PROVINCE
 STAT.                    Baku:  STATE NAME
 MWDS.                    Baku:  MWD SHOP
 JOBN.        AZ-XX-0906531346:  JOB TICKET NUMB
 RIG .                     DWG:  RIG NAME
 DOE .                     N/A:  DOE NUMBER
 DCON.         Sperry Drilling:  DIRECTNL CONTR
 UNIT.                     N/A:  LOGGING EQUIPMENT ID
 CNTY.                        :  COUNTY
 LOC .                        :  LOCATION
 LMF .             Drill Floor:  LOG MEASURED FROM
 TVDS.m                  43.16:  TVDSS CORRECTN
 LATI.deg                40.17:  LATITUDE
 LONG.deg                51.17:  LONGITUDE
 WHNS.m                  -0.12:  WELL HEAD N/S
 WHEW.m                  -5.41:  WELL HEAD E/W
 UTMX.m              514337.95:  UTM X
 UTMY.m             4448627.46:  UTM Y
 DFWL.m                   0.00:  DISTANCE FWL
 DFSL.m                   0.00:  DISTANCE FSL
 SDEP.m                3088.01:  START DEPTH
 TDD .m                5200.01:  TOTAL DEPTH (DRILLER)
 VSDR.deg               244.51:  VERT SEC DIRECT
 GVFD.g                   1.00:  GRAVITY FIELD
 MFLD.nT              50329.80:  MAGNETIC FIELD
 MDIP.deg                59.63:  MAGNETIC DIP
 MDEC.deg                 6.59:  MAGNETIC DECL
 GRDC.deg                 0.09:  GRID CORRECTION
 AZTC.deg                 6.50:  AZM TOTAL CORR
 EPD .m                   0.00:  ELEVATION
 EGL .m                   0.00:  GROUND ELEVATION
 WDMS.m                 176.20:  WD ELEV
 APD .m                  43.16:  DEPTH ABOVE PD
 DEP .m                3084.71:  DEPTH
 AGAP.m                  43.16:  AIR GAP
 VSEW.m                  -5.41:  VERT SEC E/W
 VSNS.m                  -0.12:  VERT SEC N/S
 EKB .m                   0.00:  KB ELEVATION
 EDF .m                  43.16:  DF ELEVATION
 TDL .m                 243.00:  TOTAL DEPTH (LOGGER)
 VSC .                       0:  VS TO CLOSURE
 MAGU.                 1853542:  MAGUTM CHECKSUM
~Parameter Information Block
#MNEM.UNIT       Value        Description
#---------     -----------    ---------------------------
 AV  .mps                 1.91:  Ann Velocity 
 AVMX.mps                 2.52:  Max Ann Veloc 
 AZIF.deg               308.97:  Azm, Final 
 BHAT.        Rotary Steerable:  BHA Type 
 BROT.°/30m               1.00:  Build Rotating 
 BS  .in                  6.50:  Bit Size 
 BSZ .in                  6.50:  Bit Size 
 BTPL.psig              350.00:  Bit Press Loss 
 CABU.                      No:  Customer Abuse 
 CGEO.           Asif Pashayev:  Customer Geo 
 COMM.                     6…:  Run Comments 1 
 TCS .hr                 35.86:  Time Ciculation Ended 
 CV  .mps                 2.31:  Crit Velocity 
 CVMX.mps                 2.31:  Max Crit Veloc 
 DD1 .         Intigam Rahimov:  Direct Drillr 1 
 DDSV.               Geo-Pilot:  DD Service 
 DEFF.%                  92.00:  % Det Eff 
 DLRX.°/30m               1.00:  Dogleg Rot Max 
 DLSO.°/30m               1.00:  Dogleg Oriented 
 DLSX.°/30m               1.42:  Dogleg Str Max 
 DRET.      15.50.00 07-Aug-20:  Drill End Time 
 DRST.      10.40.00 06-Aug-20:  Drill Start Tim 
 DTIM.hr                 21.30:  Time Drilling 
 EDEP.m                5200.01:  End Depth 
 ENG1.            Alan Tuganov:  Engineer 1 
 ENG2.         Almaz Almadatov:  Engineer 2 
 ENG3.     Zammelal Abdullah Sani:  Engineer 3 
 ETIM.      22.42.00 08-Aug-20:  End Time 
 FLOI.gpm               395.00:  Flow In 
 FLON.gpm               350.00:  Flow In Min 
 FLOS.cptm                0.00:  Fluid Loss 
 FLOX.gpm               404.00:  Flow In Max 
 FTRO.       Formation Presure:  FTWD Run Obj 
 HFLO.                      No:  High Flow 
 HPRE.                      No:  High Pressure 
 HTEM.                      No:  High Temp 
 HYDO.m                   1.80:  Hydro Offset 
 IFIN.deg                72.64:  Inc, Final 
 IMAX.deg                73.68:  Inc Max 
 IMIN.deg                72.64:  Inc Min 
 IMND.m                5189.69:  Inc Min Depth 
 IMXD.m                5067.88:  Inc Max Depth 
 JARR.                      No:  Jarring 
 LETM.      15.50.00 07-Aug-20:  Log End Time 
 LOST.hr                     0:  Lost Rig Time 
 LSTM.      10.40.00 06-Aug-20:  Log Start Time 
 MDCL.ppm             36000.00:  Mud Chlorides 
 MDES.     Inversion Oil/Synthetic:  Mud Desc 
 DFD .sg                  1.36:  Mud Density 
 MDMN.sg                  1.36:  Dens Mud Min 
 MDMX.sg                  1.36:  Dens Mud Max 
 MOIL.                      70:  Run Mud Oil % 
 MOWR.                   70:30:  Run Mud OWR 
 MSND.                    0.00:  Run Mud Sand % 
 MSOL.                   17.60:  Run Mud Solids% 
 DFV .spqt               73.00:  Mud Viscosity 
 MWOD.in                  4.75:  MWD Tool OD 
 MWSI.                      No:  Serv Intrp, MWD 
 OTIM.hr                 85.66:  Time Operating 
 PCON.           Look Like New:  Pad Condition 
 PMAX.psia             6250.00:  Press Op, Max 
 PV  .cP                 65.00:  Mud PV 
 RUN .                     900:  Run Number 
 ROPA.m/hr               11.40:  ROP Avg 
 ROPN.m/hr                5.00:  ROP Min 
 ROPX.m/hr               20.00:  ROP Max 
 RPMA.rpm               130.00:  RPM Surface Avg 
 RPMN.rpm                40.00:  RPM Surface Min 
 RPMX.rpm               140.00:  RPM Surface Max 
 RRUN.                    L205:  Rig Run Number 
 RTIM.hr                  1.00:  Time Reaming 
 SAZI.deg               313.52:  Azm, Start 
 SDEP.m                4957.01:  Start Depth 
 SIDD.                      No:  Serv Intrp, DD 
 SINC.deg                73.16:  Inc, Start 
 SPPA.psig             5657.00:  SPP Avg 
 SPPN.psig             2500.00:  SPP Min 
 SPPX.psig             5806.00:  SPP Max 
 STIM.      07.12.00 05-Aug-20:  Start Time 
 SVCS.                 DD, MWD:  Services 
 SVER.                    9.20:  Sperry Version 
 TDAT.m                 243.00:  Tot Depth Attmp 
 TDDF.                      No:  Trip for DD 
 TDLG.m                 243.00:  Tot Depth Loggd 
 TFF .                      No:  Trip for Fail 
 TQAA.f-kp               13.00:  Torque Abs Avg 
 TQAN.f-kp               11.00:  Torque Abs Min 
 TQAX.f-kp               16.00:  Torque Abs Max 
 TRRT.°/30m               1.00:  Turn Rotating 
 MRT .                    HCIM:  Maximum Recorded Temperature 
 TTMX.degC               96.08:  Max Tool Temp 
 VS01.                90515411:  Virtual Str1 SN 
 VS02.                90512716:  Virtual Str2 SN 
 VS03.                90522362:  Virtual Str3 SN 
 VS04.                90619415:  Virtual Str4 SN 
 VS05.                90619414:  Virtual Str5 SN 
 VS06.                90597748:  Virtual Str6 SN 
 WBMN.klb                 2.00:  WOB Min 
 WITN.           Adil Mammadov:  Customer Rep 
 WITN.     Alexander Yadullayev:  Customer Rep 2 
 WOBA.klb                 7.00:  WOB Avg 
 WOBX.klb                23.00:  WOB Max 
 YP  .lhf2               37.00:  Yield Point 
~Curve Information Block
#MNEM.UNIT                 API CODE     Curve Description
#---------               -----------    ---------------------------
 TIME.HHMMSS            00 000 000 000:  GT Time & Date
 GTDEPTH.m              00 000 000 000:  GT Depth
 GTPQH.psia             00 000 000 000:  GT HR Quartz Pressure
 GTTQ.degC              00 000 000 000:  GT Quartz Temperature
 GTTN.NONE              00 000 000 000:  GT Test Number
 GTET.sec               00 000 000 000:  GT Elapsed Test Time
 GTTVD.m                00 000 000 000:  GT True Vertical Depth
#Other Information
#
#WARRANTY: Halliburton will use its best efforts to furnish customers with 
#accurate information and interpretations that are part of, and incident to, the services 
#provided.  However, Halliburton cannot and does not warrant the accuracy 
#or correctness of such information and interpretations.  Under no circumstances should any 
#such information or interpretation be relied upon as the sole basis for any drilling, 
#completion, production, or financial decision or any procedure involving any risk to the 
#safety of any drilling venture, drilling rig or its crew or any other third party.  The 
#Customer has full responsibility for all drilling, completion and production operation.  
#Halliburton makes no representations or warranties, either expressed or 
#implied, including, but not limited to, the implied warranties of merchantability or fitness 
#for a particular purpose, with respect to the services rendered.  In no event will 
#Halliburton be liable for failure to obtain any particular results or for 
#any damages, including, but not limited to, indirect, special or consequential damages, 
#resulting from the use of any information or interpretation provided by Halliburton.
#
~A           TIME           GTDEPTH  GTPQH  GTTQ  GTTN   GTET   GTTVD  
# ...
   15:43:16.086.07-Aug-2020 5157.51 3490.18 88.58 11.00 271.31 2691.72
   15:43:16.286.07-Aug-2020 5157.51 3490.25 88.58 11.00 271.51 2691.72
   15:43:16.486.07-Aug-2020 5157.51 3490.20 88.58 11.00 271.71 2691.72
   15:43:16.686.07-Aug-2020 5157.51 3490.19 88.58 11.00 271.91 2691.72
   15:43:16.886.07-Aug-2020 5157.51 3490.22 88.58 11.00 272.11 2691.72
   15:43:17.086.07-Aug-2020 5157.51 3490.22 88.58 11.00 272.31 2691.72
   15:43:17.286.07-Aug-2020 5157.51 3490.11 88.58 11.00 272.51 2691.72
   15:43:17.486.07-Aug-2020 5157.51 3490.26 88.58 11.00 272.71 2691.72
   15:43:17.686.07-Aug-2020 5157.51 3490.36 88.58 11.00 272.91 2691.72
   15:43:17.886.07-Aug-2020 5157.51 3490.02 88.58 11.00 273.11 2691.72
   15:43:18.086.07-Aug-2020 5157.51 3490.02 88.58 11.00 273.31 2691.72
   15:43:18.287.07-Aug-2020 5157.51 3490.22 88.57 11.00 273.51 2691.72
   15:43:18.487.07-Aug-2020 5157.51 3490.04 88.57 11.00 273.71 2691.72
   15:43:18.687.07-Aug-2020 5157.51 3490.29 88.57 11.00 273.91 2691.72
   15:43:18.887.07-Aug-2020 5157.51 3490.39 88.57 11.00 274.11 2691.72
   15:43:19.087.07-Aug-2020 5157.51 3490.39 88.57 11.00 274.31 2691.72
   15:43:19.287.07-Aug-2020 5157.51 3490.45 88.57 11.00 274.51 2691.72
   15:43:19.487.07-Aug-2020 5157.51 3490.36 88.57 11.00 274.71 2691.72
   15:43:19.687.07-Aug-2020 5157.51 3490.23 88.57 11.00 274.91 2691.72
   15:43:19.887.07-Aug-2020 5157.51 3490.13 88.57 11.00 275.11 2691.72
   15:43:20.087.07-Aug-2020 5157.51 3490.13 88.57 11.00 275.31 2691.72
   15:43:20.287.07-Aug-2020 5157.51 3490.39 88.57 11.00 275.51 2691.72
   15:43:20.487.07-Aug-2020 5157.51 3490.34 88.57 11.00 275.71 2691.72
   15:43:20.688.07-Aug-2020 5157.51 3490.06 88.57 11.00 275.91 2691.72
   15:43:20.888.07-Aug-2020 5157.51 3490.32 88.57 11.00 276.11 2691.72
   15:43:21.088.07-Aug-2020 5157.51 3490.32 88.57 11.00 276.31 2691.72
   15:43:21.288.07-Aug-2020 5157.51 3490.23 88.57 11.00 276.51 2691.72
   15:43:21.488.07-Aug-2020 5157.51 3490.24 88.57 11.00 276.71 2691.72
   15:43:21.688.07-Aug-2020 5157.51 3490.27 88.57 11.00 276.91 2691.72
   15:43:21.888.07-Aug-2020 5157.51 3490.27 88.57 11.00 277.11 2691.72
   15:43:22.088.07-Aug-2020 5157.51 3490.19 88.57 11.00 277.31 2691.72
   15:43:22.288.07-Aug-2020 5157.51 3490.23 88.57 11.00 277.51 2691.72
   15:43:22.488.07-Aug-2020 5157.51 3490.20 88.57 11.00 277.71 2691.72
   15:43:22.688.07-Aug-2020 5157.51 3489.90 88.56 11.00 277.91 2691.72
   15:43:22.888.07-Aug-2020 5157.51 3490.44 88.56 11.00 278.11 2691.72
   15:43:23.089.07-Aug-2020 5157.51 3490.44 88.56 11.00 278.31 2691.72
   15:43:23.289.07-Aug-2020 5157.51 3490.20 88.56 11.00 278.51 2691.72
   15:43:23.489.07-Aug-2020 5157.51 3490.22 88.56 11.00 278.71 2691.72
   15:43:23.689.07-Aug-2020 5157.51 3490.27 88.56 11.00 278.91 2691.72
   15:43:23.889.07-Aug-2020 5157.51 3490.31 88.56 11.00 279.11 2691.72
   15:43:24.089.07-Aug-2020 5157.51 3490.31 88.56 11.00 279.32 2691.72
   15:43:24.289.07-Aug-2020 5157.51 3490.26 88.56 11.00 279.52 2691.72
   15:43:24.489.07-Aug-2020 5157.51 3490.24 88.56 11.00 279.72 2691.72
   15:43:24.689.07-Aug-2020 5157.51 3490.24 88.56 11.00 279.92 2691.72
   15:43:24.889.07-Aug-2020 5157.51 3490.21 88.56 11.00 280.12 2691.72
   15:43:25.089.07-Aug-2020 5157.51 3490.21 88.56 11.00 280.32 2691.72
   15:43:25.289.07-Aug-2020 5157.51 3490.24 88.56 11.00 280.52 2691.72
   15:43:25.490.07-Aug-2020 5157.51 3489.96 88.56 11.00 280.72 2691.72
   15:43:25.690.07-Aug-2020 5157.51 3490.37 88.56 11.00 280.92 2691.72
   15:43:25.890.07-Aug-2020 5157.51 3490.35 88.56 11.00 281.12 2691.72
   15:43:26.090.07-Aug-2020 5157.51 3490.11 88.56 11.00 281.32 2691.72
   15:43:26.290.07-Aug-2020 5157.51 3490.29 88.56 11.00 281.52 2691.72
   15:43:26.490.07-Aug-2020 5157.51 3490.26 88.56 11.00 281.72 2691.72
   15:43:26.690.07-Aug-2020 5157.51 3489.94 88.56 11.00 281.92 2691.72
   15:43:26.890.07-Aug-2020 5157.51 3490.39 88.56 11.00 282.12 2691.72
   15:43:27.090.07-Aug-2020 5157.51 3490.39 88.56 11.00 282.32 2691.72
   15:43:27.290.07-Aug-2020 5157.51 3490.06 88.55 11.00 282.52 2691.72
   15:43:27.490.07-Aug-2020 5157.51 3490.21 88.55 11.00 282.72 2691.72
   15:43:27.690.07-Aug-2020 5157.51 3490.29 88.55 11.00 282.92 2691.72
   15:43:27.890.07-Aug-2020 5157.51 3490.39 88.55 11.00 283.12 2691.72
   15:43:28.091.07-Aug-2020 5157.51 3490.39 88.55 11.00 283.32 2691.72
   15:43:28.291.07-Aug-2020 5157.51 3489.95 88.55 11.00 283.52 2691.72
   15:43:28.491.07-Aug-2020 5157.51 3490.54 88.55 11.00 283.72 2691.72
   15:43:28.691.07-Aug-2020 5157.51 3490.32 88.55 11.00 283.92 2691.72
   15:43:28.891.07-Aug-2020 5157.51 3490.15 88.55 11.00 284.12 2691.72
   15:43:29.091.07-Aug-2020 5157.51 3490.15 88.55 11.00 284.32 2691.72
   15:43:29.291.07-Aug-2020 5157.51 3490.30 88.55 11.00 284.52 2691.72
   15:43:29.491.07-Aug-2020 5157.51 3490.29 88.55 11.00 284.72 2691.72
   15:43:29.691.07-Aug-2020 5157.51 3490.22 88.55 11.00 284.92 2691.72
   15:43:29.891.07-Aug-2020 5157.51 3490.29 88.55 11.00 285.12 2691.72
   15:43:30.091.07-Aug-2020 5157.51 3490.29 88.55 11.00 285.32 2691.72
   15:43:30.291.07-Aug-2020 5157.51 3490.23 88.55 11.00 285.52 2691.72
   15:43:30.492.07-Aug-2020 5157.51 3490.24 88.55 11.00 285.72 2691.72
   15:43:30.692.07-Aug-2020 5157.51 3490.24 88.55 11.00 285.92 2691.72
   15:43:30.892.07-Aug-2020 5157.51 3490.14 88.55 11.00 286.12 2691.72
   15:43:31.092.07-Aug-2020 5157.51 3490.14 88.55 11.00 286.32 2691.72
   15:43:31.292.07-Aug-2020 5157.51 3490.28 88.55 11.00 286.52 2691.72
   15:43:31.492.07-Aug-2020 5157.51 3490.33 88.54 11.00 286.72 2691.72
   15:43:31.692.07-Aug-2020 5157.51 3490.11 88.54 11.00 286.92 2691.72
   15:43:31.892.07-Aug-2020 5157.51 3490.30 88.54 11.00 287.12 2691.72
   15:43:32.092.07-Aug-2020 5157.51 3490.30 88.54 11.00 287.32 2691.72
   15:43:32.292.07-Aug-2020 5157.51 3490.24 88.54 11.00 287.52 2691.72
   15:43:32.492.07-Aug-2020 5157.51 3490.23 88.54 11.00 287.72 2691.72
   15:43:32.692.07-Aug-2020 5157.51 3490.28 88.54 11.00 287.92 2691.72
   15:43:32.893.07-Aug-2020 5157.51 3490.25 88.54 11.00 288.12 2691.72
   15:43:33.093.07-Aug-2020 5157.51 3490.25 88.54 11.00 288.32 2691.72
   15:43:33.293.07-Aug-2020 5157.51 3490.22 88.54 11.00 288.52 2691.72
   15:43:33.493.07-Aug-2020 5157.51 3490.25 88.54 11.00 288.72 2691.72
   15:43:33.693.07-Aug-2020 5157.51 3489.87 88.54 11.00 288.92 2691.72
   15:43:33.893.07-Aug-2020 5157.51 3490.45 88.54 11.00 289.12 2691.72
   15:43:34.093.07-Aug-2020 5157.51 3490.35 88.54 11.00 289.32 2691.72
   15:43:34.293.07-Aug-2020 5157.51 3490.24 88.54 11.00 289.52 2691.72
   15:43:34.493.07-Aug-2020 5157.51 3490.20 88.54 11.00 289.72 2691.72
   15:43:34.693.07-Aug-2020 5157.51 3490.27 88.54 11.00 289.92 2691.72
   15:43:34.893.07-Aug-2020 5157.51 3490.03 88.54 11.00 290.12 2691.72
   15:43:35.093.07-Aug-2020 5157.51 3490.03 88.54 11.00 290.32 2691.72
   15:43:35.294.07-Aug-2020 5157.51 3490.32 88.54 11.00 290.52 2691.72
   15:43:35.494.07-Aug-2020 5157.51 3490.32 88.54 11.00 290.72 2691.72
   15:43:35.694.07-Aug-2020 5157.51 3489.96 88.54 11.00 290.92 2691.72
   15:43:35.894.07-Aug-2020 5157.51 3490.36 88.54 11.00 291.12 2691.72
   15:43:36.094.07-Aug-2020 5157.51 3490.36 88.54 11.00 291.32 2691.72
   15:43:36.294.07-Aug-2020 5157.51 3490.08 88.53 11.00 291.52 2691.72
   15:43:36.494.07-Aug-2020 5157.51 3490.06 88.53 11.00 291.72 2691.72
   15:43:36.694.07-Aug-2020 5157.51 3490.43 88.53 11.00 291.92 2691.72
   15:43:36.894.07-Aug-2020 5157.51 3490.35 88.53 11.00 292.12 2691.72
   15:43:37.094.07-Aug-2020 5157.51 3490.35 88.53 11.00 292.32 2691.72
   15:43:37.294.07-Aug-2020 5157.51 3490.19 88.53 11.00 292.52 2691.72
   15:43:37.494.07-Aug-2020 5157.51 3490.30 88.53 11.00 292.72 2691.72
   15:43:37.695.07-Aug-2020 5157.51 3490.32 88.53 11.00 292.92 2691.72
   15:43:37.895.07-Aug-2020 5157.51 3490.21 88.53 11.00 293.12 2691.72
   15:43:38.095.07-Aug-2020 5157.51 3490.30 88.53 11.00 293.32 2691.72
   15:43:38.295.07-Aug-2020 5157.51 3490.29 88.53 11.00 293.52 2691.72
   15:43:38.495.07-Aug-2020 5157.51 3490.27 88.53 11.00 293.72 2691.72
