~Version Information
 VERS.                  2.0:   CWLS log ASCII Standard -VERSION 2.0
 WRAP.                   NO:   One line per depth step
~Well Information Block
#MNEM.UNIT     VALUE/NAME     DESCRIPTION
#---------     -----------    ---------------------------
 STRT.S             15:38:44 07-Aug-20: START TIME 15:38:44 07-Aug-20
 STOP.S             15:46:36 07-Aug-20: STOP TIME  15:46:36 07-Aug-20
 STEP.S                   0.00: STEP TIME
 NULL.                 -999.25: NULL VALUE
 DFWT.                        :  DIST FWL TEXT
 DFST.                        :  DIST FSL TEXT
 DMF .             Drill Floor:  DRILL MEAS FROM
 STIM.      12.00.00 03-Jul-20:  START TIME
 DATE.      00.50.00 09-Aug-20:  END TIME
 SPUD.               03-Jul-20:  SPUD DATE
 NREF.                    Grid:  NORTH REFERENCE
 HPTY.       Minimum Curvature:  HOLE POS TYPE
 DMOD.             Drill Model:  DRILL MOD DESC
 SVYD.                  Survey:  SURVEY DESC
 ILTD.               Lithology:  INTERP LTH DESC
 FTOP.          Formation Tops:  FORM TOPS DESC
 PDAT.          Mean Sea Level:  PERMANENT DATUM
 FLD .                     ACG:  FIELD NAME
 CTRY.              Azerbaijan:  COUNTRY NAME
 WELL.                    E04x:  WELL NAME
 SRVC.          Turan Drilling:  CONTRACTOR
 COMP.     BP Exploration (Caspian Sea) Ltd.:  COMPANY
 SON .        AZ-XX-0906531346:  JOB NUMBER
 WTYP.                Deviated:  WELL TYPE
 MDS .        Operator Entered:  MAG DATA SOURCE
 UWI .                     N/A:  UNIQUE WELL IDENTIFIER
 API .                     N/A:  API NUMBER
 BASE.              Azerbaijan:  LOGGING EQUIPMENT BASE LOCATION
 REGN.                   EESSA:  REGION
 PROV.                    Baku:  PROVINCE
 STAT.                    Baku:  STATE NAME
 MWDS.                    Baku:  MWD SHOP
 JOBN.        AZ-XX-0906531346:  JOB TICKET NUMB
 RIG .                     DWG:  RIG NAME
 DOE .                     N/A:  DOE NUMBER
 DCON.         Sperry Drilling:  DIRECTNL CONTR
 UNIT.                     N/A:  LOGGING EQUIPMENT ID
 CNTY.                        :  COUNTY
 LOC .                        :  LOCATION
 LMF .             Drill Floor:  LOG MEASURED FROM
 TVDS.m                  43.16:  TVDSS CORRECTN
 LATI.deg                40.17:  LATITUDE
 LONG.deg                51.17:  LONGITUDE
 WHNS.m                  -0.12:  WELL HEAD N/S
 WHEW.m                  -5.41:  WELL HEAD E/W
 UTMX.m              514337.95:  UTM X
 UTMY.m             4448627.46:  UTM Y
 DFWL.m                   0.00:  DISTANCE FWL
 DFSL.m                   0.00:  DISTANCE FSL
 SDEP.m                3088.01:  START DEPTH
 TDD .m                5200.01:  TOTAL DEPTH (DRILLER)
 VSDR.deg               244.51:  VERT SEC DIRECT
 GVFD.g                   1.00:  GRAVITY FIELD
 MFLD.nT              50329.80:  MAGNETIC FIELD
 MDIP.deg                59.63:  MAGNETIC DIP
 MDEC.deg                 6.59:  MAGNETIC DECL
 GRDC.deg                 0.09:  GRID CORRECTION
 AZTC.deg                 6.50:  AZM TOTAL CORR
 EPD .m                   0.00:  ELEVATION
 EGL .m                   0.00:  GROUND ELEVATION
 WDMS.m                 176.20:  WD ELEV
 APD .m                  43.16:  DEPTH ABOVE PD
 DEP .m                3084.71:  DEPTH
 AGAP.m                  43.16:  AIR GAP
 VSEW.m                  -5.41:  VERT SEC E/W
 VSNS.m                  -0.12:  VERT SEC N/S
 EKB .m                   0.00:  KB ELEVATION
 EDF .m                  43.16:  DF ELEVATION
 TDL .m                 243.00:  TOTAL DEPTH (LOGGER)
 VSC .                       0:  VS TO CLOSURE
 MAGU.                 1853542:  MAGUTM CHECKSUM
~Parameter Information Block
#MNEM.UNIT       Value        Description
#---------     -----------    ---------------------------
 AV  .mps                 1.91:  Ann Velocity 
 AVMX.mps                 2.52:  Max Ann Veloc 
 AZIF.deg               308.97:  Azm, Final 
 BHAT.        Rotary Steerable:  BHA Type 
 BROT.°/30m               1.00:  Build Rotating 
 BS  .in                  6.50:  Bit Size 
 BSZ .in                  6.50:  Bit Size 
 BTPL.psig              350.00:  Bit Press Loss 
 CABU.                      No:  Customer Abuse 
 CGEO.           Asif Pashayev:  Customer Geo 
 COMM.                     6…:  Run Comments 1 
 TCS .hr                 35.86:  Time Ciculation Ended 
 CV  .mps                 2.31:  Crit Velocity 
 CVMX.mps                 2.31:  Max Crit Veloc 
 DD1 .         Intigam Rahimov:  Direct Drillr 1 
 DDSV.               Geo-Pilot:  DD Service 
 DEFF.%                  92.00:  % Det Eff 
 DLRX.°/30m               1.00:  Dogleg Rot Max 
 DLSO.°/30m               1.00:  Dogleg Oriented 
 DLSX.°/30m               1.42:  Dogleg Str Max 
 DRET.      15.50.00 07-Aug-20:  Drill End Time 
 DRST.      10.40.00 06-Aug-20:  Drill Start Tim 
 DTIM.hr                 21.30:  Time Drilling 
 EDEP.m                5200.01:  End Depth 
 ENG1.            Alan Tuganov:  Engineer 1 
 ENG2.         Almaz Almadatov:  Engineer 2 
 ENG3.     Zammelal Abdullah Sani:  Engineer 3 
 ETIM.      22.42.00 08-Aug-20:  End Time 
 FLOI.gpm               395.00:  Flow In 
 FLON.gpm               350.00:  Flow In Min 
 FLOS.cptm                0.00:  Fluid Loss 
 FLOX.gpm               404.00:  Flow In Max 
 FTRO.       Formation Presure:  FTWD Run Obj 
 HFLO.                      No:  High Flow 
 HPRE.                      No:  High Pressure 
 HTEM.                      No:  High Temp 
 HYDO.m                   1.80:  Hydro Offset 
 IFIN.deg                72.64:  Inc, Final 
 IMAX.deg                73.68:  Inc Max 
 IMIN.deg                72.64:  Inc Min 
 IMND.m                5189.69:  Inc Min Depth 
 IMXD.m                5067.88:  Inc Max Depth 
 JARR.                      No:  Jarring 
 LETM.      15.50.00 07-Aug-20:  Log End Time 
 LOST.hr                     0:  Lost Rig Time 
 LSTM.      10.40.00 06-Aug-20:  Log Start Time 
 MDCL.ppm             36000.00:  Mud Chlorides 
 MDES.     Inversion Oil/Synthetic:  Mud Desc 
 DFD .sg                  1.36:  Mud Density 
 MDMN.sg                  1.36:  Dens Mud Min 
 MDMX.sg                  1.36:  Dens Mud Max 
 MOIL.                      70:  Run Mud Oil % 
 MOWR.                   70:30:  Run Mud OWR 
 MSND.                    0.00:  Run Mud Sand % 
 MSOL.                   17.60:  Run Mud Solids% 
 DFV .spqt               73.00:  Mud Viscosity 
 MWOD.in                  4.75:  MWD Tool OD 
 MWSI.                      No:  Serv Intrp, MWD 
 OTIM.hr                 85.66:  Time Operating 
 PCON.           Look Like New:  Pad Condition 
 PMAX.psia             6250.00:  Press Op, Max 
 PV  .cP                 65.00:  Mud PV 
 RUN .                     900:  Run Number 
 ROPA.m/hr               11.40:  ROP Avg 
 ROPN.m/hr                5.00:  ROP Min 
 ROPX.m/hr               20.00:  ROP Max 
 RPMA.rpm               130.00:  RPM Surface Avg 
 RPMN.rpm                40.00:  RPM Surface Min 
 RPMX.rpm               140.00:  RPM Surface Max 
 RRUN.                    L205:  Rig Run Number 
 RTIM.hr                  1.00:  Time Reaming 
 SAZI.deg               313.52:  Azm, Start 
 SDEP.m                4957.01:  Start Depth 
 SIDD.                      No:  Serv Intrp, DD 
 SINC.deg                73.16:  Inc, Start 
 SPPA.psig             5657.00:  SPP Avg 
 SPPN.psig             2500.00:  SPP Min 
 SPPX.psig             5806.00:  SPP Max 
 STIM.      07.12.00 05-Aug-20:  Start Time 
 SVCS.                 DD, MWD:  Services 
 SVER.                    9.20:  Sperry Version 
 TDAT.m                 243.00:  Tot Depth Attmp 
 TDDF.                      No:  Trip for DD 
 TDLG.m                 243.00:  Tot Depth Loggd 
 TFF .                      No:  Trip for Fail 
 TQAA.f-kp               13.00:  Torque Abs Avg 
 TQAN.f-kp               11.00:  Torque Abs Min 
 TQAX.f-kp               16.00:  Torque Abs Max 
 TRRT.°/30m               1.00:  Turn Rotating 
 MRT .                    HCIM:  Maximum Recorded Temperature 
 TTMX.degC               96.08:  Max Tool Temp 
 VS01.                90515411:  Virtual Str1 SN 
 VS02.                90512716:  Virtual Str2 SN 
 VS03.                90522362:  Virtual Str3 SN 
 VS04.                90619415:  Virtual Str4 SN 
 VS05.                90619414:  Virtual Str5 SN 
 VS06.                90597748:  Virtual Str6 SN 
 WBMN.klb                 2.00:  WOB Min 
 WITN.           Adil Mammadov:  Customer Rep 
 WITN.     Alexander Yadullayev:  Customer Rep 2 
 WOBA.klb                 7.00:  WOB Avg 
 WOBX.klb                23.00:  WOB Max 
 YP  .lhf2               37.00:  Yield Point 
~Curve Information Block
#MNEM.UNIT                 API CODE     Curve Description
#---------               -----------    ---------------------------
 TIME.HHMMSS            00 000 000 000:  GT Time & Date
 GTDEPTH.m              00 000 000 000:  GT Depth
 GTPQH.psia             00 000 000 000:  GT HR Quartz Pressure
 GTTQ.degC              00 000 000 000:  GT Quartz Temperature
 GTTN.NONE              00 000 000 000:  GT Test Number
 GTET.sec               00 000 000 000:  GT Elapsed Test Time
 GTTVD.m                00 000 000 000:  GT True Vertical Depth
#Other Information
#
#WARRANTY: Halliburton will use its best efforts to furnish customers with 
#accurate information and interpretations that are part of, and incident to, the services 
#provided.  However, Halliburton cannot and does not warrant the accuracy 
#or correctness of such information and interpretations.  Under no circumstances should any 
#such information or interpretation be relied upon as the sole basis for any drilling, 
#completion, production, or financial decision or any procedure involving any risk to the 
#safety of any drilling venture, drilling rig or its crew or any other third party.  The 
#Customer has full responsibility for all drilling, completion and production operation.  
#Halliburton makes no representations or warranties, either expressed or 
#implied, including, but not limited to, the implied warranties of merchantability or fitness 
#for a particular purpose, with respect to the services rendered.  In no event will 
#Halliburton be liable for failure to obtain any particular results or for 
#any damages, including, but not limited to, indirect, special or consequential damages, 
#resulting from the use of any information or interpretation provided by Halliburton.
#
~A           TIME           GTDEPTH  GTPQH  GTTQ  GTTN   GTET   GTTVD  
# ...
   15:42:08.258.07-Aug-2020 5157.51 3490.11 88.74 11.00 203.48 2691.72
   15:42:08.458.07-Aug-2020 5157.51 3490.06 88.74 11.00 203.68 2691.72
   15:42:08.658.07-Aug-2020 5157.51 3489.94 88.74 11.00 203.88 2691.72
   15:42:08.858.07-Aug-2020 5157.51 3490.23 88.74 11.00 204.08 2691.72
   15:42:09.058.07-Aug-2020 5157.51 3490.23 88.74 11.00 204.28 2691.72
   15:42:09.258.07-Aug-2020 5157.51 3489.98 88.73 11.00 204.48 2691.72
   15:42:09.458.07-Aug-2020 5157.51 3490.18 88.73 11.00 204.68 2691.72
   15:42:09.658.07-Aug-2020 5157.51 3490.17 88.73 11.00 204.88 2691.72
   15:42:09.858.07-Aug-2020 5157.51 3490.10 88.73 11.00 205.08 2691.72
   15:42:10.058.07-Aug-2020 5157.51 3490.12 88.73 11.00 205.28 2691.72
   15:42:10.259.07-Aug-2020 5157.51 3490.12 88.73 11.00 205.48 2691.72
   15:42:10.459.07-Aug-2020 5157.51 3490.16 88.73 11.00 205.68 2691.72
   15:42:10.659.07-Aug-2020 5157.51 3490.06 88.73 11.00 205.88 2691.72
   15:42:10.859.07-Aug-2020 5157.51 3490.13 88.73 11.00 206.08 2691.72
   15:42:11.059.07-Aug-2020 5157.51 3490.13 88.73 11.00 206.28 2691.72
   15:42:11.259.07-Aug-2020 5157.51 3489.99 88.73 11.00 206.49 2691.72
   15:42:11.459.07-Aug-2020 5157.51 3490.13 88.73 11.00 206.69 2691.72
   15:42:11.659.07-Aug-2020 5157.51 3490.16 88.73 11.00 206.89 2691.72
   15:42:11.859.07-Aug-2020 5157.51 3490.20 88.73 11.00 207.09 2691.72
   15:42:12.059.07-Aug-2020 5157.51 3490.20 88.73 11.00 207.29 2691.72
   15:42:12.259.07-Aug-2020 5157.51 3490.15 88.73 11.00 207.49 2691.72
   15:42:12.459.07-Aug-2020 5157.51 3489.96 88.73 11.00 207.69 2691.72
   15:42:12.660.07-Aug-2020 5157.51 3490.17 88.73 11.00 207.89 2691.72
   15:42:12.860.07-Aug-2020 5157.51 3490.19 88.73 11.00 208.09 2691.72
   15:42:13.060.07-Aug-2020 5157.51 3490.19 88.73 11.00 208.29 2691.72
   15:42:13.260.07-Aug-2020 5157.51 3489.74 88.73 11.00 208.49 2691.72
   15:42:13.460.07-Aug-2020 5157.51 3490.35 88.72 11.00 208.69 2691.72
   15:42:13.660.07-Aug-2020 5157.51 3490.29 88.72 11.00 208.89 2691.72
   15:42:13.860.07-Aug-2020 5157.51 3490.01 88.72 11.00 209.09 2691.72
   15:42:14.060.07-Aug-2020 5157.51 3489.74 88.72 11.00 209.29 2691.72
   15:42:14.260.07-Aug-2020 5157.51 3490.44 88.72 11.00 209.49 2691.72
   15:42:14.460.07-Aug-2020 5157.51 3490.29 88.72 11.00 209.69 2691.72
   15:42:14.660.07-Aug-2020 5157.51 3490.06 88.72 11.00 209.89 2691.72
   15:42:14.860.07-Aug-2020 5157.51 3490.10 88.72 11.00 210.09 2691.72
   15:42:15.060.07-Aug-2020 5157.51 3490.10 88.72 11.00 210.29 2691.72
   15:42:15.261.07-Aug-2020 5157.51 3490.20 88.72 11.00 210.49 2691.72
   15:42:15.461.07-Aug-2020 5157.51 3490.11 88.72 11.00 210.69 2691.72
   15:42:15.661.07-Aug-2020 5157.51 3490.14 88.72 11.00 210.89 2691.72
   15:42:15.861.07-Aug-2020 5157.51 3490.22 88.72 11.00 211.09 2691.72
   15:42:16.061.07-Aug-2020 5157.51 3490.22 88.72 11.00 211.29 2691.72
   15:42:16.261.07-Aug-2020 5157.51 3490.16 88.72 11.00 211.49 2691.72
   15:42:16.461.07-Aug-2020 5157.51 3490.11 88.72 11.00 211.69 2691.72
   15:42:16.661.07-Aug-2020 5157.51 3490.09 88.72 11.00 211.89 2691.72
   15:42:16.861.07-Aug-2020 5157.51 3490.03 88.72 11.00 212.09 2691.72
   15:42:17.061.07-Aug-2020 5157.51 3490.03 88.72 11.00 212.29 2691.72
   15:42:17.261.07-Aug-2020 5157.51 3490.28 88.72 11.00 212.49 2691.72
   15:42:17.461.07-Aug-2020 5157.51 3489.95 88.72 11.00 212.69 2691.72
   15:42:17.662.07-Aug-2020 5157.51 3490.21 88.71 11.00 212.89 2691.72
   15:42:17.862.07-Aug-2020 5157.51 3490.21 88.71 11.00 213.09 2691.72
   15:42:18.062.07-Aug-2020 5157.51 3490.21 88.71 11.00 213.29 2691.72
   15:42:18.262.07-Aug-2020 5157.51 3490.12 88.71 11.00 213.49 2691.72
   15:42:18.462.07-Aug-2020 5157.51 3490.16 88.71 11.00 213.69 2691.72
   15:42:18.662.07-Aug-2020 5157.51 3490.15 88.71 11.00 213.89 2691.72
   15:42:18.862.07-Aug-2020 5157.51 3490.10 88.71 11.00 214.09 2691.72
   15:42:19.062.07-Aug-2020 5157.51 3490.10 88.71 11.00 214.29 2691.72
   15:42:19.262.07-Aug-2020 5157.51 3490.14 88.71 11.00 214.49 2691.72
   15:42:19.462.07-Aug-2020 5157.51 3489.88 88.71 11.00 214.69 2691.72
   15:42:19.662.07-Aug-2020 5157.51 3490.23 88.71 11.00 214.89 2691.72
   15:42:19.862.07-Aug-2020 5157.51 3490.17 88.71 11.00 215.09 2691.72
   15:42:20.063.07-Aug-2020 5157.51 3490.17 88.71 11.00 215.29 2691.72
   15:42:20.263.07-Aug-2020 5157.51 3490.03 88.71 11.00 215.49 2691.72
   15:42:20.463.07-Aug-2020 5157.51 3490.18 88.71 11.00 215.69 2691.72
   15:42:20.663.07-Aug-2020 5157.51 3489.81 88.71 11.00 215.89 2691.72
   15:42:20.863.07-Aug-2020 5157.51 3490.30 88.71 11.00 216.09 2691.72
   15:42:21.063.07-Aug-2020 5157.51 3490.30 88.71 11.00 216.29 2691.72
   15:42:21.263.07-Aug-2020 5157.51 3490.18 88.71 11.00 216.49 2691.72
   15:42:21.463.07-Aug-2020 5157.51 3489.82 88.71 11.00 216.69 2691.72
   15:42:21.663.07-Aug-2020 5157.51 3490.29 88.71 11.00 216.89 2691.72
   15:42:21.863.07-Aug-2020 5157.51 3490.30 88.71 11.00 217.09 2691.72
   15:42:22.063.07-Aug-2020 5157.51 3490.00 88.70 11.00 217.29 2691.72
   15:42:22.263.07-Aug-2020 5157.51 3489.85 88.70 11.00 217.49 2691.72
   15:42:22.464.07-Aug-2020 5157.51 3490.41 88.70 11.00 217.69 2691.72
   15:42:22.664.07-Aug-2020 5157.51 3490.30 88.70 11.00 217.89 2691.72
   15:42:22.864.07-Aug-2020 5157.51 3490.02 88.70 11.00 218.09 2691.72
   15:42:23.064.07-Aug-2020 5157.51 3490.02 88.70 11.00 218.29 2691.72
   15:42:23.264.07-Aug-2020 5157.51 3490.21 88.70 11.00 218.49 2691.72
   15:42:23.464.07-Aug-2020 5157.51 3490.22 88.70 11.00 218.69 2691.72
   15:42:23.664.07-Aug-2020 5157.51 3490.10 88.70 11.00 218.89 2691.72
   15:42:23.864.07-Aug-2020 5157.51 3490.20 88.70 11.00 219.09 2691.72
   15:42:24.064.07-Aug-2020 5157.51 3490.20 88.70 11.00 219.29 2691.72
   15:42:24.264.07-Aug-2020 5157.51 3490.17 88.70 11.00 219.49 2691.72
   15:42:24.464.07-Aug-2020 5157.51 3490.11 88.70 11.00 219.69 2691.72
   15:42:24.664.07-Aug-2020 5157.51 3490.16 88.70 11.00 219.89 2691.72
   15:42:24.865.07-Aug-2020 5157.51 3490.03 88.70 11.00 220.09 2691.72
   15:42:25.065.07-Aug-2020 5157.51 3490.03 88.70 11.00 220.29 2691.72
   15:42:25.265.07-Aug-2020 5157.51 3490.18 88.70 11.00 220.49 2691.72
   15:42:25.465.07-Aug-2020 5157.51 3490.28 88.70 11.00 220.69 2691.72
   15:42:25.665.07-Aug-2020 5157.51 3489.96 88.70 11.00 220.89 2691.72
   15:42:25.865.07-Aug-2020 5157.51 3490.23 88.70 11.00 221.09 2691.72
   15:42:26.065.07-Aug-2020 5157.51 3490.21 88.70 11.00 221.29 2691.72
   15:42:26.265.07-Aug-2020 5157.51 3490.12 88.69 11.00 221.49 2691.72
   15:42:26.465.07-Aug-2020 5157.51 3490.13 88.69 11.00 221.69 2691.72
   15:42:26.665.07-Aug-2020 5157.51 3490.17 88.69 11.00 221.89 2691.72
   15:42:26.865.07-Aug-2020 5157.51 3490.17 88.69 11.00 222.09 2691.72
   15:42:27.065.07-Aug-2020 5157.51 3490.17 88.69 11.00 222.29 2691.72
   15:42:27.266.07-Aug-2020 5157.51 3490.13 88.69 11.00 222.49 2691.72
   15:42:27.466.07-Aug-2020 5157.51 3490.15 88.69 11.00 222.69 2691.72
   15:42:27.666.07-Aug-2020 5157.51 3489.79 88.69 11.00 222.89 2691.72
   15:42:27.866.07-Aug-2020 5157.51 3490.31 88.69 11.00 223.09 2691.72
   15:42:28.066.07-Aug-2020 5157.51 3490.31 88.69 11.00 223.29 2691.72
   15:42:28.266.07-Aug-2020 5157.51 3490.14 88.69 11.00 223.49 2691.72
   15:42:28.466.07-Aug-2020 5157.51 3490.12 88.69 11.00 223.69 2691.72
   15:42:28.666.07-Aug-2020 5157.51 3490.17 88.69 11.00 223.89 2691.72
   15:42:28.866.07-Aug-2020 5157.51 3489.99 88.69 11.00 224.09 2691.72
   15:42:29.066.07-Aug-2020 5157.51 3489.99 88.69 11.00 224.29 2691.72
   15:42:29.266.07-Aug-2020 5157.51 3490.22 88.69 11.00 224.49 2691.72
   15:42:29.466.07-Aug-2020 5157.51 3490.22 88.69 11.00 224.69 2691.72
   15:42:29.667.07-Aug-2020 5157.51 3489.82 88.69 11.00 224.89 2691.72
   15:42:29.867.07-Aug-2020 5157.51 3490.28 88.69 11.00 225.09 2691.72
   15:42:30.067.07-Aug-2020 5157.51 3490.36 88.69 11.00 225.29 2691.72
   15:42:30.267.07-Aug-2020 5157.51 3489.97 88.69 11.00 225.49 2691.72
   15:42:30.467.07-Aug-2020 5157.51 3490.00 88.68 11.00 225.69 2691.72
   15:42:30.667.07-Aug-2020 5157.51 3490.29 88.68 11.00 225.89 2691.72
