~Version Information
 VERS.                  2.0:   CWLS log ASCII Standard -VERSION 2.0
 WRAP.                   NO:   One line per depth step
~Well Information Block
#MNEM.UNIT     VALUE/NAME     DESCRIPTION
#---------     -----------    ---------------------------
 STRT.S             15:38:44 07-Aug-20: START TIME 15:38:44 07-Aug-20
 STOP.S             15:46:36 07-Aug-20: STOP TIME  15:46:36 07-Aug-20
 STEP.S                   0.00: STEP TIME
 NULL.                 -999.25: NULL VALUE
 DFWT.                        :  DIST FWL TEXT
 DFST.                        :  DIST FSL TEXT
 DMF .             Drill Floor:  DRILL MEAS FROM
 STIM.      12.00.00 03-Jul-20:  START TIME
 DATE.      00.50.00 09-Aug-20:  END TIME
 SPUD.               03-Jul-20:  SPUD DATE
 NREF.                    Grid:  NORTH REFERENCE
 HPTY.       Minimum Curvature:  HOLE POS TYPE
 DMOD.             Drill Model:  DRILL MOD DESC
 SVYD.                  Survey:  SURVEY DESC
 ILTD.               Lithology:  INTERP LTH DESC
 FTOP.          Formation Tops:  FORM TOPS DESC
 PDAT.          Mean Sea Level:  PERMANENT DATUM
 FLD .                     ACG:  FIELD NAME
 CTRY.              Azerbaijan:  COUNTRY NAME
 WELL.                    E04x:  WELL NAME
 SRVC.          Turan Drilling:  CONTRACTOR
 COMP.     BP Exploration (Caspian Sea) Ltd.:  COMPANY
 SON .        AZ-XX-0906531346:  JOB NUMBER
 WTYP.                Deviated:  WELL TYPE
 MDS .        Operator Entered:  MAG DATA SOURCE
 UWI .                     N/A:  UNIQUE WELL IDENTIFIER
 API .                     N/A:  API NUMBER
 BASE.              Azerbaijan:  LOGGING EQUIPMENT BASE LOCATION
 REGN.                   EESSA:  REGION
 PROV.                    Baku:  PROVINCE
 STAT.                    Baku:  STATE NAME
 MWDS.                    Baku:  MWD SHOP
 JOBN.        AZ-XX-0906531346:  JOB TICKET NUMB
 RIG .                     DWG:  RIG NAME
 DOE .                     N/A:  DOE NUMBER
 DCON.         Sperry Drilling:  DIRECTNL CONTR
 UNIT.                     N/A:  LOGGING EQUIPMENT ID
 CNTY.                        :  COUNTY
 LOC .                        :  LOCATION
 LMF .             Drill Floor:  LOG MEASURED FROM
 TVDS.m                  43.16:  TVDSS CORRECTN
 LATI.deg                40.17:  LATITUDE
 LONG.deg                51.17:  LONGITUDE
 WHNS.m                  -0.12:  WELL HEAD N/S
 WHEW.m                  -5.41:  WELL HEAD E/W
 UTMX.m              514337.95:  UTM X
 UTMY.m             4448627.46:  UTM Y
 DFWL.m                   0.00:  DISTANCE FWL
 DFSL.m                   0.00:  DISTANCE FSL
 SDEP.m                3088.01:  START DEPTH
 TDD .m                5200.01:  TOTAL DEPTH (DRILLER)
 VSDR.deg               244.51:  VERT SEC DIRECT
 GVFD.g                   1.00:  GRAVITY FIELD
 MFLD.nT              50329.80:  MAGNETIC FIELD
 MDIP.deg                59.63:  MAGNETIC DIP
 MDEC.deg                 6.59:  MAGNETIC DECL
 GRDC.deg                 0.09:  GRID CORRECTION
 AZTC.deg                 6.50:  AZM TOTAL CORR
 EPD .m                   0.00:  ELEVATION
 EGL .m                   0.00:  GROUND ELEVATION
 WDMS.m                 176.20:  WD ELEV
 APD .m                  43.16:  DEPTH ABOVE PD
 DEP .m                3084.71:  DEPTH
 AGAP.m                  43.16:  AIR GAP
 VSEW.m                  -5.41:  VERT SEC E/W
 VSNS.m                  -0.12:  VERT SEC N/S
 EKB .m                   0.00:  KB ELEVATION
 EDF .m                  43.16:  DF ELEVATION
 TDL .m                 243.00:  TOTAL DEPTH (LOGGER)
 VSC .                       0:  VS TO CLOSURE
 MAGU.                 1853542:  MAGUTM CHECKSUM
~Parameter Information Block
#MNEM.UNIT       Value        Description
#---------     -----------    ---------------------------
 AV  .mps                 1.91:  Ann Velocity 
 AVMX.mps                 2.52:  Max Ann Veloc 
 AZIF.deg               308.97:  Azm, Final 
 BHAT.        Rotary Steerable:  BHA Type 
 BROT.°/30m               1.00:  Build Rotating 
 BS  .in                  6.50:  Bit Size 
 BSZ .in                  6.50:  Bit Size 
 BTPL.psig              350.00:  Bit Press Loss 
 CABU.                      No:  Customer Abuse 
 CGEO.           Asif Pashayev:  Customer Geo 
 COMM.                     6…:  Run Comments 1 
 TCS .hr                 35.86:  Time Ciculation Ended 
 CV  .mps                 2.31:  Crit Velocity 
 CVMX.mps                 2.31:  Max Crit Veloc 
 DD1 .         Intigam Rahimov:  Direct Drillr 1 
 DDSV.               Geo-Pilot:  DD Service 
 DEFF.%                  92.00:  % Det Eff 
 DLRX.°/30m               1.00:  Dogleg Rot Max 
 DLSO.°/30m               1.00:  Dogleg Oriented 
 DLSX.°/30m               1.42:  Dogleg Str Max 
 DRET.      15.50.00 07-Aug-20:  Drill End Time 
 DRST.      10.40.00 06-Aug-20:  Drill Start Tim 
 DTIM.hr                 21.30:  Time Drilling 
 EDEP.m                5200.01:  End Depth 
 ENG1.            Alan Tuganov:  Engineer 1 
 ENG2.         Almaz Almadatov:  Engineer 2 
 ENG3.     Zammelal Abdullah Sani:  Engineer 3 
 ETIM.      22.42.00 08-Aug-20:  End Time 
 FLOI.gpm               395.00:  Flow In 
 FLON.gpm               350.00:  Flow In Min 
 FLOS.cptm                0.00:  Fluid Loss 
 FLOX.gpm               404.00:  Flow In Max 
 FTRO.       Formation Presure:  FTWD Run Obj 
 HFLO.                      No:  High Flow 
 HPRE.                      No:  High Pressure 
 HTEM.                      No:  High Temp 
 HYDO.m                   1.80:  Hydro Offset 
 IFIN.deg                72.64:  Inc, Final 
 IMAX.deg                73.68:  Inc Max 
 IMIN.deg                72.64:  Inc Min 
 IMND.m                5189.69:  Inc Min Depth 
 IMXD.m                5067.88:  Inc Max Depth 
 JARR.                      No:  Jarring 
 LETM.      15.50.00 07-Aug-20:  Log End Time 
 LOST.hr                     0:  Lost Rig Time 
 LSTM.      10.40.00 06-Aug-20:  Log Start Time 
 MDCL.ppm             36000.00:  Mud Chlorides 
 MDES.     Inversion Oil/Synthetic:  Mud Desc 
 DFD .sg                  1.36:  Mud Density 
 MDMN.sg                  1.36:  Dens Mud Min 
 MDMX.sg                  1.36:  Dens Mud Max 
 MOIL.                      70:  Run Mud Oil % 
 MOWR.                   70:30:  Run Mud OWR 
 MSND.                    0.00:  Run Mud Sand % 
 MSOL.                   17.60:  Run Mud Solids% 
 DFV .spqt               73.00:  Mud Viscosity 
 MWOD.in                  4.75:  MWD Tool OD 
 MWSI.                      No:  Serv Intrp, MWD 
 OTIM.hr                 85.66:  Time Operating 
 PCON.           Look Like New:  Pad Condition 
 PMAX.psia             6250.00:  Press Op, Max 
 PV  .cP                 65.00:  Mud PV 
 RUN .                     900:  Run Number 
 ROPA.m/hr               11.40:  ROP Avg 
 ROPN.m/hr                5.00:  ROP Min 
 ROPX.m/hr               20.00:  ROP Max 
 RPMA.rpm               130.00:  RPM Surface Avg 
 RPMN.rpm                40.00:  RPM Surface Min 
 RPMX.rpm               140.00:  RPM Surface Max 
 RRUN.                    L205:  Rig Run Number 
 RTIM.hr                  1.00:  Time Reaming 
 SAZI.deg               313.52:  Azm, Start 
 SDEP.m                4957.01:  Start Depth 
 SIDD.                      No:  Serv Intrp, DD 
 SINC.deg                73.16:  Inc, Start 
 SPPA.psig             5657.00:  SPP Avg 
 SPPN.psig             2500.00:  SPP Min 
 SPPX.psig             5806.00:  SPP Max 
 STIM.      07.12.00 05-Aug-20:  Start Time 
 SVCS.                 DD, MWD:  Services 
 SVER.                    9.20:  Sperry Version 
 TDAT.m                 243.00:  Tot Depth Attmp 
 TDDF.                      No:  Trip for DD 
 TDLG.m                 243.00:  Tot Depth Loggd 
 TFF .                      No:  Trip for Fail 
 TQAA.f-kp               13.00:  Torque Abs Avg 
 TQAN.f-kp               11.00:  Torque Abs Min 
 TQAX.f-kp               16.00:  Torque Abs Max 
 TRRT.°/30m               1.00:  Turn Rotating 
 MRT .                    HCIM:  Maximum Recorded Temperature 
 TTMX.degC               96.08:  Max Tool Temp 
 VS01.                90515411:  Virtual Str1 SN 
 VS02.                90512716:  Virtual Str2 SN 
 VS03.                90522362:  Virtual Str3 SN 
 VS04.                90619415:  Virtual Str4 SN 
 VS05.                90619414:  Virtual Str5 SN 
 VS06.                90597748:  Virtual Str6 SN 
 WBMN.klb                 2.00:  WOB Min 
 WITN.           Adil Mammadov:  Customer Rep 
 WITN.     Alexander Yadullayev:  Customer Rep 2 
 WOBA.klb                 7.00:  WOB Avg 
 WOBX.klb                23.00:  WOB Max 
 YP  .lhf2               37.00:  Yield Point 
~Curve Information Block
#MNEM.UNIT                 API CODE     Curve Description
#---------               -----------    ---------------------------
 TIME.HHMMSS            00 000 000 000:  GT Time & Date
 GTDEPTH.m              00 000 000 000:  GT Depth
 GTPQH.psia             00 000 000 000:  GT HR Quartz Pressure
 GTTQ.degC              00 000 000 000:  GT Quartz Temperature
 GTTN.NONE              00 000 000 000:  GT Test Number
 GTET.sec               00 000 000 000:  GT Elapsed Test Time
 GTTVD.m                00 000 000 000:  GT True Vertical Depth
#Other Information
#
#WARRANTY: Halliburton will use its best efforts to furnish customers with 
#accurate information and interpretations that are part of, and incident to, the services 
#provided.  However, Halliburton cannot and does not warrant the accuracy 
#or correctness of such information and interpretations.  Under no circumstances should any 
#such information or interpretation be relied upon as the sole basis for any drilling, 
#completion, production, or financial decision or any procedure involving any risk to the 
#safety of any drilling venture, drilling rig or its crew or any other third party.  The 
#Customer has full responsibility for all drilling, completion and production operation.  
#Halliburton makes no representations or warranties, either expressed or 
#implied, including, but not limited to, the implied warranties of merchantability or fitness 
#for a particular purpose, with respect to the services rendered.  In no event will 
#Halliburton be liable for failure to obtain any particular results or for 
#any damages, including, but not limited to, indirect, special or consequential damages, 
#resulting from the use of any information or interpretation provided by Halliburton.
#
~A           TIME           GTDEPTH  GTPQH  GTTQ  GTTN   GTET   GTTVD  
# ...
   15:45:09.132.07-Aug-2020 5157.51 3490.32 88.33 11.00 384.36 2691.72
   15:45:09.332.07-Aug-2020 5157.51 3490.24 88.33 11.00 384.56 2691.72
   15:45:09.532.07-Aug-2020 5157.51 3490.31 88.33 11.00 384.76 2691.72
   15:45:09.732.07-Aug-2020 5157.51 3490.28 88.33 11.00 384.96 2691.72
   15:45:09.933.07-Aug-2020 5157.51 3490.25 88.33 11.00 385.16 2691.72
   15:45:10.133.07-Aug-2020 5157.51 3490.24 88.33 11.00 385.36 2691.72
   15:45:10.333.07-Aug-2020 5157.51 3490.25 88.33 11.00 385.56 2691.72
   15:45:10.533.07-Aug-2020 5157.51 3490.15 88.33 11.00 385.76 2691.72
   15:45:10.733.07-Aug-2020 5157.51 3490.25 88.33 11.00 385.96 2691.72
   15:45:10.933.07-Aug-2020 5157.51 3490.32 88.33 11.00 386.16 2691.72
   15:45:11.133.07-Aug-2020 5157.51 3490.32 88.33 11.00 386.36 2691.72
   15:45:11.333.07-Aug-2020 5157.51 3490.12 88.33 11.00 386.56 2691.72
   15:45:11.533.07-Aug-2020 5157.51 3490.31 88.33 11.00 386.76 2691.72
   15:45:11.733.07-Aug-2020 5157.51 3490.34 88.33 11.00 386.96 2691.72
   15:45:11.933.07-Aug-2020 5157.51 3490.21 88.33 11.00 387.16 2691.72
   15:45:12.133.07-Aug-2020 5157.51 3490.21 88.33 11.00 387.36 2691.72
   15:45:12.334.07-Aug-2020 5157.51 3490.27 88.32 11.00 387.56 2691.72
   15:45:12.534.07-Aug-2020 5157.51 3490.26 88.32 11.00 387.76 2691.72
   15:45:12.734.07-Aug-2020 5157.51 3490.24 88.32 11.00 387.96 2691.72
   15:45:12.934.07-Aug-2020 5157.51 3490.24 88.32 11.00 388.16 2691.72
   15:45:13.134.07-Aug-2020 5157.51 3490.24 88.32 11.00 388.36 2691.72
   15:45:13.334.07-Aug-2020 5157.51 3489.83 88.32 11.00 388.56 2691.72
   15:45:13.534.07-Aug-2020 5157.51 3490.46 88.32 11.00 388.76 2691.72
   15:45:13.734.07-Aug-2020 5157.51 3490.37 88.32 11.00 388.96 2691.72
   15:45:13.934.07-Aug-2020 5157.51 3490.22 88.32 11.00 389.16 2691.72
   15:45:14.134.07-Aug-2020 5157.51 3490.23 88.32 11.00 389.36 2691.72
   15:45:14.334.07-Aug-2020 5157.51 3490.29 88.32 11.00 389.56 2691.72
   15:45:14.534.07-Aug-2020 5157.51 3489.99 88.32 11.00 389.76 2691.72
   15:45:14.735.07-Aug-2020 5157.51 3490.36 88.32 11.00 389.96 2691.72
   15:45:14.935.07-Aug-2020 5157.51 3490.37 88.32 11.00 390.16 2691.72
   15:45:15.135.07-Aug-2020 5157.51 3490.37 88.32 11.00 390.36 2691.72
   15:45:15.335.07-Aug-2020 5157.51 3489.98 88.32 11.00 390.56 2691.72
   15:45:15.535.07-Aug-2020 5157.51 3490.39 88.32 11.00 390.76 2691.72
   15:45:15.735.07-Aug-2020 5157.51 3490.48 88.32 11.00 390.96 2691.72
   15:45:15.935.07-Aug-2020 5157.51 3490.08 88.32 11.00 391.16 2691.72
   15:45:16.135.07-Aug-2020 5157.51 3490.08 88.32 11.00 391.36 2691.72
   15:45:16.335.07-Aug-2020 5157.51 3490.51 88.32 11.00 391.56 2691.72
   15:45:16.535.07-Aug-2020 5157.51 3490.38 88.32 11.00 391.76 2691.72
   15:45:16.735.07-Aug-2020 5157.51 3490.25 88.31 11.00 391.96 2691.72
   15:45:16.935.07-Aug-2020 5157.51 3490.24 88.31 11.00 392.16 2691.72
   15:45:17.135.07-Aug-2020 5157.51 3490.24 88.31 11.00 392.36 2691.72
   15:45:17.336.07-Aug-2020 5157.51 3490.32 88.31 11.00 392.56 2691.72
   15:45:17.536.07-Aug-2020 5157.51 3490.23 88.31 11.00 392.76 2691.72
   15:45:17.736.07-Aug-2020 5157.51 3490.32 88.31 11.00 392.96 2691.72
   15:45:17.936.07-Aug-2020 5157.51 3490.32 88.31 11.00 393.16 2691.72
   15:45:18.136.07-Aug-2020 5157.51 3490.28 88.31 11.00 393.36 2691.72
   15:45:18.336.07-Aug-2020 5157.51 3490.26 88.31 11.00 393.56 2691.72
   15:45:18.536.07-Aug-2020 5157.51 3490.25 88.31 11.00 393.76 2691.72
   15:45:18.736.07-Aug-2020 5157.51 3490.22 88.31 11.00 393.96 2691.72
   15:45:18.936.07-Aug-2020 5157.51 3490.10 88.31 11.00 394.16 2691.72
   15:45:19.136.07-Aug-2020 5157.51 3490.10 88.31 11.00 394.36 2691.72
   15:45:19.336.07-Aug-2020 5157.51 3490.40 88.31 11.00 394.56 2691.72
   15:45:19.536.07-Aug-2020 5157.51 3490.11 88.31 11.00 394.76 2691.72
   15:45:19.737.07-Aug-2020 5157.51 3490.33 88.31 11.00 394.96 2691.72
   15:45:19.937.07-Aug-2020 5157.51 3490.32 88.31 11.00 395.16 2691.72
   15:45:20.137.07-Aug-2020 5157.51 3490.32 88.31 11.00 395.36 2691.72
   15:45:20.337.07-Aug-2020 5157.51 3490.24 88.31 11.00 395.56 2691.72
   15:45:20.537.07-Aug-2020 5157.51 3490.29 88.31 11.00 395.76 2691.72
   15:45:20.737.07-Aug-2020 5157.51 3490.29 88.31 11.00 395.96 2691.72
   15:45:20.937.07-Aug-2020 5157.51 3490.23 88.31 11.00 396.16 2691.72
   15:45:21.137.07-Aug-2020 5157.51 3490.23 88.31 11.00 396.36 2691.72
   15:45:21.337.07-Aug-2020 5157.51 3490.26 88.30 11.00 396.56 2691.72
   15:45:21.537.07-Aug-2020 5157.51 3490.13 88.30 11.00 396.76 2691.72
   15:45:21.737.07-Aug-2020 5157.51 3490.24 88.30 11.00 396.96 2691.72
   15:45:21.937.07-Aug-2020 5157.51 3490.31 88.30 11.00 397.16 2691.72
   15:45:22.138.07-Aug-2020 5157.51 3490.31 88.30 11.00 397.36 2691.72
   15:45:22.338.07-Aug-2020 5157.51 3490.12 88.30 11.00 397.56 2691.72
   15:45:22.538.07-Aug-2020 5157.51 3490.31 88.30 11.00 397.76 2691.72
   15:45:22.738.07-Aug-2020 5157.51 3490.23 88.30 11.00 397.96 2691.72
   15:45:22.938.07-Aug-2020 5157.51 3490.17 88.30 11.00 398.16 2691.72
   15:45:23.138.07-Aug-2020 5157.51 3490.17 88.30 11.00 398.36 2691.72
   15:45:23.338.07-Aug-2020 5157.51 3490.43 88.30 11.00 398.56 2691.72
   15:45:23.538.07-Aug-2020 5157.51 3489.61 88.30 11.00 398.76 2691.72
   15:45:23.738.07-Aug-2020 5157.51 3490.59 88.30 11.00 398.96 2691.72
   15:45:23.938.07-Aug-2020 5157.51 3490.49 88.30 11.00 399.16 2691.72
   15:45:24.138.07-Aug-2020 5157.51 3490.49 88.30 11.00 399.36 2691.72
   15:45:24.338.07-Aug-2020 5157.51 3490.21 88.30 11.00 399.56 2691.72
   15:45:24.539.07-Aug-2020 5157.51 3490.21 88.30 11.00 399.76 2691.72
   15:45:24.739.07-Aug-2020 5157.51 3490.45 88.30 11.00 399.96 2691.72
   15:45:24.939.07-Aug-2020 5157.51 3490.35 88.30 11.00 400.16 2691.72
   15:45:25.139.07-Aug-2020 5157.51 3490.35 88.30 11.00 400.36 2691.72
   15:45:25.339.07-Aug-2020 5157.51 3490.40 88.30 11.00 400.57 2691.72
   15:45:25.539.07-Aug-2020 5157.51 3490.36 88.30 11.00 400.77 2691.72
   15:45:25.739.07-Aug-2020 5157.51 3490.26 88.30 11.00 400.97 2691.72
   15:45:25.939.07-Aug-2020 5157.51 3490.30 88.30 11.00 401.17 2691.72
   15:45:26.139.07-Aug-2020 5157.51 3490.33 88.29 11.00 401.37 2691.72
   15:45:26.339.07-Aug-2020 5157.51 3490.28 88.29 11.00 401.57 2691.72
   15:45:26.539.07-Aug-2020 5157.51 3490.26 88.29 11.00 401.77 2691.72
   15:45:26.739.07-Aug-2020 5157.51 3490.28 88.29 11.00 401.97 2691.72
   15:45:26.940.07-Aug-2020 5157.51 3490.27 88.29 11.00 402.17 2691.72
   15:45:27.140.07-Aug-2020 5157.51 3489.88 88.29 11.00 402.37 2691.72
   15:45:27.340.07-Aug-2020 5157.51 3490.55 88.29 11.00 402.57 2691.72
   15:45:27.540.07-Aug-2020 5157.51 3490.39 88.29 11.00 402.77 2691.72
   15:45:27.740.07-Aug-2020 5157.51 3490.21 88.29 11.00 402.97 2691.72
   15:45:27.940.07-Aug-2020 5157.51 3490.27 88.29 11.00 403.17 2691.72
   15:45:28.140.07-Aug-2020 5157.51 3490.27 88.29 11.00 403.37 2691.72
   15:45:28.340.07-Aug-2020 5157.51 3490.33 88.29 11.00 403.57 2691.72
   15:45:28.540.07-Aug-2020 5157.51 3490.22 88.29 11.00 403.77 2691.72
   15:45:28.740.07-Aug-2020 5157.51 3490.28 88.29 11.00 403.97 2691.72
   15:45:28.940.07-Aug-2020 5157.51 3490.31 88.29 11.00 404.17 2691.72
   15:45:29.140.07-Aug-2020 5157.51 3490.31 88.29 11.00 404.37 2691.72
   15:45:29.341.07-Aug-2020 5157.51 3490.24 88.29 11.00 404.57 2691.72
   15:45:29.541.07-Aug-2020 5157.51 3490.26 88.29 11.00 404.77 2691.72
   15:45:29.741.07-Aug-2020 5157.51 3490.25 88.29 11.00 404.97 2691.72
   15:45:29.941.07-Aug-2020 5157.51 3490.01 88.29 11.00 405.17 2691.72
   15:45:30.141.07-Aug-2020 5157.51 3490.01 88.29 11.00 405.37 2691.72
   15:45:30.341.07-Aug-2020 5157.51 3490.38 88.29 11.00 405.57 2691.72
   15:45:30.541.07-Aug-2020 5157.51 3490.13 88.29 11.00 405.77 2691.72
   15:45:30.741.07-Aug-2020 5157.51 3490.31 88.29 11.00 405.97 2691.72
   15:45:30.941.07-Aug-2020 5157.51 3490.33 88.28 11.00 406.17 2691.72
   15:45:31.141.07-Aug-2020 5157.51 3490.33 88.28 11.00 406.37 2691.72
   15:45:31.341.07-Aug-2020 5157.51 3490.40 88.28 11.00 406.57 2691.72
   15:45:31.541.07-Aug-2020 5157.51 3490.41 88.28 11.00 406.77 2691.72
