~Version Information
 VERS.                  2.0:   CWLS log ASCII Standard -VERSION 2.0
 WRAP.                   NO:   One line per depth step
~Well Information Block
#MNEM.UNIT     VALUE/NAME     DESCRIPTION
#---------     -----------    ---------------------------
 STRT.S             21:52:26 06-Aug-20: START TIME 21:52:26 06-Aug-20
 STOP.S             22:00:18 06-Aug-20: STOP TIME  22:00:18 06-Aug-20
 STEP.S                   0.00: STEP TIME
 NULL.                 -999.25: NULL VALUE
 DFWT.                        :  DIST FWL TEXT
 DFST.                        :  DIST FSL TEXT
 DMF .             Drill Floor:  DRILL MEAS FROM
 STIM.      12.00.00 03-Jul-20:  START TIME
 DATE.      00.50.00 09-Aug-20:  END TIME
 SPUD.               03-Jul-20:  SPUD DATE
 NREF.                    Grid:  NORTH REFERENCE
 HPTY.       Minimum Curvature:  HOLE POS TYPE
 DMOD.             Drill Model:  DRILL MOD DESC
 SVYD.                  Survey:  SURVEY DESC
 ILTD.               Lithology:  INTERP LTH DESC
 FTOP.          Formation Tops:  FORM TOPS DESC
 PDAT.          Mean Sea Level:  PERMANENT DATUM
 FLD .                     ACG:  FIELD NAME
 CTRY.              Azerbaijan:  COUNTRY NAME
 WELL.                    E04x:  WELL NAME
 SRVC.          Turan Drilling:  CONTRACTOR
 COMP.     BP Exploration (Caspian Sea) Ltd.:  COMPANY
 SON .        AZ-XX-0906531346:  JOB NUMBER
 WTYP.                Deviated:  WELL TYPE
 MDS .        Operator Entered:  MAG DATA SOURCE
 UWI .                     N/A:  UNIQUE WELL IDENTIFIER
 API .                     N/A:  API NUMBER
 BASE.              Azerbaijan:  LOGGING EQUIPMENT BASE LOCATION
 REGN.                   EESSA:  REGION
 PROV.                    Baku:  PROVINCE
 STAT.                    Baku:  STATE NAME
 MWDS.                    Baku:  MWD SHOP
 JOBN.        AZ-XX-0906531346:  JOB TICKET NUMB
 RIG .                     DWG:  RIG NAME
 DOE .                     N/A:  DOE NUMBER
 DCON.         Sperry Drilling:  DIRECTNL CONTR
 UNIT.                     N/A:  LOGGING EQUIPMENT ID
 CNTY.                        :  COUNTY
 LOC .                        :  LOCATION
 LMF .             Drill Floor:  LOG MEASURED FROM
 TVDS.m                  43.16:  TVDSS CORRECTN
 LATI.deg                40.17:  LATITUDE
 LONG.deg                51.17:  LONGITUDE
 WHNS.m                  -0.12:  WELL HEAD N/S
 WHEW.m                  -5.41:  WELL HEAD E/W
 UTMX.m              514337.95:  UTM X
 UTMY.m             4448627.46:  UTM Y
 DFWL.m                   0.00:  DISTANCE FWL
 DFSL.m                   0.00:  DISTANCE FSL
 SDEP.m                3088.01:  START DEPTH
 TDD .m                5200.01:  TOTAL DEPTH (DRILLER)
 VSDR.deg               244.51:  VERT SEC DIRECT
 GVFD.g                   1.00:  GRAVITY FIELD
 MFLD.nT              50329.80:  MAGNETIC FIELD
 MDIP.deg                59.63:  MAGNETIC DIP
 MDEC.deg                 6.59:  MAGNETIC DECL
 GRDC.deg                 0.09:  GRID CORRECTION
 AZTC.deg                 6.50:  AZM TOTAL CORR
 EPD .m                   0.00:  ELEVATION
 EGL .m                   0.00:  GROUND ELEVATION
 WDMS.m                 176.20:  WD ELEV
 APD .m                  43.16:  DEPTH ABOVE PD
 DEP .m                3084.71:  DEPTH
 AGAP.m                  43.16:  AIR GAP
 VSEW.m                  -5.41:  VERT SEC E/W
 VSNS.m                  -0.12:  VERT SEC N/S
 EKB .m                   0.00:  KB ELEVATION
 EDF .m                  43.16:  DF ELEVATION
 TDL .m                 243.00:  TOTAL DEPTH (LOGGER)
 VSC .                       0:  VS TO CLOSURE
 MAGU.                 1853542:  MAGUTM CHECKSUM
~Parameter Information Block
#MNEM.UNIT       Value        Description
#---------     -----------    ---------------------------
 AV  .mps                 1.91:  Ann Velocity 
 AVMX.mps                 2.52:  Max Ann Veloc 
 AZIF.deg               308.97:  Azm, Final 
 BHAT.        Rotary Steerable:  BHA Type 
 BROT.°/30m               1.00:  Build Rotating 
 BS  .in                  6.50:  Bit Size 
 BSZ .in                  6.50:  Bit Size 
 BTPL.psig              350.00:  Bit Press Loss 
 CABU.                      No:  Customer Abuse 
 CGEO.           Asif Pashayev:  Customer Geo 
 COMM.                     #‚:  Run Comments 1 
 TCS .hr                 35.86:  Time Ciculation Ended 
 CV  .mps                 2.31:  Crit Velocity 
 CVMX.mps                 2.31:  Max Crit Veloc 
 DD1 .         Intigam Rahimov:  Direct Drillr 1 
 DDSV.               Geo-Pilot:  DD Service 
 DEFF.%                  92.00:  % Det Eff 
 DLRX.°/30m               1.00:  Dogleg Rot Max 
 DLSO.°/30m               1.00:  Dogleg Oriented 
 DLSX.°/30m               1.42:  Dogleg Str Max 
 DRET.      15.50.00 07-Aug-20:  Drill End Time 
 DRST.      10.40.00 06-Aug-20:  Drill Start Tim 
 DTIM.hr                 21.30:  Time Drilling 
 EDEP.m                5200.01:  End Depth 
 ENG1.            Alan Tuganov:  Engineer 1 
 ENG2.         Almaz Almadatov:  Engineer 2 
 ENG3.     Zammelal Abdullah Sani:  Engineer 3 
 ETIM.      22.42.00 08-Aug-20:  End Time 
 FLOI.gpm               395.00:  Flow In 
 FLON.gpm               350.00:  Flow In Min 
 FLOS.cptm                0.00:  Fluid Loss 
 FLOX.gpm               404.00:  Flow In Max 
 FTRO.       Formation Presure:  FTWD Run Obj 
 HFLO.                      No:  High Flow 
 HPRE.                      No:  High Pressure 
 HTEM.                      No:  High Temp 
 HYDO.m                   1.80:  Hydro Offset 
 IFIN.deg                72.64:  Inc, Final 
 IMAX.deg                73.68:  Inc Max 
 IMIN.deg                72.64:  Inc Min 
 IMND.m                5189.69:  Inc Min Depth 
 IMXD.m                5067.88:  Inc Max Depth 
 JARR.                      No:  Jarring 
 LETM.      15.50.00 07-Aug-20:  Log End Time 
 LOST.hr                     0:  Lost Rig Time 
 LSTM.      10.40.00 06-Aug-20:  Log Start Time 
 MDCL.ppm             36000.00:  Mud Chlorides 
 MDES.     Inversion Oil/Synthetic:  Mud Desc 
 DFD .sg                  1.36:  Mud Density 
 MDMN.sg                  1.36:  Dens Mud Min 
 MDMX.sg                  1.36:  Dens Mud Max 
 MOIL.                      70:  Run Mud Oil % 
 MOWR.                   70:30:  Run Mud OWR 
 MSND.                    0.00:  Run Mud Sand % 
 MSOL.                   17.60:  Run Mud Solids% 
 DFV .spqt               73.00:  Mud Viscosity 
 MWOD.in                  4.75:  MWD Tool OD 
 MWSI.                      No:  Serv Intrp, MWD 
 OTIM.hr                 85.66:  Time Operating 
 PCON.           Look Like New:  Pad Condition 
 PMAX.psia             6250.00:  Press Op, Max 
 PV  .cP                 65.00:  Mud PV 
 RUN .                     900:  Run Number 
 ROPA.m/hr               11.40:  ROP Avg 
 ROPN.m/hr                5.00:  ROP Min 
 ROPX.m/hr               20.00:  ROP Max 
 RPMA.rpm               130.00:  RPM Surface Avg 
 RPMN.rpm                40.00:  RPM Surface Min 
 RPMX.rpm               140.00:  RPM Surface Max 
 RRUN.                    L205:  Rig Run Number 
 RTIM.hr                  1.00:  Time Reaming 
 SAZI.deg               313.52:  Azm, Start 
 SDEP.m                4957.01:  Start Depth 
 SIDD.                      No:  Serv Intrp, DD 
 SINC.deg                73.16:  Inc, Start 
 SPPA.psig             5657.00:  SPP Avg 
 SPPN.psig             2500.00:  SPP Min 
 SPPX.psig             5806.00:  SPP Max 
 STIM.      07.12.00 05-Aug-20:  Start Time 
 SVCS.                 DD, MWD:  Services 
 SVER.                    9.20:  Sperry Version 
 TDAT.m                 243.00:  Tot Depth Attmp 
 TDDF.                      No:  Trip for DD 
 TDLG.m                 243.00:  Tot Depth Loggd 
 TFF .                      No:  Trip for Fail 
 TQAA.f-kp               13.00:  Torque Abs Avg 
 TQAN.f-kp               11.00:  Torque Abs Min 
 TQAX.f-kp               16.00:  Torque Abs Max 
 TRRT.°/30m               1.00:  Turn Rotating 
 MRT .                    HCIM:  Maximum Recorded Temperature 
 TTMX.degC               96.08:  Max Tool Temp 
 VS01.                90515411:  Virtual Str1 SN 
 VS02.                90512716:  Virtual Str2 SN 
 VS03.                90522362:  Virtual Str3 SN 
 VS04.                90619415:  Virtual Str4 SN 
 VS05.                90619414:  Virtual Str5 SN 
 VS06.                90597748:  Virtual Str6 SN 
 WBMN.klb                 2.00:  WOB Min 
 WITN.           Adil Mammadov:  Customer Rep 
 WITN.     Alexander Yadullayev:  Customer Rep 2 
 WOBA.klb                 7.00:  WOB Avg 
 WOBX.klb                23.00:  WOB Max 
 YP  .lhf2               37.00:  Yield Point 
~Curve Information Block
#MNEM.UNIT                 API CODE     Curve Description
#---------               -----------    ---------------------------
 TIME.HHMMSS            00 000 000 000:  GT Time & Date
 GTDEPTH.m              00 000 000 000:  GT Depth
 GTPQH.psia             00 000 000 000:  GT HR Quartz Pressure
 GTTQ.degC              00 000 000 000:  GT Quartz Temperature
 GTTN.NONE              00 000 000 000:  GT Test Number
 GTET.sec               00 000 000 000:  GT Elapsed Test Time
 GTTVD.m                00 000 000 000:  GT True Vertical Depth
#Other Information
#
#WARRANTY: Halliburton will use its best efforts to furnish customers with 
#accurate information and interpretations that are part of, and incident to, the services 
#provided.  However, Halliburton cannot and does not warrant the accuracy 
#or correctness of such information and interpretations.  Under no circumstances should any 
#such information or interpretation be relied upon as the sole basis for any drilling, 
#completion, production, or financial decision or any procedure involving any risk to the 
#safety of any drilling venture, drilling rig or its crew or any other third party.  The 
#Customer has full responsibility for all drilling, completion and production operation.  
#Halliburton makes no representations or warranties, either expressed or 
#implied, including, but not limited to, the implied warranties of merchantability or fitness 
#for a particular purpose, with respect to the services rendered.  In no event will 
#Halliburton be liable for failure to obtain any particular results or for 
#any damages, including, but not limited to, indirect, special or consequential damages, 
#resulting from the use of any information or interpretation provided by Halliburton.
#
~A           TIME           GTDEPTH  GTPQH  GTTQ  GTTN  GTET   GTTVD  
# ...
   22:00:06.000.06-Aug-2020 5001.01 5806.92 83.29 4.00 460.00 2646.47
   22:00:06.200.06-Aug-2020 5001.01 5806.92 83.29 4.00 460.20 2646.47
   22:00:06.400.06-Aug-2020 5001.01 5810.77 83.29 4.00 460.40 2646.47
   22:00:06.600.06-Aug-2020 5001.01 5811.13 83.29 4.00 460.60 2646.47
   22:00:06.800.06-Aug-2020 5001.01 5812.12 83.29 4.00 460.80 2646.47
   22:00:07.000.06-Aug-2020 5001.01 5812.49 83.29 4.00 461.00 2646.47
   22:00:07.200.06-Aug-2020 5001.01 5812.49 83.29 4.00 461.20 2646.47
   22:00:07.400.06-Aug-2020 5001.01 5812.32 83.29 4.00 461.40 2646.47
   22:00:07.600.06-Aug-2020 5001.01 5812.10 83.29 4.00 461.60 2646.47
   22:00:07.800.06-Aug-2020 5001.01 5812.53 83.29 4.00 461.80 2646.47
   22:00:08.000.06-Aug-2020 5001.01 5812.40 83.29 4.00 462.00 2646.47
   22:00:08.200.06-Aug-2020 5001.01 5812.40 83.29 4.00 462.20 2646.47
   22:00:08.400.06-Aug-2020 5001.01 5809.83 83.29 4.00 462.40 2646.47
   22:00:08.600.06-Aug-2020 5001.01 5804.87 83.29 4.00 462.60 2646.47
   22:00:08.800.06-Aug-2020 5001.01 5812.14 83.29 4.00 462.80 2646.47
   22:00:09.000.06-Aug-2020 5001.01 5810.36 83.29 4.00 463.00 2646.47
   22:00:09.200.06-Aug-2020 5001.01 5810.36 83.29 4.00 463.20 2646.47
   22:00:09.400.06-Aug-2020 5001.01 5810.82 83.29 4.00 463.40 2646.47
   22:00:09.600.06-Aug-2020 5001.01 5811.14 83.29 4.00 463.60 2646.47
   22:00:09.800.06-Aug-2020 5001.01 5811.22 83.29 4.00 463.80 2646.47
   22:00:10.000.06-Aug-2020 5001.01 5811.76 83.29 4.00 464.00 2646.47
   22:00:10.200.06-Aug-2020 5001.01 5811.76 83.29 4.00 464.20 2646.47
   22:00:10.400.06-Aug-2020 5001.01 5811.62 83.29 4.00 464.40 2646.47
   22:00:10.600.06-Aug-2020 5001.01 5810.89 83.29 4.00 464.60 2646.47
   22:00:10.800.06-Aug-2020 5001.01 5810.88 83.29 4.00 464.80 2646.47
   22:00:11.000.06-Aug-2020 5001.01 5810.29 83.29 4.00 465.00 2646.47
   22:00:11.200.06-Aug-2020 5001.01 5810.29 83.29 4.00 465.20 2646.47
   22:00:11.400.06-Aug-2020 5001.01 5806.86 83.28 4.00 465.40 2646.47
   22:00:11.600.06-Aug-2020 5001.01 5810.34 83.28 4.00 465.60 2646.47
   22:00:11.800.06-Aug-2020 5001.01 5807.51 83.28 4.00 465.80 2646.47
   22:00:12.000.06-Aug-2020 5001.01 5809.98 83.28 4.00 466.00 2646.47
   22:00:12.200.06-Aug-2020 5001.01 5809.98 83.28 4.00 466.20 2646.47
   22:00:12.400.06-Aug-2020 5001.01 5802.26 83.28 4.00 466.40 2646.47
   22:00:12.600.06-Aug-2020 5001.01 5808.54 83.28 4.00 466.60 2646.47
   22:00:12.800.06-Aug-2020 5001.01 5809.83 83.28 4.00 466.80 2646.47
   22:00:13.000.06-Aug-2020 5001.01 5808.08 83.28 4.00 467.00 2646.47
   22:00:13.200.06-Aug-2020 5001.01 5808.08 83.28 4.00 467.20 2646.47
   22:00:13.400.06-Aug-2020 5001.01 5811.75 83.28 4.00 467.40 2646.47
   22:00:13.600.06-Aug-2020 5001.01 5805.63 83.28 4.00 467.60 2646.47
   22:00:13.800.06-Aug-2020 5001.01 5809.19 83.28 4.00 467.80 2646.47
   22:00:14.000.06-Aug-2020 5001.01 5807.04 83.28 4.00 468.00 2646.47
   22:00:14.200.06-Aug-2020 5001.01 5807.04 83.28 4.00 468.20 2646.47
   22:00:14.400.06-Aug-2020 5001.01 5803.21 83.28 4.00 468.40 2646.47
   22:00:14.600.06-Aug-2020 5001.01 5810.81 83.28 4.00 468.60 2646.47
   22:00:14.800.06-Aug-2020 5001.01 5808.68 83.28 4.00 468.80 2646.47
   22:00:15.000.06-Aug-2020 5001.01 5810.88 83.28 4.00 469.00 2646.47
   22:00:15.200.06-Aug-2020 5001.01 5810.88 83.28 4.00 469.20 2646.47
   22:00:15.400.06-Aug-2020 5001.01 5811.82 83.28 4.00 469.40 2646.47
   22:00:15.600.06-Aug-2020 5001.01 5811.94 83.28 4.00 469.60 2646.47
   22:00:15.800.06-Aug-2020 5001.01 5812.19 83.28 4.00 469.80 2646.47
   22:00:16.000.06-Aug-2020 5001.01 5811.61 83.28 4.00 470.00 2646.47
   22:00:16.200.06-Aug-2020 5001.01 5811.61 83.28 4.00 470.20 2646.47
   22:00:16.400.06-Aug-2020 5001.01 5811.65 83.28 4.00 470.40 2646.47
   22:00:16.600.06-Aug-2020 5001.01 5811.74 83.28 4.00 470.60 2646.47
   22:00:16.800.06-Aug-2020 5001.01 5804.24 83.28 4.00 470.80 2646.47
   22:00:17.000.06-Aug-2020 5001.01 5808.09 83.28 4.00 471.00 2646.47
   22:00:17.200.06-Aug-2020 5001.01 5808.09 83.28 4.00 471.20 2646.47
   22:00:17.400.06-Aug-2020 5001.01 5809.04 83.28 4.00 471.40 2646.47
   22:00:17.600.06-Aug-2020 5001.01 5810.83 83.28 4.00 471.60 2646.47
   22:00:17.800.06-Aug-2020 5001.01 5810.07 83.28 4.00 471.80 2646.47
   22:00:18.000.06-Aug-2020 5001.01 5810.29 83.27 4.00 472.00 2646.47
   22:00:18.200.06-Aug-2020 5001.01 5810.29 83.27 4.00 472.20 2646.47
   22:00:18.400.06-Aug-2020 5001.01 5810.42 83.27 4.00 472.40 2646.47
   22:00:18.600.06-Aug-2020 5001.01 5810.28 83.27 4.00 472.60 2646.47
   22:00:18.800.06-Aug-2020 5001.01 5810.20 83.27 4.00 472.80 2646.47
