~Version Information
 VERS.                  2.0:   CWLS log ASCII Standard -VERSION 2.0
 WRAP.                   NO:   One line per depth step
~Well Information Block
#MNEM.UNIT     VALUE/NAME     DESCRIPTION
#---------     -----------    ---------------------------
 STRT.S             01:47:02 07-Aug-20: START TIME 01:47:02 07-Aug-20
 STOP.S             01:54:54 07-Aug-20: STOP TIME  01:54:54 07-Aug-20
 STEP.S                   0.00: STEP TIME
 NULL.                 -999.25: NULL VALUE
 DFWT.                        :  DIST FWL TEXT
 DFST.                        :  DIST FSL TEXT
 DMF .             Drill Floor:  DRILL MEAS FROM
 STIM.      12.00.00 03-Jul-20:  START TIME
 DATE.      00.50.00 09-Aug-20:  END TIME
 SPUD.               03-Jul-20:  SPUD DATE
 NREF.                    Grid:  NORTH REFERENCE
 HPTY.       Minimum Curvature:  HOLE POS TYPE
 DMOD.             Drill Model:  DRILL MOD DESC
 SVYD.                  Survey:  SURVEY DESC
 ILTD.               Lithology:  INTERP LTH DESC
 FTOP.          Formation Tops:  FORM TOPS DESC
 PDAT.          Mean Sea Level:  PERMANENT DATUM
 FLD .                     ACG:  FIELD NAME
 CTRY.              Azerbaijan:  COUNTRY NAME
 WELL.                    E04x:  WELL NAME
 SRVC.          Turan Drilling:  CONTRACTOR
 COMP.     BP Exploration (Caspian Sea) Ltd.:  COMPANY
 SON .        AZ-XX-0906531346:  JOB NUMBER
 WTYP.                Deviated:  WELL TYPE
 MDS .        Operator Entered:  MAG DATA SOURCE
 UWI .                     N/A:  UNIQUE WELL IDENTIFIER
 API .                     N/A:  API NUMBER
 BASE.              Azerbaijan:  LOGGING EQUIPMENT BASE LOCATION
 REGN.                   EESSA:  REGION
 PROV.                    Baku:  PROVINCE
 STAT.                    Baku:  STATE NAME
 MWDS.                    Baku:  MWD SHOP
 JOBN.        AZ-XX-0906531346:  JOB TICKET NUMB
 RIG .                     DWG:  RIG NAME
 DOE .                     N/A:  DOE NUMBER
 DCON.         Sperry Drilling:  DIRECTNL CONTR
 UNIT.                     N/A:  LOGGING EQUIPMENT ID
 CNTY.                        :  COUNTY
 LOC .                        :  LOCATION
 LMF .             Drill Floor:  LOG MEASURED FROM
 TVDS.m                  43.16:  TVDSS CORRECTN
 LATI.deg                40.17:  LATITUDE
 LONG.deg                51.17:  LONGITUDE
 WHNS.m                  -0.12:  WELL HEAD N/S
 WHEW.m                  -5.41:  WELL HEAD E/W
 UTMX.m              514337.95:  UTM X
 UTMY.m             4448627.46:  UTM Y
 DFWL.m                   0.00:  DISTANCE FWL
 DFSL.m                   0.00:  DISTANCE FSL
 SDEP.m                3088.01:  START DEPTH
 TDD .m                5200.01:  TOTAL DEPTH (DRILLER)
 VSDR.deg               244.51:  VERT SEC DIRECT
 GVFD.g                   1.00:  GRAVITY FIELD
 MFLD.nT              50329.80:  MAGNETIC FIELD
 MDIP.deg                59.63:  MAGNETIC DIP
 MDEC.deg                 6.59:  MAGNETIC DECL
 GRDC.deg                 0.09:  GRID CORRECTION
 AZTC.deg                 6.50:  AZM TOTAL CORR
 EPD .m                   0.00:  ELEVATION
 EGL .m                   0.00:  GROUND ELEVATION
 WDMS.m                 176.20:  WD ELEV
 APD .m                  43.16:  DEPTH ABOVE PD
 DEP .m                3084.71:  DEPTH
 AGAP.m                  43.16:  AIR GAP
 VSEW.m                  -5.41:  VERT SEC E/W
 VSNS.m                  -0.12:  VERT SEC N/S
 EKB .m                   0.00:  KB ELEVATION
 EDF .m                  43.16:  DF ELEVATION
 TDL .m                 243.00:  TOTAL DEPTH (LOGGER)
 VSC .                       0:  VS TO CLOSURE
 MAGU.                 1853542:  MAGUTM CHECKSUM
~Parameter Information Block
#MNEM.UNIT       Value        Description
#---------     -----------    ---------------------------
 AV  .mps                 1.91:  Ann Velocity 
 AVMX.mps                 2.52:  Max Ann Veloc 
 AZIF.deg               308.97:  Azm, Final 
 BHAT.        Rotary Steerable:  BHA Type 
 BROT.°/30m               1.00:  Build Rotating 
 BS  .in                  6.50:  Bit Size 
 BSZ .in                  6.50:  Bit Size 
 BTPL.psig              350.00:  Bit Press Loss 
 CABU.                      No:  Customer Abuse 
 CGEO.           Asif Pashayev:  Customer Geo 
 COMM.                     Ô¿r:  Run Comments 1 
 TCS .hr                 35.86:  Time Ciculation Ended 
 CV  .mps                 2.31:  Crit Velocity 
 CVMX.mps                 2.31:  Max Crit Veloc 
 DD1 .         Intigam Rahimov:  Direct Drillr 1 
 DDSV.               Geo-Pilot:  DD Service 
 DEFF.%                  92.00:  % Det Eff 
 DLRX.°/30m               1.00:  Dogleg Rot Max 
 DLSO.°/30m               1.00:  Dogleg Oriented 
 DLSX.°/30m               1.42:  Dogleg Str Max 
 DRET.      15.50.00 07-Aug-20:  Drill End Time 
 DRST.      10.40.00 06-Aug-20:  Drill Start Tim 
 DTIM.hr                 21.30:  Time Drilling 
 EDEP.m                5200.01:  End Depth 
 ENG1.            Alan Tuganov:  Engineer 1 
 ENG2.         Almaz Almadatov:  Engineer 2 
 ENG3.     Zammelal Abdullah Sani:  Engineer 3 
 ETIM.      22.42.00 08-Aug-20:  End Time 
 FLOI.gpm               395.00:  Flow In 
 FLON.gpm               350.00:  Flow In Min 
 FLOS.cptm                0.00:  Fluid Loss 
 FLOX.gpm               404.00:  Flow In Max 
 FTRO.       Formation Presure:  FTWD Run Obj 
 HFLO.                      No:  High Flow 
 HPRE.                      No:  High Pressure 
 HTEM.                      No:  High Temp 
 HYDO.m                   1.80:  Hydro Offset 
 IFIN.deg                72.64:  Inc, Final 
 IMAX.deg                73.68:  Inc Max 
 IMIN.deg                72.64:  Inc Min 
 IMND.m                5189.69:  Inc Min Depth 
 IMXD.m                5067.88:  Inc Max Depth 
 JARR.                      No:  Jarring 
 LETM.      15.50.00 07-Aug-20:  Log End Time 
 LOST.hr                     0:  Lost Rig Time 
 LSTM.      10.40.00 06-Aug-20:  Log Start Time 
 MDCL.ppm             36000.00:  Mud Chlorides 
 MDES.     Inversion Oil/Synthetic:  Mud Desc 
 DFD .sg                  1.36:  Mud Density 
 MDMN.sg                  1.36:  Dens Mud Min 
 MDMX.sg                  1.36:  Dens Mud Max 
 MOIL.                      70:  Run Mud Oil % 
 MOWR.                   70:30:  Run Mud OWR 
 MSND.                    0.00:  Run Mud Sand % 
 MSOL.                   17.60:  Run Mud Solids% 
 DFV .spqt               73.00:  Mud Viscosity 
 MWOD.in                  4.75:  MWD Tool OD 
 MWSI.                      No:  Serv Intrp, MWD 
 OTIM.hr                 85.66:  Time Operating 
 PCON.           Look Like New:  Pad Condition 
 PMAX.psia             6250.00:  Press Op, Max 
 PV  .cP                 65.00:  Mud PV 
 RUN .                     900:  Run Number 
 ROPA.m/hr               11.40:  ROP Avg 
 ROPN.m/hr                5.00:  ROP Min 
 ROPX.m/hr               20.00:  ROP Max 
 RPMA.rpm               130.00:  RPM Surface Avg 
 RPMN.rpm                40.00:  RPM Surface Min 
 RPMX.rpm               140.00:  RPM Surface Max 
 RRUN.                    L205:  Rig Run Number 
 RTIM.hr                  1.00:  Time Reaming 
 SAZI.deg               313.52:  Azm, Start 
 SDEP.m                4957.01:  Start Depth 
 SIDD.                      No:  Serv Intrp, DD 
 SINC.deg                73.16:  Inc, Start 
 SPPA.psig             5657.00:  SPP Avg 
 SPPN.psig             2500.00:  SPP Min 
 SPPX.psig             5806.00:  SPP Max 
 STIM.      07.12.00 05-Aug-20:  Start Time 
 SVCS.                 DD, MWD:  Services 
 SVER.                    9.20:  Sperry Version 
 TDAT.m                 243.00:  Tot Depth Attmp 
 TDDF.                      No:  Trip for DD 
 TDLG.m                 243.00:  Tot Depth Loggd 
 TFF .                      No:  Trip for Fail 
 TQAA.f-kp               13.00:  Torque Abs Avg 
 TQAN.f-kp               11.00:  Torque Abs Min 
 TQAX.f-kp               16.00:  Torque Abs Max 
 TRRT.°/30m               1.00:  Turn Rotating 
 MRT .                    HCIM:  Maximum Recorded Temperature 
 TTMX.degC               96.08:  Max Tool Temp 
 VS01.                90515411:  Virtual Str1 SN 
 VS02.                90512716:  Virtual Str2 SN 
 VS03.                90522362:  Virtual Str3 SN 
 VS04.                90619415:  Virtual Str4 SN 
 VS05.                90619414:  Virtual Str5 SN 
 VS06.                90597748:  Virtual Str6 SN 
 WBMN.klb                 2.00:  WOB Min 
 WITN.           Adil Mammadov:  Customer Rep 
 WITN.     Alexander Yadullayev:  Customer Rep 2 
 WOBA.klb                 7.00:  WOB Avg 
 WOBX.klb                23.00:  WOB Max 
 YP  .lhf2               37.00:  Yield Point 
~Curve Information Block
#MNEM.UNIT                 API CODE     Curve Description
#---------               -----------    ---------------------------
 TIME.HHMMSS            00 000 000 000:  GT Time & Date
 GTDEPTH.m              00 000 000 000:  GT Depth
 GTPQH.psia             00 000 000 000:  GT HR Quartz Pressure
 GTTQ.degC              00 000 000 000:  GT Quartz Temperature
 GTTN.NONE              00 000 000 000:  GT Test Number
 GTET.sec               00 000 000 000:  GT Elapsed Test Time
 GTTVD.m                00 000 000 000:  GT True Vertical Depth
#Other Information
#
#WARRANTY: Halliburton will use its best efforts to furnish customers with 
#accurate information and interpretations that are part of, and incident to, the services 
#provided.  However, Halliburton cannot and does not warrant the accuracy 
#or correctness of such information and interpretations.  Under no circumstances should any 
#such information or interpretation be relied upon as the sole basis for any drilling, 
#completion, production, or financial decision or any procedure involving any risk to the 
#safety of any drilling venture, drilling rig or its crew or any other third party.  The 
#Customer has full responsibility for all drilling, completion and production operation.  
#Halliburton makes no representations or warranties, either expressed or 
#implied, including, but not limited to, the implied warranties of merchantability or fitness 
#for a particular purpose, with respect to the services rendered.  In no event will 
#Halliburton be liable for failure to obtain any particular results or for 
#any damages, including, but not limited to, indirect, special or consequential damages, 
#resulting from the use of any information or interpretation provided by Halliburton.
#
~A           TIME           GTDEPTH  GTPQH  GTTQ  GTTN  GTET   GTTVD  
# ...
   01:51:15.480.07-Aug-2020 5042.01 3681.06 85.34 6.00 253.06 2658.32
   01:51:15.680.07-Aug-2020 5042.01 3681.06 85.34 6.00 253.26 2658.32
   01:51:15.880.07-Aug-2020 5042.01 3681.14 85.33 6.00 253.46 2658.32
   01:51:16.080.07-Aug-2020 5042.01 3681.00 85.33 6.00 253.66 2658.32
   01:51:16.280.07-Aug-2020 5042.01 3681.15 85.33 6.00 253.86 2658.32
   01:51:16.480.07-Aug-2020 5042.01 3681.11 85.33 6.00 254.06 2658.32
   01:51:16.680.07-Aug-2020 5042.01 3681.03 85.33 6.00 254.26 2658.32
   01:51:16.880.07-Aug-2020 5042.01 3681.18 85.33 6.00 254.46 2658.32
   01:51:17.080.07-Aug-2020 5042.01 3681.07 85.33 6.00 254.66 2658.32
   01:51:17.280.07-Aug-2020 5042.01 3681.13 85.33 6.00 254.86 2658.32
   01:51:17.481.07-Aug-2020 5042.01 3681.10 85.33 6.00 255.06 2658.32
   01:51:17.681.07-Aug-2020 5042.01 3681.10 85.33 6.00 255.26 2658.32
   01:51:17.881.07-Aug-2020 5042.01 3681.43 85.33 6.00 255.46 2658.32
   01:51:18.081.07-Aug-2020 5042.01 3680.99 85.33 6.00 255.66 2658.32
   01:51:18.281.07-Aug-2020 5042.01 3681.21 85.33 6.00 255.86 2658.32
   01:51:18.481.07-Aug-2020 5042.01 3681.07 85.33 6.00 256.06 2658.32
   01:51:18.681.07-Aug-2020 5042.01 3681.10 85.33 6.00 256.26 2658.32
   01:51:18.881.07-Aug-2020 5042.01 3681.13 85.33 6.00 256.46 2658.32
   01:51:19.081.07-Aug-2020 5042.01 3681.05 85.33 6.00 256.66 2658.32
   01:51:19.281.07-Aug-2020 5042.01 3681.15 85.33 6.00 256.86 2658.32
   01:51:19.481.07-Aug-2020 5042.01 3681.11 85.33 6.00 257.06 2658.32
   01:51:19.681.07-Aug-2020 5042.01 3681.11 85.33 6.00 257.26 2658.32
   01:51:19.881.07-Aug-2020 5042.01 3681.15 85.33 6.00 257.46 2658.32
   01:51:20.081.07-Aug-2020 5042.01 3681.06 85.33 6.00 257.66 2658.32
   01:51:20.281.07-Aug-2020 5042.01 3681.14 85.33 6.00 257.86 2658.32
   01:51:20.481.07-Aug-2020 5042.01 3681.07 85.33 6.00 258.06 2658.32
   01:51:20.681.07-Aug-2020 5042.01 3681.07 85.33 6.00 258.26 2658.32
   01:51:20.881.07-Aug-2020 5042.01 3681.06 85.33 6.00 258.46 2658.32
   01:51:21.081.07-Aug-2020 5042.01 3681.13 85.33 6.00 258.66 2658.32
   01:51:21.281.07-Aug-2020 5042.01 3681.08 85.33 6.00 258.86 2658.32
   01:51:21.481.07-Aug-2020 5042.01 3680.79 85.33 6.00 259.06 2658.32
   01:51:21.682.07-Aug-2020 5042.01 3680.79 85.33 6.00 259.26 2658.32
   01:51:21.882.07-Aug-2020 5042.01 3681.01 85.32 6.00 259.46 2658.32
   01:51:22.082.07-Aug-2020 5042.01 3681.19 85.32 6.00 259.66 2658.32
   01:51:22.282.07-Aug-2020 5042.01 3681.07 85.32 6.00 259.86 2658.32
   01:51:22.482.07-Aug-2020 5042.01 3681.14 85.32 6.00 260.06 2658.32
   01:51:22.682.07-Aug-2020 5042.01 3681.14 85.32 6.00 260.26 2658.32
   01:51:22.882.07-Aug-2020 5042.01 3681.14 85.32 6.00 260.46 2658.32
   01:51:23.082.07-Aug-2020 5042.01 3681.07 85.32 6.00 260.66 2658.32
   01:51:23.282.07-Aug-2020 5042.01 3681.13 85.32 6.00 260.86 2658.32
   01:51:23.482.07-Aug-2020 5042.01 3681.05 85.32 6.00 261.06 2658.32
   01:51:23.682.07-Aug-2020 5042.01 3681.16 85.32 6.00 261.26 2658.32
   01:51:23.882.07-Aug-2020 5042.01 3681.04 85.32 6.00 261.46 2658.32
   01:51:24.082.07-Aug-2020 5042.01 3681.13 85.32 6.00 261.66 2658.32
   01:51:24.282.07-Aug-2020 5042.01 3681.05 85.32 6.00 261.86 2658.32
   01:51:24.482.07-Aug-2020 5042.01 3681.08 85.32 6.00 262.06 2658.32
   01:51:24.682.07-Aug-2020 5042.01 3681.09 85.32 6.00 262.26 2658.32
   01:51:24.882.07-Aug-2020 5042.01 3681.13 85.32 6.00 262.46 2658.32
   01:51:25.082.07-Aug-2020 5042.01 3681.03 85.32 6.00 262.66 2658.32
   01:51:25.282.07-Aug-2020 5042.01 3681.17 85.32 6.00 262.86 2658.32
   01:51:25.482.07-Aug-2020 5042.01 3680.97 85.32 6.00 263.06 2658.32
   01:51:25.682.07-Aug-2020 5042.01 3680.97 85.32 6.00 263.26 2658.32
   01:51:25.883.07-Aug-2020 5042.01 3681.04 85.32 6.00 263.46 2658.32
   01:51:26.083.07-Aug-2020 5042.01 3680.81 85.32 6.00 263.66 2658.32
   01:51:26.283.07-Aug-2020 5042.01 3681.36 85.32 6.00 263.86 2658.32
   01:51:26.483.07-Aug-2020 5042.01 3681.05 85.32 6.00 264.06 2658.32
   01:51:26.683.07-Aug-2020 5042.01 3681.05 85.32 6.00 264.26 2658.32
   01:51:26.883.07-Aug-2020 5042.01 3681.07 85.32 6.00 264.46 2658.32
   01:51:27.083.07-Aug-2020 5042.01 3681.10 85.32 6.00 264.66 2658.32
   01:51:27.283.07-Aug-2020 5042.01 3681.14 85.32 6.00 264.86 2658.32
   01:51:27.483.07-Aug-2020 5042.01 3680.98 85.32 6.00 265.06 2658.32
   01:51:27.683.07-Aug-2020 5042.01 3680.98 85.32 6.00 265.26 2658.32
   01:51:27.883.07-Aug-2020 5042.01 3681.11 85.32 6.00 265.46 2658.32
   01:51:28.083.07-Aug-2020 5042.01 3681.09 85.31 6.00 265.66 2658.32
   01:51:28.283.07-Aug-2020 5042.01 3681.13 85.31 6.00 265.86 2658.32
   01:51:28.483.07-Aug-2020 5042.01 3681.06 85.31 6.00 266.06 2658.32
   01:51:28.683.07-Aug-2020 5042.01 3681.06 85.31 6.00 266.26 2658.32
   01:51:28.883.07-Aug-2020 5042.01 3681.05 85.31 6.00 266.46 2658.32
   01:51:29.083.07-Aug-2020 5042.01 3681.14 85.31 6.00 266.66 2658.32
   01:51:29.283.07-Aug-2020 5042.01 3681.05 85.31 6.00 266.86 2658.32
   01:51:29.483.07-Aug-2020 5042.01 3681.14 85.31 6.00 267.06 2658.32
   01:51:29.683.07-Aug-2020 5042.01 3681.14 85.31 6.00 267.26 2658.32
   01:51:29.883.07-Aug-2020 5042.01 3680.79 85.31 6.00 267.46 2658.32
   01:51:30.084.07-Aug-2020 5042.01 3681.36 85.31 6.00 267.66 2658.32
   01:51:30.284.07-Aug-2020 5042.01 3681.06 85.31 6.00 267.86 2658.32
   01:51:30.484.07-Aug-2020 5042.01 3681.14 85.31 6.00 268.06 2658.32
   01:51:30.684.07-Aug-2020 5042.01 3681.14 85.31 6.00 268.26 2658.32
   01:51:30.884.07-Aug-2020 5042.01 3681.09 85.31 6.00 268.46 2658.32
   01:51:31.084.07-Aug-2020 5042.01 3681.10 85.31 6.00 268.66 2658.32
   01:51:31.284.07-Aug-2020 5042.01 3681.09 85.31 6.00 268.86 2658.32
   01:51:31.484.07-Aug-2020 5042.01 3681.08 85.31 6.00 269.06 2658.32
   01:51:31.684.07-Aug-2020 5042.01 3681.08 85.31 6.00 269.26 2658.32
   01:51:31.884.07-Aug-2020 5042.01 3681.09 85.31 6.00 269.46 2658.32
   01:51:32.084.07-Aug-2020 5042.01 3681.10 85.31 6.00 269.66 2658.32
   01:51:32.284.07-Aug-2020 5042.01 3681.06 85.31 6.00 269.86 2658.32
   01:51:32.484.07-Aug-2020 5042.01 3681.09 85.31 6.00 270.06 2658.32
   01:51:32.684.07-Aug-2020 5042.01 3681.09 85.31 6.00 270.26 2658.32
   01:51:32.884.07-Aug-2020 5042.01 3681.15 85.31 6.00 270.46 2658.32
   01:51:33.084.07-Aug-2020 5042.01 3681.04 85.31 6.00 270.66 2658.32
   01:51:33.284.07-Aug-2020 5042.01 3681.14 85.31 6.00 270.86 2658.32
   01:51:33.484.07-Aug-2020 5042.01 3680.92 85.31 6.00 271.06 2658.32
   01:51:33.684.07-Aug-2020 5042.01 3680.92 85.31 6.00 271.26 2658.32
   01:51:33.884.07-Aug-2020 5042.01 3680.93 85.31 6.00 271.46 2658.32
   01:51:34.084.07-Aug-2020 5042.01 3681.24 85.31 6.00 271.66 2658.32
   01:51:34.285.07-Aug-2020 5042.01 3681.01 85.30 6.00 271.86 2658.32
   01:51:34.485.07-Aug-2020 5042.01 3680.98 85.30 6.00 272.06 2658.32
   01:51:34.685.07-Aug-2020 5042.01 3680.98 85.30 6.00 272.26 2658.32
   01:51:34.885.07-Aug-2020 5042.01 3681.07 85.30 6.00 272.46 2658.32
   01:51:35.085.07-Aug-2020 5042.01 3681.13 85.30 6.00 272.66 2658.32
   01:51:35.285.07-Aug-2020 5042.01 3681.09 85.30 6.00 272.86 2658.32
   01:51:35.485.07-Aug-2020 5042.01 3681.08 85.30 6.00 273.06 2658.32
   01:51:35.685.07-Aug-2020 5042.01 3681.08 85.30 6.00 273.26 2658.32
   01:51:35.885.07-Aug-2020 5042.01 3680.99 85.30 6.00 273.46 2658.32
   01:51:36.085.07-Aug-2020 5042.01 3681.14 85.30 6.00 273.66 2658.32
   01:51:36.285.07-Aug-2020 5042.01 3681.08 85.30 6.00 273.86 2658.32
   01:51:36.485.07-Aug-2020 5042.01 3681.12 85.30 6.00 274.06 2658.32
   01:51:36.685.07-Aug-2020 5042.01 3681.12 85.30 6.00 274.26 2658.32
   01:51:36.885.07-Aug-2020 5042.01 3681.09 85.30 6.00 274.46 2658.32
   01:51:37.085.07-Aug-2020 5042.01 3681.10 85.30 6.00 274.66 2658.32
   01:51:37.285.07-Aug-2020 5042.01 3681.08 85.30 6.00 274.86 2658.32
   01:51:37.485.07-Aug-2020 5042.01 3681.12 85.30 6.00 275.06 2658.32
   01:51:37.685.07-Aug-2020 5042.01 3681.12 85.30 6.00 275.26 2658.32
   01:51:37.885.07-Aug-2020 5042.01 3681.12 85.30 6.00 275.46 2658.32
   01:51:38.085.07-Aug-2020 5042.01 3681.05 85.30 6.00 275.66 2658.32
   01:51:38.285.07-Aug-2020 5042.01 3680.93 85.30 6.00 275.86 2658.32
