~Version Information
 VERS.                  2.0:   CWLS log ASCII Standard -VERSION 2.0
 WRAP.                   NO:   One line per depth step
~Well Information Block
#MNEM.UNIT     VALUE/NAME     DESCRIPTION
#---------     -----------    ---------------------------
 STRT.S             11:55:46 07-Aug-20: START TIME 11:55:46 07-Aug-20
 STOP.S             12:03:39 07-Aug-20: STOP TIME  12:03:39 07-Aug-20
 STEP.S                   0.00: STEP TIME
 NULL.                 -999.25: NULL VALUE
 DFWT.                        :  DIST FWL TEXT
 DFST.                        :  DIST FSL TEXT
 DMF .             Drill Floor:  DRILL MEAS FROM
 STIM.      12.00.00 03-Jul-20:  START TIME
 DATE.      00.50.00 09-Aug-20:  END TIME
 SPUD.               03-Jul-20:  SPUD DATE
 NREF.                    Grid:  NORTH REFERENCE
 HPTY.       Minimum Curvature:  HOLE POS TYPE
 DMOD.             Drill Model:  DRILL MOD DESC
 SVYD.                  Survey:  SURVEY DESC
 ILTD.               Lithology:  INTERP LTH DESC
 FTOP.          Formation Tops:  FORM TOPS DESC
 PDAT.          Mean Sea Level:  PERMANENT DATUM
 FLD .                     ACG:  FIELD NAME
 CTRY.              Azerbaijan:  COUNTRY NAME
 WELL.                    E04x:  WELL NAME
 SRVC.          Turan Drilling:  CONTRACTOR
 COMP.     BP Exploration (Caspian Sea) Ltd.:  COMPANY
 SON .        AZ-XX-0906531346:  JOB NUMBER
 WTYP.                Deviated:  WELL TYPE
 MDS .        Operator Entered:  MAG DATA SOURCE
 UWI .                     N/A:  UNIQUE WELL IDENTIFIER
 API .                     N/A:  API NUMBER
 BASE.              Azerbaijan:  LOGGING EQUIPMENT BASE LOCATION
 REGN.                   EESSA:  REGION
 PROV.                    Baku:  PROVINCE
 STAT.                    Baku:  STATE NAME
 MWDS.                    Baku:  MWD SHOP
 JOBN.        AZ-XX-0906531346:  JOB TICKET NUMB
 RIG .                     DWG:  RIG NAME
 DOE .                     N/A:  DOE NUMBER
 DCON.         Sperry Drilling:  DIRECTNL CONTR
 UNIT.                     N/A:  LOGGING EQUIPMENT ID
 CNTY.                        :  COUNTY
 LOC .                        :  LOCATION
 LMF .             Drill Floor:  LOG MEASURED FROM
 TVDS.m                  43.16:  TVDSS CORRECTN
 LATI.deg                40.17:  LATITUDE
 LONG.deg                51.17:  LONGITUDE
 WHNS.m                  -0.12:  WELL HEAD N/S
 WHEW.m                  -5.41:  WELL HEAD E/W
 UTMX.m              514337.95:  UTM X
 UTMY.m             4448627.46:  UTM Y
 DFWL.m                   0.00:  DISTANCE FWL
 DFSL.m                   0.00:  DISTANCE FSL
 SDEP.m                3088.01:  START DEPTH
 TDD .m                5200.01:  TOTAL DEPTH (DRILLER)
 VSDR.deg               244.51:  VERT SEC DIRECT
 GVFD.g                   1.00:  GRAVITY FIELD
 MFLD.nT              50329.80:  MAGNETIC FIELD
 MDIP.deg                59.63:  MAGNETIC DIP
 MDEC.deg                 6.59:  MAGNETIC DECL
 GRDC.deg                 0.09:  GRID CORRECTION
 AZTC.deg                 6.50:  AZM TOTAL CORR
 EPD .m                   0.00:  ELEVATION
 EGL .m                   0.00:  GROUND ELEVATION
 WDMS.m                 176.20:  WD ELEV
 APD .m                  43.16:  DEPTH ABOVE PD
 DEP .m                3084.71:  DEPTH
 AGAP.m                  43.16:  AIR GAP
 VSEW.m                  -5.41:  VERT SEC E/W
 VSNS.m                  -0.12:  VERT SEC N/S
 EKB .m                   0.00:  KB ELEVATION
 EDF .m                  43.16:  DF ELEVATION
 TDL .m                 243.00:  TOTAL DEPTH (LOGGER)
 VSC .                       0:  VS TO CLOSURE
 MAGU.                 1853542:  MAGUTM CHECKSUM
~Parameter Information Block
#MNEM.UNIT       Value        Description
#---------     -----------    ---------------------------
 AV  .mps                 1.91:  Ann Velocity 
 AVMX.mps                 2.52:  Max Ann Veloc 
 AZIF.deg               308.97:  Azm, Final 
 BHAT.        Rotary Steerable:  BHA Type 
 BROT.°/30m               1.00:  Build Rotating 
 BS  .in                  6.50:  Bit Size 
 BSZ .in                  6.50:  Bit Size 
 BTPL.psig              350.00:  Bit Press Loss 
 CABU.                      No:  Customer Abuse 
 CGEO.           Asif Pashayev:  Customer Geo 
 COMM.                     ¤4N:  Run Comments 1 
 TCS .hr                 35.86:  Time Ciculation Ended 
 CV  .mps                 2.31:  Crit Velocity 
 CVMX.mps                 2.31:  Max Crit Veloc 
 DD1 .         Intigam Rahimov:  Direct Drillr 1 
 DDSV.               Geo-Pilot:  DD Service 
 DEFF.%                  92.00:  % Det Eff 
 DLRX.°/30m               1.00:  Dogleg Rot Max 
 DLSO.°/30m               1.00:  Dogleg Oriented 
 DLSX.°/30m               1.42:  Dogleg Str Max 
 DRET.      15.50.00 07-Aug-20:  Drill End Time 
 DRST.      10.40.00 06-Aug-20:  Drill Start Tim 
 DTIM.hr                 21.30:  Time Drilling 
 EDEP.m                5200.01:  End Depth 
 ENG1.            Alan Tuganov:  Engineer 1 
 ENG2.         Almaz Almadatov:  Engineer 2 
 ENG3.     Zammelal Abdullah Sani:  Engineer 3 
 ETIM.      22.42.00 08-Aug-20:  End Time 
 FLOI.gpm               395.00:  Flow In 
 FLON.gpm               350.00:  Flow In Min 
 FLOS.cptm                0.00:  Fluid Loss 
 FLOX.gpm               404.00:  Flow In Max 
 FTRO.       Formation Presure:  FTWD Run Obj 
 HFLO.                      No:  High Flow 
 HPRE.                      No:  High Pressure 
 HTEM.                      No:  High Temp 
 HYDO.m                   1.80:  Hydro Offset 
 IFIN.deg                72.64:  Inc, Final 
 IMAX.deg                73.68:  Inc Max 
 IMIN.deg                72.64:  Inc Min 
 IMND.m                5189.69:  Inc Min Depth 
 IMXD.m                5067.88:  Inc Max Depth 
 JARR.                      No:  Jarring 
 LETM.      15.50.00 07-Aug-20:  Log End Time 
 LOST.hr                     0:  Lost Rig Time 
 LSTM.      10.40.00 06-Aug-20:  Log Start Time 
 MDCL.ppm             36000.00:  Mud Chlorides 
 MDES.     Inversion Oil/Synthetic:  Mud Desc 
 DFD .sg                  1.36:  Mud Density 
 MDMN.sg                  1.36:  Dens Mud Min 
 MDMX.sg                  1.36:  Dens Mud Max 
 MOIL.                      70:  Run Mud Oil % 
 MOWR.                   70:30:  Run Mud OWR 
 MSND.                    0.00:  Run Mud Sand % 
 MSOL.                   17.60:  Run Mud Solids% 
 DFV .spqt               73.00:  Mud Viscosity 
 MWOD.in                  4.75:  MWD Tool OD 
 MWSI.                      No:  Serv Intrp, MWD 
 OTIM.hr                 85.66:  Time Operating 
 PCON.           Look Like New:  Pad Condition 
 PMAX.psia             6250.00:  Press Op, Max 
 PV  .cP                 65.00:  Mud PV 
 RUN .                     900:  Run Number 
 ROPA.m/hr               11.40:  ROP Avg 
 ROPN.m/hr                5.00:  ROP Min 
 ROPX.m/hr               20.00:  ROP Max 
 RPMA.rpm               130.00:  RPM Surface Avg 
 RPMN.rpm                40.00:  RPM Surface Min 
 RPMX.rpm               140.00:  RPM Surface Max 
 RRUN.                    L205:  Rig Run Number 
 RTIM.hr                  1.00:  Time Reaming 
 SAZI.deg               313.52:  Azm, Start 
 SDEP.m                4957.01:  Start Depth 
 SIDD.                      No:  Serv Intrp, DD 
 SINC.deg                73.16:  Inc, Start 
 SPPA.psig             5657.00:  SPP Avg 
 SPPN.psig             2500.00:  SPP Min 
 SPPX.psig             5806.00:  SPP Max 
 STIM.      07.12.00 05-Aug-20:  Start Time 
 SVCS.                 DD, MWD:  Services 
 SVER.                    9.20:  Sperry Version 
 TDAT.m                 243.00:  Tot Depth Attmp 
 TDDF.                      No:  Trip for DD 
 TDLG.m                 243.00:  Tot Depth Loggd 
 TFF .                      No:  Trip for Fail 
 TQAA.f-kp               13.00:  Torque Abs Avg 
 TQAN.f-kp               11.00:  Torque Abs Min 
 TQAX.f-kp               16.00:  Torque Abs Max 
 TRRT.°/30m               1.00:  Turn Rotating 
 MRT .                    HCIM:  Maximum Recorded Temperature 
 TTMX.degC               96.08:  Max Tool Temp 
 VS01.                90515411:  Virtual Str1 SN 
 VS02.                90512716:  Virtual Str2 SN 
 VS03.                90522362:  Virtual Str3 SN 
 VS04.                90619415:  Virtual Str4 SN 
 VS05.                90619414:  Virtual Str5 SN 
 VS06.                90597748:  Virtual Str6 SN 
 WBMN.klb                 2.00:  WOB Min 
 WITN.           Adil Mammadov:  Customer Rep 
 WITN.     Alexander Yadullayev:  Customer Rep 2 
 WOBA.klb                 7.00:  WOB Avg 
 WOBX.klb                23.00:  WOB Max 
 YP  .lhf2               37.00:  Yield Point 
~Curve Information Block
#MNEM.UNIT                 API CODE     Curve Description
#---------               -----------    ---------------------------
 TIME.HHMMSS            00 000 000 000:  GT Time & Date
 GTDEPTH.m              00 000 000 000:  GT Depth
 GTPQH.psia             00 000 000 000:  GT HR Quartz Pressure
 GTTQ.degC              00 000 000 000:  GT Quartz Temperature
 GTTN.NONE              00 000 000 000:  GT Test Number
 GTET.sec               00 000 000 000:  GT Elapsed Test Time
 GTTVD.m                00 000 000 000:  GT True Vertical Depth
#Other Information
#
#WARRANTY: Halliburton will use its best efforts to furnish customers with 
#accurate information and interpretations that are part of, and incident to, the services 
#provided.  However, Halliburton cannot and does not warrant the accuracy 
#or correctness of such information and interpretations.  Under no circumstances should any 
#such information or interpretation be relied upon as the sole basis for any drilling, 
#completion, production, or financial decision or any procedure involving any risk to the 
#safety of any drilling venture, drilling rig or its crew or any other third party.  The 
#Customer has full responsibility for all drilling, completion and production operation.  
#Halliburton makes no representations or warranties, either expressed or 
#implied, including, but not limited to, the implied warranties of merchantability or fitness 
#for a particular purpose, with respect to the services rendered.  In no event will 
#Halliburton be liable for failure to obtain any particular results or for 
#any damages, including, but not limited to, indirect, special or consequential damages, 
#resulting from the use of any information or interpretation provided by Halliburton.
#
~A           TIME           GTDEPTH  GTPQH  GTTQ  GTTN   GTET   GTTVD  
# ...
   11:59:55.579.07-Aug-2020 5127.01 3414.09 87.50 10.00 248.69 2682.86
   11:59:55.780.07-Aug-2020 5127.01 3414.17 87.49 10.00 248.89 2682.86
   11:59:55.980.07-Aug-2020 5127.01 3414.15 87.49 10.00 249.09 2682.86
   11:59:56.180.07-Aug-2020 5127.01 3414.15 87.49 10.00 249.29 2682.86
   11:59:56.380.07-Aug-2020 5127.01 3414.12 87.49 10.00 249.49 2682.86
   11:59:56.580.07-Aug-2020 5127.01 3414.14 87.49 10.00 249.69 2682.86
   11:59:56.780.07-Aug-2020 5127.01 3414.13 87.49 10.00 249.89 2682.86
   11:59:56.980.07-Aug-2020 5127.01 3414.16 87.49 10.00 250.09 2682.86
   11:59:57.180.07-Aug-2020 5127.01 3414.16 87.49 10.00 250.29 2682.86
   11:59:57.380.07-Aug-2020 5127.01 3414.14 87.49 10.00 250.49 2682.86
   11:59:57.580.07-Aug-2020 5127.01 3414.12 87.49 10.00 250.69 2682.86
   11:59:57.780.07-Aug-2020 5127.01 3414.12 87.49 10.00 250.89 2682.86
   11:59:57.980.07-Aug-2020 5127.01 3414.13 87.49 10.00 251.09 2682.86
   11:59:58.180.07-Aug-2020 5127.01 3414.13 87.49 10.00 251.29 2682.86
   11:59:58.380.07-Aug-2020 5127.01 3414.06 87.49 10.00 251.49 2682.86
   11:59:58.581.07-Aug-2020 5127.01 3414.17 87.49 10.00 251.69 2682.86
   11:59:58.781.07-Aug-2020 5127.01 3414.15 87.49 10.00 251.89 2682.86
   11:59:58.981.07-Aug-2020 5127.01 3414.12 87.49 10.00 252.09 2682.86
   11:59:59.181.07-Aug-2020 5127.01 3414.12 87.49 10.00 252.29 2682.86
   11:59:59.381.07-Aug-2020 5127.01 3414.16 87.49 10.00 252.49 2682.86
   11:59:59.581.07-Aug-2020 5127.01 3414.11 87.49 10.00 252.69 2682.86
   11:59:59.781.07-Aug-2020 5127.01 3414.12 87.49 10.00 252.89 2682.86
   11:59:59.981.07-Aug-2020 5127.01 3414.13 87.49 10.00 253.10 2682.86
   12:00:00.181.07-Aug-2020 5127.01 3414.13 87.49 10.00 253.30 2682.86
   12:00:00.381.07-Aug-2020 5127.01 3414.11 87.49 10.00 253.50 2682.86
   12:00:00.581.07-Aug-2020 5127.01 3414.12 87.49 10.00 253.70 2682.86
   12:00:00.781.07-Aug-2020 5127.01 3414.15 87.49 10.00 253.90 2682.86
   12:00:00.981.07-Aug-2020 5127.01 3414.09 87.48 10.00 254.10 2682.86
   12:00:01.182.07-Aug-2020 5127.01 3414.09 87.48 10.00 254.30 2682.86
   12:00:01.382.07-Aug-2020 5127.01 3414.21 87.48 10.00 254.50 2682.86
   12:00:01.582.07-Aug-2020 5127.01 3414.17 87.48 10.00 254.70 2682.86
   12:00:01.782.07-Aug-2020 5127.01 3414.04 87.48 10.00 254.90 2682.86
   12:00:01.982.07-Aug-2020 5127.01 3414.19 87.48 10.00 255.10 2682.86
   12:00:02.182.07-Aug-2020 5127.01 3414.13 87.48 10.00 255.30 2682.86
   12:00:02.382.07-Aug-2020 5127.01 3414.10 87.48 10.00 255.50 2682.86
   12:00:02.582.07-Aug-2020 5127.01 3414.11 87.48 10.00 255.70 2682.86
   12:00:02.782.07-Aug-2020 5127.01 3414.18 87.48 10.00 255.90 2682.86
   12:00:02.982.07-Aug-2020 5127.01 3414.09 87.48 10.00 256.10 2682.86
   12:00:03.182.07-Aug-2020 5127.01 3414.09 87.48 10.00 256.30 2682.86
   12:00:03.382.07-Aug-2020 5127.01 3414.14 87.48 10.00 256.50 2682.86
   12:00:03.582.07-Aug-2020 5127.01 3414.05 87.48 10.00 256.70 2682.86
   12:00:03.783.07-Aug-2020 5127.01 3414.19 87.48 10.00 256.90 2682.86
   12:00:03.983.07-Aug-2020 5127.01 3414.17 87.48 10.00 257.10 2682.86
   12:00:04.183.07-Aug-2020 5127.01 3414.17 87.48 10.00 257.30 2682.86
   12:00:04.383.07-Aug-2020 5127.01 3414.16 87.48 10.00 257.50 2682.86
   12:00:04.583.07-Aug-2020 5127.01 3414.14 87.48 10.00 257.70 2682.86
   12:00:04.783.07-Aug-2020 5127.01 3414.13 87.48 10.00 257.90 2682.86
   12:00:04.983.07-Aug-2020 5127.01 3414.14 87.48 10.00 258.10 2682.86
   12:00:05.183.07-Aug-2020 5127.01 3414.14 87.48 10.00 258.30 2682.86
   12:00:05.383.07-Aug-2020 5127.01 3414.12 87.48 10.00 258.50 2682.86
   12:00:05.583.07-Aug-2020 5127.01 3414.12 87.48 10.00 258.70 2682.86
   12:00:05.783.07-Aug-2020 5127.01 3414.13 87.48 10.00 258.90 2682.86
   12:00:05.983.07-Aug-2020 5127.01 3414.11 87.48 10.00 259.10 2682.86
   12:00:06.183.07-Aug-2020 5127.01 3414.14 87.47 10.00 259.30 2682.86
   12:00:06.383.07-Aug-2020 5127.01 3414.06 87.47 10.00 259.50 2682.86
   12:00:06.584.07-Aug-2020 5127.01 3414.15 87.47 10.00 259.70 2682.86
   12:00:06.784.07-Aug-2020 5127.01 3414.16 87.47 10.00 259.90 2682.86
   12:00:06.984.07-Aug-2020 5127.01 3414.09 87.47 10.00 260.10 2682.86
   12:00:07.184.07-Aug-2020 5127.01 3414.09 87.47 10.00 260.30 2682.86
   12:00:07.384.07-Aug-2020 5127.01 3414.16 87.47 10.00 260.50 2682.86
   12:00:07.584.07-Aug-2020 5127.01 3414.09 87.47 10.00 260.70 2682.86
   12:00:07.784.07-Aug-2020 5127.01 3414.13 87.47 10.00 260.90 2682.86
   12:00:07.984.07-Aug-2020 5127.01 3414.13 87.47 10.00 261.10 2682.86
   12:00:08.184.07-Aug-2020 5127.01 3414.13 87.47 10.00 261.30 2682.86
   12:00:08.384.07-Aug-2020 5127.01 3414.11 87.47 10.00 261.50 2682.86
   12:00:08.584.07-Aug-2020 5127.01 3414.12 87.47 10.00 261.70 2682.86
   12:00:08.784.07-Aug-2020 5127.01 3414.10 87.47 10.00 261.90 2682.86
   12:00:08.984.07-Aug-2020 5127.01 3414.08 87.47 10.00 262.10 2682.86
   12:00:09.185.07-Aug-2020 5127.01 3414.08 87.47 10.00 262.30 2682.86
   12:00:09.385.07-Aug-2020 5127.01 3414.12 87.47 10.00 262.50 2682.86
   12:00:09.585.07-Aug-2020 5127.01 3414.06 87.47 10.00 262.70 2682.86
   12:00:09.785.07-Aug-2020 5127.01 3413.97 87.47 10.00 262.90 2682.86
   12:00:09.985.07-Aug-2020 5127.01 3414.30 87.47 10.00 263.10 2682.86
   12:00:10.185.07-Aug-2020 5127.01 3414.17 87.47 10.00 263.30 2682.86
   12:00:10.385.07-Aug-2020 5127.01 3414.04 87.47 10.00 263.50 2682.86
   12:00:10.585.07-Aug-2020 5127.01 3414.16 87.47 10.00 263.70 2682.86
   12:00:10.785.07-Aug-2020 5127.01 3414.15 87.47 10.00 263.90 2682.86
   12:00:10.985.07-Aug-2020 5127.01 3414.05 87.47 10.00 264.10 2682.86
   12:00:11.185.07-Aug-2020 5127.01 3414.05 87.47 10.00 264.30 2682.86
   12:00:11.385.07-Aug-2020 5127.01 3414.12 87.46 10.00 264.50 2682.86
   12:00:11.585.07-Aug-2020 5127.01 3414.09 87.46 10.00 264.70 2682.86
   12:00:11.786.07-Aug-2020 5127.01 3414.14 87.46 10.00 264.90 2682.86
   12:00:11.986.07-Aug-2020 5127.01 3414.15 87.46 10.00 265.10 2682.86
   12:00:12.186.07-Aug-2020 5127.01 3414.15 87.46 10.00 265.30 2682.86
   12:00:12.386.07-Aug-2020 5127.01 3414.29 87.46 10.00 265.50 2682.86
   12:00:12.586.07-Aug-2020 5127.01 3414.16 87.46 10.00 265.70 2682.86
   12:00:12.786.07-Aug-2020 5127.01 3414.07 87.46 10.00 265.90 2682.86
   12:00:12.986.07-Aug-2020 5127.01 3414.14 87.46 10.00 266.10 2682.86
   12:00:13.186.07-Aug-2020 5127.01 3414.14 87.46 10.00 266.30 2682.86
   12:00:13.386.07-Aug-2020 5127.01 3414.11 87.46 10.00 266.50 2682.86
   12:00:13.586.07-Aug-2020 5127.01 3414.13 87.46 10.00 266.70 2682.86
   12:00:13.786.07-Aug-2020 5127.01 3414.12 87.46 10.00 266.90 2682.86
   12:00:13.986.07-Aug-2020 5127.01 3414.12 87.46 10.00 267.10 2682.86
   12:00:14.186.07-Aug-2020 5127.01 3414.11 87.46 10.00 267.30 2682.86
   12:00:14.387.07-Aug-2020 5127.01 3414.12 87.46 10.00 267.50 2682.86
   12:00:14.587.07-Aug-2020 5127.01 3414.12 87.46 10.00 267.70 2682.86
   12:00:14.787.07-Aug-2020 5127.01 3414.11 87.46 10.00 267.90 2682.86
   12:00:14.987.07-Aug-2020 5127.01 3414.09 87.46 10.00 268.10 2682.86
   12:00:15.187.07-Aug-2020 5127.01 3414.09 87.46 10.00 268.30 2682.86
   12:00:15.387.07-Aug-2020 5127.01 3414.14 87.46 10.00 268.50 2682.86
   12:00:15.587.07-Aug-2020 5127.01 3414.09 87.46 10.00 268.70 2682.86
   12:00:15.787.07-Aug-2020 5127.01 3414.14 87.46 10.00 268.90 2682.86
   12:00:15.987.07-Aug-2020 5127.01 3414.11 87.46 10.00 269.10 2682.86
   12:00:16.187.07-Aug-2020 5127.01 3414.11 87.46 10.00 269.30 2682.86
   12:00:16.387.07-Aug-2020 5127.01 3414.11 87.45 10.00 269.50 2682.86
   12:00:16.587.07-Aug-2020 5127.01 3414.14 87.45 10.00 269.70 2682.86
   12:00:16.787.07-Aug-2020 5127.01 3414.09 87.45 10.00 269.90 2682.86
   12:00:16.987.07-Aug-2020 5127.01 3414.13 87.45 10.00 270.10 2682.86
   12:00:17.188.07-Aug-2020 5127.01 3414.13 87.45 10.00 270.30 2682.86
   12:00:17.388.07-Aug-2020 5127.01 3414.11 87.45 10.00 270.50 2682.86
   12:00:17.588.07-Aug-2020 5127.01 3414.05 87.45 10.00 270.70 2682.86
   12:00:17.788.07-Aug-2020 5127.01 3414.19 87.45 10.00 270.90 2682.86
   12:00:17.988.07-Aug-2020 5127.01 3414.09 87.45 10.00 271.10 2682.86
