~Version Information
 VERS.                  2.0:   CWLS log ASCII Standard -VERSION 2.0
 WRAP.                   NO:   One line per depth step
~Well Information Block
#MNEM.UNIT     VALUE/NAME     DESCRIPTION
#---------     -----------    ---------------------------
 STRT.S             06:40:56 07-Aug-20: START TIME 06:40:56 07-Aug-20
 STOP.S             06:48:48 07-Aug-20: STOP TIME  06:48:48 07-Aug-20
 STEP.S                   0.00: STEP TIME
 NULL.                 -999.25: NULL VALUE
 DFWT.                        :  DIST FWL TEXT
 DFST.                        :  DIST FSL TEXT
 DMF .             Drill Floor:  DRILL MEAS FROM
 STIM.      12.00.00 03-Jul-20:  START TIME
 DATE.      00.50.00 09-Aug-20:  END TIME
 SPUD.               03-Jul-20:  SPUD DATE
 NREF.                    Grid:  NORTH REFERENCE
 HPTY.       Minimum Curvature:  HOLE POS TYPE
 DMOD.             Drill Model:  DRILL MOD DESC
 SVYD.                  Survey:  SURVEY DESC
 ILTD.               Lithology:  INTERP LTH DESC
 FTOP.          Formation Tops:  FORM TOPS DESC
 PDAT.          Mean Sea Level:  PERMANENT DATUM
 FLD .                     ACG:  FIELD NAME
 CTRY.              Azerbaijan:  COUNTRY NAME
 WELL.                    E04x:  WELL NAME
 SRVC.          Turan Drilling:  CONTRACTOR
 COMP.     BP Exploration (Caspian Sea) Ltd.:  COMPANY
 SON .        AZ-XX-0906531346:  JOB NUMBER
 WTYP.                Deviated:  WELL TYPE
 MDS .        Operator Entered:  MAG DATA SOURCE
 UWI .                     N/A:  UNIQUE WELL IDENTIFIER
 API .                     N/A:  API NUMBER
 BASE.              Azerbaijan:  LOGGING EQUIPMENT BASE LOCATION
 REGN.                   EESSA:  REGION
 PROV.                    Baku:  PROVINCE
 STAT.                    Baku:  STATE NAME
 MWDS.                    Baku:  MWD SHOP
 JOBN.        AZ-XX-0906531346:  JOB TICKET NUMB
 RIG .                     DWG:  RIG NAME
 DOE .                     N/A:  DOE NUMBER
 DCON.         Sperry Drilling:  DIRECTNL CONTR
 UNIT.                     N/A:  LOGGING EQUIPMENT ID
 CNTY.                        :  COUNTY
 LOC .                        :  LOCATION
 LMF .             Drill Floor:  LOG MEASURED FROM
 TVDS.m                  43.16:  TVDSS CORRECTN
 LATI.deg                40.17:  LATITUDE
 LONG.deg                51.17:  LONGITUDE
 WHNS.m                  -0.12:  WELL HEAD N/S
 WHEW.m                  -5.41:  WELL HEAD E/W
 UTMX.m              514337.95:  UTM X
 UTMY.m             4448627.46:  UTM Y
 DFWL.m                   0.00:  DISTANCE FWL
 DFSL.m                   0.00:  DISTANCE FSL
 SDEP.m                3088.01:  START DEPTH
 TDD .m                5200.01:  TOTAL DEPTH (DRILLER)
 VSDR.deg               244.51:  VERT SEC DIRECT
 GVFD.g                   1.00:  GRAVITY FIELD
 MFLD.nT              50329.80:  MAGNETIC FIELD
 MDIP.deg                59.63:  MAGNETIC DIP
 MDEC.deg                 6.59:  MAGNETIC DECL
 GRDC.deg                 0.09:  GRID CORRECTION
 AZTC.deg                 6.50:  AZM TOTAL CORR
 EPD .m                   0.00:  ELEVATION
 EGL .m                   0.00:  GROUND ELEVATION
 WDMS.m                 176.20:  WD ELEV
 APD .m                  43.16:  DEPTH ABOVE PD
 DEP .m                3084.71:  DEPTH
 AGAP.m                  43.16:  AIR GAP
 VSEW.m                  -5.41:  VERT SEC E/W
 VSNS.m                  -0.12:  VERT SEC N/S
 EKB .m                   0.00:  KB ELEVATION
 EDF .m                  43.16:  DF ELEVATION
 TDL .m                 243.00:  TOTAL DEPTH (LOGGER)
 VSC .                       0:  VS TO CLOSURE
 MAGU.                 1853542:  MAGUTM CHECKSUM
~Parameter Information Block
#MNEM.UNIT       Value        Description
#---------     -----------    ---------------------------
 AV  .mps                 1.91:  Ann Velocity 
 AVMX.mps                 2.52:  Max Ann Veloc 
 AZIF.deg               308.97:  Azm, Final 
 BHAT.        Rotary Steerable:  BHA Type 
 BROT.°/30m               1.00:  Build Rotating 
 BS  .in                  6.50:  Bit Size 
 BSZ .in                  6.50:  Bit Size 
 BTPL.psig              350.00:  Bit Press Loss 
 CABU.                      No:  Customer Abuse 
 CGEO.           Asif Pashayev:  Customer Geo 
 TCS .hr                 35.86:  Time Ciculation Ended 
 CV  .mps                 2.31:  Crit Velocity 
 CVMX.mps                 2.31:  Max Crit Veloc 
 DD1 .         Intigam Rahimov:  Direct Drillr 1 
 DDSV.               Geo-Pilot:  DD Service 
 DEFF.%                  92.00:  % Det Eff 
 DLRX.°/30m               1.00:  Dogleg Rot Max 
 DLSO.°/30m               1.00:  Dogleg Oriented 
 DLSX.°/30m               1.42:  Dogleg Str Max 
 DRET.      15.50.00 07-Aug-20:  Drill End Time 
 DRST.      10.40.00 06-Aug-20:  Drill Start Tim 
 DTIM.hr                 21.30:  Time Drilling 
 EDEP.m                5200.01:  End Depth 
 ENG1.            Alan Tuganov:  Engineer 1 
 ENG2.         Almaz Almadatov:  Engineer 2 
 ENG3.     Zammelal Abdullah Sani:  Engineer 3 
 ETIM.      22.42.00 08-Aug-20:  End Time 
 FLOI.gpm               395.00:  Flow In 
 FLON.gpm               350.00:  Flow In Min 
 FLOS.cptm                0.00:  Fluid Loss 
 FLOX.gpm               404.00:  Flow In Max 
 FTRO.       Formation Presure:  FTWD Run Obj 
 HFLO.                      No:  High Flow 
 HPRE.                      No:  High Pressure 
 HTEM.                      No:  High Temp 
 HYDO.m                   1.80:  Hydro Offset 
 IFIN.deg                72.64:  Inc, Final 
 IMAX.deg                73.68:  Inc Max 
 IMIN.deg                72.64:  Inc Min 
 IMND.m                5189.69:  Inc Min Depth 
 IMXD.m                5067.88:  Inc Max Depth 
 JARR.                      No:  Jarring 
 LETM.      15.50.00 07-Aug-20:  Log End Time 
 LOST.hr                     0:  Lost Rig Time 
 LSTM.      10.40.00 06-Aug-20:  Log Start Time 
 MDCL.ppm             36000.00:  Mud Chlorides 
 MDES.     Inversion Oil/Synthetic:  Mud Desc 
 DFD .sg                  1.36:  Mud Density 
 MDMN.sg                  1.36:  Dens Mud Min 
 MDMX.sg                  1.36:  Dens Mud Max 
 MOIL.                      70:  Run Mud Oil % 
 MOWR.                   70:30:  Run Mud OWR 
 MSND.                    0.00:  Run Mud Sand % 
 MSOL.                   17.60:  Run Mud Solids% 
 DFV .spqt               73.00:  Mud Viscosity 
 MWOD.in                  4.75:  MWD Tool OD 
 MWSI.                      No:  Serv Intrp, MWD 
 OTIM.hr                 85.66:  Time Operating 
 PCON.           Look Like New:  Pad Condition 
 PMAX.psia             6250.00:  Press Op, Max 
 PV  .cP                 65.00:  Mud PV 
 RUN .                     900:  Run Number 
 ROPA.m/hr               11.40:  ROP Avg 
 ROPN.m/hr                5.00:  ROP Min 
 ROPX.m/hr               20.00:  ROP Max 
 RPMA.rpm               130.00:  RPM Surface Avg 
 RPMN.rpm                40.00:  RPM Surface Min 
 RPMX.rpm               140.00:  RPM Surface Max 
 RRUN.                    L205:  Rig Run Number 
 RTIM.hr                  1.00:  Time Reaming 
 SAZI.deg               313.52:  Azm, Start 
 SDEP.m                4957.01:  Start Depth 
 SIDD.                      No:  Serv Intrp, DD 
 SINC.deg                73.16:  Inc, Start 
 SPPA.psig             5657.00:  SPP Avg 
 SPPN.psig             2500.00:  SPP Min 
 SPPX.psig             5806.00:  SPP Max 
 STIM.      07.12.00 05-Aug-20:  Start Time 
 SVCS.                 DD, MWD:  Services 
 SVER.                    9.20:  Sperry Version 
 TDAT.m                 243.00:  Tot Depth Attmp 
 TDDF.                      No:  Trip for DD 
 TDLG.m                 243.00:  Tot Depth Loggd 
 TFF .                      No:  Trip for Fail 
 TQAA.f-kp               13.00:  Torque Abs Avg 
 TQAN.f-kp               11.00:  Torque Abs Min 
 TQAX.f-kp               16.00:  Torque Abs Max 
 TRRT.°/30m               1.00:  Turn Rotating 
 MRT .                    HCIM:  Maximum Recorded Temperature 
 TTMX.degC               96.08:  Max Tool Temp 
 VS01.                90515411:  Virtual Str1 SN 
 VS02.                90512716:  Virtual Str2 SN 
 VS03.                90522362:  Virtual Str3 SN 
 VS04.                90619415:  Virtual Str4 SN 
 VS05.                90619414:  Virtual Str5 SN 
 VS06.                90597748:  Virtual Str6 SN 
 WBMN.klb                 2.00:  WOB Min 
 WITN.           Adil Mammadov:  Customer Rep 
 WITN.     Alexander Yadullayev:  Customer Rep 2 
 WOBA.klb                 7.00:  WOB Avg 
 WOBX.klb                23.00:  WOB Max 
 YP  .lhf2               37.00:  Yield Point 
~Curve Information Block
#MNEM.UNIT                 API CODE     Curve Description
#---------               -----------    ---------------------------
 TIME.HHMMSS            00 000 000 000:  GT Time & Date
 GTDEPTH.m              00 000 000 000:  GT Depth
 GTPQH.psia             00 000 000 000:  GT HR Quartz Pressure
 GTTQ.degC              00 000 000 000:  GT Quartz Temperature
 GTTN.NONE              00 000 000 000:  GT Test Number
 GTET.sec               00 000 000 000:  GT Elapsed Test Time
 GTTVD.m                00 000 000 000:  GT True Vertical Depth
#Other Information
#
#WARRANTY: Halliburton will use its best efforts to furnish customers with 
#accurate information and interpretations that are part of, and incident to, the services 
#provided.  However, Halliburton cannot and does not warrant the accuracy 
#or correctness of such information and interpretations.  Under no circumstances should any 
#such information or interpretation be relied upon as the sole basis for any drilling, 
#completion, production, or financial decision or any procedure involving any risk to the 
#safety of any drilling venture, drilling rig or its crew or any other third party.  The 
#Customer has full responsibility for all drilling, completion and production operation.  
#Halliburton makes no representations or warranties, either expressed or 
#implied, including, but not limited to, the implied warranties of merchantability or fitness 
#for a particular purpose, with respect to the services rendered.  In no event will 
#Halliburton be liable for failure to obtain any particular results or for 
#any damages, including, but not limited to, indirect, special or consequential damages, 
#resulting from the use of any information or interpretation provided by Halliburton.
#
~A           TIME           GTDEPTH  GTPQH  GTTQ  GTTN  GTET   GTTVD  
# ...
   06:46:42.039.07-Aug-2020 5088.01 3690.98 88.18 8.00 345.10 2671.45
   06:46:42.239.07-Aug-2020 5088.01 3690.98 88.18 8.00 345.30 2671.45
   06:46:42.439.07-Aug-2020 5088.01 3690.97 88.18 8.00 345.50 2671.45
   06:46:42.639.07-Aug-2020 5088.01 3690.96 88.18 8.00 345.70 2671.45
   06:46:42.839.07-Aug-2020 5088.01 3690.93 88.17 8.00 345.90 2671.45
   06:46:43.039.07-Aug-2020 5088.01 3690.95 88.17 8.00 346.10 2671.45
   06:46:43.240.07-Aug-2020 5088.01 3690.94 88.17 8.00 346.30 2671.45
   06:46:43.440.07-Aug-2020 5088.01 3690.94 88.17 8.00 346.50 2671.45
   06:46:43.640.07-Aug-2020 5088.01 3690.94 88.17 8.00 346.70 2671.45
   06:46:43.840.07-Aug-2020 5088.01 3690.93 88.17 8.00 346.90 2671.45
   06:46:44.040.07-Aug-2020 5088.01 3690.94 88.17 8.00 347.10 2671.45
   06:46:44.240.07-Aug-2020 5088.01 3690.94 88.17 8.00 347.30 2671.45
   06:46:44.440.07-Aug-2020 5088.01 3690.77 88.17 8.00 347.50 2671.45
   06:46:44.640.07-Aug-2020 5088.01 3691.04 88.17 8.00 347.70 2671.45
   06:46:44.840.07-Aug-2020 5088.01 3690.97 88.17 8.00 347.90 2671.45
   06:46:45.040.07-Aug-2020 5088.01 3690.93 88.17 8.00 348.10 2671.45
   06:46:45.240.07-Aug-2020 5088.01 3690.94 88.17 8.00 348.30 2671.45
   06:46:45.440.07-Aug-2020 5088.01 3690.81 88.17 8.00 348.50 2671.45
   06:46:45.640.07-Aug-2020 5088.01 3691.04 88.17 8.00 348.70 2671.45
   06:46:45.840.07-Aug-2020 5088.01 3690.93 88.17 8.00 348.90 2671.45
   06:46:46.040.07-Aug-2020 5088.01 3690.95 88.17 8.00 349.10 2671.45
   06:46:46.240.07-Aug-2020 5088.01 3690.95 88.17 8.00 349.30 2671.45
   06:46:46.440.07-Aug-2020 5088.01 3690.77 88.17 8.00 349.50 2671.45
   06:46:46.641.07-Aug-2020 5088.01 3691.06 88.17 8.00 349.70 2671.45
   06:46:46.841.07-Aug-2020 5088.01 3690.97 88.16 8.00 349.90 2671.45
   06:46:47.041.07-Aug-2020 5088.01 3690.93 88.16 8.00 350.10 2671.45
   06:46:47.241.07-Aug-2020 5088.01 3690.93 88.16 8.00 350.30 2671.45
   06:46:47.441.07-Aug-2020 5088.01 3690.81 88.16 8.00 350.50 2671.45
   06:46:47.641.07-Aug-2020 5088.01 3691.04 88.16 8.00 350.70 2671.45
   06:46:47.841.07-Aug-2020 5088.01 3690.94 88.16 8.00 350.90 2671.45
   06:46:48.041.07-Aug-2020 5088.01 3690.95 88.16 8.00 351.10 2671.45
   06:46:48.241.07-Aug-2020 5088.01 3690.95 88.16 8.00 351.30 2671.45
   06:46:48.441.07-Aug-2020 5088.01 3690.93 88.16 8.00 351.50 2671.45
   06:46:48.641.07-Aug-2020 5088.01 3690.95 88.16 8.00 351.70 2671.45
   06:46:48.841.07-Aug-2020 5088.01 3690.95 88.16 8.00 351.90 2671.45
   06:46:49.041.07-Aug-2020 5088.01 3690.94 88.16 8.00 352.10 2671.45
   06:46:49.241.07-Aug-2020 5088.01 3690.94 88.16 8.00 352.30 2671.45
   06:46:49.441.07-Aug-2020 5088.01 3690.93 88.16 8.00 352.50 2671.45
   06:46:49.641.07-Aug-2020 5088.01 3690.94 88.16 8.00 352.70 2671.45
   06:46:49.841.07-Aug-2020 5088.01 3690.93 88.16 8.00 352.90 2671.45
   06:46:50.042.07-Aug-2020 5088.01 3690.92 88.16 8.00 353.10 2671.45
   06:46:50.242.07-Aug-2020 5088.01 3690.92 88.16 8.00 353.30 2671.45
   06:46:50.442.07-Aug-2020 5088.01 3690.97 88.16 8.00 353.50 2671.45
   06:46:50.642.07-Aug-2020 5088.01 3690.92 88.15 8.00 353.70 2671.45
   06:46:50.842.07-Aug-2020 5088.01 3690.96 88.15 8.00 353.90 2671.45
   06:46:51.042.07-Aug-2020 5088.01 3690.95 88.15 8.00 354.10 2671.45
   06:46:51.242.07-Aug-2020 5088.01 3690.95 88.15 8.00 354.30 2671.45
   06:46:51.442.07-Aug-2020 5088.01 3690.94 88.15 8.00 354.50 2671.45
   06:46:51.642.07-Aug-2020 5088.01 3690.94 88.15 8.00 354.70 2671.45
   06:46:51.842.07-Aug-2020 5088.01 3690.93 88.15 8.00 354.90 2671.45
   06:46:52.042.07-Aug-2020 5088.01 3690.92 88.15 8.00 355.10 2671.45
   06:46:52.242.07-Aug-2020 5088.01 3690.92 88.15 8.00 355.30 2671.45
   06:46:52.442.07-Aug-2020 5088.01 3690.92 88.15 8.00 355.50 2671.45
   06:46:52.642.07-Aug-2020 5088.01 3690.92 88.15 8.00 355.70 2671.45
   06:46:52.842.07-Aug-2020 5088.01 3690.77 88.15 8.00 355.90 2671.45
   06:46:53.042.07-Aug-2020 5088.01 3691.02 88.15 8.00 356.10 2671.45
   06:46:53.242.07-Aug-2020 5088.01 3691.02 88.15 8.00 356.30 2671.45
   06:46:53.443.07-Aug-2020 5088.01 3690.91 88.15 8.00 356.50 2671.45
   06:46:53.643.07-Aug-2020 5088.01 3690.95 88.15 8.00 356.70 2671.45
   06:46:53.843.07-Aug-2020 5088.01 3690.77 88.15 8.00 356.90 2671.45
   06:46:54.043.07-Aug-2020 5088.01 3691.03 88.15 8.00 357.10 2671.45
   06:46:54.243.07-Aug-2020 5088.01 3691.03 88.15 8.00 357.30 2671.45
   06:46:54.443.07-Aug-2020 5088.01 3690.93 88.15 8.00 357.50 2671.45
   06:46:54.643.07-Aug-2020 5088.01 3690.96 88.14 8.00 357.70 2671.45
   06:46:54.843.07-Aug-2020 5088.01 3690.77 88.14 8.00 357.90 2671.45
   06:46:55.043.07-Aug-2020 5088.01 3691.03 88.14 8.00 358.10 2671.45
   06:46:55.243.07-Aug-2020 5088.01 3691.03 88.14 8.00 358.30 2671.45
   06:46:55.443.07-Aug-2020 5088.01 3690.90 88.14 8.00 358.50 2671.45
   06:46:55.643.07-Aug-2020 5088.01 3690.94 88.14 8.00 358.70 2671.45
   06:46:55.843.07-Aug-2020 5088.01 3690.79 88.14 8.00 358.90 2671.45
   06:46:56.043.07-Aug-2020 5088.01 3691.02 88.14 8.00 359.10 2671.45
   06:46:56.243.07-Aug-2020 5088.01 3691.02 88.14 8.00 359.30 2671.45
   06:46:56.443.07-Aug-2020 5088.01 3690.93 88.14 8.00 359.50 2671.45
   06:46:56.643.07-Aug-2020 5088.01 3690.95 88.14 8.00 359.70 2671.45
   06:46:56.843.07-Aug-2020 5088.01 3690.94 88.14 8.00 359.90 2671.45
   06:46:57.044.07-Aug-2020 5088.01 3690.94 88.14 8.00 360.10 2671.45
   06:46:57.244.07-Aug-2020 5088.01 3690.94 88.14 8.00 360.30 2671.45
   06:46:57.444.07-Aug-2020 5088.01 3690.92 88.14 8.00 360.50 2671.45
   06:46:57.644.07-Aug-2020 5088.01 3690.94 88.14 8.00 360.70 2671.45
   06:46:57.844.07-Aug-2020 5088.01 3690.92 88.14 8.00 360.90 2671.45
   06:46:58.044.07-Aug-2020 5088.01 3690.93 88.14 8.00 361.10 2671.45
   06:46:58.244.07-Aug-2020 5088.01 3690.93 88.14 8.00 361.30 2671.45
   06:46:58.444.07-Aug-2020 5088.01 3690.92 88.14 8.00 361.50 2671.45
   06:46:58.644.07-Aug-2020 5088.01 3690.84 88.13 8.00 361.71 2671.45
   06:46:58.844.07-Aug-2020 5088.01 3690.95 88.13 8.00 361.91 2671.45
   06:46:59.044.07-Aug-2020 5088.01 3690.93 88.13 8.00 362.11 2671.45
   06:46:59.244.07-Aug-2020 5088.01 3690.93 88.13 8.00 362.31 2671.45
   06:46:59.444.07-Aug-2020 5088.01 3690.93 88.13 8.00 362.51 2671.45
   06:46:59.644.07-Aug-2020 5088.01 3690.91 88.13 8.00 362.71 2671.45
   06:46:59.844.07-Aug-2020 5088.01 3690.94 88.13 8.00 362.91 2671.45
   06:47:00.044.07-Aug-2020 5088.01 3690.92 88.13 8.00 363.11 2671.45
   06:47:00.244.07-Aug-2020 5088.01 3690.92 88.13 8.00 363.31 2671.45
   06:47:00.445.07-Aug-2020 5088.01 3690.92 88.13 8.00 363.51 2671.45
   06:47:00.645.07-Aug-2020 5088.01 3690.92 88.13 8.00 363.71 2671.45
   06:47:00.845.07-Aug-2020 5088.01 3690.91 88.13 8.00 363.91 2671.45
   06:47:01.045.07-Aug-2020 5088.01 3690.90 88.13 8.00 364.11 2671.45
   06:47:01.245.07-Aug-2020 5088.01 3690.81 88.13 8.00 364.31 2671.45
   06:47:01.445.07-Aug-2020 5088.01 3690.95 88.13 8.00 364.51 2671.45
   06:47:01.645.07-Aug-2020 5088.01 3690.96 88.13 8.00 364.71 2671.45
   06:47:01.845.07-Aug-2020 5088.01 3690.89 88.13 8.00 364.91 2671.45
   06:47:02.045.07-Aug-2020 5088.01 3690.94 88.13 8.00 365.11 2671.45
   06:47:02.245.07-Aug-2020 5088.01 3690.94 88.13 8.00 365.31 2671.45
   06:47:02.445.07-Aug-2020 5088.01 3691.01 88.13 8.00 365.51 2671.45
   06:47:02.645.07-Aug-2020 5088.01 3690.97 88.12 8.00 365.71 2671.45
   06:47:02.845.07-Aug-2020 5088.01 3690.91 88.12 8.00 365.91 2671.45
   06:47:03.045.07-Aug-2020 5088.01 3690.94 88.12 8.00 366.11 2671.45
   06:47:03.245.07-Aug-2020 5088.01 3690.94 88.12 8.00 366.31 2671.45
   06:47:03.445.07-Aug-2020 5088.01 3690.97 88.12 8.00 366.51 2671.45
   06:47:03.645.07-Aug-2020 5088.01 3690.97 88.12 8.00 366.71 2671.45
   06:47:03.846.07-Aug-2020 5088.01 3690.90 88.12 8.00 366.91 2671.45
   06:47:04.046.07-Aug-2020 5088.01 3690.93 88.12 8.00 367.11 2671.45
   06:47:04.246.07-Aug-2020 5088.01 3690.93 88.12 8.00 367.31 2671.45
   06:47:04.446.07-Aug-2020 5088.01 3691.01 88.12 8.00 367.51 2671.45
   06:47:04.646.07-Aug-2020 5088.01 3690.98 88.12 8.00 367.71 2671.45
   06:47:04.846.07-Aug-2020 5088.01 3690.89 88.12 8.00 367.91 2671.45
