~Version Information
 VERS.                  2.0:   CWLS log ASCII Standard -VERSION 2.0
 WRAP.                   NO:   One line per depth step
~Well Information Block
#MNEM.UNIT     VALUE/NAME     DESCRIPTION
#---------     -----------    ---------------------------
 STRT.S             09:21:48 07-Aug-20: START TIME 09:21:48 07-Aug-20
 STOP.S             09:29:41 07-Aug-20: STOP TIME  09:29:41 07-Aug-20
 STEP.S                   0.00: STEP TIME
 NULL.                 -999.25: NULL VALUE
 DFWT.                        :  DIST FWL TEXT
 DFST.                        :  DIST FSL TEXT
 DMF .             Drill Floor:  DRILL MEAS FROM
 STIM.      12.00.00 03-Jul-20:  START TIME
 DATE.      00.50.00 09-Aug-20:  END TIME
 SPUD.               03-Jul-20:  SPUD DATE
 NREF.                    Grid:  NORTH REFERENCE
 HPTY.       Minimum Curvature:  HOLE POS TYPE
 DMOD.             Drill Model:  DRILL MOD DESC
 SVYD.                  Survey:  SURVEY DESC
 ILTD.               Lithology:  INTERP LTH DESC
 FTOP.          Formation Tops:  FORM TOPS DESC
 PDAT.          Mean Sea Level:  PERMANENT DATUM
 FLD .                     ACG:  FIELD NAME
 CTRY.              Azerbaijan:  COUNTRY NAME
 WELL.                    E04x:  WELL NAME
 SRVC.          Turan Drilling:  CONTRACTOR
 COMP.     BP Exploration (Caspian Sea) Ltd.:  COMPANY
 SON .        AZ-XX-0906531346:  JOB NUMBER
 WTYP.                Deviated:  WELL TYPE
 MDS .        Operator Entered:  MAG DATA SOURCE
 UWI .                     N/A:  UNIQUE WELL IDENTIFIER
 API .                     N/A:  API NUMBER
 BASE.              Azerbaijan:  LOGGING EQUIPMENT BASE LOCATION
 REGN.                   EESSA:  REGION
 PROV.                    Baku:  PROVINCE
 STAT.                    Baku:  STATE NAME
 MWDS.                    Baku:  MWD SHOP
 JOBN.        AZ-XX-0906531346:  JOB TICKET NUMB
 RIG .                     DWG:  RIG NAME
 DOE .                     N/A:  DOE NUMBER
 DCON.         Sperry Drilling:  DIRECTNL CONTR
 UNIT.                     N/A:  LOGGING EQUIPMENT ID
 CNTY.                        :  COUNTY
 LOC .                        :  LOCATION
 LMF .             Drill Floor:  LOG MEASURED FROM
 TVDS.m                  43.16:  TVDSS CORRECTN
 LATI.deg                40.17:  LATITUDE
 LONG.deg                51.17:  LONGITUDE
 WHNS.m                  -0.12:  WELL HEAD N/S
 WHEW.m                  -5.41:  WELL HEAD E/W
 UTMX.m              514337.95:  UTM X
 UTMY.m             4448627.46:  UTM Y
 DFWL.m                   0.00:  DISTANCE FWL
 DFSL.m                   0.00:  DISTANCE FSL
 SDEP.m                3088.01:  START DEPTH
 TDD .m                5200.01:  TOTAL DEPTH (DRILLER)
 VSDR.deg               244.51:  VERT SEC DIRECT
 GVFD.g                   1.00:  GRAVITY FIELD
 MFLD.nT              50329.80:  MAGNETIC FIELD
 MDIP.deg                59.63:  MAGNETIC DIP
 MDEC.deg                 6.59:  MAGNETIC DECL
 GRDC.deg                 0.09:  GRID CORRECTION
 AZTC.deg                 6.50:  AZM TOTAL CORR
 EPD .m                   0.00:  ELEVATION
 EGL .m                   0.00:  GROUND ELEVATION
 WDMS.m                 176.20:  WD ELEV
 APD .m                  43.16:  DEPTH ABOVE PD
 DEP .m                3084.71:  DEPTH
 AGAP.m                  43.16:  AIR GAP
 VSEW.m                  -5.41:  VERT SEC E/W
 VSNS.m                  -0.12:  VERT SEC N/S
 EKB .m                   0.00:  KB ELEVATION
 EDF .m                  43.16:  DF ELEVATION
 TDL .m                 243.00:  TOTAL DEPTH (LOGGER)
 VSC .                       0:  VS TO CLOSURE
 MAGU.                 1853542:  MAGUTM CHECKSUM
~Parameter Information Block
#MNEM.UNIT       Value        Description
#---------     -----------    ---------------------------
 AV  .mps                 1.91:  Ann Velocity 
 AVMX.mps                 2.52:  Max Ann Veloc 
 AZIF.deg               308.97:  Azm, Final 
 BHAT.        Rotary Steerable:  BHA Type 
 BROT.∞/30m               1.00:  Build Rotating 
 BS  .in                  6.50:  Bit Size 
 BSZ .in                  6.50:  Bit Size 
 BTPL.psig              350.00:  Bit Press Loss 
 CABU.                      No:  Customer Abuse 
 CGEO.           Asif Pashayev:  Customer Geo 
 COMM.                     ,[Å:  Run Comments 1 
 TCS .hr                 35.86:  Time Ciculation Ended 
 CV  .mps                 2.31:  Crit Velocity 
 CVMX.mps                 2.31:  Max Crit Veloc 
 DD1 .         Intigam Rahimov:  Direct Drillr 1 
 DDSV.               Geo-Pilot:  DD Service 
 DEFF.%                  92.00:  % Det Eff 
 DLRX.∞/30m               1.00:  Dogleg Rot Max 
 DLSO.∞/30m               1.00:  Dogleg Oriented 
 DLSX.∞/30m               1.42:  Dogleg Str Max 
 DRET.      15.50.00 07-Aug-20:  Drill End Time 
 DRST.      10.40.00 06-Aug-20:  Drill Start Tim 
 DTIM.hr                 21.30:  Time Drilling 
 EDEP.m                5200.01:  End Depth 
 ENG1.            Alan Tuganov:  Engineer 1 
 ENG2.         Almaz Almadatov:  Engineer 2 
 ENG3.     Zammelal Abdullah Sani:  Engineer 3 
 ETIM.      22.42.00 08-Aug-20:  End Time 
 FLOI.gpm               395.00:  Flow In 
 FLON.gpm               350.00:  Flow In Min 
 FLOS.cptm                0.00:  Fluid Loss 
 FLOX.gpm               404.00:  Flow In Max 
 FTRO.       Formation Presure:  FTWD Run Obj 
 HFLO.                      No:  High Flow 
 HPRE.                      No:  High Pressure 
 HTEM.                      No:  High Temp 
 HYDO.m                   1.80:  Hydro Offset 
 IFIN.deg                72.64:  Inc, Final 
 IMAX.deg                73.68:  Inc Max 
 IMIN.deg                72.64:  Inc Min 
 IMND.m                5189.69:  Inc Min Depth 
 IMXD.m                5067.88:  Inc Max Depth 
 JARR.                      No:  Jarring 
 LETM.      15.50.00 07-Aug-20:  Log End Time 
 LOST.hr                     0:  Lost Rig Time 
 LSTM.      10.40.00 06-Aug-20:  Log Start Time 
 MDCL.ppm             36000.00:  Mud Chlorides 
 MDES.     Inversion Oil/Synthetic:  Mud Desc 
 DFD .sg                  1.36:  Mud Density 
 MDMN.sg                  1.36:  Dens Mud Min 
 MDMX.sg                  1.36:  Dens Mud Max 
 MOIL.                      70:  Run Mud Oil % 
 MOWR.                   70:30:  Run Mud OWR 
 MSND.                    0.00:  Run Mud Sand % 
 MSOL.                   17.60:  Run Mud Solids% 
 DFV .spqt               73.00:  Mud Viscosity 
 MWOD.in                  4.75:  MWD Tool OD 
 MWSI.                      No:  Serv Intrp, MWD 
 OTIM.hr                 85.66:  Time Operating 
 PCON.           Look Like New:  Pad Condition 
 PMAX.psia             6250.00:  Press Op, Max 
 PV  .cP                 65.00:  Mud PV 
 RUN .                     900:  Run Number 
 ROPA.m/hr               11.40:  ROP Avg 
 ROPN.m/hr                5.00:  ROP Min 
 ROPX.m/hr               20.00:  ROP Max 
 RPMA.rpm               130.00:  RPM Surface Avg 
 RPMN.rpm                40.00:  RPM Surface Min 
 RPMX.rpm               140.00:  RPM Surface Max 
 RRUN.                    L205:  Rig Run Number 
 RTIM.hr                  1.00:  Time Reaming 
 SAZI.deg               313.52:  Azm, Start 
 SDEP.m                4957.01:  Start Depth 
 SIDD.                      No:  Serv Intrp, DD 
 SINC.deg                73.16:  Inc, Start 
 SPPA.psig             5657.00:  SPP Avg 
 SPPN.psig             2500.00:  SPP Min 
 SPPX.psig             5806.00:  SPP Max 
 STIM.      07.12.00 05-Aug-20:  Start Time 
 SVCS.                 DD, MWD:  Services 
 SVER.                    9.20:  Sperry Version 
 TDAT.m                 243.00:  Tot Depth Attmp 
 TDDF.                      No:  Trip for DD 
 TDLG.m                 243.00:  Tot Depth Loggd 
 TFF .                      No:  Trip for Fail 
 TQAA.f-kp               13.00:  Torque Abs Avg 
 TQAN.f-kp               11.00:  Torque Abs Min 
 TQAX.f-kp               16.00:  Torque Abs Max 
 TRRT.∞/30m               1.00:  Turn Rotating 
 MRT .                    HCIM:  Maximum Recorded Temperature 
 TTMX.degC               96.08:  Max Tool Temp 
 VS01.                90515411:  Virtual Str1 SN 
 VS02.                90512716:  Virtual Str2 SN 
 VS03.                90522362:  Virtual Str3 SN 
 VS04.                90619415:  Virtual Str4 SN 
 VS05.                90619414:  Virtual Str5 SN 
 VS06.                90597748:  Virtual Str6 SN 
 WBMN.klb                 2.00:  WOB Min 
 WITN.           Adil Mammadov:  Customer Rep 
 WITN.     Alexander Yadullayev:  Customer Rep 2 
 WOBA.klb                 7.00:  WOB Avg 
 WOBX.klb                23.00:  WOB Max 
 YP  .lhf2               37.00:  Yield Point 
~Curve Information Block
#MNEM.UNIT                 API CODE     Curve Description
#---------               -----------    ---------------------------
 TIME.HHMMSS            00 000 000 000:  GT Time & Date
 GTDEPTH.m              00 000 000 000:  GT Depth
 GTPQH.psia             00 000 000 000:  GT HR Quartz Pressure
 GTTQ.degC              00 000 000 000:  GT Quartz Temperature
 GTTN.NONE              00 000 000 000:  GT Test Number
 GTET.sec               00 000 000 000:  GT Elapsed Test Time
 GTTVD.m                00 000 000 000:  GT True Vertical Depth
#Other Information
#
#WARRANTY: Halliburton will use its best efforts to furnish customers with 
#accurate information and interpretations that are part of, and incident to, the services 
#provided.  However, Halliburton cannot and does not warrant the accuracy 
#or correctness of such information and interpretations.  Under no circumstances should any 
#such information or interpretation be relied upon as the sole basis for any drilling, 
#completion, production, or financial decision or any procedure involving any risk to the 
#safety of any drilling venture, drilling rig or its crew or any other third party.  The 
#Customer has full responsibility for all drilling, completion and production operation.  
#Halliburton makes no representations or warranties, either expressed or 
#implied, including, but not limited to, the implied warranties of merchantability or fitness 
#for a particular purpose, with respect to the services rendered.  In no event will 
#Halliburton be liable for failure to obtain any particular results or for 
#any damages, including, but not limited to, indirect, special or consequential damages, 
#resulting from the use of any information or interpretation provided by Halliburton.
#
~A           TIME           GTDEPTH  GTPQH  GTTQ  GTTN  GTET   GTTVD  
   09:21:48.575.07-Aug-2020 5109.01 5832.02 86.93 9.00   0.00 2677.54
   09:21:48.775.07-Aug-2020 5109.01 5832.02 86.93 9.00   0.20 2677.54
   09:21:48.975.07-Aug-2020 5109.01 5833.81 86.93 9.00   0.40 2677.54
   09:21:49.174.07-Aug-2020 5109.01 5827.15 86.93 9.00   0.60 2677.54
   09:21:49.374.07-Aug-2020 5109.01 5836.96 86.92 9.00   0.80 2677.54
   09:21:49.574.07-Aug-2020 5109.01 5839.40 86.92 9.00   1.00 2677.54
   09:21:49.774.07-Aug-2020 5109.01 5831.55 86.92 9.00   1.20 2677.54
   09:21:49.974.07-Aug-2020 5109.01 5836.42 86.92 9.00   1.40 2677.54
   09:21:50.174.07-Aug-2020 5109.01 5837.54 86.92 9.00   1.60 2677.54
   09:21:50.374.07-Aug-2020 5109.01 5835.22 86.92 9.00   1.80 2677.54
   09:21:50.574.07-Aug-2020 5109.01 5830.13 86.92 9.00   2.00 2677.54
   09:21:50.774.07-Aug-2020 5109.01 5836.59 86.92 9.00   2.20 2677.54
   09:21:50.974.07-Aug-2020 5109.01 5835.19 86.92 9.00   2.40 2677.54
   09:21:51.174.07-Aug-2020 5109.01 5824.95 86.92 9.00   2.60 2677.54
   09:21:51.374.07-Aug-2020 5109.01 5837.99 86.92 9.00   2.80 2677.54
   09:21:51.574.07-Aug-2020 5109.01 5838.74 86.92 9.00   3.00 2677.54
   09:21:51.774.07-Aug-2020 5109.01 5838.74 86.92 9.00   3.20 2677.54
   09:21:51.974.07-Aug-2020 5109.01 5835.47 86.92 9.00   3.40 2677.54
   09:21:52.174.07-Aug-2020 5109.01 5838.38 86.92 9.00   3.60 2677.54
   09:21:52.373.07-Aug-2020 5109.01 5826.63 86.92 9.00   3.80 2677.54
   09:21:52.573.07-Aug-2020 5109.01 5838.04 86.92 9.00   4.00 2677.54
   09:21:52.773.07-Aug-2020 5109.01 5838.04 86.92 9.00   4.20 2677.54
   09:21:52.973.07-Aug-2020 5109.01 5833.20 86.91 9.00   4.40 2677.54
   09:21:53.173.07-Aug-2020 5109.01 5835.71 86.91 9.00   4.60 2677.54
   09:21:53.373.07-Aug-2020 5109.01 5829.88 86.91 9.00   4.80 2677.54
   09:21:53.573.07-Aug-2020 5109.01 5836.53 86.91 9.00   5.00 2677.54
   09:21:53.773.07-Aug-2020 5109.01 5839.60 86.91 9.00   5.20 2677.54
   09:21:53.973.07-Aug-2020 5109.01 5831.98 86.91 9.00   5.40 2677.54
   09:21:54.173.07-Aug-2020 5109.01 5837.22 86.91 9.00   5.60 2677.54
   09:21:54.373.07-Aug-2020 5109.01 5837.36 86.91 9.00   5.80 2677.54
   09:21:54.573.07-Aug-2020 5109.01 5836.19 86.91 9.00   6.00 2677.54
   09:21:54.773.07-Aug-2020 5109.01 5836.19 86.91 9.00   6.20 2677.54
   09:21:54.973.07-Aug-2020 5109.01 5838.44 86.91 9.00   6.40 2677.54
   09:21:55.173.07-Aug-2020 5109.01 5837.14 86.91 9.00   6.60 2677.54
   09:21:55.373.07-Aug-2020 5109.01 5837.59 86.91 9.00   6.80 2677.54
   09:21:55.573.07-Aug-2020 5109.01 5838.53 86.91 9.00   7.00 2677.54
   09:21:55.772.07-Aug-2020 5109.01 5838.53 86.91 9.00   7.20 2677.54
   09:21:55.972.07-Aug-2020 5109.01 5838.38 86.91 9.00   7.40 2677.54
   09:21:56.172.07-Aug-2020 5109.01 5838.05 86.91 9.00   7.60 2677.54
   09:21:56.372.07-Aug-2020 5109.01 5832.00 86.91 9.00   7.80 2677.54
   09:21:56.572.07-Aug-2020 5109.01 5838.30 86.90 9.00   8.00 2677.54
   09:21:56.772.07-Aug-2020 5109.01 5838.30 86.90 9.00   8.20 2677.54
   09:21:56.972.07-Aug-2020 5109.01 5836.37 86.90 9.00   8.40 2677.54
   09:21:57.172.07-Aug-2020 5109.01 5839.93 86.90 9.00   8.60 2677.54
   09:21:57.372.07-Aug-2020 5109.01 5838.59 86.90 9.00   8.80 2677.54
   09:21:57.572.07-Aug-2020 5109.01 5839.76 86.90 9.00   9.00 2677.54
   09:21:57.772.07-Aug-2020 5109.01 5840.02 86.90 9.00   9.20 2677.54
   09:21:57.972.07-Aug-2020 5109.01 5841.28 86.90 9.00   9.40 2677.54
   09:21:58.172.07-Aug-2020 5109.01 5840.15 86.90 9.00   9.60 2677.54
   09:21:58.372.07-Aug-2020 5109.01 5841.76 86.90 9.00   9.80 2677.54
   09:21:58.572.07-Aug-2020 5109.01 5840.42 86.90 9.00  10.00 2677.54
   09:21:58.772.07-Aug-2020 5109.01 5840.42 86.90 9.00  10.20 2677.54
   09:21:58.971.07-Aug-2020 5109.01 5831.25 86.90 9.00  10.40 2677.54
   09:21:59.171.07-Aug-2020 5109.01 5838.05 86.90 9.00  10.60 2677.54
   09:21:59.371.07-Aug-2020 5109.01 5826.65 86.90 9.00  10.80 2677.54
   09:21:59.571.07-Aug-2020 5109.01 5817.74 86.90 9.00  11.00 2677.54
   09:21:59.771.07-Aug-2020 5109.01 5817.74 86.90 9.00  11.20 2677.54
   09:21:59.971.07-Aug-2020 5109.01 5813.09 86.90 9.00  11.40 2677.54
   09:22:00.171.07-Aug-2020 5109.01 5811.37 86.89 9.00  11.60 2677.54
   09:22:00.371.07-Aug-2020 5109.01 5815.71 86.89 9.00  11.80 2677.54
   09:22:00.571.07-Aug-2020 5109.01 5819.57 86.89 9.00  12.00 2677.54
   09:22:00.771.07-Aug-2020 5109.01 5819.57 86.89 9.00  12.20 2677.54
   09:22:00.971.07-Aug-2020 5109.01 5769.95 86.89 9.00  12.40 2677.54
   09:22:01.171.07-Aug-2020 5109.01 5723.84 86.89 9.00  12.60 2677.54
   09:22:01.371.07-Aug-2020 5109.01 5666.24 86.89 9.00  12.80 2677.54
   09:22:01.571.07-Aug-2020 5109.01 5605.19 86.89 9.00  13.00 2677.54
   09:22:01.771.07-Aug-2020 5109.01 5573.28 86.89 9.00  13.20 2677.54
   09:22:01.971.07-Aug-2020 5109.01 5579.81 86.89 9.00  13.40 2677.54
   09:22:02.171.07-Aug-2020 5109.01 5525.41 86.89 9.00  13.60 2677.54
   09:22:02.370.07-Aug-2020 5109.01 5485.20 86.89 9.00  13.80 2677.54
   09:22:02.570.07-Aug-2020 5109.01 5432.88 86.89 9.00  14.00 2677.54
   09:22:02.770.07-Aug-2020 5109.01 5432.88 86.89 9.00  14.20 2677.54
   09:22:02.970.07-Aug-2020 5109.01 5354.61 86.89 9.00  14.40 2677.54
   09:22:03.170.07-Aug-2020 5109.01 5292.90 86.89 9.00  14.60 2677.54
   09:22:03.370.07-Aug-2020 5109.01 5204.59 86.89 9.00  14.80 2677.54
   09:22:03.570.07-Aug-2020 5109.01 5148.45 86.88 9.00  15.00 2677.54
   09:22:03.770.07-Aug-2020 5109.01 5148.45 86.88 9.00  15.20 2677.54
   09:22:03.970.07-Aug-2020 5109.01 5071.25 86.88 9.00  15.40 2677.54
   09:22:04.170.07-Aug-2020 5109.01 5023.58 86.88 9.00  15.60 2677.54
   09:22:04.370.07-Aug-2020 5109.01 4966.68 86.88 9.00  15.80 2677.54
   09:22:04.570.07-Aug-2020 5109.01 4905.61 86.88 9.00  16.00 2677.54
   09:22:04.770.07-Aug-2020 5109.01 4905.61 86.88 9.00  16.20 2677.54
   09:22:04.970.07-Aug-2020 5109.01 4794.88 86.88 9.00  16.40 2677.54
   09:22:05.170.07-Aug-2020 5109.01 4784.47 86.88 9.00  16.60 2677.54
   09:22:05.370.07-Aug-2020 5109.01 4832.59 86.88 9.00  16.79 2677.54
   09:22:05.570.07-Aug-2020 5109.01 4849.59 86.88 9.00  16.99 2677.54
   09:22:05.769.07-Aug-2020 5109.01 4849.59 86.88 9.00  17.19 2677.54
   09:22:05.969.07-Aug-2020 5109.01 4827.14 86.88 9.00  17.39 2677.54
   09:22:06.169.07-Aug-2020 5109.01 4798.04 86.88 9.00  17.59 2677.54
   09:22:06.369.07-Aug-2020 5109.01 4855.86 86.87 9.00  17.79 2677.54
   09:22:06.569.07-Aug-2020 5109.01 4840.73 86.87 9.00  17.99 2677.54
   09:22:06.769.07-Aug-2020 5109.01 4840.73 86.87 9.00  18.19 2677.54
   09:22:06.969.07-Aug-2020 5109.01 4856.03 86.87 9.00  18.39 2677.54
   09:22:07.169.07-Aug-2020 5109.01 5007.80 86.87 9.00  18.59 2677.54
   09:22:07.369.07-Aug-2020 5109.01 5572.81 86.87 9.00  18.79 2677.54
   09:22:07.569.07-Aug-2020 5109.01 6257.75 86.87 9.00  18.99 2677.54
   09:22:07.769.07-Aug-2020 5109.01 6257.75 86.87 9.00  19.19 2677.54
   09:22:07.969.07-Aug-2020 5109.01 6592.35 86.87 9.00  19.39 2677.54
   09:22:08.169.07-Aug-2020 5109.01 6539.85 86.87 9.00  19.59 2677.54
   09:22:08.369.07-Aug-2020 5109.01 6565.36 86.87 9.00  19.79 2677.54
   09:22:08.569.07-Aug-2020 5109.01 6461.65 86.87 9.00  19.99 2677.54
   09:22:08.769.07-Aug-2020 5109.01 6461.65 86.87 9.00  20.19 2677.54
   09:22:08.968.07-Aug-2020 5109.01 6614.78 86.87 9.00  20.39 2677.54
   09:22:09.168.07-Aug-2020 5109.01 6374.84 86.86 9.00  20.59 2677.54
   09:22:09.368.07-Aug-2020 5109.01 6398.21 86.86 9.00  20.79 2677.54
   09:22:09.568.07-Aug-2020 5109.01 6491.86 86.86 9.00  20.99 2677.54
   09:22:09.768.07-Aug-2020 5109.01 6547.10 86.86 9.00  21.19 2677.54
   09:22:09.968.07-Aug-2020 5109.01 6497.79 86.86 9.00  21.39 2677.54
   09:22:10.168.07-Aug-2020 5109.01 6540.44 86.86 9.00  21.59 2677.54
   09:22:10.368.07-Aug-2020 5109.01 6565.76 86.86 9.00  21.79 2677.54
   09:22:10.568.07-Aug-2020 5109.01 6582.41 86.86 9.00  21.99 2677.54
   09:22:10.768.07-Aug-2020 5109.01 6582.41 86.86 9.00  22.19 2677.54
   09:22:10.968.07-Aug-2020 5109.01 6587.22 86.86 9.00  22.39 2677.54
   09:22:11.168.07-Aug-2020 5109.01 6548.85 86.86 9.00  22.59 2677.54
   09:22:11.368.07-Aug-2020 5109.01 6557.77 86.86 9.00  22.79 2677.54
