~Version Information
 VERS.                  2.0:   CWLS log ASCII Standard -VERSION 2.0
 WRAP.                   NO:   One line per depth step
~Well Information Block
#MNEM.UNIT     VALUE/NAME     DESCRIPTION
#---------     -----------    ---------------------------
 STRT.S             21:52:26 06-Aug-20: START TIME 21:52:26 06-Aug-20
 STOP.S             22:00:18 06-Aug-20: STOP TIME  22:00:18 06-Aug-20
 STEP.S                   0.00: STEP TIME
 NULL.                 -999.25: NULL VALUE
 DFWT.                        :  DIST FWL TEXT
 DFST.                        :  DIST FSL TEXT
 DMF .             Drill Floor:  DRILL MEAS FROM
 STIM.      12.00.00 03-Jul-20:  START TIME
 DATE.      00.50.00 09-Aug-20:  END TIME
 SPUD.               03-Jul-20:  SPUD DATE
 NREF.                    Grid:  NORTH REFERENCE
 HPTY.       Minimum Curvature:  HOLE POS TYPE
 DMOD.             Drill Model:  DRILL MOD DESC
 SVYD.                  Survey:  SURVEY DESC
 ILTD.               Lithology:  INTERP LTH DESC
 FTOP.          Formation Tops:  FORM TOPS DESC
 PDAT.          Mean Sea Level:  PERMANENT DATUM
 FLD .                     ACG:  FIELD NAME
 CTRY.              Azerbaijan:  COUNTRY NAME
 WELL.                    E04x:  WELL NAME
 SRVC.          Turan Drilling:  CONTRACTOR
 COMP.     BP Exploration (Caspian Sea) Ltd.:  COMPANY
 SON .        AZ-XX-0906531346:  JOB NUMBER
 WTYP.                Deviated:  WELL TYPE
 MDS .        Operator Entered:  MAG DATA SOURCE
 UWI .                     N/A:  UNIQUE WELL IDENTIFIER
 API .                     N/A:  API NUMBER
 BASE.              Azerbaijan:  LOGGING EQUIPMENT BASE LOCATION
 REGN.                   EESSA:  REGION
 PROV.                    Baku:  PROVINCE
 STAT.                    Baku:  STATE NAME
 MWDS.                    Baku:  MWD SHOP
 JOBN.        AZ-XX-0906531346:  JOB TICKET NUMB
 RIG .                     DWG:  RIG NAME
 DOE .                     N/A:  DOE NUMBER
 DCON.         Sperry Drilling:  DIRECTNL CONTR
 UNIT.                     N/A:  LOGGING EQUIPMENT ID
 CNTY.                        :  COUNTY
 LOC .                        :  LOCATION
 LMF .             Drill Floor:  LOG MEASURED FROM
 TVDS.m                  43.16:  TVDSS CORRECTN
 LATI.deg                40.17:  LATITUDE
 LONG.deg                51.17:  LONGITUDE
 WHNS.m                  -0.12:  WELL HEAD N/S
 WHEW.m                  -5.41:  WELL HEAD E/W
 UTMX.m              514337.95:  UTM X
 UTMY.m             4448627.46:  UTM Y
 DFWL.m                   0.00:  DISTANCE FWL
 DFSL.m                   0.00:  DISTANCE FSL
 SDEP.m                3088.01:  START DEPTH
 TDD .m                5200.01:  TOTAL DEPTH (DRILLER)
 VSDR.deg               244.51:  VERT SEC DIRECT
 GVFD.g                   1.00:  GRAVITY FIELD
 MFLD.nT              50329.80:  MAGNETIC FIELD
 MDIP.deg                59.63:  MAGNETIC DIP
 MDEC.deg                 6.59:  MAGNETIC DECL
 GRDC.deg                 0.09:  GRID CORRECTION
 AZTC.deg                 6.50:  AZM TOTAL CORR
 EPD .m                   0.00:  ELEVATION
 EGL .m                   0.00:  GROUND ELEVATION
 WDMS.m                 176.20:  WD ELEV
 APD .m                  43.16:  DEPTH ABOVE PD
 DEP .m                3084.71:  DEPTH
 AGAP.m                  43.16:  AIR GAP
 VSEW.m                  -5.41:  VERT SEC E/W
 VSNS.m                  -0.12:  VERT SEC N/S
 EKB .m                   0.00:  KB ELEVATION
 EDF .m                  43.16:  DF ELEVATION
 TDL .m                 243.00:  TOTAL DEPTH (LOGGER)
 VSC .                       0:  VS TO CLOSURE
 MAGU.                 1853542:  MAGUTM CHECKSUM
~Parameter Information Block
#MNEM.UNIT       Value        Description
#---------     -----------    ---------------------------
 AV  .mps                 1.91:  Ann Velocity 
 AVMX.mps                 2.52:  Max Ann Veloc 
 AZIF.deg               308.97:  Azm, Final 
 BHAT.        Rotary Steerable:  BHA Type 
 BROT.°/30m               1.00:  Build Rotating 
 BS  .in                  6.50:  Bit Size 
 BSZ .in                  6.50:  Bit Size 
 BTPL.psig              350.00:  Bit Press Loss 
 CABU.                      No:  Customer Abuse 
 CGEO.           Asif Pashayev:  Customer Geo 
 COMM.                     #‚:  Run Comments 1 
 TCS .hr                 35.86:  Time Ciculation Ended 
 CV  .mps                 2.31:  Crit Velocity 
 CVMX.mps                 2.31:  Max Crit Veloc 
 DD1 .         Intigam Rahimov:  Direct Drillr 1 
 DDSV.               Geo-Pilot:  DD Service 
 DEFF.%                  92.00:  % Det Eff 
 DLRX.°/30m               1.00:  Dogleg Rot Max 
 DLSO.°/30m               1.00:  Dogleg Oriented 
 DLSX.°/30m               1.42:  Dogleg Str Max 
 DRET.      15.50.00 07-Aug-20:  Drill End Time 
 DRST.      10.40.00 06-Aug-20:  Drill Start Tim 
 DTIM.hr                 21.30:  Time Drilling 
 EDEP.m                5200.01:  End Depth 
 ENG1.            Alan Tuganov:  Engineer 1 
 ENG2.         Almaz Almadatov:  Engineer 2 
 ENG3.     Zammelal Abdullah Sani:  Engineer 3 
 ETIM.      22.42.00 08-Aug-20:  End Time 
 FLOI.gpm               395.00:  Flow In 
 FLON.gpm               350.00:  Flow In Min 
 FLOS.cptm                0.00:  Fluid Loss 
 FLOX.gpm               404.00:  Flow In Max 
 FTRO.       Formation Presure:  FTWD Run Obj 
 HFLO.                      No:  High Flow 
 HPRE.                      No:  High Pressure 
 HTEM.                      No:  High Temp 
 HYDO.m                   1.80:  Hydro Offset 
 IFIN.deg                72.64:  Inc, Final 
 IMAX.deg                73.68:  Inc Max 
 IMIN.deg                72.64:  Inc Min 
 IMND.m                5189.69:  Inc Min Depth 
 IMXD.m                5067.88:  Inc Max Depth 
 JARR.                      No:  Jarring 
 LETM.      15.50.00 07-Aug-20:  Log End Time 
 LOST.hr                     0:  Lost Rig Time 
 LSTM.      10.40.00 06-Aug-20:  Log Start Time 
 MDCL.ppm             36000.00:  Mud Chlorides 
 MDES.     Inversion Oil/Synthetic:  Mud Desc 
 DFD .sg                  1.36:  Mud Density 
 MDMN.sg                  1.36:  Dens Mud Min 
 MDMX.sg                  1.36:  Dens Mud Max 
 MOIL.                      70:  Run Mud Oil % 
 MOWR.                   70:30:  Run Mud OWR 
 MSND.                    0.00:  Run Mud Sand % 
 MSOL.                   17.60:  Run Mud Solids% 
 DFV .spqt               73.00:  Mud Viscosity 
 MWOD.in                  4.75:  MWD Tool OD 
 MWSI.                      No:  Serv Intrp, MWD 
 OTIM.hr                 85.66:  Time Operating 
 PCON.           Look Like New:  Pad Condition 
 PMAX.psia             6250.00:  Press Op, Max 
 PV  .cP                 65.00:  Mud PV 
 RUN .                     900:  Run Number 
 ROPA.m/hr               11.40:  ROP Avg 
 ROPN.m/hr                5.00:  ROP Min 
 ROPX.m/hr               20.00:  ROP Max 
 RPMA.rpm               130.00:  RPM Surface Avg 
 RPMN.rpm                40.00:  RPM Surface Min 
 RPMX.rpm               140.00:  RPM Surface Max 
 RRUN.                    L205:  Rig Run Number 
 RTIM.hr                  1.00:  Time Reaming 
 SAZI.deg               313.52:  Azm, Start 
 SDEP.m                4957.01:  Start Depth 
 SIDD.                      No:  Serv Intrp, DD 
 SINC.deg                73.16:  Inc, Start 
 SPPA.psig             5657.00:  SPP Avg 
 SPPN.psig             2500.00:  SPP Min 
 SPPX.psig             5806.00:  SPP Max 
 STIM.      07.12.00 05-Aug-20:  Start Time 
 SVCS.                 DD, MWD:  Services 
 SVER.                    9.20:  Sperry Version 
 TDAT.m                 243.00:  Tot Depth Attmp 
 TDDF.                      No:  Trip for DD 
 TDLG.m                 243.00:  Tot Depth Loggd 
 TFF .                      No:  Trip for Fail 
 TQAA.f-kp               13.00:  Torque Abs Avg 
 TQAN.f-kp               11.00:  Torque Abs Min 
 TQAX.f-kp               16.00:  Torque Abs Max 
 TRRT.°/30m               1.00:  Turn Rotating 
 MRT .                    HCIM:  Maximum Recorded Temperature 
 TTMX.degC               96.08:  Max Tool Temp 
 VS01.                90515411:  Virtual Str1 SN 
 VS02.                90512716:  Virtual Str2 SN 
 VS03.                90522362:  Virtual Str3 SN 
 VS04.                90619415:  Virtual Str4 SN 
 VS05.                90619414:  Virtual Str5 SN 
 VS06.                90597748:  Virtual Str6 SN 
 WBMN.klb                 2.00:  WOB Min 
 WITN.           Adil Mammadov:  Customer Rep 
 WITN.     Alexander Yadullayev:  Customer Rep 2 
 WOBA.klb                 7.00:  WOB Avg 
 WOBX.klb                23.00:  WOB Max 
 YP  .lhf2               37.00:  Yield Point 
~Curve Information Block
#MNEM.UNIT                 API CODE     Curve Description
#---------               -----------    ---------------------------
 TIME.HHMMSS            00 000 000 000:  GT Time & Date
 GTDEPTH.m              00 000 000 000:  GT Depth
 GTPQH.psia             00 000 000 000:  GT HR Quartz Pressure
 GTTQ.degC              00 000 000 000:  GT Quartz Temperature
 GTTN.NONE              00 000 000 000:  GT Test Number
 GTET.sec               00 000 000 000:  GT Elapsed Test Time
 GTTVD.m                00 000 000 000:  GT True Vertical Depth
#Other Information
#
#WARRANTY: Halliburton will use its best efforts to furnish customers with 
#accurate information and interpretations that are part of, and incident to, the services 
#provided.  However, Halliburton cannot and does not warrant the accuracy 
#or correctness of such information and interpretations.  Under no circumstances should any 
#such information or interpretation be relied upon as the sole basis for any drilling, 
#completion, production, or financial decision or any procedure involving any risk to the 
#safety of any drilling venture, drilling rig or its crew or any other third party.  The 
#Customer has full responsibility for all drilling, completion and production operation.  
#Halliburton makes no representations or warranties, either expressed or 
#implied, including, but not limited to, the implied warranties of merchantability or fitness 
#for a particular purpose, with respect to the services rendered.  In no event will 
#Halliburton be liable for failure to obtain any particular results or for 
#any damages, including, but not limited to, indirect, special or consequential damages, 
#resulting from the use of any information or interpretation provided by Halliburton.
#
~A           TIME           GTDEPTH  GTPQH  GTTQ  GTTN  GTET   GTTVD  
# ...
   21:54:21.000.06-Aug-2020 5001.01 3489.75 83.92 4.00 115.00 2646.47
   21:54:21.200.06-Aug-2020 5001.01 3489.75 83.92 4.00 115.20 2646.47
   21:54:21.400.06-Aug-2020 5001.01 3489.71 83.92 4.00 115.40 2646.47
   21:54:21.600.06-Aug-2020 5001.01 3489.64 83.92 4.00 115.60 2646.47
   21:54:21.800.06-Aug-2020 5001.01 3489.73 83.92 4.00 115.80 2646.47
   21:54:22.000.06-Aug-2020 5001.01 3489.68 83.92 4.00 116.00 2646.47
   21:54:22.200.06-Aug-2020 5001.01 3489.68 83.92 4.00 116.20 2646.47
   21:54:22.400.06-Aug-2020 5001.01 3489.69 83.92 4.00 116.40 2646.47
   21:54:22.600.06-Aug-2020 5001.01 3489.70 83.92 4.00 116.60 2646.47
   21:54:22.800.06-Aug-2020 5001.01 3489.70 83.92 4.00 116.80 2646.47
   21:54:23.000.06-Aug-2020 5001.01 3489.70 83.92 4.00 117.00 2646.47
   21:54:23.200.06-Aug-2020 5001.01 3489.70 83.92 4.00 117.20 2646.47
   21:54:23.400.06-Aug-2020 5001.01 3489.68 83.92 4.00 117.40 2646.47
   21:54:23.600.06-Aug-2020 5001.01 3489.69 83.92 4.00 117.60 2646.47
   21:54:23.800.06-Aug-2020 5001.01 3489.67 83.91 4.00 117.80 2646.47
   21:54:24.000.06-Aug-2020 5001.01 3489.52 83.91 4.00 118.00 2646.47
   21:54:24.200.06-Aug-2020 5001.01 3489.76 83.91 4.00 118.20 2646.47
   21:54:24.400.06-Aug-2020 5001.01 3489.72 83.91 4.00 118.40 2646.47
   21:54:24.600.06-Aug-2020 5001.01 3489.66 83.91 4.00 118.60 2646.47
   21:54:24.800.06-Aug-2020 5001.01 3489.72 83.91 4.00 118.80 2646.47
   21:54:25.000.06-Aug-2020 5001.01 3489.67 83.91 4.00 119.00 2646.47
   21:54:25.200.06-Aug-2020 5001.01 3489.67 83.91 4.00 119.20 2646.47
   21:54:25.400.06-Aug-2020 5001.01 3489.66 83.91 4.00 119.40 2646.47
   21:54:25.600.06-Aug-2020 5001.01 3489.70 83.91 4.00 119.60 2646.47
   21:54:25.800.06-Aug-2020 5001.01 3489.65 83.91 4.00 119.80 2646.47
   21:54:26.000.06-Aug-2020 5001.01 3489.71 83.91 4.00 120.00 2646.47
   21:54:26.200.06-Aug-2020 5001.01 3489.71 83.91 4.00 120.20 2646.47
   21:54:26.400.06-Aug-2020 5001.01 3489.69 83.91 4.00 120.40 2646.47
   21:54:26.600.06-Aug-2020 5001.01 3489.67 83.91 4.00 120.60 2646.47
   21:54:26.800.06-Aug-2020 5001.01 3489.61 83.91 4.00 120.80 2646.47
   21:54:27.000.06-Aug-2020 5001.01 3489.66 83.91 4.00 121.00 2646.47
   21:54:27.200.06-Aug-2020 5001.01 3489.66 83.91 4.00 121.20 2646.47
   21:54:27.400.06-Aug-2020 5001.01 3489.65 83.91 4.00 121.40 2646.47
   21:54:27.600.06-Aug-2020 5001.01 3489.67 83.91 4.00 121.60 2646.47
   21:54:27.800.06-Aug-2020 5001.01 3489.67 83.90 4.00 121.80 2646.47
   21:54:28.000.06-Aug-2020 5001.01 3489.63 83.90 4.00 122.00 2646.47
   21:54:28.200.06-Aug-2020 5001.01 3489.63 83.90 4.00 122.20 2646.47
   21:54:28.400.06-Aug-2020 5001.01 3489.70 83.90 4.00 122.40 2646.47
   21:54:28.600.06-Aug-2020 5001.01 3489.60 83.90 4.00 122.60 2646.47
   21:54:28.800.06-Aug-2020 5001.01 3489.72 83.90 4.00 122.80 2646.47
   21:54:29.000.06-Aug-2020 5001.01 3489.60 83.90 4.00 123.00 2646.47
   21:54:29.200.06-Aug-2020 5001.01 3489.60 83.90 4.00 123.20 2646.47
   21:54:29.400.06-Aug-2020 5001.01 3489.64 83.90 4.00 123.40 2646.47
   21:54:29.600.06-Aug-2020 5001.01 3489.70 83.90 4.00 123.60 2646.47
   21:54:29.800.06-Aug-2020 5001.01 3489.62 83.90 4.00 123.80 2646.47
   21:54:30.000.06-Aug-2020 5001.01 3489.68 83.90 4.00 124.00 2646.47
   21:54:30.200.06-Aug-2020 5001.01 3489.68 83.90 4.00 124.20 2646.47
   21:54:30.400.06-Aug-2020 5001.01 3489.65 83.90 4.00 124.40 2646.47
   21:54:30.600.06-Aug-2020 5001.01 3489.69 83.90 4.00 124.60 2646.47
   21:54:30.800.06-Aug-2020 5001.01 3489.65 83.90 4.00 124.80 2646.47
   21:54:31.000.06-Aug-2020 5001.01 3489.69 83.90 4.00 125.00 2646.47
   21:54:31.200.06-Aug-2020 5001.01 3489.69 83.90 4.00 125.20 2646.47
   21:54:31.400.06-Aug-2020 5001.01 3489.67 83.90 4.00 125.40 2646.47
   21:54:31.600.06-Aug-2020 5001.01 3489.66 83.90 4.00 125.60 2646.47
   21:54:31.800.06-Aug-2020 5001.01 3489.66 83.90 4.00 125.80 2646.47
   21:54:32.000.06-Aug-2020 5001.01 3489.66 83.89 4.00 126.00 2646.47
   21:54:32.200.06-Aug-2020 5001.01 3489.66 83.89 4.00 126.20 2646.47
   21:54:32.400.06-Aug-2020 5001.01 3489.70 83.89 4.00 126.40 2646.47
   21:54:32.600.06-Aug-2020 5001.01 3489.69 83.89 4.00 126.60 2646.47
   21:54:32.800.06-Aug-2020 5001.01 3489.65 83.89 4.00 126.80 2646.47
   21:54:33.000.06-Aug-2020 5001.01 3489.67 83.89 4.00 127.00 2646.47
   21:54:33.200.06-Aug-2020 5001.01 3489.67 83.89 4.00 127.20 2646.47
   21:54:33.400.06-Aug-2020 5001.01 3489.66 83.89 4.00 127.40 2646.47
   21:54:33.600.06-Aug-2020 5001.01 3489.66 83.89 4.00 127.60 2646.47
   21:54:33.800.06-Aug-2020 5001.01 3489.64 83.89 4.00 127.80 2646.47
   21:54:34.000.06-Aug-2020 5001.01 3489.67 83.89 4.00 128.00 2646.47
   21:54:34.200.06-Aug-2020 5001.01 3489.67 83.89 4.00 128.20 2646.47
   21:54:34.400.06-Aug-2020 5001.01 3489.67 83.89 4.00 128.40 2646.47
   21:54:34.600.06-Aug-2020 5001.01 3489.62 83.89 4.00 128.60 2646.47
   21:54:34.800.06-Aug-2020 5001.01 3489.66 83.89 4.00 128.80 2646.47
   21:54:35.000.06-Aug-2020 5001.01 3489.60 83.89 4.00 129.00 2646.47
   21:54:35.200.06-Aug-2020 5001.01 3489.60 83.89 4.00 129.20 2646.47
   21:54:35.400.06-Aug-2020 5001.01 3489.68 83.89 4.00 129.40 2646.47
   21:54:35.600.06-Aug-2020 5001.01 3489.63 83.89 4.00 129.60 2646.47
   21:54:35.800.06-Aug-2020 5001.01 3489.64 83.89 4.00 129.80 2646.47
   21:54:36.000.06-Aug-2020 5001.01 3489.62 83.89 4.00 130.00 2646.47
   21:54:36.200.06-Aug-2020 5001.01 3489.62 83.89 4.00 130.20 2646.47
   21:54:36.400.06-Aug-2020 5001.01 3489.61 83.88 4.00 130.40 2646.47
   21:54:36.600.06-Aug-2020 5001.01 3489.68 83.88 4.00 130.60 2646.47
   21:54:36.800.06-Aug-2020 5001.01 3489.56 83.88 4.00 130.80 2646.47
   21:54:37.000.06-Aug-2020 5001.01 3489.72 83.88 4.00 131.00 2646.47
   21:54:37.200.06-Aug-2020 5001.01 3489.72 83.88 4.00 131.20 2646.47
   21:54:37.400.06-Aug-2020 5001.01 3489.64 83.88 4.00 131.40 2646.47
   21:54:37.600.06-Aug-2020 5001.01 3489.60 83.88 4.00 131.60 2646.47
   21:54:37.800.06-Aug-2020 5001.01 3489.71 83.88 4.00 131.80 2646.47
   21:54:38.000.06-Aug-2020 5001.01 3489.56 83.88 4.00 132.00 2646.47
   21:54:38.200.06-Aug-2020 5001.01 3489.56 83.88 4.00 132.20 2646.47
   21:54:38.400.06-Aug-2020 5001.01 3489.64 83.88 4.00 132.40 2646.47
   21:54:38.600.06-Aug-2020 5001.01 3489.65 83.88 4.00 132.60 2646.47
   21:54:38.800.06-Aug-2020 5001.01 3489.64 83.88 4.00 132.80 2646.47
   21:54:39.000.06-Aug-2020 5001.01 3489.65 83.88 4.00 133.00 2646.47
   21:54:39.200.06-Aug-2020 5001.01 3489.65 83.88 4.00 133.20 2646.47
   21:54:39.400.06-Aug-2020 5001.01 3489.67 83.88 4.00 133.40 2646.47
   21:54:39.600.06-Aug-2020 5001.01 3489.61 83.88 4.00 133.60 2646.47
   21:54:39.800.06-Aug-2020 5001.01 3489.65 83.88 4.00 133.80 2646.47
   21:54:40.000.06-Aug-2020 5001.01 3489.62 83.88 4.00 134.00 2646.47
   21:54:40.200.06-Aug-2020 5001.01 3489.62 83.87 4.00 134.20 2646.47
   21:54:40.400.06-Aug-2020 5001.01 3489.57 83.87 4.00 134.40 2646.47
   21:54:40.600.06-Aug-2020 5001.01 3489.61 83.87 4.00 134.60 2646.47
   21:54:40.800.06-Aug-2020 5001.01 3489.67 83.87 4.00 134.80 2646.47
   21:54:41.000.06-Aug-2020 5001.01 3489.63 83.87 4.00 135.00 2646.47
   21:54:41.200.06-Aug-2020 5001.01 3489.63 83.87 4.00 135.20 2646.47
   21:54:41.400.06-Aug-2020 5001.01 3489.62 83.87 4.00 135.40 2646.47
   21:54:41.600.06-Aug-2020 5001.01 3489.62 83.87 4.00 135.60 2646.47
   21:54:41.800.06-Aug-2020 5001.01 3489.63 83.87 4.00 135.80 2646.47
   21:54:42.000.06-Aug-2020 5001.01 3489.63 83.87 4.00 136.00 2646.47
   21:54:42.200.06-Aug-2020 5001.01 3489.63 83.87 4.00 136.20 2646.47
   21:54:42.400.06-Aug-2020 5001.01 3489.62 83.87 4.00 136.40 2646.47
   21:54:42.600.06-Aug-2020 5001.01 3489.62 83.87 4.00 136.60 2646.47
   21:54:42.800.06-Aug-2020 5001.01 3489.62 83.87 4.00 136.80 2646.47
   21:54:43.000.06-Aug-2020 5001.01 3489.58 83.87 4.00 137.00 2646.47
   21:54:43.200.06-Aug-2020 5001.01 3489.58 83.87 4.00 137.20 2646.47
   21:54:43.400.06-Aug-2020 5001.01 3489.57 83.87 4.00 137.40 2646.47
   21:54:43.600.06-Aug-2020 5001.01 3489.67 83.87 4.00 137.60 2646.47
   21:54:43.800.06-Aug-2020 5001.01 3489.60 83.87 4.00 137.80 2646.47
