~Version Information
 VERS.                  2.0:   CWLS log ASCII Standard -VERSION 2.0
 WRAP.                   NO:   One line per depth step
~Well Information Block
#MNEM.UNIT     VALUE/NAME     DESCRIPTION
#---------     -----------    ---------------------------
 STRT.S             16:10:03 06-Aug-20: START TIME 16:10:03 06-Aug-20
 STOP.S             16:17:57 06-Aug-20: STOP TIME  16:17:57 06-Aug-20
 STEP.S                   0.00: STEP TIME
 NULL.                 -999.25: NULL VALUE
 DFWT.                        :  DIST FWL TEXT
 DFST.                        :  DIST FSL TEXT
 DMF .             Drill Floor:  DRILL MEAS FROM
 STIM.      12.00.00 03-Jul-20:  START TIME
 DATE.      00.50.00 09-Aug-20:  END TIME
 SPUD.               03-Jul-20:  SPUD DATE
 NREF.                    Grid:  NORTH REFERENCE
 HPTY.       Minimum Curvature:  HOLE POS TYPE
 DMOD.             Drill Model:  DRILL MOD DESC
 SVYD.                  Survey:  SURVEY DESC
 ILTD.               Lithology:  INTERP LTH DESC
 FTOP.          Formation Tops:  FORM TOPS DESC
 PDAT.          Mean Sea Level:  PERMANENT DATUM
 FLD .                     ACG:  FIELD NAME
 CTRY.              Azerbaijan:  COUNTRY NAME
 WELL.                    E04x:  WELL NAME
 SRVC.          Turan Drilling:  CONTRACTOR
 COMP.     BP Exploration (Caspian Sea) Ltd.:  COMPANY
 SON .        AZ-XX-0906531346:  JOB NUMBER
 WTYP.                Deviated:  WELL TYPE
 MDS .        Operator Entered:  MAG DATA SOURCE
 UWI .                     N/A:  UNIQUE WELL IDENTIFIER
 API .                     N/A:  API NUMBER
 BASE.              Azerbaijan:  LOGGING EQUIPMENT BASE LOCATION
 REGN.                   EESSA:  REGION
 PROV.                    Baku:  PROVINCE
 STAT.                    Baku:  STATE NAME
 MWDS.                    Baku:  MWD SHOP
 JOBN.        AZ-XX-0906531346:  JOB TICKET NUMB
 RIG .                     DWG:  RIG NAME
 DOE .                     N/A:  DOE NUMBER
 DCON.         Sperry Drilling:  DIRECTNL CONTR
 UNIT.                     N/A:  LOGGING EQUIPMENT ID
 CNTY.                        :  COUNTY
 LOC .                        :  LOCATION
 LMF .             Drill Floor:  LOG MEASURED FROM
 TVDS.m                  43.16:  TVDSS CORRECTN
 LATI.deg                40.17:  LATITUDE
 LONG.deg                51.17:  LONGITUDE
 WHNS.m                  -0.12:  WELL HEAD N/S
 WHEW.m                  -5.41:  WELL HEAD E/W
 UTMX.m              514337.95:  UTM X
 UTMY.m             4448627.46:  UTM Y
 DFWL.m                   0.00:  DISTANCE FWL
 DFSL.m                   0.00:  DISTANCE FSL
 SDEP.m                3088.01:  START DEPTH
 TDD .m                5200.01:  TOTAL DEPTH (DRILLER)
 VSDR.deg               244.51:  VERT SEC DIRECT
 GVFD.g                   1.00:  GRAVITY FIELD
 MFLD.nT              50329.80:  MAGNETIC FIELD
 MDIP.deg                59.63:  MAGNETIC DIP
 MDEC.deg                 6.59:  MAGNETIC DECL
 GRDC.deg                 0.09:  GRID CORRECTION
 AZTC.deg                 6.50:  AZM TOTAL CORR
 EPD .m                   0.00:  ELEVATION
 EGL .m                   0.00:  GROUND ELEVATION
 WDMS.m                 176.20:  WD ELEV
 APD .m                  43.16:  DEPTH ABOVE PD
 DEP .m                3084.71:  DEPTH
 AGAP.m                  43.16:  AIR GAP
 VSEW.m                  -5.41:  VERT SEC E/W
 VSNS.m                  -0.12:  VERT SEC N/S
 EKB .m                   0.00:  KB ELEVATION
 EDF .m                  43.16:  DF ELEVATION
 TDL .m                 243.00:  TOTAL DEPTH (LOGGER)
 VSC .                       0:  VS TO CLOSURE
 MAGU.                 1853542:  MAGUTM CHECKSUM
~Parameter Information Block
#MNEM.UNIT       Value        Description
#---------     -----------    ---------------------------
 AV  .mps                 1.91:  Ann Velocity 
 AVMX.mps                 2.52:  Max Ann Veloc 
 AZIF.deg               308.97:  Azm, Final 
 BHAT.        Rotary Steerable:  BHA Type 
 BROT.°/30m               1.00:  Build Rotating 
 BS  .in                  6.50:  Bit Size 
 BSZ .in                  6.50:  Bit Size 
 BTPL.psig              350.00:  Bit Press Loss 
 CABU.                      No:  Customer Abuse 
 CGEO.           Asif Pashayev:  Customer Geo 
 COMM.                     Ôöj:  Run Comments 1 
 TCS .hr                 35.86:  Time Ciculation Ended 
 CV  .mps                 2.31:  Crit Velocity 
 CVMX.mps                 2.31:  Max Crit Veloc 
 DD1 .         Intigam Rahimov:  Direct Drillr 1 
 DDSV.               Geo-Pilot:  DD Service 
 DEFF.%                  92.00:  % Det Eff 
 DLRX.°/30m               1.00:  Dogleg Rot Max 
 DLSO.°/30m               1.00:  Dogleg Oriented 
 DLSX.°/30m               1.42:  Dogleg Str Max 
 DRET.      15.50.00 07-Aug-20:  Drill End Time 
 DRST.      10.40.00 06-Aug-20:  Drill Start Tim 
 DTIM.hr                 21.30:  Time Drilling 
 EDEP.m                5200.01:  End Depth 
 ENG1.            Alan Tuganov:  Engineer 1 
 ENG2.         Almaz Almadatov:  Engineer 2 
 ENG3.     Zammelal Abdullah Sani:  Engineer 3 
 ETIM.      22.42.00 08-Aug-20:  End Time 
 FLOI.gpm               395.00:  Flow In 
 FLON.gpm               350.00:  Flow In Min 
 FLOS.cptm                0.00:  Fluid Loss 
 FLOX.gpm               404.00:  Flow In Max 
 FTRO.       Formation Presure:  FTWD Run Obj 
 HFLO.                      No:  High Flow 
 HPRE.                      No:  High Pressure 
 HTEM.                      No:  High Temp 
 HYDO.m                   1.80:  Hydro Offset 
 IFIN.deg                72.64:  Inc, Final 
 IMAX.deg                73.68:  Inc Max 
 IMIN.deg                72.64:  Inc Min 
 IMND.m                5189.69:  Inc Min Depth 
 IMXD.m                5067.88:  Inc Max Depth 
 JARR.                      No:  Jarring 
 LETM.      15.50.00 07-Aug-20:  Log End Time 
 LOST.hr                     0:  Lost Rig Time 
 LSTM.      10.40.00 06-Aug-20:  Log Start Time 
 MDCL.ppm             36000.00:  Mud Chlorides 
 MDES.     Inversion Oil/Synthetic:  Mud Desc 
 DFD .sg                  1.36:  Mud Density 
 MDMN.sg                  1.36:  Dens Mud Min 
 MDMX.sg                  1.36:  Dens Mud Max 
 MOIL.                      70:  Run Mud Oil % 
 MOWR.                   70:30:  Run Mud OWR 
 MSND.                    0.00:  Run Mud Sand % 
 MSOL.                   17.60:  Run Mud Solids% 
 DFV .spqt               73.00:  Mud Viscosity 
 MWOD.in                  4.75:  MWD Tool OD 
 MWSI.                      No:  Serv Intrp, MWD 
 OTIM.hr                 85.66:  Time Operating 
 PCON.           Look Like New:  Pad Condition 
 PMAX.psia             6250.00:  Press Op, Max 
 PV  .cP                 65.00:  Mud PV 
 RUN .                     900:  Run Number 
 ROPA.m/hr               11.40:  ROP Avg 
 ROPN.m/hr                5.00:  ROP Min 
 ROPX.m/hr               20.00:  ROP Max 
 RPMA.rpm               130.00:  RPM Surface Avg 
 RPMN.rpm                40.00:  RPM Surface Min 
 RPMX.rpm               140.00:  RPM Surface Max 
 RRUN.                    L205:  Rig Run Number 
 RTIM.hr                  1.00:  Time Reaming 
 SAZI.deg               313.52:  Azm, Start 
 SDEP.m                4957.01:  Start Depth 
 SIDD.                      No:  Serv Intrp, DD 
 SINC.deg                73.16:  Inc, Start 
 SPPA.psig             5657.00:  SPP Avg 
 SPPN.psig             2500.00:  SPP Min 
 SPPX.psig             5806.00:  SPP Max 
 STIM.      07.12.00 05-Aug-20:  Start Time 
 SVCS.                 DD, MWD:  Services 
 SVER.                    9.20:  Sperry Version 
 TDAT.m                 243.00:  Tot Depth Attmp 
 TDDF.                      No:  Trip for DD 
 TDLG.m                 243.00:  Tot Depth Loggd 
 TFF .                      No:  Trip for Fail 
 TQAA.f-kp               13.00:  Torque Abs Avg 
 TQAN.f-kp               11.00:  Torque Abs Min 
 TQAX.f-kp               16.00:  Torque Abs Max 
 TRRT.°/30m               1.00:  Turn Rotating 
 MRT .                    HCIM:  Maximum Recorded Temperature 
 TTMX.degC               96.08:  Max Tool Temp 
 VS01.                90515411:  Virtual Str1 SN 
 VS02.                90512716:  Virtual Str2 SN 
 VS03.                90522362:  Virtual Str3 SN 
 VS04.                90619415:  Virtual Str4 SN 
 VS05.                90619414:  Virtual Str5 SN 
 VS06.                90597748:  Virtual Str6 SN 
 WBMN.klb                 2.00:  WOB Min 
 WITN.           Adil Mammadov:  Customer Rep 
 WITN.     Alexander Yadullayev:  Customer Rep 2 
 WOBA.klb                 7.00:  WOB Avg 
 WOBX.klb                23.00:  WOB Max 
 YP  .lhf2               37.00:  Yield Point 
~Curve Information Block
#MNEM.UNIT                 API CODE     Curve Description
#---------               -----------    ---------------------------
 TIME.HHMMSS            00 000 000 000:  GT Time & Date
 GTDEPTH.m              00 000 000 000:  GT Depth
 GTPQH.psia             00 000 000 000:  GT HR Quartz Pressure
 GTTQ.degC              00 000 000 000:  GT Quartz Temperature
 GTTN.NONE              00 000 000 000:  GT Test Number
 GTET.sec               00 000 000 000:  GT Elapsed Test Time
 GTTVD.m                00 000 000 000:  GT True Vertical Depth
#Other Information
#
#WARRANTY: Halliburton will use its best efforts to furnish customers with 
#accurate information and interpretations that are part of, and incident to, the services 
#provided.  However, Halliburton cannot and does not warrant the accuracy 
#or correctness of such information and interpretations.  Under no circumstances should any 
#such information or interpretation be relied upon as the sole basis for any drilling, 
#completion, production, or financial decision or any procedure involving any risk to the 
#safety of any drilling venture, drilling rig or its crew or any other third party.  The 
#Customer has full responsibility for all drilling, completion and production operation.  
#Halliburton makes no representations or warranties, either expressed or 
#implied, including, but not limited to, the implied warranties of merchantability or fitness 
#for a particular purpose, with respect to the services rendered.  In no event will 
#Halliburton be liable for failure to obtain any particular results or for 
#any damages, including, but not limited to, indirect, special or consequential damages, 
#resulting from the use of any information or interpretation provided by Halliburton.
#
~A           TIME           GTDEPTH  GTPQH  GTTQ  GTTN  GTET   GTTVD  
   16:10:03.457.06-Aug-2020 4955.01 5713.35 81.12 2.00   0.00 2633.27
   16:10:03.657.06-Aug-2020 4955.01 5715.03 81.12 2.00   0.20 2633.27
   16:10:03.857.06-Aug-2020 4955.01 5715.36 81.12 2.00   0.40 2633.27
   16:10:04.057.06-Aug-2020 4955.01 5710.15 81.12 2.00   0.60 2633.27
   16:10:04.257.06-Aug-2020 4955.01 5713.52 81.12 2.00   0.80 2633.27
   16:10:04.457.06-Aug-2020 4955.01 5715.74 81.12 2.00   1.00 2633.27
   16:10:04.658.06-Aug-2020 4955.01 5715.74 81.12 2.00   1.20 2633.27
   16:10:04.858.06-Aug-2020 4955.01 5716.00 81.12 2.00   1.40 2633.27
   16:10:05.058.06-Aug-2020 4955.01 5710.90 81.11 2.00   1.60 2633.27
   16:10:05.258.06-Aug-2020 4955.01 5712.32 81.11 2.00   1.80 2633.27
   16:10:05.458.06-Aug-2020 4955.01 5713.04 81.11 2.00   2.00 2633.27
   16:10:05.658.06-Aug-2020 4955.01 5713.04 81.11 2.00   2.20 2633.27
   16:10:05.858.06-Aug-2020 4955.01 5709.17 81.11 2.00   2.40 2633.27
   16:10:06.058.06-Aug-2020 4955.01 5710.65 81.11 2.00   2.60 2633.27
   16:10:06.258.06-Aug-2020 4955.01 5712.87 81.11 2.00   2.80 2633.27
   16:10:06.458.06-Aug-2020 4955.01 5714.88 81.11 2.00   3.00 2633.27
   16:10:06.658.06-Aug-2020 4955.01 5714.88 81.11 2.00   3.20 2633.27
   16:10:06.858.06-Aug-2020 4955.01 5715.84 81.11 2.00   3.40 2633.27
   16:10:07.058.06-Aug-2020 4955.01 5715.62 81.11 2.00   3.60 2633.27
   16:10:07.258.06-Aug-2020 4955.01 5715.82 81.11 2.00   3.80 2633.27
   16:10:07.458.06-Aug-2020 4955.01 5715.59 81.11 2.00   4.00 2633.27
   16:10:07.658.06-Aug-2020 4955.01 5715.59 81.11 2.00   4.20 2633.27
   16:10:07.858.06-Aug-2020 4955.01 5709.75 81.10 2.00   4.40 2633.27
   16:10:08.058.06-Aug-2020 4955.01 5713.42 81.10 2.00   4.60 2633.27
   16:10:08.258.06-Aug-2020 4955.01 5714.98 81.10 2.00   4.80 2633.27
   16:10:08.458.06-Aug-2020 4955.01 5715.76 81.10 2.00   5.00 2633.27
   16:10:08.658.06-Aug-2020 4955.01 5715.76 81.10 2.00   5.20 2633.27
   16:10:08.858.06-Aug-2020 4955.01 5716.96 81.10 2.00   5.40 2633.27
   16:10:09.058.06-Aug-2020 4955.01 5718.05 81.10 2.00   5.60 2633.27
   16:10:09.259.06-Aug-2020 4955.01 5717.72 81.10 2.00   5.80 2633.27
   16:10:09.459.06-Aug-2020 4955.01 5718.58 81.10 2.00   6.00 2633.27
   16:10:09.659.06-Aug-2020 4955.01 5718.58 81.10 2.00   6.20 2633.27
   16:10:09.859.06-Aug-2020 4955.01 5719.46 81.10 2.00   6.40 2633.27
   16:10:10.059.06-Aug-2020 4955.01 5718.67 81.10 2.00   6.60 2633.27
   16:10:10.259.06-Aug-2020 4955.01 5718.83 81.10 2.00   6.80 2633.27
   16:10:10.459.06-Aug-2020 4955.01 5717.78 81.10 2.00   7.00 2633.27
   16:10:10.659.06-Aug-2020 4955.01 5711.77 81.10 2.00   7.20 2633.27
   16:10:10.859.06-Aug-2020 4955.01 5715.39 81.09 2.00   7.40 2633.27
   16:10:11.059.06-Aug-2020 4955.01 5716.56 81.09 2.00   7.60 2633.27
   16:10:11.259.06-Aug-2020 4955.01 5716.60 81.09 2.00   7.80 2633.27
   16:10:11.459.06-Aug-2020 4955.01 5717.54 81.09 2.00   8.00 2633.27
   16:10:11.659.06-Aug-2020 4955.01 5718.19 81.09 2.00   8.20 2633.27
   16:10:11.859.06-Aug-2020 4955.01 5719.12 81.09 2.00   8.40 2633.27
   16:10:12.059.06-Aug-2020 4955.01 5719.32 81.09 2.00   8.60 2633.27
   16:10:12.259.06-Aug-2020 4955.01 5719.70 81.09 2.00   8.80 2633.27
   16:10:12.459.06-Aug-2020 4955.01 5719.65 81.09 2.00   9.00 2633.27
   16:10:12.659.06-Aug-2020 4955.01 5719.65 81.09 2.00   9.20 2633.27
   16:10:12.859.06-Aug-2020 4955.01 5719.65 81.09 2.00   9.40 2633.27
   16:10:13.059.06-Aug-2020 4955.01 5719.58 81.09 2.00   9.60 2633.27
   16:10:13.259.06-Aug-2020 4955.01 5718.81 81.09 2.00   9.80 2633.27
   16:10:13.459.06-Aug-2020 4955.01 5713.20 81.09 2.00  10.00 2633.27
   16:10:13.659.06-Aug-2020 4955.01 5707.79 81.09 2.00  10.20 2633.27
   16:10:13.859.06-Aug-2020 4955.01 5670.27 81.08 2.00  10.40 2633.27
   16:10:14.060.06-Aug-2020 4955.01 5632.97 81.08 2.00  10.60 2633.27
   16:10:14.260.06-Aug-2020 4955.01 5589.36 81.08 2.00  10.80 2633.27
   16:10:14.460.06-Aug-2020 4955.01 5584.22 81.08 2.00  11.00 2633.27
   16:10:14.660.06-Aug-2020 4955.01 5584.22 81.08 2.00  11.20 2633.27
   16:10:14.860.06-Aug-2020 4955.01 5450.73 81.08 2.00  11.40 2633.27
   16:10:15.060.06-Aug-2020 4955.01 5378.35 81.08 2.00  11.60 2633.27
   16:10:15.260.06-Aug-2020 4955.01 5306.07 81.08 2.00  11.80 2633.27
   16:10:15.460.06-Aug-2020 4955.01 5212.43 81.08 2.00  12.00 2633.27
   16:10:15.660.06-Aug-2020 4955.01 5212.43 81.08 2.00  12.20 2633.27
   16:10:15.860.06-Aug-2020 4955.01 5016.69 81.08 2.00  12.40 2633.27
   16:10:16.060.06-Aug-2020 4955.01 4984.28 81.08 2.00  12.60 2633.27
   16:10:16.260.06-Aug-2020 4955.01 4879.09 81.08 2.00  12.80 2633.27
   16:10:16.460.06-Aug-2020 4955.01 4822.34 81.08 2.00  13.00 2633.27
   16:10:16.660.06-Aug-2020 4955.01 4822.34 81.08 2.00  13.20 2633.27
   16:10:16.860.06-Aug-2020 4955.01 4641.67 81.07 2.00  13.40 2633.27
   16:10:17.060.06-Aug-2020 4955.01 4532.61 81.07 2.00  13.60 2633.27
   16:10:17.260.06-Aug-2020 4955.01 4425.59 81.07 2.00  13.80 2633.27
   16:10:17.460.06-Aug-2020 4955.01 4338.11 81.07 2.00  14.00 2633.27
   16:10:17.660.06-Aug-2020 4955.01 4264.79 81.07 2.00  14.20 2633.27
   16:10:17.860.06-Aug-2020 4955.01 4211.27 81.07 2.00  14.40 2633.27
   16:10:18.060.06-Aug-2020 4955.01 4133.56 81.07 2.00  14.60 2633.27
   16:10:18.260.06-Aug-2020 4955.01 4057.14 81.07 2.00  14.80 2633.27
   16:10:18.460.06-Aug-2020 4955.01 3976.05 81.07 2.00  15.00 2633.27
   16:10:18.661.06-Aug-2020 4955.01 3976.05 81.07 2.00  15.20 2633.27
   16:10:18.861.06-Aug-2020 4955.01 3799.24 81.07 2.00  15.40 2633.27
   16:10:19.061.06-Aug-2020 4955.01 3706.67 81.06 2.00  15.60 2633.27
   16:10:19.261.06-Aug-2020 4955.01 3684.36 81.06 2.00  15.80 2633.27
   16:10:19.461.06-Aug-2020 4955.01 3618.96 81.06 2.00  16.00 2633.27
   16:10:19.661.06-Aug-2020 4955.01 3618.96 81.06 2.00  16.20 2633.27
   16:10:19.861.06-Aug-2020 4955.01 3442.09 81.06 2.00  16.40 2633.27
   16:10:20.061.06-Aug-2020 4955.01 3387.26 81.06 2.00  16.60 2633.27
   16:10:20.261.06-Aug-2020 4955.01 3404.54 81.06 2.00  16.80 2633.27
   16:10:20.461.06-Aug-2020 4955.01 3311.51 81.06 2.00  17.00 2633.27
   16:10:20.661.06-Aug-2020 4955.01 3311.51 81.06 2.00  17.20 2633.27
   16:10:20.861.06-Aug-2020 4955.01 3240.03 81.06 2.00  17.40 2633.27
   16:10:21.061.06-Aug-2020 4955.01 3185.61 81.05 2.00  17.60 2633.27
   16:10:21.261.06-Aug-2020 4955.01 3222.54 81.05 2.00  17.80 2633.27
   16:10:21.461.06-Aug-2020 4955.01 3152.48 81.05 2.00  18.00 2633.27
   16:10:21.661.06-Aug-2020 4955.01 3091.69 81.05 2.00  18.20 2633.27
   16:10:21.861.06-Aug-2020 4955.01 3026.72 81.05 2.00  18.40 2633.27
   16:10:22.061.06-Aug-2020 4955.01 3006.81 81.05 2.00  18.60 2633.27
   16:10:22.261.06-Aug-2020 4955.01 3194.90 81.05 2.00  18.80 2633.27
   16:10:22.461.06-Aug-2020 4955.01 4334.65 81.05 2.00  19.00 2633.27
   16:10:22.661.06-Aug-2020 4955.01 4236.00 81.04 2.00  19.20 2633.27
   16:10:22.861.06-Aug-2020 4955.01 4168.67 81.04 2.00  19.40 2633.27
   16:10:23.061.06-Aug-2020 4955.01 4112.62 81.04 2.00  19.60 2633.27
   16:10:23.261.06-Aug-2020 4955.01 4062.11 81.04 2.00  19.80 2633.27
   16:10:23.462.06-Aug-2020 4955.01 4021.27 81.04 2.00  20.00 2633.27
   16:10:23.662.06-Aug-2020 4955.01 4021.27 81.04 2.00  20.20 2633.27
   16:10:23.862.06-Aug-2020 4955.01 3970.95 81.04 2.00  20.40 2633.27
   16:10:24.062.06-Aug-2020 4955.01 4046.96 81.04 2.00  20.60 2633.27
   16:10:24.262.06-Aug-2020 4955.01 4200.49 81.04 2.00  20.80 2633.27
   16:10:24.462.06-Aug-2020 4955.01 4186.85 81.03 2.00  21.00 2633.27
   16:10:24.662.06-Aug-2020 4955.01 4186.85 81.03 2.00  21.20 2633.27
   16:10:24.862.06-Aug-2020 4955.01 4269.72 81.03 2.00  21.40 2633.27
   16:10:25.062.06-Aug-2020 4955.01 5039.28 81.03 2.00  21.60 2633.27
   16:10:25.262.06-Aug-2020 4955.01 6001.59 81.03 2.00  21.80 2633.27
   16:10:25.462.06-Aug-2020 4955.01 6349.47 81.03 2.00  22.00 2633.27
   16:10:25.662.06-Aug-2020 4955.01 6479.46 81.03 2.00  22.20 2633.27
   16:10:25.862.06-Aug-2020 4955.01 6493.21 81.03 2.00  22.40 2633.27
   16:10:26.062.06-Aug-2020 4955.01 6509.39 81.03 2.00  22.60 2633.27
   16:10:26.262.06-Aug-2020 4955.01 6508.15 81.03 2.00  22.80 2633.27
