~Version Information
 VERS.                  2.0:   CWLS log ASCII Standard -VERSION 2.0
 WRAP.                   NO:   One line per depth step
~Well Information Block
#MNEM.UNIT     VALUE/NAME     DESCRIPTION
#---------     -----------    ---------------------------
 STRT.S             14:58:59 06-Aug-20: START TIME 14:58:59 06-Aug-20
 STOP.S             15:06:43 06-Aug-20: STOP TIME  15:06:43 06-Aug-20
 STEP.S                   0.00: STEP TIME
 NULL.                 -999.25: NULL VALUE
 DFWT.                        :  DIST FWL TEXT
 DFST.                        :  DIST FSL TEXT
 DMF .             Drill Floor:  DRILL MEAS FROM
 STIM.      12.00.00 03-Jul-20:  START TIME
 DATE.      00.50.00 09-Aug-20:  END TIME
 SPUD.               03-Jul-20:  SPUD DATE
 NREF.                    Grid:  NORTH REFERENCE
 HPTY.       Minimum Curvature:  HOLE POS TYPE
 DMOD.             Drill Model:  DRILL MOD DESC
 SVYD.                  Survey:  SURVEY DESC
 ILTD.               Lithology:  INTERP LTH DESC
 FTOP.          Formation Tops:  FORM TOPS DESC
 PDAT.          Mean Sea Level:  PERMANENT DATUM
 FLD .                     ACG:  FIELD NAME
 CTRY.              Azerbaijan:  COUNTRY NAME
 WELL.                    E04x:  WELL NAME
 SRVC.          Turan Drilling:  CONTRACTOR
 COMP.     BP Exploration (Caspian Sea) Ltd.:  COMPANY
 SON .        AZ-XX-0906531346:  JOB NUMBER
 WTYP.                Deviated:  WELL TYPE
 MDS .        Operator Entered:  MAG DATA SOURCE
 UWI .                     N/A:  UNIQUE WELL IDENTIFIER
 API .                     N/A:  API NUMBER
 BASE.              Azerbaijan:  LOGGING EQUIPMENT BASE LOCATION
 REGN.                   EESSA:  REGION
 PROV.                    Baku:  PROVINCE
 STAT.                    Baku:  STATE NAME
 MWDS.                    Baku:  MWD SHOP
 JOBN.        AZ-XX-0906531346:  JOB TICKET NUMB
 RIG .                     DWG:  RIG NAME
 DOE .                     N/A:  DOE NUMBER
 DCON.         Sperry Drilling:  DIRECTNL CONTR
 UNIT.                     N/A:  LOGGING EQUIPMENT ID
 CNTY.                        :  COUNTY
 LOC .                        :  LOCATION
 LMF .             Drill Floor:  LOG MEASURED FROM
 TVDS.m                  43.16:  TVDSS CORRECTN
 LATI.deg                40.17:  LATITUDE
 LONG.deg                51.17:  LONGITUDE
 WHNS.m                  -0.12:  WELL HEAD N/S
 WHEW.m                  -5.41:  WELL HEAD E/W
 UTMX.m              514337.95:  UTM X
 UTMY.m             4448627.46:  UTM Y
 DFWL.m                   0.00:  DISTANCE FWL
 DFSL.m                   0.00:  DISTANCE FSL
 SDEP.m                3088.01:  START DEPTH
 TDD .m                5200.01:  TOTAL DEPTH (DRILLER)
 VSDR.deg               244.51:  VERT SEC DIRECT
 GVFD.g                   1.00:  GRAVITY FIELD
 MFLD.nT              50329.80:  MAGNETIC FIELD
 MDIP.deg                59.63:  MAGNETIC DIP
 MDEC.deg                 6.59:  MAGNETIC DECL
 GRDC.deg                 0.09:  GRID CORRECTION
 AZTC.deg                 6.50:  AZM TOTAL CORR
 EPD .m                   0.00:  ELEVATION
 EGL .m                   0.00:  GROUND ELEVATION
 WDMS.m                 176.20:  WD ELEV
 APD .m                  43.16:  DEPTH ABOVE PD
 DEP .m                3084.71:  DEPTH
 AGAP.m                  43.16:  AIR GAP
 VSEW.m                  -5.41:  VERT SEC E/W
 VSNS.m                  -0.12:  VERT SEC N/S
 EKB .m                   0.00:  KB ELEVATION
 EDF .m                  43.16:  DF ELEVATION
 TDL .m                 243.00:  TOTAL DEPTH (LOGGER)
 VSC .                       0:  VS TO CLOSURE
 MAGU.                 1853542:  MAGUTM CHECKSUM
~Parameter Information Block
#MNEM.UNIT       Value        Description
#---------     -----------    ---------------------------
 AV  .mps                 1.91:  Ann Velocity 
 AVMX.mps                 2.52:  Max Ann Veloc 
 AZIF.deg               308.97:  Azm, Final 
 BHAT.        Rotary Steerable:  BHA Type 
 BROT.°/30m               1.00:  Build Rotating 
 BS  .in                  6.50:  Bit Size 
 BSZ .in                  6.50:  Bit Size 
 BTPL.psig              350.00:  Bit Press Loss 
 CABU.                      No:  Customer Abuse 
 CGEO.           Asif Pashayev:  Customer Geo 
 COMM.                     ”›T:  Run Comments 1 
 TCS .hr                 35.86:  Time Ciculation Ended 
 CV  .mps                 2.31:  Crit Velocity 
 CVMX.mps                 2.31:  Max Crit Veloc 
 DD1 .         Intigam Rahimov:  Direct Drillr 1 
 DDSV.               Geo-Pilot:  DD Service 
 DEFF.%                  92.00:  % Det Eff 
 DLRX.°/30m               1.00:  Dogleg Rot Max 
 DLSO.°/30m               1.00:  Dogleg Oriented 
 DLSX.°/30m               1.42:  Dogleg Str Max 
 DRET.      15.50.00 07-Aug-20:  Drill End Time 
 DRST.      10.40.00 06-Aug-20:  Drill Start Tim 
 DTIM.hr                 21.30:  Time Drilling 
 EDEP.m                5200.01:  End Depth 
 ENG1.            Alan Tuganov:  Engineer 1 
 ENG2.         Almaz Almadatov:  Engineer 2 
 ENG3.     Zammelal Abdullah Sani:  Engineer 3 
 ETIM.      22.42.00 08-Aug-20:  End Time 
 FLOI.gpm               395.00:  Flow In 
 FLON.gpm               350.00:  Flow In Min 
 FLOS.cptm                0.00:  Fluid Loss 
 FLOX.gpm               404.00:  Flow In Max 
 FTRO.       Formation Presure:  FTWD Run Obj 
 HFLO.                      No:  High Flow 
 HPRE.                      No:  High Pressure 
 HTEM.                      No:  High Temp 
 HYDO.m                   1.80:  Hydro Offset 
 IFIN.deg                72.64:  Inc, Final 
 IMAX.deg                73.68:  Inc Max 
 IMIN.deg                72.64:  Inc Min 
 IMND.m                5189.69:  Inc Min Depth 
 IMXD.m                5067.88:  Inc Max Depth 
 JARR.                      No:  Jarring 
 LETM.      15.50.00 07-Aug-20:  Log End Time 
 LOST.hr                     0:  Lost Rig Time 
 LSTM.      10.40.00 06-Aug-20:  Log Start Time 
 MDCL.ppm             36000.00:  Mud Chlorides 
 MDES.     Inversion Oil/Synthetic:  Mud Desc 
 DFD .sg                  1.36:  Mud Density 
 MDMN.sg                  1.36:  Dens Mud Min 
 MDMX.sg                  1.36:  Dens Mud Max 
 MOIL.                      70:  Run Mud Oil % 
 MOWR.                   70:30:  Run Mud OWR 
 MSND.                    0.00:  Run Mud Sand % 
 MSOL.                   17.60:  Run Mud Solids% 
 DFV .spqt               73.00:  Mud Viscosity 
 MWOD.in                  4.75:  MWD Tool OD 
 MWSI.                      No:  Serv Intrp, MWD 
 OTIM.hr                 85.66:  Time Operating 
 PCON.           Look Like New:  Pad Condition 
 PMAX.psia             6250.00:  Press Op, Max 
 PV  .cP                 65.00:  Mud PV 
 RUN .                     900:  Run Number 
 ROPA.m/hr               11.40:  ROP Avg 
 ROPN.m/hr                5.00:  ROP Min 
 ROPX.m/hr               20.00:  ROP Max 
 RPMA.rpm               130.00:  RPM Surface Avg 
 RPMN.rpm                40.00:  RPM Surface Min 
 RPMX.rpm               140.00:  RPM Surface Max 
 RRUN.                    L205:  Rig Run Number 
 RTIM.hr                  1.00:  Time Reaming 
 SAZI.deg               313.52:  Azm, Start 
 SDEP.m                4957.01:  Start Depth 
 SIDD.                      No:  Serv Intrp, DD 
 SINC.deg                73.16:  Inc, Start 
 SPPA.psig             5657.00:  SPP Avg 
 SPPN.psig             2500.00:  SPP Min 
 SPPX.psig             5806.00:  SPP Max 
 STIM.      07.12.00 05-Aug-20:  Start Time 
 SVCS.                 DD, MWD:  Services 
 SVER.                    9.20:  Sperry Version 
 TDAT.m                 243.00:  Tot Depth Attmp 
 TDDF.                      No:  Trip for DD 
 TDLG.m                 243.00:  Tot Depth Loggd 
 TFF .                      No:  Trip for Fail 
 TQAA.f-kp               13.00:  Torque Abs Avg 
 TQAN.f-kp               11.00:  Torque Abs Min 
 TQAX.f-kp               16.00:  Torque Abs Max 
 TRRT.°/30m               1.00:  Turn Rotating 
 MRT .                    HCIM:  Maximum Recorded Temperature 
 TTMX.degC               96.08:  Max Tool Temp 
 VS01.                90515411:  Virtual Str1 SN 
 VS02.                90512716:  Virtual Str2 SN 
 VS03.                90522362:  Virtual Str3 SN 
 VS04.                90619415:  Virtual Str4 SN 
 VS05.                90619414:  Virtual Str5 SN 
 VS06.                90597748:  Virtual Str6 SN 
 WBMN.klb                 2.00:  WOB Min 
 WITN.           Adil Mammadov:  Customer Rep 
 WITN.     Alexander Yadullayev:  Customer Rep 2 
 WOBA.klb                 7.00:  WOB Avg 
 WOBX.klb                23.00:  WOB Max 
 YP  .lhf2               37.00:  Yield Point 
~Curve Information Block
#MNEM.UNIT                 API CODE     Curve Description
#---------               -----------    ---------------------------
 TIME.HHMMSS            00 000 000 000:  GT Time & Date
 GTDEPTH.m              00 000 000 000:  GT Depth
 GTPQH.psia             00 000 000 000:  GT HR Quartz Pressure
 GTTQ.degC              00 000 000 000:  GT Quartz Temperature
 GTTN.NONE              00 000 000 000:  GT Test Number
 GTET.sec               00 000 000 000:  GT Elapsed Test Time
 GTTVD.m                00 000 000 000:  GT True Vertical Depth
#Other Information
#
#WARRANTY: Halliburton will use its best efforts to furnish customers with 
#accurate information and interpretations that are part of, and incident to, the services 
#provided.  However, Halliburton cannot and does not warrant the accuracy 
#or correctness of such information and interpretations.  Under no circumstances should any 
#such information or interpretation be relied upon as the sole basis for any drilling, 
#completion, production, or financial decision or any procedure involving any risk to the 
#safety of any drilling venture, drilling rig or its crew or any other third party.  The 
#Customer has full responsibility for all drilling, completion and production operation.  
#Halliburton makes no representations or warranties, either expressed or 
#implied, including, but not limited to, the implied warranties of merchantability or fitness 
#for a particular purpose, with respect to the services rendered.  In no event will 
#Halliburton be liable for failure to obtain any particular results or for 
#any damages, including, but not limited to, indirect, special or consequential damages, 
#resulting from the use of any information or interpretation provided by Halliburton.
#
~A           TIME           GTDEPTH  GTPQH  GTTQ  GTTN  GTET   GTTVD  
# ...
   15:02:03.585.06-Aug-2020 4947.01 5733.48 78.44 1.00 184.04 2630.94
   15:02:03.785.06-Aug-2020 4947.01 5733.48 78.44 1.00 184.24 2630.94
   15:02:03.986.06-Aug-2020 4947.01 5725.07 78.44 1.00 184.44 2630.94
   15:02:04.186.06-Aug-2020 4947.01 5728.69 78.44 1.00 184.64 2630.94
   15:02:04.386.06-Aug-2020 4947.01 5730.98 78.44 1.00 184.84 2630.94
   15:02:04.586.06-Aug-2020 4947.01 5731.58 78.44 1.00 185.04 2630.94
   15:02:04.786.06-Aug-2020 4947.01 5731.58 78.44 1.00 185.24 2630.94
   15:02:04.986.06-Aug-2020 4947.01 5727.30 78.44 1.00 185.44 2630.94
   15:02:05.186.06-Aug-2020 4947.01 5730.88 78.44 1.00 185.64 2630.94
   15:02:05.386.06-Aug-2020 4947.01 5732.52 78.44 1.00 185.84 2630.94
   15:02:05.586.06-Aug-2020 4947.01 5733.06 78.44 1.00 186.04 2630.94
   15:02:05.786.06-Aug-2020 4947.01 5733.06 78.44 1.00 186.24 2630.94
   15:02:05.986.06-Aug-2020 4947.01 5725.97 78.44 1.00 186.44 2630.94
   15:02:06.186.06-Aug-2020 4947.01 5730.46 78.43 1.00 186.64 2630.94
   15:02:06.386.06-Aug-2020 4947.01 5731.85 78.43 1.00 186.84 2630.94
   15:02:06.586.06-Aug-2020 4947.01 5732.28 78.43 1.00 187.04 2630.94
   15:02:06.786.06-Aug-2020 4947.01 5732.28 78.43 1.00 187.24 2630.94
   15:02:06.986.06-Aug-2020 4947.01 5732.39 78.43 1.00 187.44 2630.94
   15:02:07.186.06-Aug-2020 4947.01 5727.16 78.43 1.00 187.64 2630.94
   15:02:07.386.06-Aug-2020 4947.01 5727.24 78.43 1.00 187.84 2630.94
   15:02:07.586.06-Aug-2020 4947.01 5731.06 78.43 1.00 188.04 2630.94
   15:02:07.786.06-Aug-2020 4947.01 5731.06 78.43 1.00 188.24 2630.94
   15:02:07.986.06-Aug-2020 4947.01 5733.64 78.43 1.00 188.44 2630.94
   15:02:08.186.06-Aug-2020 4947.01 5733.60 78.43 1.00 188.64 2630.94
   15:02:08.386.06-Aug-2020 4947.01 5733.87 78.43 1.00 188.84 2630.94
   15:02:08.587.06-Aug-2020 4947.01 5734.49 78.43 1.00 189.04 2630.94
   15:02:08.787.06-Aug-2020 4947.01 5734.49 78.43 1.00 189.24 2630.94
   15:02:08.987.06-Aug-2020 4947.01 5734.28 78.43 1.00 189.44 2630.94
   15:02:09.187.06-Aug-2020 4947.01 5733.85 78.43 1.00 189.64 2630.94
   15:02:09.387.06-Aug-2020 4947.01 5733.00 78.43 1.00 189.84 2630.94
   15:02:09.587.06-Aug-2020 4947.01 5733.35 78.43 1.00 190.04 2630.94
   15:02:09.787.06-Aug-2020 4947.01 5733.35 78.43 1.00 190.24 2630.94
   15:02:09.987.06-Aug-2020 4947.01 5730.06 78.43 1.00 190.44 2630.94
   15:02:10.187.06-Aug-2020 4947.01 5732.33 78.43 1.00 190.64 2630.94
   15:02:10.387.06-Aug-2020 4947.01 5733.20 78.43 1.00 190.84 2630.94
   15:02:10.587.06-Aug-2020 4947.01 5733.07 78.43 1.00 191.04 2630.94
   15:02:10.787.06-Aug-2020 4947.01 5733.07 78.43 1.00 191.24 2630.94
   15:02:10.987.06-Aug-2020 4947.01 5734.02 78.43 1.00 191.44 2630.94
   15:02:11.187.06-Aug-2020 4947.01 5734.67 78.43 1.00 191.64 2630.94
   15:02:11.387.06-Aug-2020 4947.01 5734.98 78.43 1.00 191.84 2630.94
   15:02:11.587.06-Aug-2020 4947.01 5734.85 78.43 1.00 192.04 2630.94
   15:02:11.787.06-Aug-2020 4947.01 5734.85 78.43 1.00 192.24 2630.94
   15:02:11.987.06-Aug-2020 4947.01 5733.61 78.43 1.00 192.44 2630.94
   15:02:12.187.06-Aug-2020 4947.01 5733.00 78.43 1.00 192.64 2630.94
   15:02:12.387.06-Aug-2020 4947.01 5732.74 78.43 1.00 192.84 2630.94
   15:02:12.587.06-Aug-2020 4947.01 5731.87 78.43 1.00 193.04 2630.94
   15:02:12.787.06-Aug-2020 4947.01 5731.87 78.43 1.00 193.24 2630.94
   15:02:12.987.06-Aug-2020 4947.01 5729.02 78.43 1.00 193.44 2630.94
   15:02:13.187.06-Aug-2020 4947.01 5731.19 78.43 1.00 193.64 2630.94
   15:02:13.388.06-Aug-2020 4947.01 5731.95 78.43 1.00 193.84 2630.94
   15:02:13.588.06-Aug-2020 4947.01 5727.03 78.43 1.00 194.04 2630.94
   15:02:13.788.06-Aug-2020 4947.01 5727.03 78.43 1.00 194.24 2630.94
   15:02:13.988.06-Aug-2020 4947.01 5731.78 78.43 1.00 194.44 2630.94
   15:02:14.188.06-Aug-2020 4947.01 5733.22 78.43 1.00 194.64 2630.94
   15:02:14.388.06-Aug-2020 4947.01 5733.30 78.43 1.00 194.84 2630.94
   15:02:14.588.06-Aug-2020 4947.01 5732.11 78.43 1.00 195.04 2630.94
   15:02:14.788.06-Aug-2020 4947.01 5732.11 78.43 1.00 195.24 2630.94
   15:02:14.988.06-Aug-2020 4947.01 5729.14 78.43 1.00 195.44 2630.94
   15:02:15.188.06-Aug-2020 4947.01 5731.15 78.43 1.00 195.64 2630.94
   15:02:15.388.06-Aug-2020 4947.01 5731.76 78.43 1.00 195.84 2630.94
   15:02:15.588.06-Aug-2020 4947.01 5731.96 78.43 1.00 196.04 2630.94
   15:02:15.788.06-Aug-2020 4947.01 5731.96 78.43 1.00 196.24 2630.94
   15:02:15.988.06-Aug-2020 4947.01 5728.91 78.43 1.00 196.44 2630.94
   15:02:16.188.06-Aug-2020 4947.01 5731.16 78.43 1.00 196.64 2630.94
   15:02:16.388.06-Aug-2020 4947.01 5732.90 78.43 1.00 196.84 2630.94
   15:02:16.588.06-Aug-2020 4947.01 5733.74 78.42 1.00 197.04 2630.94
   15:02:16.788.06-Aug-2020 4947.01 5733.74 78.42 1.00 197.24 2630.94
   15:02:16.988.06-Aug-2020 4947.01 5733.52 78.42 1.00 197.44 2630.94
   15:02:17.188.06-Aug-2020 4947.01 5733.48 78.42 1.00 197.64 2630.94
   15:02:17.388.06-Aug-2020 4947.01 5733.91 78.42 1.00 197.84 2630.94
   15:02:17.588.06-Aug-2020 4947.01 5734.22 78.42 1.00 198.04 2630.94
   15:02:17.788.06-Aug-2020 4947.01 5734.22 78.42 1.00 198.24 2630.94
   15:02:17.989.06-Aug-2020 4947.01 5733.25 78.42 1.00 198.44 2630.94
   15:02:18.189.06-Aug-2020 4947.01 5732.48 78.42 1.00 198.64 2630.94
   15:02:18.389.06-Aug-2020 4947.01 5731.95 78.42 1.00 198.84 2630.94
   15:02:18.589.06-Aug-2020 4947.01 5725.56 78.42 1.00 199.04 2630.94
   15:02:18.789.06-Aug-2020 4947.01 5725.56 78.42 1.00 199.24 2630.94
   15:02:18.989.06-Aug-2020 4947.01 5731.97 78.42 1.00 199.44 2630.94
   15:02:19.189.06-Aug-2020 4947.01 5732.62 78.42 1.00 199.64 2630.94
   15:02:19.389.06-Aug-2020 4947.01 5732.30 78.42 1.00 199.84 2630.94
   15:02:19.589.06-Aug-2020 4947.01 5732.77 78.42 1.00 200.04 2630.94
   15:02:19.789.06-Aug-2020 4947.01 5732.77 78.42 1.00 200.24 2630.94
   15:02:19.989.06-Aug-2020 4947.01 5734.17 78.42 1.00 200.44 2630.94
   15:02:20.189.06-Aug-2020 4947.01 5734.36 78.42 1.00 200.64 2630.94
   15:02:20.389.06-Aug-2020 4947.01 5733.92 78.42 1.00 200.84 2630.94
   15:02:20.589.06-Aug-2020 4947.01 5733.23 78.42 1.00 201.04 2630.94
   15:02:20.789.06-Aug-2020 4947.01 5733.23 78.42 1.00 201.24 2630.94
   15:02:20.989.06-Aug-2020 4947.01 5732.30 78.42 1.00 201.44 2630.94
   15:02:21.189.06-Aug-2020 4947.01 5731.87 78.42 1.00 201.64 2630.94
   15:02:21.389.06-Aug-2020 4947.01 5725.35 78.42 1.00 201.84 2630.94
   15:02:21.589.06-Aug-2020 4947.01 5726.82 78.42 1.00 202.04 2630.94
   15:02:21.789.06-Aug-2020 4947.01 5726.82 78.42 1.00 202.24 2630.94
   15:02:21.989.06-Aug-2020 4947.01 5730.77 78.42 1.00 202.44 2630.94
   15:02:22.189.06-Aug-2020 4947.01 5724.67 78.42 1.00 202.64 2630.94
   15:02:22.389.06-Aug-2020 4947.01 5728.45 78.42 1.00 202.84 2630.94
   15:02:22.590.06-Aug-2020 4947.01 5732.26 78.42 1.00 203.04 2630.94
   15:02:22.790.06-Aug-2020 4947.01 5732.26 78.42 1.00 203.24 2630.94
   15:02:22.990.06-Aug-2020 4947.01 5733.88 78.42 1.00 203.44 2630.94
   15:02:23.190.06-Aug-2020 4947.01 5733.71 78.42 1.00 203.64 2630.94
   15:02:23.390.06-Aug-2020 4947.01 5727.11 78.42 1.00 203.84 2630.94
   15:02:23.590.06-Aug-2020 4947.01 5728.50 78.42 1.00 204.04 2630.94
   15:02:23.790.06-Aug-2020 4947.01 5728.50 78.42 1.00 204.24 2630.94
   15:02:23.990.06-Aug-2020 4947.01 5732.18 78.42 1.00 204.44 2630.94
   15:02:24.190.06-Aug-2020 4947.01 5732.37 78.42 1.00 204.64 2630.94
   15:02:24.390.06-Aug-2020 4947.01 5732.43 78.42 1.00 204.84 2630.94
   15:02:24.590.06-Aug-2020 4947.01 5727.07 78.42 1.00 205.04 2630.94
   15:02:24.790.06-Aug-2020 4947.01 5727.07 78.42 1.00 205.24 2630.94
   15:02:24.990.06-Aug-2020 4947.01 5731.08 78.42 1.00 205.44 2630.94
   15:02:25.190.06-Aug-2020 4947.01 5733.34 78.42 1.00 205.64 2630.94
   15:02:25.390.06-Aug-2020 4947.01 5733.89 78.42 1.00 205.84 2630.94
   15:02:25.590.06-Aug-2020 4947.01 5733.96 78.42 1.00 206.04 2630.94
   15:02:25.790.06-Aug-2020 4947.01 5733.96 78.42 1.00 206.24 2630.94
   15:02:25.990.06-Aug-2020 4947.01 5734.71 78.42 1.00 206.44 2630.94
   15:02:26.190.06-Aug-2020 4947.01 5734.86 78.42 1.00 206.64 2630.94
   15:02:26.390.06-Aug-2020 4947.01 5734.83 78.42 1.00 206.84 2630.94
