~Version Information
 VERS.                  2.0:   CWLS log ASCII Standard -VERSION 2.0
 WRAP.                   NO:   One line per depth step
~Well Information Block
#MNEM.UNIT     VALUE/NAME     DESCRIPTION
#---------     -----------    ---------------------------
 STRT.S             03:58:24 07-Aug-20: START TIME 03:58:24 07-Aug-20
 STOP.S             04:06:16 07-Aug-20: STOP TIME  04:06:16 07-Aug-20
 STEP.S                   0.00: STEP TIME
 NULL.                 -999.25: NULL VALUE
 DFWT.                        :  DIST FWL TEXT
 DFST.                        :  DIST FSL TEXT
 DMF .             Drill Floor:  DRILL MEAS FROM
 STIM.      12.00.00 03-Jul-20:  START TIME
 DATE.      00.50.00 09-Aug-20:  END TIME
 SPUD.               03-Jul-20:  SPUD DATE
 NREF.                    Grid:  NORTH REFERENCE
 HPTY.       Minimum Curvature:  HOLE POS TYPE
 DMOD.             Drill Model:  DRILL MOD DESC
 SVYD.                  Survey:  SURVEY DESC
 ILTD.               Lithology:  INTERP LTH DESC
 FTOP.          Formation Tops:  FORM TOPS DESC
 PDAT.          Mean Sea Level:  PERMANENT DATUM
 FLD .                     ACG:  FIELD NAME
 CTRY.              Azerbaijan:  COUNTRY NAME
 WELL.                    E04x:  WELL NAME
 SRVC.          Turan Drilling:  CONTRACTOR
 COMP.     BP Exploration (Caspian Sea) Ltd.:  COMPANY
 SON .        AZ-XX-0906531346:  JOB NUMBER
 WTYP.                Deviated:  WELL TYPE
 MDS .        Operator Entered:  MAG DATA SOURCE
 UWI .                     N/A:  UNIQUE WELL IDENTIFIER
 API .                     N/A:  API NUMBER
 BASE.              Azerbaijan:  LOGGING EQUIPMENT BASE LOCATION
 REGN.                   EESSA:  REGION
 PROV.                    Baku:  PROVINCE
 STAT.                    Baku:  STATE NAME
 MWDS.                    Baku:  MWD SHOP
 JOBN.        AZ-XX-0906531346:  JOB TICKET NUMB
 RIG .                     DWG:  RIG NAME
 DOE .                     N/A:  DOE NUMBER
 DCON.         Sperry Drilling:  DIRECTNL CONTR
 UNIT.                     N/A:  LOGGING EQUIPMENT ID
 CNTY.                        :  COUNTY
 LOC .                        :  LOCATION
 LMF .             Drill Floor:  LOG MEASURED FROM
 TVDS.m                  43.16:  TVDSS CORRECTN
 LATI.deg                40.17:  LATITUDE
 LONG.deg                51.17:  LONGITUDE
 WHNS.m                  -0.12:  WELL HEAD N/S
 WHEW.m                  -5.41:  WELL HEAD E/W
 UTMX.m              514337.95:  UTM X
 UTMY.m             4448627.46:  UTM Y
 DFWL.m                   0.00:  DISTANCE FWL
 DFSL.m                   0.00:  DISTANCE FSL
 SDEP.m                3088.01:  START DEPTH
 TDD .m                5200.01:  TOTAL DEPTH (DRILLER)
 VSDR.deg               244.51:  VERT SEC DIRECT
 GVFD.g                   1.00:  GRAVITY FIELD
 MFLD.nT              50329.80:  MAGNETIC FIELD
 MDIP.deg                59.63:  MAGNETIC DIP
 MDEC.deg                 6.59:  MAGNETIC DECL
 GRDC.deg                 0.09:  GRID CORRECTION
 AZTC.deg                 6.50:  AZM TOTAL CORR
 EPD .m                   0.00:  ELEVATION
 EGL .m                   0.00:  GROUND ELEVATION
 WDMS.m                 176.20:  WD ELEV
 APD .m                  43.16:  DEPTH ABOVE PD
 DEP .m                3084.71:  DEPTH
 AGAP.m                  43.16:  AIR GAP
 VSEW.m                  -5.41:  VERT SEC E/W
 VSNS.m                  -0.12:  VERT SEC N/S
 EKB .m                   0.00:  KB ELEVATION
 EDF .m                  43.16:  DF ELEVATION
 TDL .m                 243.00:  TOTAL DEPTH (LOGGER)
 VSC .                       0:  VS TO CLOSURE
 MAGU.                 1853542:  MAGUTM CHECKSUM
~Parameter Information Block
#MNEM.UNIT       Value        Description
#---------     -----------    ---------------------------
 AV  .mps                 1.91:  Ann Velocity 
 AVMX.mps                 2.52:  Max Ann Veloc 
 AZIF.deg               308.97:  Azm, Final 
 BHAT.        Rotary Steerable:  BHA Type 
 BROT.°/30m               1.00:  Build Rotating 
 BS  .in                  6.50:  Bit Size 
 BSZ .in                  6.50:  Bit Size 
 BTPL.psig              350.00:  Bit Press Loss 
 CABU.                      No:  Customer Abuse 
 CGEO.           Asif Pashayev:  Customer Geo 
 TCS .hr                 35.86:  Time Ciculation Ended 
 CV  .mps                 2.31:  Crit Velocity 
 CVMX.mps                 2.31:  Max Crit Veloc 
 DD1 .         Intigam Rahimov:  Direct Drillr 1 
 DDSV.               Geo-Pilot:  DD Service 
 DEFF.%                  92.00:  % Det Eff 
 DLRX.°/30m               1.00:  Dogleg Rot Max 
 DLSO.°/30m               1.00:  Dogleg Oriented 
 DLSX.°/30m               1.42:  Dogleg Str Max 
 DRET.      15.50.00 07-Aug-20:  Drill End Time 
 DRST.      10.40.00 06-Aug-20:  Drill Start Tim 
 DTIM.hr                 21.30:  Time Drilling 
 EDEP.m                5200.01:  End Depth 
 ENG1.            Alan Tuganov:  Engineer 1 
 ENG2.         Almaz Almadatov:  Engineer 2 
 ENG3.     Zammelal Abdullah Sani:  Engineer 3 
 ETIM.      22.42.00 08-Aug-20:  End Time 
 FLOI.gpm               395.00:  Flow In 
 FLON.gpm               350.00:  Flow In Min 
 FLOS.cptm                0.00:  Fluid Loss 
 FLOX.gpm               404.00:  Flow In Max 
 FTRO.       Formation Presure:  FTWD Run Obj 
 HFLO.                      No:  High Flow 
 HPRE.                      No:  High Pressure 
 HTEM.                      No:  High Temp 
 HYDO.m                   1.80:  Hydro Offset 
 IFIN.deg                72.64:  Inc, Final 
 IMAX.deg                73.68:  Inc Max 
 IMIN.deg                72.64:  Inc Min 
 IMND.m                5189.69:  Inc Min Depth 
 IMXD.m                5067.88:  Inc Max Depth 
 JARR.                      No:  Jarring 
 LETM.      15.50.00 07-Aug-20:  Log End Time 
 LOST.hr                     0:  Lost Rig Time 
 LSTM.      10.40.00 06-Aug-20:  Log Start Time 
 MDCL.ppm             36000.00:  Mud Chlorides 
 MDES.     Inversion Oil/Synthetic:  Mud Desc 
 DFD .sg                  1.36:  Mud Density 
 MDMN.sg                  1.36:  Dens Mud Min 
 MDMX.sg                  1.36:  Dens Mud Max 
 MOIL.                      70:  Run Mud Oil % 
 MOWR.                   70:30:  Run Mud OWR 
 MSND.                    0.00:  Run Mud Sand % 
 MSOL.                   17.60:  Run Mud Solids% 
 DFV .spqt               73.00:  Mud Viscosity 
 MWOD.in                  4.75:  MWD Tool OD 
 MWSI.                      No:  Serv Intrp, MWD 
 OTIM.hr                 85.66:  Time Operating 
 PCON.           Look Like New:  Pad Condition 
 PMAX.psia             6250.00:  Press Op, Max 
 PV  .cP                 65.00:  Mud PV 
 RUN .                     900:  Run Number 
 ROPA.m/hr               11.40:  ROP Avg 
 ROPN.m/hr                5.00:  ROP Min 
 ROPX.m/hr               20.00:  ROP Max 
 RPMA.rpm               130.00:  RPM Surface Avg 
 RPMN.rpm                40.00:  RPM Surface Min 
 RPMX.rpm               140.00:  RPM Surface Max 
 RRUN.                    L205:  Rig Run Number 
 RTIM.hr                  1.00:  Time Reaming 
 SAZI.deg               313.52:  Azm, Start 
 SDEP.m                4957.01:  Start Depth 
 SIDD.                      No:  Serv Intrp, DD 
 SINC.deg                73.16:  Inc, Start 
 SPPA.psig             5657.00:  SPP Avg 
 SPPN.psig             2500.00:  SPP Min 
 SPPX.psig             5806.00:  SPP Max 
 STIM.      07.12.00 05-Aug-20:  Start Time 
 SVCS.                 DD, MWD:  Services 
 SVER.                    9.20:  Sperry Version 
 TDAT.m                 243.00:  Tot Depth Attmp 
 TDDF.                      No:  Trip for DD 
 TDLG.m                 243.00:  Tot Depth Loggd 
 TFF .                      No:  Trip for Fail 
 TQAA.f-kp               13.00:  Torque Abs Avg 
 TQAN.f-kp               11.00:  Torque Abs Min 
 TQAX.f-kp               16.00:  Torque Abs Max 
 TRRT.°/30m               1.00:  Turn Rotating 
 MRT .                    HCIM:  Maximum Recorded Temperature 
 TTMX.degC               96.08:  Max Tool Temp 
 VS01.                90515411:  Virtual Str1 SN 
 VS02.                90512716:  Virtual Str2 SN 
 VS03.                90522362:  Virtual Str3 SN 
 VS04.                90619415:  Virtual Str4 SN 
 VS05.                90619414:  Virtual Str5 SN 
 VS06.                90597748:  Virtual Str6 SN 
 WBMN.klb                 2.00:  WOB Min 
 WITN.           Adil Mammadov:  Customer Rep 
 WITN.     Alexander Yadullayev:  Customer Rep 2 
 WOBA.klb                 7.00:  WOB Avg 
 WOBX.klb                23.00:  WOB Max 
 YP  .lhf2               37.00:  Yield Point 
~Curve Information Block
#MNEM.UNIT                 API CODE     Curve Description
#---------               -----------    ---------------------------
 TIME.HHMMSS            00 000 000 000:  GT Time & Date
 GTDEPTH.m              00 000 000 000:  GT Depth
 GTPQH.psia             00 000 000 000:  GT HR Quartz Pressure
 GTTQ.degC              00 000 000 000:  GT Quartz Temperature
 GTTN.NONE              00 000 000 000:  GT Test Number
 GTET.sec               00 000 000 000:  GT Elapsed Test Time
 GTTVD.m                00 000 000 000:  GT True Vertical Depth
#Other Information
#
#WARRANTY: Halliburton will use its best efforts to furnish customers with 
#accurate information and interpretations that are part of, and incident to, the services 
#provided.  However, Halliburton cannot and does not warrant the accuracy 
#or correctness of such information and interpretations.  Under no circumstances should any 
#such information or interpretation be relied upon as the sole basis for any drilling, 
#completion, production, or financial decision or any procedure involving any risk to the 
#safety of any drilling venture, drilling rig or its crew or any other third party.  The 
#Customer has full responsibility for all drilling, completion and production operation.  
#Halliburton makes no representations or warranties, either expressed or 
#implied, including, but not limited to, the implied warranties of merchantability or fitness 
#for a particular purpose, with respect to the services rendered.  In no event will 
#Halliburton be liable for failure to obtain any particular results or for 
#any damages, including, but not limited to, indirect, special or consequential damages, 
#resulting from the use of any information or interpretation provided by Halliburton.
#
~A           TIME           GTDEPTH  GTPQH  GTTQ  GTTN  GTET   GTTVD  
# ...
   04:06:04.384.07-Aug-2020 5060.51 5843.15 86.93 7.00 460.11 2663.65
   04:06:04.584.07-Aug-2020 5060.51 5843.15 86.93 7.00 460.31 2663.65
   04:06:04.784.07-Aug-2020 5060.51 5839.13 86.93 7.00 460.51 2663.65
   04:06:04.984.07-Aug-2020 5060.51 5839.81 86.93 7.00 460.71 2663.65
   04:06:05.184.07-Aug-2020 5060.51 5837.09 86.93 7.00 460.91 2663.65
   04:06:05.384.07-Aug-2020 5060.51 5840.59 86.93 7.00 461.11 2663.65
   04:06:05.585.07-Aug-2020 5060.51 5840.59 86.93 7.00 461.31 2663.65
   04:06:05.785.07-Aug-2020 5060.51 5839.45 86.93 7.00 461.51 2663.65
   04:06:05.985.07-Aug-2020 5060.51 5841.72 86.93 7.00 461.71 2663.65
   04:06:06.185.07-Aug-2020 5060.51 5839.57 86.93 7.00 461.91 2663.65
   04:06:06.385.07-Aug-2020 5060.51 5841.64 86.93 7.00 462.11 2663.65
   04:06:06.585.07-Aug-2020 5060.51 5841.64 86.93 7.00 462.31 2663.65
   04:06:06.785.07-Aug-2020 5060.51 5841.27 86.92 7.00 462.51 2663.65
   04:06:06.985.07-Aug-2020 5060.51 5839.23 86.92 7.00 462.71 2663.65
   04:06:07.185.07-Aug-2020 5060.51 5840.68 86.92 7.00 462.91 2663.65
   04:06:07.385.07-Aug-2020 5060.51 5839.19 86.92 7.00 463.11 2663.65
   04:06:07.585.07-Aug-2020 5060.51 5839.19 86.92 7.00 463.31 2663.65
   04:06:07.785.07-Aug-2020 5060.51 5842.43 86.92 7.00 463.51 2663.65
   04:06:07.985.07-Aug-2020 5060.51 5833.99 86.92 7.00 463.71 2663.65
   04:06:08.185.07-Aug-2020 5060.51 5840.50 86.92 7.00 463.91 2663.65
   04:06:08.385.07-Aug-2020 5060.51 5838.58 86.92 7.00 464.11 2663.65
   04:06:08.585.07-Aug-2020 5060.51 5838.58 86.92 7.00 464.31 2663.65
   04:06:08.785.07-Aug-2020 5060.51 5842.67 86.92 7.00 464.51 2663.65
   04:06:08.985.07-Aug-2020 5060.51 5834.04 86.92 7.00 464.71 2663.65
   04:06:09.185.07-Aug-2020 5060.51 5839.53 86.92 7.00 464.91 2663.65
   04:06:09.385.07-Aug-2020 5060.51 5839.82 86.92 7.00 465.11 2663.65
   04:06:09.585.07-Aug-2020 5060.51 5839.82 86.92 7.00 465.31 2663.65
   04:06:09.786.07-Aug-2020 5060.51 5832.44 86.92 7.00 465.51 2663.65
   04:06:09.986.07-Aug-2020 5060.51 5840.76 86.92 7.00 465.71 2663.65
   04:06:10.186.07-Aug-2020 5060.51 5834.42 86.92 7.00 465.91 2663.65
   04:06:10.386.07-Aug-2020 5060.51 5829.10 86.92 7.00 466.11 2663.65
   04:06:10.586.07-Aug-2020 5060.51 5829.10 86.92 7.00 466.31 2663.65
   04:06:10.786.07-Aug-2020 5060.51 5836.26 86.92 7.00 466.51 2663.65
   04:06:10.986.07-Aug-2020 5060.51 5838.65 86.92 7.00 466.71 2663.65
   04:06:11.186.07-Aug-2020 5060.51 5838.25 86.92 7.00 466.91 2663.65
   04:06:11.386.07-Aug-2020 5060.51 5839.29 86.92 7.00 467.11 2663.65
   04:06:11.586.07-Aug-2020 5060.51 5839.29 86.92 7.00 467.31 2663.65
   04:06:11.786.07-Aug-2020 5060.51 5841.70 86.91 7.00 467.51 2663.65
   04:06:11.986.07-Aug-2020 5060.51 5840.09 86.91 7.00 467.71 2663.65
   04:06:12.186.07-Aug-2020 5060.51 5841.73 86.91 7.00 467.91 2663.65
   04:06:12.386.07-Aug-2020 5060.51 5840.37 86.91 7.00 468.11 2663.65
   04:06:12.586.07-Aug-2020 5060.51 5840.37 86.91 7.00 468.31 2663.65
   04:06:12.786.07-Aug-2020 5060.51 5841.55 86.91 7.00 468.51 2663.65
   04:06:12.986.07-Aug-2020 5060.51 5840.31 86.91 7.00 468.71 2663.65
   04:06:13.186.07-Aug-2020 5060.51 5835.58 86.91 7.00 468.91 2663.65
   04:06:13.386.07-Aug-2020 5060.51 5841.57 86.91 7.00 469.11 2663.65
   04:06:13.586.07-Aug-2020 5060.51 5841.57 86.91 7.00 469.31 2663.65
   04:06:13.786.07-Aug-2020 5060.51 5840.41 86.91 7.00 469.51 2663.65
   04:06:13.987.07-Aug-2020 5060.51 5839.70 86.91 7.00 469.71 2663.65
   04:06:14.187.07-Aug-2020 5060.51 5839.15 86.91 7.00 469.91 2663.65
   04:06:14.387.07-Aug-2020 5060.51 5841.11 86.91 7.00 470.11 2663.65
   04:06:14.587.07-Aug-2020 5060.51 5841.11 86.91 7.00 470.31 2663.65
   04:06:14.787.07-Aug-2020 5060.51 5841.78 86.91 7.00 470.51 2663.65
   04:06:14.987.07-Aug-2020 5060.51 5839.18 86.91 7.00 470.71 2663.65
   04:06:15.187.07-Aug-2020 5060.51 5842.00 86.91 7.00 470.91 2663.65
   04:06:15.387.07-Aug-2020 5060.51 5839.02 86.91 7.00 471.11 2663.65
   04:06:15.587.07-Aug-2020 5060.51 5839.02 86.91 7.00 471.31 2663.65
   04:06:15.787.07-Aug-2020 5060.51 5838.53 86.91 7.00 471.51 2663.65
   04:06:15.987.07-Aug-2020 5060.51 5831.99 86.91 7.00 471.71 2663.65
   04:06:16.187.07-Aug-2020 5060.51 5841.48 86.91 7.00 471.91 2663.65
