~Version Information
 VERS.                  2.0:   CWLS log ASCII Standard -VERSION 2.0
 WRAP.                   NO:   One line per depth step
~Well Information Block
#MNEM.UNIT     VALUE/NAME     DESCRIPTION
#---------     -----------    ---------------------------
 STRT.S             01:47:02 07-Aug-20: START TIME 01:47:02 07-Aug-20
 STOP.S             01:54:54 07-Aug-20: STOP TIME  01:54:54 07-Aug-20
 STEP.S                   0.00: STEP TIME
 NULL.                 -999.25: NULL VALUE
 DFWT.                        :  DIST FWL TEXT
 DFST.                        :  DIST FSL TEXT
 DMF .             Drill Floor:  DRILL MEAS FROM
 STIM.      12.00.00 03-Jul-20:  START TIME
 DATE.      00.50.00 09-Aug-20:  END TIME
 SPUD.               03-Jul-20:  SPUD DATE
 NREF.                    Grid:  NORTH REFERENCE
 HPTY.       Minimum Curvature:  HOLE POS TYPE
 DMOD.             Drill Model:  DRILL MOD DESC
 SVYD.                  Survey:  SURVEY DESC
 ILTD.               Lithology:  INTERP LTH DESC
 FTOP.          Formation Tops:  FORM TOPS DESC
 PDAT.          Mean Sea Level:  PERMANENT DATUM
 FLD .                     ACG:  FIELD NAME
 CTRY.              Azerbaijan:  COUNTRY NAME
 WELL.                    E04x:  WELL NAME
 SRVC.          Turan Drilling:  CONTRACTOR
 COMP.     BP Exploration (Caspian Sea) Ltd.:  COMPANY
 SON .        AZ-XX-0906531346:  JOB NUMBER
 WTYP.                Deviated:  WELL TYPE
 MDS .        Operator Entered:  MAG DATA SOURCE
 UWI .                     N/A:  UNIQUE WELL IDENTIFIER
 API .                     N/A:  API NUMBER
 BASE.              Azerbaijan:  LOGGING EQUIPMENT BASE LOCATION
 REGN.                   EESSA:  REGION
 PROV.                    Baku:  PROVINCE
 STAT.                    Baku:  STATE NAME
 MWDS.                    Baku:  MWD SHOP
 JOBN.        AZ-XX-0906531346:  JOB TICKET NUMB
 RIG .                     DWG:  RIG NAME
 DOE .                     N/A:  DOE NUMBER
 DCON.         Sperry Drilling:  DIRECTNL CONTR
 UNIT.                     N/A:  LOGGING EQUIPMENT ID
 CNTY.                        :  COUNTY
 LOC .                        :  LOCATION
 LMF .             Drill Floor:  LOG MEASURED FROM
 TVDS.m                  43.16:  TVDSS CORRECTN
 LATI.deg                40.17:  LATITUDE
 LONG.deg                51.17:  LONGITUDE
 WHNS.m                  -0.12:  WELL HEAD N/S
 WHEW.m                  -5.41:  WELL HEAD E/W
 UTMX.m              514337.95:  UTM X
 UTMY.m             4448627.46:  UTM Y
 DFWL.m                   0.00:  DISTANCE FWL
 DFSL.m                   0.00:  DISTANCE FSL
 SDEP.m                3088.01:  START DEPTH
 TDD .m                5200.01:  TOTAL DEPTH (DRILLER)
 VSDR.deg               244.51:  VERT SEC DIRECT
 GVFD.g                   1.00:  GRAVITY FIELD
 MFLD.nT              50329.80:  MAGNETIC FIELD
 MDIP.deg                59.63:  MAGNETIC DIP
 MDEC.deg                 6.59:  MAGNETIC DECL
 GRDC.deg                 0.09:  GRID CORRECTION
 AZTC.deg                 6.50:  AZM TOTAL CORR
 EPD .m                   0.00:  ELEVATION
 EGL .m                   0.00:  GROUND ELEVATION
 WDMS.m                 176.20:  WD ELEV
 APD .m                  43.16:  DEPTH ABOVE PD
 DEP .m                3084.71:  DEPTH
 AGAP.m                  43.16:  AIR GAP
 VSEW.m                  -5.41:  VERT SEC E/W
 VSNS.m                  -0.12:  VERT SEC N/S
 EKB .m                   0.00:  KB ELEVATION
 EDF .m                  43.16:  DF ELEVATION
 TDL .m                 243.00:  TOTAL DEPTH (LOGGER)
 VSC .                       0:  VS TO CLOSURE
 MAGU.                 1853542:  MAGUTM CHECKSUM
~Parameter Information Block
#MNEM.UNIT       Value        Description
#---------     -----------    ---------------------------
 AV  .mps                 1.91:  Ann Velocity 
 AVMX.mps                 2.52:  Max Ann Veloc 
 AZIF.deg               308.97:  Azm, Final 
 BHAT.        Rotary Steerable:  BHA Type 
 BROT.°/30m               1.00:  Build Rotating 
 BS  .in                  6.50:  Bit Size 
 BSZ .in                  6.50:  Bit Size 
 BTPL.psig              350.00:  Bit Press Loss 
 CABU.                      No:  Customer Abuse 
 CGEO.           Asif Pashayev:  Customer Geo 
 COMM.                     Ô¿r:  Run Comments 1 
 TCS .hr                 35.86:  Time Ciculation Ended 
 CV  .mps                 2.31:  Crit Velocity 
 CVMX.mps                 2.31:  Max Crit Veloc 
 DD1 .         Intigam Rahimov:  Direct Drillr 1 
 DDSV.               Geo-Pilot:  DD Service 
 DEFF.%                  92.00:  % Det Eff 
 DLRX.°/30m               1.00:  Dogleg Rot Max 
 DLSO.°/30m               1.00:  Dogleg Oriented 
 DLSX.°/30m               1.42:  Dogleg Str Max 
 DRET.      15.50.00 07-Aug-20:  Drill End Time 
 DRST.      10.40.00 06-Aug-20:  Drill Start Tim 
 DTIM.hr                 21.30:  Time Drilling 
 EDEP.m                5200.01:  End Depth 
 ENG1.            Alan Tuganov:  Engineer 1 
 ENG2.         Almaz Almadatov:  Engineer 2 
 ENG3.     Zammelal Abdullah Sani:  Engineer 3 
 ETIM.      22.42.00 08-Aug-20:  End Time 
 FLOI.gpm               395.00:  Flow In 
 FLON.gpm               350.00:  Flow In Min 
 FLOS.cptm                0.00:  Fluid Loss 
 FLOX.gpm               404.00:  Flow In Max 
 FTRO.       Formation Presure:  FTWD Run Obj 
 HFLO.                      No:  High Flow 
 HPRE.                      No:  High Pressure 
 HTEM.                      No:  High Temp 
 HYDO.m                   1.80:  Hydro Offset 
 IFIN.deg                72.64:  Inc, Final 
 IMAX.deg                73.68:  Inc Max 
 IMIN.deg                72.64:  Inc Min 
 IMND.m                5189.69:  Inc Min Depth 
 IMXD.m                5067.88:  Inc Max Depth 
 JARR.                      No:  Jarring 
 LETM.      15.50.00 07-Aug-20:  Log End Time 
 LOST.hr                     0:  Lost Rig Time 
 LSTM.      10.40.00 06-Aug-20:  Log Start Time 
 MDCL.ppm             36000.00:  Mud Chlorides 
 MDES.     Inversion Oil/Synthetic:  Mud Desc 
 DFD .sg                  1.36:  Mud Density 
 MDMN.sg                  1.36:  Dens Mud Min 
 MDMX.sg                  1.36:  Dens Mud Max 
 MOIL.                      70:  Run Mud Oil % 
 MOWR.                   70:30:  Run Mud OWR 
 MSND.                    0.00:  Run Mud Sand % 
 MSOL.                   17.60:  Run Mud Solids% 
 DFV .spqt               73.00:  Mud Viscosity 
 MWOD.in                  4.75:  MWD Tool OD 
 MWSI.                      No:  Serv Intrp, MWD 
 OTIM.hr                 85.66:  Time Operating 
 PCON.           Look Like New:  Pad Condition 
 PMAX.psia             6250.00:  Press Op, Max 
 PV  .cP                 65.00:  Mud PV 
 RUN .                     900:  Run Number 
 ROPA.m/hr               11.40:  ROP Avg 
 ROPN.m/hr                5.00:  ROP Min 
 ROPX.m/hr               20.00:  ROP Max 
 RPMA.rpm               130.00:  RPM Surface Avg 
 RPMN.rpm                40.00:  RPM Surface Min 
 RPMX.rpm               140.00:  RPM Surface Max 
 RRUN.                    L205:  Rig Run Number 
 RTIM.hr                  1.00:  Time Reaming 
 SAZI.deg               313.52:  Azm, Start 
 SDEP.m                4957.01:  Start Depth 
 SIDD.                      No:  Serv Intrp, DD 
 SINC.deg                73.16:  Inc, Start 
 SPPA.psig             5657.00:  SPP Avg 
 SPPN.psig             2500.00:  SPP Min 
 SPPX.psig             5806.00:  SPP Max 
 STIM.      07.12.00 05-Aug-20:  Start Time 
 SVCS.                 DD, MWD:  Services 
 SVER.                    9.20:  Sperry Version 
 TDAT.m                 243.00:  Tot Depth Attmp 
 TDDF.                      No:  Trip for DD 
 TDLG.m                 243.00:  Tot Depth Loggd 
 TFF .                      No:  Trip for Fail 
 TQAA.f-kp               13.00:  Torque Abs Avg 
 TQAN.f-kp               11.00:  Torque Abs Min 
 TQAX.f-kp               16.00:  Torque Abs Max 
 TRRT.°/30m               1.00:  Turn Rotating 
 MRT .                    HCIM:  Maximum Recorded Temperature 
 TTMX.degC               96.08:  Max Tool Temp 
 VS01.                90515411:  Virtual Str1 SN 
 VS02.                90512716:  Virtual Str2 SN 
 VS03.                90522362:  Virtual Str3 SN 
 VS04.                90619415:  Virtual Str4 SN 
 VS05.                90619414:  Virtual Str5 SN 
 VS06.                90597748:  Virtual Str6 SN 
 WBMN.klb                 2.00:  WOB Min 
 WITN.           Adil Mammadov:  Customer Rep 
 WITN.     Alexander Yadullayev:  Customer Rep 2 
 WOBA.klb                 7.00:  WOB Avg 
 WOBX.klb                23.00:  WOB Max 
 YP  .lhf2               37.00:  Yield Point 
~Curve Information Block
#MNEM.UNIT                 API CODE     Curve Description
#---------               -----------    ---------------------------
 TIME.HHMMSS            00 000 000 000:  GT Time & Date
 GTDEPTH.m              00 000 000 000:  GT Depth
 GTPQH.psia             00 000 000 000:  GT HR Quartz Pressure
 GTTQ.degC              00 000 000 000:  GT Quartz Temperature
 GTTN.NONE              00 000 000 000:  GT Test Number
 GTET.sec               00 000 000 000:  GT Elapsed Test Time
 GTTVD.m                00 000 000 000:  GT True Vertical Depth
#Other Information
#
#WARRANTY: Halliburton will use its best efforts to furnish customers with 
#accurate information and interpretations that are part of, and incident to, the services 
#provided.  However, Halliburton cannot and does not warrant the accuracy 
#or correctness of such information and interpretations.  Under no circumstances should any 
#such information or interpretation be relied upon as the sole basis for any drilling, 
#completion, production, or financial decision or any procedure involving any risk to the 
#safety of any drilling venture, drilling rig or its crew or any other third party.  The 
#Customer has full responsibility for all drilling, completion and production operation.  
#Halliburton makes no representations or warranties, either expressed or 
#implied, including, but not limited to, the implied warranties of merchantability or fitness 
#for a particular purpose, with respect to the services rendered.  In no event will 
#Halliburton be liable for failure to obtain any particular results or for 
#any damages, including, but not limited to, indirect, special or consequential damages, 
#resulting from the use of any information or interpretation provided by Halliburton.
#
~A           TIME           GTDEPTH  GTPQH  GTTQ  GTTN  GTET   GTTVD  
# ...
   01:54:42.529.07-Aug-2020 5042.01 5832.63 85.05 6.00 460.11 2658.32
   01:54:42.729.07-Aug-2020 5042.01 5832.63 85.05 6.00 460.31 2658.32
   01:54:42.929.07-Aug-2020 5042.01 5832.69 85.05 6.00 460.51 2658.32
   01:54:43.129.07-Aug-2020 5042.01 5833.00 85.05 6.00 460.71 2658.32
   01:54:43.329.07-Aug-2020 5042.01 5833.04 85.05 6.00 460.91 2658.32
   01:54:43.529.07-Aug-2020 5042.01 5832.77 85.05 6.00 461.11 2658.32
   01:54:43.729.07-Aug-2020 5042.01 5832.77 85.05 6.00 461.31 2658.32
   01:54:43.929.07-Aug-2020 5042.01 5835.26 85.05 6.00 461.51 2658.32
   01:54:44.129.07-Aug-2020 5042.01 5825.85 85.05 6.00 461.71 2658.32
   01:54:44.329.07-Aug-2020 5042.01 5832.57 85.05 6.00 461.91 2658.32
   01:54:44.529.07-Aug-2020 5042.01 5829.75 85.05 6.00 462.11 2658.32
   01:54:44.729.07-Aug-2020 5042.01 5829.75 85.05 6.00 462.31 2658.32
   01:54:44.929.07-Aug-2020 5042.01 5830.09 85.05 6.00 462.51 2658.32
   01:54:45.129.07-Aug-2020 5042.01 5830.76 85.05 6.00 462.71 2658.32
   01:54:45.329.07-Aug-2020 5042.01 5831.12 85.05 6.00 462.91 2658.32
   01:54:45.530.07-Aug-2020 5042.01 5831.41 85.05 6.00 463.11 2658.32
   01:54:45.730.07-Aug-2020 5042.01 5831.41 85.05 6.00 463.31 2658.32
   01:54:45.930.07-Aug-2020 5042.01 5831.12 85.04 6.00 463.51 2658.32
   01:54:46.130.07-Aug-2020 5042.01 5830.75 85.04 6.00 463.71 2658.32
   01:54:46.330.07-Aug-2020 5042.01 5830.52 85.04 6.00 463.91 2658.32
   01:54:46.530.07-Aug-2020 5042.01 5819.30 85.04 6.00 464.11 2658.32
   01:54:46.730.07-Aug-2020 5042.01 5819.30 85.04 6.00 464.31 2658.32
   01:54:46.930.07-Aug-2020 5042.01 5824.60 85.04 6.00 464.51 2658.32
   01:54:47.130.07-Aug-2020 5042.01 5830.29 85.04 6.00 464.71 2658.32
   01:54:47.330.07-Aug-2020 5042.01 5827.87 85.04 6.00 464.91 2658.32
   01:54:47.530.07-Aug-2020 5042.01 5828.46 85.04 6.00 465.11 2658.32
   01:54:47.730.07-Aug-2020 5042.01 5828.46 85.04 6.00 465.31 2658.32
   01:54:47.930.07-Aug-2020 5042.01 5828.49 85.04 6.00 465.51 2658.32
   01:54:48.130.07-Aug-2020 5042.01 5828.98 85.04 6.00 465.71 2658.32
   01:54:48.330.07-Aug-2020 5042.01 5830.63 85.04 6.00 465.91 2658.32
   01:54:48.530.07-Aug-2020 5042.01 5829.68 85.04 6.00 466.11 2658.32
   01:54:48.730.07-Aug-2020 5042.01 5829.68 85.04 6.00 466.31 2658.32
   01:54:48.930.07-Aug-2020 5042.01 5833.02 85.04 6.00 466.51 2658.32
   01:54:49.130.07-Aug-2020 5042.01 5824.57 85.04 6.00 466.71 2658.32
   01:54:49.330.07-Aug-2020 5042.01 5831.75 85.04 6.00 466.91 2658.32
   01:54:49.530.07-Aug-2020 5042.01 5829.47 85.04 6.00 467.11 2658.32
   01:54:49.731.07-Aug-2020 5042.01 5829.47 85.04 6.00 467.31 2658.32
   01:54:49.931.07-Aug-2020 5042.01 5835.00 85.04 6.00 467.51 2658.32
   01:54:50.131.07-Aug-2020 5042.01 5824.47 85.04 6.00 467.71 2658.32
   01:54:50.331.07-Aug-2020 5042.01 5832.64 85.04 6.00 467.91 2658.32
   01:54:50.531.07-Aug-2020 5042.01 5829.82 85.04 6.00 468.11 2658.32
   01:54:50.731.07-Aug-2020 5042.01 5829.82 85.04 6.00 468.31 2658.32
   01:54:50.931.07-Aug-2020 5042.01 5831.86 85.04 6.00 468.51 2658.32
   01:54:51.131.07-Aug-2020 5042.01 5832.49 85.04 6.00 468.71 2658.32
   01:54:51.331.07-Aug-2020 5042.01 5831.95 85.04 6.00 468.91 2658.32
   01:54:51.531.07-Aug-2020 5042.01 5832.36 85.04 6.00 469.11 2658.32
   01:54:51.731.07-Aug-2020 5042.01 5832.59 85.04 6.00 469.31 2658.32
   01:54:51.931.07-Aug-2020 5042.01 5832.31 85.04 6.00 469.51 2658.32
   01:54:52.131.07-Aug-2020 5042.01 5832.40 85.04 6.00 469.71 2658.32
   01:54:52.331.07-Aug-2020 5042.01 5827.29 85.04 6.00 469.91 2658.32
   01:54:52.531.07-Aug-2020 5042.01 5828.25 85.04 6.00 470.11 2658.32
   01:54:52.731.07-Aug-2020 5042.01 5828.25 85.04 6.00 470.31 2658.32
   01:54:52.931.07-Aug-2020 5042.01 5829.90 85.04 6.00 470.51 2658.32
   01:54:53.131.07-Aug-2020 5042.01 5828.92 85.04 6.00 470.71 2658.32
   01:54:53.331.07-Aug-2020 5042.01 5829.88 85.03 6.00 470.91 2658.32
   01:54:53.531.07-Aug-2020 5042.01 5829.25 85.03 6.00 471.11 2658.32
   01:54:53.731.07-Aug-2020 5042.01 5829.77 85.03 6.00 471.31 2658.32
   01:54:53.931.07-Aug-2020 5042.01 5829.77 85.03 6.00 471.51 2658.32
   01:54:54.132.07-Aug-2020 5042.01 5830.68 85.03 6.00 471.71 2658.32
   01:54:54.332.07-Aug-2020 5042.01 5830.18 85.03 6.00 471.91 2658.32
