~Version Information
 VERS.                  2.0:   CWLS log ASCII Standard -VERSION 2.0
 WRAP.                   NO:   One line per depth step
~Well Information Block
#MNEM.UNIT     VALUE/NAME     DESCRIPTION
#---------     -----------    ---------------------------
 STRT.S             15:38:44 07-Aug-20: START TIME 15:38:44 07-Aug-20
 STOP.S             15:46:36 07-Aug-20: STOP TIME  15:46:36 07-Aug-20
 STEP.S                   0.00: STEP TIME
 NULL.                 -999.25: NULL VALUE
 DFWT.                        :  DIST FWL TEXT
 DFST.                        :  DIST FSL TEXT
 DMF .             Drill Floor:  DRILL MEAS FROM
 STIM.      12.00.00 03-Jul-20:  START TIME
 DATE.      00.50.00 09-Aug-20:  END TIME
 SPUD.               03-Jul-20:  SPUD DATE
 NREF.                    Grid:  NORTH REFERENCE
 HPTY.       Minimum Curvature:  HOLE POS TYPE
 DMOD.             Drill Model:  DRILL MOD DESC
 SVYD.                  Survey:  SURVEY DESC
 ILTD.               Lithology:  INTERP LTH DESC
 FTOP.          Formation Tops:  FORM TOPS DESC
 PDAT.          Mean Sea Level:  PERMANENT DATUM
 FLD .                     ACG:  FIELD NAME
 CTRY.              Azerbaijan:  COUNTRY NAME
 WELL.                    E04x:  WELL NAME
 SRVC.          Turan Drilling:  CONTRACTOR
 COMP.     BP Exploration (Caspian Sea) Ltd.:  COMPANY
 SON .        AZ-XX-0906531346:  JOB NUMBER
 WTYP.                Deviated:  WELL TYPE
 MDS .        Operator Entered:  MAG DATA SOURCE
 UWI .                     N/A:  UNIQUE WELL IDENTIFIER
 API .                     N/A:  API NUMBER
 BASE.              Azerbaijan:  LOGGING EQUIPMENT BASE LOCATION
 REGN.                   EESSA:  REGION
 PROV.                    Baku:  PROVINCE
 STAT.                    Baku:  STATE NAME
 MWDS.                    Baku:  MWD SHOP
 JOBN.        AZ-XX-0906531346:  JOB TICKET NUMB
 RIG .                     DWG:  RIG NAME
 DOE .                     N/A:  DOE NUMBER
 DCON.         Sperry Drilling:  DIRECTNL CONTR
 UNIT.                     N/A:  LOGGING EQUIPMENT ID
 CNTY.                        :  COUNTY
 LOC .                        :  LOCATION
 LMF .             Drill Floor:  LOG MEASURED FROM
 TVDS.m                  43.16:  TVDSS CORRECTN
 LATI.deg                40.17:  LATITUDE
 LONG.deg                51.17:  LONGITUDE
 WHNS.m                  -0.12:  WELL HEAD N/S
 WHEW.m                  -5.41:  WELL HEAD E/W
 UTMX.m              514337.95:  UTM X
 UTMY.m             4448627.46:  UTM Y
 DFWL.m                   0.00:  DISTANCE FWL
 DFSL.m                   0.00:  DISTANCE FSL
 SDEP.m                3088.01:  START DEPTH
 TDD .m                5200.01:  TOTAL DEPTH (DRILLER)
 VSDR.deg               244.51:  VERT SEC DIRECT
 GVFD.g                   1.00:  GRAVITY FIELD
 MFLD.nT              50329.80:  MAGNETIC FIELD
 MDIP.deg                59.63:  MAGNETIC DIP
 MDEC.deg                 6.59:  MAGNETIC DECL
 GRDC.deg                 0.09:  GRID CORRECTION
 AZTC.deg                 6.50:  AZM TOTAL CORR
 EPD .m                   0.00:  ELEVATION
 EGL .m                   0.00:  GROUND ELEVATION
 WDMS.m                 176.20:  WD ELEV
 APD .m                  43.16:  DEPTH ABOVE PD
 DEP .m                3084.71:  DEPTH
 AGAP.m                  43.16:  AIR GAP
 VSEW.m                  -5.41:  VERT SEC E/W
 VSNS.m                  -0.12:  VERT SEC N/S
 EKB .m                   0.00:  KB ELEVATION
 EDF .m                  43.16:  DF ELEVATION
 TDL .m                 243.00:  TOTAL DEPTH (LOGGER)
 VSC .                       0:  VS TO CLOSURE
 MAGU.                 1853542:  MAGUTM CHECKSUM
~Parameter Information Block
#MNEM.UNIT       Value        Description
#---------     -----------    ---------------------------
 AV  .mps                 1.91:  Ann Velocity 
 AVMX.mps                 2.52:  Max Ann Veloc 
 AZIF.deg               308.97:  Azm, Final 
 BHAT.        Rotary Steerable:  BHA Type 
 BROT.°/30m               1.00:  Build Rotating 
 BS  .in                  6.50:  Bit Size 
 BSZ .in                  6.50:  Bit Size 
 BTPL.psig              350.00:  Bit Press Loss 
 CABU.                      No:  Customer Abuse 
 CGEO.           Asif Pashayev:  Customer Geo 
 COMM.                     6…:  Run Comments 1 
 TCS .hr                 35.86:  Time Ciculation Ended 
 CV  .mps                 2.31:  Crit Velocity 
 CVMX.mps                 2.31:  Max Crit Veloc 
 DD1 .         Intigam Rahimov:  Direct Drillr 1 
 DDSV.               Geo-Pilot:  DD Service 
 DEFF.%                  92.00:  % Det Eff 
 DLRX.°/30m               1.00:  Dogleg Rot Max 
 DLSO.°/30m               1.00:  Dogleg Oriented 
 DLSX.°/30m               1.42:  Dogleg Str Max 
 DRET.      15.50.00 07-Aug-20:  Drill End Time 
 DRST.      10.40.00 06-Aug-20:  Drill Start Tim 
 DTIM.hr                 21.30:  Time Drilling 
 EDEP.m                5200.01:  End Depth 
 ENG1.            Alan Tuganov:  Engineer 1 
 ENG2.         Almaz Almadatov:  Engineer 2 
 ENG3.     Zammelal Abdullah Sani:  Engineer 3 
 ETIM.      22.42.00 08-Aug-20:  End Time 
 FLOI.gpm               395.00:  Flow In 
 FLON.gpm               350.00:  Flow In Min 
 FLOS.cptm                0.00:  Fluid Loss 
 FLOX.gpm               404.00:  Flow In Max 
 FTRO.       Formation Presure:  FTWD Run Obj 
 HFLO.                      No:  High Flow 
 HPRE.                      No:  High Pressure 
 HTEM.                      No:  High Temp 
 HYDO.m                   1.80:  Hydro Offset 
 IFIN.deg                72.64:  Inc, Final 
 IMAX.deg                73.68:  Inc Max 
 IMIN.deg                72.64:  Inc Min 
 IMND.m                5189.69:  Inc Min Depth 
 IMXD.m                5067.88:  Inc Max Depth 
 JARR.                      No:  Jarring 
 LETM.      15.50.00 07-Aug-20:  Log End Time 
 LOST.hr                     0:  Lost Rig Time 
 LSTM.      10.40.00 06-Aug-20:  Log Start Time 
 MDCL.ppm             36000.00:  Mud Chlorides 
 MDES.     Inversion Oil/Synthetic:  Mud Desc 
 DFD .sg                  1.36:  Mud Density 
 MDMN.sg                  1.36:  Dens Mud Min 
 MDMX.sg                  1.36:  Dens Mud Max 
 MOIL.                      70:  Run Mud Oil % 
 MOWR.                   70:30:  Run Mud OWR 
 MSND.                    0.00:  Run Mud Sand % 
 MSOL.                   17.60:  Run Mud Solids% 
 DFV .spqt               73.00:  Mud Viscosity 
 MWOD.in                  4.75:  MWD Tool OD 
 MWSI.                      No:  Serv Intrp, MWD 
 OTIM.hr                 85.66:  Time Operating 
 PCON.           Look Like New:  Pad Condition 
 PMAX.psia             6250.00:  Press Op, Max 
 PV  .cP                 65.00:  Mud PV 
 RUN .                     900:  Run Number 
 ROPA.m/hr               11.40:  ROP Avg 
 ROPN.m/hr                5.00:  ROP Min 
 ROPX.m/hr               20.00:  ROP Max 
 RPMA.rpm               130.00:  RPM Surface Avg 
 RPMN.rpm                40.00:  RPM Surface Min 
 RPMX.rpm               140.00:  RPM Surface Max 
 RRUN.                    L205:  Rig Run Number 
 RTIM.hr                  1.00:  Time Reaming 
 SAZI.deg               313.52:  Azm, Start 
 SDEP.m                4957.01:  Start Depth 
 SIDD.                      No:  Serv Intrp, DD 
 SINC.deg                73.16:  Inc, Start 
 SPPA.psig             5657.00:  SPP Avg 
 SPPN.psig             2500.00:  SPP Min 
 SPPX.psig             5806.00:  SPP Max 
 STIM.      07.12.00 05-Aug-20:  Start Time 
 SVCS.                 DD, MWD:  Services 
 SVER.                    9.20:  Sperry Version 
 TDAT.m                 243.00:  Tot Depth Attmp 
 TDDF.                      No:  Trip for DD 
 TDLG.m                 243.00:  Tot Depth Loggd 
 TFF .                      No:  Trip for Fail 
 TQAA.f-kp               13.00:  Torque Abs Avg 
 TQAN.f-kp               11.00:  Torque Abs Min 
 TQAX.f-kp               16.00:  Torque Abs Max 
 TRRT.°/30m               1.00:  Turn Rotating 
 MRT .                    HCIM:  Maximum Recorded Temperature 
 TTMX.degC               96.08:  Max Tool Temp 
 VS01.                90515411:  Virtual Str1 SN 
 VS02.                90512716:  Virtual Str2 SN 
 VS03.                90522362:  Virtual Str3 SN 
 VS04.                90619415:  Virtual Str4 SN 
 VS05.                90619414:  Virtual Str5 SN 
 VS06.                90597748:  Virtual Str6 SN 
 WBMN.klb                 2.00:  WOB Min 
 WITN.           Adil Mammadov:  Customer Rep 
 WITN.     Alexander Yadullayev:  Customer Rep 2 
 WOBA.klb                 7.00:  WOB Avg 
 WOBX.klb                23.00:  WOB Max 
 YP  .lhf2               37.00:  Yield Point 
~Curve Information Block
#MNEM.UNIT                 API CODE     Curve Description
#---------               -----------    ---------------------------
 TIME.HHMMSS            00 000 000 000:  GT Time & Date
 GTDEPTH.m              00 000 000 000:  GT Depth
 GTPQH.psia             00 000 000 000:  GT HR Quartz Pressure
 GTTQ.degC              00 000 000 000:  GT Quartz Temperature
 GTTN.NONE              00 000 000 000:  GT Test Number
 GTET.sec               00 000 000 000:  GT Elapsed Test Time
 GTTVD.m                00 000 000 000:  GT True Vertical Depth
#Other Information
#
#WARRANTY: Halliburton will use its best efforts to furnish customers with 
#accurate information and interpretations that are part of, and incident to, the services 
#provided.  However, Halliburton cannot and does not warrant the accuracy 
#or correctness of such information and interpretations.  Under no circumstances should any 
#such information or interpretation be relied upon as the sole basis for any drilling, 
#completion, production, or financial decision or any procedure involving any risk to the 
#safety of any drilling venture, drilling rig or its crew or any other third party.  The 
#Customer has full responsibility for all drilling, completion and production operation.  
#Halliburton makes no representations or warranties, either expressed or 
#implied, including, but not limited to, the implied warranties of merchantability or fitness 
#for a particular purpose, with respect to the services rendered.  In no event will 
#Halliburton be liable for failure to obtain any particular results or for 
#any damages, including, but not limited to, indirect, special or consequential damages, 
#resulting from the use of any information or interpretation provided by Halliburton.
#
~A           TIME           GTDEPTH  GTPQH  GTTQ  GTTN   GTET   GTTVD  
# ...
   15:39:07.383.07-Aug-2020 5157.51 6629.37 89.29 11.00  22.61 2691.72
   15:39:07.583.07-Aug-2020 5157.51 6634.05 89.29 11.00  22.81 2691.72
   15:39:07.783.07-Aug-2020 5157.51 6637.86 89.29 11.00  23.01 2691.72
   15:39:07.983.07-Aug-2020 5157.51 6637.86 89.29 11.00  23.21 2691.72
   15:39:08.184.07-Aug-2020 5157.51 6644.50 89.29 11.00  23.41 2691.72
   15:39:08.384.07-Aug-2020 5157.51 6643.66 89.29 11.00  23.61 2691.72
   15:39:08.584.07-Aug-2020 5157.51 6647.21 89.29 11.00  23.81 2691.72
   15:39:08.784.07-Aug-2020 5157.51 6649.79 89.29 11.00  24.01 2691.72
   15:39:08.984.07-Aug-2020 5157.51 6649.79 89.28 11.00  24.21 2691.72
   15:39:09.184.07-Aug-2020 5157.51 6652.69 89.28 11.00  24.41 2691.72
   15:39:09.384.07-Aug-2020 5157.51 6652.78 89.28 11.00  24.61 2691.72
   15:39:09.584.07-Aug-2020 5157.51 6654.02 89.28 11.00  24.81 2691.72
   15:39:09.784.07-Aug-2020 5157.51 6655.58 89.28 11.00  25.01 2691.72
   15:39:09.984.07-Aug-2020 5157.51 6655.58 89.28 11.00  25.21 2691.72
   15:39:10.184.07-Aug-2020 5157.51 6656.99 89.28 11.00  25.41 2691.72
   15:39:10.384.07-Aug-2020 5157.51 6302.54 89.28 11.00  25.61 2691.72
   15:39:10.584.07-Aug-2020 5157.51 5630.49 89.28 11.00  25.81 2691.72
   15:39:10.785.07-Aug-2020 5157.51 5337.37 89.28 11.00  26.01 2691.72
   15:39:10.985.07-Aug-2020 5157.51 5337.37 89.28 11.00  26.21 2691.72
   15:39:11.185.07-Aug-2020 5157.51 4452.37 89.28 11.00  26.41 2691.72
   15:39:11.385.07-Aug-2020 5157.51 4022.68 89.28 11.00  26.61 2691.72
   15:39:11.585.07-Aug-2020 5157.51 3617.20 89.28 11.00  26.81 2691.72
   15:39:11.785.07-Aug-2020 5157.51 3365.91 89.28 11.00  27.01 2691.72
   15:39:11.985.07-Aug-2020 5157.51 3365.91 89.28 11.00  27.21 2691.72
   15:39:12.185.07-Aug-2020 5157.51 3303.18 89.28 11.00  27.41 2691.72
   15:39:12.385.07-Aug-2020 5157.51 3298.76 89.28 11.00  27.61 2691.72
   15:39:12.585.07-Aug-2020 5157.51 3294.63 89.27 11.00  27.81 2691.72
   15:39:12.785.07-Aug-2020 5157.51 3293.58 89.27 11.00  28.01 2691.72
   15:39:12.985.07-Aug-2020 5157.51 3293.58 89.27 11.00  28.21 2691.72
   15:39:13.186.07-Aug-2020 5157.51 3291.77 89.27 11.00  28.41 2691.72
   15:39:13.386.07-Aug-2020 5157.51 3291.08 89.27 11.00  28.61 2691.72
   15:39:13.586.07-Aug-2020 5157.51 3286.79 89.27 11.00  28.81 2691.72
   15:39:13.786.07-Aug-2020 5157.51 3286.19 89.27 11.00  29.01 2691.72
   15:39:13.986.07-Aug-2020 5157.51 3286.19 89.27 11.00  29.21 2691.72
   15:39:14.186.07-Aug-2020 5157.51 3286.11 89.27 11.00  29.41 2691.72
   15:39:14.386.07-Aug-2020 5157.51 3284.75 89.26 11.00  29.61 2691.72
   15:39:14.586.07-Aug-2020 5157.51 3284.91 89.26 11.00  29.81 2691.72
   15:39:14.786.07-Aug-2020 5157.51 3286.85 89.26 11.00  30.01 2691.72
   15:39:14.986.07-Aug-2020 5157.51 3284.95 89.26 11.00  30.21 2691.72
   15:39:15.186.07-Aug-2020 5157.51 3285.57 89.26 11.00  30.41 2691.72
   15:39:15.386.07-Aug-2020 5157.51 3284.23 89.26 11.00  30.61 2691.72
   15:39:15.587.07-Aug-2020 5157.51 3284.34 89.26 11.00  30.81 2691.72
   15:39:15.787.07-Aug-2020 5157.51 3278.16 89.25 11.00  31.01 2691.72
   15:39:15.987.07-Aug-2020 5157.51 3278.16 89.25 11.00  31.21 2691.72
   15:39:16.187.07-Aug-2020 5157.51 3286.57 89.25 11.00  31.41 2691.72
   15:39:16.387.07-Aug-2020 5157.51 3285.53 89.25 11.00  31.61 2691.72
   15:39:16.587.07-Aug-2020 5157.51 3284.64 89.25 11.00  31.81 2691.72
   15:39:16.787.07-Aug-2020 5157.51 3283.07 89.25 11.00  32.01 2691.72
   15:39:16.987.07-Aug-2020 5157.51 3283.07 89.25 11.00  32.21 2691.72
   15:39:17.187.07-Aug-2020 5157.51 3286.37 89.24 11.00  32.41 2691.72
   15:39:17.387.07-Aug-2020 5157.51 3284.55 89.24 11.00  32.61 2691.72
   15:39:17.587.07-Aug-2020 5157.51 3282.24 89.24 11.00  32.81 2691.72
   15:39:17.787.07-Aug-2020 5157.51 3281.37 89.24 11.00  33.01 2691.72
   15:39:17.988.07-Aug-2020 5157.51 3281.37 89.24 11.00  33.21 2691.72
   15:39:18.188.07-Aug-2020 5157.51 3279.07 89.24 11.00  33.41 2691.72
   15:39:18.388.07-Aug-2020 5157.51 3282.64 89.24 11.00  33.61 2691.72
   15:39:18.588.07-Aug-2020 5157.51 3284.84 89.23 11.00  33.81 2691.72
   15:39:18.788.07-Aug-2020 5157.51 3282.80 89.23 11.00  34.01 2691.72
   15:39:18.988.07-Aug-2020 5157.51 3282.80 89.23 11.00  34.21 2691.72
   15:39:19.188.07-Aug-2020 5157.51 3281.93 89.23 11.00  34.41 2691.72
   15:39:19.388.07-Aug-2020 5157.51 3286.07 89.23 11.00  34.61 2691.72
   15:39:19.588.07-Aug-2020 5157.51 3284.15 89.23 11.00  34.81 2691.72
   15:39:19.788.07-Aug-2020 5157.51 3282.08 89.23 11.00  35.01 2691.72
   15:39:19.988.07-Aug-2020 5157.51 3282.08 89.23 11.00  35.21 2691.72
   15:39:20.188.07-Aug-2020 5157.51 3445.03 89.22 11.00  35.41 2691.72
   15:39:20.389.07-Aug-2020 5157.51 3475.58 89.22 11.00  35.61 2691.72
   15:39:20.589.07-Aug-2020 5157.51 3482.01 89.22 11.00  35.81 2691.72
   15:39:20.789.07-Aug-2020 5157.51 3484.10 89.22 11.00  36.01 2691.72
   15:39:20.989.07-Aug-2020 5157.51 3484.10 89.22 11.00  36.21 2691.72
   15:39:21.189.07-Aug-2020 5157.51 3485.82 89.22 11.00  36.42 2691.72
   15:39:21.389.07-Aug-2020 5157.51 3486.32 89.22 11.00  36.62 2691.72
   15:39:21.589.07-Aug-2020 5157.51 3486.73 89.22 11.00  36.82 2691.72
   15:39:21.789.07-Aug-2020 5157.51 3487.04 89.21 11.00  37.02 2691.72
   15:39:21.989.07-Aug-2020 5157.51 3487.09 89.21 11.00  37.22 2691.72
   15:39:22.189.07-Aug-2020 5157.51 3487.75 89.21 11.00  37.42 2691.72
   15:39:22.389.07-Aug-2020 5157.51 3487.92 89.21 11.00  37.62 2691.72
   15:39:22.589.07-Aug-2020 5157.51 3487.90 89.21 11.00  37.82 2691.72
   15:39:22.790.07-Aug-2020 5157.51 3488.20 89.21 11.00  38.02 2691.72
   15:39:22.990.07-Aug-2020 5157.51 3488.20 89.21 11.00  38.22 2691.72
   15:39:23.190.07-Aug-2020 5157.51 3488.44 89.21 11.00  38.42 2691.72
   15:39:23.390.07-Aug-2020 5157.51 3488.48 89.21 11.00  38.62 2691.72
   15:39:23.590.07-Aug-2020 5157.51 3488.63 89.20 11.00  38.82 2691.72
   15:39:23.790.07-Aug-2020 5157.51 3488.69 89.20 11.00  39.02 2691.72
   15:39:23.990.07-Aug-2020 5157.51 3488.78 89.20 11.00  39.22 2691.72
   15:39:24.190.07-Aug-2020 5157.51 3488.80 89.20 11.00  39.42 2691.72
   15:39:24.390.07-Aug-2020 5157.51 3488.91 89.20 11.00  39.62 2691.72
   15:39:24.590.07-Aug-2020 5157.51 3488.61 89.20 11.00  39.82 2691.72
   15:39:24.790.07-Aug-2020 5157.51 3489.04 89.20 11.00  40.02 2691.72
   15:39:24.990.07-Aug-2020 5157.51 3489.04 89.20 11.00  40.22 2691.72
   15:39:25.191.07-Aug-2020 5157.51 3489.04 89.20 11.00  40.42 2691.72
   15:39:25.391.07-Aug-2020 5157.51 3489.00 89.20 11.00  40.62 2691.72
   15:39:25.591.07-Aug-2020 5157.51 3488.74 89.20 11.00  40.82 2691.72
   15:39:25.791.07-Aug-2020 5157.51 3489.34 89.19 11.00  41.02 2691.72
   15:39:25.991.07-Aug-2020 5157.51 3489.18 89.19 11.00  41.22 2691.72
   15:39:26.191.07-Aug-2020 5157.51 3489.16 89.19 11.00  41.42 2691.72
   15:39:26.391.07-Aug-2020 5157.51 3488.98 89.19 11.00  41.62 2691.72
   15:39:26.591.07-Aug-2020 5157.51 3489.35 89.19 11.00  41.82 2691.72
   15:39:26.791.07-Aug-2020 5157.51 3489.32 89.19 11.00  42.02 2691.72
   15:39:26.991.07-Aug-2020 5157.51 3489.32 89.19 11.00  42.22 2691.72
   15:39:27.191.07-Aug-2020 5157.51 3489.06 89.19 11.00  42.42 2691.72
   15:39:27.391.07-Aug-2020 5157.51 3489.44 89.19 11.00  42.62 2691.72
   15:39:27.592.07-Aug-2020 5157.51 3489.51 89.19 11.00  42.82 2691.72
   15:39:27.792.07-Aug-2020 5157.51 3489.11 89.19 11.00  43.02 2691.72
   15:39:27.992.07-Aug-2020 5157.51 3489.11 89.19 11.00  43.22 2691.72
   15:39:28.192.07-Aug-2020 5157.51 3489.49 89.18 11.00  43.42 2691.72
   15:39:28.392.07-Aug-2020 5157.51 3489.49 89.18 11.00  43.62 2691.72
   15:39:28.592.07-Aug-2020 5157.51 3489.32 89.18 11.00  43.82 2691.72
   15:39:28.792.07-Aug-2020 5157.51 3489.47 89.18 11.00  44.02 2691.72
   15:39:28.992.07-Aug-2020 5157.51 3489.47 89.18 11.00  44.22 2691.72
   15:39:29.192.07-Aug-2020 5157.51 3489.55 89.18 11.00  44.42 2691.72
   15:39:29.392.07-Aug-2020 5157.51 3489.63 89.18 11.00  44.62 2691.72
   15:39:29.592.07-Aug-2020 5157.51 3489.39 89.18 11.00  44.82 2691.72
   15:39:29.792.07-Aug-2020 5157.51 3489.59 89.18 11.00  45.02 2691.72
