~Version Information
 VERS.                  2.0:   CWLS log ASCII Standard -VERSION 2.0
 WRAP.                   NO:   One line per depth step
~Well Information Block
#MNEM.UNIT     VALUE/NAME     DESCRIPTION
#---------     -----------    ---------------------------
 STRT.S             15:38:44 07-Aug-20: START TIME 15:38:44 07-Aug-20
 STOP.S             15:46:36 07-Aug-20: STOP TIME  15:46:36 07-Aug-20
 STEP.S                   0.00: STEP TIME
 NULL.                 -999.25: NULL VALUE
 DFWT.                        :  DIST FWL TEXT
 DFST.                        :  DIST FSL TEXT
 DMF .             Drill Floor:  DRILL MEAS FROM
 STIM.      12.00.00 03-Jul-20:  START TIME
 DATE.      00.50.00 09-Aug-20:  END TIME
 SPUD.               03-Jul-20:  SPUD DATE
 NREF.                    Grid:  NORTH REFERENCE
 HPTY.       Minimum Curvature:  HOLE POS TYPE
 DMOD.             Drill Model:  DRILL MOD DESC
 SVYD.                  Survey:  SURVEY DESC
 ILTD.               Lithology:  INTERP LTH DESC
 FTOP.          Formation Tops:  FORM TOPS DESC
 PDAT.          Mean Sea Level:  PERMANENT DATUM
 FLD .                     ACG:  FIELD NAME
 CTRY.              Azerbaijan:  COUNTRY NAME
 WELL.                    E04x:  WELL NAME
 SRVC.          Turan Drilling:  CONTRACTOR
 COMP.     BP Exploration (Caspian Sea) Ltd.:  COMPANY
 SON .        AZ-XX-0906531346:  JOB NUMBER
 WTYP.                Deviated:  WELL TYPE
 MDS .        Operator Entered:  MAG DATA SOURCE
 UWI .                     N/A:  UNIQUE WELL IDENTIFIER
 API .                     N/A:  API NUMBER
 BASE.              Azerbaijan:  LOGGING EQUIPMENT BASE LOCATION
 REGN.                   EESSA:  REGION
 PROV.                    Baku:  PROVINCE
 STAT.                    Baku:  STATE NAME
 MWDS.                    Baku:  MWD SHOP
 JOBN.        AZ-XX-0906531346:  JOB TICKET NUMB
 RIG .                     DWG:  RIG NAME
 DOE .                     N/A:  DOE NUMBER
 DCON.         Sperry Drilling:  DIRECTNL CONTR
 UNIT.                     N/A:  LOGGING EQUIPMENT ID
 CNTY.                        :  COUNTY
 LOC .                        :  LOCATION
 LMF .             Drill Floor:  LOG MEASURED FROM
 TVDS.m                  43.16:  TVDSS CORRECTN
 LATI.deg                40.17:  LATITUDE
 LONG.deg                51.17:  LONGITUDE
 WHNS.m                  -0.12:  WELL HEAD N/S
 WHEW.m                  -5.41:  WELL HEAD E/W
 UTMX.m              514337.95:  UTM X
 UTMY.m             4448627.46:  UTM Y
 DFWL.m                   0.00:  DISTANCE FWL
 DFSL.m                   0.00:  DISTANCE FSL
 SDEP.m                3088.01:  START DEPTH
 TDD .m                5200.01:  TOTAL DEPTH (DRILLER)
 VSDR.deg               244.51:  VERT SEC DIRECT
 GVFD.g                   1.00:  GRAVITY FIELD
 MFLD.nT              50329.80:  MAGNETIC FIELD
 MDIP.deg                59.63:  MAGNETIC DIP
 MDEC.deg                 6.59:  MAGNETIC DECL
 GRDC.deg                 0.09:  GRID CORRECTION
 AZTC.deg                 6.50:  AZM TOTAL CORR
 EPD .m                   0.00:  ELEVATION
 EGL .m                   0.00:  GROUND ELEVATION
 WDMS.m                 176.20:  WD ELEV
 APD .m                  43.16:  DEPTH ABOVE PD
 DEP .m                3084.71:  DEPTH
 AGAP.m                  43.16:  AIR GAP
 VSEW.m                  -5.41:  VERT SEC E/W
 VSNS.m                  -0.12:  VERT SEC N/S
 EKB .m                   0.00:  KB ELEVATION
 EDF .m                  43.16:  DF ELEVATION
 TDL .m                 243.00:  TOTAL DEPTH (LOGGER)
 VSC .                       0:  VS TO CLOSURE
 MAGU.                 1853542:  MAGUTM CHECKSUM
~Parameter Information Block
#MNEM.UNIT       Value        Description
#---------     -----------    ---------------------------
 AV  .mps                 1.91:  Ann Velocity 
 AVMX.mps                 2.52:  Max Ann Veloc 
 AZIF.deg               308.97:  Azm, Final 
 BHAT.        Rotary Steerable:  BHA Type 
 BROT.°/30m               1.00:  Build Rotating 
 BS  .in                  6.50:  Bit Size 
 BSZ .in                  6.50:  Bit Size 
 BTPL.psig              350.00:  Bit Press Loss 
 CABU.                      No:  Customer Abuse 
 CGEO.           Asif Pashayev:  Customer Geo 
 COMM.                     6…:  Run Comments 1 
 TCS .hr                 35.86:  Time Ciculation Ended 
 CV  .mps                 2.31:  Crit Velocity 
 CVMX.mps                 2.31:  Max Crit Veloc 
 DD1 .         Intigam Rahimov:  Direct Drillr 1 
 DDSV.               Geo-Pilot:  DD Service 
 DEFF.%                  92.00:  % Det Eff 
 DLRX.°/30m               1.00:  Dogleg Rot Max 
 DLSO.°/30m               1.00:  Dogleg Oriented 
 DLSX.°/30m               1.42:  Dogleg Str Max 
 DRET.      15.50.00 07-Aug-20:  Drill End Time 
 DRST.      10.40.00 06-Aug-20:  Drill Start Tim 
 DTIM.hr                 21.30:  Time Drilling 
 EDEP.m                5200.01:  End Depth 
 ENG1.            Alan Tuganov:  Engineer 1 
 ENG2.         Almaz Almadatov:  Engineer 2 
 ENG3.     Zammelal Abdullah Sani:  Engineer 3 
 ETIM.      22.42.00 08-Aug-20:  End Time 
 FLOI.gpm               395.00:  Flow In 
 FLON.gpm               350.00:  Flow In Min 
 FLOS.cptm                0.00:  Fluid Loss 
 FLOX.gpm               404.00:  Flow In Max 
 FTRO.       Formation Presure:  FTWD Run Obj 
 HFLO.                      No:  High Flow 
 HPRE.                      No:  High Pressure 
 HTEM.                      No:  High Temp 
 HYDO.m                   1.80:  Hydro Offset 
 IFIN.deg                72.64:  Inc, Final 
 IMAX.deg                73.68:  Inc Max 
 IMIN.deg                72.64:  Inc Min 
 IMND.m                5189.69:  Inc Min Depth 
 IMXD.m                5067.88:  Inc Max Depth 
 JARR.                      No:  Jarring 
 LETM.      15.50.00 07-Aug-20:  Log End Time 
 LOST.hr                     0:  Lost Rig Time 
 LSTM.      10.40.00 06-Aug-20:  Log Start Time 
 MDCL.ppm             36000.00:  Mud Chlorides 
 MDES.     Inversion Oil/Synthetic:  Mud Desc 
 DFD .sg                  1.36:  Mud Density 
 MDMN.sg                  1.36:  Dens Mud Min 
 MDMX.sg                  1.36:  Dens Mud Max 
 MOIL.                      70:  Run Mud Oil % 
 MOWR.                   70:30:  Run Mud OWR 
 MSND.                    0.00:  Run Mud Sand % 
 MSOL.                   17.60:  Run Mud Solids% 
 DFV .spqt               73.00:  Mud Viscosity 
 MWOD.in                  4.75:  MWD Tool OD 
 MWSI.                      No:  Serv Intrp, MWD 
 OTIM.hr                 85.66:  Time Operating 
 PCON.           Look Like New:  Pad Condition 
 PMAX.psia             6250.00:  Press Op, Max 
 PV  .cP                 65.00:  Mud PV 
 RUN .                     900:  Run Number 
 ROPA.m/hr               11.40:  ROP Avg 
 ROPN.m/hr                5.00:  ROP Min 
 ROPX.m/hr               20.00:  ROP Max 
 RPMA.rpm               130.00:  RPM Surface Avg 
 RPMN.rpm                40.00:  RPM Surface Min 
 RPMX.rpm               140.00:  RPM Surface Max 
 RRUN.                    L205:  Rig Run Number 
 RTIM.hr                  1.00:  Time Reaming 
 SAZI.deg               313.52:  Azm, Start 
 SDEP.m                4957.01:  Start Depth 
 SIDD.                      No:  Serv Intrp, DD 
 SINC.deg                73.16:  Inc, Start 
 SPPA.psig             5657.00:  SPP Avg 
 SPPN.psig             2500.00:  SPP Min 
 SPPX.psig             5806.00:  SPP Max 
 STIM.      07.12.00 05-Aug-20:  Start Time 
 SVCS.                 DD, MWD:  Services 
 SVER.                    9.20:  Sperry Version 
 TDAT.m                 243.00:  Tot Depth Attmp 
 TDDF.                      No:  Trip for DD 
 TDLG.m                 243.00:  Tot Depth Loggd 
 TFF .                      No:  Trip for Fail 
 TQAA.f-kp               13.00:  Torque Abs Avg 
 TQAN.f-kp               11.00:  Torque Abs Min 
 TQAX.f-kp               16.00:  Torque Abs Max 
 TRRT.°/30m               1.00:  Turn Rotating 
 MRT .                    HCIM:  Maximum Recorded Temperature 
 TTMX.degC               96.08:  Max Tool Temp 
 VS01.                90515411:  Virtual Str1 SN 
 VS02.                90512716:  Virtual Str2 SN 
 VS03.                90522362:  Virtual Str3 SN 
 VS04.                90619415:  Virtual Str4 SN 
 VS05.                90619414:  Virtual Str5 SN 
 VS06.                90597748:  Virtual Str6 SN 
 WBMN.klb                 2.00:  WOB Min 
 WITN.           Adil Mammadov:  Customer Rep 
 WITN.     Alexander Yadullayev:  Customer Rep 2 
 WOBA.klb                 7.00:  WOB Avg 
 WOBX.klb                23.00:  WOB Max 
 YP  .lhf2               37.00:  Yield Point 
~Curve Information Block
#MNEM.UNIT                 API CODE     Curve Description
#---------               -----------    ---------------------------
 TIME.HHMMSS            00 000 000 000:  GT Time & Date
 GTDEPTH.m              00 000 000 000:  GT Depth
 GTPQH.psia             00 000 000 000:  GT HR Quartz Pressure
 GTTQ.degC              00 000 000 000:  GT Quartz Temperature
 GTTN.NONE              00 000 000 000:  GT Test Number
 GTET.sec               00 000 000 000:  GT Elapsed Test Time
 GTTVD.m                00 000 000 000:  GT True Vertical Depth
#Other Information
#
#WARRANTY: Halliburton will use its best efforts to furnish customers with 
#accurate information and interpretations that are part of, and incident to, the services 
#provided.  However, Halliburton cannot and does not warrant the accuracy 
#or correctness of such information and interpretations.  Under no circumstances should any 
#such information or interpretation be relied upon as the sole basis for any drilling, 
#completion, production, or financial decision or any procedure involving any risk to the 
#safety of any drilling venture, drilling rig or its crew or any other third party.  The 
#Customer has full responsibility for all drilling, completion and production operation.  
#Halliburton makes no representations or warranties, either expressed or 
#implied, including, but not limited to, the implied warranties of merchantability or fitness 
#for a particular purpose, with respect to the services rendered.  In no event will 
#Halliburton be liable for failure to obtain any particular results or for 
#any damages, including, but not limited to, indirect, special or consequential damages, 
#resulting from the use of any information or interpretation provided by Halliburton.
#
~A           TIME           GTDEPTH  GTPQH  GTTQ  GTTN   GTET   GTTVD  
   15:38:44.774.07-Aug-2020 5157.51 5858.50 89.37 11.00   0.00 2691.72
   15:38:44.974.07-Aug-2020 5157.51 5859.52 89.37 11.00   0.20 2691.72
   15:38:45.174.07-Aug-2020 5157.51 5853.62 89.37 11.00   0.40 2691.72
   15:38:45.374.07-Aug-2020 5157.51 5863.20 89.37 11.00   0.60 2691.72
   15:38:45.574.07-Aug-2020 5157.51 5863.82 89.37 11.00   0.80 2691.72
   15:38:45.774.07-Aug-2020 5157.51 5862.80 89.37 11.00   1.00 2691.72
   15:38:45.974.07-Aug-2020 5157.51 5862.15 89.37 11.00   1.20 2691.72
   15:38:46.174.07-Aug-2020 5157.51 5863.44 89.37 11.00   1.40 2691.72
   15:38:46.375.07-Aug-2020 5157.51 5866.35 89.37 11.00   1.60 2691.72
   15:38:46.575.07-Aug-2020 5157.51 5865.04 89.37 11.00   1.80 2691.72
   15:38:46.775.07-Aug-2020 5157.51 5864.75 89.37 11.00   2.00 2691.72
   15:38:46.975.07-Aug-2020 5157.51 5864.75 89.37 11.00   2.20 2691.72
   15:38:47.175.07-Aug-2020 5157.51 5865.09 89.36 11.00   2.40 2691.72
   15:38:47.375.07-Aug-2020 5157.51 5856.77 89.36 11.00   2.60 2691.72
   15:38:47.575.07-Aug-2020 5157.51 5865.93 89.36 11.00   2.80 2691.72
   15:38:47.775.07-Aug-2020 5157.51 5866.47 89.36 11.00   3.00 2691.72
   15:38:47.975.07-Aug-2020 5157.51 5866.47 89.36 11.00   3.20 2691.72
   15:38:48.175.07-Aug-2020 5157.51 5863.18 89.36 11.00   3.40 2691.72
   15:38:48.375.07-Aug-2020 5157.51 5855.49 89.36 11.00   3.60 2691.72
   15:38:48.575.07-Aug-2020 5157.51 5868.22 89.36 11.00   3.80 2691.72
   15:38:48.776.07-Aug-2020 5157.51 5864.20 89.36 11.00   4.00 2691.72
   15:38:48.976.07-Aug-2020 5157.51 5864.20 89.36 11.00   4.20 2691.72
   15:38:49.176.07-Aug-2020 5157.51 5859.28 89.36 11.00   4.40 2691.72
   15:38:49.376.07-Aug-2020 5157.51 5860.59 89.36 11.00   4.60 2691.72
   15:38:49.576.07-Aug-2020 5157.51 5865.16 89.35 11.00   4.80 2691.72
   15:38:49.776.07-Aug-2020 5157.51 5866.76 89.35 11.00   5.00 2691.72
   15:38:49.976.07-Aug-2020 5157.51 5860.05 89.35 11.00   5.20 2691.72
   15:38:50.176.07-Aug-2020 5157.51 5864.91 89.35 11.00   5.40 2691.72
   15:38:50.376.07-Aug-2020 5157.51 5857.47 89.35 11.00   5.60 2691.72
   15:38:50.576.07-Aug-2020 5157.51 5865.92 89.35 11.00   5.80 2691.72
   15:38:50.776.07-Aug-2020 5157.51 5865.67 89.35 11.00   6.00 2691.72
   15:38:50.976.07-Aug-2020 5157.51 5865.67 89.35 11.00   6.20 2691.72
   15:38:51.177.07-Aug-2020 5157.51 5863.54 89.35 11.00   6.40 2691.72
   15:38:51.377.07-Aug-2020 5157.51 5864.00 89.35 11.00   6.60 2691.72
   15:38:51.577.07-Aug-2020 5157.51 5858.33 89.35 11.00   6.80 2691.72
   15:38:51.777.07-Aug-2020 5157.51 5864.90 89.35 11.00   7.00 2691.72
   15:38:51.977.07-Aug-2020 5157.51 5864.90 89.35 11.00   7.20 2691.72
   15:38:52.177.07-Aug-2020 5157.51 5861.70 89.35 11.00   7.40 2691.72
   15:38:52.377.07-Aug-2020 5157.51 5865.46 89.34 11.00   7.60 2691.72
   15:38:52.577.07-Aug-2020 5157.51 5865.17 89.34 11.00   7.80 2691.72
   15:38:52.777.07-Aug-2020 5157.51 5867.48 89.34 11.00   8.00 2691.72
   15:38:52.977.07-Aug-2020 5157.51 5867.48 89.34 11.00   8.20 2691.72
   15:38:53.177.07-Aug-2020 5157.51 5866.92 89.34 11.00   8.40 2691.72
   15:38:53.377.07-Aug-2020 5157.51 5866.67 89.34 11.00   8.60 2691.72
   15:38:53.577.07-Aug-2020 5157.51 5868.15 89.34 11.00   8.80 2691.72
   15:38:53.778.07-Aug-2020 5157.51 5867.56 89.34 11.00   9.00 2691.72
   15:38:53.978.07-Aug-2020 5157.51 5868.78 89.34 11.00   9.20 2691.72
   15:38:54.178.07-Aug-2020 5157.51 5867.95 89.34 11.00   9.40 2691.72
   15:38:54.378.07-Aug-2020 5157.51 5867.88 89.34 11.00   9.60 2691.72
   15:38:54.578.07-Aug-2020 5157.51 5862.74 89.34 11.00   9.80 2691.72
   15:38:54.778.07-Aug-2020 5157.51 5868.47 89.34 11.00  10.00 2691.72
   15:38:54.978.07-Aug-2020 5157.51 5868.47 89.34 11.00  10.20 2691.72
   15:38:55.178.07-Aug-2020 5157.51 5864.31 89.33 11.00  10.40 2691.72
   15:38:55.378.07-Aug-2020 5157.51 5868.18 89.33 11.00  10.60 2691.72
   15:38:55.578.07-Aug-2020 5157.51 5870.04 89.33 11.00  10.80 2691.72
   15:38:55.778.07-Aug-2020 5157.51 5868.36 89.33 11.00  11.00 2691.72
   15:38:55.978.07-Aug-2020 5157.51 5868.36 89.33 11.00  11.20 2691.72
   15:38:56.179.07-Aug-2020 5157.51 5869.08 89.33 11.00  11.40 2691.72
   15:38:56.379.07-Aug-2020 5157.51 5868.67 89.33 11.00  11.60 2691.72
   15:38:56.579.07-Aug-2020 5157.51 5865.41 89.33 11.00  11.80 2691.72
   15:38:56.779.07-Aug-2020 5157.51 5861.04 89.33 11.00  12.00 2691.72
   15:38:56.979.07-Aug-2020 5157.51 5861.04 89.33 11.00  12.21 2691.72
   15:38:57.179.07-Aug-2020 5157.51 5841.57 89.33 11.00  12.41 2691.72
   15:38:57.379.07-Aug-2020 5157.51 5844.69 89.33 11.00  12.61 2691.72
   15:38:57.579.07-Aug-2020 5157.51 5841.09 89.33 11.00  12.81 2691.72
   15:38:57.779.07-Aug-2020 5157.51 5824.89 89.32 11.00  13.01 2691.72
   15:38:57.979.07-Aug-2020 5157.51 5827.11 89.32 11.00  13.21 2691.72
   15:38:58.179.07-Aug-2020 5157.51 5806.27 89.32 11.00  13.41 2691.72
   15:38:58.379.07-Aug-2020 5157.51 5781.99 89.32 11.00  13.61 2691.72
   15:38:58.580.07-Aug-2020 5157.51 5725.23 89.32 11.00  13.81 2691.72
   15:38:58.780.07-Aug-2020 5157.51 5682.63 89.32 11.00  14.01 2691.72
   15:38:58.980.07-Aug-2020 5157.51 5682.63 89.32 11.00  14.21 2691.72
   15:38:59.180.07-Aug-2020 5157.51 5609.16 89.32 11.00  14.41 2691.72
   15:38:59.380.07-Aug-2020 5157.51 5533.70 89.32 11.00  14.61 2691.72
   15:38:59.580.07-Aug-2020 5157.51 5456.48 89.32 11.00  14.81 2691.72
   15:38:59.780.07-Aug-2020 5157.51 5417.75 89.32 11.00  15.01 2691.72
   15:38:59.980.07-Aug-2020 5157.51 5417.75 89.32 11.00  15.21 2691.72
   15:39:00.180.07-Aug-2020 5157.51 5345.51 89.32 11.00  15.41 2691.72
   15:39:00.380.07-Aug-2020 5157.51 5297.61 89.32 11.00  15.61 2691.72
   15:39:00.580.07-Aug-2020 5157.51 5275.51 89.31 11.00  15.81 2691.72
   15:39:00.780.07-Aug-2020 5157.51 5233.37 89.31 11.00  16.01 2691.72
   15:39:00.981.07-Aug-2020 5157.51 5233.37 89.31 11.00  16.21 2691.72
   15:39:01.181.07-Aug-2020 5157.51 5210.54 89.31 11.00  16.41 2691.72
   15:39:01.381.07-Aug-2020 5157.51 5158.30 89.31 11.00  16.61 2691.72
   15:39:01.581.07-Aug-2020 5157.51 5140.03 89.31 11.00  16.81 2691.72
   15:39:01.781.07-Aug-2020 5157.51 5120.01 89.31 11.00  17.01 2691.72
   15:39:01.981.07-Aug-2020 5157.51 5091.25 89.31 11.00  17.21 2691.72
   15:39:02.181.07-Aug-2020 5157.51 5050.67 89.31 11.00  17.41 2691.72
   15:39:02.381.07-Aug-2020 5157.51 5021.04 89.31 11.00  17.61 2691.72
   15:39:02.581.07-Aug-2020 5157.51 5006.59 89.31 11.00  17.81 2691.72
   15:39:02.781.07-Aug-2020 5157.51 5010.67 89.31 11.00  18.01 2691.72
   15:39:02.981.07-Aug-2020 5157.51 5010.67 89.31 11.00  18.21 2691.72
   15:39:03.181.07-Aug-2020 5157.51 5837.40 89.30 11.00  18.41 2691.72
   15:39:03.382.07-Aug-2020 5157.51 5987.67 89.30 11.00  18.61 2691.72
   15:39:03.582.07-Aug-2020 5157.51 6096.12 89.30 11.00  18.81 2691.72
   15:39:03.782.07-Aug-2020 5157.51 6243.60 89.30 11.00  19.01 2691.72
   15:39:03.982.07-Aug-2020 5157.51 6243.60 89.30 11.00  19.21 2691.72
   15:39:04.182.07-Aug-2020 5157.51 6608.08 89.30 11.00  19.41 2691.72
   15:39:04.382.07-Aug-2020 5157.51 6662.82 89.30 11.00  19.61 2691.72
   15:39:04.582.07-Aug-2020 5157.51 6648.86 89.30 11.00  19.81 2691.72
   15:39:04.782.07-Aug-2020 5157.51 6645.69 89.30 11.00  20.01 2691.72
   15:39:04.982.07-Aug-2020 5157.51 6645.69 89.30 11.00  20.21 2691.72
   15:39:05.182.07-Aug-2020 5157.51 6648.82 89.30 11.00  20.41 2691.72
   15:39:05.382.07-Aug-2020 5157.51 6659.48 89.29 11.00  20.61 2691.72
   15:39:05.582.07-Aug-2020 5157.51 6396.57 89.29 11.00  20.81 2691.72
   15:39:05.783.07-Aug-2020 5157.51 6615.93 89.29 11.00  21.01 2691.72
   15:39:05.983.07-Aug-2020 5157.51 6525.78 89.29 11.00  21.21 2691.72
   15:39:06.183.07-Aug-2020 5157.51 6539.11 89.29 11.00  21.41 2691.72
   15:39:06.383.07-Aug-2020 5157.51 6584.73 89.29 11.00  21.61 2691.72
   15:39:06.583.07-Aug-2020 5157.51 6616.11 89.29 11.00  21.81 2691.72
   15:39:06.783.07-Aug-2020 5157.51 6600.58 89.29 11.00  22.01 2691.72
   15:39:06.983.07-Aug-2020 5157.51 6600.58 89.29 11.00  22.21 2691.72
   15:39:07.183.07-Aug-2020 5157.51 6622.02 89.29 11.00  22.41 2691.72
