~Version Information
 VERS.                  2.0:   CWLS log ASCII Standard -VERSION 2.0
 WRAP.                   NO:   One line per depth step
~Well Information Block
#MNEM.UNIT     VALUE/NAME     DESCRIPTION
#---------     -----------    ---------------------------
 STRT.S             15:38:44 07-Aug-20: START TIME 15:38:44 07-Aug-20
 STOP.S             15:46:36 07-Aug-20: STOP TIME  15:46:36 07-Aug-20
 STEP.S                   0.00: STEP TIME
 NULL.                 -999.25: NULL VALUE
 DFWT.                        :  DIST FWL TEXT
 DFST.                        :  DIST FSL TEXT
 DMF .             Drill Floor:  DRILL MEAS FROM
 STIM.      12.00.00 03-Jul-20:  START TIME
 DATE.      00.50.00 09-Aug-20:  END TIME
 SPUD.               03-Jul-20:  SPUD DATE
 NREF.                    Grid:  NORTH REFERENCE
 HPTY.       Minimum Curvature:  HOLE POS TYPE
 DMOD.             Drill Model:  DRILL MOD DESC
 SVYD.                  Survey:  SURVEY DESC
 ILTD.               Lithology:  INTERP LTH DESC
 FTOP.          Formation Tops:  FORM TOPS DESC
 PDAT.          Mean Sea Level:  PERMANENT DATUM
 FLD .                     ACG:  FIELD NAME
 CTRY.              Azerbaijan:  COUNTRY NAME
 WELL.                    E04x:  WELL NAME
 SRVC.          Turan Drilling:  CONTRACTOR
 COMP.     BP Exploration (Caspian Sea) Ltd.:  COMPANY
 SON .        AZ-XX-0906531346:  JOB NUMBER
 WTYP.                Deviated:  WELL TYPE
 MDS .        Operator Entered:  MAG DATA SOURCE
 UWI .                     N/A:  UNIQUE WELL IDENTIFIER
 API .                     N/A:  API NUMBER
 BASE.              Azerbaijan:  LOGGING EQUIPMENT BASE LOCATION
 REGN.                   EESSA:  REGION
 PROV.                    Baku:  PROVINCE
 STAT.                    Baku:  STATE NAME
 MWDS.                    Baku:  MWD SHOP
 JOBN.        AZ-XX-0906531346:  JOB TICKET NUMB
 RIG .                     DWG:  RIG NAME
 DOE .                     N/A:  DOE NUMBER
 DCON.         Sperry Drilling:  DIRECTNL CONTR
 UNIT.                     N/A:  LOGGING EQUIPMENT ID
 CNTY.                        :  COUNTY
 LOC .                        :  LOCATION
 LMF .             Drill Floor:  LOG MEASURED FROM
 TVDS.m                  43.16:  TVDSS CORRECTN
 LATI.deg                40.17:  LATITUDE
 LONG.deg                51.17:  LONGITUDE
 WHNS.m                  -0.12:  WELL HEAD N/S
 WHEW.m                  -5.41:  WELL HEAD E/W
 UTMX.m              514337.95:  UTM X
 UTMY.m             4448627.46:  UTM Y
 DFWL.m                   0.00:  DISTANCE FWL
 DFSL.m                   0.00:  DISTANCE FSL
 SDEP.m                3088.01:  START DEPTH
 TDD .m                5200.01:  TOTAL DEPTH (DRILLER)
 VSDR.deg               244.51:  VERT SEC DIRECT
 GVFD.g                   1.00:  GRAVITY FIELD
 MFLD.nT              50329.80:  MAGNETIC FIELD
 MDIP.deg                59.63:  MAGNETIC DIP
 MDEC.deg                 6.59:  MAGNETIC DECL
 GRDC.deg                 0.09:  GRID CORRECTION
 AZTC.deg                 6.50:  AZM TOTAL CORR
 EPD .m                   0.00:  ELEVATION
 EGL .m                   0.00:  GROUND ELEVATION
 WDMS.m                 176.20:  WD ELEV
 APD .m                  43.16:  DEPTH ABOVE PD
 DEP .m                3084.71:  DEPTH
 AGAP.m                  43.16:  AIR GAP
 VSEW.m                  -5.41:  VERT SEC E/W
 VSNS.m                  -0.12:  VERT SEC N/S
 EKB .m                   0.00:  KB ELEVATION
 EDF .m                  43.16:  DF ELEVATION
 TDL .m                 243.00:  TOTAL DEPTH (LOGGER)
 VSC .                       0:  VS TO CLOSURE
 MAGU.                 1853542:  MAGUTM CHECKSUM
~Parameter Information Block
#MNEM.UNIT       Value        Description
#---------     -----------    ---------------------------
 AV  .mps                 1.91:  Ann Velocity 
 AVMX.mps                 2.52:  Max Ann Veloc 
 AZIF.deg               308.97:  Azm, Final 
 BHAT.        Rotary Steerable:  BHA Type 
 BROT.°/30m               1.00:  Build Rotating 
 BS  .in                  6.50:  Bit Size 
 BSZ .in                  6.50:  Bit Size 
 BTPL.psig              350.00:  Bit Press Loss 
 CABU.                      No:  Customer Abuse 
 CGEO.           Asif Pashayev:  Customer Geo 
 COMM.                     6…:  Run Comments 1 
 TCS .hr                 35.86:  Time Ciculation Ended 
 CV  .mps                 2.31:  Crit Velocity 
 CVMX.mps                 2.31:  Max Crit Veloc 
 DD1 .         Intigam Rahimov:  Direct Drillr 1 
 DDSV.               Geo-Pilot:  DD Service 
 DEFF.%                  92.00:  % Det Eff 
 DLRX.°/30m               1.00:  Dogleg Rot Max 
 DLSO.°/30m               1.00:  Dogleg Oriented 
 DLSX.°/30m               1.42:  Dogleg Str Max 
 DRET.      15.50.00 07-Aug-20:  Drill End Time 
 DRST.      10.40.00 06-Aug-20:  Drill Start Tim 
 DTIM.hr                 21.30:  Time Drilling 
 EDEP.m                5200.01:  End Depth 
 ENG1.            Alan Tuganov:  Engineer 1 
 ENG2.         Almaz Almadatov:  Engineer 2 
 ENG3.     Zammelal Abdullah Sani:  Engineer 3 
 ETIM.      22.42.00 08-Aug-20:  End Time 
 FLOI.gpm               395.00:  Flow In 
 FLON.gpm               350.00:  Flow In Min 
 FLOS.cptm                0.00:  Fluid Loss 
 FLOX.gpm               404.00:  Flow In Max 
 FTRO.       Formation Presure:  FTWD Run Obj 
 HFLO.                      No:  High Flow 
 HPRE.                      No:  High Pressure 
 HTEM.                      No:  High Temp 
 HYDO.m                   1.80:  Hydro Offset 
 IFIN.deg                72.64:  Inc, Final 
 IMAX.deg                73.68:  Inc Max 
 IMIN.deg                72.64:  Inc Min 
 IMND.m                5189.69:  Inc Min Depth 
 IMXD.m                5067.88:  Inc Max Depth 
 JARR.                      No:  Jarring 
 LETM.      15.50.00 07-Aug-20:  Log End Time 
 LOST.hr                     0:  Lost Rig Time 
 LSTM.      10.40.00 06-Aug-20:  Log Start Time 
 MDCL.ppm             36000.00:  Mud Chlorides 
 MDES.     Inversion Oil/Synthetic:  Mud Desc 
 DFD .sg                  1.36:  Mud Density 
 MDMN.sg                  1.36:  Dens Mud Min 
 MDMX.sg                  1.36:  Dens Mud Max 
 MOIL.                      70:  Run Mud Oil % 
 MOWR.                   70:30:  Run Mud OWR 
 MSND.                    0.00:  Run Mud Sand % 
 MSOL.                   17.60:  Run Mud Solids% 
 DFV .spqt               73.00:  Mud Viscosity 
 MWOD.in                  4.75:  MWD Tool OD 
 MWSI.                      No:  Serv Intrp, MWD 
 OTIM.hr                 85.66:  Time Operating 
 PCON.           Look Like New:  Pad Condition 
 PMAX.psia             6250.00:  Press Op, Max 
 PV  .cP                 65.00:  Mud PV 
 RUN .                     900:  Run Number 
 ROPA.m/hr               11.40:  ROP Avg 
 ROPN.m/hr                5.00:  ROP Min 
 ROPX.m/hr               20.00:  ROP Max 
 RPMA.rpm               130.00:  RPM Surface Avg 
 RPMN.rpm                40.00:  RPM Surface Min 
 RPMX.rpm               140.00:  RPM Surface Max 
 RRUN.                    L205:  Rig Run Number 
 RTIM.hr                  1.00:  Time Reaming 
 SAZI.deg               313.52:  Azm, Start 
 SDEP.m                4957.01:  Start Depth 
 SIDD.                      No:  Serv Intrp, DD 
 SINC.deg                73.16:  Inc, Start 
 SPPA.psig             5657.00:  SPP Avg 
 SPPN.psig             2500.00:  SPP Min 
 SPPX.psig             5806.00:  SPP Max 
 STIM.      07.12.00 05-Aug-20:  Start Time 
 SVCS.                 DD, MWD:  Services 
 SVER.                    9.20:  Sperry Version 
 TDAT.m                 243.00:  Tot Depth Attmp 
 TDDF.                      No:  Trip for DD 
 TDLG.m                 243.00:  Tot Depth Loggd 
 TFF .                      No:  Trip for Fail 
 TQAA.f-kp               13.00:  Torque Abs Avg 
 TQAN.f-kp               11.00:  Torque Abs Min 
 TQAX.f-kp               16.00:  Torque Abs Max 
 TRRT.°/30m               1.00:  Turn Rotating 
 MRT .                    HCIM:  Maximum Recorded Temperature 
 TTMX.degC               96.08:  Max Tool Temp 
 VS01.                90515411:  Virtual Str1 SN 
 VS02.                90512716:  Virtual Str2 SN 
 VS03.                90522362:  Virtual Str3 SN 
 VS04.                90619415:  Virtual Str4 SN 
 VS05.                90619414:  Virtual Str5 SN 
 VS06.                90597748:  Virtual Str6 SN 
 WBMN.klb                 2.00:  WOB Min 
 WITN.           Adil Mammadov:  Customer Rep 
 WITN.     Alexander Yadullayev:  Customer Rep 2 
 WOBA.klb                 7.00:  WOB Avg 
 WOBX.klb                23.00:  WOB Max 
 YP  .lhf2               37.00:  Yield Point 
~Curve Information Block
#MNEM.UNIT                 API CODE     Curve Description
#---------               -----------    ---------------------------
 TIME.HHMMSS            00 000 000 000:  GT Time & Date
 GTDEPTH.m              00 000 000 000:  GT Depth
 GTPQH.psia             00 000 000 000:  GT HR Quartz Pressure
 GTTQ.degC              00 000 000 000:  GT Quartz Temperature
 GTTN.NONE              00 000 000 000:  GT Test Number
 GTET.sec               00 000 000 000:  GT Elapsed Test Time
 GTTVD.m                00 000 000 000:  GT True Vertical Depth
#Other Information
#
#WARRANTY: Halliburton will use its best efforts to furnish customers with 
#accurate information and interpretations that are part of, and incident to, the services 
#provided.  However, Halliburton cannot and does not warrant the accuracy 
#or correctness of such information and interpretations.  Under no circumstances should any 
#such information or interpretation be relied upon as the sole basis for any drilling, 
#completion, production, or financial decision or any procedure involving any risk to the 
#safety of any drilling venture, drilling rig or its crew or any other third party.  The 
#Customer has full responsibility for all drilling, completion and production operation.  
#Halliburton makes no representations or warranties, either expressed or 
#implied, including, but not limited to, the implied warranties of merchantability or fitness 
#for a particular purpose, with respect to the services rendered.  In no event will 
#Halliburton be liable for failure to obtain any particular results or for 
#any damages, including, but not limited to, indirect, special or consequential damages, 
#resulting from the use of any information or interpretation provided by Halliburton.
#
~A           TIME           GTDEPTH  GTPQH  GTTQ  GTTN   GTET   GTTVD  
# ...
   15:41:45.648.07-Aug-2020 5157.51 3489.58 88.79 11.00 180.87 2691.72
   15:41:45.848.07-Aug-2020 5157.51 3489.62 88.79 11.00 181.07 2691.72
   15:41:46.049.07-Aug-2020 5157.51 3489.61 88.79 11.00 181.27 2691.72
   15:41:46.249.07-Aug-2020 5157.51 3489.51 88.79 11.00 181.47 2691.72
   15:41:46.449.07-Aug-2020 5157.51 3489.75 88.79 11.00 181.67 2691.72
   15:41:46.649.07-Aug-2020 5157.51 3489.81 88.79 11.00 181.87 2691.72
   15:41:46.849.07-Aug-2020 5157.51 3489.78 88.79 11.00 182.08 2691.72
   15:41:47.049.07-Aug-2020 5157.51 3489.78 88.79 11.00 182.28 2691.72
   15:41:47.249.07-Aug-2020 5157.51 3489.71 88.79 11.00 182.48 2691.72
   15:41:47.449.07-Aug-2020 5157.51 3489.75 88.79 11.00 182.68 2691.72
   15:41:47.649.07-Aug-2020 5157.51 3489.82 88.79 11.00 182.88 2691.72
   15:41:47.849.07-Aug-2020 5157.51 3489.96 88.79 11.00 183.08 2691.72
   15:41:48.049.07-Aug-2020 5157.51 3489.96 88.79 11.00 183.28 2691.72
   15:41:48.249.07-Aug-2020 5157.51 3489.89 88.78 11.00 183.48 2691.72
   15:41:48.450.07-Aug-2020 5157.51 3489.77 88.78 11.00 183.68 2691.72
   15:41:48.650.07-Aug-2020 5157.51 3489.79 88.78 11.00 183.88 2691.72
   15:41:48.850.07-Aug-2020 5157.51 3489.93 88.78 11.00 184.08 2691.72
   15:41:49.050.07-Aug-2020 5157.51 3489.97 88.78 11.00 184.28 2691.72
   15:41:49.250.07-Aug-2020 5157.51 3489.72 88.78 11.00 184.48 2691.72
   15:41:49.450.07-Aug-2020 5157.51 3489.53 88.78 11.00 184.68 2691.72
   15:41:49.650.07-Aug-2020 5157.51 3490.20 88.78 11.00 184.88 2691.72
   15:41:49.850.07-Aug-2020 5157.51 3490.00 88.78 11.00 185.08 2691.72
   15:41:50.050.07-Aug-2020 5157.51 3489.84 88.78 11.00 185.28 2691.72
   15:41:50.250.07-Aug-2020 5157.51 3489.91 88.78 11.00 185.48 2691.72
   15:41:50.450.07-Aug-2020 5157.51 3489.99 88.78 11.00 185.68 2691.72
   15:41:50.650.07-Aug-2020 5157.51 3489.97 88.78 11.00 185.88 2691.72
   15:41:50.851.07-Aug-2020 5157.51 3489.92 88.78 11.00 186.08 2691.72
   15:41:51.051.07-Aug-2020 5157.51 3489.92 88.78 11.00 186.28 2691.72
   15:41:51.251.07-Aug-2020 5157.51 3489.98 88.78 11.00 186.48 2691.72
   15:41:51.451.07-Aug-2020 5157.51 3489.91 88.78 11.00 186.68 2691.72
   15:41:51.651.07-Aug-2020 5157.51 3489.96 88.78 11.00 186.88 2691.72
   15:41:51.851.07-Aug-2020 5157.51 3489.95 88.78 11.00 187.08 2691.72
   15:41:52.051.07-Aug-2020 5157.51 3489.95 88.78 11.00 187.28 2691.72
   15:41:52.251.07-Aug-2020 5157.51 3489.90 88.78 11.00 187.48 2691.72
   15:41:52.451.07-Aug-2020 5157.51 3490.01 88.77 11.00 187.68 2691.72
   15:41:52.651.07-Aug-2020 5157.51 3490.09 88.77 11.00 187.88 2691.72
   15:41:52.851.07-Aug-2020 5157.51 3489.80 88.77 11.00 188.08 2691.72
   15:41:53.051.07-Aug-2020 5157.51 3489.80 88.77 11.00 188.28 2691.72
   15:41:53.252.07-Aug-2020 5157.51 3490.05 88.77 11.00 188.48 2691.72
   15:41:53.452.07-Aug-2020 5157.51 3489.95 88.77 11.00 188.68 2691.72
   15:41:53.652.07-Aug-2020 5157.51 3489.98 88.77 11.00 188.88 2691.72
   15:41:53.852.07-Aug-2020 5157.51 3489.99 88.77 11.00 189.08 2691.72
   15:41:54.052.07-Aug-2020 5157.51 3490.00 88.77 11.00 189.28 2691.72
   15:41:54.252.07-Aug-2020 5157.51 3489.99 88.77 11.00 189.48 2691.72
   15:41:54.452.07-Aug-2020 5157.51 3489.95 88.77 11.00 189.68 2691.72
   15:41:54.652.07-Aug-2020 5157.51 3489.99 88.77 11.00 189.88 2691.72
   15:41:54.852.07-Aug-2020 5157.51 3489.63 88.77 11.00 190.08 2691.72
   15:41:55.052.07-Aug-2020 5157.51 3489.63 88.77 11.00 190.28 2691.72
   15:41:55.252.07-Aug-2020 5157.51 3490.07 88.77 11.00 190.48 2691.72
   15:41:55.452.07-Aug-2020 5157.51 3490.03 88.77 11.00 190.68 2691.72
   15:41:55.652.07-Aug-2020 5157.51 3489.95 88.77 11.00 190.88 2691.72
   15:41:55.853.07-Aug-2020 5157.51 3490.04 88.77 11.00 191.08 2691.72
   15:41:56.053.07-Aug-2020 5157.51 3490.04 88.77 11.00 191.28 2691.72
   15:41:56.253.07-Aug-2020 5157.51 3490.22 88.77 11.00 191.48 2691.72
   15:41:56.453.07-Aug-2020 5157.51 3490.14 88.77 11.00 191.68 2691.72
   15:41:56.653.07-Aug-2020 5157.51 3490.05 88.77 11.00 191.88 2691.72
   15:41:56.853.07-Aug-2020 5157.51 3489.76 88.76 11.00 192.08 2691.72
   15:41:57.053.07-Aug-2020 5157.51 3489.76 88.76 11.00 192.28 2691.72
   15:41:57.253.07-Aug-2020 5157.51 3490.23 88.76 11.00 192.48 2691.72
   15:41:57.453.07-Aug-2020 5157.51 3489.88 88.76 11.00 192.68 2691.72
   15:41:57.653.07-Aug-2020 5157.51 3489.80 88.76 11.00 192.88 2691.72
   15:41:57.853.07-Aug-2020 5157.51 3490.29 88.76 11.00 193.08 2691.72
   15:41:58.053.07-Aug-2020 5157.51 3490.29 88.76 11.00 193.28 2691.72
   15:41:58.254.07-Aug-2020 5157.51 3489.92 88.76 11.00 193.48 2691.72
   15:41:58.454.07-Aug-2020 5157.51 3490.11 88.76 11.00 193.68 2691.72
   15:41:58.654.07-Aug-2020 5157.51 3490.12 88.76 11.00 193.88 2691.72
   15:41:58.854.07-Aug-2020 5157.51 3490.10 88.76 11.00 194.08 2691.72
   15:41:59.054.07-Aug-2020 5157.51 3490.10 88.76 11.00 194.28 2691.72
   15:41:59.254.07-Aug-2020 5157.51 3490.10 88.76 11.00 194.48 2691.72
   15:41:59.454.07-Aug-2020 5157.51 3490.09 88.76 11.00 194.68 2691.72
   15:41:59.654.07-Aug-2020 5157.51 3490.08 88.76 11.00 194.88 2691.72
   15:41:59.854.07-Aug-2020 5157.51 3490.04 88.76 11.00 195.08 2691.72
   15:42:00.054.07-Aug-2020 5157.51 3490.04 88.76 11.00 195.28 2691.72
   15:42:00.254.07-Aug-2020 5157.51 3489.93 88.76 11.00 195.48 2691.72
   15:42:00.454.07-Aug-2020 5157.51 3490.11 88.76 11.00 195.68 2691.72
   15:42:00.655.07-Aug-2020 5157.51 3490.08 88.76 11.00 195.88 2691.72
   15:42:00.855.07-Aug-2020 5157.51 3490.17 88.75 11.00 196.08 2691.72
   15:42:01.055.07-Aug-2020 5157.51 3490.17 88.75 11.00 196.28 2691.72
   15:42:01.255.07-Aug-2020 5157.51 3490.15 88.75 11.00 196.48 2691.72
   15:42:01.455.07-Aug-2020 5157.51 3490.15 88.75 11.00 196.68 2691.72
   15:42:01.655.07-Aug-2020 5157.51 3490.03 88.75 11.00 196.88 2691.72
   15:42:01.855.07-Aug-2020 5157.51 3490.05 88.75 11.00 197.08 2691.72
   15:42:02.055.07-Aug-2020 5157.51 3490.11 88.75 11.00 197.28 2691.72
   15:42:02.255.07-Aug-2020 5157.51 3490.08 88.75 11.00 197.48 2691.72
   15:42:02.455.07-Aug-2020 5157.51 3490.06 88.75 11.00 197.68 2691.72
   15:42:02.655.07-Aug-2020 5157.51 3490.04 88.75 11.00 197.88 2691.72
   15:42:02.855.07-Aug-2020 5157.51 3490.09 88.75 11.00 198.08 2691.72
   15:42:03.056.07-Aug-2020 5157.51 3490.09 88.75 11.00 198.28 2691.72
   15:42:03.256.07-Aug-2020 5157.51 3490.32 88.75 11.00 198.48 2691.72
   15:42:03.456.07-Aug-2020 5157.51 3490.20 88.75 11.00 198.68 2691.72
   15:42:03.656.07-Aug-2020 5157.51 3490.01 88.75 11.00 198.88 2691.72
   15:42:03.856.07-Aug-2020 5157.51 3490.07 88.75 11.00 199.08 2691.72
   15:42:04.056.07-Aug-2020 5157.51 3490.07 88.75 11.00 199.28 2691.72
   15:42:04.256.07-Aug-2020 5157.51 3489.83 88.75 11.00 199.48 2691.72
   15:42:04.456.07-Aug-2020 5157.51 3490.19 88.75 11.00 199.68 2691.72
   15:42:04.656.07-Aug-2020 5157.51 3490.21 88.75 11.00 199.88 2691.72
   15:42:04.856.07-Aug-2020 5157.51 3490.09 88.75 11.00 200.08 2691.72
   15:42:05.056.07-Aug-2020 5157.51 3490.09 88.74 11.00 200.28 2691.72
   15:42:05.256.07-Aug-2020 5157.51 3490.17 88.74 11.00 200.48 2691.72
   15:42:05.457.07-Aug-2020 5157.51 3490.34 88.74 11.00 200.68 2691.72
   15:42:05.657.07-Aug-2020 5157.51 3489.89 88.74 11.00 200.88 2691.72
   15:42:05.857.07-Aug-2020 5157.51 3489.85 88.74 11.00 201.08 2691.72
   15:42:06.057.07-Aug-2020 5157.51 3490.32 88.74 11.00 201.28 2691.72
   15:42:06.257.07-Aug-2020 5157.51 3490.22 88.74 11.00 201.48 2691.72
   15:42:06.457.07-Aug-2020 5157.51 3490.08 88.74 11.00 201.68 2691.72
   15:42:06.657.07-Aug-2020 5157.51 3490.08 88.74 11.00 201.88 2691.72
   15:42:06.857.07-Aug-2020 5157.51 3490.15 88.74 11.00 202.08 2691.72
   15:42:07.057.07-Aug-2020 5157.51 3490.15 88.74 11.00 202.28 2691.72
   15:42:07.257.07-Aug-2020 5157.51 3490.07 88.74 11.00 202.48 2691.72
   15:42:07.457.07-Aug-2020 5157.51 3490.16 88.74 11.00 202.68 2691.72
   15:42:07.657.07-Aug-2020 5157.51 3490.16 88.74 11.00 202.88 2691.72
   15:42:07.858.07-Aug-2020 5157.51 3490.10 88.74 11.00 203.08 2691.72
   15:42:08.058.07-Aug-2020 5157.51 3490.10 88.74 11.00 203.28 2691.72
