~Version Information
 VERS.                  2.0:   CWLS log ASCII Standard -VERSION 2.0
 WRAP.                   NO:   One line per depth step
~Well Information Block
#MNEM.UNIT     VALUE/NAME     DESCRIPTION
#---------     -----------    ---------------------------
 STRT.S             06:40:56 07-Aug-20: START TIME 06:40:56 07-Aug-20
 STOP.S             06:48:48 07-Aug-20: STOP TIME  06:48:48 07-Aug-20
 STEP.S                   0.00: STEP TIME
 NULL.                 -999.25: NULL VALUE
 DFWT.                        :  DIST FWL TEXT
 DFST.                        :  DIST FSL TEXT
 DMF .             Drill Floor:  DRILL MEAS FROM
 STIM.      12.00.00 03-Jul-20:  START TIME
 DATE.      00.50.00 09-Aug-20:  END TIME
 SPUD.               03-Jul-20:  SPUD DATE
 NREF.                    Grid:  NORTH REFERENCE
 HPTY.       Minimum Curvature:  HOLE POS TYPE
 DMOD.             Drill Model:  DRILL MOD DESC
 SVYD.                  Survey:  SURVEY DESC
 ILTD.               Lithology:  INTERP LTH DESC
 FTOP.          Formation Tops:  FORM TOPS DESC
 PDAT.          Mean Sea Level:  PERMANENT DATUM
 FLD .                     ACG:  FIELD NAME
 CTRY.              Azerbaijan:  COUNTRY NAME
 WELL.                    E04x:  WELL NAME
 SRVC.          Turan Drilling:  CONTRACTOR
 COMP.     BP Exploration (Caspian Sea) Ltd.:  COMPANY
 SON .        AZ-XX-0906531346:  JOB NUMBER
 WTYP.                Deviated:  WELL TYPE
 MDS .        Operator Entered:  MAG DATA SOURCE
 UWI .                     N/A:  UNIQUE WELL IDENTIFIER
 API .                     N/A:  API NUMBER
 BASE.              Azerbaijan:  LOGGING EQUIPMENT BASE LOCATION
 REGN.                   EESSA:  REGION
 PROV.                    Baku:  PROVINCE
 STAT.                    Baku:  STATE NAME
 MWDS.                    Baku:  MWD SHOP
 JOBN.        AZ-XX-0906531346:  JOB TICKET NUMB
 RIG .                     DWG:  RIG NAME
 DOE .                     N/A:  DOE NUMBER
 DCON.         Sperry Drilling:  DIRECTNL CONTR
 UNIT.                     N/A:  LOGGING EQUIPMENT ID
 CNTY.                        :  COUNTY
 LOC .                        :  LOCATION
 LMF .             Drill Floor:  LOG MEASURED FROM
 TVDS.m                  43.16:  TVDSS CORRECTN
 LATI.deg                40.17:  LATITUDE
 LONG.deg                51.17:  LONGITUDE
 WHNS.m                  -0.12:  WELL HEAD N/S
 WHEW.m                  -5.41:  WELL HEAD E/W
 UTMX.m              514337.95:  UTM X
 UTMY.m             4448627.46:  UTM Y
 DFWL.m                   0.00:  DISTANCE FWL
 DFSL.m                   0.00:  DISTANCE FSL
 SDEP.m                3088.01:  START DEPTH
 TDD .m                5200.01:  TOTAL DEPTH (DRILLER)
 VSDR.deg               244.51:  VERT SEC DIRECT
 GVFD.g                   1.00:  GRAVITY FIELD
 MFLD.nT              50329.80:  MAGNETIC FIELD
 MDIP.deg                59.63:  MAGNETIC DIP
 MDEC.deg                 6.59:  MAGNETIC DECL
 GRDC.deg                 0.09:  GRID CORRECTION
 AZTC.deg                 6.50:  AZM TOTAL CORR
 EPD .m                   0.00:  ELEVATION
 EGL .m                   0.00:  GROUND ELEVATION
 WDMS.m                 176.20:  WD ELEV
 APD .m                  43.16:  DEPTH ABOVE PD
 DEP .m                3084.71:  DEPTH
 AGAP.m                  43.16:  AIR GAP
 VSEW.m                  -5.41:  VERT SEC E/W
 VSNS.m                  -0.12:  VERT SEC N/S
 EKB .m                   0.00:  KB ELEVATION
 EDF .m                  43.16:  DF ELEVATION
 TDL .m                 243.00:  TOTAL DEPTH (LOGGER)
 VSC .                       0:  VS TO CLOSURE
 MAGU.                 1853542:  MAGUTM CHECKSUM
~Parameter Information Block
#MNEM.UNIT       Value        Description
#---------     -----------    ---------------------------
 AV  .mps                 1.91:  Ann Velocity 
 AVMX.mps                 2.52:  Max Ann Veloc 
 AZIF.deg               308.97:  Azm, Final 
 BHAT.        Rotary Steerable:  BHA Type 
 BROT.°/30m               1.00:  Build Rotating 
 BS  .in                  6.50:  Bit Size 
 BSZ .in                  6.50:  Bit Size 
 BTPL.psig              350.00:  Bit Press Loss 
 CABU.                      No:  Customer Abuse 
 CGEO.           Asif Pashayev:  Customer Geo 
 TCS .hr                 35.86:  Time Ciculation Ended 
 CV  .mps                 2.31:  Crit Velocity 
 CVMX.mps                 2.31:  Max Crit Veloc 
 DD1 .         Intigam Rahimov:  Direct Drillr 1 
 DDSV.               Geo-Pilot:  DD Service 
 DEFF.%                  92.00:  % Det Eff 
 DLRX.°/30m               1.00:  Dogleg Rot Max 
 DLSO.°/30m               1.00:  Dogleg Oriented 
 DLSX.°/30m               1.42:  Dogleg Str Max 
 DRET.      15.50.00 07-Aug-20:  Drill End Time 
 DRST.      10.40.00 06-Aug-20:  Drill Start Tim 
 DTIM.hr                 21.30:  Time Drilling 
 EDEP.m                5200.01:  End Depth 
 ENG1.            Alan Tuganov:  Engineer 1 
 ENG2.         Almaz Almadatov:  Engineer 2 
 ENG3.     Zammelal Abdullah Sani:  Engineer 3 
 ETIM.      22.42.00 08-Aug-20:  End Time 
 FLOI.gpm               395.00:  Flow In 
 FLON.gpm               350.00:  Flow In Min 
 FLOS.cptm                0.00:  Fluid Loss 
 FLOX.gpm               404.00:  Flow In Max 
 FTRO.       Formation Presure:  FTWD Run Obj 
 HFLO.                      No:  High Flow 
 HPRE.                      No:  High Pressure 
 HTEM.                      No:  High Temp 
 HYDO.m                   1.80:  Hydro Offset 
 IFIN.deg                72.64:  Inc, Final 
 IMAX.deg                73.68:  Inc Max 
 IMIN.deg                72.64:  Inc Min 
 IMND.m                5189.69:  Inc Min Depth 
 IMXD.m                5067.88:  Inc Max Depth 
 JARR.                      No:  Jarring 
 LETM.      15.50.00 07-Aug-20:  Log End Time 
 LOST.hr                     0:  Lost Rig Time 
 LSTM.      10.40.00 06-Aug-20:  Log Start Time 
 MDCL.ppm             36000.00:  Mud Chlorides 
 MDES.     Inversion Oil/Synthetic:  Mud Desc 
 DFD .sg                  1.36:  Mud Density 
 MDMN.sg                  1.36:  Dens Mud Min 
 MDMX.sg                  1.36:  Dens Mud Max 
 MOIL.                      70:  Run Mud Oil % 
 MOWR.                   70:30:  Run Mud OWR 
 MSND.                    0.00:  Run Mud Sand % 
 MSOL.                   17.60:  Run Mud Solids% 
 DFV .spqt               73.00:  Mud Viscosity 
 MWOD.in                  4.75:  MWD Tool OD 
 MWSI.                      No:  Serv Intrp, MWD 
 OTIM.hr                 85.66:  Time Operating 
 PCON.           Look Like New:  Pad Condition 
 PMAX.psia             6250.00:  Press Op, Max 
 PV  .cP                 65.00:  Mud PV 
 RUN .                     900:  Run Number 
 ROPA.m/hr               11.40:  ROP Avg 
 ROPN.m/hr                5.00:  ROP Min 
 ROPX.m/hr               20.00:  ROP Max 
 RPMA.rpm               130.00:  RPM Surface Avg 
 RPMN.rpm                40.00:  RPM Surface Min 
 RPMX.rpm               140.00:  RPM Surface Max 
 RRUN.                    L205:  Rig Run Number 
 RTIM.hr                  1.00:  Time Reaming 
 SAZI.deg               313.52:  Azm, Start 
 SDEP.m                4957.01:  Start Depth 
 SIDD.                      No:  Serv Intrp, DD 
 SINC.deg                73.16:  Inc, Start 
 SPPA.psig             5657.00:  SPP Avg 
 SPPN.psig             2500.00:  SPP Min 
 SPPX.psig             5806.00:  SPP Max 
 STIM.      07.12.00 05-Aug-20:  Start Time 
 SVCS.                 DD, MWD:  Services 
 SVER.                    9.20:  Sperry Version 
 TDAT.m                 243.00:  Tot Depth Attmp 
 TDDF.                      No:  Trip for DD 
 TDLG.m                 243.00:  Tot Depth Loggd 
 TFF .                      No:  Trip for Fail 
 TQAA.f-kp               13.00:  Torque Abs Avg 
 TQAN.f-kp               11.00:  Torque Abs Min 
 TQAX.f-kp               16.00:  Torque Abs Max 
 TRRT.°/30m               1.00:  Turn Rotating 
 MRT .                    HCIM:  Maximum Recorded Temperature 
 TTMX.degC               96.08:  Max Tool Temp 
 VS01.                90515411:  Virtual Str1 SN 
 VS02.                90512716:  Virtual Str2 SN 
 VS03.                90522362:  Virtual Str3 SN 
 VS04.                90619415:  Virtual Str4 SN 
 VS05.                90619414:  Virtual Str5 SN 
 VS06.                90597748:  Virtual Str6 SN 
 WBMN.klb                 2.00:  WOB Min 
 WITN.           Adil Mammadov:  Customer Rep 
 WITN.     Alexander Yadullayev:  Customer Rep 2 
 WOBA.klb                 7.00:  WOB Avg 
 WOBX.klb                23.00:  WOB Max 
 YP  .lhf2               37.00:  Yield Point 
~Curve Information Block
#MNEM.UNIT                 API CODE     Curve Description
#---------               -----------    ---------------------------
 TIME.HHMMSS            00 000 000 000:  GT Time & Date
 GTDEPTH.m              00 000 000 000:  GT Depth
 GTPQH.psia             00 000 000 000:  GT HR Quartz Pressure
 GTTQ.degC              00 000 000 000:  GT Quartz Temperature
 GTTN.NONE              00 000 000 000:  GT Test Number
 GTET.sec               00 000 000 000:  GT Elapsed Test Time
 GTTVD.m                00 000 000 000:  GT True Vertical Depth
#Other Information
#
#WARRANTY: Halliburton will use its best efforts to furnish customers with 
#accurate information and interpretations that are part of, and incident to, the services 
#provided.  However, Halliburton cannot and does not warrant the accuracy 
#or correctness of such information and interpretations.  Under no circumstances should any 
#such information or interpretation be relied upon as the sole basis for any drilling, 
#completion, production, or financial decision or any procedure involving any risk to the 
#safety of any drilling venture, drilling rig or its crew or any other third party.  The 
#Customer has full responsibility for all drilling, completion and production operation.  
#Halliburton makes no representations or warranties, either expressed or 
#implied, including, but not limited to, the implied warranties of merchantability or fitness 
#for a particular purpose, with respect to the services rendered.  In no event will 
#Halliburton be liable for failure to obtain any particular results or for 
#any damages, including, but not limited to, indirect, special or consequential damages, 
#resulting from the use of any information or interpretation provided by Halliburton.
#
~A           TIME           GTDEPTH  GTPQH  GTTQ  GTTN  GTET   GTTVD  
# ...
   06:47:28.053.07-Aug-2020 5088.01 3690.86 88.06 8.00 391.11 2671.45
   06:47:28.253.07-Aug-2020 5088.01 3690.93 88.06 8.00 391.31 2671.45
   06:47:28.453.07-Aug-2020 5088.01 3690.87 88.06 8.00 391.51 2671.45
   06:47:28.653.07-Aug-2020 5088.01 3690.88 88.06 8.00 391.71 2671.45
   06:47:28.853.07-Aug-2020 5088.01 3690.95 88.06 8.00 391.91 2671.45
   06:47:29.053.07-Aug-2020 5088.01 3690.85 88.06 8.00 392.11 2671.45
   06:47:29.253.07-Aug-2020 5088.01 3690.93 88.06 8.00 392.31 2671.45
   06:47:29.453.07-Aug-2020 5088.01 3690.86 88.06 8.00 392.51 2671.45
   06:47:29.653.07-Aug-2020 5088.01 3690.93 88.06 8.00 392.71 2671.45
   06:47:29.853.07-Aug-2020 5088.01 3690.90 88.06 8.00 392.91 2671.45
   06:47:30.053.07-Aug-2020 5088.01 3690.86 88.06 8.00 393.11 2671.45
   06:47:30.253.07-Aug-2020 5088.01 3690.86 88.06 8.00 393.31 2671.45
   06:47:30.453.07-Aug-2020 5088.01 3690.92 88.06 8.00 393.51 2671.45
   06:47:30.653.07-Aug-2020 5088.01 3690.88 88.05 8.00 393.71 2671.45
   06:47:30.853.07-Aug-2020 5088.01 3690.92 88.05 8.00 393.91 2671.45
   06:47:31.053.07-Aug-2020 5088.01 3690.90 88.05 8.00 394.11 2671.45
   06:47:31.253.07-Aug-2020 5088.01 3690.90 88.05 8.00 394.31 2671.45
   06:47:31.454.07-Aug-2020 5088.01 3690.89 88.05 8.00 394.51 2671.45
   06:47:31.654.07-Aug-2020 5088.01 3690.89 88.05 8.00 394.71 2671.45
   06:47:31.854.07-Aug-2020 5088.01 3690.89 88.05 8.00 394.91 2671.45
   06:47:32.054.07-Aug-2020 5088.01 3690.89 88.05 8.00 395.11 2671.45
   06:47:32.254.07-Aug-2020 5088.01 3690.89 88.05 8.00 395.31 2671.45
   06:47:32.454.07-Aug-2020 5088.01 3690.98 88.05 8.00 395.51 2671.45
   06:47:32.654.07-Aug-2020 5088.01 3690.94 88.05 8.00 395.71 2671.45
   06:47:32.854.07-Aug-2020 5088.01 3690.87 88.05 8.00 395.91 2671.45
   06:47:33.054.07-Aug-2020 5088.01 3690.92 88.05 8.00 396.12 2671.45
   06:47:33.254.07-Aug-2020 5088.01 3690.88 88.05 8.00 396.32 2671.45
   06:47:33.454.07-Aug-2020 5088.01 3690.89 88.05 8.00 396.52 2671.45
   06:47:33.654.07-Aug-2020 5088.01 3690.89 88.05 8.00 396.72 2671.45
   06:47:33.854.07-Aug-2020 5088.01 3690.88 88.05 8.00 396.92 2671.45
   06:47:34.054.07-Aug-2020 5088.01 3690.89 88.05 8.00 397.12 2671.45
   06:47:34.254.07-Aug-2020 5088.01 3690.89 88.05 8.00 397.32 2671.45
   06:47:34.454.07-Aug-2020 5088.01 3690.88 88.05 8.00 397.52 2671.45
   06:47:34.654.07-Aug-2020 5088.01 3690.87 88.04 8.00 397.72 2671.45
   06:47:34.855.07-Aug-2020 5088.01 3690.85 88.04 8.00 397.92 2671.45
   06:47:35.055.07-Aug-2020 5088.01 3690.83 88.04 8.00 398.12 2671.45
   06:47:35.255.07-Aug-2020 5088.01 3690.83 88.04 8.00 398.32 2671.45
   06:47:35.455.07-Aug-2020 5088.01 3690.87 88.04 8.00 398.52 2671.45
   06:47:35.655.07-Aug-2020 5088.01 3690.90 88.04 8.00 398.72 2671.45
   06:47:35.855.07-Aug-2020 5088.01 3690.86 88.04 8.00 398.92 2671.45
   06:47:36.055.07-Aug-2020 5088.01 3690.87 88.04 8.00 399.12 2671.45
   06:47:36.255.07-Aug-2020 5088.01 3690.87 88.04 8.00 399.32 2671.45
   06:47:36.455.07-Aug-2020 5088.01 3690.86 88.04 8.00 399.52 2671.45
   06:47:36.655.07-Aug-2020 5088.01 3690.91 88.04 8.00 399.72 2671.45
   06:47:36.855.07-Aug-2020 5088.01 3690.89 88.04 8.00 399.92 2671.45
   06:47:37.055.07-Aug-2020 5088.01 3690.82 88.04 8.00 400.12 2671.45
   06:47:37.255.07-Aug-2020 5088.01 3690.92 88.04 8.00 400.32 2671.45
   06:47:37.455.07-Aug-2020 5088.01 3690.86 88.04 8.00 400.52 2671.45
   06:47:37.655.07-Aug-2020 5088.01 3690.92 88.04 8.00 400.72 2671.45
   06:47:37.855.07-Aug-2020 5088.01 3690.82 88.04 8.00 400.92 2671.45
   06:47:38.055.07-Aug-2020 5088.01 3690.91 88.04 8.00 401.12 2671.45
   06:47:38.256.07-Aug-2020 5088.01 3690.91 88.04 8.00 401.32 2671.45
   06:47:38.456.07-Aug-2020 5088.01 3690.86 88.04 8.00 401.52 2671.45
   06:47:38.656.07-Aug-2020 5088.01 3690.92 88.03 8.00 401.72 2671.45
   06:47:38.856.07-Aug-2020 5088.01 3690.89 88.03 8.00 401.92 2671.45
   06:47:39.056.07-Aug-2020 5088.01 3690.89 88.03 8.00 402.12 2671.45
   06:47:39.256.07-Aug-2020 5088.01 3690.89 88.03 8.00 402.32 2671.45
   06:47:39.456.07-Aug-2020 5088.01 3690.88 88.03 8.00 402.52 2671.45
   06:47:39.656.07-Aug-2020 5088.01 3690.88 88.03 8.00 402.72 2671.45
   06:47:39.856.07-Aug-2020 5088.01 3690.88 88.03 8.00 402.92 2671.45
   06:47:40.056.07-Aug-2020 5088.01 3690.89 88.03 8.00 403.12 2671.45
   06:47:40.256.07-Aug-2020 5088.01 3690.89 88.03 8.00 403.32 2671.45
   06:47:40.456.07-Aug-2020 5088.01 3690.89 88.03 8.00 403.52 2671.45
   06:47:40.656.07-Aug-2020 5088.01 3690.72 88.03 8.00 403.72 2671.45
   06:47:40.856.07-Aug-2020 5088.01 3690.98 88.03 8.00 403.92 2671.45
   06:47:41.056.07-Aug-2020 5088.01 3690.89 88.03 8.00 404.12 2671.45
   06:47:41.256.07-Aug-2020 5088.01 3690.89 88.03 8.00 404.32 2671.45
   06:47:41.456.07-Aug-2020 5088.01 3690.89 88.03 8.00 404.52 2671.45
   06:47:41.657.07-Aug-2020 5088.01 3690.88 88.03 8.00 404.72 2671.45
   06:47:41.857.07-Aug-2020 5088.01 3690.89 88.03 8.00 404.92 2671.45
   06:47:42.057.07-Aug-2020 5088.01 3690.88 88.03 8.00 405.12 2671.45
   06:47:42.257.07-Aug-2020 5088.01 3690.88 88.03 8.00 405.32 2671.45
   06:47:42.457.07-Aug-2020 5088.01 3690.87 88.03 8.00 405.52 2671.45
   06:47:42.657.07-Aug-2020 5088.01 3690.87 88.03 8.00 405.72 2671.45
   06:47:42.857.07-Aug-2020 5088.01 3690.86 88.02 8.00 405.92 2671.45
   06:47:43.057.07-Aug-2020 5088.01 3690.87 88.02 8.00 406.12 2671.45
   06:47:43.257.07-Aug-2020 5088.01 3690.87 88.02 8.00 406.32 2671.45
   06:47:43.457.07-Aug-2020 5088.01 3690.88 88.02 8.00 406.52 2671.45
   06:47:43.657.07-Aug-2020 5088.01 3690.90 88.02 8.00 406.72 2671.45
   06:47:43.857.07-Aug-2020 5088.01 3690.85 88.02 8.00 406.92 2671.45
   06:47:44.057.07-Aug-2020 5088.01 3690.90 88.02 8.00 407.12 2671.45
   06:47:44.257.07-Aug-2020 5088.01 3690.90 88.02 8.00 407.32 2671.45
   06:47:44.457.07-Aug-2020 5088.01 3690.92 88.02 8.00 407.52 2671.45
   06:47:44.657.07-Aug-2020 5088.01 3690.89 88.02 8.00 407.72 2671.45
   06:47:44.857.07-Aug-2020 5088.01 3690.83 88.02 8.00 407.92 2671.45
   06:47:45.057.07-Aug-2020 5088.01 3690.93 88.02 8.00 408.12 2671.45
   06:47:45.258.07-Aug-2020 5088.01 3690.85 88.02 8.00 408.32 2671.45
   06:47:45.458.07-Aug-2020 5088.01 3690.87 88.02 8.00 408.52 2671.45
   06:47:45.658.07-Aug-2020 5088.01 3690.92 88.02 8.00 408.72 2671.45
   06:47:45.858.07-Aug-2020 5088.01 3690.84 88.02 8.00 408.92 2671.45
   06:47:46.058.07-Aug-2020 5088.01 3690.91 88.02 8.00 409.12 2671.45
   06:47:46.258.07-Aug-2020 5088.01 3690.91 88.02 8.00 409.32 2671.45
   06:47:46.458.07-Aug-2020 5088.01 3690.91 88.02 8.00 409.52 2671.45
   06:47:46.658.07-Aug-2020 5088.01 3690.91 88.02 8.00 409.72 2671.45
   06:47:46.858.07-Aug-2020 5088.01 3690.84 88.02 8.00 409.92 2671.45
   06:47:47.058.07-Aug-2020 5088.01 3690.91 88.01 8.00 410.12 2671.45
   06:47:47.258.07-Aug-2020 5088.01 3690.91 88.01 8.00 410.32 2671.45
   06:47:47.458.07-Aug-2020 5088.01 3690.87 88.01 8.00 410.52 2671.45
   06:47:47.658.07-Aug-2020 5088.01 3690.89 88.01 8.00 410.72 2671.45
   06:47:47.858.07-Aug-2020 5088.01 3690.87 88.01 8.00 410.92 2671.45
   06:47:48.058.07-Aug-2020 5088.01 3690.89 88.01 8.00 411.12 2671.45
   06:47:48.258.07-Aug-2020 5088.01 3690.89 88.01 8.00 411.32 2671.45
   06:47:48.458.07-Aug-2020 5088.01 3690.87 88.01 8.00 411.52 2671.45
   06:47:48.659.07-Aug-2020 5088.01 3690.88 88.01 8.00 411.72 2671.45
   06:47:48.859.07-Aug-2020 5088.01 3690.87 88.01 8.00 411.92 2671.45
   06:47:49.059.07-Aug-2020 5088.01 3690.70 88.01 8.00 412.12 2671.45
   06:47:49.259.07-Aug-2020 5088.01 3690.97 88.01 8.00 412.32 2671.45
   06:47:49.459.07-Aug-2020 5088.01 3690.91 88.01 8.00 412.52 2671.45
   06:47:49.659.07-Aug-2020 5088.01 3690.87 88.01 8.00 412.72 2671.45
   06:47:49.859.07-Aug-2020 5088.01 3690.89 88.01 8.00 412.92 2671.45
   06:47:50.059.07-Aug-2020 5088.01 3690.88 88.01 8.00 413.12 2671.45
   06:47:50.259.07-Aug-2020 5088.01 3690.88 88.01 8.00 413.32 2671.45
   06:47:50.459.07-Aug-2020 5088.01 3690.88 88.01 8.00 413.52 2671.45
   06:47:50.659.07-Aug-2020 5088.01 3690.87 88.01 8.00 413.72 2671.45
   06:47:50.859.07-Aug-2020 5088.01 3690.87 88.01 8.00 413.92 2671.45
