~Version Information
 VERS.                  2.0:   CWLS log ASCII Standard -VERSION 2.0
 WRAP.                   NO:   One line per depth step
~Well Information Block
#MNEM.UNIT     VALUE/NAME     DESCRIPTION
#---------     -----------    ---------------------------
 STRT.S             20:19:41 06-Aug-20: START TIME 20:19:41 06-Aug-20
 STOP.S             20:27:33 06-Aug-20: STOP TIME  20:27:33 06-Aug-20
 STEP.S                   0.00: STEP TIME
 NULL.                 -999.25: NULL VALUE
 DFWT.                        :  DIST FWL TEXT
 DFST.                        :  DIST FSL TEXT
 DMF .             Drill Floor:  DRILL MEAS FROM
 STIM.      12.00.00 03-Jul-20:  START TIME
 DATE.      00.50.00 09-Aug-20:  END TIME
 SPUD.               03-Jul-20:  SPUD DATE
 NREF.                    Grid:  NORTH REFERENCE
 HPTY.       Minimum Curvature:  HOLE POS TYPE
 DMOD.             Drill Model:  DRILL MOD DESC
 SVYD.                  Survey:  SURVEY DESC
 ILTD.               Lithology:  INTERP LTH DESC
 FTOP.          Formation Tops:  FORM TOPS DESC
 PDAT.          Mean Sea Level:  PERMANENT DATUM
 FLD .                     ACG:  FIELD NAME
 CTRY.              Azerbaijan:  COUNTRY NAME
 WELL.                    E04x:  WELL NAME
 SRVC.          Turan Drilling:  CONTRACTOR
 COMP.     BP Exploration (Caspian Sea) Ltd.:  COMPANY
 SON .        AZ-XX-0906531346:  JOB NUMBER
 WTYP.                Deviated:  WELL TYPE
 MDS .        Operator Entered:  MAG DATA SOURCE
 UWI .                     N/A:  UNIQUE WELL IDENTIFIER
 API .                     N/A:  API NUMBER
 BASE.              Azerbaijan:  LOGGING EQUIPMENT BASE LOCATION
 REGN.                   EESSA:  REGION
 PROV.                    Baku:  PROVINCE
 STAT.                    Baku:  STATE NAME
 MWDS.                    Baku:  MWD SHOP
 JOBN.        AZ-XX-0906531346:  JOB TICKET NUMB
 RIG .                     DWG:  RIG NAME
 DOE .                     N/A:  DOE NUMBER
 DCON.         Sperry Drilling:  DIRECTNL CONTR
 UNIT.                     N/A:  LOGGING EQUIPMENT ID
 CNTY.                        :  COUNTY
 LOC .                        :  LOCATION
 LMF .             Drill Floor:  LOG MEASURED FROM
 TVDS.m                  43.16:  TVDSS CORRECTN
 LATI.deg                40.17:  LATITUDE
 LONG.deg                51.17:  LONGITUDE
 WHNS.m                  -0.12:  WELL HEAD N/S
 WHEW.m                  -5.41:  WELL HEAD E/W
 UTMX.m              514337.95:  UTM X
 UTMY.m             4448627.46:  UTM Y
 DFWL.m                   0.00:  DISTANCE FWL
 DFSL.m                   0.00:  DISTANCE FSL
 SDEP.m                3088.01:  START DEPTH
 TDD .m                5200.01:  TOTAL DEPTH (DRILLER)
 VSDR.deg               244.51:  VERT SEC DIRECT
 GVFD.g                   1.00:  GRAVITY FIELD
 MFLD.nT              50329.80:  MAGNETIC FIELD
 MDIP.deg                59.63:  MAGNETIC DIP
 MDEC.deg                 6.59:  MAGNETIC DECL
 GRDC.deg                 0.09:  GRID CORRECTION
 AZTC.deg                 6.50:  AZM TOTAL CORR
 EPD .m                   0.00:  ELEVATION
 EGL .m                   0.00:  GROUND ELEVATION
 WDMS.m                 176.20:  WD ELEV
 APD .m                  43.16:  DEPTH ABOVE PD
 DEP .m                3084.71:  DEPTH
 AGAP.m                  43.16:  AIR GAP
 VSEW.m                  -5.41:  VERT SEC E/W
 VSNS.m                  -0.12:  VERT SEC N/S
 EKB .m                   0.00:  KB ELEVATION
 EDF .m                  43.16:  DF ELEVATION
 TDL .m                 243.00:  TOTAL DEPTH (LOGGER)
 VSC .                       0:  VS TO CLOSURE
 MAGU.                 1853542:  MAGUTM CHECKSUM
~Parameter Information Block
#MNEM.UNIT       Value        Description
#---------     -----------    ---------------------------
 AV  .mps                 1.91:  Ann Velocity 
 AVMX.mps                 2.52:  Max Ann Veloc 
 AZIF.deg               308.97:  Azm, Final 
 BHAT.        Rotary Steerable:  BHA Type 
 BROT.°/30m               1.00:  Build Rotating 
 BS  .in                  6.50:  Bit Size 
 BSZ .in                  6.50:  Bit Size 
 BTPL.psig              350.00:  Bit Press Loss 
 CABU.                      No:  Customer Abuse 
 CGEO.           Asif Pashayev:  Customer Geo 
 COMM.                     4è‹:  Run Comments 1 
 TCS .hr                 35.86:  Time Ciculation Ended 
 CV  .mps                 2.31:  Crit Velocity 
 CVMX.mps                 2.31:  Max Crit Veloc 
 DD1 .         Intigam Rahimov:  Direct Drillr 1 
 DDSV.               Geo-Pilot:  DD Service 
 DEFF.%                  92.00:  % Det Eff 
 DLRX.°/30m               1.00:  Dogleg Rot Max 
 DLSO.°/30m               1.00:  Dogleg Oriented 
 DLSX.°/30m               1.42:  Dogleg Str Max 
 DRET.      15.50.00 07-Aug-20:  Drill End Time 
 DRST.      10.40.00 06-Aug-20:  Drill Start Tim 
 DTIM.hr                 21.30:  Time Drilling 
 EDEP.m                5200.01:  End Depth 
 ENG1.            Alan Tuganov:  Engineer 1 
 ENG2.         Almaz Almadatov:  Engineer 2 
 ENG3.     Zammelal Abdullah Sani:  Engineer 3 
 ETIM.      22.42.00 08-Aug-20:  End Time 
 FLOI.gpm               395.00:  Flow In 
 FLON.gpm               350.00:  Flow In Min 
 FLOS.cptm                0.00:  Fluid Loss 
 FLOX.gpm               404.00:  Flow In Max 
 FTRO.       Formation Presure:  FTWD Run Obj 
 HFLO.                      No:  High Flow 
 HPRE.                      No:  High Pressure 
 HTEM.                      No:  High Temp 
 HYDO.m                   1.80:  Hydro Offset 
 IFIN.deg                72.64:  Inc, Final 
 IMAX.deg                73.68:  Inc Max 
 IMIN.deg                72.64:  Inc Min 
 IMND.m                5189.69:  Inc Min Depth 
 IMXD.m                5067.88:  Inc Max Depth 
 JARR.                      No:  Jarring 
 LETM.      15.50.00 07-Aug-20:  Log End Time 
 LOST.hr                     0:  Lost Rig Time 
 LSTM.      10.40.00 06-Aug-20:  Log Start Time 
 MDCL.ppm             36000.00:  Mud Chlorides 
 MDES.     Inversion Oil/Synthetic:  Mud Desc 
 DFD .sg                  1.36:  Mud Density 
 MDMN.sg                  1.36:  Dens Mud Min 
 MDMX.sg                  1.36:  Dens Mud Max 
 MOIL.                      70:  Run Mud Oil % 
 MOWR.                   70:30:  Run Mud OWR 
 MSND.                    0.00:  Run Mud Sand % 
 MSOL.                   17.60:  Run Mud Solids% 
 DFV .spqt               73.00:  Mud Viscosity 
 MWOD.in                  4.75:  MWD Tool OD 
 MWSI.                      No:  Serv Intrp, MWD 
 OTIM.hr                 85.66:  Time Operating 
 PCON.           Look Like New:  Pad Condition 
 PMAX.psia             6250.00:  Press Op, Max 
 PV  .cP                 65.00:  Mud PV 
 RUN .                     900:  Run Number 
 ROPA.m/hr               11.40:  ROP Avg 
 ROPN.m/hr                5.00:  ROP Min 
 ROPX.m/hr               20.00:  ROP Max 
 RPMA.rpm               130.00:  RPM Surface Avg 
 RPMN.rpm                40.00:  RPM Surface Min 
 RPMX.rpm               140.00:  RPM Surface Max 
 RRUN.                    L205:  Rig Run Number 
 RTIM.hr                  1.00:  Time Reaming 
 SAZI.deg               313.52:  Azm, Start 
 SDEP.m                4957.01:  Start Depth 
 SIDD.                      No:  Serv Intrp, DD 
 SINC.deg                73.16:  Inc, Start 
 SPPA.psig             5657.00:  SPP Avg 
 SPPN.psig             2500.00:  SPP Min 
 SPPX.psig             5806.00:  SPP Max 
 STIM.      07.12.00 05-Aug-20:  Start Time 
 SVCS.                 DD, MWD:  Services 
 SVER.                    9.20:  Sperry Version 
 TDAT.m                 243.00:  Tot Depth Attmp 
 TDDF.                      No:  Trip for DD 
 TDLG.m                 243.00:  Tot Depth Loggd 
 TFF .                      No:  Trip for Fail 
 TQAA.f-kp               13.00:  Torque Abs Avg 
 TQAN.f-kp               11.00:  Torque Abs Min 
 TQAX.f-kp               16.00:  Torque Abs Max 
 TRRT.°/30m               1.00:  Turn Rotating 
 MRT .                    HCIM:  Maximum Recorded Temperature 
 TTMX.degC               96.08:  Max Tool Temp 
 VS01.                90515411:  Virtual Str1 SN 
 VS02.                90512716:  Virtual Str2 SN 
 VS03.                90522362:  Virtual Str3 SN 
 VS04.                90619415:  Virtual Str4 SN 
 VS05.                90619414:  Virtual Str5 SN 
 VS06.                90597748:  Virtual Str6 SN 
 WBMN.klb                 2.00:  WOB Min 
 WITN.           Adil Mammadov:  Customer Rep 
 WITN.     Alexander Yadullayev:  Customer Rep 2 
 WOBA.klb                 7.00:  WOB Avg 
 WOBX.klb                23.00:  WOB Max 
 YP  .lhf2               37.00:  Yield Point 
~Curve Information Block
#MNEM.UNIT                 API CODE     Curve Description
#---------               -----------    ---------------------------
 TIME.HHMMSS            00 000 000 000:  GT Time & Date
 GTDEPTH.m              00 000 000 000:  GT Depth
 GTPQH.psia             00 000 000 000:  GT HR Quartz Pressure
 GTTQ.degC              00 000 000 000:  GT Quartz Temperature
 GTTN.NONE              00 000 000 000:  GT Test Number
 GTET.sec               00 000 000 000:  GT Elapsed Test Time
 GTTVD.m                00 000 000 000:  GT True Vertical Depth
#Other Information
#
#WARRANTY: Halliburton will use its best efforts to furnish customers with 
#accurate information and interpretations that are part of, and incident to, the services 
#provided.  However, Halliburton cannot and does not warrant the accuracy 
#or correctness of such information and interpretations.  Under no circumstances should any 
#such information or interpretation be relied upon as the sole basis for any drilling, 
#completion, production, or financial decision or any procedure involving any risk to the 
#safety of any drilling venture, drilling rig or its crew or any other third party.  The 
#Customer has full responsibility for all drilling, completion and production operation.  
#Halliburton makes no representations or warranties, either expressed or 
#implied, including, but not limited to, the implied warranties of merchantability or fitness 
#for a particular purpose, with respect to the services rendered.  In no event will 
#Halliburton be liable for failure to obtain any particular results or for 
#any damages, including, but not limited to, indirect, special or consequential damages, 
#resulting from the use of any information or interpretation provided by Halliburton.
#
~A           TIME           GTDEPTH  GTPQH  GTTQ  GTTN  GTET   GTTVD  
# ...
   20:27:21.522.06-Aug-2020 4993.01 5789.94 82.30 3.00 460.18 2644.18
   20:27:21.722.06-Aug-2020 4993.01 5789.94 82.30 3.00 460.38 2644.18
   20:27:21.922.06-Aug-2020 4993.01 5788.80 82.30 3.00 460.58 2644.18
   20:27:22.123.06-Aug-2020 4993.01 5788.99 82.30 3.00 460.78 2644.18
   20:27:22.323.06-Aug-2020 4993.01 5787.78 82.30 3.00 460.98 2644.18
   20:27:22.523.06-Aug-2020 4993.01 5782.52 82.30 3.00 461.18 2644.18
   20:27:22.723.06-Aug-2020 4993.01 5782.52 82.30 3.00 461.38 2644.18
   20:27:22.923.06-Aug-2020 4993.01 5788.40 82.30 3.00 461.58 2644.18
   20:27:23.123.06-Aug-2020 4993.01 5784.96 82.30 3.00 461.78 2644.18
   20:27:23.323.06-Aug-2020 4993.01 5787.33 82.30 3.00 461.98 2644.18
   20:27:23.523.06-Aug-2020 4993.01 5778.41 82.30 3.00 462.18 2644.18
   20:27:23.723.06-Aug-2020 4993.01 5778.41 82.30 3.00 462.38 2644.18
   20:27:23.923.06-Aug-2020 4993.01 5784.12 82.30 3.00 462.58 2644.18
   20:27:24.123.06-Aug-2020 4993.01 5788.08 82.30 3.00 462.78 2644.18
   20:27:24.323.06-Aug-2020 4993.01 5788.22 82.30 3.00 462.98 2644.18
   20:27:24.523.06-Aug-2020 4993.01 5779.98 82.30 3.00 463.18 2644.18
   20:27:24.723.06-Aug-2020 4993.01 5779.98 82.30 3.00 463.38 2644.18
   20:27:24.924.06-Aug-2020 4993.01 5786.43 82.30 3.00 463.58 2644.18
   20:27:25.124.06-Aug-2020 4993.01 5786.03 82.30 3.00 463.78 2644.18
   20:27:25.324.06-Aug-2020 4993.01 5788.91 82.30 3.00 463.98 2644.18
   20:27:25.524.06-Aug-2020 4993.01 5787.50 82.30 3.00 464.18 2644.18
   20:27:25.724.06-Aug-2020 4993.01 5787.50 82.30 3.00 464.38 2644.18
   20:27:25.924.06-Aug-2020 4993.01 5783.43 82.30 3.00 464.58 2644.18
   20:27:26.124.06-Aug-2020 4993.01 5781.34 82.29 3.00 464.78 2644.18
   20:27:26.324.06-Aug-2020 4993.01 5788.79 82.29 3.00 464.98 2644.18
   20:27:26.524.06-Aug-2020 4993.01 5787.36 82.29 3.00 465.18 2644.18
   20:27:26.724.06-Aug-2020 4993.01 5788.66 82.29 3.00 465.38 2644.18
   20:27:26.924.06-Aug-2020 4993.01 5789.13 82.29 3.00 465.58 2644.18
   20:27:27.124.06-Aug-2020 4993.01 5789.26 82.29 3.00 465.78 2644.18
   20:27:27.324.06-Aug-2020 4993.01 5788.91 82.29 3.00 465.98 2644.18
   20:27:27.525.06-Aug-2020 4993.01 5790.22 82.29 3.00 466.18 2644.18
   20:27:27.725.06-Aug-2020 4993.01 5790.22 82.29 3.00 466.38 2644.18
   20:27:27.925.06-Aug-2020 4993.01 5790.75 82.29 3.00 466.58 2644.18
   20:27:28.125.06-Aug-2020 4993.01 5789.48 82.29 3.00 466.78 2644.18
   20:27:28.325.06-Aug-2020 4993.01 5790.61 82.29 3.00 466.98 2644.18
   20:27:28.525.06-Aug-2020 4993.01 5781.83 82.29 3.00 467.18 2644.18
   20:27:28.725.06-Aug-2020 4993.01 5781.83 82.29 3.00 467.38 2644.18
   20:27:28.925.06-Aug-2020 4993.01 5788.87 82.29 3.00 467.58 2644.18
   20:27:29.125.06-Aug-2020 4993.01 5788.27 82.29 3.00 467.78 2644.18
   20:27:29.325.06-Aug-2020 4993.01 5788.73 82.29 3.00 467.98 2644.18
   20:27:29.525.06-Aug-2020 4993.01 5789.16 82.29 3.00 468.18 2644.18
   20:27:29.725.06-Aug-2020 4993.01 5789.16 82.29 3.00 468.38 2644.18
   20:27:29.925.06-Aug-2020 4993.01 5789.79 82.29 3.00 468.58 2644.18
   20:27:30.126.06-Aug-2020 4993.01 5789.11 82.29 3.00 468.78 2644.18
   20:27:30.326.06-Aug-2020 4993.01 5789.63 82.29 3.00 468.98 2644.18
   20:27:30.526.06-Aug-2020 4993.01 5788.79 82.29 3.00 469.18 2644.18
   20:27:30.726.06-Aug-2020 4993.01 5788.79 82.29 3.00 469.38 2644.18
   20:27:30.926.06-Aug-2020 4993.01 5788.02 82.29 3.00 469.58 2644.18
   20:27:31.126.06-Aug-2020 4993.01 5787.65 82.29 3.00 469.78 2644.18
   20:27:31.326.06-Aug-2020 4993.01 5778.81 82.29 3.00 469.98 2644.18
   20:27:31.526.06-Aug-2020 4993.01 5789.00 82.29 3.00 470.18 2644.18
   20:27:31.726.06-Aug-2020 4993.01 5789.00 82.29 3.00 470.38 2644.18
   20:27:31.926.06-Aug-2020 4993.01 5785.64 82.28 3.00 470.58 2644.18
   20:27:32.126.06-Aug-2020 4993.01 5787.77 82.28 3.00 470.78 2644.18
   20:27:32.326.06-Aug-2020 4993.01 5786.33 82.28 3.00 470.98 2644.18
   20:27:32.526.06-Aug-2020 4993.01 5782.54 82.28 3.00 471.18 2644.18
   20:27:32.727.06-Aug-2020 4993.01 5782.54 82.28 3.00 471.38 2644.18
   20:27:32.927.06-Aug-2020 4993.01 5788.65 82.28 3.00 471.58 2644.18
   20:27:33.127.06-Aug-2020 4993.01 5786.12 82.28 3.00 471.78 2644.18
   20:27:33.327.06-Aug-2020 4993.01 5784.42 82.28 3.00 471.98 2644.18
