~Version Information
 VERS.                  2.0:   CWLS log ASCII Standard -VERSION 2.0
 WRAP.                   NO:   One line per depth step
~Well Information Block
#MNEM.UNIT     VALUE/NAME     DESCRIPTION
#---------     -----------    ---------------------------
 STRT.S             15:38:44 07-Aug-20: START TIME 15:38:44 07-Aug-20
 STOP.S             15:46:36 07-Aug-20: STOP TIME  15:46:36 07-Aug-20
 STEP.S                   0.00: STEP TIME
 NULL.                 -999.25: NULL VALUE
 DFWT.                        :  DIST FWL TEXT
 DFST.                        :  DIST FSL TEXT
 DMF .             Drill Floor:  DRILL MEAS FROM
 STIM.      12.00.00 03-Jul-20:  START TIME
 DATE.      00.50.00 09-Aug-20:  END TIME
 SPUD.               03-Jul-20:  SPUD DATE
 NREF.                    Grid:  NORTH REFERENCE
 HPTY.       Minimum Curvature:  HOLE POS TYPE
 DMOD.             Drill Model:  DRILL MOD DESC
 SVYD.                  Survey:  SURVEY DESC
 ILTD.               Lithology:  INTERP LTH DESC
 FTOP.          Formation Tops:  FORM TOPS DESC
 PDAT.          Mean Sea Level:  PERMANENT DATUM
 FLD .                     ACG:  FIELD NAME
 CTRY.              Azerbaijan:  COUNTRY NAME
 WELL.                    E04x:  WELL NAME
 SRVC.          Turan Drilling:  CONTRACTOR
 COMP.     BP Exploration (Caspian Sea) Ltd.:  COMPANY
 SON .        AZ-XX-0906531346:  JOB NUMBER
 WTYP.                Deviated:  WELL TYPE
 MDS .        Operator Entered:  MAG DATA SOURCE
 UWI .                     N/A:  UNIQUE WELL IDENTIFIER
 API .                     N/A:  API NUMBER
 BASE.              Azerbaijan:  LOGGING EQUIPMENT BASE LOCATION
 REGN.                   EESSA:  REGION
 PROV.                    Baku:  PROVINCE
 STAT.                    Baku:  STATE NAME
 MWDS.                    Baku:  MWD SHOP
 JOBN.        AZ-XX-0906531346:  JOB TICKET NUMB
 RIG .                     DWG:  RIG NAME
 DOE .                     N/A:  DOE NUMBER
 DCON.         Sperry Drilling:  DIRECTNL CONTR
 UNIT.                     N/A:  LOGGING EQUIPMENT ID
 CNTY.                        :  COUNTY
 LOC .                        :  LOCATION
 LMF .             Drill Floor:  LOG MEASURED FROM
 TVDS.m                  43.16:  TVDSS CORRECTN
 LATI.deg                40.17:  LATITUDE
 LONG.deg                51.17:  LONGITUDE
 WHNS.m                  -0.12:  WELL HEAD N/S
 WHEW.m                  -5.41:  WELL HEAD E/W
 UTMX.m              514337.95:  UTM X
 UTMY.m             4448627.46:  UTM Y
 DFWL.m                   0.00:  DISTANCE FWL
 DFSL.m                   0.00:  DISTANCE FSL
 SDEP.m                3088.01:  START DEPTH
 TDD .m                5200.01:  TOTAL DEPTH (DRILLER)
 VSDR.deg               244.51:  VERT SEC DIRECT
 GVFD.g                   1.00:  GRAVITY FIELD
 MFLD.nT              50329.80:  MAGNETIC FIELD
 MDIP.deg                59.63:  MAGNETIC DIP
 MDEC.deg                 6.59:  MAGNETIC DECL
 GRDC.deg                 0.09:  GRID CORRECTION
 AZTC.deg                 6.50:  AZM TOTAL CORR
 EPD .m                   0.00:  ELEVATION
 EGL .m                   0.00:  GROUND ELEVATION
 WDMS.m                 176.20:  WD ELEV
 APD .m                  43.16:  DEPTH ABOVE PD
 DEP .m                3084.71:  DEPTH
 AGAP.m                  43.16:  AIR GAP
 VSEW.m                  -5.41:  VERT SEC E/W
 VSNS.m                  -0.12:  VERT SEC N/S
 EKB .m                   0.00:  KB ELEVATION
 EDF .m                  43.16:  DF ELEVATION
 TDL .m                 243.00:  TOTAL DEPTH (LOGGER)
 VSC .                       0:  VS TO CLOSURE
 MAGU.                 1853542:  MAGUTM CHECKSUM
~Parameter Information Block
#MNEM.UNIT       Value        Description
#---------     -----------    ---------------------------
 AV  .mps                 1.91:  Ann Velocity 
 AVMX.mps                 2.52:  Max Ann Veloc 
 AZIF.deg               308.97:  Azm, Final 
 BHAT.        Rotary Steerable:  BHA Type 
 BROT.°/30m               1.00:  Build Rotating 
 BS  .in                  6.50:  Bit Size 
 BSZ .in                  6.50:  Bit Size 
 BTPL.psig              350.00:  Bit Press Loss 
 CABU.                      No:  Customer Abuse 
 CGEO.           Asif Pashayev:  Customer Geo 
 COMM.                     6…:  Run Comments 1 
 TCS .hr                 35.86:  Time Ciculation Ended 
 CV  .mps                 2.31:  Crit Velocity 
 CVMX.mps                 2.31:  Max Crit Veloc 
 DD1 .         Intigam Rahimov:  Direct Drillr 1 
 DDSV.               Geo-Pilot:  DD Service 
 DEFF.%                  92.00:  % Det Eff 
 DLRX.°/30m               1.00:  Dogleg Rot Max 
 DLSO.°/30m               1.00:  Dogleg Oriented 
 DLSX.°/30m               1.42:  Dogleg Str Max 
 DRET.      15.50.00 07-Aug-20:  Drill End Time 
 DRST.      10.40.00 06-Aug-20:  Drill Start Tim 
 DTIM.hr                 21.30:  Time Drilling 
 EDEP.m                5200.01:  End Depth 
 ENG1.            Alan Tuganov:  Engineer 1 
 ENG2.         Almaz Almadatov:  Engineer 2 
 ENG3.     Zammelal Abdullah Sani:  Engineer 3 
 ETIM.      22.42.00 08-Aug-20:  End Time 
 FLOI.gpm               395.00:  Flow In 
 FLON.gpm               350.00:  Flow In Min 
 FLOS.cptm                0.00:  Fluid Loss 
 FLOX.gpm               404.00:  Flow In Max 
 FTRO.       Formation Presure:  FTWD Run Obj 
 HFLO.                      No:  High Flow 
 HPRE.                      No:  High Pressure 
 HTEM.                      No:  High Temp 
 HYDO.m                   1.80:  Hydro Offset 
 IFIN.deg                72.64:  Inc, Final 
 IMAX.deg                73.68:  Inc Max 
 IMIN.deg                72.64:  Inc Min 
 IMND.m                5189.69:  Inc Min Depth 
 IMXD.m                5067.88:  Inc Max Depth 
 JARR.                      No:  Jarring 
 LETM.      15.50.00 07-Aug-20:  Log End Time 
 LOST.hr                     0:  Lost Rig Time 
 LSTM.      10.40.00 06-Aug-20:  Log Start Time 
 MDCL.ppm             36000.00:  Mud Chlorides 
 MDES.     Inversion Oil/Synthetic:  Mud Desc 
 DFD .sg                  1.36:  Mud Density 
 MDMN.sg                  1.36:  Dens Mud Min 
 MDMX.sg                  1.36:  Dens Mud Max 
 MOIL.                      70:  Run Mud Oil % 
 MOWR.                   70:30:  Run Mud OWR 
 MSND.                    0.00:  Run Mud Sand % 
 MSOL.                   17.60:  Run Mud Solids% 
 DFV .spqt               73.00:  Mud Viscosity 
 MWOD.in                  4.75:  MWD Tool OD 
 MWSI.                      No:  Serv Intrp, MWD 
 OTIM.hr                 85.66:  Time Operating 
 PCON.           Look Like New:  Pad Condition 
 PMAX.psia             6250.00:  Press Op, Max 
 PV  .cP                 65.00:  Mud PV 
 RUN .                     900:  Run Number 
 ROPA.m/hr               11.40:  ROP Avg 
 ROPN.m/hr                5.00:  ROP Min 
 ROPX.m/hr               20.00:  ROP Max 
 RPMA.rpm               130.00:  RPM Surface Avg 
 RPMN.rpm                40.00:  RPM Surface Min 
 RPMX.rpm               140.00:  RPM Surface Max 
 RRUN.                    L205:  Rig Run Number 
 RTIM.hr                  1.00:  Time Reaming 
 SAZI.deg               313.52:  Azm, Start 
 SDEP.m                4957.01:  Start Depth 
 SIDD.                      No:  Serv Intrp, DD 
 SINC.deg                73.16:  Inc, Start 
 SPPA.psig             5657.00:  SPP Avg 
 SPPN.psig             2500.00:  SPP Min 
 SPPX.psig             5806.00:  SPP Max 
 STIM.      07.12.00 05-Aug-20:  Start Time 
 SVCS.                 DD, MWD:  Services 
 SVER.                    9.20:  Sperry Version 
 TDAT.m                 243.00:  Tot Depth Attmp 
 TDDF.                      No:  Trip for DD 
 TDLG.m                 243.00:  Tot Depth Loggd 
 TFF .                      No:  Trip for Fail 
 TQAA.f-kp               13.00:  Torque Abs Avg 
 TQAN.f-kp               11.00:  Torque Abs Min 
 TQAX.f-kp               16.00:  Torque Abs Max 
 TRRT.°/30m               1.00:  Turn Rotating 
 MRT .                    HCIM:  Maximum Recorded Temperature 
 TTMX.degC               96.08:  Max Tool Temp 
 VS01.                90515411:  Virtual Str1 SN 
 VS02.                90512716:  Virtual Str2 SN 
 VS03.                90522362:  Virtual Str3 SN 
 VS04.                90619415:  Virtual Str4 SN 
 VS05.                90619414:  Virtual Str5 SN 
 VS06.                90597748:  Virtual Str6 SN 
 WBMN.klb                 2.00:  WOB Min 
 WITN.           Adil Mammadov:  Customer Rep 
 WITN.     Alexander Yadullayev:  Customer Rep 2 
 WOBA.klb                 7.00:  WOB Avg 
 WOBX.klb                23.00:  WOB Max 
 YP  .lhf2               37.00:  Yield Point 
~Curve Information Block
#MNEM.UNIT                 API CODE     Curve Description
#---------               -----------    ---------------------------
 TIME.HHMMSS            00 000 000 000:  GT Time & Date
 GTDEPTH.m              00 000 000 000:  GT Depth
 GTPQH.psia             00 000 000 000:  GT HR Quartz Pressure
 GTTQ.degC              00 000 000 000:  GT Quartz Temperature
 GTTN.NONE              00 000 000 000:  GT Test Number
 GTET.sec               00 000 000 000:  GT Elapsed Test Time
 GTTVD.m                00 000 000 000:  GT True Vertical Depth
#Other Information
#
#WARRANTY: Halliburton will use its best efforts to furnish customers with 
#accurate information and interpretations that are part of, and incident to, the services 
#provided.  However, Halliburton cannot and does not warrant the accuracy 
#or correctness of such information and interpretations.  Under no circumstances should any 
#such information or interpretation be relied upon as the sole basis for any drilling, 
#completion, production, or financial decision or any procedure involving any risk to the 
#safety of any drilling venture, drilling rig or its crew or any other third party.  The 
#Customer has full responsibility for all drilling, completion and production operation.  
#Halliburton makes no representations or warranties, either expressed or 
#implied, including, but not limited to, the implied warranties of merchantability or fitness 
#for a particular purpose, with respect to the services rendered.  In no event will 
#Halliburton be liable for failure to obtain any particular results or for 
#any damages, including, but not limited to, indirect, special or consequential damages, 
#resulting from the use of any information or interpretation provided by Halliburton.
#
~A           TIME           GTDEPTH  GTPQH  GTTQ  GTTN   GTET   GTTVD  
# ...
   15:46:16.960.07-Aug-2020 5157.51 5899.33 88.22 11.00 452.19 2691.72
   15:46:17.160.07-Aug-2020 5157.51 5899.33 88.22 11.00 452.39 2691.72
   15:46:17.360.07-Aug-2020 5157.51 5893.88 88.22 11.00 452.59 2691.72
   15:46:17.560.07-Aug-2020 5157.51 5898.53 88.22 11.00 452.79 2691.72
   15:46:17.760.07-Aug-2020 5157.51 5899.76 88.22 11.00 452.99 2691.72
   15:46:17.961.07-Aug-2020 5157.51 5898.71 88.22 11.00 453.19 2691.72
   15:46:18.161.07-Aug-2020 5157.51 5898.71 88.22 11.00 453.39 2691.72
   15:46:18.361.07-Aug-2020 5157.51 5898.22 88.22 11.00 453.59 2691.72
   15:46:18.561.07-Aug-2020 5157.51 5899.71 88.22 11.00 453.79 2691.72
   15:46:18.761.07-Aug-2020 5157.51 5897.95 88.22 11.00 453.99 2691.72
   15:46:18.961.07-Aug-2020 5157.51 5898.06 88.22 11.00 454.19 2691.72
   15:46:19.161.07-Aug-2020 5157.51 5898.06 88.22 11.00 454.39 2691.72
   15:46:19.361.07-Aug-2020 5157.51 5898.79 88.22 11.00 454.59 2691.72
   15:46:19.561.07-Aug-2020 5157.51 5888.05 88.22 11.00 454.79 2691.72
   15:46:19.761.07-Aug-2020 5157.51 5899.82 88.22 11.00 454.99 2691.72
   15:46:19.961.07-Aug-2020 5157.51 5898.35 88.22 11.00 455.19 2691.72
   15:46:20.161.07-Aug-2020 5157.51 5898.35 88.22 11.00 455.39 2691.72
   15:46:20.362.07-Aug-2020 5157.51 5887.30 88.21 11.00 455.59 2691.72
   15:46:20.562.07-Aug-2020 5157.51 5896.20 88.21 11.00 455.79 2691.72
   15:46:20.762.07-Aug-2020 5157.51 5898.49 88.21 11.00 455.99 2691.72
   15:46:20.962.07-Aug-2020 5157.51 5897.57 88.21 11.00 456.19 2691.72
   15:46:21.162.07-Aug-2020 5157.51 5897.57 88.21 11.00 456.39 2691.72
   15:46:21.362.07-Aug-2020 5157.51 5897.89 88.21 11.00 456.59 2691.72
   15:46:21.562.07-Aug-2020 5157.51 5900.36 88.21 11.00 456.79 2691.72
   15:46:21.762.07-Aug-2020 5157.51 5893.48 88.21 11.00 456.99 2691.72
   15:46:21.962.07-Aug-2020 5157.51 5895.01 88.21 11.00 457.19 2691.72
   15:46:22.162.07-Aug-2020 5157.51 5896.73 88.21 11.00 457.39 2691.72
   15:46:22.362.07-Aug-2020 5157.51 5888.35 88.21 11.00 457.59 2691.72
   15:46:22.562.07-Aug-2020 5157.51 5896.77 88.21 11.00 457.79 2691.72
   15:46:22.763.07-Aug-2020 5157.51 5897.67 88.21 11.00 457.99 2691.72
   15:46:22.963.07-Aug-2020 5157.51 5896.17 88.21 11.00 458.19 2691.72
   15:46:23.163.07-Aug-2020 5157.51 5896.17 88.21 11.00 458.39 2691.72
   15:46:23.363.07-Aug-2020 5157.51 5895.76 88.21 11.00 458.59 2691.72
   15:46:23.563.07-Aug-2020 5157.51 5898.20 88.21 11.00 458.79 2691.72
   15:46:23.763.07-Aug-2020 5157.51 5895.34 88.21 11.00 458.99 2691.72
   15:46:23.963.07-Aug-2020 5157.51 5897.63 88.21 11.00 459.19 2691.72
   15:46:24.163.07-Aug-2020 5157.51 5897.63 88.21 11.00 459.39 2691.72
   15:46:24.363.07-Aug-2020 5157.51 5897.79 88.21 11.00 459.59 2691.72
   15:46:24.563.07-Aug-2020 5157.51 5896.89 88.21 11.00 459.79 2691.72
   15:46:24.763.07-Aug-2020 5157.51 5898.61 88.21 11.00 459.99 2691.72
   15:46:24.963.07-Aug-2020 5157.51 5895.58 88.21 11.00 460.19 2691.72
   15:46:25.164.07-Aug-2020 5157.51 5895.58 88.21 11.00 460.39 2691.72
   15:46:25.364.07-Aug-2020 5157.51 5897.42 88.21 11.00 460.59 2691.72
   15:46:25.564.07-Aug-2020 5157.51 5902.32 88.21 11.00 460.79 2691.72
   15:46:25.764.07-Aug-2020 5157.51 5894.55 88.21 11.00 460.99 2691.72
   15:46:25.964.07-Aug-2020 5157.51 5898.34 88.21 11.00 461.19 2691.72
   15:46:26.164.07-Aug-2020 5157.51 5900.01 88.21 11.00 461.39 2691.72
   15:46:26.364.07-Aug-2020 5157.51 5898.05 88.21 11.00 461.59 2691.72
   15:46:26.564.07-Aug-2020 5157.51 5898.06 88.21 11.00 461.79 2691.72
   15:46:26.764.07-Aug-2020 5157.51 5898.96 88.20 11.00 461.99 2691.72
   15:46:26.964.07-Aug-2020 5157.51 5899.57 88.20 11.00 462.19 2691.72
   15:46:27.164.07-Aug-2020 5157.51 5899.57 88.20 11.00 462.39 2691.72
   15:46:27.364.07-Aug-2020 5157.51 5898.32 88.20 11.00 462.59 2691.72
   15:46:27.565.07-Aug-2020 5157.51 5898.60 88.20 11.00 462.79 2691.72
   15:46:27.765.07-Aug-2020 5157.51 5898.48 88.20 11.00 462.99 2691.72
   15:46:27.965.07-Aug-2020 5157.51 5888.84 88.20 11.00 463.19 2691.72
   15:46:28.165.07-Aug-2020 5157.51 5888.84 88.20 11.00 463.39 2691.72
   15:46:28.365.07-Aug-2020 5157.51 5899.79 88.20 11.00 463.59 2691.72
   15:46:28.565.07-Aug-2020 5157.51 5891.05 88.20 11.00 463.79 2691.72
   15:46:28.765.07-Aug-2020 5157.51 5892.23 88.20 11.00 463.99 2691.72
   15:46:28.965.07-Aug-2020 5157.51 5896.87 88.20 11.00 464.19 2691.72
   15:46:29.165.07-Aug-2020 5157.51 5899.69 88.20 11.00 464.39 2691.72
   15:46:29.365.07-Aug-2020 5157.51 5890.97 88.20 11.00 464.59 2691.72
   15:46:29.565.07-Aug-2020 5157.51 5890.73 88.20 11.00 464.79 2691.72
   15:46:29.765.07-Aug-2020 5157.51 5898.72 88.20 11.00 464.99 2691.72
   15:46:29.966.07-Aug-2020 5157.51 5899.38 88.20 11.00 465.19 2691.72
   15:46:30.166.07-Aug-2020 5157.51 5891.93 88.20 11.00 465.39 2691.72
   15:46:30.366.07-Aug-2020 5157.51 5887.88 88.20 11.00 465.59 2691.72
   15:46:30.566.07-Aug-2020 5157.51 5900.02 88.20 11.00 465.79 2691.72
   15:46:30.766.07-Aug-2020 5157.51 5898.30 88.20 11.00 465.99 2691.72
   15:46:30.966.07-Aug-2020 5157.51 5894.42 88.20 11.00 466.19 2691.72
   15:46:31.166.07-Aug-2020 5157.51 5895.83 88.20 11.00 466.39 2691.72
   15:46:31.366.07-Aug-2020 5157.51 5897.53 88.20 11.00 466.59 2691.72
   15:46:31.566.07-Aug-2020 5157.51 5898.31 88.20 11.00 466.79 2691.72
   15:46:31.766.07-Aug-2020 5157.51 5896.27 88.20 11.00 466.99 2691.72
   15:46:31.966.07-Aug-2020 5157.51 5897.59 88.20 11.00 467.19 2691.72
   15:46:32.166.07-Aug-2020 5157.51 5897.59 88.19 11.00 467.39 2691.72
   15:46:32.366.07-Aug-2020 5157.51 5898.46 88.19 11.00 467.59 2691.72
   15:46:32.567.07-Aug-2020 5157.51 5897.94 88.19 11.00 467.79 2691.72
   15:46:32.767.07-Aug-2020 5157.51 5897.98 88.19 11.00 467.99 2691.72
   15:46:32.967.07-Aug-2020 5157.51 5891.09 88.19 11.00 468.19 2691.72
   15:46:33.167.07-Aug-2020 5157.51 5891.09 88.19 11.00 468.39 2691.72
   15:46:33.367.07-Aug-2020 5157.51 5898.43 88.19 11.00 468.59 2691.72
   15:46:33.567.07-Aug-2020 5157.51 5899.31 88.19 11.00 468.79 2691.72
   15:46:33.767.07-Aug-2020 5157.51 5894.46 88.19 11.00 468.99 2691.72
   15:46:33.967.07-Aug-2020 5157.51 5899.11 88.19 11.00 469.19 2691.72
   15:46:34.167.07-Aug-2020 5157.51 5900.13 88.19 11.00 469.39 2691.72
   15:46:34.367.07-Aug-2020 5157.51 5897.76 88.19 11.00 469.59 2691.72
   15:46:34.567.07-Aug-2020 5157.51 5898.06 88.19 11.00 469.79 2691.72
   15:46:34.767.07-Aug-2020 5157.51 5899.62 88.19 11.00 469.99 2691.72
   15:46:34.968.07-Aug-2020 5157.51 5898.82 88.19 11.00 470.19 2691.72
   15:46:35.168.07-Aug-2020 5157.51 5898.82 88.19 11.00 470.39 2691.72
   15:46:35.368.07-Aug-2020 5157.51 5897.72 88.19 11.00 470.59 2691.72
   15:46:35.568.07-Aug-2020 5157.51 5898.60 88.19 11.00 470.79 2691.72
   15:46:35.768.07-Aug-2020 5157.51 5897.95 88.19 11.00 470.99 2691.72
   15:46:35.968.07-Aug-2020 5157.51 5889.97 88.19 11.00 471.19 2691.72
   15:46:36.168.07-Aug-2020 5157.51 5889.97 88.19 11.00 471.39 2691.72
   15:46:36.368.07-Aug-2020 5157.51 5900.63 88.19 11.00 471.59 2691.72
   15:46:36.568.07-Aug-2020 5157.51 5892.22 88.19 11.00 471.79 2691.72
   15:46:36.768.07-Aug-2020 5157.51 5891.42 88.19 11.00 471.99 2691.72
