~Version Information
 VERS.                  2.0:   CWLS log ASCII Standard -VERSION 2.0
 WRAP.                   NO:   One line per depth step
~Well Information Block
#MNEM.UNIT     VALUE/NAME     DESCRIPTION
#---------     -----------    ---------------------------
 STRT.S             16:10:03 06-Aug-20: START TIME 16:10:03 06-Aug-20
 STOP.S             16:17:57 06-Aug-20: STOP TIME  16:17:57 06-Aug-20
 STEP.S                   0.00: STEP TIME
 NULL.                 -999.25: NULL VALUE
 DFWT.                        :  DIST FWL TEXT
 DFST.                        :  DIST FSL TEXT
 DMF .             Drill Floor:  DRILL MEAS FROM
 STIM.      12.00.00 03-Jul-20:  START TIME
 DATE.      00.50.00 09-Aug-20:  END TIME
 SPUD.               03-Jul-20:  SPUD DATE
 NREF.                    Grid:  NORTH REFERENCE
 HPTY.       Minimum Curvature:  HOLE POS TYPE
 DMOD.             Drill Model:  DRILL MOD DESC
 SVYD.                  Survey:  SURVEY DESC
 ILTD.               Lithology:  INTERP LTH DESC
 FTOP.          Formation Tops:  FORM TOPS DESC
 PDAT.          Mean Sea Level:  PERMANENT DATUM
 FLD .                     ACG:  FIELD NAME
 CTRY.              Azerbaijan:  COUNTRY NAME
 WELL.                    E04x:  WELL NAME
 SRVC.          Turan Drilling:  CONTRACTOR
 COMP.     BP Exploration (Caspian Sea) Ltd.:  COMPANY
 SON .        AZ-XX-0906531346:  JOB NUMBER
 WTYP.                Deviated:  WELL TYPE
 MDS .        Operator Entered:  MAG DATA SOURCE
 UWI .                     N/A:  UNIQUE WELL IDENTIFIER
 API .                     N/A:  API NUMBER
 BASE.              Azerbaijan:  LOGGING EQUIPMENT BASE LOCATION
 REGN.                   EESSA:  REGION
 PROV.                    Baku:  PROVINCE
 STAT.                    Baku:  STATE NAME
 MWDS.                    Baku:  MWD SHOP
 JOBN.        AZ-XX-0906531346:  JOB TICKET NUMB
 RIG .                     DWG:  RIG NAME
 DOE .                     N/A:  DOE NUMBER
 DCON.         Sperry Drilling:  DIRECTNL CONTR
 UNIT.                     N/A:  LOGGING EQUIPMENT ID
 CNTY.                        :  COUNTY
 LOC .                        :  LOCATION
 LMF .             Drill Floor:  LOG MEASURED FROM
 TVDS.m                  43.16:  TVDSS CORRECTN
 LATI.deg                40.17:  LATITUDE
 LONG.deg                51.17:  LONGITUDE
 WHNS.m                  -0.12:  WELL HEAD N/S
 WHEW.m                  -5.41:  WELL HEAD E/W
 UTMX.m              514337.95:  UTM X
 UTMY.m             4448627.46:  UTM Y
 DFWL.m                   0.00:  DISTANCE FWL
 DFSL.m                   0.00:  DISTANCE FSL
 SDEP.m                3088.01:  START DEPTH
 TDD .m                5200.01:  TOTAL DEPTH (DRILLER)
 VSDR.deg               244.51:  VERT SEC DIRECT
 GVFD.g                   1.00:  GRAVITY FIELD
 MFLD.nT              50329.80:  MAGNETIC FIELD
 MDIP.deg                59.63:  MAGNETIC DIP
 MDEC.deg                 6.59:  MAGNETIC DECL
 GRDC.deg                 0.09:  GRID CORRECTION
 AZTC.deg                 6.50:  AZM TOTAL CORR
 EPD .m                   0.00:  ELEVATION
 EGL .m                   0.00:  GROUND ELEVATION
 WDMS.m                 176.20:  WD ELEV
 APD .m                  43.16:  DEPTH ABOVE PD
 DEP .m                3084.71:  DEPTH
 AGAP.m                  43.16:  AIR GAP
 VSEW.m                  -5.41:  VERT SEC E/W
 VSNS.m                  -0.12:  VERT SEC N/S
 EKB .m                   0.00:  KB ELEVATION
 EDF .m                  43.16:  DF ELEVATION
 TDL .m                 243.00:  TOTAL DEPTH (LOGGER)
 VSC .                       0:  VS TO CLOSURE
 MAGU.                 1853542:  MAGUTM CHECKSUM
~Parameter Information Block
#MNEM.UNIT       Value        Description
#---------     -----------    ---------------------------
 AV  .mps                 1.91:  Ann Velocity 
 AVMX.mps                 2.52:  Max Ann Veloc 
 AZIF.deg               308.97:  Azm, Final 
 BHAT.        Rotary Steerable:  BHA Type 
 BROT.°/30m               1.00:  Build Rotating 
 BS  .in                  6.50:  Bit Size 
 BSZ .in                  6.50:  Bit Size 
 BTPL.psig              350.00:  Bit Press Loss 
 CABU.                      No:  Customer Abuse 
 CGEO.           Asif Pashayev:  Customer Geo 
 COMM.                     Ôöj:  Run Comments 1 
 TCS .hr                 35.86:  Time Ciculation Ended 
 CV  .mps                 2.31:  Crit Velocity 
 CVMX.mps                 2.31:  Max Crit Veloc 
 DD1 .         Intigam Rahimov:  Direct Drillr 1 
 DDSV.               Geo-Pilot:  DD Service 
 DEFF.%                  92.00:  % Det Eff 
 DLRX.°/30m               1.00:  Dogleg Rot Max 
 DLSO.°/30m               1.00:  Dogleg Oriented 
 DLSX.°/30m               1.42:  Dogleg Str Max 
 DRET.      15.50.00 07-Aug-20:  Drill End Time 
 DRST.      10.40.00 06-Aug-20:  Drill Start Tim 
 DTIM.hr                 21.30:  Time Drilling 
 EDEP.m                5200.01:  End Depth 
 ENG1.            Alan Tuganov:  Engineer 1 
 ENG2.         Almaz Almadatov:  Engineer 2 
 ENG3.     Zammelal Abdullah Sani:  Engineer 3 
 ETIM.      22.42.00 08-Aug-20:  End Time 
 FLOI.gpm               395.00:  Flow In 
 FLON.gpm               350.00:  Flow In Min 
 FLOS.cptm                0.00:  Fluid Loss 
 FLOX.gpm               404.00:  Flow In Max 
 FTRO.       Formation Presure:  FTWD Run Obj 
 HFLO.                      No:  High Flow 
 HPRE.                      No:  High Pressure 
 HTEM.                      No:  High Temp 
 HYDO.m                   1.80:  Hydro Offset 
 IFIN.deg                72.64:  Inc, Final 
 IMAX.deg                73.68:  Inc Max 
 IMIN.deg                72.64:  Inc Min 
 IMND.m                5189.69:  Inc Min Depth 
 IMXD.m                5067.88:  Inc Max Depth 
 JARR.                      No:  Jarring 
 LETM.      15.50.00 07-Aug-20:  Log End Time 
 LOST.hr                     0:  Lost Rig Time 
 LSTM.      10.40.00 06-Aug-20:  Log Start Time 
 MDCL.ppm             36000.00:  Mud Chlorides 
 MDES.     Inversion Oil/Synthetic:  Mud Desc 
 DFD .sg                  1.36:  Mud Density 
 MDMN.sg                  1.36:  Dens Mud Min 
 MDMX.sg                  1.36:  Dens Mud Max 
 MOIL.                      70:  Run Mud Oil % 
 MOWR.                   70:30:  Run Mud OWR 
 MSND.                    0.00:  Run Mud Sand % 
 MSOL.                   17.60:  Run Mud Solids% 
 DFV .spqt               73.00:  Mud Viscosity 
 MWOD.in                  4.75:  MWD Tool OD 
 MWSI.                      No:  Serv Intrp, MWD 
 OTIM.hr                 85.66:  Time Operating 
 PCON.           Look Like New:  Pad Condition 
 PMAX.psia             6250.00:  Press Op, Max 
 PV  .cP                 65.00:  Mud PV 
 RUN .                     900:  Run Number 
 ROPA.m/hr               11.40:  ROP Avg 
 ROPN.m/hr                5.00:  ROP Min 
 ROPX.m/hr               20.00:  ROP Max 
 RPMA.rpm               130.00:  RPM Surface Avg 
 RPMN.rpm                40.00:  RPM Surface Min 
 RPMX.rpm               140.00:  RPM Surface Max 
 RRUN.                    L205:  Rig Run Number 
 RTIM.hr                  1.00:  Time Reaming 
 SAZI.deg               313.52:  Azm, Start 
 SDEP.m                4957.01:  Start Depth 
 SIDD.                      No:  Serv Intrp, DD 
 SINC.deg                73.16:  Inc, Start 
 SPPA.psig             5657.00:  SPP Avg 
 SPPN.psig             2500.00:  SPP Min 
 SPPX.psig             5806.00:  SPP Max 
 STIM.      07.12.00 05-Aug-20:  Start Time 
 SVCS.                 DD, MWD:  Services 
 SVER.                    9.20:  Sperry Version 
 TDAT.m                 243.00:  Tot Depth Attmp 
 TDDF.                      No:  Trip for DD 
 TDLG.m                 243.00:  Tot Depth Loggd 
 TFF .                      No:  Trip for Fail 
 TQAA.f-kp               13.00:  Torque Abs Avg 
 TQAN.f-kp               11.00:  Torque Abs Min 
 TQAX.f-kp               16.00:  Torque Abs Max 
 TRRT.°/30m               1.00:  Turn Rotating 
 MRT .                    HCIM:  Maximum Recorded Temperature 
 TTMX.degC               96.08:  Max Tool Temp 
 VS01.                90515411:  Virtual Str1 SN 
 VS02.                90512716:  Virtual Str2 SN 
 VS03.                90522362:  Virtual Str3 SN 
 VS04.                90619415:  Virtual Str4 SN 
 VS05.                90619414:  Virtual Str5 SN 
 VS06.                90597748:  Virtual Str6 SN 
 WBMN.klb                 2.00:  WOB Min 
 WITN.           Adil Mammadov:  Customer Rep 
 WITN.     Alexander Yadullayev:  Customer Rep 2 
 WOBA.klb                 7.00:  WOB Avg 
 WOBX.klb                23.00:  WOB Max 
 YP  .lhf2               37.00:  Yield Point 
~Curve Information Block
#MNEM.UNIT                 API CODE     Curve Description
#---------               -----------    ---------------------------
 TIME.HHMMSS            00 000 000 000:  GT Time & Date
 GTDEPTH.m              00 000 000 000:  GT Depth
 GTPQH.psia             00 000 000 000:  GT HR Quartz Pressure
 GTTQ.degC              00 000 000 000:  GT Quartz Temperature
 GTTN.NONE              00 000 000 000:  GT Test Number
 GTET.sec               00 000 000 000:  GT Elapsed Test Time
 GTTVD.m                00 000 000 000:  GT True Vertical Depth
#Other Information
#
#WARRANTY: Halliburton will use its best efforts to furnish customers with 
#accurate information and interpretations that are part of, and incident to, the services 
#provided.  However, Halliburton cannot and does not warrant the accuracy 
#or correctness of such information and interpretations.  Under no circumstances should any 
#such information or interpretation be relied upon as the sole basis for any drilling, 
#completion, production, or financial decision or any procedure involving any risk to the 
#safety of any drilling venture, drilling rig or its crew or any other third party.  The 
#Customer has full responsibility for all drilling, completion and production operation.  
#Halliburton makes no representations or warranties, either expressed or 
#implied, including, but not limited to, the implied warranties of merchantability or fitness 
#for a particular purpose, with respect to the services rendered.  In no event will 
#Halliburton be liable for failure to obtain any particular results or for 
#any damages, including, but not limited to, indirect, special or consequential damages, 
#resulting from the use of any information or interpretation provided by Halliburton.
#
~A           TIME           GTDEPTH  GTPQH  GTTQ  GTTN  GTET   GTTVD  
# ...
   16:17:20.551.06-Aug-2020 4955.01 4258.01 80.19 2.00 437.09 2633.27
   16:17:20.751.06-Aug-2020 4955.01 4258.01 80.19 2.00 437.29 2633.27
   16:17:20.951.06-Aug-2020 4955.01 4258.14 80.19 2.00 437.49 2633.27
   16:17:21.151.06-Aug-2020 4955.01 4258.14 80.19 2.00 437.69 2633.27
   16:17:21.351.06-Aug-2020 4955.01 4258.22 80.19 2.00 437.89 2633.27
   16:17:21.551.06-Aug-2020 4955.01 4257.84 80.19 2.00 438.09 2633.27
   16:17:21.751.06-Aug-2020 4955.01 4257.84 80.19 2.00 438.29 2633.27
   16:17:21.951.06-Aug-2020 4955.01 4258.24 80.19 2.00 438.49 2633.27
   16:17:22.151.06-Aug-2020 4955.01 4258.28 80.19 2.00 438.69 2633.27
   16:17:22.351.06-Aug-2020 4955.01 4258.26 80.19 2.00 438.89 2633.27
   16:17:22.551.06-Aug-2020 4955.01 4258.30 80.19 2.00 439.09 2633.27
   16:17:22.751.06-Aug-2020 4955.01 4258.30 80.19 2.00 439.29 2633.27
   16:17:22.951.06-Aug-2020 4955.01 4258.30 80.19 2.00 439.49 2633.27
   16:17:23.151.06-Aug-2020 4955.01 4258.30 80.19 2.00 439.69 2633.27
   16:17:23.351.06-Aug-2020 4955.01 4258.30 80.19 2.00 439.89 2633.27
   16:17:23.551.06-Aug-2020 4955.01 4258.30 80.19 2.00 440.09 2633.27
   16:17:23.751.06-Aug-2020 4955.01 4258.30 80.19 2.00 440.29 2633.27
   16:17:23.951.06-Aug-2020 4955.01 4258.27 80.19 2.00 440.49 2633.27
   16:17:24.151.06-Aug-2020 4955.01 4257.87 80.19 2.00 440.69 2633.27
   16:17:24.351.06-Aug-2020 4955.01 4258.21 80.19 2.00 440.89 2633.27
   16:17:24.552.06-Aug-2020 4955.01 4254.74 80.19 2.00 441.09 2633.27
   16:17:24.752.06-Aug-2020 4955.01 4254.74 80.19 2.00 441.29 2633.27
   16:17:24.952.06-Aug-2020 4955.01 4742.22 80.19 2.00 441.49 2633.27
   16:17:25.152.06-Aug-2020 4955.01 5753.36 80.19 2.00 441.69 2633.27
   16:17:25.352.06-Aug-2020 4955.01 5724.58 80.19 2.00 441.89 2633.27
   16:17:25.552.06-Aug-2020 4955.01 5441.16 80.19 2.00 442.09 2633.27
   16:17:25.752.06-Aug-2020 4955.01 5441.16 80.19 2.00 442.29 2633.27
   16:17:25.952.06-Aug-2020 4955.01 5752.83 80.19 2.00 442.49 2633.27
   16:17:26.152.06-Aug-2020 4955.01 5752.42 80.19 2.00 442.69 2633.27
   16:17:26.352.06-Aug-2020 4955.01 5754.41 80.19 2.00 442.89 2633.27
   16:17:26.552.06-Aug-2020 4955.01 5753.33 80.19 2.00 443.09 2633.27
   16:17:26.752.06-Aug-2020 4955.01 5753.33 80.19 2.00 443.29 2633.27
   16:17:26.952.06-Aug-2020 4955.01 5747.49 80.19 2.00 443.49 2633.27
   16:17:27.152.06-Aug-2020 4955.01 5751.56 80.19 2.00 443.69 2633.27
   16:17:27.352.06-Aug-2020 4955.01 5753.87 80.19 2.00 443.89 2633.27
   16:17:27.552.06-Aug-2020 4955.01 5755.85 80.19 2.00 444.09 2633.27
   16:17:27.752.06-Aug-2020 4955.01 5755.85 80.19 2.00 444.29 2633.27
   16:17:27.952.06-Aug-2020 4955.01 5755.93 80.19 2.00 444.49 2633.27
   16:17:28.152.06-Aug-2020 4955.01 5748.32 80.19 2.00 444.70 2633.27
   16:17:28.352.06-Aug-2020 4955.01 5754.19 80.19 2.00 444.90 2633.27
   16:17:28.552.06-Aug-2020 4955.01 5755.14 80.19 2.00 445.10 2633.27
   16:17:28.752.06-Aug-2020 4955.01 5755.14 80.19 2.00 445.30 2633.27
   16:17:28.952.06-Aug-2020 4955.01 5750.69 80.19 2.00 445.50 2633.27
   16:17:29.153.06-Aug-2020 4955.01 5752.35 80.19 2.00 445.70 2633.27
   16:17:29.353.06-Aug-2020 4955.01 5754.74 80.19 2.00 445.90 2633.27
   16:17:29.553.06-Aug-2020 4955.01 5755.24 80.19 2.00 446.10 2633.27
   16:17:29.753.06-Aug-2020 4955.01 5755.24 80.19 2.00 446.30 2633.27
   16:17:29.953.06-Aug-2020 4955.01 5755.77 80.19 2.00 446.50 2633.27
   16:17:30.153.06-Aug-2020 4955.01 5751.10 80.19 2.00 446.70 2633.27
   16:17:30.353.06-Aug-2020 4955.01 5752.88 80.19 2.00 446.90 2633.27
   16:17:30.553.06-Aug-2020 4955.01 5756.28 80.19 2.00 447.10 2633.27
   16:17:30.753.06-Aug-2020 4955.01 5756.25 80.19 2.00 447.30 2633.27
   16:17:30.953.06-Aug-2020 4955.01 5758.64 80.19 2.00 447.50 2633.27
   16:17:31.153.06-Aug-2020 4955.01 5757.48 80.19 2.00 447.70 2633.27
   16:17:31.353.06-Aug-2020 4955.01 5758.77 80.19 2.00 447.90 2633.27
   16:17:31.553.06-Aug-2020 4955.01 5757.03 80.19 2.00 448.10 2633.27
   16:17:31.753.06-Aug-2020 4955.01 5757.03 80.19 2.00 448.30 2633.27
   16:17:31.953.06-Aug-2020 4955.01 5756.84 80.19 2.00 448.50 2633.27
   16:17:32.153.06-Aug-2020 4955.01 5758.50 80.19 2.00 448.70 2633.27
   16:17:32.353.06-Aug-2020 4955.01 5757.00 80.19 2.00 448.90 2633.27
   16:17:32.553.06-Aug-2020 4955.01 5757.91 80.19 2.00 449.10 2633.27
   16:17:32.753.06-Aug-2020 4955.01 5757.91 80.19 2.00 449.30 2633.27
   16:17:32.953.06-Aug-2020 4955.01 5753.13 80.19 2.00 449.50 2633.27
   16:17:33.153.06-Aug-2020 4955.01 5755.48 80.19 2.00 449.70 2633.27
   16:17:33.353.06-Aug-2020 4955.01 5757.23 80.19 2.00 449.90 2633.27
   16:17:33.553.06-Aug-2020 4955.01 5756.65 80.19 2.00 450.10 2633.27
   16:17:33.753.06-Aug-2020 4955.01 5756.65 80.19 2.00 450.30 2633.27
   16:17:33.954.06-Aug-2020 4955.01 5757.18 80.19 2.00 450.50 2633.27
   16:17:34.154.06-Aug-2020 4955.01 5756.96 80.19 2.00 450.70 2633.27
   16:17:34.354.06-Aug-2020 4955.01 5757.45 80.19 2.00 450.90 2633.27
   16:17:34.554.06-Aug-2020 4955.01 5756.87 80.19 2.00 451.10 2633.27
   16:17:34.754.06-Aug-2020 4955.01 5756.87 80.19 2.00 451.30 2633.27
   16:17:34.954.06-Aug-2020 4955.01 5756.50 80.19 2.00 451.50 2633.27
   16:17:35.154.06-Aug-2020 4955.01 5757.18 80.19 2.00 451.70 2633.27
   16:17:35.354.06-Aug-2020 4955.01 5756.02 80.19 2.00 451.90 2633.27
   16:17:35.554.06-Aug-2020 4955.01 5750.18 80.19 2.00 452.10 2633.27
   16:17:35.754.06-Aug-2020 4955.01 5750.18 80.19 2.00 452.30 2633.27
   16:17:35.954.06-Aug-2020 4955.01 5750.18 80.19 2.00 452.50 2633.27
   16:17:36.154.06-Aug-2020 4955.01 5750.18 80.19 2.00 452.70 2633.27
   16:17:36.354.06-Aug-2020 4955.01 5750.40 80.19 2.00 452.90 2633.27
   16:17:36.554.06-Aug-2020 4955.01 5750.49 80.19 2.00 453.10 2633.27
   16:17:36.754.06-Aug-2020 4955.01 5756.64 80.19 2.00 453.30 2633.27
   16:17:36.954.06-Aug-2020 4955.01 5756.16 80.19 2.00 453.50 2633.27
   16:17:37.154.06-Aug-2020 4955.01 5757.58 80.19 2.00 453.70 2633.27
   16:17:37.354.06-Aug-2020 4955.01 5756.68 80.19 2.00 453.90 2633.27
   16:17:37.554.06-Aug-2020 4955.01 5754.44 80.19 2.00 454.10 2633.27
   16:17:37.754.06-Aug-2020 4955.01 5754.44 80.19 2.00 454.30 2633.27
   16:17:37.954.06-Aug-2020 4955.01 5754.82 80.19 2.00 454.50 2633.27
   16:17:38.154.06-Aug-2020 4955.01 5755.38 80.19 2.00 454.70 2633.27
   16:17:38.354.06-Aug-2020 4955.01 5756.63 80.19 2.00 454.90 2633.27
   16:17:38.555.06-Aug-2020 4955.01 5756.95 80.19 2.00 455.10 2633.27
   16:17:38.755.06-Aug-2020 4955.01 5756.95 80.19 2.00 455.30 2633.27
   16:17:38.955.06-Aug-2020 4955.01 5752.20 80.19 2.00 455.50 2633.27
   16:17:39.155.06-Aug-2020 4955.01 5753.38 80.19 2.00 455.70 2633.27
   16:17:39.355.06-Aug-2020 4955.01 5756.63 80.19 2.00 455.90 2633.27
   16:17:39.555.06-Aug-2020 4955.01 5757.43 80.19 2.00 456.10 2633.27
   16:17:39.755.06-Aug-2020 4955.01 5757.43 80.19 2.00 456.30 2633.27
   16:17:39.955.06-Aug-2020 4955.01 5757.28 80.19 2.00 456.50 2633.27
   16:17:40.155.06-Aug-2020 4955.01 5758.71 80.19 2.00 456.70 2633.27
   16:17:40.355.06-Aug-2020 4955.01 5757.69 80.19 2.00 456.90 2633.27
   16:17:40.555.06-Aug-2020 4955.01 5758.66 80.19 2.00 457.10 2633.27
   16:17:40.755.06-Aug-2020 4955.01 5758.66 80.19 2.00 457.30 2633.27
   16:17:40.955.06-Aug-2020 4955.01 5757.76 80.19 2.00 457.50 2633.27
   16:17:41.155.06-Aug-2020 4955.01 5755.88 80.18 2.00 457.70 2633.27
   16:17:41.355.06-Aug-2020 4955.01 5757.37 80.18 2.00 457.90 2633.27
   16:17:41.555.06-Aug-2020 4955.01 5751.24 80.18 2.00 458.10 2633.27
   16:17:41.755.06-Aug-2020 4955.01 5751.24 80.18 2.00 458.30 2633.27
   16:17:41.955.06-Aug-2020 4955.01 5755.48 80.18 2.00 458.50 2633.27
   16:17:42.155.06-Aug-2020 4955.01 5757.61 80.18 2.00 458.70 2633.27
   16:17:42.355.06-Aug-2020 4955.01 5756.18 80.18 2.00 458.90 2633.27
   16:17:42.555.06-Aug-2020 4955.01 5756.99 80.18 2.00 459.10 2633.27
   16:17:42.755.06-Aug-2020 4955.01 5756.76 80.18 2.00 459.30 2633.27
   16:17:42.955.06-Aug-2020 4955.01 5757.63 80.18 2.00 459.50 2633.27
   16:17:43.155.06-Aug-2020 4955.01 5757.22 80.18 2.00 459.70 2633.27
   16:17:43.356.06-Aug-2020 4955.01 5757.21 80.18 2.00 459.90 2633.27
