~Version Information
 VERS.                  2.0:   CWLS log ASCII Standard -VERSION 2.0
 WRAP.                   NO:   One line per depth step
~Well Information Block
#MNEM.UNIT     VALUE/NAME     DESCRIPTION
#---------     -----------    ---------------------------
 STRT.S             06:40:56 07-Aug-20: START TIME 06:40:56 07-Aug-20
 STOP.S             06:48:48 07-Aug-20: STOP TIME  06:48:48 07-Aug-20
 STEP.S                   0.00: STEP TIME
 NULL.                 -999.25: NULL VALUE
 DFWT.                        :  DIST FWL TEXT
 DFST.                        :  DIST FSL TEXT
 DMF .             Drill Floor:  DRILL MEAS FROM
 STIM.      12.00.00 03-Jul-20:  START TIME
 DATE.      00.50.00 09-Aug-20:  END TIME
 SPUD.               03-Jul-20:  SPUD DATE
 NREF.                    Grid:  NORTH REFERENCE
 HPTY.       Minimum Curvature:  HOLE POS TYPE
 DMOD.             Drill Model:  DRILL MOD DESC
 SVYD.                  Survey:  SURVEY DESC
 ILTD.               Lithology:  INTERP LTH DESC
 FTOP.          Formation Tops:  FORM TOPS DESC
 PDAT.          Mean Sea Level:  PERMANENT DATUM
 FLD .                     ACG:  FIELD NAME
 CTRY.              Azerbaijan:  COUNTRY NAME
 WELL.                    E04x:  WELL NAME
 SRVC.          Turan Drilling:  CONTRACTOR
 COMP.     BP Exploration (Caspian Sea) Ltd.:  COMPANY
 SON .        AZ-XX-0906531346:  JOB NUMBER
 WTYP.                Deviated:  WELL TYPE
 MDS .        Operator Entered:  MAG DATA SOURCE
 UWI .                     N/A:  UNIQUE WELL IDENTIFIER
 API .                     N/A:  API NUMBER
 BASE.              Azerbaijan:  LOGGING EQUIPMENT BASE LOCATION
 REGN.                   EESSA:  REGION
 PROV.                    Baku:  PROVINCE
 STAT.                    Baku:  STATE NAME
 MWDS.                    Baku:  MWD SHOP
 JOBN.        AZ-XX-0906531346:  JOB TICKET NUMB
 RIG .                     DWG:  RIG NAME
 DOE .                     N/A:  DOE NUMBER
 DCON.         Sperry Drilling:  DIRECTNL CONTR
 UNIT.                     N/A:  LOGGING EQUIPMENT ID
 CNTY.                        :  COUNTY
 LOC .                        :  LOCATION
 LMF .             Drill Floor:  LOG MEASURED FROM
 TVDS.m                  43.16:  TVDSS CORRECTN
 LATI.deg                40.17:  LATITUDE
 LONG.deg                51.17:  LONGITUDE
 WHNS.m                  -0.12:  WELL HEAD N/S
 WHEW.m                  -5.41:  WELL HEAD E/W
 UTMX.m              514337.95:  UTM X
 UTMY.m             4448627.46:  UTM Y
 DFWL.m                   0.00:  DISTANCE FWL
 DFSL.m                   0.00:  DISTANCE FSL
 SDEP.m                3088.01:  START DEPTH
 TDD .m                5200.01:  TOTAL DEPTH (DRILLER)
 VSDR.deg               244.51:  VERT SEC DIRECT
 GVFD.g                   1.00:  GRAVITY FIELD
 MFLD.nT              50329.80:  MAGNETIC FIELD
 MDIP.deg                59.63:  MAGNETIC DIP
 MDEC.deg                 6.59:  MAGNETIC DECL
 GRDC.deg                 0.09:  GRID CORRECTION
 AZTC.deg                 6.50:  AZM TOTAL CORR
 EPD .m                   0.00:  ELEVATION
 EGL .m                   0.00:  GROUND ELEVATION
 WDMS.m                 176.20:  WD ELEV
 APD .m                  43.16:  DEPTH ABOVE PD
 DEP .m                3084.71:  DEPTH
 AGAP.m                  43.16:  AIR GAP
 VSEW.m                  -5.41:  VERT SEC E/W
 VSNS.m                  -0.12:  VERT SEC N/S
 EKB .m                   0.00:  KB ELEVATION
 EDF .m                  43.16:  DF ELEVATION
 TDL .m                 243.00:  TOTAL DEPTH (LOGGER)
 VSC .                       0:  VS TO CLOSURE
 MAGU.                 1853542:  MAGUTM CHECKSUM
~Parameter Information Block
#MNEM.UNIT       Value        Description
#---------     -----------    ---------------------------
 AV  .mps                 1.91:  Ann Velocity 
 AVMX.mps                 2.52:  Max Ann Veloc 
 AZIF.deg               308.97:  Azm, Final 
 BHAT.        Rotary Steerable:  BHA Type 
 BROT.°/30m               1.00:  Build Rotating 
 BS  .in                  6.50:  Bit Size 
 BSZ .in                  6.50:  Bit Size 
 BTPL.psig              350.00:  Bit Press Loss 
 CABU.                      No:  Customer Abuse 
 CGEO.           Asif Pashayev:  Customer Geo 
 TCS .hr                 35.86:  Time Ciculation Ended 
 CV  .mps                 2.31:  Crit Velocity 
 CVMX.mps                 2.31:  Max Crit Veloc 
 DD1 .         Intigam Rahimov:  Direct Drillr 1 
 DDSV.               Geo-Pilot:  DD Service 
 DEFF.%                  92.00:  % Det Eff 
 DLRX.°/30m               1.00:  Dogleg Rot Max 
 DLSO.°/30m               1.00:  Dogleg Oriented 
 DLSX.°/30m               1.42:  Dogleg Str Max 
 DRET.      15.50.00 07-Aug-20:  Drill End Time 
 DRST.      10.40.00 06-Aug-20:  Drill Start Tim 
 DTIM.hr                 21.30:  Time Drilling 
 EDEP.m                5200.01:  End Depth 
 ENG1.            Alan Tuganov:  Engineer 1 
 ENG2.         Almaz Almadatov:  Engineer 2 
 ENG3.     Zammelal Abdullah Sani:  Engineer 3 
 ETIM.      22.42.00 08-Aug-20:  End Time 
 FLOI.gpm               395.00:  Flow In 
 FLON.gpm               350.00:  Flow In Min 
 FLOS.cptm                0.00:  Fluid Loss 
 FLOX.gpm               404.00:  Flow In Max 
 FTRO.       Formation Presure:  FTWD Run Obj 
 HFLO.                      No:  High Flow 
 HPRE.                      No:  High Pressure 
 HTEM.                      No:  High Temp 
 HYDO.m                   1.80:  Hydro Offset 
 IFIN.deg                72.64:  Inc, Final 
 IMAX.deg                73.68:  Inc Max 
 IMIN.deg                72.64:  Inc Min 
 IMND.m                5189.69:  Inc Min Depth 
 IMXD.m                5067.88:  Inc Max Depth 
 JARR.                      No:  Jarring 
 LETM.      15.50.00 07-Aug-20:  Log End Time 
 LOST.hr                     0:  Lost Rig Time 
 LSTM.      10.40.00 06-Aug-20:  Log Start Time 
 MDCL.ppm             36000.00:  Mud Chlorides 
 MDES.     Inversion Oil/Synthetic:  Mud Desc 
 DFD .sg                  1.36:  Mud Density 
 MDMN.sg                  1.36:  Dens Mud Min 
 MDMX.sg                  1.36:  Dens Mud Max 
 MOIL.                      70:  Run Mud Oil % 
 MOWR.                   70:30:  Run Mud OWR 
 MSND.                    0.00:  Run Mud Sand % 
 MSOL.                   17.60:  Run Mud Solids% 
 DFV .spqt               73.00:  Mud Viscosity 
 MWOD.in                  4.75:  MWD Tool OD 
 MWSI.                      No:  Serv Intrp, MWD 
 OTIM.hr                 85.66:  Time Operating 
 PCON.           Look Like New:  Pad Condition 
 PMAX.psia             6250.00:  Press Op, Max 
 PV  .cP                 65.00:  Mud PV 
 RUN .                     900:  Run Number 
 ROPA.m/hr               11.40:  ROP Avg 
 ROPN.m/hr                5.00:  ROP Min 
 ROPX.m/hr               20.00:  ROP Max 
 RPMA.rpm               130.00:  RPM Surface Avg 
 RPMN.rpm                40.00:  RPM Surface Min 
 RPMX.rpm               140.00:  RPM Surface Max 
 RRUN.                    L205:  Rig Run Number 
 RTIM.hr                  1.00:  Time Reaming 
 SAZI.deg               313.52:  Azm, Start 
 SDEP.m                4957.01:  Start Depth 
 SIDD.                      No:  Serv Intrp, DD 
 SINC.deg                73.16:  Inc, Start 
 SPPA.psig             5657.00:  SPP Avg 
 SPPN.psig             2500.00:  SPP Min 
 SPPX.psig             5806.00:  SPP Max 
 STIM.      07.12.00 05-Aug-20:  Start Time 
 SVCS.                 DD, MWD:  Services 
 SVER.                    9.20:  Sperry Version 
 TDAT.m                 243.00:  Tot Depth Attmp 
 TDDF.                      No:  Trip for DD 
 TDLG.m                 243.00:  Tot Depth Loggd 
 TFF .                      No:  Trip for Fail 
 TQAA.f-kp               13.00:  Torque Abs Avg 
 TQAN.f-kp               11.00:  Torque Abs Min 
 TQAX.f-kp               16.00:  Torque Abs Max 
 TRRT.°/30m               1.00:  Turn Rotating 
 MRT .                    HCIM:  Maximum Recorded Temperature 
 TTMX.degC               96.08:  Max Tool Temp 
 VS01.                90515411:  Virtual Str1 SN 
 VS02.                90512716:  Virtual Str2 SN 
 VS03.                90522362:  Virtual Str3 SN 
 VS04.                90619415:  Virtual Str4 SN 
 VS05.                90619414:  Virtual Str5 SN 
 VS06.                90597748:  Virtual Str6 SN 
 WBMN.klb                 2.00:  WOB Min 
 WITN.           Adil Mammadov:  Customer Rep 
 WITN.     Alexander Yadullayev:  Customer Rep 2 
 WOBA.klb                 7.00:  WOB Avg 
 WOBX.klb                23.00:  WOB Max 
 YP  .lhf2               37.00:  Yield Point 
~Curve Information Block
#MNEM.UNIT                 API CODE     Curve Description
#---------               -----------    ---------------------------
 TIME.HHMMSS            00 000 000 000:  GT Time & Date
 GTDEPTH.m              00 000 000 000:  GT Depth
 GTPQH.psia             00 000 000 000:  GT HR Quartz Pressure
 GTTQ.degC              00 000 000 000:  GT Quartz Temperature
 GTTN.NONE              00 000 000 000:  GT Test Number
 GTET.sec               00 000 000 000:  GT Elapsed Test Time
 GTTVD.m                00 000 000 000:  GT True Vertical Depth
#Other Information
#
#WARRANTY: Halliburton will use its best efforts to furnish customers with 
#accurate information and interpretations that are part of, and incident to, the services 
#provided.  However, Halliburton cannot and does not warrant the accuracy 
#or correctness of such information and interpretations.  Under no circumstances should any 
#such information or interpretation be relied upon as the sole basis for any drilling, 
#completion, production, or financial decision or any procedure involving any risk to the 
#safety of any drilling venture, drilling rig or its crew or any other third party.  The 
#Customer has full responsibility for all drilling, completion and production operation.  
#Halliburton makes no representations or warranties, either expressed or 
#implied, including, but not limited to, the implied warranties of merchantability or fitness 
#for a particular purpose, with respect to the services rendered.  In no event will 
#Halliburton be liable for failure to obtain any particular results or for 
#any damages, including, but not limited to, indirect, special or consequential damages, 
#resulting from the use of any information or interpretation provided by Halliburton.
#
~A           TIME           GTDEPTH  GTPQH  GTTQ  GTTN  GTET   GTTVD  
# ...
   06:48:14.066.07-Aug-2020 5088.01 3690.85 87.95 8.00 437.13 2671.45
   06:48:14.266.07-Aug-2020 5088.01 3690.85 87.95 8.00 437.33 2671.45
   06:48:14.466.07-Aug-2020 5088.01 3690.90 87.95 8.00 437.53 2671.45
   06:48:14.666.07-Aug-2020 5088.01 3690.86 87.95 8.00 437.73 2671.45
   06:48:14.866.07-Aug-2020 5088.01 3690.81 87.95 8.00 437.93 2671.45
   06:48:15.066.07-Aug-2020 5088.01 3690.89 87.95 8.00 438.13 2671.45
   06:48:15.266.07-Aug-2020 5088.01 3690.89 87.95 8.00 438.33 2671.45
   06:48:15.466.07-Aug-2020 5088.01 3690.85 87.95 8.00 438.53 2671.45
   06:48:15.666.07-Aug-2020 5088.01 3690.86 87.95 8.00 438.73 2671.45
   06:48:15.866.07-Aug-2020 5088.01 3690.85 87.95 8.00 438.93 2671.45
   06:48:16.067.07-Aug-2020 5088.01 3691.13 87.94 8.00 439.13 2671.45
   06:48:16.267.07-Aug-2020 5088.01 3691.13 87.94 8.00 439.33 2671.45
   06:48:16.467.07-Aug-2020 5088.01 3702.06 87.94 8.00 439.53 2671.45
   06:48:16.667.07-Aug-2020 5088.01 5756.65 87.94 8.00 439.73 2671.45
   06:48:16.867.07-Aug-2020 5088.01 5849.05 87.94 8.00 439.93 2671.45
   06:48:17.067.07-Aug-2020 5088.01 5756.61 87.94 8.00 440.13 2671.45
   06:48:17.267.07-Aug-2020 5088.01 5756.61 87.94 8.00 440.33 2671.45
   06:48:17.467.07-Aug-2020 5088.01 5756.52 87.94 8.00 440.53 2671.45
   06:48:17.667.07-Aug-2020 5088.01 5744.07 87.94 8.00 440.73 2671.45
   06:48:17.867.07-Aug-2020 5088.01 5736.06 87.94 8.00 440.93 2671.45
   06:48:18.067.07-Aug-2020 5088.01 5756.27 87.94 8.00 441.13 2671.45
   06:48:18.267.07-Aug-2020 5088.01 5756.27 87.94 8.00 441.33 2671.45
   06:48:18.467.07-Aug-2020 5088.01 5859.30 87.94 8.00 441.53 2671.45
   06:48:18.667.07-Aug-2020 5088.01 5856.73 87.94 8.00 441.73 2671.45
   06:48:18.867.07-Aug-2020 5088.01 5861.32 87.94 8.00 441.93 2671.45
   06:48:19.067.07-Aug-2020 5088.01 5849.89 87.94 8.00 442.13 2671.45
   06:48:19.267.07-Aug-2020 5088.01 5849.89 87.94 8.00 442.33 2671.45
   06:48:19.467.07-Aug-2020 5088.01 5863.37 87.94 8.00 442.53 2671.45
   06:48:19.668.07-Aug-2020 5088.01 5856.67 87.94 8.00 442.73 2671.45
   06:48:19.868.07-Aug-2020 5088.01 5862.67 87.94 8.00 442.93 2671.45
   06:48:20.068.07-Aug-2020 5088.01 5852.78 87.94 8.00 443.13 2671.45
   06:48:20.268.07-Aug-2020 5088.01 5852.78 87.94 8.00 443.33 2671.45
   06:48:20.468.07-Aug-2020 5088.01 5863.03 87.94 8.00 443.53 2671.45
   06:48:20.668.07-Aug-2020 5088.01 5858.42 87.94 8.00 443.73 2671.45
   06:48:20.868.07-Aug-2020 5088.01 5863.10 87.94 8.00 443.93 2671.45
   06:48:21.068.07-Aug-2020 5088.01 5861.86 87.94 8.00 444.13 2671.45
   06:48:21.268.07-Aug-2020 5088.01 5862.70 87.94 8.00 444.33 2671.45
   06:48:21.468.07-Aug-2020 5088.01 5864.00 87.94 8.00 444.53 2671.45
   06:48:21.668.07-Aug-2020 5088.01 5863.24 87.94 8.00 444.73 2671.45
   06:48:21.868.07-Aug-2020 5088.01 5863.17 87.94 8.00 444.93 2671.45
   06:48:22.068.07-Aug-2020 5088.01 5863.83 87.94 8.00 445.13 2671.45
   06:48:22.268.07-Aug-2020 5088.01 5863.83 87.94 8.00 445.33 2671.45
   06:48:22.468.07-Aug-2020 5088.01 5864.26 87.94 8.00 445.53 2671.45
   06:48:22.668.07-Aug-2020 5088.01 5863.71 87.94 8.00 445.73 2671.45
   06:48:22.868.07-Aug-2020 5088.01 5855.76 87.94 8.00 445.93 2671.45
   06:48:23.069.07-Aug-2020 5088.01 5865.29 87.94 8.00 446.13 2671.45
   06:48:23.269.07-Aug-2020 5088.01 5865.29 87.94 8.00 446.33 2671.45
   06:48:23.469.07-Aug-2020 5088.01 5862.76 87.94 8.00 446.53 2671.45
   06:48:23.669.07-Aug-2020 5088.01 5864.90 87.94 8.00 446.73 2671.45
   06:48:23.869.07-Aug-2020 5088.01 5862.29 87.94 8.00 446.93 2671.45
   06:48:24.069.07-Aug-2020 5088.01 5863.50 87.94 8.00 447.13 2671.45
   06:48:24.269.07-Aug-2020 5088.01 5863.50 87.94 8.00 447.33 2671.45
   06:48:24.469.07-Aug-2020 5088.01 5863.46 87.94 8.00 447.53 2671.45
   06:48:24.669.07-Aug-2020 5088.01 5863.64 87.94 8.00 447.73 2671.45
   06:48:24.869.07-Aug-2020 5088.01 5863.44 87.94 8.00 447.93 2671.45
   06:48:25.069.07-Aug-2020 5088.01 5863.55 87.94 8.00 448.13 2671.45
   06:48:25.269.07-Aug-2020 5088.01 5862.73 87.94 8.00 448.33 2671.45
   06:48:25.469.07-Aug-2020 5088.01 5853.05 87.94 8.00 448.53 2671.45
   06:48:25.669.07-Aug-2020 5088.01 5864.61 87.94 8.00 448.73 2671.45
   06:48:25.869.07-Aug-2020 5088.01 5865.21 87.94 8.00 448.93 2671.45
   06:48:26.069.07-Aug-2020 5088.01 5856.54 87.94 8.00 449.13 2671.45
   06:48:26.269.07-Aug-2020 5088.01 5856.54 87.94 8.00 449.33 2671.45
   06:48:26.470.07-Aug-2020 5088.01 5852.07 87.94 8.00 449.53 2671.45
   06:48:26.670.07-Aug-2020 5088.01 5864.01 87.94 8.00 449.73 2671.45
   06:48:26.870.07-Aug-2020 5088.01 5863.52 87.94 8.00 449.93 2671.45
   06:48:27.070.07-Aug-2020 5088.01 5858.03 87.94 8.00 450.13 2671.45
   06:48:27.270.07-Aug-2020 5088.01 5858.03 87.94 8.00 450.33 2671.45
   06:48:27.470.07-Aug-2020 5088.01 5852.28 87.94 8.00 450.53 2671.45
   06:48:27.670.07-Aug-2020 5088.01 5864.13 87.94 8.00 450.73 2671.45
   06:48:27.870.07-Aug-2020 5088.01 5865.71 87.94 8.00 450.93 2671.45
   06:48:28.070.07-Aug-2020 5088.01 5856.25 87.94 8.00 451.13 2671.45
   06:48:28.270.07-Aug-2020 5088.01 5863.09 87.94 8.00 451.33 2671.45
   06:48:28.470.07-Aug-2020 5088.01 5852.58 87.94 8.00 451.53 2671.45
   06:48:28.670.07-Aug-2020 5088.01 5864.38 87.94 8.00 451.73 2671.45
   06:48:28.870.07-Aug-2020 5088.01 5864.43 87.94 8.00 451.93 2671.45
   06:48:29.070.07-Aug-2020 5088.01 5857.95 87.94 8.00 452.13 2671.45
   06:48:29.270.07-Aug-2020 5088.01 5863.79 87.94 8.00 452.33 2671.45
   06:48:29.470.07-Aug-2020 5088.01 5862.86 87.94 8.00 452.53 2671.45
   06:48:29.670.07-Aug-2020 5088.01 5863.13 87.94 8.00 452.73 2671.45
   06:48:29.871.07-Aug-2020 5088.01 5864.31 87.94 8.00 452.93 2671.45
   06:48:30.071.07-Aug-2020 5088.01 5863.84 87.94 8.00 453.13 2671.45
   06:48:30.271.07-Aug-2020 5088.01 5863.72 87.94 8.00 453.33 2671.45
   06:48:30.471.07-Aug-2020 5088.01 5863.97 87.94 8.00 453.53 2671.45
   06:48:30.671.07-Aug-2020 5088.01 5863.73 87.94 8.00 453.73 2671.45
   06:48:30.871.07-Aug-2020 5088.01 5864.77 87.94 8.00 453.93 2671.45
   06:48:31.071.07-Aug-2020 5088.01 5859.91 87.94 8.00 454.13 2671.45
   06:48:31.271.07-Aug-2020 5088.01 5859.91 87.94 8.00 454.33 2671.45
   06:48:31.471.07-Aug-2020 5088.01 5865.52 87.94 8.00 454.53 2671.45
   06:48:31.671.07-Aug-2020 5088.01 5857.10 87.94 8.00 454.73 2671.45
   06:48:31.871.07-Aug-2020 5088.01 5863.20 87.94 8.00 454.93 2671.45
   06:48:32.071.07-Aug-2020 5088.01 5864.17 87.94 8.00 455.13 2671.45
   06:48:32.271.07-Aug-2020 5088.01 5864.17 87.94 8.00 455.33 2671.45
   06:48:32.471.07-Aug-2020 5088.01 5863.09 87.93 8.00 455.53 2671.45
   06:48:32.671.07-Aug-2020 5088.01 5862.86 87.93 8.00 455.73 2671.45
   06:48:32.871.07-Aug-2020 5088.01 5863.20 87.93 8.00 455.93 2671.45
   06:48:33.071.07-Aug-2020 5088.01 5862.84 87.93 8.00 456.13 2671.45
   06:48:33.271.07-Aug-2020 5088.01 5862.87 87.93 8.00 456.33 2671.45
   06:48:33.472.07-Aug-2020 5088.01 5862.69 87.93 8.00 456.53 2671.45
   06:48:33.672.07-Aug-2020 5088.01 5862.59 87.93 8.00 456.73 2671.45
   06:48:33.872.07-Aug-2020 5088.01 5862.20 87.93 8.00 456.93 2671.45
   06:48:34.072.07-Aug-2020 5088.01 5854.34 87.93 8.00 457.13 2671.45
   06:48:34.272.07-Aug-2020 5088.01 5854.34 87.93 8.00 457.33 2671.45
   06:48:34.472.07-Aug-2020 5088.01 5858.60 87.93 8.00 457.53 2671.45
   06:48:34.672.07-Aug-2020 5088.01 5860.73 87.93 8.00 457.73 2671.45
   06:48:34.872.07-Aug-2020 5088.01 5862.30 87.93 8.00 457.93 2671.45
   06:48:35.072.07-Aug-2020 5088.01 5860.08 87.93 8.00 458.13 2671.45
   06:48:35.272.07-Aug-2020 5088.01 5860.08 87.93 8.00 458.33 2671.45
   06:48:35.472.07-Aug-2020 5088.01 5864.67 87.93 8.00 458.53 2671.45
   06:48:35.672.07-Aug-2020 5088.01 5862.04 87.93 8.00 458.73 2671.45
   06:48:35.872.07-Aug-2020 5088.01 5859.93 87.93 8.00 458.93 2671.45
   06:48:36.072.07-Aug-2020 5088.01 5863.27 87.93 8.00 459.13 2671.45
   06:48:36.272.07-Aug-2020 5088.01 5863.27 87.93 8.00 459.33 2671.45
   06:48:36.472.07-Aug-2020 5088.01 5861.49 87.93 8.00 459.53 2671.45
   06:48:36.672.07-Aug-2020 5088.01 5866.22 87.93 8.00 459.73 2671.45
   06:48:36.873.07-Aug-2020 5088.01 5855.82 87.93 8.00 459.93 2671.45
