~Version Information
 VERS.                  2.0:   CWLS log ASCII Standard -VERSION 2.0
 WRAP.                   NO:   One line per depth step
~Well Information Block
#MNEM.UNIT     VALUE/NAME     DESCRIPTION
#---------     -----------    ---------------------------
 STRT.S             03:58:24 07-Aug-20: START TIME 03:58:24 07-Aug-20
 STOP.S             04:06:16 07-Aug-20: STOP TIME  04:06:16 07-Aug-20
 STEP.S                   0.00: STEP TIME
 NULL.                 -999.25: NULL VALUE
 DFWT.                        :  DIST FWL TEXT
 DFST.                        :  DIST FSL TEXT
 DMF .             Drill Floor:  DRILL MEAS FROM
 STIM.      12.00.00 03-Jul-20:  START TIME
 DATE.      00.50.00 09-Aug-20:  END TIME
 SPUD.               03-Jul-20:  SPUD DATE
 NREF.                    Grid:  NORTH REFERENCE
 HPTY.       Minimum Curvature:  HOLE POS TYPE
 DMOD.             Drill Model:  DRILL MOD DESC
 SVYD.                  Survey:  SURVEY DESC
 ILTD.               Lithology:  INTERP LTH DESC
 FTOP.          Formation Tops:  FORM TOPS DESC
 PDAT.          Mean Sea Level:  PERMANENT DATUM
 FLD .                     ACG:  FIELD NAME
 CTRY.              Azerbaijan:  COUNTRY NAME
 WELL.                    E04x:  WELL NAME
 SRVC.          Turan Drilling:  CONTRACTOR
 COMP.     BP Exploration (Caspian Sea) Ltd.:  COMPANY
 SON .        AZ-XX-0906531346:  JOB NUMBER
 WTYP.                Deviated:  WELL TYPE
 MDS .        Operator Entered:  MAG DATA SOURCE
 UWI .                     N/A:  UNIQUE WELL IDENTIFIER
 API .                     N/A:  API NUMBER
 BASE.              Azerbaijan:  LOGGING EQUIPMENT BASE LOCATION
 REGN.                   EESSA:  REGION
 PROV.                    Baku:  PROVINCE
 STAT.                    Baku:  STATE NAME
 MWDS.                    Baku:  MWD SHOP
 JOBN.        AZ-XX-0906531346:  JOB TICKET NUMB
 RIG .                     DWG:  RIG NAME
 DOE .                     N/A:  DOE NUMBER
 DCON.         Sperry Drilling:  DIRECTNL CONTR
 UNIT.                     N/A:  LOGGING EQUIPMENT ID
 CNTY.                        :  COUNTY
 LOC .                        :  LOCATION
 LMF .             Drill Floor:  LOG MEASURED FROM
 TVDS.m                  43.16:  TVDSS CORRECTN
 LATI.deg                40.17:  LATITUDE
 LONG.deg                51.17:  LONGITUDE
 WHNS.m                  -0.12:  WELL HEAD N/S
 WHEW.m                  -5.41:  WELL HEAD E/W
 UTMX.m              514337.95:  UTM X
 UTMY.m             4448627.46:  UTM Y
 DFWL.m                   0.00:  DISTANCE FWL
 DFSL.m                   0.00:  DISTANCE FSL
 SDEP.m                3088.01:  START DEPTH
 TDD .m                5200.01:  TOTAL DEPTH (DRILLER)
 VSDR.deg               244.51:  VERT SEC DIRECT
 GVFD.g                   1.00:  GRAVITY FIELD
 MFLD.nT              50329.80:  MAGNETIC FIELD
 MDIP.deg                59.63:  MAGNETIC DIP
 MDEC.deg                 6.59:  MAGNETIC DECL
 GRDC.deg                 0.09:  GRID CORRECTION
 AZTC.deg                 6.50:  AZM TOTAL CORR
 EPD .m                   0.00:  ELEVATION
 EGL .m                   0.00:  GROUND ELEVATION
 WDMS.m                 176.20:  WD ELEV
 APD .m                  43.16:  DEPTH ABOVE PD
 DEP .m                3084.71:  DEPTH
 AGAP.m                  43.16:  AIR GAP
 VSEW.m                  -5.41:  VERT SEC E/W
 VSNS.m                  -0.12:  VERT SEC N/S
 EKB .m                   0.00:  KB ELEVATION
 EDF .m                  43.16:  DF ELEVATION
 TDL .m                 243.00:  TOTAL DEPTH (LOGGER)
 VSC .                       0:  VS TO CLOSURE
 MAGU.                 1853542:  MAGUTM CHECKSUM
~Parameter Information Block
#MNEM.UNIT       Value        Description
#---------     -----------    ---------------------------
 AV  .mps                 1.91:  Ann Velocity 
 AVMX.mps                 2.52:  Max Ann Veloc 
 AZIF.deg               308.97:  Azm, Final 
 BHAT.        Rotary Steerable:  BHA Type 
 BROT.°/30m               1.00:  Build Rotating 
 BS  .in                  6.50:  Bit Size 
 BSZ .in                  6.50:  Bit Size 
 BTPL.psig              350.00:  Bit Press Loss 
 CABU.                      No:  Customer Abuse 
 CGEO.           Asif Pashayev:  Customer Geo 
 TCS .hr                 35.86:  Time Ciculation Ended 
 CV  .mps                 2.31:  Crit Velocity 
 CVMX.mps                 2.31:  Max Crit Veloc 
 DD1 .         Intigam Rahimov:  Direct Drillr 1 
 DDSV.               Geo-Pilot:  DD Service 
 DEFF.%                  92.00:  % Det Eff 
 DLRX.°/30m               1.00:  Dogleg Rot Max 
 DLSO.°/30m               1.00:  Dogleg Oriented 
 DLSX.°/30m               1.42:  Dogleg Str Max 
 DRET.      15.50.00 07-Aug-20:  Drill End Time 
 DRST.      10.40.00 06-Aug-20:  Drill Start Tim 
 DTIM.hr                 21.30:  Time Drilling 
 EDEP.m                5200.01:  End Depth 
 ENG1.            Alan Tuganov:  Engineer 1 
 ENG2.         Almaz Almadatov:  Engineer 2 
 ENG3.     Zammelal Abdullah Sani:  Engineer 3 
 ETIM.      22.42.00 08-Aug-20:  End Time 
 FLOI.gpm               395.00:  Flow In 
 FLON.gpm               350.00:  Flow In Min 
 FLOS.cptm                0.00:  Fluid Loss 
 FLOX.gpm               404.00:  Flow In Max 
 FTRO.       Formation Presure:  FTWD Run Obj 
 HFLO.                      No:  High Flow 
 HPRE.                      No:  High Pressure 
 HTEM.                      No:  High Temp 
 HYDO.m                   1.80:  Hydro Offset 
 IFIN.deg                72.64:  Inc, Final 
 IMAX.deg                73.68:  Inc Max 
 IMIN.deg                72.64:  Inc Min 
 IMND.m                5189.69:  Inc Min Depth 
 IMXD.m                5067.88:  Inc Max Depth 
 JARR.                      No:  Jarring 
 LETM.      15.50.00 07-Aug-20:  Log End Time 
 LOST.hr                     0:  Lost Rig Time 
 LSTM.      10.40.00 06-Aug-20:  Log Start Time 
 MDCL.ppm             36000.00:  Mud Chlorides 
 MDES.     Inversion Oil/Synthetic:  Mud Desc 
 DFD .sg                  1.36:  Mud Density 
 MDMN.sg                  1.36:  Dens Mud Min 
 MDMX.sg                  1.36:  Dens Mud Max 
 MOIL.                      70:  Run Mud Oil % 
 MOWR.                   70:30:  Run Mud OWR 
 MSND.                    0.00:  Run Mud Sand % 
 MSOL.                   17.60:  Run Mud Solids% 
 DFV .spqt               73.00:  Mud Viscosity 
 MWOD.in                  4.75:  MWD Tool OD 
 MWSI.                      No:  Serv Intrp, MWD 
 OTIM.hr                 85.66:  Time Operating 
 PCON.           Look Like New:  Pad Condition 
 PMAX.psia             6250.00:  Press Op, Max 
 PV  .cP                 65.00:  Mud PV 
 RUN .                     900:  Run Number 
 ROPA.m/hr               11.40:  ROP Avg 
 ROPN.m/hr                5.00:  ROP Min 
 ROPX.m/hr               20.00:  ROP Max 
 RPMA.rpm               130.00:  RPM Surface Avg 
 RPMN.rpm                40.00:  RPM Surface Min 
 RPMX.rpm               140.00:  RPM Surface Max 
 RRUN.                    L205:  Rig Run Number 
 RTIM.hr                  1.00:  Time Reaming 
 SAZI.deg               313.52:  Azm, Start 
 SDEP.m                4957.01:  Start Depth 
 SIDD.                      No:  Serv Intrp, DD 
 SINC.deg                73.16:  Inc, Start 
 SPPA.psig             5657.00:  SPP Avg 
 SPPN.psig             2500.00:  SPP Min 
 SPPX.psig             5806.00:  SPP Max 
 STIM.      07.12.00 05-Aug-20:  Start Time 
 SVCS.                 DD, MWD:  Services 
 SVER.                    9.20:  Sperry Version 
 TDAT.m                 243.00:  Tot Depth Attmp 
 TDDF.                      No:  Trip for DD 
 TDLG.m                 243.00:  Tot Depth Loggd 
 TFF .                      No:  Trip for Fail 
 TQAA.f-kp               13.00:  Torque Abs Avg 
 TQAN.f-kp               11.00:  Torque Abs Min 
 TQAX.f-kp               16.00:  Torque Abs Max 
 TRRT.°/30m               1.00:  Turn Rotating 
 MRT .                    HCIM:  Maximum Recorded Temperature 
 TTMX.degC               96.08:  Max Tool Temp 
 VS01.                90515411:  Virtual Str1 SN 
 VS02.                90512716:  Virtual Str2 SN 
 VS03.                90522362:  Virtual Str3 SN 
 VS04.                90619415:  Virtual Str4 SN 
 VS05.                90619414:  Virtual Str5 SN 
 VS06.                90597748:  Virtual Str6 SN 
 WBMN.klb                 2.00:  WOB Min 
 WITN.           Adil Mammadov:  Customer Rep 
 WITN.     Alexander Yadullayev:  Customer Rep 2 
 WOBA.klb                 7.00:  WOB Avg 
 WOBX.klb                23.00:  WOB Max 
 YP  .lhf2               37.00:  Yield Point 
~Curve Information Block
#MNEM.UNIT                 API CODE     Curve Description
#---------               -----------    ---------------------------
 TIME.HHMMSS            00 000 000 000:  GT Time & Date
 GTDEPTH.m              00 000 000 000:  GT Depth
 GTPQH.psia             00 000 000 000:  GT HR Quartz Pressure
 GTTQ.degC              00 000 000 000:  GT Quartz Temperature
 GTTN.NONE              00 000 000 000:  GT Test Number
 GTET.sec               00 000 000 000:  GT Elapsed Test Time
 GTTVD.m                00 000 000 000:  GT True Vertical Depth
#Other Information
#
#WARRANTY: Halliburton will use its best efforts to furnish customers with 
#accurate information and interpretations that are part of, and incident to, the services 
#provided.  However, Halliburton cannot and does not warrant the accuracy 
#or correctness of such information and interpretations.  Under no circumstances should any 
#such information or interpretation be relied upon as the sole basis for any drilling, 
#completion, production, or financial decision or any procedure involving any risk to the 
#safety of any drilling venture, drilling rig or its crew or any other third party.  The 
#Customer has full responsibility for all drilling, completion and production operation.  
#Halliburton makes no representations or warranties, either expressed or 
#implied, including, but not limited to, the implied warranties of merchantability or fitness 
#for a particular purpose, with respect to the services rendered.  In no event will 
#Halliburton be liable for failure to obtain any particular results or for 
#any damages, including, but not limited to, indirect, special or consequential damages, 
#resulting from the use of any information or interpretation provided by Halliburton.
#
~A           TIME           GTDEPTH  GTPQH  GTTQ  GTTN  GTET   GTTVD  
# ...
   04:00:19.303.07-Aug-2020 5060.51 3684.45 87.75 7.00 115.03 2663.65
   04:00:19.503.07-Aug-2020 5060.51 3684.45 87.75 7.00 115.23 2663.65
   04:00:19.703.07-Aug-2020 5060.51 3684.44 87.75 7.00 115.43 2663.65
   04:00:19.903.07-Aug-2020 5060.51 3684.45 87.75 7.00 115.63 2663.65
   04:00:20.103.07-Aug-2020 5060.51 3684.38 87.75 7.00 115.83 2663.65
   04:00:20.303.07-Aug-2020 5060.51 3684.50 87.75 7.00 116.03 2663.65
   04:00:20.503.07-Aug-2020 5060.51 3684.50 87.75 7.00 116.23 2663.65
   04:00:20.703.07-Aug-2020 5060.51 3684.49 87.75 7.00 116.43 2663.65
   04:00:20.903.07-Aug-2020 5060.51 3684.32 87.75 7.00 116.63 2663.65
   04:00:21.103.07-Aug-2020 5060.51 3684.53 87.75 7.00 116.83 2663.65
   04:00:21.303.07-Aug-2020 5060.51 3684.46 87.74 7.00 117.03 2663.65
   04:00:21.504.07-Aug-2020 5060.51 3684.46 87.74 7.00 117.23 2663.65
   04:00:21.704.07-Aug-2020 5060.51 3684.47 87.74 7.00 117.43 2663.65
   04:00:21.904.07-Aug-2020 5060.51 3684.41 87.74 7.00 117.63 2663.65
   04:00:22.104.07-Aug-2020 5060.51 3684.44 87.74 7.00 117.83 2663.65
   04:00:22.304.07-Aug-2020 5060.51 3684.48 87.74 7.00 118.03 2663.65
   04:00:22.504.07-Aug-2020 5060.51 3684.48 87.74 7.00 118.23 2663.65
   04:00:22.704.07-Aug-2020 5060.51 3684.47 87.74 7.00 118.43 2663.65
   04:00:22.904.07-Aug-2020 5060.51 3684.46 87.74 7.00 118.63 2663.65
   04:00:23.104.07-Aug-2020 5060.51 3684.45 87.74 7.00 118.83 2663.65
   04:00:23.304.07-Aug-2020 5060.51 3684.34 87.74 7.00 119.03 2663.65
   04:00:23.504.07-Aug-2020 5060.51 3684.34 87.74 7.00 119.23 2663.65
   04:00:23.704.07-Aug-2020 5060.51 3684.45 87.74 7.00 119.43 2663.65
   04:00:23.904.07-Aug-2020 5060.51 3684.47 87.74 7.00 119.63 2663.65
   04:00:24.104.07-Aug-2020 5060.51 3684.46 87.74 7.00 119.83 2663.65
   04:00:24.304.07-Aug-2020 5060.51 3684.44 87.74 7.00 120.03 2663.65
   04:00:24.504.07-Aug-2020 5060.51 3684.44 87.74 7.00 120.23 2663.65
   04:00:24.704.07-Aug-2020 5060.51 3684.43 87.73 7.00 120.43 2663.65
   04:00:24.904.07-Aug-2020 5060.51 3684.46 87.73 7.00 120.63 2663.65
   04:00:25.104.07-Aug-2020 5060.51 3684.45 87.73 7.00 120.83 2663.65
   04:00:25.304.07-Aug-2020 5060.51 3684.45 87.73 7.00 121.03 2663.65
   04:00:25.504.07-Aug-2020 5060.51 3684.45 87.73 7.00 121.23 2663.65
   04:00:25.705.07-Aug-2020 5060.51 3684.45 87.73 7.00 121.43 2663.65
   04:00:25.905.07-Aug-2020 5060.51 3684.42 87.73 7.00 121.63 2663.65
   04:00:26.105.07-Aug-2020 5060.51 3684.38 87.73 7.00 121.83 2663.65
   04:00:26.305.07-Aug-2020 5060.51 3684.46 87.73 7.00 122.03 2663.65
   04:00:26.505.07-Aug-2020 5060.51 3684.46 87.73 7.00 122.23 2663.65
   04:00:26.705.07-Aug-2020 5060.51 3684.46 87.73 7.00 122.43 2663.65
   04:00:26.905.07-Aug-2020 5060.51 3684.44 87.73 7.00 122.63 2663.65
   04:00:27.105.07-Aug-2020 5060.51 3684.44 87.73 7.00 122.83 2663.65
   04:00:27.305.07-Aug-2020 5060.51 3684.43 87.73 7.00 123.03 2663.65
   04:00:27.505.07-Aug-2020 5060.51 3684.43 87.73 7.00 123.23 2663.65
   04:00:27.705.07-Aug-2020 5060.51 3684.43 87.73 7.00 123.43 2663.65
   04:00:27.905.07-Aug-2020 5060.51 3684.44 87.72 7.00 123.63 2663.65
   04:00:28.105.07-Aug-2020 5060.51 3684.42 87.72 7.00 123.83 2663.65
   04:00:28.305.07-Aug-2020 5060.51 3684.43 87.72 7.00 124.03 2663.65
   04:00:28.505.07-Aug-2020 5060.51 3684.43 87.72 7.00 124.23 2663.65
   04:00:28.705.07-Aug-2020 5060.51 3684.35 87.72 7.00 124.43 2663.65
   04:00:28.905.07-Aug-2020 5060.51 3684.46 87.72 7.00 124.63 2663.65
   04:00:29.105.07-Aug-2020 5060.51 3684.43 87.72 7.00 124.83 2663.65
   04:00:29.305.07-Aug-2020 5060.51 3684.42 87.72 7.00 125.03 2663.65
   04:00:29.505.07-Aug-2020 5060.51 3684.42 87.72 7.00 125.23 2663.65
   04:00:29.705.07-Aug-2020 5060.51 3684.39 87.72 7.00 125.43 2663.65
   04:00:29.906.07-Aug-2020 5060.51 3684.47 87.72 7.00 125.63 2663.65
   04:00:30.106.07-Aug-2020 5060.51 3684.38 87.72 7.00 125.83 2663.65
   04:00:30.306.07-Aug-2020 5060.51 3684.46 87.72 7.00 126.03 2663.65
   04:00:30.506.07-Aug-2020 5060.51 3684.46 87.72 7.00 126.23 2663.65
   04:00:30.706.07-Aug-2020 5060.51 3684.32 87.72 7.00 126.43 2663.65
   04:00:30.906.07-Aug-2020 5060.51 3684.48 87.72 7.00 126.63 2663.65
   04:00:31.106.07-Aug-2020 5060.51 3684.42 87.72 7.00 126.83 2663.65
   04:00:31.306.07-Aug-2020 5060.51 3684.44 87.71 7.00 127.03 2663.65
   04:00:31.506.07-Aug-2020 5060.51 3684.44 87.71 7.00 127.23 2663.65
   04:00:31.706.07-Aug-2020 5060.51 3684.42 87.71 7.00 127.43 2663.65
   04:00:31.906.07-Aug-2020 5060.51 3684.38 87.71 7.00 127.63 2663.65
   04:00:32.106.07-Aug-2020 5060.51 3684.40 87.71 7.00 127.83 2663.65
   04:00:32.306.07-Aug-2020 5060.51 3684.44 87.71 7.00 128.03 2663.65
   04:00:32.506.07-Aug-2020 5060.51 3684.44 87.71 7.00 128.23 2663.65
   04:00:32.706.07-Aug-2020 5060.51 3684.42 87.71 7.00 128.43 2663.65
   04:00:32.906.07-Aug-2020 5060.51 3684.42 87.71 7.00 128.63 2663.65
   04:00:33.106.07-Aug-2020 5060.51 3684.41 87.71 7.00 128.83 2663.65
   04:00:33.306.07-Aug-2020 5060.51 3684.42 87.71 7.00 129.03 2663.65
   04:00:33.506.07-Aug-2020 5060.51 3684.42 87.71 7.00 129.23 2663.65
   04:00:33.706.07-Aug-2020 5060.51 3684.40 87.71 7.00 129.43 2663.65
   04:00:33.906.07-Aug-2020 5060.51 3684.39 87.71 7.00 129.63 2663.65
   04:00:34.106.07-Aug-2020 5060.51 3684.40 87.71 7.00 129.83 2663.65
   04:00:34.307.07-Aug-2020 5060.51 3684.40 87.71 7.00 130.03 2663.65
   04:00:34.507.07-Aug-2020 5060.51 3684.40 87.71 7.00 130.23 2663.65
   04:00:34.707.07-Aug-2020 5060.51 3684.30 87.70 7.00 130.43 2663.65
   04:00:34.907.07-Aug-2020 5060.51 3684.44 87.70 7.00 130.63 2663.65
   04:00:35.107.07-Aug-2020 5060.51 3684.38 87.70 7.00 130.83 2663.65
   04:00:35.307.07-Aug-2020 5060.51 3684.41 87.70 7.00 131.03 2663.65
   04:00:35.507.07-Aug-2020 5060.51 3684.41 87.70 7.00 131.23 2663.65
   04:00:35.707.07-Aug-2020 5060.51 3684.40 87.70 7.00 131.43 2663.65
   04:00:35.907.07-Aug-2020 5060.51 3684.40 87.70 7.00 131.63 2663.65
   04:00:36.107.07-Aug-2020 5060.51 3684.40 87.70 7.00 131.83 2663.65
   04:00:36.307.07-Aug-2020 5060.51 3684.39 87.70 7.00 132.03 2663.65
   04:00:36.507.07-Aug-2020 5060.51 3684.39 87.70 7.00 132.23 2663.65
   04:00:36.707.07-Aug-2020 5060.51 3684.40 87.70 7.00 132.43 2663.65
   04:00:36.907.07-Aug-2020 5060.51 3684.39 87.70 7.00 132.63 2663.65
   04:00:37.107.07-Aug-2020 5060.51 3684.39 87.70 7.00 132.83 2663.65
   04:00:37.307.07-Aug-2020 5060.51 3684.37 87.70 7.00 133.03 2663.65
   04:00:37.507.07-Aug-2020 5060.51 3684.37 87.70 7.00 133.23 2663.65
   04:00:37.707.07-Aug-2020 5060.51 3684.41 87.70 7.00 133.43 2663.65
   04:00:37.907.07-Aug-2020 5060.51 3684.37 87.69 7.00 133.63 2663.65
   04:00:38.107.07-Aug-2020 5060.51 3684.41 87.69 7.00 133.83 2663.65
   04:00:38.307.07-Aug-2020 5060.51 3684.28 87.69 7.00 134.03 2663.65
   04:00:38.508.07-Aug-2020 5060.51 3684.28 87.69 7.00 134.23 2663.65
   04:00:38.708.07-Aug-2020 5060.51 3684.40 87.69 7.00 134.43 2663.65
   04:00:38.908.07-Aug-2020 5060.51 3684.39 87.69 7.00 134.63 2663.65
   04:00:39.108.07-Aug-2020 5060.51 3684.41 87.69 7.00 134.83 2663.65
   04:00:39.308.07-Aug-2020 5060.51 3684.34 87.69 7.00 135.03 2663.65
   04:00:39.508.07-Aug-2020 5060.51 3684.34 87.69 7.00 135.23 2663.65
   04:00:39.708.07-Aug-2020 5060.51 3684.41 87.69 7.00 135.43 2663.65
   04:00:39.908.07-Aug-2020 5060.51 3684.38 87.69 7.00 135.63 2663.65
   04:00:40.108.07-Aug-2020 5060.51 3684.40 87.69 7.00 135.83 2663.65
   04:00:40.308.07-Aug-2020 5060.51 3684.39 87.69 7.00 136.03 2663.65
   04:00:40.508.07-Aug-2020 5060.51 3684.39 87.69 7.00 136.23 2663.65
   04:00:40.708.07-Aug-2020 5060.51 3684.28 87.69 7.00 136.43 2663.65
   04:00:40.908.07-Aug-2020 5060.51 3684.44 87.69 7.00 136.63 2663.65
   04:00:41.108.07-Aug-2020 5060.51 3684.40 87.69 7.00 136.83 2663.65
   04:00:41.308.07-Aug-2020 5060.51 3684.39 87.68 7.00 137.03 2663.65
   04:00:41.508.07-Aug-2020 5060.51 3684.39 87.68 7.00 137.23 2663.65
   04:00:41.708.07-Aug-2020 5060.51 3684.38 87.68 7.00 137.43 2663.65
   04:00:41.908.07-Aug-2020 5060.51 3684.38 87.68 7.00 137.63 2663.65
   04:00:42.108.07-Aug-2020 5060.51 3684.38 87.68 7.00 137.83 2663.65
