~Version Information
 VERS.                  2.0:   CWLS log ASCII Standard -VERSION 2.0
 WRAP.                   NO:   One line per depth step
~Well Information Block
#MNEM.UNIT     VALUE/NAME     DESCRIPTION
#---------     -----------    ---------------------------
 STRT.S             21:52:26 06-Aug-20: START TIME 21:52:26 06-Aug-20
 STOP.S             22:00:18 06-Aug-20: STOP TIME  22:00:18 06-Aug-20
 STEP.S                   0.00: STEP TIME
 NULL.                 -999.25: NULL VALUE
 DFWT.                        :  DIST FWL TEXT
 DFST.                        :  DIST FSL TEXT
 DMF .             Drill Floor:  DRILL MEAS FROM
 STIM.      12.00.00 03-Jul-20:  START TIME
 DATE.      00.50.00 09-Aug-20:  END TIME
 SPUD.               03-Jul-20:  SPUD DATE
 NREF.                    Grid:  NORTH REFERENCE
 HPTY.       Minimum Curvature:  HOLE POS TYPE
 DMOD.             Drill Model:  DRILL MOD DESC
 SVYD.                  Survey:  SURVEY DESC
 ILTD.               Lithology:  INTERP LTH DESC
 FTOP.          Formation Tops:  FORM TOPS DESC
 PDAT.          Mean Sea Level:  PERMANENT DATUM
 FLD .                     ACG:  FIELD NAME
 CTRY.              Azerbaijan:  COUNTRY NAME
 WELL.                    E04x:  WELL NAME
 SRVC.          Turan Drilling:  CONTRACTOR
 COMP.     BP Exploration (Caspian Sea) Ltd.:  COMPANY
 SON .        AZ-XX-0906531346:  JOB NUMBER
 WTYP.                Deviated:  WELL TYPE
 MDS .        Operator Entered:  MAG DATA SOURCE
 UWI .                     N/A:  UNIQUE WELL IDENTIFIER
 API .                     N/A:  API NUMBER
 BASE.              Azerbaijan:  LOGGING EQUIPMENT BASE LOCATION
 REGN.                   EESSA:  REGION
 PROV.                    Baku:  PROVINCE
 STAT.                    Baku:  STATE NAME
 MWDS.                    Baku:  MWD SHOP
 JOBN.        AZ-XX-0906531346:  JOB TICKET NUMB
 RIG .                     DWG:  RIG NAME
 DOE .                     N/A:  DOE NUMBER
 DCON.         Sperry Drilling:  DIRECTNL CONTR
 UNIT.                     N/A:  LOGGING EQUIPMENT ID
 CNTY.                        :  COUNTY
 LOC .                        :  LOCATION
 LMF .             Drill Floor:  LOG MEASURED FROM
 TVDS.m                  43.16:  TVDSS CORRECTN
 LATI.deg                40.17:  LATITUDE
 LONG.deg                51.17:  LONGITUDE
 WHNS.m                  -0.12:  WELL HEAD N/S
 WHEW.m                  -5.41:  WELL HEAD E/W
 UTMX.m              514337.95:  UTM X
 UTMY.m             4448627.46:  UTM Y
 DFWL.m                   0.00:  DISTANCE FWL
 DFSL.m                   0.00:  DISTANCE FSL
 SDEP.m                3088.01:  START DEPTH
 TDD .m                5200.01:  TOTAL DEPTH (DRILLER)
 VSDR.deg               244.51:  VERT SEC DIRECT
 GVFD.g                   1.00:  GRAVITY FIELD
 MFLD.nT              50329.80:  MAGNETIC FIELD
 MDIP.deg                59.63:  MAGNETIC DIP
 MDEC.deg                 6.59:  MAGNETIC DECL
 GRDC.deg                 0.09:  GRID CORRECTION
 AZTC.deg                 6.50:  AZM TOTAL CORR
 EPD .m                   0.00:  ELEVATION
 EGL .m                   0.00:  GROUND ELEVATION
 WDMS.m                 176.20:  WD ELEV
 APD .m                  43.16:  DEPTH ABOVE PD
 DEP .m                3084.71:  DEPTH
 AGAP.m                  43.16:  AIR GAP
 VSEW.m                  -5.41:  VERT SEC E/W
 VSNS.m                  -0.12:  VERT SEC N/S
 EKB .m                   0.00:  KB ELEVATION
 EDF .m                  43.16:  DF ELEVATION
 TDL .m                 243.00:  TOTAL DEPTH (LOGGER)
 VSC .                       0:  VS TO CLOSURE
 MAGU.                 1853542:  MAGUTM CHECKSUM
~Parameter Information Block
#MNEM.UNIT       Value        Description
#---------     -----------    ---------------------------
 AV  .mps                 1.91:  Ann Velocity 
 AVMX.mps                 2.52:  Max Ann Veloc 
 AZIF.deg               308.97:  Azm, Final 
 BHAT.        Rotary Steerable:  BHA Type 
 BROT.°/30m               1.00:  Build Rotating 
 BS  .in                  6.50:  Bit Size 
 BSZ .in                  6.50:  Bit Size 
 BTPL.psig              350.00:  Bit Press Loss 
 CABU.                      No:  Customer Abuse 
 CGEO.           Asif Pashayev:  Customer Geo 
 COMM.                     #‚:  Run Comments 1 
 TCS .hr                 35.86:  Time Ciculation Ended 
 CV  .mps                 2.31:  Crit Velocity 
 CVMX.mps                 2.31:  Max Crit Veloc 
 DD1 .         Intigam Rahimov:  Direct Drillr 1 
 DDSV.               Geo-Pilot:  DD Service 
 DEFF.%                  92.00:  % Det Eff 
 DLRX.°/30m               1.00:  Dogleg Rot Max 
 DLSO.°/30m               1.00:  Dogleg Oriented 
 DLSX.°/30m               1.42:  Dogleg Str Max 
 DRET.      15.50.00 07-Aug-20:  Drill End Time 
 DRST.      10.40.00 06-Aug-20:  Drill Start Tim 
 DTIM.hr                 21.30:  Time Drilling 
 EDEP.m                5200.01:  End Depth 
 ENG1.            Alan Tuganov:  Engineer 1 
 ENG2.         Almaz Almadatov:  Engineer 2 
 ENG3.     Zammelal Abdullah Sani:  Engineer 3 
 ETIM.      22.42.00 08-Aug-20:  End Time 
 FLOI.gpm               395.00:  Flow In 
 FLON.gpm               350.00:  Flow In Min 
 FLOS.cptm                0.00:  Fluid Loss 
 FLOX.gpm               404.00:  Flow In Max 
 FTRO.       Formation Presure:  FTWD Run Obj 
 HFLO.                      No:  High Flow 
 HPRE.                      No:  High Pressure 
 HTEM.                      No:  High Temp 
 HYDO.m                   1.80:  Hydro Offset 
 IFIN.deg                72.64:  Inc, Final 
 IMAX.deg                73.68:  Inc Max 
 IMIN.deg                72.64:  Inc Min 
 IMND.m                5189.69:  Inc Min Depth 
 IMXD.m                5067.88:  Inc Max Depth 
 JARR.                      No:  Jarring 
 LETM.      15.50.00 07-Aug-20:  Log End Time 
 LOST.hr                     0:  Lost Rig Time 
 LSTM.      10.40.00 06-Aug-20:  Log Start Time 
 MDCL.ppm             36000.00:  Mud Chlorides 
 MDES.     Inversion Oil/Synthetic:  Mud Desc 
 DFD .sg                  1.36:  Mud Density 
 MDMN.sg                  1.36:  Dens Mud Min 
 MDMX.sg                  1.36:  Dens Mud Max 
 MOIL.                      70:  Run Mud Oil % 
 MOWR.                   70:30:  Run Mud OWR 
 MSND.                    0.00:  Run Mud Sand % 
 MSOL.                   17.60:  Run Mud Solids% 
 DFV .spqt               73.00:  Mud Viscosity 
 MWOD.in                  4.75:  MWD Tool OD 
 MWSI.                      No:  Serv Intrp, MWD 
 OTIM.hr                 85.66:  Time Operating 
 PCON.           Look Like New:  Pad Condition 
 PMAX.psia             6250.00:  Press Op, Max 
 PV  .cP                 65.00:  Mud PV 
 RUN .                     900:  Run Number 
 ROPA.m/hr               11.40:  ROP Avg 
 ROPN.m/hr                5.00:  ROP Min 
 ROPX.m/hr               20.00:  ROP Max 
 RPMA.rpm               130.00:  RPM Surface Avg 
 RPMN.rpm                40.00:  RPM Surface Min 
 RPMX.rpm               140.00:  RPM Surface Max 
 RRUN.                    L205:  Rig Run Number 
 RTIM.hr                  1.00:  Time Reaming 
 SAZI.deg               313.52:  Azm, Start 
 SDEP.m                4957.01:  Start Depth 
 SIDD.                      No:  Serv Intrp, DD 
 SINC.deg                73.16:  Inc, Start 
 SPPA.psig             5657.00:  SPP Avg 
 SPPN.psig             2500.00:  SPP Min 
 SPPX.psig             5806.00:  SPP Max 
 STIM.      07.12.00 05-Aug-20:  Start Time 
 SVCS.                 DD, MWD:  Services 
 SVER.                    9.20:  Sperry Version 
 TDAT.m                 243.00:  Tot Depth Attmp 
 TDDF.                      No:  Trip for DD 
 TDLG.m                 243.00:  Tot Depth Loggd 
 TFF .                      No:  Trip for Fail 
 TQAA.f-kp               13.00:  Torque Abs Avg 
 TQAN.f-kp               11.00:  Torque Abs Min 
 TQAX.f-kp               16.00:  Torque Abs Max 
 TRRT.°/30m               1.00:  Turn Rotating 
 MRT .                    HCIM:  Maximum Recorded Temperature 
 TTMX.degC               96.08:  Max Tool Temp 
 VS01.                90515411:  Virtual Str1 SN 
 VS02.                90512716:  Virtual Str2 SN 
 VS03.                90522362:  Virtual Str3 SN 
 VS04.                90619415:  Virtual Str4 SN 
 VS05.                90619414:  Virtual Str5 SN 
 VS06.                90597748:  Virtual Str6 SN 
 WBMN.klb                 2.00:  WOB Min 
 WITN.           Adil Mammadov:  Customer Rep 
 WITN.     Alexander Yadullayev:  Customer Rep 2 
 WOBA.klb                 7.00:  WOB Avg 
 WOBX.klb                23.00:  WOB Max 
 YP  .lhf2               37.00:  Yield Point 
~Curve Information Block
#MNEM.UNIT                 API CODE     Curve Description
#---------               -----------    ---------------------------
 TIME.HHMMSS            00 000 000 000:  GT Time & Date
 GTDEPTH.m              00 000 000 000:  GT Depth
 GTPQH.psia             00 000 000 000:  GT HR Quartz Pressure
 GTTQ.degC              00 000 000 000:  GT Quartz Temperature
 GTTN.NONE              00 000 000 000:  GT Test Number
 GTET.sec               00 000 000 000:  GT Elapsed Test Time
 GTTVD.m                00 000 000 000:  GT True Vertical Depth
#Other Information
#
#WARRANTY: Halliburton will use its best efforts to furnish customers with 
#accurate information and interpretations that are part of, and incident to, the services 
#provided.  However, Halliburton cannot and does not warrant the accuracy 
#or correctness of such information and interpretations.  Under no circumstances should any 
#such information or interpretation be relied upon as the sole basis for any drilling, 
#completion, production, or financial decision or any procedure involving any risk to the 
#safety of any drilling venture, drilling rig or its crew or any other third party.  The 
#Customer has full responsibility for all drilling, completion and production operation.  
#Halliburton makes no representations or warranties, either expressed or 
#implied, including, but not limited to, the implied warranties of merchantability or fitness 
#for a particular purpose, with respect to the services rendered.  In no event will 
#Halliburton be liable for failure to obtain any particular results or for 
#any damages, including, but not limited to, indirect, special or consequential damages, 
#resulting from the use of any information or interpretation provided by Halliburton.
#
~A           TIME           GTDEPTH  GTPQH  GTTQ  GTTN  GTET   GTTVD  
# ...
   21:55:07.000.06-Aug-2020 5001.01 3489.56 83.81 4.00 161.00 2646.47
   21:55:07.200.06-Aug-2020 5001.01 3489.56 83.81 4.00 161.20 2646.47
   21:55:07.400.06-Aug-2020 5001.01 3489.56 83.81 4.00 161.40 2646.47
   21:55:07.600.06-Aug-2020 5001.01 3489.46 83.81 4.00 161.60 2646.47
   21:55:07.800.06-Aug-2020 5001.01 3489.64 83.81 4.00 161.80 2646.47
   21:55:08.000.06-Aug-2020 5001.01 3489.48 83.81 4.00 162.00 2646.47
   21:55:08.200.06-Aug-2020 5001.01 3489.48 83.81 4.00 162.20 2646.47
   21:55:08.400.06-Aug-2020 5001.01 3489.54 83.81 4.00 162.40 2646.47
   21:55:08.600.06-Aug-2020 5001.01 3489.58 83.81 4.00 162.60 2646.47
   21:55:08.800.06-Aug-2020 5001.01 3489.41 83.81 4.00 162.80 2646.47
   21:55:09.000.06-Aug-2020 5001.01 3489.67 83.81 4.00 163.00 2646.47
   21:55:09.200.06-Aug-2020 5001.01 3489.67 83.81 4.00 163.20 2646.47
   21:55:09.400.06-Aug-2020 5001.01 3482.51 83.81 4.00 163.40 2646.47
   21:55:09.600.06-Aug-2020 5001.01 3480.04 83.81 4.00 163.60 2646.47
   21:55:09.800.06-Aug-2020 5001.01 3480.51 83.81 4.00 163.80 2646.47
   21:55:10.000.06-Aug-2020 5001.01 3480.52 83.81 4.00 164.00 2646.47
   21:55:10.200.06-Aug-2020 5001.01 3480.52 83.81 4.00 164.20 2646.47
   21:55:10.400.06-Aug-2020 5001.01 3480.01 83.81 4.00 164.40 2646.47
   21:55:10.600.06-Aug-2020 5001.01 3480.59 83.80 4.00 164.60 2646.47
   21:55:10.800.06-Aug-2020 5001.01 3480.34 83.80 4.00 164.80 2646.47
   21:55:11.000.06-Aug-2020 5001.01 3480.19 83.80 4.00 165.00 2646.47
   21:55:11.200.06-Aug-2020 5001.01 3480.19 83.80 4.00 165.20 2646.47
   21:55:11.400.06-Aug-2020 5001.01 3480.18 83.80 4.00 165.40 2646.47
   21:55:11.600.06-Aug-2020 5001.01 3480.34 83.80 4.00 165.60 2646.47
   21:55:11.800.06-Aug-2020 5001.01 3480.39 83.80 4.00 165.80 2646.47
   21:55:12.000.06-Aug-2020 5001.01 3480.21 83.80 4.00 166.00 2646.47
   21:55:12.200.06-Aug-2020 5001.01 3480.14 83.80 4.00 166.20 2646.47
   21:55:12.400.06-Aug-2020 5001.01 3480.21 83.80 4.00 166.40 2646.47
   21:55:12.600.06-Aug-2020 5001.01 3480.23 83.80 4.00 166.60 2646.47
   21:55:12.800.06-Aug-2020 5001.01 3480.27 83.80 4.00 166.80 2646.47
   21:55:13.000.06-Aug-2020 5001.01 3479.88 83.80 4.00 167.00 2646.47
   21:55:13.200.06-Aug-2020 5001.01 3479.88 83.80 4.00 167.20 2646.47
   21:55:13.400.06-Aug-2020 5001.01 3480.06 83.80 4.00 167.40 2646.47
   21:55:13.600.06-Aug-2020 5001.01 3480.46 83.80 4.00 167.60 2646.47
   21:55:13.800.06-Aug-2020 5001.01 3480.20 83.80 4.00 167.80 2646.47
   21:55:14.000.06-Aug-2020 5001.01 3480.27 83.80 4.00 168.00 2646.47
   21:55:14.200.06-Aug-2020 5001.01 3480.27 83.80 4.00 168.20 2646.47
   21:55:14.400.06-Aug-2020 5001.01 3480.28 83.80 4.00 168.40 2646.47
   21:55:14.600.06-Aug-2020 5001.01 3480.08 83.80 4.00 168.60 2646.47
   21:55:14.800.06-Aug-2020 5001.01 3480.37 83.80 4.00 168.80 2646.47
   21:55:15.000.06-Aug-2020 5001.01 3480.13 83.79 4.00 169.00 2646.47
   21:55:15.200.06-Aug-2020 5001.01 3480.13 83.79 4.00 169.20 2646.47
   21:55:15.400.06-Aug-2020 5001.01 3480.20 83.79 4.00 169.40 2646.47
   21:55:15.600.06-Aug-2020 5001.01 3480.28 83.79 4.00 169.60 2646.47
   21:55:15.800.06-Aug-2020 5001.01 3480.00 83.79 4.00 169.80 2646.47
   21:55:16.000.06-Aug-2020 5001.01 3480.34 83.79 4.00 170.00 2646.47
   21:55:16.200.06-Aug-2020 5001.01 3480.34 83.79 4.00 170.20 2646.47
   21:55:16.400.06-Aug-2020 5001.01 3480.34 83.79 4.00 170.40 2646.47
   21:55:16.600.06-Aug-2020 5001.01 3480.19 83.79 4.00 170.60 2646.47
   21:55:16.800.06-Aug-2020 5001.01 3480.21 83.79 4.00 170.80 2646.47
   21:55:17.000.06-Aug-2020 5001.01 3479.72 83.79 4.00 171.00 2646.47
   21:55:17.200.06-Aug-2020 5001.01 3479.72 83.79 4.00 171.20 2646.47
   21:55:17.400.06-Aug-2020 5001.01 3480.32 83.79 4.00 171.40 2646.47
   21:55:17.600.06-Aug-2020 5001.01 3480.26 83.79 4.00 171.60 2646.47
   21:55:17.800.06-Aug-2020 5001.01 3480.01 83.79 4.00 171.80 2646.47
   21:55:18.000.06-Aug-2020 5001.01 3480.17 83.79 4.00 172.00 2646.47
   21:55:18.200.06-Aug-2020 5001.01 3480.17 83.79 4.00 172.20 2646.47
   21:55:18.400.06-Aug-2020 5001.01 3480.16 83.79 4.00 172.40 2646.47
   21:55:18.600.06-Aug-2020 5001.01 3479.97 83.79 4.00 172.60 2646.47
   21:55:18.800.06-Aug-2020 5001.01 3480.27 83.79 4.00 172.80 2646.47
   21:55:19.000.06-Aug-2020 5001.01 3480.39 83.79 4.00 173.00 2646.47
   21:55:19.200.06-Aug-2020 5001.01 3480.15 83.79 4.00 173.20 2646.47
   21:55:19.400.06-Aug-2020 5001.01 3481.42 83.79 4.00 173.40 2646.47
   21:55:19.600.06-Aug-2020 5001.01 3489.14 83.78 4.00 173.60 2646.47
   21:55:19.800.06-Aug-2020 5001.01 3489.41 83.78 4.00 173.80 2646.47
   21:55:20.000.06-Aug-2020 5001.01 3489.38 83.78 4.00 174.00 2646.47
   21:55:20.200.06-Aug-2020 5001.01 3489.43 83.78 4.00 174.20 2646.47
   21:55:20.400.06-Aug-2020 5001.01 3489.41 83.78 4.00 174.40 2646.47
   21:55:20.600.06-Aug-2020 5001.01 3489.44 83.78 4.00 174.60 2646.47
   21:55:20.800.06-Aug-2020 5001.01 3489.44 83.78 4.00 174.80 2646.47
   21:55:21.000.06-Aug-2020 5001.01 3489.46 83.78 4.00 175.00 2646.47
   21:55:21.200.06-Aug-2020 5001.01 3489.46 83.78 4.00 175.20 2646.47
   21:55:21.400.06-Aug-2020 5001.01 3489.55 83.78 4.00 175.40 2646.47
   21:55:21.600.06-Aug-2020 5001.01 3489.42 83.78 4.00 175.60 2646.47
   21:55:21.800.06-Aug-2020 5001.01 3489.53 83.78 4.00 175.80 2646.47
   21:55:22.000.06-Aug-2020 5001.01 3489.50 83.78 4.00 176.00 2646.47
   21:55:22.200.06-Aug-2020 5001.01 3489.50 83.78 4.00 176.20 2646.47
   21:55:22.400.06-Aug-2020 5001.01 3489.52 83.78 4.00 176.40 2646.47
   21:55:22.600.06-Aug-2020 5001.01 3489.49 83.78 4.00 176.60 2646.47
   21:55:22.800.06-Aug-2020 5001.01 3489.53 83.78 4.00 176.80 2646.47
   21:55:23.000.06-Aug-2020 5001.01 3489.49 83.78 4.00 177.00 2646.47
   21:55:23.200.06-Aug-2020 5001.01 3489.49 83.78 4.00 177.20 2646.47
   21:55:23.400.06-Aug-2020 5001.01 3489.49 83.78 4.00 177.40 2646.47
   21:55:23.600.06-Aug-2020 5001.01 3489.52 83.78 4.00 177.60 2646.47
   21:55:23.800.06-Aug-2020 5001.01 3489.48 83.78 4.00 177.80 2646.47
   21:55:24.000.06-Aug-2020 5001.01 3489.34 83.78 4.00 178.00 2646.47
   21:55:24.200.06-Aug-2020 5001.01 3489.34 83.78 4.00 178.20 2646.47
   21:55:24.400.06-Aug-2020 5001.01 3489.55 83.77 4.00 178.40 2646.47
   21:55:24.600.06-Aug-2020 5001.01 3489.50 83.77 4.00 178.60 2646.47
   21:55:24.800.06-Aug-2020 5001.01 3489.55 83.77 4.00 178.80 2646.47
   21:55:25.000.06-Aug-2020 5001.01 3489.47 83.77 4.00 179.00 2646.47
   21:55:25.200.06-Aug-2020 5001.01 3489.47 83.77 4.00 179.20 2646.47
   21:55:25.400.06-Aug-2020 5001.01 3489.49 83.77 4.00 179.40 2646.47
   21:55:25.600.06-Aug-2020 5001.01 3489.57 83.77 4.00 179.60 2646.47
   21:55:25.800.06-Aug-2020 5001.01 3489.50 83.77 4.00 179.80 2646.47
   21:55:26.000.06-Aug-2020 5001.01 3489.46 83.77 4.00 180.00 2646.47
   21:55:26.200.06-Aug-2020 5001.01 3489.46 83.77 4.00 180.20 2646.47
   21:55:26.400.06-Aug-2020 5001.01 3489.56 83.77 4.00 180.40 2646.47
   21:55:26.600.06-Aug-2020 5001.01 3489.49 83.77 4.00 180.60 2646.47
   21:55:26.800.06-Aug-2020 5001.01 3489.59 83.77 4.00 180.80 2646.47
   21:55:27.000.06-Aug-2020 5001.01 3489.45 83.77 4.00 181.00 2646.47
   21:55:27.200.06-Aug-2020 5001.01 3489.55 83.77 4.00 181.20 2646.47
   21:55:27.400.06-Aug-2020 5001.01 3489.54 83.77 4.00 181.40 2646.47
   21:55:27.600.06-Aug-2020 5001.01 3489.51 83.77 4.00 181.60 2646.47
   21:55:27.800.06-Aug-2020 5001.01 3489.54 83.77 4.00 181.80 2646.47
   21:55:28.000.06-Aug-2020 5001.01 3489.51 83.77 4.00 182.00 2646.47
   21:55:28.200.06-Aug-2020 5001.01 3489.51 83.77 4.00 182.20 2646.47
   21:55:28.400.06-Aug-2020 5001.01 3489.49 83.77 4.00 182.40 2646.47
   21:55:28.600.06-Aug-2020 5001.01 3489.54 83.77 4.00 182.60 2646.47
   21:55:28.800.06-Aug-2020 5001.01 3489.50 83.76 4.00 182.80 2646.47
   21:55:29.000.06-Aug-2020 5001.01 3489.54 83.76 4.00 183.00 2646.47
   21:55:29.200.06-Aug-2020 5001.01 3489.54 83.76 4.00 183.20 2646.47
   21:55:29.400.06-Aug-2020 5001.01 3489.48 83.76 4.00 183.40 2646.47
   21:55:29.600.06-Aug-2020 5001.01 3489.49 83.76 4.00 183.60 2646.47
   21:55:29.800.06-Aug-2020 5001.01 3489.58 83.76 4.00 183.80 2646.47
