~Version Information
 VERS.                  2.0:   CWLS log ASCII Standard -VERSION 2.0
 WRAP.                   NO:   One line per depth step
~Well Information Block
#MNEM.UNIT     VALUE/NAME     DESCRIPTION
#---------     -----------    ---------------------------
 STRT.S             20:19:41 06-Aug-20: START TIME 20:19:41 06-Aug-20
 STOP.S             20:27:33 06-Aug-20: STOP TIME  20:27:33 06-Aug-20
 STEP.S                   0.00: STEP TIME
 NULL.                 -999.25: NULL VALUE
 DFWT.                        :  DIST FWL TEXT
 DFST.                        :  DIST FSL TEXT
 DMF .             Drill Floor:  DRILL MEAS FROM
 STIM.      12.00.00 03-Jul-20:  START TIME
 DATE.      00.50.00 09-Aug-20:  END TIME
 SPUD.               03-Jul-20:  SPUD DATE
 NREF.                    Grid:  NORTH REFERENCE
 HPTY.       Minimum Curvature:  HOLE POS TYPE
 DMOD.             Drill Model:  DRILL MOD DESC
 SVYD.                  Survey:  SURVEY DESC
 ILTD.               Lithology:  INTERP LTH DESC
 FTOP.          Formation Tops:  FORM TOPS DESC
 PDAT.          Mean Sea Level:  PERMANENT DATUM
 FLD .                     ACG:  FIELD NAME
 CTRY.              Azerbaijan:  COUNTRY NAME
 WELL.                    E04x:  WELL NAME
 SRVC.          Turan Drilling:  CONTRACTOR
 COMP.     BP Exploration (Caspian Sea) Ltd.:  COMPANY
 SON .        AZ-XX-0906531346:  JOB NUMBER
 WTYP.                Deviated:  WELL TYPE
 MDS .        Operator Entered:  MAG DATA SOURCE
 UWI .                     N/A:  UNIQUE WELL IDENTIFIER
 API .                     N/A:  API NUMBER
 BASE.              Azerbaijan:  LOGGING EQUIPMENT BASE LOCATION
 REGN.                   EESSA:  REGION
 PROV.                    Baku:  PROVINCE
 STAT.                    Baku:  STATE NAME
 MWDS.                    Baku:  MWD SHOP
 JOBN.        AZ-XX-0906531346:  JOB TICKET NUMB
 RIG .                     DWG:  RIG NAME
 DOE .                     N/A:  DOE NUMBER
 DCON.         Sperry Drilling:  DIRECTNL CONTR
 UNIT.                     N/A:  LOGGING EQUIPMENT ID
 CNTY.                        :  COUNTY
 LOC .                        :  LOCATION
 LMF .             Drill Floor:  LOG MEASURED FROM
 TVDS.m                  43.16:  TVDSS CORRECTN
 LATI.deg                40.17:  LATITUDE
 LONG.deg                51.17:  LONGITUDE
 WHNS.m                  -0.12:  WELL HEAD N/S
 WHEW.m                  -5.41:  WELL HEAD E/W
 UTMX.m              514337.95:  UTM X
 UTMY.m             4448627.46:  UTM Y
 DFWL.m                   0.00:  DISTANCE FWL
 DFSL.m                   0.00:  DISTANCE FSL
 SDEP.m                3088.01:  START DEPTH
 TDD .m                5200.01:  TOTAL DEPTH (DRILLER)
 VSDR.deg               244.51:  VERT SEC DIRECT
 GVFD.g                   1.00:  GRAVITY FIELD
 MFLD.nT              50329.80:  MAGNETIC FIELD
 MDIP.deg                59.63:  MAGNETIC DIP
 MDEC.deg                 6.59:  MAGNETIC DECL
 GRDC.deg                 0.09:  GRID CORRECTION
 AZTC.deg                 6.50:  AZM TOTAL CORR
 EPD .m                   0.00:  ELEVATION
 EGL .m                   0.00:  GROUND ELEVATION
 WDMS.m                 176.20:  WD ELEV
 APD .m                  43.16:  DEPTH ABOVE PD
 DEP .m                3084.71:  DEPTH
 AGAP.m                  43.16:  AIR GAP
 VSEW.m                  -5.41:  VERT SEC E/W
 VSNS.m                  -0.12:  VERT SEC N/S
 EKB .m                   0.00:  KB ELEVATION
 EDF .m                  43.16:  DF ELEVATION
 TDL .m                 243.00:  TOTAL DEPTH (LOGGER)
 VSC .                       0:  VS TO CLOSURE
 MAGU.                 1853542:  MAGUTM CHECKSUM
~Parameter Information Block
#MNEM.UNIT       Value        Description
#---------     -----------    ---------------------------
 AV  .mps                 1.91:  Ann Velocity 
 AVMX.mps                 2.52:  Max Ann Veloc 
 AZIF.deg               308.97:  Azm, Final 
 BHAT.        Rotary Steerable:  BHA Type 
 BROT.°/30m               1.00:  Build Rotating 
 BS  .in                  6.50:  Bit Size 
 BSZ .in                  6.50:  Bit Size 
 BTPL.psig              350.00:  Bit Press Loss 
 CABU.                      No:  Customer Abuse 
 CGEO.           Asif Pashayev:  Customer Geo 
 COMM.                     4è‹:  Run Comments 1 
 TCS .hr                 35.86:  Time Ciculation Ended 
 CV  .mps                 2.31:  Crit Velocity 
 CVMX.mps                 2.31:  Max Crit Veloc 
 DD1 .         Intigam Rahimov:  Direct Drillr 1 
 DDSV.               Geo-Pilot:  DD Service 
 DEFF.%                  92.00:  % Det Eff 
 DLRX.°/30m               1.00:  Dogleg Rot Max 
 DLSO.°/30m               1.00:  Dogleg Oriented 
 DLSX.°/30m               1.42:  Dogleg Str Max 
 DRET.      15.50.00 07-Aug-20:  Drill End Time 
 DRST.      10.40.00 06-Aug-20:  Drill Start Tim 
 DTIM.hr                 21.30:  Time Drilling 
 EDEP.m                5200.01:  End Depth 
 ENG1.            Alan Tuganov:  Engineer 1 
 ENG2.         Almaz Almadatov:  Engineer 2 
 ENG3.     Zammelal Abdullah Sani:  Engineer 3 
 ETIM.      22.42.00 08-Aug-20:  End Time 
 FLOI.gpm               395.00:  Flow In 
 FLON.gpm               350.00:  Flow In Min 
 FLOS.cptm                0.00:  Fluid Loss 
 FLOX.gpm               404.00:  Flow In Max 
 FTRO.       Formation Presure:  FTWD Run Obj 
 HFLO.                      No:  High Flow 
 HPRE.                      No:  High Pressure 
 HTEM.                      No:  High Temp 
 HYDO.m                   1.80:  Hydro Offset 
 IFIN.deg                72.64:  Inc, Final 
 IMAX.deg                73.68:  Inc Max 
 IMIN.deg                72.64:  Inc Min 
 IMND.m                5189.69:  Inc Min Depth 
 IMXD.m                5067.88:  Inc Max Depth 
 JARR.                      No:  Jarring 
 LETM.      15.50.00 07-Aug-20:  Log End Time 
 LOST.hr                     0:  Lost Rig Time 
 LSTM.      10.40.00 06-Aug-20:  Log Start Time 
 MDCL.ppm             36000.00:  Mud Chlorides 
 MDES.     Inversion Oil/Synthetic:  Mud Desc 
 DFD .sg                  1.36:  Mud Density 
 MDMN.sg                  1.36:  Dens Mud Min 
 MDMX.sg                  1.36:  Dens Mud Max 
 MOIL.                      70:  Run Mud Oil % 
 MOWR.                   70:30:  Run Mud OWR 
 MSND.                    0.00:  Run Mud Sand % 
 MSOL.                   17.60:  Run Mud Solids% 
 DFV .spqt               73.00:  Mud Viscosity 
 MWOD.in                  4.75:  MWD Tool OD 
 MWSI.                      No:  Serv Intrp, MWD 
 OTIM.hr                 85.66:  Time Operating 
 PCON.           Look Like New:  Pad Condition 
 PMAX.psia             6250.00:  Press Op, Max 
 PV  .cP                 65.00:  Mud PV 
 RUN .                     900:  Run Number 
 ROPA.m/hr               11.40:  ROP Avg 
 ROPN.m/hr                5.00:  ROP Min 
 ROPX.m/hr               20.00:  ROP Max 
 RPMA.rpm               130.00:  RPM Surface Avg 
 RPMN.rpm                40.00:  RPM Surface Min 
 RPMX.rpm               140.00:  RPM Surface Max 
 RRUN.                    L205:  Rig Run Number 
 RTIM.hr                  1.00:  Time Reaming 
 SAZI.deg               313.52:  Azm, Start 
 SDEP.m                4957.01:  Start Depth 
 SIDD.                      No:  Serv Intrp, DD 
 SINC.deg                73.16:  Inc, Start 
 SPPA.psig             5657.00:  SPP Avg 
 SPPN.psig             2500.00:  SPP Min 
 SPPX.psig             5806.00:  SPP Max 
 STIM.      07.12.00 05-Aug-20:  Start Time 
 SVCS.                 DD, MWD:  Services 
 SVER.                    9.20:  Sperry Version 
 TDAT.m                 243.00:  Tot Depth Attmp 
 TDDF.                      No:  Trip for DD 
 TDLG.m                 243.00:  Tot Depth Loggd 
 TFF .                      No:  Trip for Fail 
 TQAA.f-kp               13.00:  Torque Abs Avg 
 TQAN.f-kp               11.00:  Torque Abs Min 
 TQAX.f-kp               16.00:  Torque Abs Max 
 TRRT.°/30m               1.00:  Turn Rotating 
 MRT .                    HCIM:  Maximum Recorded Temperature 
 TTMX.degC               96.08:  Max Tool Temp 
 VS01.                90515411:  Virtual Str1 SN 
 VS02.                90512716:  Virtual Str2 SN 
 VS03.                90522362:  Virtual Str3 SN 
 VS04.                90619415:  Virtual Str4 SN 
 VS05.                90619414:  Virtual Str5 SN 
 VS06.                90597748:  Virtual Str6 SN 
 WBMN.klb                 2.00:  WOB Min 
 WITN.           Adil Mammadov:  Customer Rep 
 WITN.     Alexander Yadullayev:  Customer Rep 2 
 WOBA.klb                 7.00:  WOB Avg 
 WOBX.klb                23.00:  WOB Max 
 YP  .lhf2               37.00:  Yield Point 
~Curve Information Block
#MNEM.UNIT                 API CODE     Curve Description
#---------               -----------    ---------------------------
 TIME.HHMMSS            00 000 000 000:  GT Time & Date
 GTDEPTH.m              00 000 000 000:  GT Depth
 GTPQH.psia             00 000 000 000:  GT HR Quartz Pressure
 GTTQ.degC              00 000 000 000:  GT Quartz Temperature
 GTTN.NONE              00 000 000 000:  GT Test Number
 GTET.sec               00 000 000 000:  GT Elapsed Test Time
 GTTVD.m                00 000 000 000:  GT True Vertical Depth
#Other Information
#
#WARRANTY: Halliburton will use its best efforts to furnish customers with 
#accurate information and interpretations that are part of, and incident to, the services 
#provided.  However, Halliburton cannot and does not warrant the accuracy 
#or correctness of such information and interpretations.  Under no circumstances should any 
#such information or interpretation be relied upon as the sole basis for any drilling, 
#completion, production, or financial decision or any procedure involving any risk to the 
#safety of any drilling venture, drilling rig or its crew or any other third party.  The 
#Customer has full responsibility for all drilling, completion and production operation.  
#Halliburton makes no representations or warranties, either expressed or 
#implied, including, but not limited to, the implied warranties of merchantability or fitness 
#for a particular purpose, with respect to the services rendered.  In no event will 
#Halliburton be liable for failure to obtain any particular results or for 
#any damages, including, but not limited to, indirect, special or consequential damages, 
#resulting from the use of any information or interpretation provided by Halliburton.
#
~A           TIME           GTDEPTH  GTPQH  GTTQ  GTTN  GTET   GTTVD  
# ...
   20:26:58.513.06-Aug-2020 4993.01 3487.00 82.31 3.00 437.17 2644.18
   20:26:58.714.06-Aug-2020 4993.01 3486.76 82.31 3.00 437.37 2644.18
   20:26:58.914.06-Aug-2020 4993.01 3486.85 82.31 3.00 437.57 2644.18
   20:26:59.114.06-Aug-2020 4993.01 3486.86 82.31 3.00 437.77 2644.18
   20:26:59.314.06-Aug-2020 4993.01 3486.59 82.31 3.00 437.97 2644.18
   20:26:59.514.06-Aug-2020 4993.01 3486.98 82.31 3.00 438.17 2644.18
   20:26:59.714.06-Aug-2020 4993.01 3486.98 82.31 3.00 438.37 2644.18
   20:26:59.914.06-Aug-2020 4993.01 3490.43 82.31 3.00 438.57 2644.18
   20:27:00.114.06-Aug-2020 4993.01 3513.01 82.31 3.00 438.77 2644.18
   20:27:00.314.06-Aug-2020 4993.01 4033.10 82.31 3.00 438.97 2644.18
   20:27:00.514.06-Aug-2020 4993.01 5782.39 82.31 3.00 439.17 2644.18
   20:27:00.714.06-Aug-2020 4993.01 5782.39 82.31 3.00 439.37 2644.18
   20:27:00.914.06-Aug-2020 4993.01 5781.96 82.31 3.00 439.57 2644.18
   20:27:01.114.06-Aug-2020 4993.01 5783.89 82.31 3.00 439.77 2644.18
   20:27:01.315.06-Aug-2020 4993.01 5783.89 82.31 3.00 439.97 2644.18
   20:27:01.515.06-Aug-2020 4993.01 5784.57 82.31 3.00 440.17 2644.18
   20:27:01.715.06-Aug-2020 4993.01 5784.57 82.31 3.00 440.37 2644.18
   20:27:01.915.06-Aug-2020 4993.01 5786.78 82.31 3.00 440.57 2644.18
   20:27:02.115.06-Aug-2020 4993.01 5787.84 82.31 3.00 440.77 2644.18
   20:27:02.315.06-Aug-2020 4993.01 5788.04 82.31 3.00 440.97 2644.18
   20:27:02.515.06-Aug-2020 4993.01 5789.66 82.31 3.00 441.17 2644.18
   20:27:02.715.06-Aug-2020 4993.01 5780.64 82.31 3.00 441.37 2644.18
   20:27:02.915.06-Aug-2020 4993.01 5792.19 82.31 3.00 441.57 2644.18
   20:27:03.115.06-Aug-2020 4993.01 5785.56 82.31 3.00 441.77 2644.18
   20:27:03.315.06-Aug-2020 4993.01 5789.71 82.31 3.00 441.97 2644.18
   20:27:03.515.06-Aug-2020 4993.01 5790.04 82.31 3.00 442.17 2644.18
   20:27:03.715.06-Aug-2020 4993.01 5790.04 82.31 3.00 442.37 2644.18
   20:27:03.916.06-Aug-2020 4993.01 5789.63 82.31 3.00 442.57 2644.18
   20:27:04.116.06-Aug-2020 4993.01 5791.27 82.31 3.00 442.77 2644.18
   20:27:04.316.06-Aug-2020 4993.01 5789.71 82.31 3.00 442.97 2644.18
   20:27:04.516.06-Aug-2020 4993.01 5791.27 82.31 3.00 443.17 2644.18
   20:27:04.716.06-Aug-2020 4993.01 5791.27 82.31 3.00 443.37 2644.18
   20:27:04.916.06-Aug-2020 4993.01 5791.06 82.31 3.00 443.57 2644.18
   20:27:05.116.06-Aug-2020 4993.01 5789.89 82.31 3.00 443.77 2644.18
   20:27:05.316.06-Aug-2020 4993.01 5790.62 82.31 3.00 443.97 2644.18
   20:27:05.516.06-Aug-2020 4993.01 5781.50 82.31 3.00 444.17 2644.18
   20:27:05.716.06-Aug-2020 4993.01 5781.50 82.31 3.00 444.37 2644.18
   20:27:05.916.06-Aug-2020 4993.01 5788.63 82.31 3.00 444.57 2644.18
   20:27:06.116.06-Aug-2020 4993.01 5787.57 82.31 3.00 444.77 2644.18
   20:27:06.316.06-Aug-2020 4993.01 5789.25 82.31 3.00 444.97 2644.18
   20:27:06.517.06-Aug-2020 4993.01 5788.87 82.31 3.00 445.17 2644.18
   20:27:06.717.06-Aug-2020 4993.01 5785.30 82.31 3.00 445.37 2644.18
   20:27:06.917.06-Aug-2020 4993.01 5783.68 82.31 3.00 445.57 2644.18
   20:27:07.117.06-Aug-2020 4993.01 5790.55 82.31 3.00 445.77 2644.18
   20:27:07.317.06-Aug-2020 4993.01 5788.54 82.31 3.00 445.97 2644.18
   20:27:07.517.06-Aug-2020 4993.01 5783.27 82.31 3.00 446.17 2644.18
   20:27:07.717.06-Aug-2020 4993.01 5783.27 82.31 3.00 446.37 2644.18
   20:27:07.917.06-Aug-2020 4993.01 5784.79 82.31 3.00 446.57 2644.18
   20:27:08.117.06-Aug-2020 4993.01 5787.51 82.31 3.00 446.77 2644.18
   20:27:08.317.06-Aug-2020 4993.01 5782.83 82.31 3.00 446.97 2644.18
   20:27:08.517.06-Aug-2020 4993.01 5785.13 82.31 3.00 447.17 2644.18
   20:27:08.717.06-Aug-2020 4993.01 5785.13 82.31 3.00 447.37 2644.18
   20:27:08.917.06-Aug-2020 4993.01 5787.06 82.31 3.00 447.57 2644.18
   20:27:09.118.06-Aug-2020 4993.01 5790.20 82.31 3.00 447.77 2644.18
   20:27:09.318.06-Aug-2020 4993.01 5789.42 82.31 3.00 447.97 2644.18
   20:27:09.518.06-Aug-2020 4993.01 5791.10 82.31 3.00 448.17 2644.18
   20:27:09.718.06-Aug-2020 4993.01 5791.10 82.31 3.00 448.37 2644.18
   20:27:09.918.06-Aug-2020 4993.01 5791.48 82.31 3.00 448.57 2644.18
   20:27:10.118.06-Aug-2020 4993.01 5790.00 82.31 3.00 448.77 2644.18
   20:27:10.318.06-Aug-2020 4993.01 5790.89 82.31 3.00 448.97 2644.18
   20:27:10.518.06-Aug-2020 4993.01 5790.07 82.31 3.00 449.17 2644.18
   20:27:10.718.06-Aug-2020 4993.01 5790.07 82.31 3.00 449.37 2644.18
   20:27:10.918.06-Aug-2020 4993.01 5782.19 82.31 3.00 449.57 2644.18
   20:27:11.118.06-Aug-2020 4993.01 5790.62 82.31 3.00 449.77 2644.18
   20:27:11.318.06-Aug-2020 4993.01 5787.34 82.31 3.00 449.97 2644.18
   20:27:11.518.06-Aug-2020 4993.01 5788.34 82.31 3.00 450.17 2644.18
   20:27:11.719.06-Aug-2020 4993.01 5788.34 82.31 3.00 450.37 2644.18
   20:27:11.919.06-Aug-2020 4993.01 5788.73 82.31 3.00 450.57 2644.18
   20:27:12.119.06-Aug-2020 4993.01 5789.90 82.31 3.00 450.77 2644.18
   20:27:12.319.06-Aug-2020 4993.01 5789.72 82.31 3.00 450.97 2644.18
   20:27:12.519.06-Aug-2020 4993.01 5790.19 82.31 3.00 451.17 2644.18
   20:27:12.719.06-Aug-2020 4993.01 5790.19 82.31 3.00 451.37 2644.18
   20:27:12.919.06-Aug-2020 4993.01 5789.99 82.31 3.00 451.57 2644.18
   20:27:13.119.06-Aug-2020 4993.01 5788.82 82.31 3.00 451.77 2644.18
   20:27:13.319.06-Aug-2020 4993.01 5790.08 82.31 3.00 451.97 2644.18
   20:27:13.519.06-Aug-2020 4993.01 5788.45 82.31 3.00 452.17 2644.18
   20:27:13.719.06-Aug-2020 4993.01 5788.45 82.31 3.00 452.37 2644.18
   20:27:13.919.06-Aug-2020 4993.01 5786.60 82.31 3.00 452.57 2644.18
   20:27:14.119.06-Aug-2020 4993.01 5782.91 82.31 3.00 452.77 2644.18
   20:27:14.320.06-Aug-2020 4993.01 5787.17 82.31 3.00 452.97 2644.18
   20:27:14.520.06-Aug-2020 4993.01 5788.75 82.31 3.00 453.17 2644.18
   20:27:14.720.06-Aug-2020 4993.01 5787.25 82.31 3.00 453.37 2644.18
   20:27:14.920.06-Aug-2020 4993.01 5781.92 82.31 3.00 453.57 2644.18
   20:27:15.120.06-Aug-2020 4993.01 5786.63 82.31 3.00 453.77 2644.18
   20:27:15.320.06-Aug-2020 4993.01 5789.11 82.31 3.00 453.97 2644.18
   20:27:15.520.06-Aug-2020 4993.01 5786.82 82.31 3.00 454.17 2644.18
   20:27:15.720.06-Aug-2020 4993.01 5786.82 82.31 3.00 454.37 2644.18
   20:27:15.920.06-Aug-2020 4993.01 5787.67 82.31 3.00 454.57 2644.18
   20:27:16.120.06-Aug-2020 4993.01 5782.95 82.31 3.00 454.77 2644.18
   20:27:16.320.06-Aug-2020 4993.01 5788.12 82.31 3.00 454.97 2644.18
   20:27:16.520.06-Aug-2020 4993.01 5788.46 82.31 3.00 455.17 2644.18
   20:27:16.720.06-Aug-2020 4993.01 5788.46 82.31 3.00 455.37 2644.18
   20:27:16.921.06-Aug-2020 4993.01 5780.59 82.31 3.00 455.57 2644.18
   20:27:17.121.06-Aug-2020 4993.01 5789.53 82.31 3.00 455.77 2644.18
   20:27:17.321.06-Aug-2020 4993.01 5786.38 82.31 3.00 455.97 2644.18
   20:27:17.521.06-Aug-2020 4993.01 5788.11 82.31 3.00 456.17 2644.18
   20:27:17.721.06-Aug-2020 4993.01 5788.11 82.31 3.00 456.37 2644.18
   20:27:17.921.06-Aug-2020 4993.01 5789.95 82.31 3.00 456.57 2644.18
   20:27:18.121.06-Aug-2020 4993.01 5789.33 82.31 3.00 456.77 2644.18
   20:27:18.321.06-Aug-2020 4993.01 5790.78 82.31 3.00 456.97 2644.18
   20:27:18.521.06-Aug-2020 4993.01 5788.94 82.31 3.00 457.17 2644.18
   20:27:18.721.06-Aug-2020 4993.01 5790.24 82.31 3.00 457.37 2644.18
   20:27:18.921.06-Aug-2020 4993.01 5789.03 82.31 3.00 457.58 2644.18
   20:27:19.121.06-Aug-2020 4993.01 5790.06 82.31 3.00 457.78 2644.18
   20:27:19.321.06-Aug-2020 4993.01 5788.30 82.31 3.00 457.98 2644.18
   20:27:19.522.06-Aug-2020 4993.01 5785.91 82.31 3.00 458.18 2644.18
   20:27:19.722.06-Aug-2020 4993.01 5785.91 82.31 3.00 458.38 2644.18
   20:27:19.922.06-Aug-2020 4993.01 5783.15 82.30 3.00 458.58 2644.18
   20:27:20.122.06-Aug-2020 4993.01 5787.36 82.30 3.00 458.78 2644.18
   20:27:20.322.06-Aug-2020 4993.01 5788.72 82.30 3.00 458.98 2644.18
   20:27:20.522.06-Aug-2020 4993.01 5787.32 82.30 3.00 459.18 2644.18
   20:27:20.722.06-Aug-2020 4993.01 5787.32 82.30 3.00 459.38 2644.18
   20:27:20.922.06-Aug-2020 4993.01 5788.37 82.30 3.00 459.58 2644.18
   20:27:21.122.06-Aug-2020 4993.01 5788.82 82.30 3.00 459.78 2644.18
   20:27:21.322.06-Aug-2020 4993.01 5789.46 82.30 3.00 459.98 2644.18
