~Version Information
 VERS.                  2.0:   CWLS log ASCII Standard -VERSION 2.0
 WRAP.                   NO:   One line per depth step
~Well Information Block
#MNEM.UNIT     VALUE/NAME     DESCRIPTION
#---------     -----------    ---------------------------
 STRT.S             11:55:46 07-Aug-20: START TIME 11:55:46 07-Aug-20
 STOP.S             12:03:39 07-Aug-20: STOP TIME  12:03:39 07-Aug-20
 STEP.S                   0.00: STEP TIME
 NULL.                 -999.25: NULL VALUE
 DFWT.                        :  DIST FWL TEXT
 DFST.                        :  DIST FSL TEXT
 DMF .             Drill Floor:  DRILL MEAS FROM
 STIM.      12.00.00 03-Jul-20:  START TIME
 DATE.      00.50.00 09-Aug-20:  END TIME
 SPUD.               03-Jul-20:  SPUD DATE
 NREF.                    Grid:  NORTH REFERENCE
 HPTY.       Minimum Curvature:  HOLE POS TYPE
 DMOD.             Drill Model:  DRILL MOD DESC
 SVYD.                  Survey:  SURVEY DESC
 ILTD.               Lithology:  INTERP LTH DESC
 FTOP.          Formation Tops:  FORM TOPS DESC
 PDAT.          Mean Sea Level:  PERMANENT DATUM
 FLD .                     ACG:  FIELD NAME
 CTRY.              Azerbaijan:  COUNTRY NAME
 WELL.                    E04x:  WELL NAME
 SRVC.          Turan Drilling:  CONTRACTOR
 COMP.     BP Exploration (Caspian Sea) Ltd.:  COMPANY
 SON .        AZ-XX-0906531346:  JOB NUMBER
 WTYP.                Deviated:  WELL TYPE
 MDS .        Operator Entered:  MAG DATA SOURCE
 UWI .                     N/A:  UNIQUE WELL IDENTIFIER
 API .                     N/A:  API NUMBER
 BASE.              Azerbaijan:  LOGGING EQUIPMENT BASE LOCATION
 REGN.                   EESSA:  REGION
 PROV.                    Baku:  PROVINCE
 STAT.                    Baku:  STATE NAME
 MWDS.                    Baku:  MWD SHOP
 JOBN.        AZ-XX-0906531346:  JOB TICKET NUMB
 RIG .                     DWG:  RIG NAME
 DOE .                     N/A:  DOE NUMBER
 DCON.         Sperry Drilling:  DIRECTNL CONTR
 UNIT.                     N/A:  LOGGING EQUIPMENT ID
 CNTY.                        :  COUNTY
 LOC .                        :  LOCATION
 LMF .             Drill Floor:  LOG MEASURED FROM
 TVDS.m                  43.16:  TVDSS CORRECTN
 LATI.deg                40.17:  LATITUDE
 LONG.deg                51.17:  LONGITUDE
 WHNS.m                  -0.12:  WELL HEAD N/S
 WHEW.m                  -5.41:  WELL HEAD E/W
 UTMX.m              514337.95:  UTM X
 UTMY.m             4448627.46:  UTM Y
 DFWL.m                   0.00:  DISTANCE FWL
 DFSL.m                   0.00:  DISTANCE FSL
 SDEP.m                3088.01:  START DEPTH
 TDD .m                5200.01:  TOTAL DEPTH (DRILLER)
 VSDR.deg               244.51:  VERT SEC DIRECT
 GVFD.g                   1.00:  GRAVITY FIELD
 MFLD.nT              50329.80:  MAGNETIC FIELD
 MDIP.deg                59.63:  MAGNETIC DIP
 MDEC.deg                 6.59:  MAGNETIC DECL
 GRDC.deg                 0.09:  GRID CORRECTION
 AZTC.deg                 6.50:  AZM TOTAL CORR
 EPD .m                   0.00:  ELEVATION
 EGL .m                   0.00:  GROUND ELEVATION
 WDMS.m                 176.20:  WD ELEV
 APD .m                  43.16:  DEPTH ABOVE PD
 DEP .m                3084.71:  DEPTH
 AGAP.m                  43.16:  AIR GAP
 VSEW.m                  -5.41:  VERT SEC E/W
 VSNS.m                  -0.12:  VERT SEC N/S
 EKB .m                   0.00:  KB ELEVATION
 EDF .m                  43.16:  DF ELEVATION
 TDL .m                 243.00:  TOTAL DEPTH (LOGGER)
 VSC .                       0:  VS TO CLOSURE
 MAGU.                 1853542:  MAGUTM CHECKSUM
~Parameter Information Block
#MNEM.UNIT       Value        Description
#---------     -----------    ---------------------------
 AV  .mps                 1.91:  Ann Velocity 
 AVMX.mps                 2.52:  Max Ann Veloc 
 AZIF.deg               308.97:  Azm, Final 
 BHAT.        Rotary Steerable:  BHA Type 
 BROT.°/30m               1.00:  Build Rotating 
 BS  .in                  6.50:  Bit Size 
 BSZ .in                  6.50:  Bit Size 
 BTPL.psig              350.00:  Bit Press Loss 
 CABU.                      No:  Customer Abuse 
 CGEO.           Asif Pashayev:  Customer Geo 
 COMM.                     ¤4N:  Run Comments 1 
 TCS .hr                 35.86:  Time Ciculation Ended 
 CV  .mps                 2.31:  Crit Velocity 
 CVMX.mps                 2.31:  Max Crit Veloc 
 DD1 .         Intigam Rahimov:  Direct Drillr 1 
 DDSV.               Geo-Pilot:  DD Service 
 DEFF.%                  92.00:  % Det Eff 
 DLRX.°/30m               1.00:  Dogleg Rot Max 
 DLSO.°/30m               1.00:  Dogleg Oriented 
 DLSX.°/30m               1.42:  Dogleg Str Max 
 DRET.      15.50.00 07-Aug-20:  Drill End Time 
 DRST.      10.40.00 06-Aug-20:  Drill Start Tim 
 DTIM.hr                 21.30:  Time Drilling 
 EDEP.m                5200.01:  End Depth 
 ENG1.            Alan Tuganov:  Engineer 1 
 ENG2.         Almaz Almadatov:  Engineer 2 
 ENG3.     Zammelal Abdullah Sani:  Engineer 3 
 ETIM.      22.42.00 08-Aug-20:  End Time 
 FLOI.gpm               395.00:  Flow In 
 FLON.gpm               350.00:  Flow In Min 
 FLOS.cptm                0.00:  Fluid Loss 
 FLOX.gpm               404.00:  Flow In Max 
 FTRO.       Formation Presure:  FTWD Run Obj 
 HFLO.                      No:  High Flow 
 HPRE.                      No:  High Pressure 
 HTEM.                      No:  High Temp 
 HYDO.m                   1.80:  Hydro Offset 
 IFIN.deg                72.64:  Inc, Final 
 IMAX.deg                73.68:  Inc Max 
 IMIN.deg                72.64:  Inc Min 
 IMND.m                5189.69:  Inc Min Depth 
 IMXD.m                5067.88:  Inc Max Depth 
 JARR.                      No:  Jarring 
 LETM.      15.50.00 07-Aug-20:  Log End Time 
 LOST.hr                     0:  Lost Rig Time 
 LSTM.      10.40.00 06-Aug-20:  Log Start Time 
 MDCL.ppm             36000.00:  Mud Chlorides 
 MDES.     Inversion Oil/Synthetic:  Mud Desc 
 DFD .sg                  1.36:  Mud Density 
 MDMN.sg                  1.36:  Dens Mud Min 
 MDMX.sg                  1.36:  Dens Mud Max 
 MOIL.                      70:  Run Mud Oil % 
 MOWR.                   70:30:  Run Mud OWR 
 MSND.                    0.00:  Run Mud Sand % 
 MSOL.                   17.60:  Run Mud Solids% 
 DFV .spqt               73.00:  Mud Viscosity 
 MWOD.in                  4.75:  MWD Tool OD 
 MWSI.                      No:  Serv Intrp, MWD 
 OTIM.hr                 85.66:  Time Operating 
 PCON.           Look Like New:  Pad Condition 
 PMAX.psia             6250.00:  Press Op, Max 
 PV  .cP                 65.00:  Mud PV 
 RUN .                     900:  Run Number 
 ROPA.m/hr               11.40:  ROP Avg 
 ROPN.m/hr                5.00:  ROP Min 
 ROPX.m/hr               20.00:  ROP Max 
 RPMA.rpm               130.00:  RPM Surface Avg 
 RPMN.rpm                40.00:  RPM Surface Min 
 RPMX.rpm               140.00:  RPM Surface Max 
 RRUN.                    L205:  Rig Run Number 
 RTIM.hr                  1.00:  Time Reaming 
 SAZI.deg               313.52:  Azm, Start 
 SDEP.m                4957.01:  Start Depth 
 SIDD.                      No:  Serv Intrp, DD 
 SINC.deg                73.16:  Inc, Start 
 SPPA.psig             5657.00:  SPP Avg 
 SPPN.psig             2500.00:  SPP Min 
 SPPX.psig             5806.00:  SPP Max 
 STIM.      07.12.00 05-Aug-20:  Start Time 
 SVCS.                 DD, MWD:  Services 
 SVER.                    9.20:  Sperry Version 
 TDAT.m                 243.00:  Tot Depth Attmp 
 TDDF.                      No:  Trip for DD 
 TDLG.m                 243.00:  Tot Depth Loggd 
 TFF .                      No:  Trip for Fail 
 TQAA.f-kp               13.00:  Torque Abs Avg 
 TQAN.f-kp               11.00:  Torque Abs Min 
 TQAX.f-kp               16.00:  Torque Abs Max 
 TRRT.°/30m               1.00:  Turn Rotating 
 MRT .                    HCIM:  Maximum Recorded Temperature 
 TTMX.degC               96.08:  Max Tool Temp 
 VS01.                90515411:  Virtual Str1 SN 
 VS02.                90512716:  Virtual Str2 SN 
 VS03.                90522362:  Virtual Str3 SN 
 VS04.                90619415:  Virtual Str4 SN 
 VS05.                90619414:  Virtual Str5 SN 
 VS06.                90597748:  Virtual Str6 SN 
 WBMN.klb                 2.00:  WOB Min 
 WITN.           Adil Mammadov:  Customer Rep 
 WITN.     Alexander Yadullayev:  Customer Rep 2 
 WOBA.klb                 7.00:  WOB Avg 
 WOBX.klb                23.00:  WOB Max 
 YP  .lhf2               37.00:  Yield Point 
~Curve Information Block
#MNEM.UNIT                 API CODE     Curve Description
#---------               -----------    ---------------------------
 TIME.HHMMSS            00 000 000 000:  GT Time & Date
 GTDEPTH.m              00 000 000 000:  GT Depth
 GTPQH.psia             00 000 000 000:  GT HR Quartz Pressure
 GTTQ.degC              00 000 000 000:  GT Quartz Temperature
 GTTN.NONE              00 000 000 000:  GT Test Number
 GTET.sec               00 000 000 000:  GT Elapsed Test Time
 GTTVD.m                00 000 000 000:  GT True Vertical Depth
#Other Information
#
#WARRANTY: Halliburton will use its best efforts to furnish customers with 
#accurate information and interpretations that are part of, and incident to, the services 
#provided.  However, Halliburton cannot and does not warrant the accuracy 
#or correctness of such information and interpretations.  Under no circumstances should any 
#such information or interpretation be relied upon as the sole basis for any drilling, 
#completion, production, or financial decision or any procedure involving any risk to the 
#safety of any drilling venture, drilling rig or its crew or any other third party.  The 
#Customer has full responsibility for all drilling, completion and production operation.  
#Halliburton makes no representations or warranties, either expressed or 
#implied, including, but not limited to, the implied warranties of merchantability or fitness 
#for a particular purpose, with respect to the services rendered.  In no event will 
#Halliburton be liable for failure to obtain any particular results or for 
#any damages, including, but not limited to, indirect, special or consequential damages, 
#resulting from the use of any information or interpretation provided by Halliburton.
#
~A           TIME           GTDEPTH  GTPQH  GTTQ  GTTN   GTET   GTTVD  
# ...
   12:01:26.013.07-Aug-2020 5127.01 3414.03 87.32 10.00 339.13 2682.86
   12:01:26.213.07-Aug-2020 5127.01 3414.08 87.32 10.00 339.33 2682.86
   12:01:26.414.07-Aug-2020 5127.01 3414.09 87.32 10.00 339.53 2682.86
   12:01:26.614.07-Aug-2020 5127.01 3414.06 87.32 10.00 339.73 2682.86
   12:01:26.814.07-Aug-2020 5127.01 3413.96 87.32 10.00 339.93 2682.86
   12:01:27.014.07-Aug-2020 5127.01 3414.19 87.32 10.00 340.13 2682.86
   12:01:27.214.07-Aug-2020 5127.01 3414.19 87.32 10.00 340.33 2682.86
   12:01:27.414.07-Aug-2020 5127.01 3414.01 87.32 10.00 340.53 2682.86
   12:01:27.614.07-Aug-2020 5127.01 3414.12 87.32 10.00 340.73 2682.86
   12:01:27.814.07-Aug-2020 5127.01 3414.10 87.32 10.00 340.93 2682.86
   12:01:28.014.07-Aug-2020 5127.01 3414.04 87.32 10.00 341.13 2682.86
   12:01:28.214.07-Aug-2020 5127.01 3414.04 87.32 10.00 341.33 2682.86
   12:01:28.414.07-Aug-2020 5127.01 3414.11 87.32 10.00 341.53 2682.86
   12:01:28.614.07-Aug-2020 5127.01 3414.05 87.32 10.00 341.73 2682.86
   12:01:28.814.07-Aug-2020 5127.01 3414.09 87.32 10.00 341.93 2682.86
   12:01:29.015.07-Aug-2020 5127.01 3414.08 87.32 10.00 342.13 2682.86
   12:01:29.215.07-Aug-2020 5127.01 3414.08 87.32 10.00 342.33 2682.86
   12:01:29.415.07-Aug-2020 5127.01 3414.15 87.32 10.00 342.53 2682.86
   12:01:29.615.07-Aug-2020 5127.01 3414.11 87.32 10.00 342.73 2682.86
   12:01:29.815.07-Aug-2020 5127.01 3414.00 87.32 10.00 342.93 2682.86
   12:01:30.015.07-Aug-2020 5127.01 3414.12 87.32 10.00 343.13 2682.86
   12:01:30.215.07-Aug-2020 5127.01 3414.08 87.32 10.00 343.33 2682.86
   12:01:30.415.07-Aug-2020 5127.01 3414.08 87.32 10.00 343.53 2682.86
   12:01:30.615.07-Aug-2020 5127.01 3414.05 87.32 10.00 343.73 2682.86
   12:01:30.815.07-Aug-2020 5127.01 3414.08 87.32 10.00 343.93 2682.86
   12:01:31.015.07-Aug-2020 5127.01 3414.06 87.31 10.00 344.13 2682.86
   12:01:31.215.07-Aug-2020 5127.01 3414.06 87.31 10.00 344.33 2682.86
   12:01:31.415.07-Aug-2020 5127.01 3414.05 87.31 10.00 344.53 2682.86
   12:01:31.616.07-Aug-2020 5127.01 3414.08 87.31 10.00 344.73 2682.86
   12:01:31.816.07-Aug-2020 5127.01 3414.06 87.31 10.00 344.93 2682.86
   12:01:32.016.07-Aug-2020 5127.01 3414.02 87.31 10.00 345.13 2682.86
   12:01:32.216.07-Aug-2020 5127.01 3414.02 87.31 10.00 345.33 2682.86
   12:01:32.416.07-Aug-2020 5127.01 3414.12 87.31 10.00 345.53 2682.86
   12:01:32.616.07-Aug-2020 5127.01 3414.01 87.31 10.00 345.73 2682.86
   12:01:32.816.07-Aug-2020 5127.01 3414.08 87.31 10.00 345.93 2682.86
   12:01:33.016.07-Aug-2020 5127.01 3414.09 87.31 10.00 346.13 2682.86
   12:01:33.216.07-Aug-2020 5127.01 3414.09 87.31 10.00 346.33 2682.86
   12:01:33.416.07-Aug-2020 5127.01 3414.08 87.31 10.00 346.53 2682.86
   12:01:33.616.07-Aug-2020 5127.01 3414.06 87.31 10.00 346.73 2682.86
   12:01:33.816.07-Aug-2020 5127.01 3414.06 87.31 10.00 346.93 2682.86
   12:01:34.016.07-Aug-2020 5127.01 3414.05 87.31 10.00 347.13 2682.86
   12:01:34.216.07-Aug-2020 5127.01 3414.08 87.31 10.00 347.33 2682.86
   12:01:34.417.07-Aug-2020 5127.01 3414.03 87.31 10.00 347.53 2682.86
   12:01:34.617.07-Aug-2020 5127.01 3414.02 87.31 10.00 347.73 2682.86
   12:01:34.817.07-Aug-2020 5127.01 3414.09 87.31 10.00 347.93 2682.86
   12:01:35.017.07-Aug-2020 5127.01 3414.09 87.31 10.00 348.13 2682.86
   12:01:35.217.07-Aug-2020 5127.01 3414.09 87.31 10.00 348.33 2682.86
   12:01:35.417.07-Aug-2020 5127.01 3413.91 87.31 10.00 348.53 2682.86
   12:01:35.617.07-Aug-2020 5127.01 3414.20 87.31 10.00 348.73 2682.86
   12:01:35.817.07-Aug-2020 5127.01 3414.12 87.31 10.00 348.93 2682.86
   12:01:36.017.07-Aug-2020 5127.01 3413.97 87.31 10.00 349.13 2682.86
   12:01:36.217.07-Aug-2020 5127.01 3413.97 87.31 10.00 349.33 2682.86
   12:01:36.417.07-Aug-2020 5127.01 3414.07 87.31 10.00 349.53 2682.86
   12:01:36.617.07-Aug-2020 5127.01 3414.01 87.30 10.00 349.73 2682.86
   12:01:36.817.07-Aug-2020 5127.01 3414.12 87.30 10.00 349.93 2682.86
   12:01:37.018.07-Aug-2020 5127.01 3414.07 87.30 10.00 350.13 2682.86
   12:01:37.218.07-Aug-2020 5127.01 3414.07 87.30 10.00 350.33 2682.86
   12:01:37.418.07-Aug-2020 5127.01 3414.10 87.30 10.00 350.53 2682.86
   12:01:37.618.07-Aug-2020 5127.01 3414.08 87.30 10.00 350.73 2682.86
   12:01:37.818.07-Aug-2020 5127.01 3413.88 87.30 10.00 350.93 2682.86
   12:01:38.018.07-Aug-2020 5127.01 3414.19 87.30 10.00 351.13 2682.86
   12:01:38.218.07-Aug-2020 5127.01 3414.19 87.30 10.00 351.33 2682.86
   12:01:38.418.07-Aug-2020 5127.01 3413.99 87.30 10.00 351.53 2682.86
   12:01:38.618.07-Aug-2020 5127.01 3414.08 87.30 10.00 351.73 2682.86
   12:01:38.818.07-Aug-2020 5127.01 3414.10 87.30 10.00 351.93 2682.86
   12:01:39.018.07-Aug-2020 5127.01 3414.04 87.30 10.00 352.13 2682.86
   12:01:39.218.07-Aug-2020 5127.01 3414.04 87.30 10.00 352.33 2682.86
   12:01:39.418.07-Aug-2020 5127.01 3414.05 87.30 10.00 352.53 2682.86
   12:01:39.619.07-Aug-2020 5127.01 3414.07 87.30 10.00 352.73 2682.86
   12:01:39.819.07-Aug-2020 5127.01 3414.06 87.30 10.00 352.93 2682.86
   12:01:40.019.07-Aug-2020 5127.01 3414.06 87.30 10.00 353.13 2682.86
   12:01:40.219.07-Aug-2020 5127.01 3414.06 87.30 10.00 353.33 2682.86
   12:01:40.419.07-Aug-2020 5127.01 3414.07 87.30 10.00 353.53 2682.86
   12:01:40.619.07-Aug-2020 5127.01 3413.99 87.30 10.00 353.73 2682.86
   12:01:40.819.07-Aug-2020 5127.01 3414.10 87.30 10.00 353.93 2682.86
   12:01:41.019.07-Aug-2020 5127.01 3414.09 87.30 10.00 354.13 2682.86
   12:01:41.219.07-Aug-2020 5127.01 3414.09 87.30 10.00 354.33 2682.86
   12:01:41.419.07-Aug-2020 5127.01 3414.05 87.30 10.00 354.53 2682.86
   12:01:41.619.07-Aug-2020 5127.01 3414.08 87.30 10.00 354.73 2682.86
   12:01:41.819.07-Aug-2020 5127.01 3414.03 87.30 10.00 354.93 2682.86
   12:01:42.019.07-Aug-2020 5127.01 3414.06 87.29 10.00 355.13 2682.86
   12:01:42.219.07-Aug-2020 5127.01 3414.06 87.29 10.00 355.33 2682.86
   12:01:42.420.07-Aug-2020 5127.01 3414.05 87.29 10.00 355.53 2682.86
   12:01:42.620.07-Aug-2020 5127.01 3414.06 87.29 10.00 355.73 2682.86
   12:01:42.820.07-Aug-2020 5127.01 3414.06 87.29 10.00 355.93 2682.86
   12:01:43.020.07-Aug-2020 5127.01 3414.05 87.29 10.00 356.13 2682.86
   12:01:43.220.07-Aug-2020 5127.01 3414.05 87.29 10.00 356.33 2682.86
   12:01:43.420.07-Aug-2020 5127.01 3414.13 87.29 10.00 356.53 2682.86
   12:01:43.620.07-Aug-2020 5127.01 3414.03 87.29 10.00 356.73 2682.86
   12:01:43.820.07-Aug-2020 5127.01 3414.00 87.29 10.00 356.93 2682.86
   12:01:44.020.07-Aug-2020 5127.01 3413.86 87.29 10.00 357.13 2682.86
   12:01:44.220.07-Aug-2020 5127.01 3413.86 87.29 10.00 357.33 2682.86
   12:01:44.420.07-Aug-2020 5127.01 3414.09 87.29 10.00 357.53 2682.86
   12:01:44.620.07-Aug-2020 5127.01 3413.99 87.29 10.00 357.73 2682.86
   12:01:44.820.07-Aug-2020 5127.01 3414.10 87.29 10.00 357.93 2682.86
   12:01:45.021.07-Aug-2020 5127.01 3414.10 87.29 10.00 358.13 2682.86
   12:01:45.221.07-Aug-2020 5127.01 3414.10 87.29 10.00 358.33 2682.86
   12:01:45.421.07-Aug-2020 5127.01 3414.14 87.29 10.00 358.53 2682.86
   12:01:45.621.07-Aug-2020 5127.01 3414.04 87.29 10.00 358.73 2682.86
   12:01:45.821.07-Aug-2020 5127.01 3414.01 87.29 10.00 358.93 2682.86
   12:01:46.021.07-Aug-2020 5127.01 3414.08 87.29 10.00 359.13 2682.86
   12:01:46.221.07-Aug-2020 5127.01 3414.08 87.29 10.00 359.33 2682.86
   12:01:46.421.07-Aug-2020 5127.01 3413.81 87.29 10.00 359.54 2682.86
   12:01:46.621.07-Aug-2020 5127.01 3414.25 87.29 10.00 359.74 2682.86
   12:01:46.821.07-Aug-2020 5127.01 3414.11 87.29 10.00 359.94 2682.86
   12:01:47.021.07-Aug-2020 5127.01 3413.99 87.29 10.00 360.14 2682.86
   12:01:47.221.07-Aug-2020 5127.01 3413.99 87.29 10.00 360.34 2682.86
   12:01:47.421.07-Aug-2020 5127.01 3414.07 87.29 10.00 360.54 2682.86
   12:01:47.622.07-Aug-2020 5127.01 3414.05 87.28 10.00 360.74 2682.86
   12:01:47.822.07-Aug-2020 5127.01 3414.06 87.28 10.00 360.94 2682.86
   12:01:48.022.07-Aug-2020 5127.01 3414.05 87.28 10.00 361.14 2682.86
   12:01:48.222.07-Aug-2020 5127.01 3414.05 87.28 10.00 361.34 2682.86
   12:01:48.422.07-Aug-2020 5127.01 3414.08 87.28 10.00 361.54 2682.86
