~Version Information
 VERS.                  2.0:   CWLS log ASCII Standard -VERSION 2.0
 WRAP.                   NO:   One line per depth step
~Well Information Block
#MNEM.UNIT     VALUE/NAME     DESCRIPTION
#---------     -----------    ---------------------------
 STRT.S             00:43:02 07-Aug-20: START TIME 00:43:02 07-Aug-20
 STOP.S             00:50:54 07-Aug-20: STOP TIME  00:50:54 07-Aug-20
 STEP.S                   0.00: STEP TIME
 NULL.                 -999.25: NULL VALUE
 DFWT.                        :  DIST FWL TEXT
 DFST.                        :  DIST FSL TEXT
 DMF .             Drill Floor:  DRILL MEAS FROM
 STIM.      12.00.00 03-Jul-20:  START TIME
 DATE.      00.50.00 09-Aug-20:  END TIME
 SPUD.               03-Jul-20:  SPUD DATE
 NREF.                    Grid:  NORTH REFERENCE
 HPTY.       Minimum Curvature:  HOLE POS TYPE
 DMOD.             Drill Model:  DRILL MOD DESC
 SVYD.                  Survey:  SURVEY DESC
 ILTD.               Lithology:  INTERP LTH DESC
 FTOP.          Formation Tops:  FORM TOPS DESC
 PDAT.          Mean Sea Level:  PERMANENT DATUM
 FLD .                     ACG:  FIELD NAME
 CTRY.              Azerbaijan:  COUNTRY NAME
 WELL.                    E04x:  WELL NAME
 SRVC.          Turan Drilling:  CONTRACTOR
 COMP.     BP Exploration (Caspian Sea) Ltd.:  COMPANY
 SON .        AZ-XX-0906531346:  JOB NUMBER
 WTYP.                Deviated:  WELL TYPE
 MDS .        Operator Entered:  MAG DATA SOURCE
 UWI .                     N/A:  UNIQUE WELL IDENTIFIER
 API .                     N/A:  API NUMBER
 BASE.              Azerbaijan:  LOGGING EQUIPMENT BASE LOCATION
 REGN.                   EESSA:  REGION
 PROV.                    Baku:  PROVINCE
 STAT.                    Baku:  STATE NAME
 MWDS.                    Baku:  MWD SHOP
 JOBN.        AZ-XX-0906531346:  JOB TICKET NUMB
 RIG .                     DWG:  RIG NAME
 DOE .                     N/A:  DOE NUMBER
 DCON.         Sperry Drilling:  DIRECTNL CONTR
 UNIT.                     N/A:  LOGGING EQUIPMENT ID
 CNTY.                        :  COUNTY
 LOC .                        :  LOCATION
 LMF .             Drill Floor:  LOG MEASURED FROM
 TVDS.m                  43.16:  TVDSS CORRECTN
 LATI.deg                40.17:  LATITUDE
 LONG.deg                51.17:  LONGITUDE
 WHNS.m                  -0.12:  WELL HEAD N/S
 WHEW.m                  -5.41:  WELL HEAD E/W
 UTMX.m              514337.95:  UTM X
 UTMY.m             4448627.46:  UTM Y
 DFWL.m                   0.00:  DISTANCE FWL
 DFSL.m                   0.00:  DISTANCE FSL
 SDEP.m                3088.01:  START DEPTH
 TDD .m                5200.01:  TOTAL DEPTH (DRILLER)
 VSDR.deg               244.51:  VERT SEC DIRECT
 GVFD.g                   1.00:  GRAVITY FIELD
 MFLD.nT              50329.80:  MAGNETIC FIELD
 MDIP.deg                59.63:  MAGNETIC DIP
 MDEC.deg                 6.59:  MAGNETIC DECL
 GRDC.deg                 0.09:  GRID CORRECTION
 AZTC.deg                 6.50:  AZM TOTAL CORR
 EPD .m                   0.00:  ELEVATION
 EGL .m                   0.00:  GROUND ELEVATION
 WDMS.m                 176.20:  WD ELEV
 APD .m                  43.16:  DEPTH ABOVE PD
 DEP .m                3084.71:  DEPTH
 AGAP.m                  43.16:  AIR GAP
 VSEW.m                  -5.41:  VERT SEC E/W
 VSNS.m                  -0.12:  VERT SEC N/S
 EKB .m                   0.00:  KB ELEVATION
 EDF .m                  43.16:  DF ELEVATION
 TDL .m                 243.00:  TOTAL DEPTH (LOGGER)
 VSC .                       0:  VS TO CLOSURE
 MAGU.                 1853542:  MAGUTM CHECKSUM
~Parameter Information Block
#MNEM.UNIT       Value        Description
#---------     -----------    ---------------------------
 AV  .mps                 1.91:  Ann Velocity 
 AVMX.mps                 2.52:  Max Ann Veloc 
 AZIF.deg               308.97:  Azm, Final 
 BHAT.        Rotary Steerable:  BHA Type 
 BROT.°/30m               1.00:  Build Rotating 
 BS  .in                  6.50:  Bit Size 
 BSZ .in                  6.50:  Bit Size 
 BTPL.psig              350.00:  Bit Press Loss 
 CABU.                      No:  Customer Abuse 
 CGEO.           Asif Pashayev:  Customer Geo 
 COMM.                     ´è„:  Run Comments 1 
 TCS .hr                 35.86:  Time Ciculation Ended 
 CV  .mps                 2.31:  Crit Velocity 
 CVMX.mps                 2.31:  Max Crit Veloc 
 DD1 .         Intigam Rahimov:  Direct Drillr 1 
 DDSV.               Geo-Pilot:  DD Service 
 DEFF.%                  92.00:  % Det Eff 
 DLRX.°/30m               1.00:  Dogleg Rot Max 
 DLSO.°/30m               1.00:  Dogleg Oriented 
 DLSX.°/30m               1.42:  Dogleg Str Max 
 DRET.      15.50.00 07-Aug-20:  Drill End Time 
 DRST.      10.40.00 06-Aug-20:  Drill Start Tim 
 DTIM.hr                 21.30:  Time Drilling 
 EDEP.m                5200.01:  End Depth 
 ENG1.            Alan Tuganov:  Engineer 1 
 ENG2.         Almaz Almadatov:  Engineer 2 
 ENG3.     Zammelal Abdullah Sani:  Engineer 3 
 ETIM.      22.42.00 08-Aug-20:  End Time 
 FLOI.gpm               395.00:  Flow In 
 FLON.gpm               350.00:  Flow In Min 
 FLOS.cptm                0.00:  Fluid Loss 
 FLOX.gpm               404.00:  Flow In Max 
 FTRO.       Formation Presure:  FTWD Run Obj 
 HFLO.                      No:  High Flow 
 HPRE.                      No:  High Pressure 
 HTEM.                      No:  High Temp 
 HYDO.m                   1.80:  Hydro Offset 
 IFIN.deg                72.64:  Inc, Final 
 IMAX.deg                73.68:  Inc Max 
 IMIN.deg                72.64:  Inc Min 
 IMND.m                5189.69:  Inc Min Depth 
 IMXD.m                5067.88:  Inc Max Depth 
 JARR.                      No:  Jarring 
 LETM.      15.50.00 07-Aug-20:  Log End Time 
 LOST.hr                     0:  Lost Rig Time 
 LSTM.      10.40.00 06-Aug-20:  Log Start Time 
 MDCL.ppm             36000.00:  Mud Chlorides 
 MDES.     Inversion Oil/Synthetic:  Mud Desc 
 DFD .sg                  1.36:  Mud Density 
 MDMN.sg                  1.36:  Dens Mud Min 
 MDMX.sg                  1.36:  Dens Mud Max 
 MOIL.                      70:  Run Mud Oil % 
 MOWR.                   70:30:  Run Mud OWR 
 MSND.                    0.00:  Run Mud Sand % 
 MSOL.                   17.60:  Run Mud Solids% 
 DFV .spqt               73.00:  Mud Viscosity 
 MWOD.in                  4.75:  MWD Tool OD 
 MWSI.                      No:  Serv Intrp, MWD 
 OTIM.hr                 85.66:  Time Operating 
 PCON.           Look Like New:  Pad Condition 
 PMAX.psia             6250.00:  Press Op, Max 
 PV  .cP                 65.00:  Mud PV 
 RUN .                     900:  Run Number 
 ROPA.m/hr               11.40:  ROP Avg 
 ROPN.m/hr                5.00:  ROP Min 
 ROPX.m/hr               20.00:  ROP Max 
 RPMA.rpm               130.00:  RPM Surface Avg 
 RPMN.rpm                40.00:  RPM Surface Min 
 RPMX.rpm               140.00:  RPM Surface Max 
 RRUN.                    L205:  Rig Run Number 
 RTIM.hr                  1.00:  Time Reaming 
 SAZI.deg               313.52:  Azm, Start 
 SDEP.m                4957.01:  Start Depth 
 SIDD.                      No:  Serv Intrp, DD 
 SINC.deg                73.16:  Inc, Start 
 SPPA.psig             5657.00:  SPP Avg 
 SPPN.psig             2500.00:  SPP Min 
 SPPX.psig             5806.00:  SPP Max 
 STIM.      07.12.00 05-Aug-20:  Start Time 
 SVCS.                 DD, MWD:  Services 
 SVER.                    9.20:  Sperry Version 
 TDAT.m                 243.00:  Tot Depth Attmp 
 TDDF.                      No:  Trip for DD 
 TDLG.m                 243.00:  Tot Depth Loggd 
 TFF .                      No:  Trip for Fail 
 TQAA.f-kp               13.00:  Torque Abs Avg 
 TQAN.f-kp               11.00:  Torque Abs Min 
 TQAX.f-kp               16.00:  Torque Abs Max 
 TRRT.°/30m               1.00:  Turn Rotating 
 MRT .                    HCIM:  Maximum Recorded Temperature 
 TTMX.degC               96.08:  Max Tool Temp 
 VS01.                90515411:  Virtual Str1 SN 
 VS02.                90512716:  Virtual Str2 SN 
 VS03.                90522362:  Virtual Str3 SN 
 VS04.                90619415:  Virtual Str4 SN 
 VS05.                90619414:  Virtual Str5 SN 
 VS06.                90597748:  Virtual Str6 SN 
 WBMN.klb                 2.00:  WOB Min 
 WITN.           Adil Mammadov:  Customer Rep 
 WITN.     Alexander Yadullayev:  Customer Rep 2 
 WOBA.klb                 7.00:  WOB Avg 
 WOBX.klb                23.00:  WOB Max 
 YP  .lhf2               37.00:  Yield Point 
~Curve Information Block
#MNEM.UNIT                 API CODE     Curve Description
#---------               -----------    ---------------------------
 TIME.HHMMSS            00 000 000 000:  GT Time & Date
 GTDEPTH.m              00 000 000 000:  GT Depth
 GTPQH.psia             00 000 000 000:  GT HR Quartz Pressure
 GTTQ.degC              00 000 000 000:  GT Quartz Temperature
 GTTN.NONE              00 000 000 000:  GT Test Number
 GTET.sec               00 000 000 000:  GT Elapsed Test Time
 GTTVD.m                00 000 000 000:  GT True Vertical Depth
#Other Information
#
#WARRANTY: Halliburton will use its best efforts to furnish customers with 
#accurate information and interpretations that are part of, and incident to, the services 
#provided.  However, Halliburton cannot and does not warrant the accuracy 
#or correctness of such information and interpretations.  Under no circumstances should any 
#such information or interpretation be relied upon as the sole basis for any drilling, 
#completion, production, or financial decision or any procedure involving any risk to the 
#safety of any drilling venture, drilling rig or its crew or any other third party.  The 
#Customer has full responsibility for all drilling, completion and production operation.  
#Halliburton makes no representations or warranties, either expressed or 
#implied, including, but not limited to, the implied warranties of merchantability or fitness 
#for a particular purpose, with respect to the services rendered.  In no event will 
#Halliburton be liable for failure to obtain any particular results or for 
#any damages, including, but not limited to, indirect, special or consequential damages, 
#resulting from the use of any information or interpretation provided by Halliburton.
#
~A           TIME           GTDEPTH  GTPQH  GTTQ  GTTN  GTET   GTTVD  
   00:43:02.517.07-Aug-2020 5032.01 5761.23 86.99 5.00   0.00 2655.40
   00:43:02.717.07-Aug-2020 5032.01 5761.23 86.99 5.00   0.20 2655.40
   00:43:02.917.07-Aug-2020 5032.01 5765.19 86.99 5.00   0.40 2655.40
   00:43:03.117.07-Aug-2020 5032.01 5763.98 86.98 5.00   0.60 2655.40
   00:43:03.317.07-Aug-2020 5032.01 5765.63 86.98 5.00   0.80 2655.40
   00:43:03.517.07-Aug-2020 5032.01 5768.68 86.98 5.00   1.00 2655.40
   00:43:03.717.07-Aug-2020 5032.01 5768.68 86.98 5.00   1.20 2655.40
   00:43:03.917.07-Aug-2020 5032.01 5769.47 86.98 5.00   1.40 2655.40
   00:43:04.117.07-Aug-2020 5032.01 5767.34 86.98 5.00   1.60 2655.40
   00:43:04.317.07-Aug-2020 5032.01 5769.36 86.98 5.00   1.80 2655.40
   00:43:04.517.07-Aug-2020 5032.01 5767.34 86.98 5.00   2.00 2655.40
   00:43:04.717.07-Aug-2020 5032.01 5767.34 86.98 5.00   2.20 2655.40
   00:43:04.917.07-Aug-2020 5032.01 5767.49 86.98 5.00   2.40 2655.40
   00:43:05.117.07-Aug-2020 5032.01 5770.17 86.98 5.00   2.60 2655.40
   00:43:05.317.07-Aug-2020 5032.01 5761.50 86.98 5.00   2.80 2655.40
   00:43:05.517.07-Aug-2020 5032.01 5771.65 86.98 5.00   3.00 2655.40
   00:43:05.717.07-Aug-2020 5032.01 5771.65 86.98 5.00   3.20 2655.40
   00:43:05.917.07-Aug-2020 5032.01 5769.46 86.97 5.00   3.40 2655.40
   00:43:06.117.07-Aug-2020 5032.01 5766.34 86.97 5.00   3.60 2655.40
   00:43:06.317.07-Aug-2020 5032.01 5761.53 86.97 5.00   3.80 2655.40
   00:43:06.518.07-Aug-2020 5032.01 5771.89 86.97 5.00   4.00 2655.40
   00:43:06.718.07-Aug-2020 5032.01 5771.89 86.97 5.00   4.20 2655.40
   00:43:06.918.07-Aug-2020 5032.01 5769.93 86.97 5.00   4.40 2655.40
   00:43:07.118.07-Aug-2020 5032.01 5767.49 86.97 5.00   4.60 2655.40
   00:43:07.318.07-Aug-2020 5032.01 5762.18 86.97 5.00   4.80 2655.40
   00:43:07.518.07-Aug-2020 5032.01 5771.76 86.97 5.00   5.00 2655.40
   00:43:07.718.07-Aug-2020 5032.01 5771.76 86.97 5.00   5.20 2655.40
   00:43:07.918.07-Aug-2020 5032.01 5771.76 86.97 5.00   5.40 2655.40
   00:43:08.118.07-Aug-2020 5032.01 5769.61 86.97 5.00   5.60 2655.40
   00:43:08.318.07-Aug-2020 5032.01 5769.61 86.96 5.00   5.80 2655.40
   00:43:08.518.07-Aug-2020 5032.01 5763.15 86.96 5.00   6.00 2655.40
   00:43:08.718.07-Aug-2020 5032.01 5763.15 86.96 5.00   6.20 2655.40
   00:43:08.918.07-Aug-2020 5032.01 5763.15 86.96 5.00   6.40 2655.40
   00:43:09.118.07-Aug-2020 5032.01 5770.55 86.96 5.00   6.60 2655.40
   00:43:09.318.07-Aug-2020 5032.01 5770.53 86.96 5.00   6.80 2655.40
   00:43:09.518.07-Aug-2020 5032.01 5762.40 86.96 5.00   7.00 2655.40
   00:43:09.718.07-Aug-2020 5032.01 5776.67 86.96 5.00   7.20 2655.40
   00:43:09.918.07-Aug-2020 5032.01 5765.09 86.96 5.00   7.40 2655.40
   00:43:10.118.07-Aug-2020 5032.01 5774.04 86.96 5.00   7.60 2655.40
   00:43:10.318.07-Aug-2020 5032.01 5764.48 86.96 5.00   7.80 2655.40
   00:43:10.518.07-Aug-2020 5032.01 5772.14 86.96 5.00   8.00 2655.40
   00:43:10.719.07-Aug-2020 5032.01 5770.57 86.96 5.00   8.20 2655.40
   00:43:10.919.07-Aug-2020 5032.01 5774.02 86.96 5.00   8.40 2655.40
   00:43:11.119.07-Aug-2020 5032.01 5771.39 86.95 5.00   8.60 2655.40
   00:43:11.319.07-Aug-2020 5032.01 5770.91 86.95 5.00   8.80 2655.40
   00:43:11.519.07-Aug-2020 5032.01 5771.17 86.95 5.00   9.00 2655.40
   00:43:11.719.07-Aug-2020 5032.01 5771.17 86.95 5.00   9.20 2655.40
   00:43:11.919.07-Aug-2020 5032.01 5774.03 86.95 5.00   9.40 2655.40
   00:43:12.119.07-Aug-2020 5032.01 5774.64 86.95 5.00   9.60 2655.40
   00:43:12.319.07-Aug-2020 5032.01 5774.60 86.95 5.00   9.80 2655.40
   00:43:12.519.07-Aug-2020 5032.01 5769.06 86.95 5.00  10.00 2655.40
   00:43:12.719.07-Aug-2020 5032.01 5769.06 86.95 5.00  10.20 2655.40
   00:43:12.919.07-Aug-2020 5032.01 5773.13 86.95 5.00  10.40 2655.40
   00:43:13.119.07-Aug-2020 5032.01 5774.02 86.95 5.00  10.60 2655.40
   00:43:13.319.07-Aug-2020 5032.01 5769.88 86.95 5.00  10.80 2655.40
   00:43:13.519.07-Aug-2020 5032.01 5773.05 86.95 5.00  11.00 2655.40
   00:43:13.719.07-Aug-2020 5032.01 5773.05 86.95 5.00  11.20 2655.40
   00:43:13.919.07-Aug-2020 5032.01 5775.49 86.94 5.00  11.40 2655.40
   00:43:14.119.07-Aug-2020 5032.01 5773.88 86.94 5.00  11.60 2655.40
   00:43:14.319.07-Aug-2020 5032.01 5771.19 86.94 5.00  11.80 2655.40
   00:43:14.519.07-Aug-2020 5032.01 5759.24 86.94 5.00  12.00 2655.40
   00:43:14.719.07-Aug-2020 5032.01 5771.90 86.94 5.00  12.20 2655.40
   00:43:14.919.07-Aug-2020 5032.01 5739.38 86.94 5.00  12.40 2655.40
   00:43:15.120.07-Aug-2020 5032.01 5704.09 86.94 5.00  12.60 2655.40
   00:43:15.320.07-Aug-2020 5032.01 5655.66 86.94 5.00  12.80 2655.40
   00:43:15.520.07-Aug-2020 5032.01 5599.17 86.94 5.00  13.00 2655.40
   00:43:15.720.07-Aug-2020 5032.01 5599.17 86.94 5.00  13.20 2655.40
   00:43:15.920.07-Aug-2020 5032.01 5474.08 86.94 5.00  13.40 2655.40
   00:43:16.120.07-Aug-2020 5032.01 5411.25 86.94 5.00  13.60 2655.40
   00:43:16.320.07-Aug-2020 5032.01 5343.69 86.94 5.00  13.80 2655.40
   00:43:16.520.07-Aug-2020 5032.01 5302.18 86.93 5.00  14.00 2655.40
   00:43:16.720.07-Aug-2020 5032.01 5302.18 86.93 5.00  14.20 2655.40
   00:43:16.920.07-Aug-2020 5032.01 5221.04 86.93 5.00  14.40 2655.40
   00:43:17.120.07-Aug-2020 5032.01 5138.83 86.93 5.00  14.60 2655.40
   00:43:17.320.07-Aug-2020 5032.01 5081.15 86.93 5.00  14.80 2655.40
   00:43:17.520.07-Aug-2020 5032.01 5090.03 86.93 5.00  15.00 2655.40
   00:43:17.720.07-Aug-2020 5032.01 5090.03 86.93 5.00  15.20 2655.40
   00:43:17.920.07-Aug-2020 5032.01 4996.24 86.93 5.00  15.40 2655.40
   00:43:18.120.07-Aug-2020 5032.01 4973.32 86.93 5.00  15.60 2655.40
   00:43:18.320.07-Aug-2020 5032.01 4917.35 86.93 5.00  15.80 2655.40
   00:43:18.520.07-Aug-2020 5032.01 4833.12 86.93 5.00  16.00 2655.40
   00:43:18.720.07-Aug-2020 5032.01 4833.12 86.93 5.00  16.20 2655.40
   00:43:18.920.07-Aug-2020 5032.01 4768.81 86.92 5.00  16.40 2655.40
   00:43:19.120.07-Aug-2020 5032.01 4770.49 86.92 5.00  16.60 2655.40
   00:43:19.321.07-Aug-2020 5032.01 4762.22 86.92 5.00  16.80 2655.40
   00:43:19.521.07-Aug-2020 5032.01 4715.45 86.92 5.00  17.00 2655.40
   00:43:19.721.07-Aug-2020 5032.01 4715.45 86.92 5.00  17.20 2655.40
   00:43:19.921.07-Aug-2020 5032.01 4699.94 86.92 5.00  17.40 2655.40
   00:43:20.121.07-Aug-2020 5032.01 4712.88 86.92 5.00  17.60 2655.40
   00:43:20.321.07-Aug-2020 5032.01 4733.51 86.92 5.00  17.80 2655.40
   00:43:20.521.07-Aug-2020 5032.01 4781.38 86.92 5.00  18.00 2655.40
   00:43:20.721.07-Aug-2020 5032.01 4781.38 86.92 5.00  18.20 2655.40
   00:43:20.921.07-Aug-2020 5032.01 5498.40 86.92 5.00  18.40 2655.40
   00:43:21.121.07-Aug-2020 5032.01 5667.74 86.91 5.00  18.60 2655.40
   00:43:21.321.07-Aug-2020 5032.01 5803.98 86.91 5.00  18.80 2655.40
   00:43:21.521.07-Aug-2020 5032.01 5961.19 86.91 5.00  19.00 2655.40
   00:43:21.721.07-Aug-2020 5032.01 5961.19 86.91 5.00  19.20 2655.40
   00:43:21.921.07-Aug-2020 5032.01 6303.20 86.91 5.00  19.40 2655.40
   00:43:22.121.07-Aug-2020 5032.01 6465.31 86.91 5.00  19.60 2655.40
   00:43:22.321.07-Aug-2020 5032.01 6527.89 86.91 5.00  19.80 2655.40
   00:43:22.521.07-Aug-2020 5032.01 6545.06 86.91 5.00  20.00 2655.40
   00:43:22.721.07-Aug-2020 5032.01 6545.06 86.91 5.00  20.20 2655.40
   00:43:22.921.07-Aug-2020 5032.01 6235.71 86.91 5.00  20.40 2655.40
   00:43:23.121.07-Aug-2020 5032.01 6334.63 86.91 5.00  20.60 2655.40
   00:43:23.321.07-Aug-2020 5032.01 6447.01 86.90 5.00  20.80 2655.40
   00:43:23.522.07-Aug-2020 5032.01 6563.57 86.90 5.00  21.00 2655.40
   00:43:23.722.07-Aug-2020 5032.01 6563.57 86.90 5.00  21.20 2655.40
   00:43:23.922.07-Aug-2020 5032.01 6556.02 86.90 5.00  21.41 2655.40
   00:43:24.122.07-Aug-2020 5032.01 6572.57 86.90 5.00  21.61 2655.40
   00:43:24.322.07-Aug-2020 5032.01 6614.74 86.90 5.00  21.81 2655.40
   00:43:24.522.07-Aug-2020 5032.01 6647.03 86.90 5.00  22.01 2655.40
   00:43:24.722.07-Aug-2020 5032.01 6587.05 86.90 5.00  22.21 2655.40
   00:43:24.922.07-Aug-2020 5032.01 6536.17 86.90 5.00  22.41 2655.40
   00:43:25.122.07-Aug-2020 5032.01 6551.75 86.90 5.00  22.61 2655.40
   00:43:25.322.07-Aug-2020 5032.01 6560.89 86.90 5.00  22.81 2655.40
