~Version Information
 VERS.                  2.0:   CWLS log ASCII Standard -VERSION 2.0
 WRAP.                   NO:   One line per depth step
~Well Information Block
#MNEM.UNIT     VALUE/NAME     DESCRIPTION
#---------     -----------    ---------------------------
 STRT.S             06:40:56 07-Aug-20: START TIME 06:40:56 07-Aug-20
 STOP.S             06:48:48 07-Aug-20: STOP TIME  06:48:48 07-Aug-20
 STEP.S                   0.00: STEP TIME
 NULL.                 -999.25: NULL VALUE
 DFWT.                        :  DIST FWL TEXT
 DFST.                        :  DIST FSL TEXT
 DMF .             Drill Floor:  DRILL MEAS FROM
 STIM.      12.00.00 03-Jul-20:  START TIME
 DATE.      00.50.00 09-Aug-20:  END TIME
 SPUD.               03-Jul-20:  SPUD DATE
 NREF.                    Grid:  NORTH REFERENCE
 HPTY.       Minimum Curvature:  HOLE POS TYPE
 DMOD.             Drill Model:  DRILL MOD DESC
 SVYD.                  Survey:  SURVEY DESC
 ILTD.               Lithology:  INTERP LTH DESC
 FTOP.          Formation Tops:  FORM TOPS DESC
 PDAT.          Mean Sea Level:  PERMANENT DATUM
 FLD .                     ACG:  FIELD NAME
 CTRY.              Azerbaijan:  COUNTRY NAME
 WELL.                    E04x:  WELL NAME
 SRVC.          Turan Drilling:  CONTRACTOR
 COMP.     BP Exploration (Caspian Sea) Ltd.:  COMPANY
 SON .        AZ-XX-0906531346:  JOB NUMBER
 WTYP.                Deviated:  WELL TYPE
 MDS .        Operator Entered:  MAG DATA SOURCE
 UWI .                     N/A:  UNIQUE WELL IDENTIFIER
 API .                     N/A:  API NUMBER
 BASE.              Azerbaijan:  LOGGING EQUIPMENT BASE LOCATION
 REGN.                   EESSA:  REGION
 PROV.                    Baku:  PROVINCE
 STAT.                    Baku:  STATE NAME
 MWDS.                    Baku:  MWD SHOP
 JOBN.        AZ-XX-0906531346:  JOB TICKET NUMB
 RIG .                     DWG:  RIG NAME
 DOE .                     N/A:  DOE NUMBER
 DCON.         Sperry Drilling:  DIRECTNL CONTR
 UNIT.                     N/A:  LOGGING EQUIPMENT ID
 CNTY.                        :  COUNTY
 LOC .                        :  LOCATION
 LMF .             Drill Floor:  LOG MEASURED FROM
 TVDS.m                  43.16:  TVDSS CORRECTN
 LATI.deg                40.17:  LATITUDE
 LONG.deg                51.17:  LONGITUDE
 WHNS.m                  -0.12:  WELL HEAD N/S
 WHEW.m                  -5.41:  WELL HEAD E/W
 UTMX.m              514337.95:  UTM X
 UTMY.m             4448627.46:  UTM Y
 DFWL.m                   0.00:  DISTANCE FWL
 DFSL.m                   0.00:  DISTANCE FSL
 SDEP.m                3088.01:  START DEPTH
 TDD .m                5200.01:  TOTAL DEPTH (DRILLER)
 VSDR.deg               244.51:  VERT SEC DIRECT
 GVFD.g                   1.00:  GRAVITY FIELD
 MFLD.nT              50329.80:  MAGNETIC FIELD
 MDIP.deg                59.63:  MAGNETIC DIP
 MDEC.deg                 6.59:  MAGNETIC DECL
 GRDC.deg                 0.09:  GRID CORRECTION
 AZTC.deg                 6.50:  AZM TOTAL CORR
 EPD .m                   0.00:  ELEVATION
 EGL .m                   0.00:  GROUND ELEVATION
 WDMS.m                 176.20:  WD ELEV
 APD .m                  43.16:  DEPTH ABOVE PD
 DEP .m                3084.71:  DEPTH
 AGAP.m                  43.16:  AIR GAP
 VSEW.m                  -5.41:  VERT SEC E/W
 VSNS.m                  -0.12:  VERT SEC N/S
 EKB .m                   0.00:  KB ELEVATION
 EDF .m                  43.16:  DF ELEVATION
 TDL .m                 243.00:  TOTAL DEPTH (LOGGER)
 VSC .                       0:  VS TO CLOSURE
 MAGU.                 1853542:  MAGUTM CHECKSUM
~Parameter Information Block
#MNEM.UNIT       Value        Description
#---------     -----------    ---------------------------
 AV  .mps                 1.91:  Ann Velocity 
 AVMX.mps                 2.52:  Max Ann Veloc 
 AZIF.deg               308.97:  Azm, Final 
 BHAT.        Rotary Steerable:  BHA Type 
 BROT.°/30m               1.00:  Build Rotating 
 BS  .in                  6.50:  Bit Size 
 BSZ .in                  6.50:  Bit Size 
 BTPL.psig              350.00:  Bit Press Loss 
 CABU.                      No:  Customer Abuse 
 CGEO.           Asif Pashayev:  Customer Geo 
 TCS .hr                 35.86:  Time Ciculation Ended 
 CV  .mps                 2.31:  Crit Velocity 
 CVMX.mps                 2.31:  Max Crit Veloc 
 DD1 .         Intigam Rahimov:  Direct Drillr 1 
 DDSV.               Geo-Pilot:  DD Service 
 DEFF.%                  92.00:  % Det Eff 
 DLRX.°/30m               1.00:  Dogleg Rot Max 
 DLSO.°/30m               1.00:  Dogleg Oriented 
 DLSX.°/30m               1.42:  Dogleg Str Max 
 DRET.      15.50.00 07-Aug-20:  Drill End Time 
 DRST.      10.40.00 06-Aug-20:  Drill Start Tim 
 DTIM.hr                 21.30:  Time Drilling 
 EDEP.m                5200.01:  End Depth 
 ENG1.            Alan Tuganov:  Engineer 1 
 ENG2.         Almaz Almadatov:  Engineer 2 
 ENG3.     Zammelal Abdullah Sani:  Engineer 3 
 ETIM.      22.42.00 08-Aug-20:  End Time 
 FLOI.gpm               395.00:  Flow In 
 FLON.gpm               350.00:  Flow In Min 
 FLOS.cptm                0.00:  Fluid Loss 
 FLOX.gpm               404.00:  Flow In Max 
 FTRO.       Formation Presure:  FTWD Run Obj 
 HFLO.                      No:  High Flow 
 HPRE.                      No:  High Pressure 
 HTEM.                      No:  High Temp 
 HYDO.m                   1.80:  Hydro Offset 
 IFIN.deg                72.64:  Inc, Final 
 IMAX.deg                73.68:  Inc Max 
 IMIN.deg                72.64:  Inc Min 
 IMND.m                5189.69:  Inc Min Depth 
 IMXD.m                5067.88:  Inc Max Depth 
 JARR.                      No:  Jarring 
 LETM.      15.50.00 07-Aug-20:  Log End Time 
 LOST.hr                     0:  Lost Rig Time 
 LSTM.      10.40.00 06-Aug-20:  Log Start Time 
 MDCL.ppm             36000.00:  Mud Chlorides 
 MDES.     Inversion Oil/Synthetic:  Mud Desc 
 DFD .sg                  1.36:  Mud Density 
 MDMN.sg                  1.36:  Dens Mud Min 
 MDMX.sg                  1.36:  Dens Mud Max 
 MOIL.                      70:  Run Mud Oil % 
 MOWR.                   70:30:  Run Mud OWR 
 MSND.                    0.00:  Run Mud Sand % 
 MSOL.                   17.60:  Run Mud Solids% 
 DFV .spqt               73.00:  Mud Viscosity 
 MWOD.in                  4.75:  MWD Tool OD 
 MWSI.                      No:  Serv Intrp, MWD 
 OTIM.hr                 85.66:  Time Operating 
 PCON.           Look Like New:  Pad Condition 
 PMAX.psia             6250.00:  Press Op, Max 
 PV  .cP                 65.00:  Mud PV 
 RUN .                     900:  Run Number 
 ROPA.m/hr               11.40:  ROP Avg 
 ROPN.m/hr                5.00:  ROP Min 
 ROPX.m/hr               20.00:  ROP Max 
 RPMA.rpm               130.00:  RPM Surface Avg 
 RPMN.rpm                40.00:  RPM Surface Min 
 RPMX.rpm               140.00:  RPM Surface Max 
 RRUN.                    L205:  Rig Run Number 
 RTIM.hr                  1.00:  Time Reaming 
 SAZI.deg               313.52:  Azm, Start 
 SDEP.m                4957.01:  Start Depth 
 SIDD.                      No:  Serv Intrp, DD 
 SINC.deg                73.16:  Inc, Start 
 SPPA.psig             5657.00:  SPP Avg 
 SPPN.psig             2500.00:  SPP Min 
 SPPX.psig             5806.00:  SPP Max 
 STIM.      07.12.00 05-Aug-20:  Start Time 
 SVCS.                 DD, MWD:  Services 
 SVER.                    9.20:  Sperry Version 
 TDAT.m                 243.00:  Tot Depth Attmp 
 TDDF.                      No:  Trip for DD 
 TDLG.m                 243.00:  Tot Depth Loggd 
 TFF .                      No:  Trip for Fail 
 TQAA.f-kp               13.00:  Torque Abs Avg 
 TQAN.f-kp               11.00:  Torque Abs Min 
 TQAX.f-kp               16.00:  Torque Abs Max 
 TRRT.°/30m               1.00:  Turn Rotating 
 MRT .                    HCIM:  Maximum Recorded Temperature 
 TTMX.degC               96.08:  Max Tool Temp 
 VS01.                90515411:  Virtual Str1 SN 
 VS02.                90512716:  Virtual Str2 SN 
 VS03.                90522362:  Virtual Str3 SN 
 VS04.                90619415:  Virtual Str4 SN 
 VS05.                90619414:  Virtual Str5 SN 
 VS06.                90597748:  Virtual Str6 SN 
 WBMN.klb                 2.00:  WOB Min 
 WITN.           Adil Mammadov:  Customer Rep 
 WITN.     Alexander Yadullayev:  Customer Rep 2 
 WOBA.klb                 7.00:  WOB Avg 
 WOBX.klb                23.00:  WOB Max 
 YP  .lhf2               37.00:  Yield Point 
~Curve Information Block
#MNEM.UNIT                 API CODE     Curve Description
#---------               -----------    ---------------------------
 TIME.HHMMSS            00 000 000 000:  GT Time & Date
 GTDEPTH.m              00 000 000 000:  GT Depth
 GTPQH.psia             00 000 000 000:  GT HR Quartz Pressure
 GTTQ.degC              00 000 000 000:  GT Quartz Temperature
 GTTN.NONE              00 000 000 000:  GT Test Number
 GTET.sec               00 000 000 000:  GT Elapsed Test Time
 GTTVD.m                00 000 000 000:  GT True Vertical Depth
#Other Information
#
#WARRANTY: Halliburton will use its best efforts to furnish customers with 
#accurate information and interpretations that are part of, and incident to, the services 
#provided.  However, Halliburton cannot and does not warrant the accuracy 
#or correctness of such information and interpretations.  Under no circumstances should any 
#such information or interpretation be relied upon as the sole basis for any drilling, 
#completion, production, or financial decision or any procedure involving any risk to the 
#safety of any drilling venture, drilling rig or its crew or any other third party.  The 
#Customer has full responsibility for all drilling, completion and production operation.  
#Halliburton makes no representations or warranties, either expressed or 
#implied, including, but not limited to, the implied warranties of merchantability or fitness 
#for a particular purpose, with respect to the services rendered.  In no event will 
#Halliburton be liable for failure to obtain any particular results or for 
#any damages, including, but not limited to, indirect, special or consequential damages, 
#resulting from the use of any information or interpretation provided by Halliburton.
#
~A           TIME           GTDEPTH  GTPQH  GTTQ  GTTN  GTET   GTTVD  
# ...
   06:47:05.046.07-Aug-2020 5088.01 3690.95 88.12 8.00 368.11 2671.45
   06:47:05.246.07-Aug-2020 5088.01 3690.92 88.12 8.00 368.31 2671.45
   06:47:05.446.07-Aug-2020 5088.01 3690.93 88.12 8.00 368.51 2671.45
   06:47:05.646.07-Aug-2020 5088.01 3690.93 88.12 8.00 368.71 2671.45
   06:47:05.846.07-Aug-2020 5088.01 3690.92 88.12 8.00 368.91 2671.45
   06:47:06.046.07-Aug-2020 5088.01 3690.92 88.12 8.00 369.11 2671.45
   06:47:06.246.07-Aug-2020 5088.01 3690.92 88.12 8.00 369.31 2671.45
   06:47:06.446.07-Aug-2020 5088.01 3690.91 88.11 8.00 369.51 2671.45
   06:47:06.646.07-Aug-2020 5088.01 3690.92 88.11 8.00 369.71 2671.45
   06:47:06.846.07-Aug-2020 5088.01 3690.91 88.11 8.00 369.91 2671.45
   06:47:07.046.07-Aug-2020 5088.01 3690.85 88.11 8.00 370.11 2671.45
   06:47:07.247.07-Aug-2020 5088.01 3690.85 88.11 8.00 370.31 2671.45
   06:47:07.447.07-Aug-2020 5088.01 3690.90 88.11 8.00 370.51 2671.45
   06:47:07.647.07-Aug-2020 5088.01 3690.95 88.11 8.00 370.71 2671.45
   06:47:07.847.07-Aug-2020 5088.01 3690.93 88.11 8.00 370.91 2671.45
   06:47:08.047.07-Aug-2020 5088.01 3690.92 88.11 8.00 371.11 2671.45
   06:47:08.247.07-Aug-2020 5088.01 3690.92 88.11 8.00 371.31 2671.45
   06:47:08.447.07-Aug-2020 5088.01 3690.93 88.11 8.00 371.51 2671.45
   06:47:08.647.07-Aug-2020 5088.01 3690.91 88.11 8.00 371.71 2671.45
   06:47:08.847.07-Aug-2020 5088.01 3690.91 88.11 8.00 371.91 2671.45
   06:47:09.047.07-Aug-2020 5088.01 3690.91 88.11 8.00 372.11 2671.45
   06:47:09.247.07-Aug-2020 5088.01 3690.91 88.11 8.00 372.31 2671.45
   06:47:09.447.07-Aug-2020 5088.01 3690.91 88.11 8.00 372.51 2671.45
   06:47:09.647.07-Aug-2020 5088.01 3690.83 88.11 8.00 372.71 2671.45
   06:47:09.847.07-Aug-2020 5088.01 3690.95 88.11 8.00 372.91 2671.45
   06:47:10.047.07-Aug-2020 5088.01 3690.94 88.11 8.00 373.11 2671.45
   06:47:10.247.07-Aug-2020 5088.01 3690.94 88.11 8.00 373.31 2671.45
   06:47:10.447.07-Aug-2020 5088.01 3690.96 88.10 8.00 373.51 2671.45
   06:47:10.648.07-Aug-2020 5088.01 3690.81 88.10 8.00 373.71 2671.45
   06:47:10.848.07-Aug-2020 5088.01 3690.95 88.10 8.00 373.91 2671.45
   06:47:11.048.07-Aug-2020 5088.01 3690.97 88.10 8.00 374.11 2671.45
   06:47:11.248.07-Aug-2020 5088.01 3690.97 88.10 8.00 374.31 2671.45
   06:47:11.448.07-Aug-2020 5088.01 3690.93 88.10 8.00 374.51 2671.45
   06:47:11.648.07-Aug-2020 5088.01 3690.85 88.10 8.00 374.71 2671.45
   06:47:11.848.07-Aug-2020 5088.01 3690.96 88.10 8.00 374.91 2671.45
   06:47:12.048.07-Aug-2020 5088.01 3690.94 88.10 8.00 375.11 2671.45
   06:47:12.248.07-Aug-2020 5088.01 3690.94 88.10 8.00 375.31 2671.45
   06:47:12.448.07-Aug-2020 5088.01 3690.96 88.10 8.00 375.51 2671.45
   06:47:12.648.07-Aug-2020 5088.01 3690.82 88.10 8.00 375.71 2671.45
   06:47:12.848.07-Aug-2020 5088.01 3690.96 88.10 8.00 375.91 2671.45
   06:47:13.048.07-Aug-2020 5088.01 3690.98 88.10 8.00 376.11 2671.45
   06:47:13.248.07-Aug-2020 5088.01 3690.89 88.10 8.00 376.31 2671.45
   06:47:13.448.07-Aug-2020 5088.01 3690.93 88.10 8.00 376.51 2671.45
   06:47:13.648.07-Aug-2020 5088.01 3690.93 88.10 8.00 376.71 2671.45
   06:47:13.848.07-Aug-2020 5088.01 3690.93 88.10 8.00 376.91 2671.45
   06:47:14.048.07-Aug-2020 5088.01 3690.94 88.10 8.00 377.11 2671.45
   06:47:14.249.07-Aug-2020 5088.01 3690.94 88.10 8.00 377.31 2671.45
   06:47:14.449.07-Aug-2020 5088.01 3690.92 88.09 8.00 377.51 2671.45
   06:47:14.649.07-Aug-2020 5088.01 3690.91 88.09 8.00 377.71 2671.45
   06:47:14.849.07-Aug-2020 5088.01 3690.90 88.09 8.00 377.91 2671.45
   06:47:15.049.07-Aug-2020 5088.01 3690.91 88.09 8.00 378.11 2671.45
   06:47:15.249.07-Aug-2020 5088.01 3690.91 88.09 8.00 378.31 2671.45
   06:47:15.449.07-Aug-2020 5088.01 3690.79 88.09 8.00 378.51 2671.45
   06:47:15.649.07-Aug-2020 5088.01 3691.00 88.09 8.00 378.71 2671.45
   06:47:15.849.07-Aug-2020 5088.01 3690.91 88.09 8.00 378.91 2671.45
   06:47:16.049.07-Aug-2020 5088.01 3690.92 88.09 8.00 379.11 2671.45
   06:47:16.249.07-Aug-2020 5088.01 3690.92 88.09 8.00 379.31 2671.45
   06:47:16.449.07-Aug-2020 5088.01 3690.90 88.09 8.00 379.51 2671.45
   06:47:16.649.07-Aug-2020 5088.01 3690.91 88.09 8.00 379.71 2671.45
   06:47:16.849.07-Aug-2020 5088.01 3690.90 88.09 8.00 379.91 2671.45
   06:47:17.049.07-Aug-2020 5088.01 3690.92 88.09 8.00 380.11 2671.45
   06:47:17.249.07-Aug-2020 5088.01 3690.92 88.09 8.00 380.31 2671.45
   06:47:17.449.07-Aug-2020 5088.01 3690.89 88.09 8.00 380.51 2671.45
   06:47:17.650.07-Aug-2020 5088.01 3690.90 88.09 8.00 380.71 2671.45
   06:47:17.850.07-Aug-2020 5088.01 3690.89 88.09 8.00 380.91 2671.45
   06:47:18.050.07-Aug-2020 5088.01 3690.84 88.09 8.00 381.11 2671.45
   06:47:18.250.07-Aug-2020 5088.01 3690.84 88.09 8.00 381.31 2671.45
   06:47:18.450.07-Aug-2020 5088.01 3690.93 88.08 8.00 381.51 2671.45
   06:47:18.650.07-Aug-2020 5088.01 3690.86 88.08 8.00 381.71 2671.45
   06:47:18.850.07-Aug-2020 5088.01 3690.94 88.08 8.00 381.91 2671.45
   06:47:19.050.07-Aug-2020 5088.01 3690.85 88.08 8.00 382.11 2671.45
   06:47:19.250.07-Aug-2020 5088.01 3690.85 88.08 8.00 382.31 2671.45
   06:47:19.450.07-Aug-2020 5088.01 3690.93 88.08 8.00 382.51 2671.45
   06:47:19.650.07-Aug-2020 5088.01 3690.87 88.08 8.00 382.71 2671.45
   06:47:19.850.07-Aug-2020 5088.01 3690.94 88.08 8.00 382.91 2671.45
   06:47:20.050.07-Aug-2020 5088.01 3690.85 88.08 8.00 383.11 2671.45
   06:47:20.250.07-Aug-2020 5088.01 3690.85 88.08 8.00 383.31 2671.45
   06:47:20.450.07-Aug-2020 5088.01 3690.92 88.08 8.00 383.51 2671.45
   06:47:20.650.07-Aug-2020 5088.01 3690.86 88.08 8.00 383.71 2671.45
   06:47:20.850.07-Aug-2020 5088.01 3690.94 88.08 8.00 383.91 2671.45
   06:47:21.051.07-Aug-2020 5088.01 3690.85 88.08 8.00 384.11 2671.45
   06:47:21.251.07-Aug-2020 5088.01 3690.94 88.08 8.00 384.31 2671.45
   06:47:21.451.07-Aug-2020 5088.01 3690.93 88.08 8.00 384.51 2671.45
   06:47:21.651.07-Aug-2020 5088.01 3690.86 88.08 8.00 384.71 2671.45
   06:47:21.851.07-Aug-2020 5088.01 3690.93 88.08 8.00 384.91 2671.45
   06:47:22.051.07-Aug-2020 5088.01 3690.92 88.08 8.00 385.11 2671.45
   06:47:22.251.07-Aug-2020 5088.01 3690.92 88.08 8.00 385.31 2671.45
   06:47:22.451.07-Aug-2020 5088.01 3690.91 88.08 8.00 385.51 2671.45
   06:47:22.651.07-Aug-2020 5088.01 3690.90 88.07 8.00 385.71 2671.45
   06:47:22.851.07-Aug-2020 5088.01 3690.90 88.07 8.00 385.91 2671.45
   06:47:23.051.07-Aug-2020 5088.01 3690.90 88.07 8.00 386.11 2671.45
   06:47:23.251.07-Aug-2020 5088.01 3690.90 88.07 8.00 386.31 2671.45
   06:47:23.451.07-Aug-2020 5088.01 3690.90 88.07 8.00 386.51 2671.45
   06:47:23.651.07-Aug-2020 5088.01 3690.89 88.07 8.00 386.71 2671.45
   06:47:23.851.07-Aug-2020 5088.01 3690.74 88.07 8.00 386.91 2671.45
   06:47:24.051.07-Aug-2020 5088.01 3691.00 88.07 8.00 387.11 2671.45
   06:47:24.251.07-Aug-2020 5088.01 3691.00 88.07 8.00 387.31 2671.45
   06:47:24.452.07-Aug-2020 5088.01 3690.88 88.07 8.00 387.51 2671.45
   06:47:24.652.07-Aug-2020 5088.01 3690.92 88.07 8.00 387.71 2671.45
   06:47:24.852.07-Aug-2020 5088.01 3690.90 88.07 8.00 387.91 2671.45
   06:47:25.052.07-Aug-2020 5088.01 3690.90 88.07 8.00 388.11 2671.45
   06:47:25.252.07-Aug-2020 5088.01 3690.91 88.07 8.00 388.31 2671.45
   06:47:25.452.07-Aug-2020 5088.01 3690.88 88.07 8.00 388.51 2671.45
   06:47:25.652.07-Aug-2020 5088.01 3690.89 88.07 8.00 388.71 2671.45
   06:47:25.852.07-Aug-2020 5088.01 3690.90 88.07 8.00 388.91 2671.45
   06:47:26.052.07-Aug-2020 5088.01 3690.88 88.07 8.00 389.11 2671.45
   06:47:26.252.07-Aug-2020 5088.01 3690.88 88.07 8.00 389.31 2671.45
   06:47:26.452.07-Aug-2020 5088.01 3690.85 88.06 8.00 389.51 2671.45
   06:47:26.652.07-Aug-2020 5088.01 3690.88 88.06 8.00 389.71 2671.45
   06:47:26.852.07-Aug-2020 5088.01 3690.93 88.06 8.00 389.91 2671.45
   06:47:27.052.07-Aug-2020 5088.01 3690.86 88.06 8.00 390.11 2671.45
   06:47:27.252.07-Aug-2020 5088.01 3690.86 88.06 8.00 390.31 2671.45
   06:47:27.452.07-Aug-2020 5088.01 3690.84 88.06 8.00 390.51 2671.45
   06:47:27.652.07-Aug-2020 5088.01 3690.92 88.06 8.00 390.71 2671.45
   06:47:27.853.07-Aug-2020 5088.01 3690.92 88.06 8.00 390.91 2671.45
