~Version Information
 VERS.                  2.0:   CWLS log ASCII Standard -VERSION 2.0
 WRAP.                   NO:   One line per depth step
~Well Information Block
#MNEM.UNIT     VALUE/NAME     DESCRIPTION
#---------     -----------    ---------------------------
 STRT.S             09:21:48 07-Aug-20: START TIME 09:21:48 07-Aug-20
 STOP.S             09:29:41 07-Aug-20: STOP TIME  09:29:41 07-Aug-20
 STEP.S                   0.00: STEP TIME
 NULL.                 -999.25: NULL VALUE
 DFWT.                        :  DIST FWL TEXT
 DFST.                        :  DIST FSL TEXT
 DMF .             Drill Floor:  DRILL MEAS FROM
 STIM.      12.00.00 03-Jul-20:  START TIME
 DATE.      00.50.00 09-Aug-20:  END TIME
 SPUD.               03-Jul-20:  SPUD DATE
 NREF.                    Grid:  NORTH REFERENCE
 HPTY.       Minimum Curvature:  HOLE POS TYPE
 DMOD.             Drill Model:  DRILL MOD DESC
 SVYD.                  Survey:  SURVEY DESC
 ILTD.               Lithology:  INTERP LTH DESC
 FTOP.          Formation Tops:  FORM TOPS DESC
 PDAT.          Mean Sea Level:  PERMANENT DATUM
 FLD .                     ACG:  FIELD NAME
 CTRY.              Azerbaijan:  COUNTRY NAME
 WELL.                    E04x:  WELL NAME
 SRVC.          Turan Drilling:  CONTRACTOR
 COMP.     BP Exploration (Caspian Sea) Ltd.:  COMPANY
 SON .        AZ-XX-0906531346:  JOB NUMBER
 WTYP.                Deviated:  WELL TYPE
 MDS .        Operator Entered:  MAG DATA SOURCE
 UWI .                     N/A:  UNIQUE WELL IDENTIFIER
 API .                     N/A:  API NUMBER
 BASE.              Azerbaijan:  LOGGING EQUIPMENT BASE LOCATION
 REGN.                   EESSA:  REGION
 PROV.                    Baku:  PROVINCE
 STAT.                    Baku:  STATE NAME
 MWDS.                    Baku:  MWD SHOP
 JOBN.        AZ-XX-0906531346:  JOB TICKET NUMB
 RIG .                     DWG:  RIG NAME
 DOE .                     N/A:  DOE NUMBER
 DCON.         Sperry Drilling:  DIRECTNL CONTR
 UNIT.                     N/A:  LOGGING EQUIPMENT ID
 CNTY.                        :  COUNTY
 LOC .                        :  LOCATION
 LMF .             Drill Floor:  LOG MEASURED FROM
 TVDS.m                  43.16:  TVDSS CORRECTN
 LATI.deg                40.17:  LATITUDE
 LONG.deg                51.17:  LONGITUDE
 WHNS.m                  -0.12:  WELL HEAD N/S
 WHEW.m                  -5.41:  WELL HEAD E/W
 UTMX.m              514337.95:  UTM X
 UTMY.m             4448627.46:  UTM Y
 DFWL.m                   0.00:  DISTANCE FWL
 DFSL.m                   0.00:  DISTANCE FSL
 SDEP.m                3088.01:  START DEPTH
 TDD .m                5200.01:  TOTAL DEPTH (DRILLER)
 VSDR.deg               244.51:  VERT SEC DIRECT
 GVFD.g                   1.00:  GRAVITY FIELD
 MFLD.nT              50329.80:  MAGNETIC FIELD
 MDIP.deg                59.63:  MAGNETIC DIP
 MDEC.deg                 6.59:  MAGNETIC DECL
 GRDC.deg                 0.09:  GRID CORRECTION
 AZTC.deg                 6.50:  AZM TOTAL CORR
 EPD .m                   0.00:  ELEVATION
 EGL .m                   0.00:  GROUND ELEVATION
 WDMS.m                 176.20:  WD ELEV
 APD .m                  43.16:  DEPTH ABOVE PD
 DEP .m                3084.71:  DEPTH
 AGAP.m                  43.16:  AIR GAP
 VSEW.m                  -5.41:  VERT SEC E/W
 VSNS.m                  -0.12:  VERT SEC N/S
 EKB .m                   0.00:  KB ELEVATION
 EDF .m                  43.16:  DF ELEVATION
 TDL .m                 243.00:  TOTAL DEPTH (LOGGER)
 VSC .                       0:  VS TO CLOSURE
 MAGU.                 1853542:  MAGUTM CHECKSUM
~Parameter Information Block
#MNEM.UNIT       Value        Description
#---------     -----------    ---------------------------
 AV  .mps                 1.91:  Ann Velocity 
 AVMX.mps                 2.52:  Max Ann Veloc 
 AZIF.deg               308.97:  Azm, Final 
 BHAT.        Rotary Steerable:  BHA Type 
 BROT.∞/30m               1.00:  Build Rotating 
 BS  .in                  6.50:  Bit Size 
 BSZ .in                  6.50:  Bit Size 
 BTPL.psig              350.00:  Bit Press Loss 
 CABU.                      No:  Customer Abuse 
 CGEO.           Asif Pashayev:  Customer Geo 
 COMM.                     ,[Å:  Run Comments 1 
 TCS .hr                 35.86:  Time Ciculation Ended 
 CV  .mps                 2.31:  Crit Velocity 
 CVMX.mps                 2.31:  Max Crit Veloc 
 DD1 .         Intigam Rahimov:  Direct Drillr 1 
 DDSV.               Geo-Pilot:  DD Service 
 DEFF.%                  92.00:  % Det Eff 
 DLRX.∞/30m               1.00:  Dogleg Rot Max 
 DLSO.∞/30m               1.00:  Dogleg Oriented 
 DLSX.∞/30m               1.42:  Dogleg Str Max 
 DRET.      15.50.00 07-Aug-20:  Drill End Time 
 DRST.      10.40.00 06-Aug-20:  Drill Start Tim 
 DTIM.hr                 21.30:  Time Drilling 
 EDEP.m                5200.01:  End Depth 
 ENG1.            Alan Tuganov:  Engineer 1 
 ENG2.         Almaz Almadatov:  Engineer 2 
 ENG3.     Zammelal Abdullah Sani:  Engineer 3 
 ETIM.      22.42.00 08-Aug-20:  End Time 
 FLOI.gpm               395.00:  Flow In 
 FLON.gpm               350.00:  Flow In Min 
 FLOS.cptm                0.00:  Fluid Loss 
 FLOX.gpm               404.00:  Flow In Max 
 FTRO.       Formation Presure:  FTWD Run Obj 
 HFLO.                      No:  High Flow 
 HPRE.                      No:  High Pressure 
 HTEM.                      No:  High Temp 
 HYDO.m                   1.80:  Hydro Offset 
 IFIN.deg                72.64:  Inc, Final 
 IMAX.deg                73.68:  Inc Max 
 IMIN.deg                72.64:  Inc Min 
 IMND.m                5189.69:  Inc Min Depth 
 IMXD.m                5067.88:  Inc Max Depth 
 JARR.                      No:  Jarring 
 LETM.      15.50.00 07-Aug-20:  Log End Time 
 LOST.hr                     0:  Lost Rig Time 
 LSTM.      10.40.00 06-Aug-20:  Log Start Time 
 MDCL.ppm             36000.00:  Mud Chlorides 
 MDES.     Inversion Oil/Synthetic:  Mud Desc 
 DFD .sg                  1.36:  Mud Density 
 MDMN.sg                  1.36:  Dens Mud Min 
 MDMX.sg                  1.36:  Dens Mud Max 
 MOIL.                      70:  Run Mud Oil % 
 MOWR.                   70:30:  Run Mud OWR 
 MSND.                    0.00:  Run Mud Sand % 
 MSOL.                   17.60:  Run Mud Solids% 
 DFV .spqt               73.00:  Mud Viscosity 
 MWOD.in                  4.75:  MWD Tool OD 
 MWSI.                      No:  Serv Intrp, MWD 
 OTIM.hr                 85.66:  Time Operating 
 PCON.           Look Like New:  Pad Condition 
 PMAX.psia             6250.00:  Press Op, Max 
 PV  .cP                 65.00:  Mud PV 
 RUN .                     900:  Run Number 
 ROPA.m/hr               11.40:  ROP Avg 
 ROPN.m/hr                5.00:  ROP Min 
 ROPX.m/hr               20.00:  ROP Max 
 RPMA.rpm               130.00:  RPM Surface Avg 
 RPMN.rpm                40.00:  RPM Surface Min 
 RPMX.rpm               140.00:  RPM Surface Max 
 RRUN.                    L205:  Rig Run Number 
 RTIM.hr                  1.00:  Time Reaming 
 SAZI.deg               313.52:  Azm, Start 
 SDEP.m                4957.01:  Start Depth 
 SIDD.                      No:  Serv Intrp, DD 
 SINC.deg                73.16:  Inc, Start 
 SPPA.psig             5657.00:  SPP Avg 
 SPPN.psig             2500.00:  SPP Min 
 SPPX.psig             5806.00:  SPP Max 
 STIM.      07.12.00 05-Aug-20:  Start Time 
 SVCS.                 DD, MWD:  Services 
 SVER.                    9.20:  Sperry Version 
 TDAT.m                 243.00:  Tot Depth Attmp 
 TDDF.                      No:  Trip for DD 
 TDLG.m                 243.00:  Tot Depth Loggd 
 TFF .                      No:  Trip for Fail 
 TQAA.f-kp               13.00:  Torque Abs Avg 
 TQAN.f-kp               11.00:  Torque Abs Min 
 TQAX.f-kp               16.00:  Torque Abs Max 
 TRRT.∞/30m               1.00:  Turn Rotating 
 MRT .                    HCIM:  Maximum Recorded Temperature 
 TTMX.degC               96.08:  Max Tool Temp 
 VS01.                90515411:  Virtual Str1 SN 
 VS02.                90512716:  Virtual Str2 SN 
 VS03.                90522362:  Virtual Str3 SN 
 VS04.                90619415:  Virtual Str4 SN 
 VS05.                90619414:  Virtual Str5 SN 
 VS06.                90597748:  Virtual Str6 SN 
 WBMN.klb                 2.00:  WOB Min 
 WITN.           Adil Mammadov:  Customer Rep 
 WITN.     Alexander Yadullayev:  Customer Rep 2 
 WOBA.klb                 7.00:  WOB Avg 
 WOBX.klb                23.00:  WOB Max 
 YP  .lhf2               37.00:  Yield Point 
~Curve Information Block
#MNEM.UNIT                 API CODE     Curve Description
#---------               -----------    ---------------------------
 TIME.HHMMSS            00 000 000 000:  GT Time & Date
 GTDEPTH.m              00 000 000 000:  GT Depth
 GTPQH.psia             00 000 000 000:  GT HR Quartz Pressure
 GTTQ.degC              00 000 000 000:  GT Quartz Temperature
 GTTN.NONE              00 000 000 000:  GT Test Number
 GTET.sec               00 000 000 000:  GT Elapsed Test Time
 GTTVD.m                00 000 000 000:  GT True Vertical Depth
#Other Information
#
#WARRANTY: Halliburton will use its best efforts to furnish customers with 
#accurate information and interpretations that are part of, and incident to, the services 
#provided.  However, Halliburton cannot and does not warrant the accuracy 
#or correctness of such information and interpretations.  Under no circumstances should any 
#such information or interpretation be relied upon as the sole basis for any drilling, 
#completion, production, or financial decision or any procedure involving any risk to the 
#safety of any drilling venture, drilling rig or its crew or any other third party.  The 
#Customer has full responsibility for all drilling, completion and production operation.  
#Halliburton makes no representations or warranties, either expressed or 
#implied, including, but not limited to, the implied warranties of merchantability or fitness 
#for a particular purpose, with respect to the services rendered.  In no event will 
#Halliburton be liable for failure to obtain any particular results or for 
#any damages, including, but not limited to, indirect, special or consequential damages, 
#resulting from the use of any information or interpretation provided by Halliburton.
#
~A           TIME           GTDEPTH  GTPQH  GTTQ  GTTN  GTET   GTTVD  
# ...
   09:26:47.485.07-Aug-2020 5109.01 3406.48 86.31 9.00 298.91 2677.54
   09:26:47.685.07-Aug-2020 5109.01 3406.48 86.31 9.00 299.11 2677.54
   09:26:47.884.07-Aug-2020 5109.01 3406.46 86.31 9.00 299.31 2677.54
   09:26:48.084.07-Aug-2020 5109.01 3406.46 86.31 9.00 299.51 2677.54
   09:26:48.284.07-Aug-2020 5109.01 3406.45 86.31 9.00 299.71 2677.54
   09:26:48.484.07-Aug-2020 5109.01 3406.46 86.31 9.00 299.91 2677.54
   09:26:48.684.07-Aug-2020 5109.01 3406.46 86.31 9.00 300.11 2677.54
   09:26:48.884.07-Aug-2020 5109.01 3406.45 86.31 9.00 300.31 2677.54
   09:26:49.084.07-Aug-2020 5109.01 3406.44 86.31 9.00 300.51 2677.54
   09:26:49.284.07-Aug-2020 5109.01 3403.91 86.31 9.00 300.71 2677.54
   09:26:49.484.07-Aug-2020 5109.01 3399.82 86.31 9.00 300.91 2677.54
   09:26:49.684.07-Aug-2020 5109.01 3399.89 86.31 9.00 301.11 2677.54
   09:26:49.884.07-Aug-2020 5109.01 3399.54 86.31 9.00 301.31 2677.54
   09:26:50.084.07-Aug-2020 5109.01 3399.93 86.31 9.00 301.51 2677.54
   09:26:50.284.07-Aug-2020 5109.01 3399.81 86.31 9.00 301.71 2677.54
   09:26:50.484.07-Aug-2020 5109.01 3399.64 86.31 9.00 301.91 2677.54
   09:26:50.684.07-Aug-2020 5109.01 3399.64 86.31 9.00 302.11 2677.54
   09:26:50.884.07-Aug-2020 5109.01 3399.71 86.31 9.00 302.31 2677.54
   09:26:51.084.07-Aug-2020 5109.01 3399.67 86.31 9.00 302.51 2677.54
   09:26:51.283.07-Aug-2020 5109.01 3399.64 86.31 9.00 302.71 2677.54
   09:26:51.483.07-Aug-2020 5109.01 3399.79 86.31 9.00 302.91 2677.54
   09:26:51.683.07-Aug-2020 5109.01 3399.79 86.31 9.00 303.11 2677.54
   09:26:51.883.07-Aug-2020 5109.01 3399.21 86.31 9.00 303.31 2677.54
   09:26:52.083.07-Aug-2020 5109.01 3399.90 86.30 9.00 303.51 2677.54
   09:26:52.283.07-Aug-2020 5109.01 3399.72 86.30 9.00 303.71 2677.54
   09:26:52.483.07-Aug-2020 5109.01 3399.50 86.30 9.00 303.91 2677.54
   09:26:52.683.07-Aug-2020 5109.01 3399.50 86.30 9.00 304.11 2677.54
   09:26:52.883.07-Aug-2020 5109.01 3399.71 86.30 9.00 304.31 2677.54
   09:26:53.083.07-Aug-2020 5109.01 3399.37 86.30 9.00 304.51 2677.54
   09:26:53.283.07-Aug-2020 5109.01 3399.73 86.30 9.00 304.71 2677.54
   09:26:53.483.07-Aug-2020 5109.01 3399.65 86.30 9.00 304.91 2677.54
   09:26:53.683.07-Aug-2020 5109.01 3399.65 86.30 9.00 305.11 2677.54
   09:26:53.883.07-Aug-2020 5109.01 3399.62 86.30 9.00 305.31 2677.54
   09:26:54.083.07-Aug-2020 5109.01 3399.56 86.30 9.00 305.51 2677.54
   09:26:54.283.07-Aug-2020 5109.01 3399.57 86.30 9.00 305.71 2677.54
   09:26:54.482.07-Aug-2020 5109.01 3399.60 86.30 9.00 305.91 2677.54
   09:26:54.682.07-Aug-2020 5109.01 3399.60 86.30 9.00 306.11 2677.54
   09:26:54.882.07-Aug-2020 5109.01 3399.54 86.30 9.00 306.31 2677.54
   09:26:55.082.07-Aug-2020 5109.01 3399.63 86.30 9.00 306.51 2677.54
   09:26:55.282.07-Aug-2020 5109.01 3399.53 86.30 9.00 306.71 2677.54
   09:26:55.482.07-Aug-2020 5109.01 3399.46 86.30 9.00 306.91 2677.54
   09:26:55.682.07-Aug-2020 5109.01 3399.46 86.30 9.00 307.11 2677.54
   09:26:55.882.07-Aug-2020 5109.01 3399.57 86.30 9.00 307.31 2677.54
   09:26:56.082.07-Aug-2020 5109.01 3399.73 86.30 9.00 307.51 2677.54
   09:26:56.282.07-Aug-2020 5109.01 3399.46 86.30 9.00 307.71 2677.54
   09:26:56.482.07-Aug-2020 5109.01 3399.66 86.30 9.00 307.91 2677.54
   09:26:56.682.07-Aug-2020 5109.01 3399.66 86.30 9.00 308.11 2677.54
   09:26:56.882.07-Aug-2020 5109.01 3399.55 86.30 9.00 308.31 2677.54
   09:26:57.082.07-Aug-2020 5109.01 3399.61 86.30 9.00 308.51 2677.54
   09:26:57.282.07-Aug-2020 5109.01 3399.60 86.30 9.00 308.71 2677.54
   09:26:57.482.07-Aug-2020 5109.01 3399.55 86.30 9.00 308.91 2677.54
   09:26:57.682.07-Aug-2020 5109.01 3399.63 86.30 9.00 309.11 2677.54
   09:26:57.881.07-Aug-2020 5109.01 3399.54 86.30 9.00 309.31 2677.54
   09:26:58.081.07-Aug-2020 5109.01 3399.58 86.30 9.00 309.51 2677.54
   09:26:58.281.07-Aug-2020 5109.01 3399.56 86.30 9.00 309.71 2677.54
   09:26:58.481.07-Aug-2020 5109.01 3399.11 86.30 9.00 309.91 2677.54
   09:26:58.681.07-Aug-2020 5109.01 3399.11 86.30 9.00 310.11 2677.54
   09:26:58.881.07-Aug-2020 5109.01 3399.74 86.29 9.00 310.31 2677.54
   09:26:59.081.07-Aug-2020 5109.01 3399.46 86.29 9.00 310.51 2677.54
   09:26:59.281.07-Aug-2020 5109.01 3399.20 86.29 9.00 310.71 2677.54
   09:26:59.481.07-Aug-2020 5109.01 3405.74 86.29 9.00 310.91 2677.54
   09:26:59.681.07-Aug-2020 5109.01 3405.74 86.29 9.00 311.11 2677.54
   09:26:59.881.07-Aug-2020 5109.01 3406.27 86.29 9.00 311.31 2677.54
   09:27:00.081.07-Aug-2020 5109.01 3406.35 86.29 9.00 311.51 2677.54
   09:27:00.281.07-Aug-2020 5109.01 3406.28 86.29 9.00 311.71 2677.54
   09:27:00.481.07-Aug-2020 5109.01 3406.35 86.29 9.00 311.91 2677.54
   09:27:00.681.07-Aug-2020 5109.01 3406.35 86.29 9.00 312.11 2677.54
   09:27:00.881.07-Aug-2020 5109.01 3406.38 86.29 9.00 312.31 2677.54
   09:27:01.081.07-Aug-2020 5109.01 3406.40 86.29 9.00 312.51 2677.54
   09:27:01.280.07-Aug-2020 5109.01 3406.41 86.29 9.00 312.71 2677.54
   09:27:01.480.07-Aug-2020 5109.01 3406.29 86.29 9.00 312.91 2677.54
   09:27:01.680.07-Aug-2020 5109.01 3406.46 86.29 9.00 313.11 2677.54
   09:27:01.880.07-Aug-2020 5109.01 3406.44 86.29 9.00 313.31 2677.54
   09:27:02.080.07-Aug-2020 5109.01 3406.37 86.29 9.00 313.51 2677.54
   09:27:02.280.07-Aug-2020 5109.01 3406.44 86.29 9.00 313.71 2677.54
   09:27:02.480.07-Aug-2020 5109.01 3406.43 86.29 9.00 313.91 2677.54
   09:27:02.680.07-Aug-2020 5109.01 3406.43 86.29 9.00 314.11 2677.54
   09:27:02.880.07-Aug-2020 5109.01 3406.43 86.29 9.00 314.31 2677.54
   09:27:03.080.07-Aug-2020 5109.01 3406.43 86.29 9.00 314.51 2677.54
   09:27:03.280.07-Aug-2020 5109.01 3406.41 86.29 9.00 314.71 2677.54
   09:27:03.480.07-Aug-2020 5109.01 3406.43 86.29 9.00 314.91 2677.54
   09:27:03.680.07-Aug-2020 5109.01 3406.43 86.29 9.00 315.11 2677.54
   09:27:03.880.07-Aug-2020 5109.01 3406.42 86.29 9.00 315.31 2677.54
   09:27:04.080.07-Aug-2020 5109.01 3406.41 86.29 9.00 315.50 2677.54
   09:27:04.280.07-Aug-2020 5109.01 3406.34 86.29 9.00 315.70 2677.54
   09:27:04.479.07-Aug-2020 5109.01 3406.45 86.29 9.00 315.90 2677.54
   09:27:04.679.07-Aug-2020 5109.01 3406.45 86.29 9.00 316.10 2677.54
   09:27:04.879.07-Aug-2020 5109.01 3406.42 86.29 9.00 316.30 2677.54
   09:27:05.079.07-Aug-2020 5109.01 3406.45 86.29 9.00 316.50 2677.54
   09:27:05.279.07-Aug-2020 5109.01 3406.44 86.29 9.00 316.70 2677.54
   09:27:05.479.07-Aug-2020 5109.01 3406.43 86.29 9.00 316.90 2677.54
   09:27:05.679.07-Aug-2020 5109.01 3406.43 86.29 9.00 317.10 2677.54
   09:27:05.879.07-Aug-2020 5109.01 3406.43 86.28 9.00 317.30 2677.54
   09:27:06.079.07-Aug-2020 5109.01 3406.44 86.28 9.00 317.50 2677.54
   09:27:06.279.07-Aug-2020 5109.01 3406.42 86.28 9.00 317.70 2677.54
   09:27:06.479.07-Aug-2020 5109.01 3406.42 86.28 9.00 317.90 2677.54
   09:27:06.679.07-Aug-2020 5109.01 3406.42 86.28 9.00 318.10 2677.54
   09:27:06.879.07-Aug-2020 5109.01 3406.36 86.28 9.00 318.30 2677.54
   09:27:07.079.07-Aug-2020 5109.01 3406.45 86.28 9.00 318.50 2677.54
   09:27:07.279.07-Aug-2020 5109.01 3406.43 86.28 9.00 318.70 2677.54
   09:27:07.479.07-Aug-2020 5109.01 3406.39 86.28 9.00 318.90 2677.54
   09:27:07.679.07-Aug-2020 5109.01 3406.39 86.28 9.00 319.10 2677.54
   09:27:07.878.07-Aug-2020 5109.01 3406.54 86.28 9.00 319.30 2677.54
   09:27:08.078.07-Aug-2020 5109.01 3406.46 86.28 9.00 319.50 2677.54
   09:27:08.278.07-Aug-2020 5109.01 3406.38 86.28 9.00 319.70 2677.54
   09:27:08.478.07-Aug-2020 5109.01 3406.48 86.28 9.00 319.90 2677.54
   09:27:08.678.07-Aug-2020 5109.01 3406.48 86.28 9.00 320.10 2677.54
   09:27:08.878.07-Aug-2020 5109.01 3406.36 86.28 9.00 320.30 2677.54
   09:27:09.078.07-Aug-2020 5109.01 3406.44 86.28 9.00 320.50 2677.54
   09:27:09.278.07-Aug-2020 5109.01 3406.45 86.28 9.00 320.70 2677.54
   09:27:09.478.07-Aug-2020 5109.01 3406.38 86.28 9.00 320.90 2677.54
   09:27:09.678.07-Aug-2020 5109.01 3406.44 86.28 9.00 321.10 2677.54
   09:27:09.878.07-Aug-2020 5109.01 3406.43 86.28 9.00 321.30 2677.54
   09:27:10.078.07-Aug-2020 5109.01 3406.42 86.28 9.00 321.50 2677.54
   09:27:10.278.07-Aug-2020 5109.01 3406.45 86.28 9.00 321.70 2677.54
