~Version Information
 VERS.                  2.0:   CWLS log ASCII Standard -VERSION 2.0
 WRAP.                   NO:   One line per depth step
~Well Information Block
#MNEM.UNIT     VALUE/NAME     DESCRIPTION
#---------     -----------    ---------------------------
 STRT.S             06:40:56 07-Aug-20: START TIME 06:40:56 07-Aug-20
 STOP.S             06:48:48 07-Aug-20: STOP TIME  06:48:48 07-Aug-20
 STEP.S                   0.00: STEP TIME
 NULL.                 -999.25: NULL VALUE
 DFWT.                        :  DIST FWL TEXT
 DFST.                        :  DIST FSL TEXT
 DMF .             Drill Floor:  DRILL MEAS FROM
 STIM.      12.00.00 03-Jul-20:  START TIME
 DATE.      00.50.00 09-Aug-20:  END TIME
 SPUD.               03-Jul-20:  SPUD DATE
 NREF.                    Grid:  NORTH REFERENCE
 HPTY.       Minimum Curvature:  HOLE POS TYPE
 DMOD.             Drill Model:  DRILL MOD DESC
 SVYD.                  Survey:  SURVEY DESC
 ILTD.               Lithology:  INTERP LTH DESC
 FTOP.          Formation Tops:  FORM TOPS DESC
 PDAT.          Mean Sea Level:  PERMANENT DATUM
 FLD .                     ACG:  FIELD NAME
 CTRY.              Azerbaijan:  COUNTRY NAME
 WELL.                    E04x:  WELL NAME
 SRVC.          Turan Drilling:  CONTRACTOR
 COMP.     BP Exploration (Caspian Sea) Ltd.:  COMPANY
 SON .        AZ-XX-0906531346:  JOB NUMBER
 WTYP.                Deviated:  WELL TYPE
 MDS .        Operator Entered:  MAG DATA SOURCE
 UWI .                     N/A:  UNIQUE WELL IDENTIFIER
 API .                     N/A:  API NUMBER
 BASE.              Azerbaijan:  LOGGING EQUIPMENT BASE LOCATION
 REGN.                   EESSA:  REGION
 PROV.                    Baku:  PROVINCE
 STAT.                    Baku:  STATE NAME
 MWDS.                    Baku:  MWD SHOP
 JOBN.        AZ-XX-0906531346:  JOB TICKET NUMB
 RIG .                     DWG:  RIG NAME
 DOE .                     N/A:  DOE NUMBER
 DCON.         Sperry Drilling:  DIRECTNL CONTR
 UNIT.                     N/A:  LOGGING EQUIPMENT ID
 CNTY.                        :  COUNTY
 LOC .                        :  LOCATION
 LMF .             Drill Floor:  LOG MEASURED FROM
 TVDS.m                  43.16:  TVDSS CORRECTN
 LATI.deg                40.17:  LATITUDE
 LONG.deg                51.17:  LONGITUDE
 WHNS.m                  -0.12:  WELL HEAD N/S
 WHEW.m                  -5.41:  WELL HEAD E/W
 UTMX.m              514337.95:  UTM X
 UTMY.m             4448627.46:  UTM Y
 DFWL.m                   0.00:  DISTANCE FWL
 DFSL.m                   0.00:  DISTANCE FSL
 SDEP.m                3088.01:  START DEPTH
 TDD .m                5200.01:  TOTAL DEPTH (DRILLER)
 VSDR.deg               244.51:  VERT SEC DIRECT
 GVFD.g                   1.00:  GRAVITY FIELD
 MFLD.nT              50329.80:  MAGNETIC FIELD
 MDIP.deg                59.63:  MAGNETIC DIP
 MDEC.deg                 6.59:  MAGNETIC DECL
 GRDC.deg                 0.09:  GRID CORRECTION
 AZTC.deg                 6.50:  AZM TOTAL CORR
 EPD .m                   0.00:  ELEVATION
 EGL .m                   0.00:  GROUND ELEVATION
 WDMS.m                 176.20:  WD ELEV
 APD .m                  43.16:  DEPTH ABOVE PD
 DEP .m                3084.71:  DEPTH
 AGAP.m                  43.16:  AIR GAP
 VSEW.m                  -5.41:  VERT SEC E/W
 VSNS.m                  -0.12:  VERT SEC N/S
 EKB .m                   0.00:  KB ELEVATION
 EDF .m                  43.16:  DF ELEVATION
 TDL .m                 243.00:  TOTAL DEPTH (LOGGER)
 VSC .                       0:  VS TO CLOSURE
 MAGU.                 1853542:  MAGUTM CHECKSUM
~Parameter Information Block
#MNEM.UNIT       Value        Description
#---------     -----------    ---------------------------
 AV  .mps                 1.91:  Ann Velocity 
 AVMX.mps                 2.52:  Max Ann Veloc 
 AZIF.deg               308.97:  Azm, Final 
 BHAT.        Rotary Steerable:  BHA Type 
 BROT.°/30m               1.00:  Build Rotating 
 BS  .in                  6.50:  Bit Size 
 BSZ .in                  6.50:  Bit Size 
 BTPL.psig              350.00:  Bit Press Loss 
 CABU.                      No:  Customer Abuse 
 CGEO.           Asif Pashayev:  Customer Geo 
 TCS .hr                 35.86:  Time Ciculation Ended 
 CV  .mps                 2.31:  Crit Velocity 
 CVMX.mps                 2.31:  Max Crit Veloc 
 DD1 .         Intigam Rahimov:  Direct Drillr 1 
 DDSV.               Geo-Pilot:  DD Service 
 DEFF.%                  92.00:  % Det Eff 
 DLRX.°/30m               1.00:  Dogleg Rot Max 
 DLSO.°/30m               1.00:  Dogleg Oriented 
 DLSX.°/30m               1.42:  Dogleg Str Max 
 DRET.      15.50.00 07-Aug-20:  Drill End Time 
 DRST.      10.40.00 06-Aug-20:  Drill Start Tim 
 DTIM.hr                 21.30:  Time Drilling 
 EDEP.m                5200.01:  End Depth 
 ENG1.            Alan Tuganov:  Engineer 1 
 ENG2.         Almaz Almadatov:  Engineer 2 
 ENG3.     Zammelal Abdullah Sani:  Engineer 3 
 ETIM.      22.42.00 08-Aug-20:  End Time 
 FLOI.gpm               395.00:  Flow In 
 FLON.gpm               350.00:  Flow In Min 
 FLOS.cptm                0.00:  Fluid Loss 
 FLOX.gpm               404.00:  Flow In Max 
 FTRO.       Formation Presure:  FTWD Run Obj 
 HFLO.                      No:  High Flow 
 HPRE.                      No:  High Pressure 
 HTEM.                      No:  High Temp 
 HYDO.m                   1.80:  Hydro Offset 
 IFIN.deg                72.64:  Inc, Final 
 IMAX.deg                73.68:  Inc Max 
 IMIN.deg                72.64:  Inc Min 
 IMND.m                5189.69:  Inc Min Depth 
 IMXD.m                5067.88:  Inc Max Depth 
 JARR.                      No:  Jarring 
 LETM.      15.50.00 07-Aug-20:  Log End Time 
 LOST.hr                     0:  Lost Rig Time 
 LSTM.      10.40.00 06-Aug-20:  Log Start Time 
 MDCL.ppm             36000.00:  Mud Chlorides 
 MDES.     Inversion Oil/Synthetic:  Mud Desc 
 DFD .sg                  1.36:  Mud Density 
 MDMN.sg                  1.36:  Dens Mud Min 
 MDMX.sg                  1.36:  Dens Mud Max 
 MOIL.                      70:  Run Mud Oil % 
 MOWR.                   70:30:  Run Mud OWR 
 MSND.                    0.00:  Run Mud Sand % 
 MSOL.                   17.60:  Run Mud Solids% 
 DFV .spqt               73.00:  Mud Viscosity 
 MWOD.in                  4.75:  MWD Tool OD 
 MWSI.                      No:  Serv Intrp, MWD 
 OTIM.hr                 85.66:  Time Operating 
 PCON.           Look Like New:  Pad Condition 
 PMAX.psia             6250.00:  Press Op, Max 
 PV  .cP                 65.00:  Mud PV 
 RUN .                     900:  Run Number 
 ROPA.m/hr               11.40:  ROP Avg 
 ROPN.m/hr                5.00:  ROP Min 
 ROPX.m/hr               20.00:  ROP Max 
 RPMA.rpm               130.00:  RPM Surface Avg 
 RPMN.rpm                40.00:  RPM Surface Min 
 RPMX.rpm               140.00:  RPM Surface Max 
 RRUN.                    L205:  Rig Run Number 
 RTIM.hr                  1.00:  Time Reaming 
 SAZI.deg               313.52:  Azm, Start 
 SDEP.m                4957.01:  Start Depth 
 SIDD.                      No:  Serv Intrp, DD 
 SINC.deg                73.16:  Inc, Start 
 SPPA.psig             5657.00:  SPP Avg 
 SPPN.psig             2500.00:  SPP Min 
 SPPX.psig             5806.00:  SPP Max 
 STIM.      07.12.00 05-Aug-20:  Start Time 
 SVCS.                 DD, MWD:  Services 
 SVER.                    9.20:  Sperry Version 
 TDAT.m                 243.00:  Tot Depth Attmp 
 TDDF.                      No:  Trip for DD 
 TDLG.m                 243.00:  Tot Depth Loggd 
 TFF .                      No:  Trip for Fail 
 TQAA.f-kp               13.00:  Torque Abs Avg 
 TQAN.f-kp               11.00:  Torque Abs Min 
 TQAX.f-kp               16.00:  Torque Abs Max 
 TRRT.°/30m               1.00:  Turn Rotating 
 MRT .                    HCIM:  Maximum Recorded Temperature 
 TTMX.degC               96.08:  Max Tool Temp 
 VS01.                90515411:  Virtual Str1 SN 
 VS02.                90512716:  Virtual Str2 SN 
 VS03.                90522362:  Virtual Str3 SN 
 VS04.                90619415:  Virtual Str4 SN 
 VS05.                90619414:  Virtual Str5 SN 
 VS06.                90597748:  Virtual Str6 SN 
 WBMN.klb                 2.00:  WOB Min 
 WITN.           Adil Mammadov:  Customer Rep 
 WITN.     Alexander Yadullayev:  Customer Rep 2 
 WOBA.klb                 7.00:  WOB Avg 
 WOBX.klb                23.00:  WOB Max 
 YP  .lhf2               37.00:  Yield Point 
~Curve Information Block
#MNEM.UNIT                 API CODE     Curve Description
#---------               -----------    ---------------------------
 TIME.HHMMSS            00 000 000 000:  GT Time & Date
 GTDEPTH.m              00 000 000 000:  GT Depth
 GTPQH.psia             00 000 000 000:  GT HR Quartz Pressure
 GTTQ.degC              00 000 000 000:  GT Quartz Temperature
 GTTN.NONE              00 000 000 000:  GT Test Number
 GTET.sec               00 000 000 000:  GT Elapsed Test Time
 GTTVD.m                00 000 000 000:  GT True Vertical Depth
#Other Information
#
#WARRANTY: Halliburton will use its best efforts to furnish customers with 
#accurate information and interpretations that are part of, and incident to, the services 
#provided.  However, Halliburton cannot and does not warrant the accuracy 
#or correctness of such information and interpretations.  Under no circumstances should any 
#such information or interpretation be relied upon as the sole basis for any drilling, 
#completion, production, or financial decision or any procedure involving any risk to the 
#safety of any drilling venture, drilling rig or its crew or any other third party.  The 
#Customer has full responsibility for all drilling, completion and production operation.  
#Halliburton makes no representations or warranties, either expressed or 
#implied, including, but not limited to, the implied warranties of merchantability or fitness 
#for a particular purpose, with respect to the services rendered.  In no event will 
#Halliburton be liable for failure to obtain any particular results or for 
#any damages, including, but not limited to, indirect, special or consequential damages, 
#resulting from the use of any information or interpretation provided by Halliburton.
#
~A           TIME           GTDEPTH  GTPQH  GTTQ  GTTN  GTET   GTTVD  
# ...
   06:44:00.992.07-Aug-2020 5088.01 3691.14 88.61 8.00 184.05 2671.45
   06:44:01.192.07-Aug-2020 5088.01 3691.13 88.61 8.00 184.25 2671.45
   06:44:01.393.07-Aug-2020 5088.01 3691.12 88.61 8.00 184.45 2671.45
   06:44:01.593.07-Aug-2020 5088.01 3691.13 88.61 8.00 184.65 2671.45
   06:44:01.793.07-Aug-2020 5088.01 3691.12 88.61 8.00 184.85 2671.45
   06:44:01.993.07-Aug-2020 5088.01 3691.07 88.61 8.00 185.05 2671.45
   06:44:02.193.07-Aug-2020 5088.01 3691.07 88.61 8.00 185.25 2671.45
   06:44:02.393.07-Aug-2020 5088.01 3691.11 88.61 8.00 185.45 2671.45
   06:44:02.593.07-Aug-2020 5088.01 3691.15 88.61 8.00 185.65 2671.45
   06:44:02.793.07-Aug-2020 5088.01 3691.14 88.61 8.00 185.85 2671.45
   06:44:02.993.07-Aug-2020 5088.01 3691.11 88.61 8.00 186.05 2671.45
   06:44:03.193.07-Aug-2020 5088.01 3691.11 88.61 8.00 186.25 2671.45
   06:44:03.393.07-Aug-2020 5088.01 3691.12 88.61 8.00 186.45 2671.45
   06:44:03.593.07-Aug-2020 5088.01 3691.12 88.61 8.00 186.65 2671.45
   06:44:03.793.07-Aug-2020 5088.01 3691.11 88.61 8.00 186.85 2671.45
   06:44:03.993.07-Aug-2020 5088.01 3691.13 88.61 8.00 187.05 2671.45
   06:44:04.193.07-Aug-2020 5088.01 3691.13 88.61 8.00 187.25 2671.45
   06:44:04.393.07-Aug-2020 5088.01 3691.12 88.60 8.00 187.45 2671.45
   06:44:04.593.07-Aug-2020 5088.01 3691.04 88.60 8.00 187.65 2671.45
   06:44:04.794.07-Aug-2020 5088.01 3691.17 88.60 8.00 187.85 2671.45
   06:44:04.994.07-Aug-2020 5088.01 3691.11 88.60 8.00 188.05 2671.45
   06:44:05.194.07-Aug-2020 5088.01 3691.08 88.60 8.00 188.25 2671.45
   06:44:05.394.07-Aug-2020 5088.01 3691.14 88.60 8.00 188.45 2671.45
   06:44:05.594.07-Aug-2020 5088.01 3691.04 88.60 8.00 188.65 2671.45
   06:44:05.794.07-Aug-2020 5088.01 3691.16 88.60 8.00 188.85 2671.45
   06:44:05.994.07-Aug-2020 5088.01 3691.15 88.60 8.00 189.05 2671.45
   06:44:06.194.07-Aug-2020 5088.01 3691.15 88.60 8.00 189.25 2671.45
   06:44:06.394.07-Aug-2020 5088.01 3691.14 88.60 8.00 189.46 2671.45
   06:44:06.594.07-Aug-2020 5088.01 3691.09 88.60 8.00 189.66 2671.45
   06:44:06.794.07-Aug-2020 5088.01 3691.10 88.60 8.00 189.86 2671.45
   06:44:06.994.07-Aug-2020 5088.01 3691.16 88.60 8.00 190.06 2671.45
   06:44:07.194.07-Aug-2020 5088.01 3691.16 88.60 8.00 190.26 2671.45
   06:44:07.394.07-Aug-2020 5088.01 3691.15 88.60 8.00 190.46 2671.45
   06:44:07.594.07-Aug-2020 5088.01 3690.98 88.59 8.00 190.66 2671.45
   06:44:07.794.07-Aug-2020 5088.01 3691.22 88.59 8.00 190.86 2671.45
   06:44:07.994.07-Aug-2020 5088.01 3691.14 88.59 8.00 191.06 2671.45
   06:44:08.195.07-Aug-2020 5088.01 3691.13 88.59 8.00 191.26 2671.45
   06:44:08.395.07-Aug-2020 5088.01 3691.12 88.59 8.00 191.46 2671.45
   06:44:08.595.07-Aug-2020 5088.01 3691.14 88.59 8.00 191.66 2671.45
   06:44:08.795.07-Aug-2020 5088.01 3691.12 88.59 8.00 191.86 2671.45
   06:44:08.995.07-Aug-2020 5088.01 3691.13 88.59 8.00 192.06 2671.45
   06:44:09.195.07-Aug-2020 5088.01 3691.10 88.59 8.00 192.26 2671.45
   06:44:09.395.07-Aug-2020 5088.01 3691.12 88.59 8.00 192.46 2671.45
   06:44:09.595.07-Aug-2020 5088.01 3691.11 88.59 8.00 192.66 2671.45
   06:44:09.795.07-Aug-2020 5088.01 3691.12 88.59 8.00 192.86 2671.45
   06:44:09.995.07-Aug-2020 5088.01 3691.10 88.59 8.00 193.06 2671.45
   06:44:10.195.07-Aug-2020 5088.01 3691.11 88.59 8.00 193.26 2671.45
   06:44:10.395.07-Aug-2020 5088.01 3691.05 88.59 8.00 193.46 2671.45
   06:44:10.595.07-Aug-2020 5088.01 3691.14 88.59 8.00 193.66 2671.45
   06:44:10.795.07-Aug-2020 5088.01 3691.10 88.59 8.00 193.86 2671.45
   06:44:10.995.07-Aug-2020 5088.01 3691.15 88.58 8.00 194.06 2671.45
   06:44:11.195.07-Aug-2020 5088.01 3691.12 88.58 8.00 194.26 2671.45
   06:44:11.395.07-Aug-2020 5088.01 3691.11 88.58 8.00 194.46 2671.45
   06:44:11.596.07-Aug-2020 5088.01 3691.11 88.58 8.00 194.66 2671.45
   06:44:11.796.07-Aug-2020 5088.01 3691.11 88.58 8.00 194.86 2671.45
   06:44:11.996.07-Aug-2020 5088.01 3691.11 88.58 8.00 195.06 2671.45
   06:44:12.196.07-Aug-2020 5088.01 3691.11 88.58 8.00 195.26 2671.45
   06:44:12.396.07-Aug-2020 5088.01 3691.11 88.58 8.00 195.46 2671.45
   06:44:12.596.07-Aug-2020 5088.01 3691.10 88.58 8.00 195.66 2671.45
   06:44:12.796.07-Aug-2020 5088.01 3691.10 88.58 8.00 195.86 2671.45
   06:44:12.996.07-Aug-2020 5088.01 3691.00 88.58 8.00 196.06 2671.45
   06:44:13.196.07-Aug-2020 5088.01 3691.15 88.58 8.00 196.26 2671.45
   06:44:13.396.07-Aug-2020 5088.01 3691.13 88.58 8.00 196.46 2671.45
   06:44:13.596.07-Aug-2020 5088.01 3691.10 88.58 8.00 196.66 2671.45
   06:44:13.796.07-Aug-2020 5088.01 3691.11 88.58 8.00 196.86 2671.45
   06:44:13.996.07-Aug-2020 5088.01 3690.99 88.58 8.00 197.06 2671.45
   06:44:14.196.07-Aug-2020 5088.01 3690.99 88.58 8.00 197.26 2671.45
   06:44:14.396.07-Aug-2020 5088.01 3691.17 88.58 8.00 197.46 2671.45
   06:44:14.596.07-Aug-2020 5088.01 3691.08 88.57 8.00 197.66 2671.45
   06:44:14.796.07-Aug-2020 5088.01 3691.14 88.57 8.00 197.86 2671.45
   06:44:14.996.07-Aug-2020 5088.01 3691.05 88.57 8.00 198.06 2671.45
   06:44:15.197.07-Aug-2020 5088.01 3691.05 88.57 8.00 198.26 2671.45
   06:44:15.397.07-Aug-2020 5088.01 3691.12 88.57 8.00 198.46 2671.45
   06:44:15.597.07-Aug-2020 5088.01 3691.07 88.57 8.00 198.66 2671.45
   06:44:15.797.07-Aug-2020 5088.01 3691.12 88.57 8.00 198.86 2671.45
   06:44:15.997.07-Aug-2020 5088.01 3691.01 88.57 8.00 199.06 2671.45
   06:44:16.197.07-Aug-2020 5088.01 3691.01 88.57 8.00 199.26 2671.45
   06:44:16.397.07-Aug-2020 5088.01 3691.12 88.57 8.00 199.46 2671.45
   06:44:16.597.07-Aug-2020 5088.01 3691.11 88.57 8.00 199.66 2671.45
   06:44:16.797.07-Aug-2020 5088.01 3691.13 88.57 8.00 199.86 2671.45
   06:44:16.997.07-Aug-2020 5088.01 3691.12 88.57 8.00 200.06 2671.45
   06:44:17.197.07-Aug-2020 5088.01 3691.12 88.57 8.00 200.26 2671.45
   06:44:17.397.07-Aug-2020 5088.01 3691.13 88.57 8.00 200.46 2671.45
   06:44:17.597.07-Aug-2020 5088.01 3691.09 88.57 8.00 200.66 2671.45
   06:44:17.797.07-Aug-2020 5088.01 3691.12 88.57 8.00 200.86 2671.45
   06:44:17.997.07-Aug-2020 5088.01 3691.09 88.57 8.00 201.06 2671.45
   06:44:18.197.07-Aug-2020 5088.01 3691.09 88.57 8.00 201.26 2671.45
   06:44:18.397.07-Aug-2020 5088.01 3691.10 88.56 8.00 201.46 2671.45
   06:44:18.598.07-Aug-2020 5088.01 3691.09 88.56 8.00 201.66 2671.45
   06:44:18.798.07-Aug-2020 5088.01 3691.04 88.56 8.00 201.86 2671.45
   06:44:18.998.07-Aug-2020 5088.01 3691.15 88.56 8.00 202.06 2671.45
   06:44:19.198.07-Aug-2020 5088.01 3691.15 88.56 8.00 202.26 2671.45
   06:44:19.398.07-Aug-2020 5088.01 3691.14 88.56 8.00 202.46 2671.45
   06:44:19.598.07-Aug-2020 5088.01 3691.09 88.56 8.00 202.66 2671.45
   06:44:19.798.07-Aug-2020 5088.01 3691.10 88.56 8.00 202.86 2671.45
   06:44:19.998.07-Aug-2020 5088.01 3691.11 88.56 8.00 203.06 2671.45
   06:44:20.198.07-Aug-2020 5088.01 3691.11 88.56 8.00 203.26 2671.45
   06:44:20.398.07-Aug-2020 5088.01 3691.09 88.56 8.00 203.46 2671.45
   06:44:20.598.07-Aug-2020 5088.01 3691.10 88.56 8.00 203.66 2671.45
   06:44:20.798.07-Aug-2020 5088.01 3691.09 88.56 8.00 203.86 2671.45
   06:44:20.998.07-Aug-2020 5088.01 3691.08 88.56 8.00 204.06 2671.45
   06:44:21.198.07-Aug-2020 5088.01 3691.10 88.56 8.00 204.26 2671.45
   06:44:21.398.07-Aug-2020 5088.01 3690.96 88.56 8.00 204.46 2671.45
   06:44:21.598.07-Aug-2020 5088.01 3691.18 88.55 8.00 204.66 2671.45
   06:44:21.798.07-Aug-2020 5088.01 3691.15 88.55 8.00 204.86 2671.45
   06:44:21.999.07-Aug-2020 5088.01 3691.07 88.55 8.00 205.06 2671.45
   06:44:22.199.07-Aug-2020 5088.01 3691.07 88.55 8.00 205.26 2671.45
   06:44:22.399.07-Aug-2020 5088.01 3690.95 88.55 8.00 205.46 2671.45
   06:44:22.599.07-Aug-2020 5088.01 3691.21 88.55 8.00 205.66 2671.45
   06:44:22.799.07-Aug-2020 5088.01 3691.14 88.55 8.00 205.86 2671.45
   06:44:22.999.07-Aug-2020 5088.01 3691.08 88.55 8.00 206.06 2671.45
   06:44:23.199.07-Aug-2020 5088.01 3691.08 88.55 8.00 206.26 2671.45
   06:44:23.399.07-Aug-2020 5088.01 3691.02 88.55 8.00 206.46 2671.45
   06:44:23.599.07-Aug-2020 5088.01 3691.16 88.55 8.00 206.66 2671.45
   06:44:23.799.07-Aug-2020 5088.01 3691.11 88.55 8.00 206.86 2671.45
