~Version Information
 VERS.                  2.0:   CWLS log ASCII Standard -VERSION 2.0
 WRAP.                   NO:   One line per depth step
~Well Information Block
#MNEM.UNIT     VALUE/NAME     DESCRIPTION
#---------     -----------    ---------------------------
 STRT.S             14:58:59 06-Aug-20: START TIME 14:58:59 06-Aug-20
 STOP.S             15:06:43 06-Aug-20: STOP TIME  15:06:43 06-Aug-20
 STEP.S                   0.00: STEP TIME
 NULL.                 -999.25: NULL VALUE
 DFWT.                        :  DIST FWL TEXT
 DFST.                        :  DIST FSL TEXT
 DMF .             Drill Floor:  DRILL MEAS FROM
 STIM.      12.00.00 03-Jul-20:  START TIME
 DATE.      00.50.00 09-Aug-20:  END TIME
 SPUD.               03-Jul-20:  SPUD DATE
 NREF.                    Grid:  NORTH REFERENCE
 HPTY.       Minimum Curvature:  HOLE POS TYPE
 DMOD.             Drill Model:  DRILL MOD DESC
 SVYD.                  Survey:  SURVEY DESC
 ILTD.               Lithology:  INTERP LTH DESC
 FTOP.          Formation Tops:  FORM TOPS DESC
 PDAT.          Mean Sea Level:  PERMANENT DATUM
 FLD .                     ACG:  FIELD NAME
 CTRY.              Azerbaijan:  COUNTRY NAME
 WELL.                    E04x:  WELL NAME
 SRVC.          Turan Drilling:  CONTRACTOR
 COMP.     BP Exploration (Caspian Sea) Ltd.:  COMPANY
 SON .        AZ-XX-0906531346:  JOB NUMBER
 WTYP.                Deviated:  WELL TYPE
 MDS .        Operator Entered:  MAG DATA SOURCE
 UWI .                     N/A:  UNIQUE WELL IDENTIFIER
 API .                     N/A:  API NUMBER
 BASE.              Azerbaijan:  LOGGING EQUIPMENT BASE LOCATION
 REGN.                   EESSA:  REGION
 PROV.                    Baku:  PROVINCE
 STAT.                    Baku:  STATE NAME
 MWDS.                    Baku:  MWD SHOP
 JOBN.        AZ-XX-0906531346:  JOB TICKET NUMB
 RIG .                     DWG:  RIG NAME
 DOE .                     N/A:  DOE NUMBER
 DCON.         Sperry Drilling:  DIRECTNL CONTR
 UNIT.                     N/A:  LOGGING EQUIPMENT ID
 CNTY.                        :  COUNTY
 LOC .                        :  LOCATION
 LMF .             Drill Floor:  LOG MEASURED FROM
 TVDS.m                  43.16:  TVDSS CORRECTN
 LATI.deg                40.17:  LATITUDE
 LONG.deg                51.17:  LONGITUDE
 WHNS.m                  -0.12:  WELL HEAD N/S
 WHEW.m                  -5.41:  WELL HEAD E/W
 UTMX.m              514337.95:  UTM X
 UTMY.m             4448627.46:  UTM Y
 DFWL.m                   0.00:  DISTANCE FWL
 DFSL.m                   0.00:  DISTANCE FSL
 SDEP.m                3088.01:  START DEPTH
 TDD .m                5200.01:  TOTAL DEPTH (DRILLER)
 VSDR.deg               244.51:  VERT SEC DIRECT
 GVFD.g                   1.00:  GRAVITY FIELD
 MFLD.nT              50329.80:  MAGNETIC FIELD
 MDIP.deg                59.63:  MAGNETIC DIP
 MDEC.deg                 6.59:  MAGNETIC DECL
 GRDC.deg                 0.09:  GRID CORRECTION
 AZTC.deg                 6.50:  AZM TOTAL CORR
 EPD .m                   0.00:  ELEVATION
 EGL .m                   0.00:  GROUND ELEVATION
 WDMS.m                 176.20:  WD ELEV
 APD .m                  43.16:  DEPTH ABOVE PD
 DEP .m                3084.71:  DEPTH
 AGAP.m                  43.16:  AIR GAP
 VSEW.m                  -5.41:  VERT SEC E/W
 VSNS.m                  -0.12:  VERT SEC N/S
 EKB .m                   0.00:  KB ELEVATION
 EDF .m                  43.16:  DF ELEVATION
 TDL .m                 243.00:  TOTAL DEPTH (LOGGER)
 VSC .                       0:  VS TO CLOSURE
 MAGU.                 1853542:  MAGUTM CHECKSUM
~Parameter Information Block
#MNEM.UNIT       Value        Description
#---------     -----------    ---------------------------
 AV  .mps                 1.91:  Ann Velocity 
 AVMX.mps                 2.52:  Max Ann Veloc 
 AZIF.deg               308.97:  Azm, Final 
 BHAT.        Rotary Steerable:  BHA Type 
 BROT.°/30m               1.00:  Build Rotating 
 BS  .in                  6.50:  Bit Size 
 BSZ .in                  6.50:  Bit Size 
 BTPL.psig              350.00:  Bit Press Loss 
 CABU.                      No:  Customer Abuse 
 CGEO.           Asif Pashayev:  Customer Geo 
 COMM.                     ”›T:  Run Comments 1 
 TCS .hr                 35.86:  Time Ciculation Ended 
 CV  .mps                 2.31:  Crit Velocity 
 CVMX.mps                 2.31:  Max Crit Veloc 
 DD1 .         Intigam Rahimov:  Direct Drillr 1 
 DDSV.               Geo-Pilot:  DD Service 
 DEFF.%                  92.00:  % Det Eff 
 DLRX.°/30m               1.00:  Dogleg Rot Max 
 DLSO.°/30m               1.00:  Dogleg Oriented 
 DLSX.°/30m               1.42:  Dogleg Str Max 
 DRET.      15.50.00 07-Aug-20:  Drill End Time 
 DRST.      10.40.00 06-Aug-20:  Drill Start Tim 
 DTIM.hr                 21.30:  Time Drilling 
 EDEP.m                5200.01:  End Depth 
 ENG1.            Alan Tuganov:  Engineer 1 
 ENG2.         Almaz Almadatov:  Engineer 2 
 ENG3.     Zammelal Abdullah Sani:  Engineer 3 
 ETIM.      22.42.00 08-Aug-20:  End Time 
 FLOI.gpm               395.00:  Flow In 
 FLON.gpm               350.00:  Flow In Min 
 FLOS.cptm                0.00:  Fluid Loss 
 FLOX.gpm               404.00:  Flow In Max 
 FTRO.       Formation Presure:  FTWD Run Obj 
 HFLO.                      No:  High Flow 
 HPRE.                      No:  High Pressure 
 HTEM.                      No:  High Temp 
 HYDO.m                   1.80:  Hydro Offset 
 IFIN.deg                72.64:  Inc, Final 
 IMAX.deg                73.68:  Inc Max 
 IMIN.deg                72.64:  Inc Min 
 IMND.m                5189.69:  Inc Min Depth 
 IMXD.m                5067.88:  Inc Max Depth 
 JARR.                      No:  Jarring 
 LETM.      15.50.00 07-Aug-20:  Log End Time 
 LOST.hr                     0:  Lost Rig Time 
 LSTM.      10.40.00 06-Aug-20:  Log Start Time 
 MDCL.ppm             36000.00:  Mud Chlorides 
 MDES.     Inversion Oil/Synthetic:  Mud Desc 
 DFD .sg                  1.36:  Mud Density 
 MDMN.sg                  1.36:  Dens Mud Min 
 MDMX.sg                  1.36:  Dens Mud Max 
 MOIL.                      70:  Run Mud Oil % 
 MOWR.                   70:30:  Run Mud OWR 
 MSND.                    0.00:  Run Mud Sand % 
 MSOL.                   17.60:  Run Mud Solids% 
 DFV .spqt               73.00:  Mud Viscosity 
 MWOD.in                  4.75:  MWD Tool OD 
 MWSI.                      No:  Serv Intrp, MWD 
 OTIM.hr                 85.66:  Time Operating 
 PCON.           Look Like New:  Pad Condition 
 PMAX.psia             6250.00:  Press Op, Max 
 PV  .cP                 65.00:  Mud PV 
 RUN .                     900:  Run Number 
 ROPA.m/hr               11.40:  ROP Avg 
 ROPN.m/hr                5.00:  ROP Min 
 ROPX.m/hr               20.00:  ROP Max 
 RPMA.rpm               130.00:  RPM Surface Avg 
 RPMN.rpm                40.00:  RPM Surface Min 
 RPMX.rpm               140.00:  RPM Surface Max 
 RRUN.                    L205:  Rig Run Number 
 RTIM.hr                  1.00:  Time Reaming 
 SAZI.deg               313.52:  Azm, Start 
 SDEP.m                4957.01:  Start Depth 
 SIDD.                      No:  Serv Intrp, DD 
 SINC.deg                73.16:  Inc, Start 
 SPPA.psig             5657.00:  SPP Avg 
 SPPN.psig             2500.00:  SPP Min 
 SPPX.psig             5806.00:  SPP Max 
 STIM.      07.12.00 05-Aug-20:  Start Time 
 SVCS.                 DD, MWD:  Services 
 SVER.                    9.20:  Sperry Version 
 TDAT.m                 243.00:  Tot Depth Attmp 
 TDDF.                      No:  Trip for DD 
 TDLG.m                 243.00:  Tot Depth Loggd 
 TFF .                      No:  Trip for Fail 
 TQAA.f-kp               13.00:  Torque Abs Avg 
 TQAN.f-kp               11.00:  Torque Abs Min 
 TQAX.f-kp               16.00:  Torque Abs Max 
 TRRT.°/30m               1.00:  Turn Rotating 
 MRT .                    HCIM:  Maximum Recorded Temperature 
 TTMX.degC               96.08:  Max Tool Temp 
 VS01.                90515411:  Virtual Str1 SN 
 VS02.                90512716:  Virtual Str2 SN 
 VS03.                90522362:  Virtual Str3 SN 
 VS04.                90619415:  Virtual Str4 SN 
 VS05.                90619414:  Virtual Str5 SN 
 VS06.                90597748:  Virtual Str6 SN 
 WBMN.klb                 2.00:  WOB Min 
 WITN.           Adil Mammadov:  Customer Rep 
 WITN.     Alexander Yadullayev:  Customer Rep 2 
 WOBA.klb                 7.00:  WOB Avg 
 WOBX.klb                23.00:  WOB Max 
 YP  .lhf2               37.00:  Yield Point 
~Curve Information Block
#MNEM.UNIT                 API CODE     Curve Description
#---------               -----------    ---------------------------
 TIME.HHMMSS            00 000 000 000:  GT Time & Date
 GTDEPTH.m              00 000 000 000:  GT Depth
 GTPQH.psia             00 000 000 000:  GT HR Quartz Pressure
 GTTQ.degC              00 000 000 000:  GT Quartz Temperature
 GTTN.NONE              00 000 000 000:  GT Test Number
 GTET.sec               00 000 000 000:  GT Elapsed Test Time
 GTTVD.m                00 000 000 000:  GT True Vertical Depth
#Other Information
#
#WARRANTY: Halliburton will use its best efforts to furnish customers with 
#accurate information and interpretations that are part of, and incident to, the services 
#provided.  However, Halliburton cannot and does not warrant the accuracy 
#or correctness of such information and interpretations.  Under no circumstances should any 
#such information or interpretation be relied upon as the sole basis for any drilling, 
#completion, production, or financial decision or any procedure involving any risk to the 
#safety of any drilling venture, drilling rig or its crew or any other third party.  The 
#Customer has full responsibility for all drilling, completion and production operation.  
#Halliburton makes no representations or warranties, either expressed or 
#implied, including, but not limited to, the implied warranties of merchantability or fitness 
#for a particular purpose, with respect to the services rendered.  In no event will 
#Halliburton be liable for failure to obtain any particular results or for 
#any damages, including, but not limited to, indirect, special or consequential damages, 
#resulting from the use of any information or interpretation provided by Halliburton.
#
~A           TIME           GTDEPTH  GTPQH  GTTQ  GTTN  GTET   GTTVD  
# ...
   15:02:26.590.06-Aug-2020 4947.01 5734.05 78.42 1.00 207.04 2630.94
   15:02:26.790.06-Aug-2020 4947.01 5734.05 78.42 1.00 207.24 2630.94
   15:02:26.990.06-Aug-2020 4947.01 5733.27 78.42 1.00 207.44 2630.94
   15:02:27.190.06-Aug-2020 4947.01 5726.54 78.42 1.00 207.64 2630.94
   15:02:27.391.06-Aug-2020 4947.01 5729.81 78.41 1.00 207.84 2630.94
   15:02:27.591.06-Aug-2020 4947.01 5732.54 78.41 1.00 208.04 2630.94
   15:02:27.791.06-Aug-2020 4947.01 5732.54 78.41 1.00 208.24 2630.94
   15:02:27.991.06-Aug-2020 4947.01 5733.31 78.41 1.00 208.44 2630.94
   15:02:28.191.06-Aug-2020 4947.01 5733.03 78.41 1.00 208.64 2630.94
   15:02:28.391.06-Aug-2020 4947.01 5734.24 78.41 1.00 208.84 2630.94
   15:02:28.591.06-Aug-2020 4947.01 5734.57 78.41 1.00 209.04 2630.94
   15:02:28.791.06-Aug-2020 4947.01 5734.57 78.41 1.00 209.24 2630.94
   15:02:28.991.06-Aug-2020 4947.01 5734.90 78.41 1.00 209.44 2630.94
   15:02:29.191.06-Aug-2020 4947.01 5734.62 78.41 1.00 209.64 2630.94
   15:02:29.391.06-Aug-2020 4947.01 5734.08 78.41 1.00 209.84 2630.94
   15:02:29.591.06-Aug-2020 4947.01 5733.86 78.41 1.00 210.04 2630.94
   15:02:29.791.06-Aug-2020 4947.01 5733.86 78.41 1.00 210.24 2630.94
   15:02:29.991.06-Aug-2020 4947.01 5732.95 78.41 1.00 210.44 2630.94
   15:02:30.191.06-Aug-2020 4947.01 5725.72 78.41 1.00 210.65 2630.94
   15:02:30.391.06-Aug-2020 4947.01 5729.79 78.41 1.00 210.85 2630.94
   15:02:30.591.06-Aug-2020 4947.01 5731.81 78.41 1.00 211.05 2630.94
   15:02:30.791.06-Aug-2020 4947.01 5732.12 78.41 1.00 211.25 2630.94
   15:02:30.991.06-Aug-2020 4947.01 5726.60 78.41 1.00 211.45 2630.94
   15:02:31.191.06-Aug-2020 4947.01 5729.09 78.41 1.00 211.65 2630.94
   15:02:31.391.06-Aug-2020 4947.01 5732.20 78.41 1.00 211.85 2630.94
   15:02:31.591.06-Aug-2020 4947.01 5733.24 78.41 1.00 212.05 2630.94
   15:02:31.791.06-Aug-2020 4947.01 5733.24 78.41 1.00 212.25 2630.94
   15:02:31.992.06-Aug-2020 4947.01 5728.06 78.41 1.00 212.45 2630.94
   15:02:32.192.06-Aug-2020 4947.01 5727.92 78.41 1.00 212.65 2630.94
   15:02:32.392.06-Aug-2020 4947.01 5731.15 78.41 1.00 212.85 2630.94
   15:02:32.592.06-Aug-2020 4947.01 5732.49 78.41 1.00 213.05 2630.94
   15:02:32.792.06-Aug-2020 4947.01 5732.49 78.41 1.00 213.25 2630.94
   15:02:32.992.06-Aug-2020 4947.01 5733.20 78.41 1.00 213.45 2630.94
   15:02:33.192.06-Aug-2020 4947.01 5733.41 78.41 1.00 213.65 2630.94
   15:02:33.392.06-Aug-2020 4947.01 5727.74 78.41 1.00 213.85 2630.94
   15:02:33.592.06-Aug-2020 4947.01 5729.14 78.41 1.00 214.05 2630.94
   15:02:33.792.06-Aug-2020 4947.01 5729.14 78.41 1.00 214.25 2630.94
   15:02:33.992.06-Aug-2020 4947.01 5733.91 78.41 1.00 214.45 2630.94
   15:02:34.192.06-Aug-2020 4947.01 5734.27 78.41 1.00 214.65 2630.94
   15:02:34.392.06-Aug-2020 4947.01 5733.97 78.41 1.00 214.85 2630.94
   15:02:34.592.06-Aug-2020 4947.01 5734.29 78.41 1.00 215.05 2630.94
   15:02:34.792.06-Aug-2020 4947.01 5734.29 78.41 1.00 215.25 2630.94
   15:02:34.992.06-Aug-2020 4947.01 5735.01 78.41 1.00 215.45 2630.94
   15:02:35.192.06-Aug-2020 4947.01 5734.81 78.41 1.00 215.65 2630.94
   15:02:35.392.06-Aug-2020 4947.01 5734.00 78.41 1.00 215.85 2630.94
   15:02:35.592.06-Aug-2020 4947.01 5733.41 78.41 1.00 216.05 2630.94
   15:02:35.792.06-Aug-2020 4947.01 5733.41 78.41 1.00 216.25 2630.94
   15:02:35.992.06-Aug-2020 4947.01 5726.59 78.41 1.00 216.45 2630.94
   15:02:36.192.06-Aug-2020 4947.01 5729.21 78.41 1.00 216.65 2630.94
   15:02:36.392.06-Aug-2020 4947.01 5732.24 78.41 1.00 216.85 2630.94
   15:02:36.593.06-Aug-2020 4947.01 5732.60 78.41 1.00 217.05 2630.94
   15:02:36.793.06-Aug-2020 4947.01 5732.60 78.41 1.00 217.25 2630.94
   15:02:36.993.06-Aug-2020 4947.01 5732.12 78.41 1.00 217.45 2630.94
   15:02:37.193.06-Aug-2020 4947.01 5733.34 78.41 1.00 217.65 2630.94
   15:02:37.393.06-Aug-2020 4947.01 5733.69 78.41 1.00 217.85 2630.94
   15:02:37.593.06-Aug-2020 4947.01 5734.27 78.41 1.00 218.05 2630.94
   15:02:37.793.06-Aug-2020 4947.01 5734.27 78.41 1.00 218.25 2630.94
   15:02:37.993.06-Aug-2020 4947.01 5733.76 78.41 1.00 218.45 2630.94
   15:02:38.193.06-Aug-2020 4947.01 5733.08 78.41 1.00 218.65 2630.94
   15:02:38.393.06-Aug-2020 4947.01 5733.03 78.40 1.00 218.85 2630.94
   15:02:38.593.06-Aug-2020 4947.01 5732.68 78.40 1.00 219.05 2630.94
   15:02:38.793.06-Aug-2020 4947.01 5732.68 78.40 1.00 219.25 2630.94
   15:02:38.993.06-Aug-2020 4947.01 5724.94 78.40 1.00 219.45 2630.94
   15:02:39.193.06-Aug-2020 4947.01 5729.30 78.40 1.00 219.65 2630.94
   15:02:39.393.06-Aug-2020 4947.01 5730.55 78.40 1.00 219.85 2630.94
   15:02:39.593.06-Aug-2020 4947.01 5731.07 78.40 1.00 220.05 2630.94
   15:02:39.793.06-Aug-2020 4947.01 5731.07 78.40 1.00 220.25 2630.94
   15:02:39.993.06-Aug-2020 4947.01 5727.08 78.40 1.00 220.45 2630.94
   15:02:40.193.06-Aug-2020 4947.01 5731.01 78.40 1.00 220.65 2630.94
   15:02:40.393.06-Aug-2020 4947.01 5732.44 78.40 1.00 220.85 2630.94
   15:02:40.593.06-Aug-2020 4947.01 5733.15 78.40 1.00 221.05 2630.94
   15:02:40.793.06-Aug-2020 4947.01 5733.15 78.40 1.00 221.25 2630.94
   15:02:40.993.06-Aug-2020 4947.01 5726.73 78.40 1.00 221.45 2630.94
   15:02:41.193.06-Aug-2020 4947.01 5731.03 78.40 1.00 221.65 2630.94
   15:02:41.394.06-Aug-2020 4947.01 5732.68 78.40 1.00 221.85 2630.94
   15:02:41.594.06-Aug-2020 4947.01 5732.61 78.40 1.00 222.05 2630.94
   15:02:41.794.06-Aug-2020 4947.01 5732.61 78.40 1.00 222.25 2630.94
   15:02:41.994.06-Aug-2020 4947.01 5725.60 78.40 1.00 222.45 2630.94
   15:02:42.194.06-Aug-2020 4947.01 5728.67 78.40 1.00 222.65 2630.94
   15:02:42.394.06-Aug-2020 4947.01 5731.34 78.40 1.00 222.85 2630.94
   15:02:42.594.06-Aug-2020 4947.01 5733.30 78.40 1.00 223.05 2630.94
   15:02:42.794.06-Aug-2020 4947.01 5733.30 78.40 1.00 223.25 2630.94
   15:02:42.994.06-Aug-2020 4947.01 5734.02 78.40 1.00 223.45 2630.94
   15:02:43.194.06-Aug-2020 4947.01 5733.35 78.40 1.00 223.65 2630.94
   15:02:43.394.06-Aug-2020 4947.01 5733.68 78.40 1.00 223.85 2630.94
   15:02:43.594.06-Aug-2020 4947.01 5734.07 78.40 1.00 224.05 2630.94
   15:02:43.794.06-Aug-2020 4947.01 5734.07 78.40 1.00 224.25 2630.94
   15:02:43.994.06-Aug-2020 4947.01 5734.35 78.40 1.00 224.45 2630.94
   15:02:44.194.06-Aug-2020 4947.01 5733.88 78.40 1.00 224.65 2630.94
   15:02:44.394.06-Aug-2020 4947.01 5733.11 78.40 1.00 224.85 2630.94
   15:02:44.594.06-Aug-2020 4947.01 5730.63 78.40 1.00 225.05 2630.94
   15:02:44.794.06-Aug-2020 4947.01 5730.63 78.40 1.00 225.25 2630.94
   15:02:44.994.06-Aug-2020 4947.01 5730.47 78.40 1.00 225.45 2630.94
   15:02:45.194.06-Aug-2020 4947.01 5732.13 78.40 1.00 225.65 2630.94
   15:02:45.394.06-Aug-2020 4947.01 5732.34 78.40 1.00 225.85 2630.94
   15:02:45.594.06-Aug-2020 4947.01 5732.46 78.40 1.00 226.05 2630.94
   15:02:45.794.06-Aug-2020 4947.01 5732.46 78.40 1.00 226.25 2630.94
   15:02:45.995.06-Aug-2020 4947.01 5733.77 78.40 1.00 226.45 2630.94
   15:02:46.195.06-Aug-2020 4947.01 5733.98 78.40 1.00 226.65 2630.94
   15:02:46.395.06-Aug-2020 4947.01 5734.54 78.40 1.00 226.85 2630.94
   15:02:46.595.06-Aug-2020 4947.01 5733.86 78.40 1.00 227.05 2630.94
   15:02:46.795.06-Aug-2020 4947.01 5733.86 78.40 1.00 227.25 2630.94
   15:02:46.995.06-Aug-2020 4947.01 5733.05 78.40 1.00 227.45 2630.94
   15:02:47.195.06-Aug-2020 4947.01 5733.37 78.40 1.00 227.65 2630.94
   15:02:47.395.06-Aug-2020 4947.01 5732.82 78.40 1.00 227.85 2630.94
   15:02:47.595.06-Aug-2020 4947.01 5726.17 78.40 1.00 228.05 2630.94
   15:02:47.795.06-Aug-2020 4947.01 5726.17 78.40 1.00 228.25 2630.94
   15:02:47.995.06-Aug-2020 4947.01 5731.21 78.40 1.00 228.45 2630.94
   15:02:48.195.06-Aug-2020 4947.01 5731.72 78.40 1.00 228.65 2630.94
   15:02:48.395.06-Aug-2020 4947.01 5727.31 78.40 1.00 228.85 2630.94
   15:02:48.595.06-Aug-2020 4947.01 5727.43 78.40 1.00 229.05 2630.94
   15:02:48.795.06-Aug-2020 4947.01 5731.84 78.40 1.00 229.25 2630.94
   15:02:48.995.06-Aug-2020 4947.01 5733.41 78.40 1.00 229.45 2630.94
   15:02:49.195.06-Aug-2020 4947.01 5733.75 78.40 1.00 229.65 2630.94
   15:02:49.395.06-Aug-2020 4947.01 5733.61 78.40 1.00 229.85 2630.94
