~Version Information
 VERS.                  2.0:   CWLS log ASCII Standard -VERSION 2.0
 WRAP.                   NO:   One line per depth step
~Well Information Block
#MNEM.UNIT     VALUE/NAME     DESCRIPTION
#---------     -----------    ---------------------------
 STRT.S             20:19:41 06-Aug-20: START TIME 20:19:41 06-Aug-20
 STOP.S             20:27:33 06-Aug-20: STOP TIME  20:27:33 06-Aug-20
 STEP.S                   0.00: STEP TIME
 NULL.                 -999.25: NULL VALUE
 DFWT.                        :  DIST FWL TEXT
 DFST.                        :  DIST FSL TEXT
 DMF .             Drill Floor:  DRILL MEAS FROM
 STIM.      12.00.00 03-Jul-20:  START TIME
 DATE.      00.50.00 09-Aug-20:  END TIME
 SPUD.               03-Jul-20:  SPUD DATE
 NREF.                    Grid:  NORTH REFERENCE
 HPTY.       Minimum Curvature:  HOLE POS TYPE
 DMOD.             Drill Model:  DRILL MOD DESC
 SVYD.                  Survey:  SURVEY DESC
 ILTD.               Lithology:  INTERP LTH DESC
 FTOP.          Formation Tops:  FORM TOPS DESC
 PDAT.          Mean Sea Level:  PERMANENT DATUM
 FLD .                     ACG:  FIELD NAME
 CTRY.              Azerbaijan:  COUNTRY NAME
 WELL.                    E04x:  WELL NAME
 SRVC.          Turan Drilling:  CONTRACTOR
 COMP.     BP Exploration (Caspian Sea) Ltd.:  COMPANY
 SON .        AZ-XX-0906531346:  JOB NUMBER
 WTYP.                Deviated:  WELL TYPE
 MDS .        Operator Entered:  MAG DATA SOURCE
 UWI .                     N/A:  UNIQUE WELL IDENTIFIER
 API .                     N/A:  API NUMBER
 BASE.              Azerbaijan:  LOGGING EQUIPMENT BASE LOCATION
 REGN.                   EESSA:  REGION
 PROV.                    Baku:  PROVINCE
 STAT.                    Baku:  STATE NAME
 MWDS.                    Baku:  MWD SHOP
 JOBN.        AZ-XX-0906531346:  JOB TICKET NUMB
 RIG .                     DWG:  RIG NAME
 DOE .                     N/A:  DOE NUMBER
 DCON.         Sperry Drilling:  DIRECTNL CONTR
 UNIT.                     N/A:  LOGGING EQUIPMENT ID
 CNTY.                        :  COUNTY
 LOC .                        :  LOCATION
 LMF .             Drill Floor:  LOG MEASURED FROM
 TVDS.m                  43.16:  TVDSS CORRECTN
 LATI.deg                40.17:  LATITUDE
 LONG.deg                51.17:  LONGITUDE
 WHNS.m                  -0.12:  WELL HEAD N/S
 WHEW.m                  -5.41:  WELL HEAD E/W
 UTMX.m              514337.95:  UTM X
 UTMY.m             4448627.46:  UTM Y
 DFWL.m                   0.00:  DISTANCE FWL
 DFSL.m                   0.00:  DISTANCE FSL
 SDEP.m                3088.01:  START DEPTH
 TDD .m                5200.01:  TOTAL DEPTH (DRILLER)
 VSDR.deg               244.51:  VERT SEC DIRECT
 GVFD.g                   1.00:  GRAVITY FIELD
 MFLD.nT              50329.80:  MAGNETIC FIELD
 MDIP.deg                59.63:  MAGNETIC DIP
 MDEC.deg                 6.59:  MAGNETIC DECL
 GRDC.deg                 0.09:  GRID CORRECTION
 AZTC.deg                 6.50:  AZM TOTAL CORR
 EPD .m                   0.00:  ELEVATION
 EGL .m                   0.00:  GROUND ELEVATION
 WDMS.m                 176.20:  WD ELEV
 APD .m                  43.16:  DEPTH ABOVE PD
 DEP .m                3084.71:  DEPTH
 AGAP.m                  43.16:  AIR GAP
 VSEW.m                  -5.41:  VERT SEC E/W
 VSNS.m                  -0.12:  VERT SEC N/S
 EKB .m                   0.00:  KB ELEVATION
 EDF .m                  43.16:  DF ELEVATION
 TDL .m                 243.00:  TOTAL DEPTH (LOGGER)
 VSC .                       0:  VS TO CLOSURE
 MAGU.                 1853542:  MAGUTM CHECKSUM
~Parameter Information Block
#MNEM.UNIT       Value        Description
#---------     -----------    ---------------------------
 AV  .mps                 1.91:  Ann Velocity 
 AVMX.mps                 2.52:  Max Ann Veloc 
 AZIF.deg               308.97:  Azm, Final 
 BHAT.        Rotary Steerable:  BHA Type 
 BROT.°/30m               1.00:  Build Rotating 
 BS  .in                  6.50:  Bit Size 
 BSZ .in                  6.50:  Bit Size 
 BTPL.psig              350.00:  Bit Press Loss 
 CABU.                      No:  Customer Abuse 
 CGEO.           Asif Pashayev:  Customer Geo 
 COMM.                     4è‹:  Run Comments 1 
 TCS .hr                 35.86:  Time Ciculation Ended 
 CV  .mps                 2.31:  Crit Velocity 
 CVMX.mps                 2.31:  Max Crit Veloc 
 DD1 .         Intigam Rahimov:  Direct Drillr 1 
 DDSV.               Geo-Pilot:  DD Service 
 DEFF.%                  92.00:  % Det Eff 
 DLRX.°/30m               1.00:  Dogleg Rot Max 
 DLSO.°/30m               1.00:  Dogleg Oriented 
 DLSX.°/30m               1.42:  Dogleg Str Max 
 DRET.      15.50.00 07-Aug-20:  Drill End Time 
 DRST.      10.40.00 06-Aug-20:  Drill Start Tim 
 DTIM.hr                 21.30:  Time Drilling 
 EDEP.m                5200.01:  End Depth 
 ENG1.            Alan Tuganov:  Engineer 1 
 ENG2.         Almaz Almadatov:  Engineer 2 
 ENG3.     Zammelal Abdullah Sani:  Engineer 3 
 ETIM.      22.42.00 08-Aug-20:  End Time 
 FLOI.gpm               395.00:  Flow In 
 FLON.gpm               350.00:  Flow In Min 
 FLOS.cptm                0.00:  Fluid Loss 
 FLOX.gpm               404.00:  Flow In Max 
 FTRO.       Formation Presure:  FTWD Run Obj 
 HFLO.                      No:  High Flow 
 HPRE.                      No:  High Pressure 
 HTEM.                      No:  High Temp 
 HYDO.m                   1.80:  Hydro Offset 
 IFIN.deg                72.64:  Inc, Final 
 IMAX.deg                73.68:  Inc Max 
 IMIN.deg                72.64:  Inc Min 
 IMND.m                5189.69:  Inc Min Depth 
 IMXD.m                5067.88:  Inc Max Depth 
 JARR.                      No:  Jarring 
 LETM.      15.50.00 07-Aug-20:  Log End Time 
 LOST.hr                     0:  Lost Rig Time 
 LSTM.      10.40.00 06-Aug-20:  Log Start Time 
 MDCL.ppm             36000.00:  Mud Chlorides 
 MDES.     Inversion Oil/Synthetic:  Mud Desc 
 DFD .sg                  1.36:  Mud Density 
 MDMN.sg                  1.36:  Dens Mud Min 
 MDMX.sg                  1.36:  Dens Mud Max 
 MOIL.                      70:  Run Mud Oil % 
 MOWR.                   70:30:  Run Mud OWR 
 MSND.                    0.00:  Run Mud Sand % 
 MSOL.                   17.60:  Run Mud Solids% 
 DFV .spqt               73.00:  Mud Viscosity 
 MWOD.in                  4.75:  MWD Tool OD 
 MWSI.                      No:  Serv Intrp, MWD 
 OTIM.hr                 85.66:  Time Operating 
 PCON.           Look Like New:  Pad Condition 
 PMAX.psia             6250.00:  Press Op, Max 
 PV  .cP                 65.00:  Mud PV 
 RUN .                     900:  Run Number 
 ROPA.m/hr               11.40:  ROP Avg 
 ROPN.m/hr                5.00:  ROP Min 
 ROPX.m/hr               20.00:  ROP Max 
 RPMA.rpm               130.00:  RPM Surface Avg 
 RPMN.rpm                40.00:  RPM Surface Min 
 RPMX.rpm               140.00:  RPM Surface Max 
 RRUN.                    L205:  Rig Run Number 
 RTIM.hr                  1.00:  Time Reaming 
 SAZI.deg               313.52:  Azm, Start 
 SDEP.m                4957.01:  Start Depth 
 SIDD.                      No:  Serv Intrp, DD 
 SINC.deg                73.16:  Inc, Start 
 SPPA.psig             5657.00:  SPP Avg 
 SPPN.psig             2500.00:  SPP Min 
 SPPX.psig             5806.00:  SPP Max 
 STIM.      07.12.00 05-Aug-20:  Start Time 
 SVCS.                 DD, MWD:  Services 
 SVER.                    9.20:  Sperry Version 
 TDAT.m                 243.00:  Tot Depth Attmp 
 TDDF.                      No:  Trip for DD 
 TDLG.m                 243.00:  Tot Depth Loggd 
 TFF .                      No:  Trip for Fail 
 TQAA.f-kp               13.00:  Torque Abs Avg 
 TQAN.f-kp               11.00:  Torque Abs Min 
 TQAX.f-kp               16.00:  Torque Abs Max 
 TRRT.°/30m               1.00:  Turn Rotating 
 MRT .                    HCIM:  Maximum Recorded Temperature 
 TTMX.degC               96.08:  Max Tool Temp 
 VS01.                90515411:  Virtual Str1 SN 
 VS02.                90512716:  Virtual Str2 SN 
 VS03.                90522362:  Virtual Str3 SN 
 VS04.                90619415:  Virtual Str4 SN 
 VS05.                90619414:  Virtual Str5 SN 
 VS06.                90597748:  Virtual Str6 SN 
 WBMN.klb                 2.00:  WOB Min 
 WITN.           Adil Mammadov:  Customer Rep 
 WITN.     Alexander Yadullayev:  Customer Rep 2 
 WOBA.klb                 7.00:  WOB Avg 
 WOBX.klb                23.00:  WOB Max 
 YP  .lhf2               37.00:  Yield Point 
~Curve Information Block
#MNEM.UNIT                 API CODE     Curve Description
#---------               -----------    ---------------------------
 TIME.HHMMSS            00 000 000 000:  GT Time & Date
 GTDEPTH.m              00 000 000 000:  GT Depth
 GTPQH.psia             00 000 000 000:  GT HR Quartz Pressure
 GTTQ.degC              00 000 000 000:  GT Quartz Temperature
 GTTN.NONE              00 000 000 000:  GT Test Number
 GTET.sec               00 000 000 000:  GT Elapsed Test Time
 GTTVD.m                00 000 000 000:  GT True Vertical Depth
#Other Information
#
#WARRANTY: Halliburton will use its best efforts to furnish customers with 
#accurate information and interpretations that are part of, and incident to, the services 
#provided.  However, Halliburton cannot and does not warrant the accuracy 
#or correctness of such information and interpretations.  Under no circumstances should any 
#such information or interpretation be relied upon as the sole basis for any drilling, 
#completion, production, or financial decision or any procedure involving any risk to the 
#safety of any drilling venture, drilling rig or its crew or any other third party.  The 
#Customer has full responsibility for all drilling, completion and production operation.  
#Halliburton makes no representations or warranties, either expressed or 
#implied, including, but not limited to, the implied warranties of merchantability or fitness 
#for a particular purpose, with respect to the services rendered.  In no event will 
#Halliburton be liable for failure to obtain any particular results or for 
#any damages, including, but not limited to, indirect, special or consequential damages, 
#resulting from the use of any information or interpretation provided by Halliburton.
#
~A           TIME           GTDEPTH  GTPQH  GTTQ  GTTN  GTET   GTTVD  
# ...
   20:26:12.496.06-Aug-2020 4993.01 3486.85 82.40 3.00 391.15 2644.18
   20:26:12.696.06-Aug-2020 4993.01 3486.85 82.40 3.00 391.35 2644.18
   20:26:12.896.06-Aug-2020 4993.01 3486.85 82.40 3.00 391.55 2644.18
   20:26:13.096.06-Aug-2020 4993.01 3486.86 82.40 3.00 391.75 2644.18
   20:26:13.296.06-Aug-2020 4993.01 3486.72 82.40 3.00 391.95 2644.18
   20:26:13.496.06-Aug-2020 4993.01 3487.00 82.40 3.00 392.15 2644.18
   20:26:13.696.06-Aug-2020 4993.01 3487.00 82.40 3.00 392.35 2644.18
   20:26:13.896.06-Aug-2020 4993.01 3486.92 82.40 3.00 392.55 2644.18
   20:26:14.096.06-Aug-2020 4993.01 3486.89 82.40 3.00 392.75 2644.18
   20:26:14.297.06-Aug-2020 4993.01 3486.85 82.40 3.00 392.95 2644.18
   20:26:14.497.06-Aug-2020 4993.01 3486.88 82.40 3.00 393.15 2644.18
   20:26:14.697.06-Aug-2020 4993.01 3486.86 82.40 3.00 393.35 2644.18
   20:26:14.897.06-Aug-2020 4993.01 3486.87 82.40 3.00 393.55 2644.18
   20:26:15.097.06-Aug-2020 4993.01 3486.84 82.40 3.00 393.75 2644.18
   20:26:15.297.06-Aug-2020 4993.01 3486.87 82.40 3.00 393.95 2644.18
   20:26:15.497.06-Aug-2020 4993.01 3486.82 82.40 3.00 394.15 2644.18
   20:26:15.697.06-Aug-2020 4993.01 3486.82 82.40 3.00 394.35 2644.18
   20:26:15.897.06-Aug-2020 4993.01 3486.82 82.39 3.00 394.55 2644.18
   20:26:16.097.06-Aug-2020 4993.01 3486.68 82.39 3.00 394.75 2644.18
   20:26:16.297.06-Aug-2020 4993.01 3486.96 82.39 3.00 394.95 2644.18
   20:26:16.497.06-Aug-2020 4993.01 3486.90 82.39 3.00 395.15 2644.18
   20:26:16.697.06-Aug-2020 4993.01 3486.90 82.39 3.00 395.35 2644.18
   20:26:16.898.06-Aug-2020 4993.01 3486.91 82.39 3.00 395.55 2644.18
   20:26:17.098.06-Aug-2020 4993.01 3486.85 82.39 3.00 395.75 2644.18
   20:26:17.298.06-Aug-2020 4993.01 3486.78 82.39 3.00 395.95 2644.18
   20:26:17.498.06-Aug-2020 4993.01 3486.84 82.39 3.00 396.15 2644.18
   20:26:17.698.06-Aug-2020 4993.01 3486.84 82.39 3.00 396.35 2644.18
   20:26:17.898.06-Aug-2020 4993.01 3486.84 82.39 3.00 396.55 2644.18
   20:26:18.098.06-Aug-2020 4993.01 3486.81 82.39 3.00 396.75 2644.18
   20:26:18.298.06-Aug-2020 4993.01 3486.91 82.39 3.00 396.95 2644.18
   20:26:18.498.06-Aug-2020 4993.01 3486.81 82.39 3.00 397.15 2644.18
   20:26:18.698.06-Aug-2020 4993.01 3486.92 82.39 3.00 397.35 2644.18
   20:26:18.898.06-Aug-2020 4993.01 3486.65 82.39 3.00 397.55 2644.18
   20:26:19.098.06-Aug-2020 4993.01 3486.98 82.39 3.00 397.75 2644.18
   20:26:19.298.06-Aug-2020 4993.01 3486.96 82.39 3.00 397.95 2644.18
   20:26:19.499.06-Aug-2020 4993.01 3486.86 82.39 3.00 398.15 2644.18
   20:26:19.699.06-Aug-2020 4993.01 3486.86 82.39 3.00 398.35 2644.18
   20:26:19.899.06-Aug-2020 4993.01 3486.87 82.39 3.00 398.55 2644.18
   20:26:20.099.06-Aug-2020 4993.01 3486.85 82.39 3.00 398.75 2644.18
   20:26:20.299.06-Aug-2020 4993.01 3486.90 82.39 3.00 398.95 2644.18
   20:26:20.499.06-Aug-2020 4993.01 3486.85 82.39 3.00 399.15 2644.18
   20:26:20.699.06-Aug-2020 4993.01 3486.85 82.39 3.00 399.35 2644.18
   20:26:20.899.06-Aug-2020 4993.01 3486.84 82.38 3.00 399.55 2644.18
   20:26:21.099.06-Aug-2020 4993.01 3486.88 82.38 3.00 399.75 2644.18
   20:26:21.299.06-Aug-2020 4993.01 3486.84 82.38 3.00 399.95 2644.18
   20:26:21.499.06-Aug-2020 4993.01 3486.79 82.38 3.00 400.15 2644.18
   20:26:21.699.06-Aug-2020 4993.01 3486.79 82.38 3.00 400.35 2644.18
   20:26:21.899.06-Aug-2020 4993.01 3486.81 82.38 3.00 400.55 2644.18
   20:26:22.100.06-Aug-2020 4993.01 3486.90 82.38 3.00 400.75 2644.18
   20:26:22.300.06-Aug-2020 4993.01 3486.89 82.38 3.00 400.95 2644.18
   20:26:22.500.06-Aug-2020 4993.01 3486.83 82.38 3.00 401.15 2644.18
   20:26:22.700.06-Aug-2020 4993.01 3486.89 82.38 3.00 401.35 2644.18
   20:26:22.900.06-Aug-2020 4993.01 3486.85 82.38 3.00 401.55 2644.18
   20:26:23.100.06-Aug-2020 4993.01 3486.88 82.38 3.00 401.75 2644.18
   20:26:23.300.06-Aug-2020 4993.01 3486.85 82.38 3.00 401.95 2644.18
   20:26:23.500.06-Aug-2020 4993.01 3486.85 82.38 3.00 402.15 2644.18
   20:26:23.700.06-Aug-2020 4993.01 3486.85 82.38 3.00 402.35 2644.18
   20:26:23.900.06-Aug-2020 4993.01 3486.85 82.38 3.00 402.55 2644.18
   20:26:24.100.06-Aug-2020 4993.01 3486.83 82.38 3.00 402.75 2644.18
   20:26:24.300.06-Aug-2020 4993.01 3486.70 82.38 3.00 402.95 2644.18
   20:26:24.500.06-Aug-2020 4993.01 3486.98 82.38 3.00 403.15 2644.18
   20:26:24.701.06-Aug-2020 4993.01 3486.98 82.38 3.00 403.35 2644.18
   20:26:24.901.06-Aug-2020 4993.01 3486.84 82.38 3.00 403.55 2644.18
   20:26:25.101.06-Aug-2020 4993.01 3486.87 82.38 3.00 403.75 2644.18
   20:26:25.301.06-Aug-2020 4993.01 3486.86 82.38 3.00 403.95 2644.18
   20:26:25.501.06-Aug-2020 4993.01 3486.66 82.38 3.00 404.15 2644.18
   20:26:25.701.06-Aug-2020 4993.01 3486.66 82.38 3.00 404.35 2644.18
   20:26:25.901.06-Aug-2020 4993.01 3486.93 82.37 3.00 404.55 2644.18
   20:26:26.101.06-Aug-2020 4993.01 3486.87 82.37 3.00 404.75 2644.18
   20:26:26.301.06-Aug-2020 4993.01 3486.82 82.37 3.00 404.95 2644.18
   20:26:26.501.06-Aug-2020 4993.01 3486.89 82.37 3.00 405.15 2644.18
   20:26:26.701.06-Aug-2020 4993.01 3486.77 82.37 3.00 405.36 2644.18
   20:26:26.901.06-Aug-2020 4993.01 3486.94 82.37 3.00 405.56 2644.18
   20:26:27.101.06-Aug-2020 4993.01 3486.64 82.37 3.00 405.76 2644.18
   20:26:27.302.06-Aug-2020 4993.01 3487.01 82.37 3.00 405.96 2644.18
   20:26:27.502.06-Aug-2020 4993.01 3486.89 82.37 3.00 406.16 2644.18
   20:26:27.702.06-Aug-2020 4993.01 3486.89 82.37 3.00 406.36 2644.18
   20:26:27.902.06-Aug-2020 4993.01 3486.89 82.37 3.00 406.56 2644.18
   20:26:28.102.06-Aug-2020 4993.01 3486.88 82.37 3.00 406.76 2644.18
   20:26:28.302.06-Aug-2020 4993.01 3486.86 82.37 3.00 406.96 2644.18
   20:26:28.502.06-Aug-2020 4993.01 3486.87 82.37 3.00 407.16 2644.18
   20:26:28.702.06-Aug-2020 4993.01 3486.87 82.37 3.00 407.36 2644.18
   20:26:28.902.06-Aug-2020 4993.01 3486.85 82.37 3.00 407.56 2644.18
   20:26:29.102.06-Aug-2020 4993.01 3486.85 82.37 3.00 407.76 2644.18
   20:26:29.302.06-Aug-2020 4993.01 3486.83 82.37 3.00 407.96 2644.18
   20:26:29.502.06-Aug-2020 4993.01 3486.86 82.37 3.00 408.16 2644.18
   20:26:29.702.06-Aug-2020 4993.01 3486.86 82.37 3.00 408.36 2644.18
   20:26:29.903.06-Aug-2020 4993.01 3486.87 82.37 3.00 408.56 2644.18
   20:26:30.103.06-Aug-2020 4993.01 3486.78 82.37 3.00 408.76 2644.18
   20:26:30.303.06-Aug-2020 4993.01 3486.93 82.37 3.00 408.96 2644.18
   20:26:30.503.06-Aug-2020 4993.01 3486.84 82.37 3.00 409.16 2644.18
   20:26:30.703.06-Aug-2020 4993.01 3486.84 82.37 3.00 409.36 2644.18
   20:26:30.903.06-Aug-2020 4993.01 3486.86 82.37 3.00 409.56 2644.18
   20:26:31.103.06-Aug-2020 4993.01 3486.87 82.37 3.00 409.76 2644.18
   20:26:31.303.06-Aug-2020 4993.01 3486.83 82.36 3.00 409.96 2644.18
   20:26:31.503.06-Aug-2020 4993.01 3486.86 82.36 3.00 410.16 2644.18
   20:26:31.703.06-Aug-2020 4993.01 3486.86 82.36 3.00 410.36 2644.18
   20:26:31.903.06-Aug-2020 4993.01 3486.85 82.36 3.00 410.56 2644.18
   20:26:32.103.06-Aug-2020 4993.01 3486.81 82.36 3.00 410.76 2644.18
   20:26:32.303.06-Aug-2020 4993.01 3486.85 82.36 3.00 410.96 2644.18
   20:26:32.504.06-Aug-2020 4993.01 3486.68 82.36 3.00 411.16 2644.18
   20:26:32.704.06-Aug-2020 4993.01 3486.68 82.36 3.00 411.36 2644.18
   20:26:32.904.06-Aug-2020 4993.01 3486.75 82.36 3.00 411.56 2644.18
   20:26:33.104.06-Aug-2020 4993.01 3486.86 82.36 3.00 411.76 2644.18
   20:26:33.304.06-Aug-2020 4993.01 3486.87 82.36 3.00 411.96 2644.18
   20:26:33.504.06-Aug-2020 4993.01 3486.84 82.36 3.00 412.16 2644.18
   20:26:33.704.06-Aug-2020 4993.01 3486.84 82.36 3.00 412.36 2644.18
   20:26:33.904.06-Aug-2020 4993.01 3486.98 82.36 3.00 412.56 2644.18
   20:26:34.104.06-Aug-2020 4993.01 3486.92 82.36 3.00 412.76 2644.18
   20:26:34.304.06-Aug-2020 4993.01 3486.83 82.36 3.00 412.96 2644.18
   20:26:34.504.06-Aug-2020 4993.01 3486.87 82.36 3.00 413.16 2644.18
   20:26:34.704.06-Aug-2020 4993.01 3486.80 82.36 3.00 413.36 2644.18
   20:26:34.904.06-Aug-2020 4993.01 3486.82 82.36 3.00 413.56 2644.18
   20:26:35.105.06-Aug-2020 4993.01 3486.91 82.36 3.00 413.76 2644.18
   20:26:35.305.06-Aug-2020 4993.01 3486.71 82.36 3.00 413.96 2644.18
