~Version Information
 VERS.                  2.0:   CWLS log ASCII Standard -VERSION 2.0
 WRAP.                   NO:   One line per depth step
~Well Information Block
#MNEM.UNIT     VALUE/NAME     DESCRIPTION
#---------     -----------    ---------------------------
 STRT.S             01:47:02 07-Aug-20: START TIME 01:47:02 07-Aug-20
 STOP.S             01:54:54 07-Aug-20: STOP TIME  01:54:54 07-Aug-20
 STEP.S                   0.00: STEP TIME
 NULL.                 -999.25: NULL VALUE
 DFWT.                        :  DIST FWL TEXT
 DFST.                        :  DIST FSL TEXT
 DMF .             Drill Floor:  DRILL MEAS FROM
 STIM.      12.00.00 03-Jul-20:  START TIME
 DATE.      00.50.00 09-Aug-20:  END TIME
 SPUD.               03-Jul-20:  SPUD DATE
 NREF.                    Grid:  NORTH REFERENCE
 HPTY.       Minimum Curvature:  HOLE POS TYPE
 DMOD.             Drill Model:  DRILL MOD DESC
 SVYD.                  Survey:  SURVEY DESC
 ILTD.               Lithology:  INTERP LTH DESC
 FTOP.          Formation Tops:  FORM TOPS DESC
 PDAT.          Mean Sea Level:  PERMANENT DATUM
 FLD .                     ACG:  FIELD NAME
 CTRY.              Azerbaijan:  COUNTRY NAME
 WELL.                    E04x:  WELL NAME
 SRVC.          Turan Drilling:  CONTRACTOR
 COMP.     BP Exploration (Caspian Sea) Ltd.:  COMPANY
 SON .        AZ-XX-0906531346:  JOB NUMBER
 WTYP.                Deviated:  WELL TYPE
 MDS .        Operator Entered:  MAG DATA SOURCE
 UWI .                     N/A:  UNIQUE WELL IDENTIFIER
 API .                     N/A:  API NUMBER
 BASE.              Azerbaijan:  LOGGING EQUIPMENT BASE LOCATION
 REGN.                   EESSA:  REGION
 PROV.                    Baku:  PROVINCE
 STAT.                    Baku:  STATE NAME
 MWDS.                    Baku:  MWD SHOP
 JOBN.        AZ-XX-0906531346:  JOB TICKET NUMB
 RIG .                     DWG:  RIG NAME
 DOE .                     N/A:  DOE NUMBER
 DCON.         Sperry Drilling:  DIRECTNL CONTR
 UNIT.                     N/A:  LOGGING EQUIPMENT ID
 CNTY.                        :  COUNTY
 LOC .                        :  LOCATION
 LMF .             Drill Floor:  LOG MEASURED FROM
 TVDS.m                  43.16:  TVDSS CORRECTN
 LATI.deg                40.17:  LATITUDE
 LONG.deg                51.17:  LONGITUDE
 WHNS.m                  -0.12:  WELL HEAD N/S
 WHEW.m                  -5.41:  WELL HEAD E/W
 UTMX.m              514337.95:  UTM X
 UTMY.m             4448627.46:  UTM Y
 DFWL.m                   0.00:  DISTANCE FWL
 DFSL.m                   0.00:  DISTANCE FSL
 SDEP.m                3088.01:  START DEPTH
 TDD .m                5200.01:  TOTAL DEPTH (DRILLER)
 VSDR.deg               244.51:  VERT SEC DIRECT
 GVFD.g                   1.00:  GRAVITY FIELD
 MFLD.nT              50329.80:  MAGNETIC FIELD
 MDIP.deg                59.63:  MAGNETIC DIP
 MDEC.deg                 6.59:  MAGNETIC DECL
 GRDC.deg                 0.09:  GRID CORRECTION
 AZTC.deg                 6.50:  AZM TOTAL CORR
 EPD .m                   0.00:  ELEVATION
 EGL .m                   0.00:  GROUND ELEVATION
 WDMS.m                 176.20:  WD ELEV
 APD .m                  43.16:  DEPTH ABOVE PD
 DEP .m                3084.71:  DEPTH
 AGAP.m                  43.16:  AIR GAP
 VSEW.m                  -5.41:  VERT SEC E/W
 VSNS.m                  -0.12:  VERT SEC N/S
 EKB .m                   0.00:  KB ELEVATION
 EDF .m                  43.16:  DF ELEVATION
 TDL .m                 243.00:  TOTAL DEPTH (LOGGER)
 VSC .                       0:  VS TO CLOSURE
 MAGU.                 1853542:  MAGUTM CHECKSUM
~Parameter Information Block
#MNEM.UNIT       Value        Description
#---------     -----------    ---------------------------
 AV  .mps                 1.91:  Ann Velocity 
 AVMX.mps                 2.52:  Max Ann Veloc 
 AZIF.deg               308.97:  Azm, Final 
 BHAT.        Rotary Steerable:  BHA Type 
 BROT.°/30m               1.00:  Build Rotating 
 BS  .in                  6.50:  Bit Size 
 BSZ .in                  6.50:  Bit Size 
 BTPL.psig              350.00:  Bit Press Loss 
 CABU.                      No:  Customer Abuse 
 CGEO.           Asif Pashayev:  Customer Geo 
 COMM.                     Ô¿r:  Run Comments 1 
 TCS .hr                 35.86:  Time Ciculation Ended 
 CV  .mps                 2.31:  Crit Velocity 
 CVMX.mps                 2.31:  Max Crit Veloc 
 DD1 .         Intigam Rahimov:  Direct Drillr 1 
 DDSV.               Geo-Pilot:  DD Service 
 DEFF.%                  92.00:  % Det Eff 
 DLRX.°/30m               1.00:  Dogleg Rot Max 
 DLSO.°/30m               1.00:  Dogleg Oriented 
 DLSX.°/30m               1.42:  Dogleg Str Max 
 DRET.      15.50.00 07-Aug-20:  Drill End Time 
 DRST.      10.40.00 06-Aug-20:  Drill Start Tim 
 DTIM.hr                 21.30:  Time Drilling 
 EDEP.m                5200.01:  End Depth 
 ENG1.            Alan Tuganov:  Engineer 1 
 ENG2.         Almaz Almadatov:  Engineer 2 
 ENG3.     Zammelal Abdullah Sani:  Engineer 3 
 ETIM.      22.42.00 08-Aug-20:  End Time 
 FLOI.gpm               395.00:  Flow In 
 FLON.gpm               350.00:  Flow In Min 
 FLOS.cptm                0.00:  Fluid Loss 
 FLOX.gpm               404.00:  Flow In Max 
 FTRO.       Formation Presure:  FTWD Run Obj 
 HFLO.                      No:  High Flow 
 HPRE.                      No:  High Pressure 
 HTEM.                      No:  High Temp 
 HYDO.m                   1.80:  Hydro Offset 
 IFIN.deg                72.64:  Inc, Final 
 IMAX.deg                73.68:  Inc Max 
 IMIN.deg                72.64:  Inc Min 
 IMND.m                5189.69:  Inc Min Depth 
 IMXD.m                5067.88:  Inc Max Depth 
 JARR.                      No:  Jarring 
 LETM.      15.50.00 07-Aug-20:  Log End Time 
 LOST.hr                     0:  Lost Rig Time 
 LSTM.      10.40.00 06-Aug-20:  Log Start Time 
 MDCL.ppm             36000.00:  Mud Chlorides 
 MDES.     Inversion Oil/Synthetic:  Mud Desc 
 DFD .sg                  1.36:  Mud Density 
 MDMN.sg                  1.36:  Dens Mud Min 
 MDMX.sg                  1.36:  Dens Mud Max 
 MOIL.                      70:  Run Mud Oil % 
 MOWR.                   70:30:  Run Mud OWR 
 MSND.                    0.00:  Run Mud Sand % 
 MSOL.                   17.60:  Run Mud Solids% 
 DFV .spqt               73.00:  Mud Viscosity 
 MWOD.in                  4.75:  MWD Tool OD 
 MWSI.                      No:  Serv Intrp, MWD 
 OTIM.hr                 85.66:  Time Operating 
 PCON.           Look Like New:  Pad Condition 
 PMAX.psia             6250.00:  Press Op, Max 
 PV  .cP                 65.00:  Mud PV 
 RUN .                     900:  Run Number 
 ROPA.m/hr               11.40:  ROP Avg 
 ROPN.m/hr                5.00:  ROP Min 
 ROPX.m/hr               20.00:  ROP Max 
 RPMA.rpm               130.00:  RPM Surface Avg 
 RPMN.rpm                40.00:  RPM Surface Min 
 RPMX.rpm               140.00:  RPM Surface Max 
 RRUN.                    L205:  Rig Run Number 
 RTIM.hr                  1.00:  Time Reaming 
 SAZI.deg               313.52:  Azm, Start 
 SDEP.m                4957.01:  Start Depth 
 SIDD.                      No:  Serv Intrp, DD 
 SINC.deg                73.16:  Inc, Start 
 SPPA.psig             5657.00:  SPP Avg 
 SPPN.psig             2500.00:  SPP Min 
 SPPX.psig             5806.00:  SPP Max 
 STIM.      07.12.00 05-Aug-20:  Start Time 
 SVCS.                 DD, MWD:  Services 
 SVER.                    9.20:  Sperry Version 
 TDAT.m                 243.00:  Tot Depth Attmp 
 TDDF.                      No:  Trip for DD 
 TDLG.m                 243.00:  Tot Depth Loggd 
 TFF .                      No:  Trip for Fail 
 TQAA.f-kp               13.00:  Torque Abs Avg 
 TQAN.f-kp               11.00:  Torque Abs Min 
 TQAX.f-kp               16.00:  Torque Abs Max 
 TRRT.°/30m               1.00:  Turn Rotating 
 MRT .                    HCIM:  Maximum Recorded Temperature 
 TTMX.degC               96.08:  Max Tool Temp 
 VS01.                90515411:  Virtual Str1 SN 
 VS02.                90512716:  Virtual Str2 SN 
 VS03.                90522362:  Virtual Str3 SN 
 VS04.                90619415:  Virtual Str4 SN 
 VS05.                90619414:  Virtual Str5 SN 
 VS06.                90597748:  Virtual Str6 SN 
 WBMN.klb                 2.00:  WOB Min 
 WITN.           Adil Mammadov:  Customer Rep 
 WITN.     Alexander Yadullayev:  Customer Rep 2 
 WOBA.klb                 7.00:  WOB Avg 
 WOBX.klb                23.00:  WOB Max 
 YP  .lhf2               37.00:  Yield Point 
~Curve Information Block
#MNEM.UNIT                 API CODE     Curve Description
#---------               -----------    ---------------------------
 TIME.HHMMSS            00 000 000 000:  GT Time & Date
 GTDEPTH.m              00 000 000 000:  GT Depth
 GTPQH.psia             00 000 000 000:  GT HR Quartz Pressure
 GTTQ.degC              00 000 000 000:  GT Quartz Temperature
 GTTN.NONE              00 000 000 000:  GT Test Number
 GTET.sec               00 000 000 000:  GT Elapsed Test Time
 GTTVD.m                00 000 000 000:  GT True Vertical Depth
#Other Information
#
#WARRANTY: Halliburton will use its best efforts to furnish customers with 
#accurate information and interpretations that are part of, and incident to, the services 
#provided.  However, Halliburton cannot and does not warrant the accuracy 
#or correctness of such information and interpretations.  Under no circumstances should any 
#such information or interpretation be relied upon as the sole basis for any drilling, 
#completion, production, or financial decision or any procedure involving any risk to the 
#safety of any drilling venture, drilling rig or its crew or any other third party.  The 
#Customer has full responsibility for all drilling, completion and production operation.  
#Halliburton makes no representations or warranties, either expressed or 
#implied, including, but not limited to, the implied warranties of merchantability or fitness 
#for a particular purpose, with respect to the services rendered.  In no event will 
#Halliburton be liable for failure to obtain any particular results or for 
#any damages, including, but not limited to, indirect, special or consequential damages, 
#resulting from the use of any information or interpretation provided by Halliburton.
#
~A           TIME           GTDEPTH  GTPQH  GTTQ  GTTN  GTET   GTTVD  
# ...
   01:53:10.507.07-Aug-2020 5042.01 3681.02 85.15 6.00 368.09 2658.32
   01:53:10.707.07-Aug-2020 5042.01 3681.02 85.15 6.00 368.29 2658.32
   01:53:10.907.07-Aug-2020 5042.01 3681.09 85.15 6.00 368.49 2658.32
   01:53:11.107.07-Aug-2020 5042.01 3680.97 85.15 6.00 368.69 2658.32
   01:53:11.307.07-Aug-2020 5042.01 3681.06 85.15 6.00 368.89 2658.32
   01:53:11.507.07-Aug-2020 5042.01 3680.99 85.15 6.00 369.09 2658.32
   01:53:11.707.07-Aug-2020 5042.01 3680.99 85.15 6.00 369.29 2658.32
   01:53:11.907.07-Aug-2020 5042.01 3681.00 85.15 6.00 369.49 2658.32
   01:53:12.108.07-Aug-2020 5042.01 3681.06 85.15 6.00 369.69 2658.32
   01:53:12.308.07-Aug-2020 5042.01 3681.01 85.15 6.00 369.89 2658.32
   01:53:12.508.07-Aug-2020 5042.01 3681.05 85.15 6.00 370.09 2658.32
   01:53:12.708.07-Aug-2020 5042.01 3681.05 85.15 6.00 370.29 2658.32
   01:53:12.908.07-Aug-2020 5042.01 3681.02 85.15 6.00 370.49 2658.32
   01:53:13.108.07-Aug-2020 5042.01 3681.00 85.15 6.00 370.69 2658.32
   01:53:13.308.07-Aug-2020 5042.01 3680.76 85.15 6.00 370.89 2658.32
   01:53:13.508.07-Aug-2020 5042.01 3681.26 85.15 6.00 371.09 2658.32
   01:53:13.708.07-Aug-2020 5042.01 3681.26 85.15 6.00 371.29 2658.32
   01:53:13.908.07-Aug-2020 5042.01 3681.11 85.15 6.00 371.49 2658.32
   01:53:14.108.07-Aug-2020 5042.01 3680.98 85.15 6.00 371.69 2658.32
   01:53:14.308.07-Aug-2020 5042.01 3681.10 85.15 6.00 371.89 2658.32
   01:53:14.508.07-Aug-2020 5042.01 3680.89 85.15 6.00 372.09 2658.32
   01:53:14.708.07-Aug-2020 5042.01 3681.09 85.15 6.00 372.29 2658.32
   01:53:14.908.07-Aug-2020 5042.01 3681.01 85.15 6.00 372.49 2658.32
   01:53:15.108.07-Aug-2020 5042.01 3681.05 85.15 6.00 372.69 2658.32
   01:53:15.308.07-Aug-2020 5042.01 3680.95 85.15 6.00 372.89 2658.32
   01:53:15.508.07-Aug-2020 5042.01 3681.10 85.15 6.00 373.09 2658.32
   01:53:15.708.07-Aug-2020 5042.01 3680.93 85.15 6.00 373.29 2658.32
   01:53:15.908.07-Aug-2020 5042.01 3681.09 85.15 6.00 373.49 2658.32
   01:53:16.108.07-Aug-2020 5042.01 3680.97 85.15 6.00 373.69 2658.32
   01:53:16.309.07-Aug-2020 5042.01 3680.72 85.15 6.00 373.89 2658.32
   01:53:16.509.07-Aug-2020 5042.01 3681.32 85.15 6.00 374.09 2658.32
   01:53:16.709.07-Aug-2020 5042.01 3680.96 85.15 6.00 374.29 2658.32
   01:53:16.909.07-Aug-2020 5042.01 3681.09 85.14 6.00 374.49 2658.32
   01:53:17.109.07-Aug-2020 5042.01 3681.02 85.14 6.00 374.69 2658.32
   01:53:17.309.07-Aug-2020 5042.01 3681.04 85.14 6.00 374.89 2658.32
   01:53:17.509.07-Aug-2020 5042.01 3681.05 85.14 6.00 375.09 2658.32
   01:53:17.709.07-Aug-2020 5042.01 3681.05 85.14 6.00 375.29 2658.32
   01:53:17.909.07-Aug-2020 5042.01 3681.05 85.14 6.00 375.49 2658.32
   01:53:18.109.07-Aug-2020 5042.01 3681.00 85.14 6.00 375.69 2658.32
   01:53:18.309.07-Aug-2020 5042.01 3681.04 85.14 6.00 375.89 2658.32
   01:53:18.509.07-Aug-2020 5042.01 3681.01 85.14 6.00 376.09 2658.32
   01:53:18.709.07-Aug-2020 5042.01 3681.02 85.14 6.00 376.29 2658.32
   01:53:18.909.07-Aug-2020 5042.01 3681.00 85.14 6.00 376.49 2658.32
   01:53:19.109.07-Aug-2020 5042.01 3680.95 85.14 6.00 376.69 2658.32
   01:53:19.309.07-Aug-2020 5042.01 3681.06 85.14 6.00 376.89 2658.32
   01:53:19.509.07-Aug-2020 5042.01 3680.95 85.14 6.00 377.09 2658.32
   01:53:19.709.07-Aug-2020 5042.01 3680.95 85.14 6.00 377.29 2658.32
   01:53:19.909.07-Aug-2020 5042.01 3680.99 85.14 6.00 377.49 2658.32
   01:53:20.109.07-Aug-2020 5042.01 3681.06 85.14 6.00 377.69 2658.32
   01:53:20.309.07-Aug-2020 5042.01 3681.00 85.14 6.00 377.89 2658.32
   01:53:20.510.07-Aug-2020 5042.01 3681.04 85.14 6.00 378.09 2658.32
   01:53:20.710.07-Aug-2020 5042.01 3681.04 85.14 6.00 378.29 2658.32
   01:53:20.910.07-Aug-2020 5042.01 3681.04 85.14 6.00 378.49 2658.32
   01:53:21.110.07-Aug-2020 5042.01 3680.99 85.14 6.00 378.69 2658.32
   01:53:21.310.07-Aug-2020 5042.01 3681.03 85.14 6.00 378.89 2658.32
   01:53:21.510.07-Aug-2020 5042.01 3681.00 85.14 6.00 379.09 2658.32
   01:53:21.710.07-Aug-2020 5042.01 3681.00 85.14 6.00 379.29 2658.32
   01:53:21.910.07-Aug-2020 5042.01 3681.10 85.14 6.00 379.49 2658.32
   01:53:22.110.07-Aug-2020 5042.01 3680.96 85.14 6.00 379.69 2658.32
   01:53:22.310.07-Aug-2020 5042.01 3681.09 85.14 6.00 379.89 2658.32
   01:53:22.510.07-Aug-2020 5042.01 3680.99 85.14 6.00 380.09 2658.32
   01:53:22.710.07-Aug-2020 5042.01 3680.99 85.14 6.00 380.29 2658.32
   01:53:22.910.07-Aug-2020 5042.01 3681.00 85.14 6.00 380.49 2658.32
   01:53:23.110.07-Aug-2020 5042.01 3681.03 85.14 6.00 380.69 2658.32
   01:53:23.310.07-Aug-2020 5042.01 3681.05 85.14 6.00 380.89 2658.32
   01:53:23.510.07-Aug-2020 5042.01 3681.01 85.13 6.00 381.09 2658.32
   01:53:23.710.07-Aug-2020 5042.01 3681.01 85.13 6.00 381.29 2658.32
   01:53:23.910.07-Aug-2020 5042.01 3681.06 85.13 6.00 381.49 2658.32
   01:53:24.110.07-Aug-2020 5042.01 3681.00 85.13 6.00 381.69 2658.32
   01:53:24.310.07-Aug-2020 5042.01 3681.05 85.13 6.00 381.89 2658.32
   01:53:24.510.07-Aug-2020 5042.01 3681.00 85.13 6.00 382.09 2658.32
   01:53:24.710.07-Aug-2020 5042.01 3681.00 85.13 6.00 382.29 2658.32
   01:53:24.911.07-Aug-2020 5042.01 3681.10 85.13 6.00 382.49 2658.32
   01:53:25.111.07-Aug-2020 5042.01 3680.90 85.13 6.00 382.69 2658.32
   01:53:25.311.07-Aug-2020 5042.01 3681.10 85.13 6.00 382.89 2658.32
   01:53:25.511.07-Aug-2020 5042.01 3681.00 85.13 6.00 383.09 2658.32
   01:53:25.711.07-Aug-2020 5042.01 3681.00 85.13 6.00 383.29 2658.32
   01:53:25.911.07-Aug-2020 5042.01 3681.04 85.13 6.00 383.49 2658.32
   01:53:26.111.07-Aug-2020 5042.01 3681.01 85.13 6.00 383.69 2658.32
   01:53:26.311.07-Aug-2020 5042.01 3681.04 85.13 6.00 383.89 2658.32
   01:53:26.511.07-Aug-2020 5042.01 3681.00 85.13 6.00 384.09 2658.32
   01:53:26.711.07-Aug-2020 5042.01 3681.00 85.13 6.00 384.29 2658.32
   01:53:26.911.07-Aug-2020 5042.01 3681.00 85.13 6.00 384.49 2658.32
   01:53:27.111.07-Aug-2020 5042.01 3681.03 85.13 6.00 384.69 2658.32
   01:53:27.311.07-Aug-2020 5042.01 3680.98 85.13 6.00 384.89 2658.32
   01:53:27.511.07-Aug-2020 5042.01 3680.69 85.13 6.00 385.09 2658.32
   01:53:27.711.07-Aug-2020 5042.01 3680.69 85.13 6.00 385.29 2658.32
   01:53:27.911.07-Aug-2020 5042.01 3680.94 85.13 6.00 385.49 2658.32
   01:53:28.111.07-Aug-2020 5042.01 3681.09 85.13 6.00 385.69 2658.32
   01:53:28.311.07-Aug-2020 5042.01 3681.00 85.13 6.00 385.89 2658.32
   01:53:28.511.07-Aug-2020 5042.01 3681.03 85.13 6.00 386.09 2658.32
   01:53:28.711.07-Aug-2020 5042.01 3681.03 85.13 6.00 386.29 2658.32
   01:53:28.911.07-Aug-2020 5042.01 3681.02 85.13 6.00 386.49 2658.32
   01:53:29.112.07-Aug-2020 5042.01 3681.01 85.13 6.00 386.69 2658.32
   01:53:29.312.07-Aug-2020 5042.01 3681.02 85.13 6.00 386.89 2658.32
   01:53:29.512.07-Aug-2020 5042.01 3681.01 85.13 6.00 387.09 2658.32
   01:53:29.712.07-Aug-2020 5042.01 3681.01 85.13 6.00 387.29 2658.32
   01:53:29.912.07-Aug-2020 5042.01 3681.00 85.13 6.00 387.49 2658.32
   01:53:30.112.07-Aug-2020 5042.01 3680.99 85.13 6.00 387.69 2658.32
   01:53:30.312.07-Aug-2020 5042.01 3680.97 85.12 6.00 387.89 2658.32
   01:53:30.512.07-Aug-2020 5042.01 3680.99 85.12 6.00 388.09 2658.32
   01:53:30.712.07-Aug-2020 5042.01 3680.99 85.12 6.00 388.29 2658.32
   01:53:30.912.07-Aug-2020 5042.01 3681.03 85.12 6.00 388.49 2658.32
   01:53:31.112.07-Aug-2020 5042.01 3680.94 85.12 6.00 388.69 2658.32
   01:53:31.312.07-Aug-2020 5042.01 3681.07 85.12 6.00 388.89 2658.32
   01:53:31.512.07-Aug-2020 5042.01 3680.91 85.12 6.00 389.09 2658.32
   01:53:31.712.07-Aug-2020 5042.01 3680.91 85.12 6.00 389.29 2658.32
   01:53:31.912.07-Aug-2020 5042.01 3680.96 85.12 6.00 389.49 2658.32
   01:53:32.112.07-Aug-2020 5042.01 3680.83 85.12 6.00 389.69 2658.32
   01:53:32.312.07-Aug-2020 5042.01 3681.22 85.12 6.00 389.89 2658.32
   01:53:32.512.07-Aug-2020 5042.01 3680.93 85.12 6.00 390.09 2658.32
   01:53:32.712.07-Aug-2020 5042.01 3680.93 85.12 6.00 390.29 2658.32
   01:53:32.912.07-Aug-2020 5042.01 3681.00 85.12 6.00 390.49 2658.32
   01:53:33.112.07-Aug-2020 5042.01 3681.04 85.12 6.00 390.69 2658.32
   01:53:33.313.07-Aug-2020 5042.01 3680.93 85.12 6.00 390.89 2658.32
