~Version Information
 VERS.                  2.0:   CWLS log ASCII Standard -VERSION 2.0
 WRAP.                   NO:   One line per depth step
~Well Information Block
#MNEM.UNIT     VALUE/NAME     DESCRIPTION
#---------     -----------    ---------------------------
 STRT.S             00:43:02 07-Aug-20: START TIME 00:43:02 07-Aug-20
 STOP.S             00:50:54 07-Aug-20: STOP TIME  00:50:54 07-Aug-20
 STEP.S                   0.00: STEP TIME
 NULL.                 -999.25: NULL VALUE
 DFWT.                        :  DIST FWL TEXT
 DFST.                        :  DIST FSL TEXT
 DMF .             Drill Floor:  DRILL MEAS FROM
 STIM.      12.00.00 03-Jul-20:  START TIME
 DATE.      00.50.00 09-Aug-20:  END TIME
 SPUD.               03-Jul-20:  SPUD DATE
 NREF.                    Grid:  NORTH REFERENCE
 HPTY.       Minimum Curvature:  HOLE POS TYPE
 DMOD.             Drill Model:  DRILL MOD DESC
 SVYD.                  Survey:  SURVEY DESC
 ILTD.               Lithology:  INTERP LTH DESC
 FTOP.          Formation Tops:  FORM TOPS DESC
 PDAT.          Mean Sea Level:  PERMANENT DATUM
 FLD .                     ACG:  FIELD NAME
 CTRY.              Azerbaijan:  COUNTRY NAME
 WELL.                    E04x:  WELL NAME
 SRVC.          Turan Drilling:  CONTRACTOR
 COMP.     BP Exploration (Caspian Sea) Ltd.:  COMPANY
 SON .        AZ-XX-0906531346:  JOB NUMBER
 WTYP.                Deviated:  WELL TYPE
 MDS .        Operator Entered:  MAG DATA SOURCE
 UWI .                     N/A:  UNIQUE WELL IDENTIFIER
 API .                     N/A:  API NUMBER
 BASE.              Azerbaijan:  LOGGING EQUIPMENT BASE LOCATION
 REGN.                   EESSA:  REGION
 PROV.                    Baku:  PROVINCE
 STAT.                    Baku:  STATE NAME
 MWDS.                    Baku:  MWD SHOP
 JOBN.        AZ-XX-0906531346:  JOB TICKET NUMB
 RIG .                     DWG:  RIG NAME
 DOE .                     N/A:  DOE NUMBER
 DCON.         Sperry Drilling:  DIRECTNL CONTR
 UNIT.                     N/A:  LOGGING EQUIPMENT ID
 CNTY.                        :  COUNTY
 LOC .                        :  LOCATION
 LMF .             Drill Floor:  LOG MEASURED FROM
 TVDS.m                  43.16:  TVDSS CORRECTN
 LATI.deg                40.17:  LATITUDE
 LONG.deg                51.17:  LONGITUDE
 WHNS.m                  -0.12:  WELL HEAD N/S
 WHEW.m                  -5.41:  WELL HEAD E/W
 UTMX.m              514337.95:  UTM X
 UTMY.m             4448627.46:  UTM Y
 DFWL.m                   0.00:  DISTANCE FWL
 DFSL.m                   0.00:  DISTANCE FSL
 SDEP.m                3088.01:  START DEPTH
 TDD .m                5200.01:  TOTAL DEPTH (DRILLER)
 VSDR.deg               244.51:  VERT SEC DIRECT
 GVFD.g                   1.00:  GRAVITY FIELD
 MFLD.nT              50329.80:  MAGNETIC FIELD
 MDIP.deg                59.63:  MAGNETIC DIP
 MDEC.deg                 6.59:  MAGNETIC DECL
 GRDC.deg                 0.09:  GRID CORRECTION
 AZTC.deg                 6.50:  AZM TOTAL CORR
 EPD .m                   0.00:  ELEVATION
 EGL .m                   0.00:  GROUND ELEVATION
 WDMS.m                 176.20:  WD ELEV
 APD .m                  43.16:  DEPTH ABOVE PD
 DEP .m                3084.71:  DEPTH
 AGAP.m                  43.16:  AIR GAP
 VSEW.m                  -5.41:  VERT SEC E/W
 VSNS.m                  -0.12:  VERT SEC N/S
 EKB .m                   0.00:  KB ELEVATION
 EDF .m                  43.16:  DF ELEVATION
 TDL .m                 243.00:  TOTAL DEPTH (LOGGER)
 VSC .                       0:  VS TO CLOSURE
 MAGU.                 1853542:  MAGUTM CHECKSUM
~Parameter Information Block
#MNEM.UNIT       Value        Description
#---------     -----------    ---------------------------
 AV  .mps                 1.91:  Ann Velocity 
 AVMX.mps                 2.52:  Max Ann Veloc 
 AZIF.deg               308.97:  Azm, Final 
 BHAT.        Rotary Steerable:  BHA Type 
 BROT.°/30m               1.00:  Build Rotating 
 BS  .in                  6.50:  Bit Size 
 BSZ .in                  6.50:  Bit Size 
 BTPL.psig              350.00:  Bit Press Loss 
 CABU.                      No:  Customer Abuse 
 CGEO.           Asif Pashayev:  Customer Geo 
 COMM.                     ´è„:  Run Comments 1 
 TCS .hr                 35.86:  Time Ciculation Ended 
 CV  .mps                 2.31:  Crit Velocity 
 CVMX.mps                 2.31:  Max Crit Veloc 
 DD1 .         Intigam Rahimov:  Direct Drillr 1 
 DDSV.               Geo-Pilot:  DD Service 
 DEFF.%                  92.00:  % Det Eff 
 DLRX.°/30m               1.00:  Dogleg Rot Max 
 DLSO.°/30m               1.00:  Dogleg Oriented 
 DLSX.°/30m               1.42:  Dogleg Str Max 
 DRET.      15.50.00 07-Aug-20:  Drill End Time 
 DRST.      10.40.00 06-Aug-20:  Drill Start Tim 
 DTIM.hr                 21.30:  Time Drilling 
 EDEP.m                5200.01:  End Depth 
 ENG1.            Alan Tuganov:  Engineer 1 
 ENG2.         Almaz Almadatov:  Engineer 2 
 ENG3.     Zammelal Abdullah Sani:  Engineer 3 
 ETIM.      22.42.00 08-Aug-20:  End Time 
 FLOI.gpm               395.00:  Flow In 
 FLON.gpm               350.00:  Flow In Min 
 FLOS.cptm                0.00:  Fluid Loss 
 FLOX.gpm               404.00:  Flow In Max 
 FTRO.       Formation Presure:  FTWD Run Obj 
 HFLO.                      No:  High Flow 
 HPRE.                      No:  High Pressure 
 HTEM.                      No:  High Temp 
 HYDO.m                   1.80:  Hydro Offset 
 IFIN.deg                72.64:  Inc, Final 
 IMAX.deg                73.68:  Inc Max 
 IMIN.deg                72.64:  Inc Min 
 IMND.m                5189.69:  Inc Min Depth 
 IMXD.m                5067.88:  Inc Max Depth 
 JARR.                      No:  Jarring 
 LETM.      15.50.00 07-Aug-20:  Log End Time 
 LOST.hr                     0:  Lost Rig Time 
 LSTM.      10.40.00 06-Aug-20:  Log Start Time 
 MDCL.ppm             36000.00:  Mud Chlorides 
 MDES.     Inversion Oil/Synthetic:  Mud Desc 
 DFD .sg                  1.36:  Mud Density 
 MDMN.sg                  1.36:  Dens Mud Min 
 MDMX.sg                  1.36:  Dens Mud Max 
 MOIL.                      70:  Run Mud Oil % 
 MOWR.                   70:30:  Run Mud OWR 
 MSND.                    0.00:  Run Mud Sand % 
 MSOL.                   17.60:  Run Mud Solids% 
 DFV .spqt               73.00:  Mud Viscosity 
 MWOD.in                  4.75:  MWD Tool OD 
 MWSI.                      No:  Serv Intrp, MWD 
 OTIM.hr                 85.66:  Time Operating 
 PCON.           Look Like New:  Pad Condition 
 PMAX.psia             6250.00:  Press Op, Max 
 PV  .cP                 65.00:  Mud PV 
 RUN .                     900:  Run Number 
 ROPA.m/hr               11.40:  ROP Avg 
 ROPN.m/hr                5.00:  ROP Min 
 ROPX.m/hr               20.00:  ROP Max 
 RPMA.rpm               130.00:  RPM Surface Avg 
 RPMN.rpm                40.00:  RPM Surface Min 
 RPMX.rpm               140.00:  RPM Surface Max 
 RRUN.                    L205:  Rig Run Number 
 RTIM.hr                  1.00:  Time Reaming 
 SAZI.deg               313.52:  Azm, Start 
 SDEP.m                4957.01:  Start Depth 
 SIDD.                      No:  Serv Intrp, DD 
 SINC.deg                73.16:  Inc, Start 
 SPPA.psig             5657.00:  SPP Avg 
 SPPN.psig             2500.00:  SPP Min 
 SPPX.psig             5806.00:  SPP Max 
 STIM.      07.12.00 05-Aug-20:  Start Time 
 SVCS.                 DD, MWD:  Services 
 SVER.                    9.20:  Sperry Version 
 TDAT.m                 243.00:  Tot Depth Attmp 
 TDDF.                      No:  Trip for DD 
 TDLG.m                 243.00:  Tot Depth Loggd 
 TFF .                      No:  Trip for Fail 
 TQAA.f-kp               13.00:  Torque Abs Avg 
 TQAN.f-kp               11.00:  Torque Abs Min 
 TQAX.f-kp               16.00:  Torque Abs Max 
 TRRT.°/30m               1.00:  Turn Rotating 
 MRT .                    HCIM:  Maximum Recorded Temperature 
 TTMX.degC               96.08:  Max Tool Temp 
 VS01.                90515411:  Virtual Str1 SN 
 VS02.                90512716:  Virtual Str2 SN 
 VS03.                90522362:  Virtual Str3 SN 
 VS04.                90619415:  Virtual Str4 SN 
 VS05.                90619414:  Virtual Str5 SN 
 VS06.                90597748:  Virtual Str6 SN 
 WBMN.klb                 2.00:  WOB Min 
 WITN.           Adil Mammadov:  Customer Rep 
 WITN.     Alexander Yadullayev:  Customer Rep 2 
 WOBA.klb                 7.00:  WOB Avg 
 WOBX.klb                23.00:  WOB Max 
 YP  .lhf2               37.00:  Yield Point 
~Curve Information Block
#MNEM.UNIT                 API CODE     Curve Description
#---------               -----------    ---------------------------
 TIME.HHMMSS            00 000 000 000:  GT Time & Date
 GTDEPTH.m              00 000 000 000:  GT Depth
 GTPQH.psia             00 000 000 000:  GT HR Quartz Pressure
 GTTQ.degC              00 000 000 000:  GT Quartz Temperature
 GTTN.NONE              00 000 000 000:  GT Test Number
 GTET.sec               00 000 000 000:  GT Elapsed Test Time
 GTTVD.m                00 000 000 000:  GT True Vertical Depth
#Other Information
#
#WARRANTY: Halliburton will use its best efforts to furnish customers with 
#accurate information and interpretations that are part of, and incident to, the services 
#provided.  However, Halliburton cannot and does not warrant the accuracy 
#or correctness of such information and interpretations.  Under no circumstances should any 
#such information or interpretation be relied upon as the sole basis for any drilling, 
#completion, production, or financial decision or any procedure involving any risk to the 
#safety of any drilling venture, drilling rig or its crew or any other third party.  The 
#Customer has full responsibility for all drilling, completion and production operation.  
#Halliburton makes no representations or warranties, either expressed or 
#implied, including, but not limited to, the implied warranties of merchantability or fitness 
#for a particular purpose, with respect to the services rendered.  In no event will 
#Halliburton be liable for failure to obtain any particular results or for 
#any damages, including, but not limited to, indirect, special or consequential damages, 
#resulting from the use of any information or interpretation provided by Halliburton.
#
~A           TIME           GTDEPTH  GTPQH  GTTQ  GTTN  GTET   GTTVD  
# ...
   00:47:15.576.07-Aug-2020 5032.01 3673.69 86.19 5.00 253.06 2655.40
   00:47:15.776.07-Aug-2020 5032.01 3673.69 86.19 5.00 253.26 2655.40
   00:47:15.976.07-Aug-2020 5032.01 3673.68 86.19 5.00 253.46 2655.40
   00:47:16.176.07-Aug-2020 5032.01 3673.67 86.19 5.00 253.66 2655.40
   00:47:16.376.07-Aug-2020 5032.01 3673.66 86.19 5.00 253.86 2655.40
   00:47:16.576.07-Aug-2020 5032.01 3673.66 86.19 5.00 254.06 2655.40
   00:47:16.776.07-Aug-2020 5032.01 3673.66 86.19 5.00 254.26 2655.40
   00:47:16.976.07-Aug-2020 5032.01 3673.64 86.19 5.00 254.46 2655.40
   00:47:17.177.07-Aug-2020 5032.01 3673.67 86.19 5.00 254.66 2655.40
   00:47:17.377.07-Aug-2020 5032.01 3673.66 86.19 5.00 254.86 2655.40
   00:47:17.577.07-Aug-2020 5032.01 3673.61 86.19 5.00 255.06 2655.40
   00:47:17.777.07-Aug-2020 5032.01 3673.61 86.19 5.00 255.26 2655.40
   00:47:17.977.07-Aug-2020 5032.01 3673.63 86.19 5.00 255.46 2655.40
   00:47:18.177.07-Aug-2020 5032.01 3673.70 86.19 5.00 255.66 2655.40
   00:47:18.377.07-Aug-2020 5032.01 3673.64 86.19 5.00 255.86 2655.40
   00:47:18.577.07-Aug-2020 5032.01 3673.67 86.19 5.00 256.06 2655.40
   00:47:18.777.07-Aug-2020 5032.01 3673.67 86.19 5.00 256.26 2655.40
   00:47:18.977.07-Aug-2020 5032.01 3673.65 86.18 5.00 256.46 2655.40
   00:47:19.177.07-Aug-2020 5032.01 3673.66 86.18 5.00 256.66 2655.40
   00:47:19.377.07-Aug-2020 5032.01 3673.67 86.18 5.00 256.86 2655.40
   00:47:19.577.07-Aug-2020 5032.01 3673.65 86.18 5.00 257.06 2655.40
   00:47:19.777.07-Aug-2020 5032.01 3673.65 86.18 5.00 257.26 2655.40
   00:47:19.977.07-Aug-2020 5032.01 3673.64 86.18 5.00 257.46 2655.40
   00:47:20.177.07-Aug-2020 5032.01 3673.66 86.18 5.00 257.66 2655.40
   00:47:20.377.07-Aug-2020 5032.01 3673.59 86.18 5.00 257.86 2655.40
   00:47:20.577.07-Aug-2020 5032.01 3673.70 86.18 5.00 258.06 2655.40
   00:47:20.777.07-Aug-2020 5032.01 3673.70 86.18 5.00 258.26 2655.40
   00:47:20.977.07-Aug-2020 5032.01 3673.68 86.18 5.00 258.46 2655.40
   00:47:21.177.07-Aug-2020 5032.01 3673.59 86.18 5.00 258.66 2655.40
   00:47:21.378.07-Aug-2020 5032.01 3673.71 86.18 5.00 258.86 2655.40
   00:47:21.578.07-Aug-2020 5032.01 3673.66 86.18 5.00 259.06 2655.40
   00:47:21.778.07-Aug-2020 5032.01 3673.66 86.18 5.00 259.26 2655.40
   00:47:21.978.07-Aug-2020 5032.01 3673.66 86.18 5.00 259.46 2655.40
   00:47:22.178.07-Aug-2020 5032.01 3673.67 86.18 5.00 259.66 2655.40
   00:47:22.378.07-Aug-2020 5032.01 3673.60 86.18 5.00 259.86 2655.40
   00:47:22.578.07-Aug-2020 5032.01 3673.71 86.18 5.00 260.06 2655.40
   00:47:22.778.07-Aug-2020 5032.01 3673.71 86.18 5.00 260.26 2655.40
   00:47:22.978.07-Aug-2020 5032.01 3673.67 86.18 5.00 260.46 2655.40
   00:47:23.178.07-Aug-2020 5032.01 3673.65 86.17 5.00 260.66 2655.40
   00:47:23.378.07-Aug-2020 5032.01 3673.61 86.17 5.00 260.86 2655.40
   00:47:23.578.07-Aug-2020 5032.01 3673.73 86.17 5.00 261.06 2655.40
   00:47:23.778.07-Aug-2020 5032.01 3673.73 86.17 5.00 261.26 2655.40
   00:47:23.978.07-Aug-2020 5032.01 3673.69 86.17 5.00 261.46 2655.40
   00:47:24.178.07-Aug-2020 5032.01 3673.67 86.17 5.00 261.66 2655.40
   00:47:24.378.07-Aug-2020 5032.01 3673.68 86.17 5.00 261.86 2655.40
   00:47:24.578.07-Aug-2020 5032.01 3673.67 86.17 5.00 262.06 2655.40
   00:47:24.778.07-Aug-2020 5032.01 3673.67 86.17 5.00 262.26 2655.40
   00:47:24.978.07-Aug-2020 5032.01 3673.65 86.17 5.00 262.46 2655.40
   00:47:25.178.07-Aug-2020 5032.01 3673.67 86.17 5.00 262.66 2655.40
   00:47:25.378.07-Aug-2020 5032.01 3673.65 86.17 5.00 262.86 2655.40
   00:47:25.578.07-Aug-2020 5032.01 3673.67 86.17 5.00 263.06 2655.40
   00:47:25.779.07-Aug-2020 5032.01 3673.67 86.17 5.00 263.26 2655.40
   00:47:25.979.07-Aug-2020 5032.01 3673.66 86.17 5.00 263.46 2655.40
   00:47:26.179.07-Aug-2020 5032.01 3673.64 86.17 5.00 263.66 2655.40
   00:47:26.379.07-Aug-2020 5032.01 3673.67 86.17 5.00 263.86 2655.40
   00:47:26.579.07-Aug-2020 5032.01 3673.67 86.17 5.00 264.06 2655.40
   00:47:26.779.07-Aug-2020 5032.01 3673.67 86.17 5.00 264.26 2655.40
   00:47:26.979.07-Aug-2020 5032.01 3673.65 86.17 5.00 264.46 2655.40
   00:47:27.179.07-Aug-2020 5032.01 3673.67 86.16 5.00 264.66 2655.40
   00:47:27.379.07-Aug-2020 5032.01 3673.66 86.16 5.00 264.86 2655.40
   00:47:27.579.07-Aug-2020 5032.01 3673.67 86.16 5.00 265.06 2655.40
   00:47:27.779.07-Aug-2020 5032.01 3673.67 86.16 5.00 265.26 2655.40
   00:47:27.979.07-Aug-2020 5032.01 3673.67 86.16 5.00 265.46 2655.40
   00:47:28.179.07-Aug-2020 5032.01 3673.65 86.16 5.00 265.66 2655.40
   00:47:28.379.07-Aug-2020 5032.01 3673.66 86.16 5.00 265.86 2655.40
   00:47:28.579.07-Aug-2020 5032.01 3673.64 86.16 5.00 266.06 2655.40
   00:47:28.779.07-Aug-2020 5032.01 3673.55 86.16 5.00 266.26 2655.40
   00:47:28.979.07-Aug-2020 5032.01 3673.79 86.16 5.00 266.46 2655.40
   00:47:29.179.07-Aug-2020 5032.01 3673.63 86.16 5.00 266.66 2655.40
   00:47:29.379.07-Aug-2020 5032.01 3673.70 86.16 5.00 266.86 2655.40
   00:47:29.579.07-Aug-2020 5032.01 3673.55 86.16 5.00 267.06 2655.40
   00:47:29.779.07-Aug-2020 5032.01 3673.55 86.16 5.00 267.26 2655.40
   00:47:29.980.07-Aug-2020 5032.01 3673.62 86.16 5.00 267.46 2655.40
   00:47:30.180.07-Aug-2020 5032.01 3673.72 86.16 5.00 267.66 2655.40
   00:47:30.380.07-Aug-2020 5032.01 3673.66 86.16 5.00 267.86 2655.40
   00:47:30.580.07-Aug-2020 5032.01 3673.69 86.16 5.00 268.06 2655.40
   00:47:30.780.07-Aug-2020 5032.01 3673.56 86.16 5.00 268.26 2655.40
   00:47:30.980.07-Aug-2020 5032.01 3673.82 86.16 5.00 268.46 2655.40
   00:47:31.180.07-Aug-2020 5032.01 3673.63 86.15 5.00 268.66 2655.40
   00:47:31.380.07-Aug-2020 5032.01 3673.72 86.15 5.00 268.86 2655.40
   00:47:31.580.07-Aug-2020 5032.01 3673.66 86.15 5.00 269.06 2655.40
   00:47:31.780.07-Aug-2020 5032.01 3673.63 86.15 5.00 269.26 2655.40
   00:47:31.980.07-Aug-2020 5032.01 3673.74 86.15 5.00 269.46 2655.40
   00:47:32.180.07-Aug-2020 5032.01 3673.64 86.15 5.00 269.66 2655.40
   00:47:32.380.07-Aug-2020 5032.01 3673.72 86.15 5.00 269.86 2655.40
   00:47:32.580.07-Aug-2020 5032.01 3673.67 86.15 5.00 270.06 2655.40
   00:47:32.780.07-Aug-2020 5032.01 3673.67 86.15 5.00 270.26 2655.40
   00:47:32.980.07-Aug-2020 5032.01 3673.68 86.15 5.00 270.46 2655.40
   00:47:33.180.07-Aug-2020 5032.01 3673.66 86.15 5.00 270.66 2655.40
   00:47:33.380.07-Aug-2020 5032.01 3673.67 86.15 5.00 270.86 2655.40
   00:47:33.580.07-Aug-2020 5032.01 3673.66 86.15 5.00 271.06 2655.40
   00:47:33.780.07-Aug-2020 5032.01 3673.67 86.15 5.00 271.26 2655.40
   00:47:33.980.07-Aug-2020 5032.01 3673.65 86.15 5.00 271.46 2655.40
   00:47:34.181.07-Aug-2020 5032.01 3673.65 86.15 5.00 271.66 2655.40
   00:47:34.381.07-Aug-2020 5032.01 3673.67 86.15 5.00 271.86 2655.40
   00:47:34.581.07-Aug-2020 5032.01 3673.57 86.15 5.00 272.06 2655.40
   00:47:34.781.07-Aug-2020 5032.01 3673.74 86.15 5.00 272.26 2655.40
   00:47:34.981.07-Aug-2020 5032.01 3673.63 86.15 5.00 272.46 2655.40
   00:47:35.181.07-Aug-2020 5032.01 3673.70 86.15 5.00 272.66 2655.40
   00:47:35.381.07-Aug-2020 5032.01 3673.64 86.14 5.00 272.86 2655.40
   00:47:35.581.07-Aug-2020 5032.01 3673.67 86.14 5.00 273.06 2655.40
   00:47:35.781.07-Aug-2020 5032.01 3673.67 86.14 5.00 273.26 2655.40
   00:47:35.981.07-Aug-2020 5032.01 3673.67 86.14 5.00 273.46 2655.40
   00:47:36.181.07-Aug-2020 5032.01 3673.64 86.14 5.00 273.66 2655.40
   00:47:36.381.07-Aug-2020 5032.01 3673.67 86.14 5.00 273.86 2655.40
   00:47:36.581.07-Aug-2020 5032.01 3673.63 86.14 5.00 274.06 2655.40
   00:47:36.781.07-Aug-2020 5032.01 3673.63 86.14 5.00 274.26 2655.40
   00:47:36.981.07-Aug-2020 5032.01 3673.63 86.14 5.00 274.46 2655.40
   00:47:37.181.07-Aug-2020 5032.01 3673.60 86.14 5.00 274.66 2655.40
   00:47:37.381.07-Aug-2020 5032.01 3673.70 86.14 5.00 274.86 2655.40
   00:47:37.581.07-Aug-2020 5032.01 3673.60 86.14 5.00 275.06 2655.40
   00:47:37.781.07-Aug-2020 5032.01 3673.60 86.14 5.00 275.26 2655.40
   00:47:37.981.07-Aug-2020 5032.01 3673.59 86.14 5.00 275.46 2655.40
   00:47:38.181.07-Aug-2020 5032.01 3673.72 86.14 5.00 275.66 2655.40
   00:47:38.382.07-Aug-2020 5032.01 3673.61 86.14 5.00 275.86 2655.40
