~Version Information
 VERS.                  2.0:   CWLS log ASCII Standard -VERSION 2.0
 WRAP.                   NO:   One line per depth step
~Well Information Block
#MNEM.UNIT     VALUE/NAME     DESCRIPTION
#---------     -----------    ---------------------------
 STRT.S             16:10:03 06-Aug-20: START TIME 16:10:03 06-Aug-20
 STOP.S             16:17:57 06-Aug-20: STOP TIME  16:17:57 06-Aug-20
 STEP.S                   0.00: STEP TIME
 NULL.                 -999.25: NULL VALUE
 DFWT.                        :  DIST FWL TEXT
 DFST.                        :  DIST FSL TEXT
 DMF .             Drill Floor:  DRILL MEAS FROM
 STIM.      12.00.00 03-Jul-20:  START TIME
 DATE.      00.50.00 09-Aug-20:  END TIME
 SPUD.               03-Jul-20:  SPUD DATE
 NREF.                    Grid:  NORTH REFERENCE
 HPTY.       Minimum Curvature:  HOLE POS TYPE
 DMOD.             Drill Model:  DRILL MOD DESC
 SVYD.                  Survey:  SURVEY DESC
 ILTD.               Lithology:  INTERP LTH DESC
 FTOP.          Formation Tops:  FORM TOPS DESC
 PDAT.          Mean Sea Level:  PERMANENT DATUM
 FLD .                     ACG:  FIELD NAME
 CTRY.              Azerbaijan:  COUNTRY NAME
 WELL.                    E04x:  WELL NAME
 SRVC.          Turan Drilling:  CONTRACTOR
 COMP.     BP Exploration (Caspian Sea) Ltd.:  COMPANY
 SON .        AZ-XX-0906531346:  JOB NUMBER
 WTYP.                Deviated:  WELL TYPE
 MDS .        Operator Entered:  MAG DATA SOURCE
 UWI .                     N/A:  UNIQUE WELL IDENTIFIER
 API .                     N/A:  API NUMBER
 BASE.              Azerbaijan:  LOGGING EQUIPMENT BASE LOCATION
 REGN.                   EESSA:  REGION
 PROV.                    Baku:  PROVINCE
 STAT.                    Baku:  STATE NAME
 MWDS.                    Baku:  MWD SHOP
 JOBN.        AZ-XX-0906531346:  JOB TICKET NUMB
 RIG .                     DWG:  RIG NAME
 DOE .                     N/A:  DOE NUMBER
 DCON.         Sperry Drilling:  DIRECTNL CONTR
 UNIT.                     N/A:  LOGGING EQUIPMENT ID
 CNTY.                        :  COUNTY
 LOC .                        :  LOCATION
 LMF .             Drill Floor:  LOG MEASURED FROM
 TVDS.m                  43.16:  TVDSS CORRECTN
 LATI.deg                40.17:  LATITUDE
 LONG.deg                51.17:  LONGITUDE
 WHNS.m                  -0.12:  WELL HEAD N/S
 WHEW.m                  -5.41:  WELL HEAD E/W
 UTMX.m              514337.95:  UTM X
 UTMY.m             4448627.46:  UTM Y
 DFWL.m                   0.00:  DISTANCE FWL
 DFSL.m                   0.00:  DISTANCE FSL
 SDEP.m                3088.01:  START DEPTH
 TDD .m                5200.01:  TOTAL DEPTH (DRILLER)
 VSDR.deg               244.51:  VERT SEC DIRECT
 GVFD.g                   1.00:  GRAVITY FIELD
 MFLD.nT              50329.80:  MAGNETIC FIELD
 MDIP.deg                59.63:  MAGNETIC DIP
 MDEC.deg                 6.59:  MAGNETIC DECL
 GRDC.deg                 0.09:  GRID CORRECTION
 AZTC.deg                 6.50:  AZM TOTAL CORR
 EPD .m                   0.00:  ELEVATION
 EGL .m                   0.00:  GROUND ELEVATION
 WDMS.m                 176.20:  WD ELEV
 APD .m                  43.16:  DEPTH ABOVE PD
 DEP .m                3084.71:  DEPTH
 AGAP.m                  43.16:  AIR GAP
 VSEW.m                  -5.41:  VERT SEC E/W
 VSNS.m                  -0.12:  VERT SEC N/S
 EKB .m                   0.00:  KB ELEVATION
 EDF .m                  43.16:  DF ELEVATION
 TDL .m                 243.00:  TOTAL DEPTH (LOGGER)
 VSC .                       0:  VS TO CLOSURE
 MAGU.                 1853542:  MAGUTM CHECKSUM
~Parameter Information Block
#MNEM.UNIT       Value        Description
#---------     -----------    ---------------------------
 AV  .mps                 1.91:  Ann Velocity 
 AVMX.mps                 2.52:  Max Ann Veloc 
 AZIF.deg               308.97:  Azm, Final 
 BHAT.        Rotary Steerable:  BHA Type 
 BROT.°/30m               1.00:  Build Rotating 
 BS  .in                  6.50:  Bit Size 
 BSZ .in                  6.50:  Bit Size 
 BTPL.psig              350.00:  Bit Press Loss 
 CABU.                      No:  Customer Abuse 
 CGEO.           Asif Pashayev:  Customer Geo 
 COMM.                     Ôöj:  Run Comments 1 
 TCS .hr                 35.86:  Time Ciculation Ended 
 CV  .mps                 2.31:  Crit Velocity 
 CVMX.mps                 2.31:  Max Crit Veloc 
 DD1 .         Intigam Rahimov:  Direct Drillr 1 
 DDSV.               Geo-Pilot:  DD Service 
 DEFF.%                  92.00:  % Det Eff 
 DLRX.°/30m               1.00:  Dogleg Rot Max 
 DLSO.°/30m               1.00:  Dogleg Oriented 
 DLSX.°/30m               1.42:  Dogleg Str Max 
 DRET.      15.50.00 07-Aug-20:  Drill End Time 
 DRST.      10.40.00 06-Aug-20:  Drill Start Tim 
 DTIM.hr                 21.30:  Time Drilling 
 EDEP.m                5200.01:  End Depth 
 ENG1.            Alan Tuganov:  Engineer 1 
 ENG2.         Almaz Almadatov:  Engineer 2 
 ENG3.     Zammelal Abdullah Sani:  Engineer 3 
 ETIM.      22.42.00 08-Aug-20:  End Time 
 FLOI.gpm               395.00:  Flow In 
 FLON.gpm               350.00:  Flow In Min 
 FLOS.cptm                0.00:  Fluid Loss 
 FLOX.gpm               404.00:  Flow In Max 
 FTRO.       Formation Presure:  FTWD Run Obj 
 HFLO.                      No:  High Flow 
 HPRE.                      No:  High Pressure 
 HTEM.                      No:  High Temp 
 HYDO.m                   1.80:  Hydro Offset 
 IFIN.deg                72.64:  Inc, Final 
 IMAX.deg                73.68:  Inc Max 
 IMIN.deg                72.64:  Inc Min 
 IMND.m                5189.69:  Inc Min Depth 
 IMXD.m                5067.88:  Inc Max Depth 
 JARR.                      No:  Jarring 
 LETM.      15.50.00 07-Aug-20:  Log End Time 
 LOST.hr                     0:  Lost Rig Time 
 LSTM.      10.40.00 06-Aug-20:  Log Start Time 
 MDCL.ppm             36000.00:  Mud Chlorides 
 MDES.     Inversion Oil/Synthetic:  Mud Desc 
 DFD .sg                  1.36:  Mud Density 
 MDMN.sg                  1.36:  Dens Mud Min 
 MDMX.sg                  1.36:  Dens Mud Max 
 MOIL.                      70:  Run Mud Oil % 
 MOWR.                   70:30:  Run Mud OWR 
 MSND.                    0.00:  Run Mud Sand % 
 MSOL.                   17.60:  Run Mud Solids% 
 DFV .spqt               73.00:  Mud Viscosity 
 MWOD.in                  4.75:  MWD Tool OD 
 MWSI.                      No:  Serv Intrp, MWD 
 OTIM.hr                 85.66:  Time Operating 
 PCON.           Look Like New:  Pad Condition 
 PMAX.psia             6250.00:  Press Op, Max 
 PV  .cP                 65.00:  Mud PV 
 RUN .                     900:  Run Number 
 ROPA.m/hr               11.40:  ROP Avg 
 ROPN.m/hr                5.00:  ROP Min 
 ROPX.m/hr               20.00:  ROP Max 
 RPMA.rpm               130.00:  RPM Surface Avg 
 RPMN.rpm                40.00:  RPM Surface Min 
 RPMX.rpm               140.00:  RPM Surface Max 
 RRUN.                    L205:  Rig Run Number 
 RTIM.hr                  1.00:  Time Reaming 
 SAZI.deg               313.52:  Azm, Start 
 SDEP.m                4957.01:  Start Depth 
 SIDD.                      No:  Serv Intrp, DD 
 SINC.deg                73.16:  Inc, Start 
 SPPA.psig             5657.00:  SPP Avg 
 SPPN.psig             2500.00:  SPP Min 
 SPPX.psig             5806.00:  SPP Max 
 STIM.      07.12.00 05-Aug-20:  Start Time 
 SVCS.                 DD, MWD:  Services 
 SVER.                    9.20:  Sperry Version 
 TDAT.m                 243.00:  Tot Depth Attmp 
 TDDF.                      No:  Trip for DD 
 TDLG.m                 243.00:  Tot Depth Loggd 
 TFF .                      No:  Trip for Fail 
 TQAA.f-kp               13.00:  Torque Abs Avg 
 TQAN.f-kp               11.00:  Torque Abs Min 
 TQAX.f-kp               16.00:  Torque Abs Max 
 TRRT.°/30m               1.00:  Turn Rotating 
 MRT .                    HCIM:  Maximum Recorded Temperature 
 TTMX.degC               96.08:  Max Tool Temp 
 VS01.                90515411:  Virtual Str1 SN 
 VS02.                90512716:  Virtual Str2 SN 
 VS03.                90522362:  Virtual Str3 SN 
 VS04.                90619415:  Virtual Str4 SN 
 VS05.                90619414:  Virtual Str5 SN 
 VS06.                90597748:  Virtual Str6 SN 
 WBMN.klb                 2.00:  WOB Min 
 WITN.           Adil Mammadov:  Customer Rep 
 WITN.     Alexander Yadullayev:  Customer Rep 2 
 WOBA.klb                 7.00:  WOB Avg 
 WOBX.klb                23.00:  WOB Max 
 YP  .lhf2               37.00:  Yield Point 
~Curve Information Block
#MNEM.UNIT                 API CODE     Curve Description
#---------               -----------    ---------------------------
 TIME.HHMMSS            00 000 000 000:  GT Time & Date
 GTDEPTH.m              00 000 000 000:  GT Depth
 GTPQH.psia             00 000 000 000:  GT HR Quartz Pressure
 GTTQ.degC              00 000 000 000:  GT Quartz Temperature
 GTTN.NONE              00 000 000 000:  GT Test Number
 GTET.sec               00 000 000 000:  GT Elapsed Test Time
 GTTVD.m                00 000 000 000:  GT True Vertical Depth
#Other Information
#
#WARRANTY: Halliburton will use its best efforts to furnish customers with 
#accurate information and interpretations that are part of, and incident to, the services 
#provided.  However, Halliburton cannot and does not warrant the accuracy 
#or correctness of such information and interpretations.  Under no circumstances should any 
#such information or interpretation be relied upon as the sole basis for any drilling, 
#completion, production, or financial decision or any procedure involving any risk to the 
#safety of any drilling venture, drilling rig or its crew or any other third party.  The 
#Customer has full responsibility for all drilling, completion and production operation.  
#Halliburton makes no representations or warranties, either expressed or 
#implied, including, but not limited to, the implied warranties of merchantability or fitness 
#for a particular purpose, with respect to the services rendered.  In no event will 
#Halliburton be liable for failure to obtain any particular results or for 
#any damages, including, but not limited to, indirect, special or consequential damages, 
#resulting from the use of any information or interpretation provided by Halliburton.
#
~A           TIME           GTDEPTH  GTPQH  GTTQ  GTTN  GTET   GTTVD  
# ...
   16:10:26.462.06-Aug-2020 4955.01 6521.52 81.03 2.00  23.00 2633.27
   16:10:26.662.06-Aug-2020 4955.01 6521.52 81.03 2.00  23.20 2633.27
   16:10:26.862.06-Aug-2020 4955.01 6498.40 81.02 2.00  23.41 2633.27
   16:10:27.062.06-Aug-2020 4955.01 6387.78 81.02 2.00  23.61 2633.27
   16:10:27.262.06-Aug-2020 4955.01 6328.59 81.02 2.00  23.81 2633.27
   16:10:27.462.06-Aug-2020 4955.01 6383.38 81.02 2.00  24.01 2633.27
   16:10:27.662.06-Aug-2020 4955.01 6383.38 81.02 2.00  24.21 2633.27
   16:10:27.862.06-Aug-2020 4955.01 6423.55 81.02 2.00  24.41 2633.27
   16:10:28.063.06-Aug-2020 4955.01 6433.79 81.02 2.00  24.61 2633.27
   16:10:28.263.06-Aug-2020 4955.01 6440.66 81.02 2.00  24.81 2633.27
   16:10:28.463.06-Aug-2020 4955.01 6443.05 81.02 2.00  25.01 2633.27
   16:10:28.663.06-Aug-2020 4955.01 6443.05 81.02 2.00  25.21 2633.27
   16:10:28.863.06-Aug-2020 4955.01 6448.31 81.02 2.00  25.41 2633.27
   16:10:29.063.06-Aug-2020 4955.01 6453.51 81.02 2.00  25.61 2633.27
   16:10:29.263.06-Aug-2020 4955.01 6457.27 81.02 2.00  25.81 2633.27
   16:10:29.463.06-Aug-2020 4955.01 6459.98 81.02 2.00  26.01 2633.27
   16:10:29.663.06-Aug-2020 4955.01 6459.98 81.02 2.00  26.21 2633.27
   16:10:29.863.06-Aug-2020 4955.01 6465.53 81.02 2.00  26.41 2633.27
   16:10:30.063.06-Aug-2020 4955.01 6467.48 81.02 2.00  26.61 2633.27
   16:10:30.263.06-Aug-2020 4955.01 6469.02 81.02 2.00  26.81 2633.27
   16:10:30.463.06-Aug-2020 4955.01 6470.74 81.02 2.00  27.01 2633.27
   16:10:30.663.06-Aug-2020 4955.01 6470.74 81.02 2.00  27.21 2633.27
   16:10:30.863.06-Aug-2020 4955.01 6473.65 81.02 2.00  27.41 2633.27
   16:10:31.063.06-Aug-2020 4955.01 6253.29 81.02 2.00  27.61 2633.27
   16:10:31.263.06-Aug-2020 4955.01 5633.35 81.02 2.00  27.81 2633.27
   16:10:31.463.06-Aug-2020 4955.01 5350.20 81.02 2.00  28.01 2633.27
   16:10:31.663.06-Aug-2020 4955.01 5350.20 81.02 2.00  28.21 2633.27
   16:10:31.863.06-Aug-2020 4955.01 4901.84 81.02 2.00  28.41 2633.27
   16:10:32.063.06-Aug-2020 4955.01 4560.84 81.02 2.00  28.61 2633.27
   16:10:32.263.06-Aug-2020 4955.01 4196.50 81.02 2.00  28.81 2633.27
   16:10:32.463.06-Aug-2020 4955.01 3806.34 81.02 2.00  29.01 2633.27
   16:10:32.664.06-Aug-2020 4955.01 3806.34 81.02 2.00  29.21 2633.27
   16:10:32.864.06-Aug-2020 4955.01 3080.18 81.02 2.00  29.41 2633.27
   16:10:33.064.06-Aug-2020 4955.01 2751.41 81.02 2.00  29.61 2633.27
   16:10:33.264.06-Aug-2020 4955.01 2462.10 81.01 2.00  29.81 2633.27
   16:10:33.464.06-Aug-2020 4955.01 2222.19 81.01 2.00  30.01 2633.27
   16:10:33.664.06-Aug-2020 4955.01 2222.19 81.01 2.00  30.21 2633.27
   16:10:33.864.06-Aug-2020 4955.01 1818.83 81.01 2.00  30.41 2633.27
   16:10:34.064.06-Aug-2020 4955.01 1659.79 81.01 2.00  30.61 2633.27
   16:10:34.264.06-Aug-2020 4955.01 1513.93 81.01 2.00  30.81 2633.27
   16:10:34.464.06-Aug-2020 4955.01 1406.08 81.01 2.00  31.01 2633.27
   16:10:34.664.06-Aug-2020 4955.01 1406.08 81.01 2.00  31.21 2633.27
   16:10:34.864.06-Aug-2020 4955.01 1393.92 81.01 2.00  31.41 2633.27
   16:10:35.064.06-Aug-2020 4955.01 1464.68 81.01 2.00  31.61 2633.27
   16:10:35.264.06-Aug-2020 4955.01 1559.83 81.01 2.00  31.81 2633.27
   16:10:35.464.06-Aug-2020 4955.01 1665.53 81.00 2.00  32.01 2633.27
   16:10:35.664.06-Aug-2020 4955.01 1665.53 81.00 2.00  32.21 2633.27
   16:10:35.864.06-Aug-2020 4955.01 1730.81 81.00 2.00  32.41 2633.27
   16:10:36.064.06-Aug-2020 4955.01 1774.50 81.00 2.00  32.61 2633.27
   16:10:36.264.06-Aug-2020 4955.01 1844.65 81.00 2.00  32.81 2633.27
   16:10:36.464.06-Aug-2020 4955.01 1917.19 81.00 2.00  33.01 2633.27
   16:10:36.664.06-Aug-2020 4955.01 1917.19 81.00 2.00  33.21 2633.27
   16:10:36.864.06-Aug-2020 4955.01 2027.10 80.99 2.00  33.41 2633.27
   16:10:37.064.06-Aug-2020 4955.01 2074.19 80.99 2.00  33.61 2633.27
   16:10:37.264.06-Aug-2020 4955.01 2114.49 80.99 2.00  33.81 2633.27
   16:10:37.465.06-Aug-2020 4955.01 2141.46 80.99 2.00  34.01 2633.27
   16:10:37.665.06-Aug-2020 4955.01 2141.46 80.99 2.00  34.21 2633.27
   16:10:37.865.06-Aug-2020 4955.01 2191.37 80.99 2.00  34.41 2633.27
   16:10:38.065.06-Aug-2020 4955.01 2221.91 80.99 2.00  34.61 2633.27
   16:10:38.265.06-Aug-2020 4955.01 2266.14 80.98 2.00  34.81 2633.27
   16:10:38.465.06-Aug-2020 4955.01 2312.75 80.98 2.00  35.01 2633.27
   16:10:38.665.06-Aug-2020 4955.01 2312.75 80.98 2.00  35.21 2633.27
   16:10:38.865.06-Aug-2020 4955.01 2406.87 80.98 2.00  35.41 2633.27
   16:10:39.065.06-Aug-2020 4955.01 2450.49 80.98 2.00  35.61 2633.27
   16:10:39.265.06-Aug-2020 4955.01 2487.71 80.98 2.00  35.81 2633.27
   16:10:39.465.06-Aug-2020 4955.01 2517.37 80.97 2.00  36.01 2633.27
   16:10:39.665.06-Aug-2020 4955.01 2517.37 80.97 2.00  36.21 2633.27
   16:10:39.865.06-Aug-2020 4955.01 2556.75 80.97 2.00  36.41 2633.27
   16:10:40.065.06-Aug-2020 4955.01 2575.68 80.97 2.00  36.61 2633.27
   16:10:40.265.06-Aug-2020 4955.01 2593.88 80.97 2.00  36.81 2633.27
   16:10:40.465.06-Aug-2020 4955.01 2601.17 80.97 2.00  37.01 2633.27
   16:10:40.665.06-Aug-2020 4955.01 2601.17 80.97 2.00  37.21 2633.27
   16:10:40.865.06-Aug-2020 4955.01 2863.52 80.97 2.00  37.41 2633.27
   16:10:41.065.06-Aug-2020 4955.01 3154.43 80.96 2.00  37.61 2633.27
   16:10:41.265.06-Aug-2020 4955.01 3384.00 80.96 2.00  37.81 2633.27
   16:10:41.465.06-Aug-2020 4955.01 3559.00 80.96 2.00  38.01 2633.27
   16:10:41.665.06-Aug-2020 4955.01 3559.00 80.96 2.00  38.21 2633.27
   16:10:41.865.06-Aug-2020 4955.01 3799.33 80.96 2.00  38.41 2633.27
   16:10:42.066.06-Aug-2020 4955.01 3881.09 80.96 2.00  38.61 2633.27
   16:10:42.266.06-Aug-2020 4955.01 3945.10 80.96 2.00  38.81 2633.27
   16:10:42.466.06-Aug-2020 4955.01 3995.23 80.96 2.00  39.01 2633.27
   16:10:42.666.06-Aug-2020 4955.01 3995.23 80.96 2.00  39.21 2633.27
   16:10:42.866.06-Aug-2020 4955.01 4068.44 80.95 2.00  39.41 2633.27
   16:10:43.066.06-Aug-2020 4955.01 4094.68 80.95 2.00  39.61 2633.27
   16:10:43.266.06-Aug-2020 4955.01 4115.93 80.95 2.00  39.81 2633.27
   16:10:43.466.06-Aug-2020 4955.01 4133.34 80.95 2.00  40.01 2633.27
   16:10:43.666.06-Aug-2020 4955.01 4133.34 80.95 2.00  40.21 2633.27
   16:10:43.866.06-Aug-2020 4955.01 4159.48 80.95 2.00  40.41 2633.27
   16:10:44.066.06-Aug-2020 4955.01 4169.34 80.95 2.00  40.61 2633.27
   16:10:44.266.06-Aug-2020 4955.01 4177.54 80.95 2.00  40.81 2633.27
   16:10:44.466.06-Aug-2020 4955.01 4184.61 80.95 2.00  41.01 2633.27
   16:10:44.666.06-Aug-2020 4955.01 4184.61 80.95 2.00  41.21 2633.27
   16:10:44.866.06-Aug-2020 4955.01 4195.55 80.95 2.00  41.41 2633.27
   16:10:45.066.06-Aug-2020 4955.01 4199.98 80.95 2.00  41.61 2633.27
   16:10:45.266.06-Aug-2020 4955.01 4203.44 80.95 2.00  41.81 2633.27
   16:10:45.466.06-Aug-2020 4955.01 4206.15 80.95 2.00  42.01 2633.27
   16:10:45.666.06-Aug-2020 4955.01 4206.15 80.95 2.00  42.21 2633.27
   16:10:45.866.06-Aug-2020 4955.01 4212.13 80.94 2.00  42.41 2633.27
   16:10:46.066.06-Aug-2020 4955.01 4214.59 80.94 2.00  42.61 2633.27
   16:10:46.266.06-Aug-2020 4955.01 4216.78 80.94 2.00  42.81 2633.27
   16:10:46.466.06-Aug-2020 4955.01 4218.76 80.94 2.00  43.01 2633.27
   16:10:46.666.06-Aug-2020 4955.01 4218.76 80.94 2.00  43.21 2633.27
   16:10:46.867.06-Aug-2020 4955.01 4222.01 80.94 2.00  43.41 2633.27
   16:10:47.067.06-Aug-2020 4955.01 4223.44 80.94 2.00  43.61 2633.27
   16:10:47.267.06-Aug-2020 4955.01 4224.74 80.94 2.00  43.81 2633.27
   16:10:47.467.06-Aug-2020 4955.01 4225.93 80.94 2.00  44.01 2633.27
   16:10:47.667.06-Aug-2020 4955.01 4225.93 80.94 2.00  44.21 2633.27
   16:10:47.867.06-Aug-2020 4955.01 4227.96 80.94 2.00  44.41 2633.27
   16:10:48.067.06-Aug-2020 4955.01 4228.34 80.94 2.00  44.61 2633.27
   16:10:48.267.06-Aug-2020 4955.01 4229.12 80.94 2.00  44.81 2633.27
   16:10:48.467.06-Aug-2020 4955.01 4230.15 80.94 2.00  45.01 2633.27
   16:10:48.667.06-Aug-2020 4955.01 4231.10 80.94 2.00  45.21 2633.27
   16:10:48.867.06-Aug-2020 4955.01 4231.80 80.94 2.00  45.41 2633.27
   16:10:49.067.06-Aug-2020 4955.01 4232.58 80.94 2.00  45.61 2633.27
   16:10:49.267.06-Aug-2020 4955.01 4233.26 80.94 2.00  45.81 2633.27
