~Version Information
 VERS.                  2.0:   CWLS log ASCII Standard -VERSION 2.0
 WRAP.                   NO:   One line per depth step
~Well Information Block
#MNEM.UNIT     VALUE/NAME     DESCRIPTION
#---------     -----------    ---------------------------
 STRT.S             20:19:41 06-Aug-20: START TIME 20:19:41 06-Aug-20
 STOP.S             20:27:33 06-Aug-20: STOP TIME  20:27:33 06-Aug-20
 STEP.S                   0.00: STEP TIME
 NULL.                 -999.25: NULL VALUE
 DFWT.                        :  DIST FWL TEXT
 DFST.                        :  DIST FSL TEXT
 DMF .             Drill Floor:  DRILL MEAS FROM
 STIM.      12.00.00 03-Jul-20:  START TIME
 DATE.      00.50.00 09-Aug-20:  END TIME
 SPUD.               03-Jul-20:  SPUD DATE
 NREF.                    Grid:  NORTH REFERENCE
 HPTY.       Minimum Curvature:  HOLE POS TYPE
 DMOD.             Drill Model:  DRILL MOD DESC
 SVYD.                  Survey:  SURVEY DESC
 ILTD.               Lithology:  INTERP LTH DESC
 FTOP.          Formation Tops:  FORM TOPS DESC
 PDAT.          Mean Sea Level:  PERMANENT DATUM
 FLD .                     ACG:  FIELD NAME
 CTRY.              Azerbaijan:  COUNTRY NAME
 WELL.                    E04x:  WELL NAME
 SRVC.          Turan Drilling:  CONTRACTOR
 COMP.     BP Exploration (Caspian Sea) Ltd.:  COMPANY
 SON .        AZ-XX-0906531346:  JOB NUMBER
 WTYP.                Deviated:  WELL TYPE
 MDS .        Operator Entered:  MAG DATA SOURCE
 UWI .                     N/A:  UNIQUE WELL IDENTIFIER
 API .                     N/A:  API NUMBER
 BASE.              Azerbaijan:  LOGGING EQUIPMENT BASE LOCATION
 REGN.                   EESSA:  REGION
 PROV.                    Baku:  PROVINCE
 STAT.                    Baku:  STATE NAME
 MWDS.                    Baku:  MWD SHOP
 JOBN.        AZ-XX-0906531346:  JOB TICKET NUMB
 RIG .                     DWG:  RIG NAME
 DOE .                     N/A:  DOE NUMBER
 DCON.         Sperry Drilling:  DIRECTNL CONTR
 UNIT.                     N/A:  LOGGING EQUIPMENT ID
 CNTY.                        :  COUNTY
 LOC .                        :  LOCATION
 LMF .             Drill Floor:  LOG MEASURED FROM
 TVDS.m                  43.16:  TVDSS CORRECTN
 LATI.deg                40.17:  LATITUDE
 LONG.deg                51.17:  LONGITUDE
 WHNS.m                  -0.12:  WELL HEAD N/S
 WHEW.m                  -5.41:  WELL HEAD E/W
 UTMX.m              514337.95:  UTM X
 UTMY.m             4448627.46:  UTM Y
 DFWL.m                   0.00:  DISTANCE FWL
 DFSL.m                   0.00:  DISTANCE FSL
 SDEP.m                3088.01:  START DEPTH
 TDD .m                5200.01:  TOTAL DEPTH (DRILLER)
 VSDR.deg               244.51:  VERT SEC DIRECT
 GVFD.g                   1.00:  GRAVITY FIELD
 MFLD.nT              50329.80:  MAGNETIC FIELD
 MDIP.deg                59.63:  MAGNETIC DIP
 MDEC.deg                 6.59:  MAGNETIC DECL
 GRDC.deg                 0.09:  GRID CORRECTION
 AZTC.deg                 6.50:  AZM TOTAL CORR
 EPD .m                   0.00:  ELEVATION
 EGL .m                   0.00:  GROUND ELEVATION
 WDMS.m                 176.20:  WD ELEV
 APD .m                  43.16:  DEPTH ABOVE PD
 DEP .m                3084.71:  DEPTH
 AGAP.m                  43.16:  AIR GAP
 VSEW.m                  -5.41:  VERT SEC E/W
 VSNS.m                  -0.12:  VERT SEC N/S
 EKB .m                   0.00:  KB ELEVATION
 EDF .m                  43.16:  DF ELEVATION
 TDL .m                 243.00:  TOTAL DEPTH (LOGGER)
 VSC .                       0:  VS TO CLOSURE
 MAGU.                 1853542:  MAGUTM CHECKSUM
~Parameter Information Block
#MNEM.UNIT       Value        Description
#---------     -----------    ---------------------------
 AV  .mps                 1.91:  Ann Velocity 
 AVMX.mps                 2.52:  Max Ann Veloc 
 AZIF.deg               308.97:  Azm, Final 
 BHAT.        Rotary Steerable:  BHA Type 
 BROT.°/30m               1.00:  Build Rotating 
 BS  .in                  6.50:  Bit Size 
 BSZ .in                  6.50:  Bit Size 
 BTPL.psig              350.00:  Bit Press Loss 
 CABU.                      No:  Customer Abuse 
 CGEO.           Asif Pashayev:  Customer Geo 
 COMM.                     4è‹:  Run Comments 1 
 TCS .hr                 35.86:  Time Ciculation Ended 
 CV  .mps                 2.31:  Crit Velocity 
 CVMX.mps                 2.31:  Max Crit Veloc 
 DD1 .         Intigam Rahimov:  Direct Drillr 1 
 DDSV.               Geo-Pilot:  DD Service 
 DEFF.%                  92.00:  % Det Eff 
 DLRX.°/30m               1.00:  Dogleg Rot Max 
 DLSO.°/30m               1.00:  Dogleg Oriented 
 DLSX.°/30m               1.42:  Dogleg Str Max 
 DRET.      15.50.00 07-Aug-20:  Drill End Time 
 DRST.      10.40.00 06-Aug-20:  Drill Start Tim 
 DTIM.hr                 21.30:  Time Drilling 
 EDEP.m                5200.01:  End Depth 
 ENG1.            Alan Tuganov:  Engineer 1 
 ENG2.         Almaz Almadatov:  Engineer 2 
 ENG3.     Zammelal Abdullah Sani:  Engineer 3 
 ETIM.      22.42.00 08-Aug-20:  End Time 
 FLOI.gpm               395.00:  Flow In 
 FLON.gpm               350.00:  Flow In Min 
 FLOS.cptm                0.00:  Fluid Loss 
 FLOX.gpm               404.00:  Flow In Max 
 FTRO.       Formation Presure:  FTWD Run Obj 
 HFLO.                      No:  High Flow 
 HPRE.                      No:  High Pressure 
 HTEM.                      No:  High Temp 
 HYDO.m                   1.80:  Hydro Offset 
 IFIN.deg                72.64:  Inc, Final 
 IMAX.deg                73.68:  Inc Max 
 IMIN.deg                72.64:  Inc Min 
 IMND.m                5189.69:  Inc Min Depth 
 IMXD.m                5067.88:  Inc Max Depth 
 JARR.                      No:  Jarring 
 LETM.      15.50.00 07-Aug-20:  Log End Time 
 LOST.hr                     0:  Lost Rig Time 
 LSTM.      10.40.00 06-Aug-20:  Log Start Time 
 MDCL.ppm             36000.00:  Mud Chlorides 
 MDES.     Inversion Oil/Synthetic:  Mud Desc 
 DFD .sg                  1.36:  Mud Density 
 MDMN.sg                  1.36:  Dens Mud Min 
 MDMX.sg                  1.36:  Dens Mud Max 
 MOIL.                      70:  Run Mud Oil % 
 MOWR.                   70:30:  Run Mud OWR 
 MSND.                    0.00:  Run Mud Sand % 
 MSOL.                   17.60:  Run Mud Solids% 
 DFV .spqt               73.00:  Mud Viscosity 
 MWOD.in                  4.75:  MWD Tool OD 
 MWSI.                      No:  Serv Intrp, MWD 
 OTIM.hr                 85.66:  Time Operating 
 PCON.           Look Like New:  Pad Condition 
 PMAX.psia             6250.00:  Press Op, Max 
 PV  .cP                 65.00:  Mud PV 
 RUN .                     900:  Run Number 
 ROPA.m/hr               11.40:  ROP Avg 
 ROPN.m/hr                5.00:  ROP Min 
 ROPX.m/hr               20.00:  ROP Max 
 RPMA.rpm               130.00:  RPM Surface Avg 
 RPMN.rpm                40.00:  RPM Surface Min 
 RPMX.rpm               140.00:  RPM Surface Max 
 RRUN.                    L205:  Rig Run Number 
 RTIM.hr                  1.00:  Time Reaming 
 SAZI.deg               313.52:  Azm, Start 
 SDEP.m                4957.01:  Start Depth 
 SIDD.                      No:  Serv Intrp, DD 
 SINC.deg                73.16:  Inc, Start 
 SPPA.psig             5657.00:  SPP Avg 
 SPPN.psig             2500.00:  SPP Min 
 SPPX.psig             5806.00:  SPP Max 
 STIM.      07.12.00 05-Aug-20:  Start Time 
 SVCS.                 DD, MWD:  Services 
 SVER.                    9.20:  Sperry Version 
 TDAT.m                 243.00:  Tot Depth Attmp 
 TDDF.                      No:  Trip for DD 
 TDLG.m                 243.00:  Tot Depth Loggd 
 TFF .                      No:  Trip for Fail 
 TQAA.f-kp               13.00:  Torque Abs Avg 
 TQAN.f-kp               11.00:  Torque Abs Min 
 TQAX.f-kp               16.00:  Torque Abs Max 
 TRRT.°/30m               1.00:  Turn Rotating 
 MRT .                    HCIM:  Maximum Recorded Temperature 
 TTMX.degC               96.08:  Max Tool Temp 
 VS01.                90515411:  Virtual Str1 SN 
 VS02.                90512716:  Virtual Str2 SN 
 VS03.                90522362:  Virtual Str3 SN 
 VS04.                90619415:  Virtual Str4 SN 
 VS05.                90619414:  Virtual Str5 SN 
 VS06.                90597748:  Virtual Str6 SN 
 WBMN.klb                 2.00:  WOB Min 
 WITN.           Adil Mammadov:  Customer Rep 
 WITN.     Alexander Yadullayev:  Customer Rep 2 
 WOBA.klb                 7.00:  WOB Avg 
 WOBX.klb                23.00:  WOB Max 
 YP  .lhf2               37.00:  Yield Point 
~Curve Information Block
#MNEM.UNIT                 API CODE     Curve Description
#---------               -----------    ---------------------------
 TIME.HHMMSS            00 000 000 000:  GT Time & Date
 GTDEPTH.m              00 000 000 000:  GT Depth
 GTPQH.psia             00 000 000 000:  GT HR Quartz Pressure
 GTTQ.degC              00 000 000 000:  GT Quartz Temperature
 GTTN.NONE              00 000 000 000:  GT Test Number
 GTET.sec               00 000 000 000:  GT Elapsed Test Time
 GTTVD.m                00 000 000 000:  GT True Vertical Depth
#Other Information
#
#WARRANTY: Halliburton will use its best efforts to furnish customers with 
#accurate information and interpretations that are part of, and incident to, the services 
#provided.  However, Halliburton cannot and does not warrant the accuracy 
#or correctness of such information and interpretations.  Under no circumstances should any 
#such information or interpretation be relied upon as the sole basis for any drilling, 
#completion, production, or financial decision or any procedure involving any risk to the 
#safety of any drilling venture, drilling rig or its crew or any other third party.  The 
#Customer has full responsibility for all drilling, completion and production operation.  
#Halliburton makes no representations or warranties, either expressed or 
#implied, including, but not limited to, the implied warranties of merchantability or fitness 
#for a particular purpose, with respect to the services rendered.  In no event will 
#Halliburton be liable for failure to obtain any particular results or for 
#any damages, including, but not limited to, indirect, special or consequential damages, 
#resulting from the use of any information or interpretation provided by Halliburton.
#
~A           TIME           GTDEPTH  GTPQH  GTTQ  GTTN  GTET   GTTVD  
# ...
   20:21:13.381.06-Aug-2020 4993.01 3487.29 83.08 3.00  92.04 2644.18
   20:21:13.582.06-Aug-2020 4993.01 3487.29 83.08 3.00  92.24 2644.18
   20:21:13.782.06-Aug-2020 4993.01 3487.29 83.08 3.00  92.44 2644.18
   20:21:13.982.06-Aug-2020 4993.01 3487.30 83.08 3.00  92.64 2644.18
   20:21:14.182.06-Aug-2020 4993.01 3487.28 83.08 3.00  92.84 2644.18
   20:21:14.382.06-Aug-2020 4993.01 3487.30 83.08 3.00  93.04 2644.18
   20:21:14.582.06-Aug-2020 4993.01 3487.30 83.08 3.00  93.24 2644.18
   20:21:14.782.06-Aug-2020 4993.01 3487.32 83.07 3.00  93.44 2644.18
   20:21:14.982.06-Aug-2020 4993.01 3487.35 83.07 3.00  93.64 2644.18
   20:21:15.182.06-Aug-2020 4993.01 3487.27 83.07 3.00  93.84 2644.18
   20:21:15.382.06-Aug-2020 4993.01 3487.30 83.07 3.00  94.04 2644.18
   20:21:15.582.06-Aug-2020 4993.01 3487.30 83.07 3.00  94.24 2644.18
   20:21:15.782.06-Aug-2020 4993.01 3487.29 83.07 3.00  94.44 2644.18
   20:21:15.982.06-Aug-2020 4993.01 3487.28 83.07 3.00  94.64 2644.18
   20:21:16.183.06-Aug-2020 4993.01 3487.30 83.07 3.00  94.84 2644.18
   20:21:16.383.06-Aug-2020 4993.01 3487.27 83.07 3.00  95.04 2644.18
   20:21:16.583.06-Aug-2020 4993.01 3487.27 83.07 3.00  95.24 2644.18
   20:21:16.783.06-Aug-2020 4993.01 3487.27 83.07 3.00  95.44 2644.18
   20:21:16.983.06-Aug-2020 4993.01 3487.30 83.07 3.00  95.64 2644.18
   20:21:17.183.06-Aug-2020 4993.01 3487.21 83.07 3.00  95.84 2644.18
   20:21:17.383.06-Aug-2020 4993.01 3487.29 83.07 3.00  96.04 2644.18
   20:21:17.583.06-Aug-2020 4993.01 3487.29 83.07 3.00  96.24 2644.18
   20:21:17.783.06-Aug-2020 4993.01 3487.34 83.07 3.00  96.44 2644.18
   20:21:17.983.06-Aug-2020 4993.01 3487.27 83.07 3.00  96.64 2644.18
   20:21:18.183.06-Aug-2020 4993.01 3487.29 83.06 3.00  96.84 2644.18
   20:21:18.383.06-Aug-2020 4993.01 3487.17 83.06 3.00  97.04 2644.18
   20:21:18.583.06-Aug-2020 4993.01 3487.17 83.06 3.00  97.24 2644.18
   20:21:18.784.06-Aug-2020 4993.01 3487.20 83.06 3.00  97.44 2644.18
   20:21:18.984.06-Aug-2020 4993.01 3487.26 83.06 3.00  97.64 2644.18
   20:21:19.184.06-Aug-2020 4993.01 3487.30 83.06 3.00  97.84 2644.18
   20:21:19.384.06-Aug-2020 4993.01 3487.14 83.06 3.00  98.04 2644.18
   20:21:19.584.06-Aug-2020 4993.01 3487.14 83.06 3.00  98.24 2644.18
   20:21:19.784.06-Aug-2020 4993.01 3487.27 83.06 3.00  98.44 2644.18
   20:21:19.984.06-Aug-2020 4993.01 3487.24 83.06 3.00  98.64 2644.18
   20:21:20.184.06-Aug-2020 4993.01 3487.12 83.06 3.00  98.84 2644.18
   20:21:20.384.06-Aug-2020 4993.01 3487.35 83.06 3.00  99.04 2644.18
   20:21:20.584.06-Aug-2020 4993.01 3487.35 83.06 3.00  99.24 2644.18
   20:21:20.784.06-Aug-2020 4993.01 3487.26 83.06 3.00  99.44 2644.18
   20:21:20.984.06-Aug-2020 4993.01 3487.29 83.06 3.00  99.64 2644.18
   20:21:21.184.06-Aug-2020 4993.01 3487.28 83.06 3.00  99.84 2644.18
   20:21:21.384.06-Aug-2020 4993.01 3487.27 83.06 3.00 100.04 2644.18
   20:21:21.585.06-Aug-2020 4993.01 3487.27 83.06 3.00 100.24 2644.18
   20:21:21.785.06-Aug-2020 4993.01 3487.26 83.06 3.00 100.44 2644.18
   20:21:21.985.06-Aug-2020 4993.01 3487.28 83.05 3.00 100.64 2644.18
   20:21:22.185.06-Aug-2020 4993.01 3487.24 83.05 3.00 100.84 2644.18
   20:21:22.385.06-Aug-2020 4993.01 3487.29 83.05 3.00 101.04 2644.18
   20:21:22.585.06-Aug-2020 4993.01 3487.29 83.05 3.00 101.24 2644.18
   20:21:22.785.06-Aug-2020 4993.01 3487.23 83.05 3.00 101.44 2644.18
   20:21:22.985.06-Aug-2020 4993.01 3487.25 83.05 3.00 101.64 2644.18
   20:21:23.185.06-Aug-2020 4993.01 3487.21 83.05 3.00 101.84 2644.18
   20:21:23.385.06-Aug-2020 4993.01 3487.29 83.05 3.00 102.04 2644.18
   20:21:23.585.06-Aug-2020 4993.01 3487.29 83.05 3.00 102.24 2644.18
   20:21:23.785.06-Aug-2020 4993.01 3487.24 83.05 3.00 102.44 2644.18
   20:21:23.985.06-Aug-2020 4993.01 3487.28 83.05 3.00 102.64 2644.18
   20:21:24.186.06-Aug-2020 4993.01 3487.25 83.05 3.00 102.84 2644.18
   20:21:24.386.06-Aug-2020 4993.01 3487.26 83.05 3.00 103.04 2644.18
   20:21:24.586.06-Aug-2020 4993.01 3487.26 83.05 3.00 103.24 2644.18
   20:21:24.786.06-Aug-2020 4993.01 3487.25 83.05 3.00 103.44 2644.18
   20:21:24.986.06-Aug-2020 4993.01 3487.25 83.05 3.00 103.64 2644.18
   20:21:25.186.06-Aug-2020 4993.01 3487.25 83.05 3.00 103.84 2644.18
   20:21:25.386.06-Aug-2020 4993.01 3487.25 83.05 3.00 104.04 2644.18
   20:21:25.586.06-Aug-2020 4993.01 3487.25 83.05 3.00 104.24 2644.18
   20:21:25.786.06-Aug-2020 4993.01 3487.37 83.04 3.00 104.44 2644.18
   20:21:25.986.06-Aug-2020 4993.01 3487.18 83.04 3.00 104.64 2644.18
   20:21:26.186.06-Aug-2020 4993.01 3487.24 83.04 3.00 104.84 2644.18
   20:21:26.386.06-Aug-2020 4993.01 3487.25 83.04 3.00 105.04 2644.18
   20:21:26.586.06-Aug-2020 4993.01 3487.25 83.04 3.00 105.24 2644.18
   20:21:26.787.06-Aug-2020 4993.01 3487.04 83.04 3.00 105.44 2644.18
   20:21:26.987.06-Aug-2020 4993.01 3487.34 83.04 3.00 105.64 2644.18
   20:21:27.187.06-Aug-2020 4993.01 3487.30 83.04 3.00 105.84 2644.18
   20:21:27.387.06-Aug-2020 4993.01 3487.25 83.04 3.00 106.04 2644.18
   20:21:27.587.06-Aug-2020 4993.01 3487.25 83.04 3.00 106.24 2644.18
   20:21:27.787.06-Aug-2020 4993.01 3487.16 83.04 3.00 106.44 2644.18
   20:21:27.987.06-Aug-2020 4993.01 3487.23 83.04 3.00 106.64 2644.18
   20:21:28.187.06-Aug-2020 4993.01 3487.32 83.04 3.00 106.84 2644.18
   20:21:28.387.06-Aug-2020 4993.01 3487.20 83.04 3.00 107.04 2644.18
   20:21:28.587.06-Aug-2020 4993.01 3487.20 83.04 3.00 107.24 2644.18
   20:21:28.787.06-Aug-2020 4993.01 3487.19 83.04 3.00 107.44 2644.18
   20:21:28.987.06-Aug-2020 4993.01 3487.31 83.04 3.00 107.64 2644.18
   20:21:29.187.06-Aug-2020 4993.01 3487.21 83.04 3.00 107.84 2644.18
   20:21:29.388.06-Aug-2020 4993.01 3487.24 83.03 3.00 108.04 2644.18
   20:21:29.588.06-Aug-2020 4993.01 3487.24 83.03 3.00 108.24 2644.18
   20:21:29.788.06-Aug-2020 4993.01 3487.25 83.03 3.00 108.44 2644.18
   20:21:29.988.06-Aug-2020 4993.01 3487.24 83.03 3.00 108.64 2644.18
   20:21:30.188.06-Aug-2020 4993.01 3487.23 83.03 3.00 108.84 2644.18
   20:21:30.388.06-Aug-2020 4993.01 3487.23 83.03 3.00 109.04 2644.18
   20:21:30.588.06-Aug-2020 4993.01 3487.23 83.03 3.00 109.24 2644.18
   20:21:30.788.06-Aug-2020 4993.01 3487.26 83.03 3.00 109.44 2644.18
   20:21:30.988.06-Aug-2020 4993.01 3487.22 83.03 3.00 109.64 2644.18
   20:21:31.188.06-Aug-2020 4993.01 3487.13 83.03 3.00 109.84 2644.18
   20:21:31.388.06-Aug-2020 4993.01 3487.33 83.03 3.00 110.04 2644.18
   20:21:31.588.06-Aug-2020 4993.01 3487.33 83.03 3.00 110.24 2644.18
   20:21:31.788.06-Aug-2020 4993.01 3487.20 83.03 3.00 110.44 2644.18
   20:21:31.989.06-Aug-2020 4993.01 3487.25 83.03 3.00 110.64 2644.18
   20:21:32.189.06-Aug-2020 4993.01 3487.20 83.03 3.00 110.84 2644.18
   20:21:32.389.06-Aug-2020 4993.01 3487.24 83.03 3.00 111.04 2644.18
   20:21:32.589.06-Aug-2020 4993.01 3487.24 83.03 3.00 111.24 2644.18
   20:21:32.789.06-Aug-2020 4993.01 3487.24 83.03 3.00 111.44 2644.18
   20:21:32.989.06-Aug-2020 4993.01 3487.20 83.03 3.00 111.64 2644.18
   20:21:33.189.06-Aug-2020 4993.01 3487.23 83.03 3.00 111.84 2644.18
   20:21:33.389.06-Aug-2020 4993.01 3487.20 83.02 3.00 112.04 2644.18
   20:21:33.589.06-Aug-2020 4993.01 3487.20 83.02 3.00 112.24 2644.18
   20:21:33.789.06-Aug-2020 4993.01 3487.19 83.02 3.00 112.44 2644.18
   20:21:33.989.06-Aug-2020 4993.01 3487.01 83.02 3.00 112.64 2644.18
   20:21:34.189.06-Aug-2020 4993.01 3487.30 83.02 3.00 112.84 2644.18
   20:21:34.389.06-Aug-2020 4993.01 3487.28 83.02 3.00 113.04 2644.18
   20:21:34.590.06-Aug-2020 4993.01 3487.28 83.02 3.00 113.24 2644.18
   20:21:34.790.06-Aug-2020 4993.01 3487.23 83.02 3.00 113.44 2644.18
   20:21:34.990.06-Aug-2020 4993.01 3487.20 83.02 3.00 113.64 2644.18
   20:21:35.190.06-Aug-2020 4993.01 3487.19 83.02 3.00 113.84 2644.18
   20:21:35.390.06-Aug-2020 4993.01 3487.15 83.02 3.00 114.04 2644.18
   20:21:35.590.06-Aug-2020 4993.01 3487.15 83.02 3.00 114.24 2644.18
   20:21:35.790.06-Aug-2020 4993.01 3487.22 83.02 3.00 114.44 2644.18
   20:21:35.990.06-Aug-2020 4993.01 3487.16 83.02 3.00 114.64 2644.18
   20:21:36.190.06-Aug-2020 4993.01 3487.24 83.02 3.00 114.84 2644.18
