~Version Information
 VERS.                  2.0:   CWLS log ASCII Standard -VERSION 2.0
 WRAP.                   NO:   One line per depth step
~Well Information Block
#MNEM.UNIT     VALUE/NAME     DESCRIPTION
#---------     -----------    ---------------------------
 STRT.S             14:58:59 06-Aug-20: START TIME 14:58:59 06-Aug-20
 STOP.S             15:06:43 06-Aug-20: STOP TIME  15:06:43 06-Aug-20
 STEP.S                   0.00: STEP TIME
 NULL.                 -999.25: NULL VALUE
 DFWT.                        :  DIST FWL TEXT
 DFST.                        :  DIST FSL TEXT
 DMF .             Drill Floor:  DRILL MEAS FROM
 STIM.      12.00.00 03-Jul-20:  START TIME
 DATE.      00.50.00 09-Aug-20:  END TIME
 SPUD.               03-Jul-20:  SPUD DATE
 NREF.                    Grid:  NORTH REFERENCE
 HPTY.       Minimum Curvature:  HOLE POS TYPE
 DMOD.             Drill Model:  DRILL MOD DESC
 SVYD.                  Survey:  SURVEY DESC
 ILTD.               Lithology:  INTERP LTH DESC
 FTOP.          Formation Tops:  FORM TOPS DESC
 PDAT.          Mean Sea Level:  PERMANENT DATUM
 FLD .                     ACG:  FIELD NAME
 CTRY.              Azerbaijan:  COUNTRY NAME
 WELL.                    E04x:  WELL NAME
 SRVC.          Turan Drilling:  CONTRACTOR
 COMP.     BP Exploration (Caspian Sea) Ltd.:  COMPANY
 SON .        AZ-XX-0906531346:  JOB NUMBER
 WTYP.                Deviated:  WELL TYPE
 MDS .        Operator Entered:  MAG DATA SOURCE
 UWI .                     N/A:  UNIQUE WELL IDENTIFIER
 API .                     N/A:  API NUMBER
 BASE.              Azerbaijan:  LOGGING EQUIPMENT BASE LOCATION
 REGN.                   EESSA:  REGION
 PROV.                    Baku:  PROVINCE
 STAT.                    Baku:  STATE NAME
 MWDS.                    Baku:  MWD SHOP
 JOBN.        AZ-XX-0906531346:  JOB TICKET NUMB
 RIG .                     DWG:  RIG NAME
 DOE .                     N/A:  DOE NUMBER
 DCON.         Sperry Drilling:  DIRECTNL CONTR
 UNIT.                     N/A:  LOGGING EQUIPMENT ID
 CNTY.                        :  COUNTY
 LOC .                        :  LOCATION
 LMF .             Drill Floor:  LOG MEASURED FROM
 TVDS.m                  43.16:  TVDSS CORRECTN
 LATI.deg                40.17:  LATITUDE
 LONG.deg                51.17:  LONGITUDE
 WHNS.m                  -0.12:  WELL HEAD N/S
 WHEW.m                  -5.41:  WELL HEAD E/W
 UTMX.m              514337.95:  UTM X
 UTMY.m             4448627.46:  UTM Y
 DFWL.m                   0.00:  DISTANCE FWL
 DFSL.m                   0.00:  DISTANCE FSL
 SDEP.m                3088.01:  START DEPTH
 TDD .m                5200.01:  TOTAL DEPTH (DRILLER)
 VSDR.deg               244.51:  VERT SEC DIRECT
 GVFD.g                   1.00:  GRAVITY FIELD
 MFLD.nT              50329.80:  MAGNETIC FIELD
 MDIP.deg                59.63:  MAGNETIC DIP
 MDEC.deg                 6.59:  MAGNETIC DECL
 GRDC.deg                 0.09:  GRID CORRECTION
 AZTC.deg                 6.50:  AZM TOTAL CORR
 EPD .m                   0.00:  ELEVATION
 EGL .m                   0.00:  GROUND ELEVATION
 WDMS.m                 176.20:  WD ELEV
 APD .m                  43.16:  DEPTH ABOVE PD
 DEP .m                3084.71:  DEPTH
 AGAP.m                  43.16:  AIR GAP
 VSEW.m                  -5.41:  VERT SEC E/W
 VSNS.m                  -0.12:  VERT SEC N/S
 EKB .m                   0.00:  KB ELEVATION
 EDF .m                  43.16:  DF ELEVATION
 TDL .m                 243.00:  TOTAL DEPTH (LOGGER)
 VSC .                       0:  VS TO CLOSURE
 MAGU.                 1853542:  MAGUTM CHECKSUM
~Parameter Information Block
#MNEM.UNIT       Value        Description
#---------     -----------    ---------------------------
 AV  .mps                 1.91:  Ann Velocity 
 AVMX.mps                 2.52:  Max Ann Veloc 
 AZIF.deg               308.97:  Azm, Final 
 BHAT.        Rotary Steerable:  BHA Type 
 BROT.°/30m               1.00:  Build Rotating 
 BS  .in                  6.50:  Bit Size 
 BSZ .in                  6.50:  Bit Size 
 BTPL.psig              350.00:  Bit Press Loss 
 CABU.                      No:  Customer Abuse 
 CGEO.           Asif Pashayev:  Customer Geo 
 COMM.                     ”›T:  Run Comments 1 
 TCS .hr                 35.86:  Time Ciculation Ended 
 CV  .mps                 2.31:  Crit Velocity 
 CVMX.mps                 2.31:  Max Crit Veloc 
 DD1 .         Intigam Rahimov:  Direct Drillr 1 
 DDSV.               Geo-Pilot:  DD Service 
 DEFF.%                  92.00:  % Det Eff 
 DLRX.°/30m               1.00:  Dogleg Rot Max 
 DLSO.°/30m               1.00:  Dogleg Oriented 
 DLSX.°/30m               1.42:  Dogleg Str Max 
 DRET.      15.50.00 07-Aug-20:  Drill End Time 
 DRST.      10.40.00 06-Aug-20:  Drill Start Tim 
 DTIM.hr                 21.30:  Time Drilling 
 EDEP.m                5200.01:  End Depth 
 ENG1.            Alan Tuganov:  Engineer 1 
 ENG2.         Almaz Almadatov:  Engineer 2 
 ENG3.     Zammelal Abdullah Sani:  Engineer 3 
 ETIM.      22.42.00 08-Aug-20:  End Time 
 FLOI.gpm               395.00:  Flow In 
 FLON.gpm               350.00:  Flow In Min 
 FLOS.cptm                0.00:  Fluid Loss 
 FLOX.gpm               404.00:  Flow In Max 
 FTRO.       Formation Presure:  FTWD Run Obj 
 HFLO.                      No:  High Flow 
 HPRE.                      No:  High Pressure 
 HTEM.                      No:  High Temp 
 HYDO.m                   1.80:  Hydro Offset 
 IFIN.deg                72.64:  Inc, Final 
 IMAX.deg                73.68:  Inc Max 
 IMIN.deg                72.64:  Inc Min 
 IMND.m                5189.69:  Inc Min Depth 
 IMXD.m                5067.88:  Inc Max Depth 
 JARR.                      No:  Jarring 
 LETM.      15.50.00 07-Aug-20:  Log End Time 
 LOST.hr                     0:  Lost Rig Time 
 LSTM.      10.40.00 06-Aug-20:  Log Start Time 
 MDCL.ppm             36000.00:  Mud Chlorides 
 MDES.     Inversion Oil/Synthetic:  Mud Desc 
 DFD .sg                  1.36:  Mud Density 
 MDMN.sg                  1.36:  Dens Mud Min 
 MDMX.sg                  1.36:  Dens Mud Max 
 MOIL.                      70:  Run Mud Oil % 
 MOWR.                   70:30:  Run Mud OWR 
 MSND.                    0.00:  Run Mud Sand % 
 MSOL.                   17.60:  Run Mud Solids% 
 DFV .spqt               73.00:  Mud Viscosity 
 MWOD.in                  4.75:  MWD Tool OD 
 MWSI.                      No:  Serv Intrp, MWD 
 OTIM.hr                 85.66:  Time Operating 
 PCON.           Look Like New:  Pad Condition 
 PMAX.psia             6250.00:  Press Op, Max 
 PV  .cP                 65.00:  Mud PV 
 RUN .                     900:  Run Number 
 ROPA.m/hr               11.40:  ROP Avg 
 ROPN.m/hr                5.00:  ROP Min 
 ROPX.m/hr               20.00:  ROP Max 
 RPMA.rpm               130.00:  RPM Surface Avg 
 RPMN.rpm                40.00:  RPM Surface Min 
 RPMX.rpm               140.00:  RPM Surface Max 
 RRUN.                    L205:  Rig Run Number 
 RTIM.hr                  1.00:  Time Reaming 
 SAZI.deg               313.52:  Azm, Start 
 SDEP.m                4957.01:  Start Depth 
 SIDD.                      No:  Serv Intrp, DD 
 SINC.deg                73.16:  Inc, Start 
 SPPA.psig             5657.00:  SPP Avg 
 SPPN.psig             2500.00:  SPP Min 
 SPPX.psig             5806.00:  SPP Max 
 STIM.      07.12.00 05-Aug-20:  Start Time 
 SVCS.                 DD, MWD:  Services 
 SVER.                    9.20:  Sperry Version 
 TDAT.m                 243.00:  Tot Depth Attmp 
 TDDF.                      No:  Trip for DD 
 TDLG.m                 243.00:  Tot Depth Loggd 
 TFF .                      No:  Trip for Fail 
 TQAA.f-kp               13.00:  Torque Abs Avg 
 TQAN.f-kp               11.00:  Torque Abs Min 
 TQAX.f-kp               16.00:  Torque Abs Max 
 TRRT.°/30m               1.00:  Turn Rotating 
 MRT .                    HCIM:  Maximum Recorded Temperature 
 TTMX.degC               96.08:  Max Tool Temp 
 VS01.                90515411:  Virtual Str1 SN 
 VS02.                90512716:  Virtual Str2 SN 
 VS03.                90522362:  Virtual Str3 SN 
 VS04.                90619415:  Virtual Str4 SN 
 VS05.                90619414:  Virtual Str5 SN 
 VS06.                90597748:  Virtual Str6 SN 
 WBMN.klb                 2.00:  WOB Min 
 WITN.           Adil Mammadov:  Customer Rep 
 WITN.     Alexander Yadullayev:  Customer Rep 2 
 WOBA.klb                 7.00:  WOB Avg 
 WOBX.klb                23.00:  WOB Max 
 YP  .lhf2               37.00:  Yield Point 
~Curve Information Block
#MNEM.UNIT                 API CODE     Curve Description
#---------               -----------    ---------------------------
 TIME.HHMMSS            00 000 000 000:  GT Time & Date
 GTDEPTH.m              00 000 000 000:  GT Depth
 GTPQH.psia             00 000 000 000:  GT HR Quartz Pressure
 GTTQ.degC              00 000 000 000:  GT Quartz Temperature
 GTTN.NONE              00 000 000 000:  GT Test Number
 GTET.sec               00 000 000 000:  GT Elapsed Test Time
 GTTVD.m                00 000 000 000:  GT True Vertical Depth
#Other Information
#
#WARRANTY: Halliburton will use its best efforts to furnish customers with 
#accurate information and interpretations that are part of, and incident to, the services 
#provided.  However, Halliburton cannot and does not warrant the accuracy 
#or correctness of such information and interpretations.  Under no circumstances should any 
#such information or interpretation be relied upon as the sole basis for any drilling, 
#completion, production, or financial decision or any procedure involving any risk to the 
#safety of any drilling venture, drilling rig or its crew or any other third party.  The 
#Customer has full responsibility for all drilling, completion and production operation.  
#Halliburton makes no representations or warranties, either expressed or 
#implied, including, but not limited to, the implied warranties of merchantability or fitness 
#for a particular purpose, with respect to the services rendered.  In no event will 
#Halliburton be liable for failure to obtain any particular results or for 
#any damages, including, but not limited to, indirect, special or consequential damages, 
#resulting from the use of any information or interpretation provided by Halliburton.
#
~A           TIME           GTDEPTH  GTPQH  GTTQ  GTTN  GTET   GTTVD  
# ...
   15:04:44.620.06-Aug-2020 4947.01 5731.00 78.32 1.00 345.07 2630.94
   15:04:44.820.06-Aug-2020 4947.01 5731.00 78.32 1.00 345.27 2630.94
   15:04:45.020.06-Aug-2020 4947.01 5733.37 78.32 1.00 345.47 2630.94
   15:04:45.220.06-Aug-2020 4947.01 5734.71 78.32 1.00 345.67 2630.94
   15:04:45.420.06-Aug-2020 4947.01 5733.77 78.32 1.00 345.87 2630.94
   15:04:45.620.06-Aug-2020 4947.01 5735.09 78.32 1.00 346.07 2630.94
   15:04:45.820.06-Aug-2020 4947.01 5735.09 78.32 1.00 346.27 2630.94
   15:04:46.020.06-Aug-2020 4947.01 5735.24 78.32 1.00 346.47 2630.94
   15:04:46.220.06-Aug-2020 4947.01 5734.13 78.32 1.00 346.67 2630.94
   15:04:46.420.06-Aug-2020 4947.01 5733.57 78.32 1.00 346.87 2630.94
   15:04:46.620.06-Aug-2020 4947.01 5733.18 78.32 1.00 347.07 2630.94
   15:04:46.820.06-Aug-2020 4947.01 5733.18 78.32 1.00 347.27 2630.94
   15:04:47.020.06-Aug-2020 4947.01 5726.21 78.32 1.00 347.47 2630.94
   15:04:47.220.06-Aug-2020 4947.01 5730.28 78.32 1.00 347.67 2630.94
   15:04:47.420.06-Aug-2020 4947.01 5732.76 78.32 1.00 347.87 2630.94
   15:04:47.620.06-Aug-2020 4947.01 5732.55 78.32 1.00 348.07 2630.94
   15:04:47.821.06-Aug-2020 4947.01 5732.55 78.32 1.00 348.27 2630.94
   15:04:48.021.06-Aug-2020 4947.01 5732.73 78.32 1.00 348.47 2630.94
   15:04:48.221.06-Aug-2020 4947.01 5734.38 78.32 1.00 348.67 2630.94
   15:04:48.421.06-Aug-2020 4947.01 5733.57 78.32 1.00 348.87 2630.94
   15:04:48.621.06-Aug-2020 4947.01 5734.50 78.32 1.00 349.07 2630.94
   15:04:48.821.06-Aug-2020 4947.01 5734.50 78.32 1.00 349.27 2630.94
   15:04:49.021.06-Aug-2020 4947.01 5733.50 78.32 1.00 349.47 2630.94
   15:04:49.221.06-Aug-2020 4947.01 5731.84 78.32 1.00 349.67 2630.94
   15:04:49.421.06-Aug-2020 4947.01 5732.78 78.32 1.00 349.87 2630.94
   15:04:49.621.06-Aug-2020 4947.01 5731.54 78.32 1.00 350.07 2630.94
   15:04:49.821.06-Aug-2020 4947.01 5731.54 78.32 1.00 350.27 2630.94
   15:04:50.021.06-Aug-2020 4947.01 5726.52 78.32 1.00 350.47 2630.94
   15:04:50.221.06-Aug-2020 4947.01 5731.19 78.32 1.00 350.67 2630.94
   15:04:50.421.06-Aug-2020 4947.01 5731.49 78.32 1.00 350.87 2630.94
   15:04:50.621.06-Aug-2020 4947.01 5725.62 78.32 1.00 351.08 2630.94
   15:04:50.821.06-Aug-2020 4947.01 5725.62 78.32 1.00 351.28 2630.94
   15:04:51.021.06-Aug-2020 4947.01 5732.30 78.32 1.00 351.48 2630.94
   15:04:51.221.06-Aug-2020 4947.01 5732.92 78.32 1.00 351.68 2630.94
   15:04:51.421.06-Aug-2020 4947.01 5733.54 78.32 1.00 351.88 2630.94
   15:04:51.621.06-Aug-2020 4947.01 5733.34 78.32 1.00 352.08 2630.94
   15:04:51.821.06-Aug-2020 4947.01 5733.34 78.32 1.00 352.28 2630.94
   15:04:52.021.06-Aug-2020 4947.01 5727.60 78.32 1.00 352.48 2630.94
   15:04:52.221.06-Aug-2020 4947.01 5730.78 78.32 1.00 352.68 2630.94
   15:04:52.422.06-Aug-2020 4947.01 5732.41 78.31 1.00 352.88 2630.94
   15:04:52.622.06-Aug-2020 4947.01 5731.98 78.31 1.00 353.08 2630.94
   15:04:52.822.06-Aug-2020 4947.01 5731.98 78.31 1.00 353.28 2630.94
   15:04:53.022.06-Aug-2020 4947.01 5726.56 78.31 1.00 353.48 2630.94
   15:04:53.222.06-Aug-2020 4947.01 5727.64 78.31 1.00 353.68 2630.94
   15:04:53.422.06-Aug-2020 4947.01 5730.47 78.31 1.00 353.88 2630.94
   15:04:53.622.06-Aug-2020 4947.01 5733.53 78.31 1.00 354.08 2630.94
   15:04:53.822.06-Aug-2020 4947.01 5733.53 78.31 1.00 354.28 2630.94
   15:04:54.022.06-Aug-2020 4947.01 5733.92 78.31 1.00 354.48 2630.94
   15:04:54.222.06-Aug-2020 4947.01 5732.76 78.31 1.00 354.68 2630.94
   15:04:54.422.06-Aug-2020 4947.01 5734.53 78.31 1.00 354.88 2630.94
   15:04:54.622.06-Aug-2020 4947.01 5733.91 78.31 1.00 355.08 2630.94
   15:04:54.822.06-Aug-2020 4947.01 5733.91 78.31 1.00 355.28 2630.94
   15:04:55.022.06-Aug-2020 4947.01 5733.57 78.31 1.00 355.48 2630.94
   15:04:55.222.06-Aug-2020 4947.01 5733.82 78.31 1.00 355.68 2630.94
   15:04:55.422.06-Aug-2020 4947.01 5732.56 78.31 1.00 355.88 2630.94
   15:04:55.622.06-Aug-2020 4947.01 5728.75 78.31 1.00 356.08 2630.94
   15:04:55.822.06-Aug-2020 4947.01 5728.75 78.31 1.00 356.28 2630.94
   15:04:56.022.06-Aug-2020 4947.01 5731.30 78.31 1.00 356.48 2630.94
   15:04:56.222.06-Aug-2020 4947.01 5731.88 78.31 1.00 356.68 2630.94
   15:04:56.422.06-Aug-2020 4947.01 5732.21 78.31 1.00 356.88 2630.94
   15:04:56.622.06-Aug-2020 4947.01 5732.06 78.31 1.00 357.08 2630.94
   15:04:56.822.06-Aug-2020 4947.01 5732.06 78.31 1.00 357.28 2630.94
   15:04:57.023.06-Aug-2020 4947.01 5733.63 78.31 1.00 357.48 2630.94
   15:04:57.223.06-Aug-2020 4947.01 5733.41 78.31 1.00 357.68 2630.94
   15:04:57.423.06-Aug-2020 4947.01 5734.05 78.31 1.00 357.88 2630.94
   15:04:57.623.06-Aug-2020 4947.01 5732.95 78.31 1.00 358.08 2630.94
   15:04:57.823.06-Aug-2020 4947.01 5732.95 78.31 1.00 358.28 2630.94
   15:04:58.023.06-Aug-2020 4947.01 5731.70 78.31 1.00 358.48 2630.94
   15:04:58.223.06-Aug-2020 4947.01 5732.45 78.31 1.00 358.68 2630.94
   15:04:58.423.06-Aug-2020 4947.01 5731.01 78.31 1.00 358.88 2630.94
   15:04:58.623.06-Aug-2020 4947.01 5724.60 78.31 1.00 359.08 2630.94
   15:04:58.823.06-Aug-2020 4947.01 5724.60 78.31 1.00 359.28 2630.94
   15:04:59.023.06-Aug-2020 4947.01 5730.85 78.31 1.00 359.48 2630.94
   15:04:59.223.06-Aug-2020 4947.01 5730.40 78.31 1.00 359.68 2630.94
   15:04:59.423.06-Aug-2020 4947.01 5726.84 78.31 1.00 359.88 2630.94
   15:04:59.623.06-Aug-2020 4947.01 5726.73 78.31 1.00 360.08 2630.94
   15:04:59.823.06-Aug-2020 4947.01 5726.73 78.31 1.00 360.28 2630.94
   15:05:00.023.06-Aug-2020 4947.01 5732.25 78.31 1.00 360.48 2630.94
   15:05:00.223.06-Aug-2020 4947.01 5733.30 78.31 1.00 360.68 2630.94
   15:05:00.423.06-Aug-2020 4947.01 5731.98 78.31 1.00 360.88 2630.94
   15:05:00.623.06-Aug-2020 4947.01 5725.38 78.31 1.00 361.08 2630.94
   15:05:00.823.06-Aug-2020 4947.01 5725.38 78.31 1.00 361.28 2630.94
   15:05:01.023.06-Aug-2020 4947.01 5731.64 78.31 1.00 361.48 2630.94
   15:05:01.223.06-Aug-2020 4947.01 5732.02 78.31 1.00 361.68 2630.94
   15:05:01.423.06-Aug-2020 4947.01 5732.13 78.31 1.00 361.88 2630.94
   15:05:01.623.06-Aug-2020 4947.01 5732.45 78.31 1.00 362.08 2630.94
   15:05:01.824.06-Aug-2020 4947.01 5732.45 78.31 1.00 362.28 2630.94
   15:05:02.024.06-Aug-2020 4947.01 5729.16 78.31 1.00 362.48 2630.94
   15:05:02.224.06-Aug-2020 4947.01 5731.76 78.31 1.00 362.68 2630.94
   15:05:02.424.06-Aug-2020 4947.01 5734.22 78.31 1.00 362.88 2630.94
   15:05:02.624.06-Aug-2020 4947.01 5733.83 78.31 1.00 363.08 2630.94
   15:05:02.824.06-Aug-2020 4947.01 5733.83 78.31 1.00 363.28 2630.94
   15:05:03.024.06-Aug-2020 4947.01 5733.69 78.31 1.00 363.48 2630.94
   15:05:03.224.06-Aug-2020 4947.01 5735.51 78.31 1.00 363.68 2630.94
   15:05:03.424.06-Aug-2020 4947.01 5734.50 78.31 1.00 363.88 2630.94
   15:05:03.624.06-Aug-2020 4947.01 5735.39 78.31 1.00 364.08 2630.94
   15:05:03.824.06-Aug-2020 4947.01 5735.39 78.31 1.00 364.28 2630.94
   15:05:04.024.06-Aug-2020 4947.01 5734.07 78.31 1.00 364.48 2630.94
   15:05:04.224.06-Aug-2020 4947.01 5732.75 78.31 1.00 364.68 2630.94
   15:05:04.424.06-Aug-2020 4947.01 5727.32 78.31 1.00 364.88 2630.94
   15:05:04.624.06-Aug-2020 4947.01 5728.06 78.31 1.00 365.08 2630.94
   15:05:04.824.06-Aug-2020 4947.01 5728.06 78.31 1.00 365.28 2630.94
   15:05:05.024.06-Aug-2020 4947.01 5732.56 78.31 1.00 365.48 2630.94
   15:05:05.224.06-Aug-2020 4947.01 5733.11 78.31 1.00 365.68 2630.94
   15:05:05.424.06-Aug-2020 4947.01 5732.14 78.31 1.00 365.88 2630.94
   15:05:05.624.06-Aug-2020 4947.01 5733.55 78.31 1.00 366.08 2630.94
   15:05:05.824.06-Aug-2020 4947.01 5733.55 78.31 1.00 366.28 2630.94
   15:05:06.024.06-Aug-2020 4947.01 5733.67 78.31 1.00 366.48 2630.94
   15:05:06.224.06-Aug-2020 4947.01 5733.30 78.31 1.00 366.68 2630.94
   15:05:06.425.06-Aug-2020 4947.01 5732.65 78.31 1.00 366.88 2630.94
   15:05:06.625.06-Aug-2020 4947.01 5732.16 78.31 1.00 367.08 2630.94
   15:05:06.825.06-Aug-2020 4947.01 5732.16 78.31 1.00 367.28 2630.94
   15:05:07.025.06-Aug-2020 4947.01 5731.88 78.31 1.00 367.48 2630.94
   15:05:07.225.06-Aug-2020 4947.01 5728.20 78.31 1.00 367.68 2630.94
   15:05:07.425.06-Aug-2020 4947.01 5725.39 78.31 1.00 367.88 2630.94
