~Version Information
 VERS.                  2.0:   CWLS log ASCII Standard -VERSION 2.0
 WRAP.                   NO:   One line per depth step
~Well Information Block
#MNEM.UNIT     VALUE/NAME     DESCRIPTION
#---------     -----------    ---------------------------
 STRT.S             16:10:03 06-Aug-20: START TIME 16:10:03 06-Aug-20
 STOP.S             16:17:57 06-Aug-20: STOP TIME  16:17:57 06-Aug-20
 STEP.S                   0.00: STEP TIME
 NULL.                 -999.25: NULL VALUE
 DFWT.                        :  DIST FWL TEXT
 DFST.                        :  DIST FSL TEXT
 DMF .             Drill Floor:  DRILL MEAS FROM
 STIM.      12.00.00 03-Jul-20:  START TIME
 DATE.      00.50.00 09-Aug-20:  END TIME
 SPUD.               03-Jul-20:  SPUD DATE
 NREF.                    Grid:  NORTH REFERENCE
 HPTY.       Minimum Curvature:  HOLE POS TYPE
 DMOD.             Drill Model:  DRILL MOD DESC
 SVYD.                  Survey:  SURVEY DESC
 ILTD.               Lithology:  INTERP LTH DESC
 FTOP.          Formation Tops:  FORM TOPS DESC
 PDAT.          Mean Sea Level:  PERMANENT DATUM
 FLD .                     ACG:  FIELD NAME
 CTRY.              Azerbaijan:  COUNTRY NAME
 WELL.                    E04x:  WELL NAME
 SRVC.          Turan Drilling:  CONTRACTOR
 COMP.     BP Exploration (Caspian Sea) Ltd.:  COMPANY
 SON .        AZ-XX-0906531346:  JOB NUMBER
 WTYP.                Deviated:  WELL TYPE
 MDS .        Operator Entered:  MAG DATA SOURCE
 UWI .                     N/A:  UNIQUE WELL IDENTIFIER
 API .                     N/A:  API NUMBER
 BASE.              Azerbaijan:  LOGGING EQUIPMENT BASE LOCATION
 REGN.                   EESSA:  REGION
 PROV.                    Baku:  PROVINCE
 STAT.                    Baku:  STATE NAME
 MWDS.                    Baku:  MWD SHOP
 JOBN.        AZ-XX-0906531346:  JOB TICKET NUMB
 RIG .                     DWG:  RIG NAME
 DOE .                     N/A:  DOE NUMBER
 DCON.         Sperry Drilling:  DIRECTNL CONTR
 UNIT.                     N/A:  LOGGING EQUIPMENT ID
 CNTY.                        :  COUNTY
 LOC .                        :  LOCATION
 LMF .             Drill Floor:  LOG MEASURED FROM
 TVDS.m                  43.16:  TVDSS CORRECTN
 LATI.deg                40.17:  LATITUDE
 LONG.deg                51.17:  LONGITUDE
 WHNS.m                  -0.12:  WELL HEAD N/S
 WHEW.m                  -5.41:  WELL HEAD E/W
 UTMX.m              514337.95:  UTM X
 UTMY.m             4448627.46:  UTM Y
 DFWL.m                   0.00:  DISTANCE FWL
 DFSL.m                   0.00:  DISTANCE FSL
 SDEP.m                3088.01:  START DEPTH
 TDD .m                5200.01:  TOTAL DEPTH (DRILLER)
 VSDR.deg               244.51:  VERT SEC DIRECT
 GVFD.g                   1.00:  GRAVITY FIELD
 MFLD.nT              50329.80:  MAGNETIC FIELD
 MDIP.deg                59.63:  MAGNETIC DIP
 MDEC.deg                 6.59:  MAGNETIC DECL
 GRDC.deg                 0.09:  GRID CORRECTION
 AZTC.deg                 6.50:  AZM TOTAL CORR
 EPD .m                   0.00:  ELEVATION
 EGL .m                   0.00:  GROUND ELEVATION
 WDMS.m                 176.20:  WD ELEV
 APD .m                  43.16:  DEPTH ABOVE PD
 DEP .m                3084.71:  DEPTH
 AGAP.m                  43.16:  AIR GAP
 VSEW.m                  -5.41:  VERT SEC E/W
 VSNS.m                  -0.12:  VERT SEC N/S
 EKB .m                   0.00:  KB ELEVATION
 EDF .m                  43.16:  DF ELEVATION
 TDL .m                 243.00:  TOTAL DEPTH (LOGGER)
 VSC .                       0:  VS TO CLOSURE
 MAGU.                 1853542:  MAGUTM CHECKSUM
~Parameter Information Block
#MNEM.UNIT       Value        Description
#---------     -----------    ---------------------------
 AV  .mps                 1.91:  Ann Velocity 
 AVMX.mps                 2.52:  Max Ann Veloc 
 AZIF.deg               308.97:  Azm, Final 
 BHAT.        Rotary Steerable:  BHA Type 
 BROT.°/30m               1.00:  Build Rotating 
 BS  .in                  6.50:  Bit Size 
 BSZ .in                  6.50:  Bit Size 
 BTPL.psig              350.00:  Bit Press Loss 
 CABU.                      No:  Customer Abuse 
 CGEO.           Asif Pashayev:  Customer Geo 
 COMM.                     Ôöj:  Run Comments 1 
 TCS .hr                 35.86:  Time Ciculation Ended 
 CV  .mps                 2.31:  Crit Velocity 
 CVMX.mps                 2.31:  Max Crit Veloc 
 DD1 .         Intigam Rahimov:  Direct Drillr 1 
 DDSV.               Geo-Pilot:  DD Service 
 DEFF.%                  92.00:  % Det Eff 
 DLRX.°/30m               1.00:  Dogleg Rot Max 
 DLSO.°/30m               1.00:  Dogleg Oriented 
 DLSX.°/30m               1.42:  Dogleg Str Max 
 DRET.      15.50.00 07-Aug-20:  Drill End Time 
 DRST.      10.40.00 06-Aug-20:  Drill Start Tim 
 DTIM.hr                 21.30:  Time Drilling 
 EDEP.m                5200.01:  End Depth 
 ENG1.            Alan Tuganov:  Engineer 1 
 ENG2.         Almaz Almadatov:  Engineer 2 
 ENG3.     Zammelal Abdullah Sani:  Engineer 3 
 ETIM.      22.42.00 08-Aug-20:  End Time 
 FLOI.gpm               395.00:  Flow In 
 FLON.gpm               350.00:  Flow In Min 
 FLOS.cptm                0.00:  Fluid Loss 
 FLOX.gpm               404.00:  Flow In Max 
 FTRO.       Formation Presure:  FTWD Run Obj 
 HFLO.                      No:  High Flow 
 HPRE.                      No:  High Pressure 
 HTEM.                      No:  High Temp 
 HYDO.m                   1.80:  Hydro Offset 
 IFIN.deg                72.64:  Inc, Final 
 IMAX.deg                73.68:  Inc Max 
 IMIN.deg                72.64:  Inc Min 
 IMND.m                5189.69:  Inc Min Depth 
 IMXD.m                5067.88:  Inc Max Depth 
 JARR.                      No:  Jarring 
 LETM.      15.50.00 07-Aug-20:  Log End Time 
 LOST.hr                     0:  Lost Rig Time 
 LSTM.      10.40.00 06-Aug-20:  Log Start Time 
 MDCL.ppm             36000.00:  Mud Chlorides 
 MDES.     Inversion Oil/Synthetic:  Mud Desc 
 DFD .sg                  1.36:  Mud Density 
 MDMN.sg                  1.36:  Dens Mud Min 
 MDMX.sg                  1.36:  Dens Mud Max 
 MOIL.                      70:  Run Mud Oil % 
 MOWR.                   70:30:  Run Mud OWR 
 MSND.                    0.00:  Run Mud Sand % 
 MSOL.                   17.60:  Run Mud Solids% 
 DFV .spqt               73.00:  Mud Viscosity 
 MWOD.in                  4.75:  MWD Tool OD 
 MWSI.                      No:  Serv Intrp, MWD 
 OTIM.hr                 85.66:  Time Operating 
 PCON.           Look Like New:  Pad Condition 
 PMAX.psia             6250.00:  Press Op, Max 
 PV  .cP                 65.00:  Mud PV 
 RUN .                     900:  Run Number 
 ROPA.m/hr               11.40:  ROP Avg 
 ROPN.m/hr                5.00:  ROP Min 
 ROPX.m/hr               20.00:  ROP Max 
 RPMA.rpm               130.00:  RPM Surface Avg 
 RPMN.rpm                40.00:  RPM Surface Min 
 RPMX.rpm               140.00:  RPM Surface Max 
 RRUN.                    L205:  Rig Run Number 
 RTIM.hr                  1.00:  Time Reaming 
 SAZI.deg               313.52:  Azm, Start 
 SDEP.m                4957.01:  Start Depth 
 SIDD.                      No:  Serv Intrp, DD 
 SINC.deg                73.16:  Inc, Start 
 SPPA.psig             5657.00:  SPP Avg 
 SPPN.psig             2500.00:  SPP Min 
 SPPX.psig             5806.00:  SPP Max 
 STIM.      07.12.00 05-Aug-20:  Start Time 
 SVCS.                 DD, MWD:  Services 
 SVER.                    9.20:  Sperry Version 
 TDAT.m                 243.00:  Tot Depth Attmp 
 TDDF.                      No:  Trip for DD 
 TDLG.m                 243.00:  Tot Depth Loggd 
 TFF .                      No:  Trip for Fail 
 TQAA.f-kp               13.00:  Torque Abs Avg 
 TQAN.f-kp               11.00:  Torque Abs Min 
 TQAX.f-kp               16.00:  Torque Abs Max 
 TRRT.°/30m               1.00:  Turn Rotating 
 MRT .                    HCIM:  Maximum Recorded Temperature 
 TTMX.degC               96.08:  Max Tool Temp 
 VS01.                90515411:  Virtual Str1 SN 
 VS02.                90512716:  Virtual Str2 SN 
 VS03.                90522362:  Virtual Str3 SN 
 VS04.                90619415:  Virtual Str4 SN 
 VS05.                90619414:  Virtual Str5 SN 
 VS06.                90597748:  Virtual Str6 SN 
 WBMN.klb                 2.00:  WOB Min 
 WITN.           Adil Mammadov:  Customer Rep 
 WITN.     Alexander Yadullayev:  Customer Rep 2 
 WOBA.klb                 7.00:  WOB Avg 
 WOBX.klb                23.00:  WOB Max 
 YP  .lhf2               37.00:  Yield Point 
~Curve Information Block
#MNEM.UNIT                 API CODE     Curve Description
#---------               -----------    ---------------------------
 TIME.HHMMSS            00 000 000 000:  GT Time & Date
 GTDEPTH.m              00 000 000 000:  GT Depth
 GTPQH.psia             00 000 000 000:  GT HR Quartz Pressure
 GTTQ.degC              00 000 000 000:  GT Quartz Temperature
 GTTN.NONE              00 000 000 000:  GT Test Number
 GTET.sec               00 000 000 000:  GT Elapsed Test Time
 GTTVD.m                00 000 000 000:  GT True Vertical Depth
#Other Information
#
#WARRANTY: Halliburton will use its best efforts to furnish customers with 
#accurate information and interpretations that are part of, and incident to, the services 
#provided.  However, Halliburton cannot and does not warrant the accuracy 
#or correctness of such information and interpretations.  Under no circumstances should any 
#such information or interpretation be relied upon as the sole basis for any drilling, 
#completion, production, or financial decision or any procedure involving any risk to the 
#safety of any drilling venture, drilling rig or its crew or any other third party.  The 
#Customer has full responsibility for all drilling, completion and production operation.  
#Halliburton makes no representations or warranties, either expressed or 
#implied, including, but not limited to, the implied warranties of merchantability or fitness 
#for a particular purpose, with respect to the services rendered.  In no event will 
#Halliburton be liable for failure to obtain any particular results or for 
#any damages, including, but not limited to, indirect, special or consequential damages, 
#resulting from the use of any information or interpretation provided by Halliburton.
#
~A           TIME           GTDEPTH  GTPQH  GTTQ  GTTN  GTET   GTTVD  
# ...
   16:13:07.497.06-Aug-2020 4955.01 4234.68 80.59 2.00 184.04 2633.27
   16:13:07.697.06-Aug-2020 4955.01 4234.68 80.59 2.00 184.24 2633.27
   16:13:07.897.06-Aug-2020 4955.01 4235.93 80.59 2.00 184.44 2633.27
   16:13:08.097.06-Aug-2020 4955.01 4236.29 80.59 2.00 184.64 2633.27
   16:13:08.297.06-Aug-2020 4955.01 4236.96 80.59 2.00 184.84 2633.27
   16:13:08.497.06-Aug-2020 4955.01 4237.48 80.59 2.00 185.04 2633.27
   16:13:08.697.06-Aug-2020 4955.01 4237.48 80.59 2.00 185.24 2633.27
   16:13:08.897.06-Aug-2020 4955.01 4238.50 80.59 2.00 185.44 2633.27
   16:13:09.097.06-Aug-2020 4955.01 4238.96 80.59 2.00 185.64 2633.27
   16:13:09.297.06-Aug-2020 4955.01 4239.39 80.59 2.00 185.84 2633.27
   16:13:09.497.06-Aug-2020 4955.01 4239.78 80.59 2.00 186.04 2633.27
   16:13:09.697.06-Aug-2020 4955.01 4239.78 80.59 2.00 186.24 2633.27
   16:13:09.897.06-Aug-2020 4955.01 4240.54 80.59 2.00 186.44 2633.27
   16:13:10.097.06-Aug-2020 4955.01 4240.90 80.59 2.00 186.64 2633.27
   16:13:10.297.06-Aug-2020 4955.01 4241.24 80.59 2.00 186.84 2633.27
   16:13:10.497.06-Aug-2020 4955.01 4241.54 80.59 2.00 187.04 2633.27
   16:13:10.697.06-Aug-2020 4955.01 4241.54 80.59 2.00 187.24 2633.27
   16:13:10.897.06-Aug-2020 4955.01 4241.90 80.59 2.00 187.44 2633.27
   16:13:11.097.06-Aug-2020 4955.01 4242.25 80.59 2.00 187.64 2633.27
   16:13:11.297.06-Aug-2020 4955.01 4242.55 80.59 2.00 187.84 2633.27
   16:13:11.497.06-Aug-2020 4955.01 4242.86 80.59 2.00 188.04 2633.27
   16:13:11.697.06-Aug-2020 4955.01 4242.86 80.59 2.00 188.24 2633.27
   16:13:11.898.06-Aug-2020 4955.01 4243.42 80.59 2.00 188.44 2633.27
   16:13:12.098.06-Aug-2020 4955.01 4243.67 80.59 2.00 188.64 2633.27
   16:13:12.298.06-Aug-2020 4955.01 4243.94 80.59 2.00 188.84 2633.27
   16:13:12.498.06-Aug-2020 4955.01 4244.15 80.59 2.00 189.04 2633.27
   16:13:12.698.06-Aug-2020 4955.01 4244.15 80.59 2.00 189.24 2633.27
   16:13:12.898.06-Aug-2020 4955.01 4244.60 80.59 2.00 189.44 2633.27
   16:13:13.098.06-Aug-2020 4955.01 4244.81 80.59 2.00 189.64 2633.27
   16:13:13.298.06-Aug-2020 4955.01 4244.99 80.59 2.00 189.84 2633.27
   16:13:13.498.06-Aug-2020 4955.01 4244.97 80.58 2.00 190.04 2633.27
   16:13:13.698.06-Aug-2020 4955.01 4244.97 80.58 2.00 190.24 2633.27
   16:13:13.898.06-Aug-2020 4955.01 4245.58 80.58 2.00 190.44 2633.27
   16:13:14.098.06-Aug-2020 4955.01 4245.74 80.58 2.00 190.64 2633.27
   16:13:14.298.06-Aug-2020 4955.01 4245.94 80.58 2.00 190.84 2633.27
   16:13:14.498.06-Aug-2020 4955.01 4245.80 80.58 2.00 191.04 2633.27
   16:13:14.698.06-Aug-2020 4955.01 4245.80 80.58 2.00 191.24 2633.27
   16:13:14.898.06-Aug-2020 4955.01 4246.51 80.58 2.00 191.44 2633.27
   16:13:15.098.06-Aug-2020 4955.01 4246.69 80.58 2.00 191.64 2633.27
   16:13:15.298.06-Aug-2020 4955.01 4246.85 80.58 2.00 191.84 2633.27
   16:13:15.498.06-Aug-2020 4955.01 4246.76 80.58 2.00 192.04 2633.27
   16:13:15.698.06-Aug-2020 4955.01 4246.76 80.58 2.00 192.24 2633.27
   16:13:15.898.06-Aug-2020 4955.01 4247.25 80.58 2.00 192.44 2633.27
   16:13:16.098.06-Aug-2020 4955.01 4247.43 80.58 2.00 192.64 2633.27
   16:13:16.298.06-Aug-2020 4955.01 4247.56 80.58 2.00 192.84 2633.27
   16:13:16.499.06-Aug-2020 4955.01 4247.37 80.58 2.00 193.04 2633.27
   16:13:16.699.06-Aug-2020 4955.01 4247.37 80.58 2.00 193.24 2633.27
   16:13:16.899.06-Aug-2020 4955.01 4247.94 80.58 2.00 193.44 2633.27
   16:13:17.099.06-Aug-2020 4955.01 4248.05 80.58 2.00 193.64 2633.27
   16:13:17.299.06-Aug-2020 4955.01 4248.22 80.58 2.00 193.84 2633.27
   16:13:17.499.06-Aug-2020 4955.01 4248.36 80.58 2.00 194.04 2633.27
   16:13:17.699.06-Aug-2020 4955.01 4248.36 80.58 2.00 194.24 2633.27
   16:13:17.899.06-Aug-2020 4955.01 4248.60 80.58 2.00 194.44 2633.27
   16:13:18.099.06-Aug-2020 4955.01 4248.73 80.58 2.00 194.64 2633.27
   16:13:18.299.06-Aug-2020 4955.01 4248.82 80.58 2.00 194.84 2633.27
   16:13:18.499.06-Aug-2020 4955.01 4248.99 80.58 2.00 195.04 2633.27
   16:13:18.699.06-Aug-2020 4955.01 4249.06 80.58 2.00 195.24 2633.27
   16:13:18.899.06-Aug-2020 4955.01 4249.14 80.58 2.00 195.44 2633.27
   16:13:19.099.06-Aug-2020 4955.01 4249.00 80.58 2.00 195.64 2633.27
   16:13:19.299.06-Aug-2020 4955.01 4249.25 80.58 2.00 195.84 2633.27
   16:13:19.499.06-Aug-2020 4955.01 4249.40 80.58 2.00 196.04 2633.27
   16:13:19.699.06-Aug-2020 4955.01 4249.40 80.58 2.00 196.24 2633.27
   16:13:19.899.06-Aug-2020 4955.01 4249.63 80.57 2.00 196.44 2633.27
   16:13:20.099.06-Aug-2020 4955.01 4249.73 80.57 2.00 196.64 2633.27
   16:13:20.299.06-Aug-2020 4955.01 4249.81 80.57 2.00 196.84 2633.27
   16:13:20.499.06-Aug-2020 4955.01 4249.91 80.57 2.00 197.04 2633.27
   16:13:20.699.06-Aug-2020 4955.01 4249.98 80.57 2.00 197.24 2633.27
   16:13:20.899.06-Aug-2020 4955.01 4250.08 80.57 2.00 197.44 2633.27
   16:13:21.099.06-Aug-2020 4955.01 4250.17 80.57 2.00 197.64 2633.27
   16:13:21.300.06-Aug-2020 4955.01 4250.24 80.57 2.00 197.84 2633.27
   16:13:21.500.06-Aug-2020 4955.01 4250.32 80.57 2.00 198.04 2633.27
   16:13:21.700.06-Aug-2020 4955.01 4250.36 80.57 2.00 198.24 2633.27
   16:13:21.900.06-Aug-2020 4955.01 4250.13 80.57 2.00 198.44 2633.27
   16:13:22.100.06-Aug-2020 4955.01 4250.45 80.57 2.00 198.64 2633.27
   16:13:22.300.06-Aug-2020 4955.01 4250.56 80.57 2.00 198.84 2633.27
   16:13:22.500.06-Aug-2020 4955.01 4250.64 80.57 2.00 199.04 2633.27
   16:13:22.700.06-Aug-2020 4955.01 4250.64 80.57 2.00 199.24 2633.27
   16:13:22.900.06-Aug-2020 4955.01 4250.65 80.57 2.00 199.44 2633.27
   16:13:23.100.06-Aug-2020 4955.01 4250.80 80.57 2.00 199.64 2633.27
   16:13:23.300.06-Aug-2020 4955.01 4250.94 80.57 2.00 199.84 2633.27
   16:13:23.500.06-Aug-2020 4955.01 4251.08 80.57 2.00 200.04 2633.27
   16:13:23.700.06-Aug-2020 4955.01 4251.08 80.57 2.00 200.24 2633.27
   16:13:23.900.06-Aug-2020 4955.01 4250.99 80.57 2.00 200.44 2633.27
   16:13:24.100.06-Aug-2020 4955.01 4251.19 80.57 2.00 200.64 2633.27
   16:13:24.300.06-Aug-2020 4955.01 4251.37 80.57 2.00 200.84 2633.27
   16:13:24.500.06-Aug-2020 4955.01 4251.45 80.57 2.00 201.04 2633.27
   16:13:24.700.06-Aug-2020 4955.01 4251.45 80.57 2.00 201.24 2633.27
   16:13:24.900.06-Aug-2020 4955.01 4251.50 80.57 2.00 201.44 2633.27
   16:13:25.100.06-Aug-2020 4955.01 4251.60 80.57 2.00 201.64 2633.27
   16:13:25.300.06-Aug-2020 4955.01 4251.73 80.56 2.00 201.84 2633.27
   16:13:25.500.06-Aug-2020 4955.01 4251.76 80.56 2.00 202.04 2633.27
   16:13:25.700.06-Aug-2020 4955.01 4251.87 80.56 2.00 202.24 2633.27
   16:13:25.901.06-Aug-2020 4955.01 4251.94 80.56 2.00 202.44 2633.27
   16:13:26.101.06-Aug-2020 4955.01 4252.01 80.56 2.00 202.64 2633.27
   16:13:26.301.06-Aug-2020 4955.01 4252.03 80.56 2.00 202.84 2633.27
   16:13:26.501.06-Aug-2020 4955.01 4252.09 80.56 2.00 203.04 2633.27
   16:13:26.701.06-Aug-2020 4955.01 4252.09 80.56 2.00 203.24 2633.27
   16:13:26.901.06-Aug-2020 4955.01 4252.22 80.56 2.00 203.44 2633.27
   16:13:27.101.06-Aug-2020 4955.01 4252.24 80.56 2.00 203.64 2633.27
   16:13:27.301.06-Aug-2020 4955.01 4252.10 80.56 2.00 203.84 2633.27
   16:13:27.501.06-Aug-2020 4955.01 4252.16 80.56 2.00 204.04 2633.27
   16:13:27.701.06-Aug-2020 4955.01 4252.16 80.56 2.00 204.24 2633.27
   16:13:27.901.06-Aug-2020 4955.01 4252.39 80.56 2.00 204.44 2633.27
   16:13:28.101.06-Aug-2020 4955.01 4252.46 80.56 2.00 204.64 2633.27
   16:13:28.301.06-Aug-2020 4955.01 4252.49 80.56 2.00 204.84 2633.27
   16:13:28.501.06-Aug-2020 4955.01 4252.56 80.56 2.00 205.04 2633.27
   16:13:28.701.06-Aug-2020 4955.01 4252.56 80.56 2.00 205.24 2633.27
   16:13:28.901.06-Aug-2020 4955.01 4252.65 80.56 2.00 205.44 2633.27
   16:13:29.101.06-Aug-2020 4955.01 4252.68 80.56 2.00 205.64 2633.27
   16:13:29.301.06-Aug-2020 4955.01 4252.72 80.56 2.00 205.84 2633.27
   16:13:29.501.06-Aug-2020 4955.01 4252.74 80.56 2.00 206.04 2633.27
   16:13:29.701.06-Aug-2020 4955.01 4252.74 80.56 2.00 206.24 2633.27
   16:13:29.901.06-Aug-2020 4955.01 4252.81 80.56 2.00 206.44 2633.27
   16:13:30.101.06-Aug-2020 4955.01 4252.60 80.56 2.00 206.64 2633.27
   16:13:30.301.06-Aug-2020 4955.01 4252.83 80.56 2.00 206.84 2633.27
