~Version Information
 VERS.                  2.0:   CWLS log ASCII Standard -VERSION 2.0
 WRAP.                   NO:   One line per depth step
~Well Information Block
#MNEM.UNIT     VALUE/NAME     DESCRIPTION
#---------     -----------    ---------------------------
 STRT.S             09:21:48 07-Aug-20: START TIME 09:21:48 07-Aug-20
 STOP.S             09:29:41 07-Aug-20: STOP TIME  09:29:41 07-Aug-20
 STEP.S                   0.00: STEP TIME
 NULL.                 -999.25: NULL VALUE
 DFWT.                        :  DIST FWL TEXT
 DFST.                        :  DIST FSL TEXT
 DMF .             Drill Floor:  DRILL MEAS FROM
 STIM.      12.00.00 03-Jul-20:  START TIME
 DATE.      00.50.00 09-Aug-20:  END TIME
 SPUD.               03-Jul-20:  SPUD DATE
 NREF.                    Grid:  NORTH REFERENCE
 HPTY.       Minimum Curvature:  HOLE POS TYPE
 DMOD.             Drill Model:  DRILL MOD DESC
 SVYD.                  Survey:  SURVEY DESC
 ILTD.               Lithology:  INTERP LTH DESC
 FTOP.          Formation Tops:  FORM TOPS DESC
 PDAT.          Mean Sea Level:  PERMANENT DATUM
 FLD .                     ACG:  FIELD NAME
 CTRY.              Azerbaijan:  COUNTRY NAME
 WELL.                    E04x:  WELL NAME
 SRVC.          Turan Drilling:  CONTRACTOR
 COMP.     BP Exploration (Caspian Sea) Ltd.:  COMPANY
 SON .        AZ-XX-0906531346:  JOB NUMBER
 WTYP.                Deviated:  WELL TYPE
 MDS .        Operator Entered:  MAG DATA SOURCE
 UWI .                     N/A:  UNIQUE WELL IDENTIFIER
 API .                     N/A:  API NUMBER
 BASE.              Azerbaijan:  LOGGING EQUIPMENT BASE LOCATION
 REGN.                   EESSA:  REGION
 PROV.                    Baku:  PROVINCE
 STAT.                    Baku:  STATE NAME
 MWDS.                    Baku:  MWD SHOP
 JOBN.        AZ-XX-0906531346:  JOB TICKET NUMB
 RIG .                     DWG:  RIG NAME
 DOE .                     N/A:  DOE NUMBER
 DCON.         Sperry Drilling:  DIRECTNL CONTR
 UNIT.                     N/A:  LOGGING EQUIPMENT ID
 CNTY.                        :  COUNTY
 LOC .                        :  LOCATION
 LMF .             Drill Floor:  LOG MEASURED FROM
 TVDS.m                  43.16:  TVDSS CORRECTN
 LATI.deg                40.17:  LATITUDE
 LONG.deg                51.17:  LONGITUDE
 WHNS.m                  -0.12:  WELL HEAD N/S
 WHEW.m                  -5.41:  WELL HEAD E/W
 UTMX.m              514337.95:  UTM X
 UTMY.m             4448627.46:  UTM Y
 DFWL.m                   0.00:  DISTANCE FWL
 DFSL.m                   0.00:  DISTANCE FSL
 SDEP.m                3088.01:  START DEPTH
 TDD .m                5200.01:  TOTAL DEPTH (DRILLER)
 VSDR.deg               244.51:  VERT SEC DIRECT
 GVFD.g                   1.00:  GRAVITY FIELD
 MFLD.nT              50329.80:  MAGNETIC FIELD
 MDIP.deg                59.63:  MAGNETIC DIP
 MDEC.deg                 6.59:  MAGNETIC DECL
 GRDC.deg                 0.09:  GRID CORRECTION
 AZTC.deg                 6.50:  AZM TOTAL CORR
 EPD .m                   0.00:  ELEVATION
 EGL .m                   0.00:  GROUND ELEVATION
 WDMS.m                 176.20:  WD ELEV
 APD .m                  43.16:  DEPTH ABOVE PD
 DEP .m                3084.71:  DEPTH
 AGAP.m                  43.16:  AIR GAP
 VSEW.m                  -5.41:  VERT SEC E/W
 VSNS.m                  -0.12:  VERT SEC N/S
 EKB .m                   0.00:  KB ELEVATION
 EDF .m                  43.16:  DF ELEVATION
 TDL .m                 243.00:  TOTAL DEPTH (LOGGER)
 VSC .                       0:  VS TO CLOSURE
 MAGU.                 1853542:  MAGUTM CHECKSUM
~Parameter Information Block
#MNEM.UNIT       Value        Description
#---------     -----------    ---------------------------
 AV  .mps                 1.91:  Ann Velocity 
 AVMX.mps                 2.52:  Max Ann Veloc 
 AZIF.deg               308.97:  Azm, Final 
 BHAT.        Rotary Steerable:  BHA Type 
 BROT.∞/30m               1.00:  Build Rotating 
 BS  .in                  6.50:  Bit Size 
 BSZ .in                  6.50:  Bit Size 
 BTPL.psig              350.00:  Bit Press Loss 
 CABU.                      No:  Customer Abuse 
 CGEO.           Asif Pashayev:  Customer Geo 
 COMM.                     ,[Å:  Run Comments 1 
 TCS .hr                 35.86:  Time Ciculation Ended 
 CV  .mps                 2.31:  Crit Velocity 
 CVMX.mps                 2.31:  Max Crit Veloc 
 DD1 .         Intigam Rahimov:  Direct Drillr 1 
 DDSV.               Geo-Pilot:  DD Service 
 DEFF.%                  92.00:  % Det Eff 
 DLRX.∞/30m               1.00:  Dogleg Rot Max 
 DLSO.∞/30m               1.00:  Dogleg Oriented 
 DLSX.∞/30m               1.42:  Dogleg Str Max 
 DRET.      15.50.00 07-Aug-20:  Drill End Time 
 DRST.      10.40.00 06-Aug-20:  Drill Start Tim 
 DTIM.hr                 21.30:  Time Drilling 
 EDEP.m                5200.01:  End Depth 
 ENG1.            Alan Tuganov:  Engineer 1 
 ENG2.         Almaz Almadatov:  Engineer 2 
 ENG3.     Zammelal Abdullah Sani:  Engineer 3 
 ETIM.      22.42.00 08-Aug-20:  End Time 
 FLOI.gpm               395.00:  Flow In 
 FLON.gpm               350.00:  Flow In Min 
 FLOS.cptm                0.00:  Fluid Loss 
 FLOX.gpm               404.00:  Flow In Max 
 FTRO.       Formation Presure:  FTWD Run Obj 
 HFLO.                      No:  High Flow 
 HPRE.                      No:  High Pressure 
 HTEM.                      No:  High Temp 
 HYDO.m                   1.80:  Hydro Offset 
 IFIN.deg                72.64:  Inc, Final 
 IMAX.deg                73.68:  Inc Max 
 IMIN.deg                72.64:  Inc Min 
 IMND.m                5189.69:  Inc Min Depth 
 IMXD.m                5067.88:  Inc Max Depth 
 JARR.                      No:  Jarring 
 LETM.      15.50.00 07-Aug-20:  Log End Time 
 LOST.hr                     0:  Lost Rig Time 
 LSTM.      10.40.00 06-Aug-20:  Log Start Time 
 MDCL.ppm             36000.00:  Mud Chlorides 
 MDES.     Inversion Oil/Synthetic:  Mud Desc 
 DFD .sg                  1.36:  Mud Density 
 MDMN.sg                  1.36:  Dens Mud Min 
 MDMX.sg                  1.36:  Dens Mud Max 
 MOIL.                      70:  Run Mud Oil % 
 MOWR.                   70:30:  Run Mud OWR 
 MSND.                    0.00:  Run Mud Sand % 
 MSOL.                   17.60:  Run Mud Solids% 
 DFV .spqt               73.00:  Mud Viscosity 
 MWOD.in                  4.75:  MWD Tool OD 
 MWSI.                      No:  Serv Intrp, MWD 
 OTIM.hr                 85.66:  Time Operating 
 PCON.           Look Like New:  Pad Condition 
 PMAX.psia             6250.00:  Press Op, Max 
 PV  .cP                 65.00:  Mud PV 
 RUN .                     900:  Run Number 
 ROPA.m/hr               11.40:  ROP Avg 
 ROPN.m/hr                5.00:  ROP Min 
 ROPX.m/hr               20.00:  ROP Max 
 RPMA.rpm               130.00:  RPM Surface Avg 
 RPMN.rpm                40.00:  RPM Surface Min 
 RPMX.rpm               140.00:  RPM Surface Max 
 RRUN.                    L205:  Rig Run Number 
 RTIM.hr                  1.00:  Time Reaming 
 SAZI.deg               313.52:  Azm, Start 
 SDEP.m                4957.01:  Start Depth 
 SIDD.                      No:  Serv Intrp, DD 
 SINC.deg                73.16:  Inc, Start 
 SPPA.psig             5657.00:  SPP Avg 
 SPPN.psig             2500.00:  SPP Min 
 SPPX.psig             5806.00:  SPP Max 
 STIM.      07.12.00 05-Aug-20:  Start Time 
 SVCS.                 DD, MWD:  Services 
 SVER.                    9.20:  Sperry Version 
 TDAT.m                 243.00:  Tot Depth Attmp 
 TDDF.                      No:  Trip for DD 
 TDLG.m                 243.00:  Tot Depth Loggd 
 TFF .                      No:  Trip for Fail 
 TQAA.f-kp               13.00:  Torque Abs Avg 
 TQAN.f-kp               11.00:  Torque Abs Min 
 TQAX.f-kp               16.00:  Torque Abs Max 
 TRRT.∞/30m               1.00:  Turn Rotating 
 MRT .                    HCIM:  Maximum Recorded Temperature 
 TTMX.degC               96.08:  Max Tool Temp 
 VS01.                90515411:  Virtual Str1 SN 
 VS02.                90512716:  Virtual Str2 SN 
 VS03.                90522362:  Virtual Str3 SN 
 VS04.                90619415:  Virtual Str4 SN 
 VS05.                90619414:  Virtual Str5 SN 
 VS06.                90597748:  Virtual Str6 SN 
 WBMN.klb                 2.00:  WOB Min 
 WITN.           Adil Mammadov:  Customer Rep 
 WITN.     Alexander Yadullayev:  Customer Rep 2 
 WOBA.klb                 7.00:  WOB Avg 
 WOBX.klb                23.00:  WOB Max 
 YP  .lhf2               37.00:  Yield Point 
~Curve Information Block
#MNEM.UNIT                 API CODE     Curve Description
#---------               -----------    ---------------------------
 TIME.HHMMSS            00 000 000 000:  GT Time & Date
 GTDEPTH.m              00 000 000 000:  GT Depth
 GTPQH.psia             00 000 000 000:  GT HR Quartz Pressure
 GTTQ.degC              00 000 000 000:  GT Quartz Temperature
 GTTN.NONE              00 000 000 000:  GT Test Number
 GTET.sec               00 000 000 000:  GT Elapsed Test Time
 GTTVD.m                00 000 000 000:  GT True Vertical Depth
#Other Information
#
#WARRANTY: Halliburton will use its best efforts to furnish customers with 
#accurate information and interpretations that are part of, and incident to, the services 
#provided.  However, Halliburton cannot and does not warrant the accuracy 
#or correctness of such information and interpretations.  Under no circumstances should any 
#such information or interpretation be relied upon as the sole basis for any drilling, 
#completion, production, or financial decision or any procedure involving any risk to the 
#safety of any drilling venture, drilling rig or its crew or any other third party.  The 
#Customer has full responsibility for all drilling, completion and production operation.  
#Halliburton makes no representations or warranties, either expressed or 
#implied, including, but not limited to, the implied warranties of merchantability or fitness 
#for a particular purpose, with respect to the services rendered.  In no event will 
#Halliburton be liable for failure to obtain any particular results or for 
#any damages, including, but not limited to, indirect, special or consequential damages, 
#resulting from the use of any information or interpretation provided by Halliburton.
#
~A           TIME           GTDEPTH  GTPQH  GTTQ  GTTN  GTET   GTTVD  
# ...
   09:24:52.519.07-Aug-2020 5109.01 3406.56 86.49 9.00 183.94 2677.54
   09:24:52.719.07-Aug-2020 5109.01 3406.56 86.49 9.00 184.14 2677.54
   09:24:52.919.07-Aug-2020 5109.01 3406.59 86.49 9.00 184.34 2677.54
   09:24:53.119.07-Aug-2020 5109.01 3406.55 86.49 9.00 184.54 2677.54
   09:24:53.319.07-Aug-2020 5109.01 3406.40 86.49 9.00 184.74 2677.54
   09:24:53.519.07-Aug-2020 5109.01 3406.63 86.49 9.00 184.94 2677.54
   09:24:53.719.07-Aug-2020 5109.01 3406.63 86.49 9.00 185.14 2677.54
   09:24:53.919.07-Aug-2020 5109.01 3406.50 86.49 9.00 185.34 2677.54
   09:24:54.119.07-Aug-2020 5109.01 3406.50 86.49 9.00 185.54 2677.54
   09:24:54.319.07-Aug-2020 5109.01 3406.58 86.49 9.00 185.74 2677.54
   09:24:54.519.07-Aug-2020 5109.01 3406.55 86.49 9.00 185.94 2677.54
   09:24:54.719.07-Aug-2020 5109.01 3406.55 86.49 9.00 186.14 2677.54
   09:24:54.919.07-Aug-2020 5109.01 3406.56 86.49 9.00 186.34 2677.54
   09:24:55.118.07-Aug-2020 5109.01 3406.56 86.48 9.00 186.54 2677.54
   09:24:55.318.07-Aug-2020 5109.01 3406.56 86.48 9.00 186.74 2677.54
   09:24:55.518.07-Aug-2020 5109.01 3406.55 86.48 9.00 186.94 2677.54
   09:24:55.718.07-Aug-2020 5109.01 3406.55 86.48 9.00 187.14 2677.54
   09:24:55.918.07-Aug-2020 5109.01 3406.56 86.48 9.00 187.34 2677.54
   09:24:56.118.07-Aug-2020 5109.01 3406.55 86.48 9.00 187.54 2677.54
   09:24:56.318.07-Aug-2020 5109.01 3406.57 86.48 9.00 187.74 2677.54
   09:24:56.518.07-Aug-2020 5109.01 3406.53 86.48 9.00 187.94 2677.54
   09:24:56.718.07-Aug-2020 5109.01 3406.53 86.48 9.00 188.14 2677.54
   09:24:56.918.07-Aug-2020 5109.01 3406.59 86.48 9.00 188.34 2677.54
   09:24:57.118.07-Aug-2020 5109.01 3406.59 86.48 9.00 188.54 2677.54
   09:24:57.318.07-Aug-2020 5109.01 3406.50 86.48 9.00 188.74 2677.54
   09:24:57.518.07-Aug-2020 5109.01 3406.58 86.48 9.00 188.94 2677.54
   09:24:57.718.07-Aug-2020 5109.01 3406.56 86.48 9.00 189.14 2677.54
   09:24:57.918.07-Aug-2020 5109.01 3406.54 86.48 9.00 189.34 2677.54
   09:24:58.118.07-Aug-2020 5109.01 3406.55 86.48 9.00 189.54 2677.54
   09:24:58.317.07-Aug-2020 5109.01 3406.56 86.48 9.00 189.74 2677.54
   09:24:58.517.07-Aug-2020 5109.01 3406.55 86.48 9.00 189.94 2677.54
   09:24:58.717.07-Aug-2020 5109.01 3406.55 86.48 9.00 190.14 2677.54
   09:24:58.917.07-Aug-2020 5109.01 3406.55 86.48 9.00 190.34 2677.54
   09:24:59.117.07-Aug-2020 5109.01 3406.55 86.48 9.00 190.54 2677.54
   09:24:59.317.07-Aug-2020 5109.01 3406.54 86.48 9.00 190.74 2677.54
   09:24:59.517.07-Aug-2020 5109.01 3406.43 86.48 9.00 190.94 2677.54
   09:24:59.717.07-Aug-2020 5109.01 3406.43 86.48 9.00 191.14 2677.54
   09:24:59.917.07-Aug-2020 5109.01 3406.57 86.48 9.00 191.34 2677.54
   09:25:00.117.07-Aug-2020 5109.01 3406.52 86.48 9.00 191.54 2677.54
   09:25:00.317.07-Aug-2020 5109.01 3406.40 86.48 9.00 191.74 2677.54
   09:25:00.517.07-Aug-2020 5109.01 3406.63 86.48 9.00 191.94 2677.54
   09:25:00.717.07-Aug-2020 5109.01 3406.63 86.48 9.00 192.14 2677.54
   09:25:00.917.07-Aug-2020 5109.01 3406.52 86.47 9.00 192.34 2677.54
   09:25:01.117.07-Aug-2020 5109.01 3406.56 86.47 9.00 192.54 2677.54
   09:25:01.317.07-Aug-2020 5109.01 3406.52 86.47 9.00 192.74 2677.54
   09:25:01.517.07-Aug-2020 5109.01 3406.52 86.47 9.00 192.94 2677.54
   09:25:01.716.07-Aug-2020 5109.01 3406.56 86.47 9.00 193.14 2677.54
   09:25:01.916.07-Aug-2020 5109.01 3406.51 86.47 9.00 193.34 2677.54
   09:25:02.116.07-Aug-2020 5109.01 3406.57 86.47 9.00 193.54 2677.54
   09:25:02.316.07-Aug-2020 5109.01 3406.54 86.47 9.00 193.74 2677.54
   09:25:02.516.07-Aug-2020 5109.01 3406.44 86.47 9.00 193.94 2677.54
   09:25:02.716.07-Aug-2020 5109.01 3406.44 86.47 9.00 194.14 2677.54
   09:25:02.916.07-Aug-2020 5109.01 3406.57 86.47 9.00 194.34 2677.54
   09:25:03.116.07-Aug-2020 5109.01 3406.50 86.47 9.00 194.54 2677.54
   09:25:03.316.07-Aug-2020 5109.01 3406.57 86.47 9.00 194.74 2677.54
   09:25:03.516.07-Aug-2020 5109.01 3406.56 86.47 9.00 194.94 2677.54
   09:25:03.716.07-Aug-2020 5109.01 3406.56 86.47 9.00 195.14 2677.54
   09:25:03.916.07-Aug-2020 5109.01 3406.54 86.47 9.00 195.34 2677.54
   09:25:04.116.07-Aug-2020 5109.01 3406.54 86.47 9.00 195.54 2677.54
   09:25:04.316.07-Aug-2020 5109.01 3406.54 86.47 9.00 195.74 2677.54
   09:25:04.516.07-Aug-2020 5109.01 3406.53 86.47 9.00 195.94 2677.54
   09:25:04.716.07-Aug-2020 5109.01 3406.53 86.47 9.00 196.14 2677.54
   09:25:04.915.07-Aug-2020 5109.01 3406.52 86.47 9.00 196.34 2677.54
   09:25:05.115.07-Aug-2020 5109.01 3406.53 86.47 9.00 196.54 2677.54
   09:25:05.315.07-Aug-2020 5109.01 3406.45 86.47 9.00 196.74 2677.54
   09:25:05.515.07-Aug-2020 5109.01 3406.58 86.47 9.00 196.94 2677.54
   09:25:05.715.07-Aug-2020 5109.01 3406.58 86.47 9.00 197.14 2677.54
   09:25:05.915.07-Aug-2020 5109.01 3406.54 86.47 9.00 197.34 2677.54
   09:25:06.115.07-Aug-2020 5109.01 3406.54 86.47 9.00 197.54 2677.54
   09:25:06.315.07-Aug-2020 5109.01 3406.54 86.47 9.00 197.74 2677.54
   09:25:06.515.07-Aug-2020 5109.01 3406.53 86.47 9.00 197.94 2677.54
   09:25:06.715.07-Aug-2020 5109.01 3406.53 86.47 9.00 198.14 2677.54
   09:25:06.915.07-Aug-2020 5109.01 3406.52 86.47 9.00 198.34 2677.54
   09:25:07.115.07-Aug-2020 5109.01 3406.54 86.47 9.00 198.54 2677.54
   09:25:07.315.07-Aug-2020 5109.01 3406.52 86.46 9.00 198.74 2677.54
   09:25:07.515.07-Aug-2020 5109.01 3406.54 86.46 9.00 198.94 2677.54
   09:25:07.715.07-Aug-2020 5109.01 3406.54 86.46 9.00 199.14 2677.54
   09:25:07.915.07-Aug-2020 5109.01 3406.47 86.46 9.00 199.34 2677.54
   09:25:08.115.07-Aug-2020 5109.01 3406.55 86.46 9.00 199.54 2677.54
   09:25:08.314.07-Aug-2020 5109.01 3406.54 86.46 9.00 199.74 2677.54
   09:25:08.514.07-Aug-2020 5109.01 3406.51 86.46 9.00 199.94 2677.54
   09:25:08.714.07-Aug-2020 5109.01 3406.51 86.46 9.00 200.14 2677.54
   09:25:08.914.07-Aug-2020 5109.01 3406.53 86.46 9.00 200.34 2677.54
   09:25:09.114.07-Aug-2020 5109.01 3406.52 86.46 9.00 200.54 2677.54
   09:25:09.314.07-Aug-2020 5109.01 3406.52 86.46 9.00 200.74 2677.54
   09:25:09.514.07-Aug-2020 5109.01 3406.55 86.46 9.00 200.94 2677.54
   09:25:09.714.07-Aug-2020 5109.01 3406.53 86.46 9.00 201.14 2677.54
   09:25:09.914.07-Aug-2020 5109.01 3406.37 86.46 9.00 201.34 2677.54
   09:25:10.114.07-Aug-2020 5109.01 3406.64 86.46 9.00 201.54 2677.54
   09:25:10.314.07-Aug-2020 5109.01 3406.57 86.46 9.00 201.74 2677.54
   09:25:10.514.07-Aug-2020 5109.01 3406.49 86.46 9.00 201.94 2677.54
   09:25:10.714.07-Aug-2020 5109.01 3406.49 86.46 9.00 202.14 2677.54
   09:25:10.914.07-Aug-2020 5109.01 3406.55 86.46 9.00 202.34 2677.54
   09:25:11.114.07-Aug-2020 5109.01 3406.44 86.46 9.00 202.54 2677.54
   09:25:11.314.07-Aug-2020 5109.01 3406.55 86.46 9.00 202.74 2677.54
   09:25:11.514.07-Aug-2020 5109.01 3406.52 86.46 9.00 202.94 2677.54
   09:25:11.713.07-Aug-2020 5109.01 3406.52 86.46 9.00 203.14 2677.54
   09:25:11.913.07-Aug-2020 5109.01 3406.53 86.46 9.00 203.34 2677.54
   09:25:12.113.07-Aug-2020 5109.01 3406.52 86.46 9.00 203.54 2677.54
   09:25:12.313.07-Aug-2020 5109.01 3406.53 86.46 9.00 203.74 2677.54
   09:25:12.513.07-Aug-2020 5109.01 3406.54 86.46 9.00 203.94 2677.54
   09:25:12.713.07-Aug-2020 5109.01 3406.54 86.46 9.00 204.14 2677.54
   09:25:12.913.07-Aug-2020 5109.01 3406.54 86.46 9.00 204.34 2677.54
   09:25:13.113.07-Aug-2020 5109.01 3406.52 86.46 9.00 204.54 2677.54
   09:25:13.313.07-Aug-2020 5109.01 3406.53 86.46 9.00 204.74 2677.54
   09:25:13.513.07-Aug-2020 5109.01 3406.51 86.45 9.00 204.94 2677.54
   09:25:13.713.07-Aug-2020 5109.01 3406.51 86.45 9.00 205.14 2677.54
   09:25:13.913.07-Aug-2020 5109.01 3406.57 86.45 9.00 205.34 2677.54
   09:25:14.113.07-Aug-2020 5109.01 3406.54 86.45 9.00 205.54 2677.54
   09:25:14.313.07-Aug-2020 5109.01 3406.49 86.45 9.00 205.74 2677.54
   09:25:14.513.07-Aug-2020 5109.01 3406.53 86.45 9.00 205.94 2677.54
   09:25:14.713.07-Aug-2020 5109.01 3406.53 86.45 9.00 206.14 2677.54
   09:25:14.912.07-Aug-2020 5109.01 3406.50 86.45 9.00 206.34 2677.54
   09:25:15.112.07-Aug-2020 5109.01 3406.53 86.45 9.00 206.54 2677.54
   09:25:15.312.07-Aug-2020 5109.01 3406.53 86.45 9.00 206.74 2677.54
