~Version Information
 VERS.                  2.0:   CWLS log ASCII Standard -VERSION 2.0
 WRAP.                   NO:   One line per depth step
~Well Information Block
#MNEM.UNIT     VALUE/NAME     DESCRIPTION
#---------     -----------    ---------------------------
 STRT.S             14:58:59 06-Aug-20: START TIME 14:58:59 06-Aug-20
 STOP.S             15:06:43 06-Aug-20: STOP TIME  15:06:43 06-Aug-20
 STEP.S                   0.00: STEP TIME
 NULL.                 -999.25: NULL VALUE
 DFWT.                        :  DIST FWL TEXT
 DFST.                        :  DIST FSL TEXT
 DMF .             Drill Floor:  DRILL MEAS FROM
 STIM.      12.00.00 03-Jul-20:  START TIME
 DATE.      00.50.00 09-Aug-20:  END TIME
 SPUD.               03-Jul-20:  SPUD DATE
 NREF.                    Grid:  NORTH REFERENCE
 HPTY.       Minimum Curvature:  HOLE POS TYPE
 DMOD.             Drill Model:  DRILL MOD DESC
 SVYD.                  Survey:  SURVEY DESC
 ILTD.               Lithology:  INTERP LTH DESC
 FTOP.          Formation Tops:  FORM TOPS DESC
 PDAT.          Mean Sea Level:  PERMANENT DATUM
 FLD .                     ACG:  FIELD NAME
 CTRY.              Azerbaijan:  COUNTRY NAME
 WELL.                    E04x:  WELL NAME
 SRVC.          Turan Drilling:  CONTRACTOR
 COMP.     BP Exploration (Caspian Sea) Ltd.:  COMPANY
 SON .        AZ-XX-0906531346:  JOB NUMBER
 WTYP.                Deviated:  WELL TYPE
 MDS .        Operator Entered:  MAG DATA SOURCE
 UWI .                     N/A:  UNIQUE WELL IDENTIFIER
 API .                     N/A:  API NUMBER
 BASE.              Azerbaijan:  LOGGING EQUIPMENT BASE LOCATION
 REGN.                   EESSA:  REGION
 PROV.                    Baku:  PROVINCE
 STAT.                    Baku:  STATE NAME
 MWDS.                    Baku:  MWD SHOP
 JOBN.        AZ-XX-0906531346:  JOB TICKET NUMB
 RIG .                     DWG:  RIG NAME
 DOE .                     N/A:  DOE NUMBER
 DCON.         Sperry Drilling:  DIRECTNL CONTR
 UNIT.                     N/A:  LOGGING EQUIPMENT ID
 CNTY.                        :  COUNTY
 LOC .                        :  LOCATION
 LMF .             Drill Floor:  LOG MEASURED FROM
 TVDS.m                  43.16:  TVDSS CORRECTN
 LATI.deg                40.17:  LATITUDE
 LONG.deg                51.17:  LONGITUDE
 WHNS.m                  -0.12:  WELL HEAD N/S
 WHEW.m                  -5.41:  WELL HEAD E/W
 UTMX.m              514337.95:  UTM X
 UTMY.m             4448627.46:  UTM Y
 DFWL.m                   0.00:  DISTANCE FWL
 DFSL.m                   0.00:  DISTANCE FSL
 SDEP.m                3088.01:  START DEPTH
 TDD .m                5200.01:  TOTAL DEPTH (DRILLER)
 VSDR.deg               244.51:  VERT SEC DIRECT
 GVFD.g                   1.00:  GRAVITY FIELD
 MFLD.nT              50329.80:  MAGNETIC FIELD
 MDIP.deg                59.63:  MAGNETIC DIP
 MDEC.deg                 6.59:  MAGNETIC DECL
 GRDC.deg                 0.09:  GRID CORRECTION
 AZTC.deg                 6.50:  AZM TOTAL CORR
 EPD .m                   0.00:  ELEVATION
 EGL .m                   0.00:  GROUND ELEVATION
 WDMS.m                 176.20:  WD ELEV
 APD .m                  43.16:  DEPTH ABOVE PD
 DEP .m                3084.71:  DEPTH
 AGAP.m                  43.16:  AIR GAP
 VSEW.m                  -5.41:  VERT SEC E/W
 VSNS.m                  -0.12:  VERT SEC N/S
 EKB .m                   0.00:  KB ELEVATION
 EDF .m                  43.16:  DF ELEVATION
 TDL .m                 243.00:  TOTAL DEPTH (LOGGER)
 VSC .                       0:  VS TO CLOSURE
 MAGU.                 1853542:  MAGUTM CHECKSUM
~Parameter Information Block
#MNEM.UNIT       Value        Description
#---------     -----------    ---------------------------
 AV  .mps                 1.91:  Ann Velocity 
 AVMX.mps                 2.52:  Max Ann Veloc 
 AZIF.deg               308.97:  Azm, Final 
 BHAT.        Rotary Steerable:  BHA Type 
 BROT.°/30m               1.00:  Build Rotating 
 BS  .in                  6.50:  Bit Size 
 BSZ .in                  6.50:  Bit Size 
 BTPL.psig              350.00:  Bit Press Loss 
 CABU.                      No:  Customer Abuse 
 CGEO.           Asif Pashayev:  Customer Geo 
 COMM.                     ”›T:  Run Comments 1 
 TCS .hr                 35.86:  Time Ciculation Ended 
 CV  .mps                 2.31:  Crit Velocity 
 CVMX.mps                 2.31:  Max Crit Veloc 
 DD1 .         Intigam Rahimov:  Direct Drillr 1 
 DDSV.               Geo-Pilot:  DD Service 
 DEFF.%                  92.00:  % Det Eff 
 DLRX.°/30m               1.00:  Dogleg Rot Max 
 DLSO.°/30m               1.00:  Dogleg Oriented 
 DLSX.°/30m               1.42:  Dogleg Str Max 
 DRET.      15.50.00 07-Aug-20:  Drill End Time 
 DRST.      10.40.00 06-Aug-20:  Drill Start Tim 
 DTIM.hr                 21.30:  Time Drilling 
 EDEP.m                5200.01:  End Depth 
 ENG1.            Alan Tuganov:  Engineer 1 
 ENG2.         Almaz Almadatov:  Engineer 2 
 ENG3.     Zammelal Abdullah Sani:  Engineer 3 
 ETIM.      22.42.00 08-Aug-20:  End Time 
 FLOI.gpm               395.00:  Flow In 
 FLON.gpm               350.00:  Flow In Min 
 FLOS.cptm                0.00:  Fluid Loss 
 FLOX.gpm               404.00:  Flow In Max 
 FTRO.       Formation Presure:  FTWD Run Obj 
 HFLO.                      No:  High Flow 
 HPRE.                      No:  High Pressure 
 HTEM.                      No:  High Temp 
 HYDO.m                   1.80:  Hydro Offset 
 IFIN.deg                72.64:  Inc, Final 
 IMAX.deg                73.68:  Inc Max 
 IMIN.deg                72.64:  Inc Min 
 IMND.m                5189.69:  Inc Min Depth 
 IMXD.m                5067.88:  Inc Max Depth 
 JARR.                      No:  Jarring 
 LETM.      15.50.00 07-Aug-20:  Log End Time 
 LOST.hr                     0:  Lost Rig Time 
 LSTM.      10.40.00 06-Aug-20:  Log Start Time 
 MDCL.ppm             36000.00:  Mud Chlorides 
 MDES.     Inversion Oil/Synthetic:  Mud Desc 
 DFD .sg                  1.36:  Mud Density 
 MDMN.sg                  1.36:  Dens Mud Min 
 MDMX.sg                  1.36:  Dens Mud Max 
 MOIL.                      70:  Run Mud Oil % 
 MOWR.                   70:30:  Run Mud OWR 
 MSND.                    0.00:  Run Mud Sand % 
 MSOL.                   17.60:  Run Mud Solids% 
 DFV .spqt               73.00:  Mud Viscosity 
 MWOD.in                  4.75:  MWD Tool OD 
 MWSI.                      No:  Serv Intrp, MWD 
 OTIM.hr                 85.66:  Time Operating 
 PCON.           Look Like New:  Pad Condition 
 PMAX.psia             6250.00:  Press Op, Max 
 PV  .cP                 65.00:  Mud PV 
 RUN .                     900:  Run Number 
 ROPA.m/hr               11.40:  ROP Avg 
 ROPN.m/hr                5.00:  ROP Min 
 ROPX.m/hr               20.00:  ROP Max 
 RPMA.rpm               130.00:  RPM Surface Avg 
 RPMN.rpm                40.00:  RPM Surface Min 
 RPMX.rpm               140.00:  RPM Surface Max 
 RRUN.                    L205:  Rig Run Number 
 RTIM.hr                  1.00:  Time Reaming 
 SAZI.deg               313.52:  Azm, Start 
 SDEP.m                4957.01:  Start Depth 
 SIDD.                      No:  Serv Intrp, DD 
 SINC.deg                73.16:  Inc, Start 
 SPPA.psig             5657.00:  SPP Avg 
 SPPN.psig             2500.00:  SPP Min 
 SPPX.psig             5806.00:  SPP Max 
 STIM.      07.12.00 05-Aug-20:  Start Time 
 SVCS.                 DD, MWD:  Services 
 SVER.                    9.20:  Sperry Version 
 TDAT.m                 243.00:  Tot Depth Attmp 
 TDDF.                      No:  Trip for DD 
 TDLG.m                 243.00:  Tot Depth Loggd 
 TFF .                      No:  Trip for Fail 
 TQAA.f-kp               13.00:  Torque Abs Avg 
 TQAN.f-kp               11.00:  Torque Abs Min 
 TQAX.f-kp               16.00:  Torque Abs Max 
 TRRT.°/30m               1.00:  Turn Rotating 
 MRT .                    HCIM:  Maximum Recorded Temperature 
 TTMX.degC               96.08:  Max Tool Temp 
 VS01.                90515411:  Virtual Str1 SN 
 VS02.                90512716:  Virtual Str2 SN 
 VS03.                90522362:  Virtual Str3 SN 
 VS04.                90619415:  Virtual Str4 SN 
 VS05.                90619414:  Virtual Str5 SN 
 VS06.                90597748:  Virtual Str6 SN 
 WBMN.klb                 2.00:  WOB Min 
 WITN.           Adil Mammadov:  Customer Rep 
 WITN.     Alexander Yadullayev:  Customer Rep 2 
 WOBA.klb                 7.00:  WOB Avg 
 WOBX.klb                23.00:  WOB Max 
 YP  .lhf2               37.00:  Yield Point 
~Curve Information Block
#MNEM.UNIT                 API CODE     Curve Description
#---------               -----------    ---------------------------
 TIME.HHMMSS            00 000 000 000:  GT Time & Date
 GTDEPTH.m              00 000 000 000:  GT Depth
 GTPQH.psia             00 000 000 000:  GT HR Quartz Pressure
 GTTQ.degC              00 000 000 000:  GT Quartz Temperature
 GTTN.NONE              00 000 000 000:  GT Test Number
 GTET.sec               00 000 000 000:  GT Elapsed Test Time
 GTTVD.m                00 000 000 000:  GT True Vertical Depth
#Other Information
#
#WARRANTY: Halliburton will use its best efforts to furnish customers with 
#accurate information and interpretations that are part of, and incident to, the services 
#provided.  However, Halliburton cannot and does not warrant the accuracy 
#or correctness of such information and interpretations.  Under no circumstances should any 
#such information or interpretation be relied upon as the sole basis for any drilling, 
#completion, production, or financial decision or any procedure involving any risk to the 
#safety of any drilling venture, drilling rig or its crew or any other third party.  The 
#Customer has full responsibility for all drilling, completion and production operation.  
#Halliburton makes no representations or warranties, either expressed or 
#implied, including, but not limited to, the implied warranties of merchantability or fitness 
#for a particular purpose, with respect to the services rendered.  In no event will 
#Halliburton be liable for failure to obtain any particular results or for 
#any damages, including, but not limited to, indirect, special or consequential damages, 
#resulting from the use of any information or interpretation provided by Halliburton.
#
~A           TIME           GTDEPTH  GTPQH  GTTQ  GTTN  GTET   GTTVD  
# ...
   15:05:53.635.06-Aug-2020 4947.01 5732.99 78.28 1.00 414.09 2630.94
   15:05:53.835.06-Aug-2020 4947.01 5732.99 78.28 1.00 414.29 2630.94
   15:05:54.035.06-Aug-2020 4947.01 5733.62 78.28 1.00 414.49 2630.94
   15:05:54.235.06-Aug-2020 4947.01 5725.41 78.28 1.00 414.69 2630.94
   15:05:54.435.06-Aug-2020 4947.01 5730.55 78.28 1.00 414.89 2630.94
   15:05:54.635.06-Aug-2020 4947.01 5732.00 78.28 1.00 415.09 2630.94
   15:05:54.835.06-Aug-2020 4947.01 5732.00 78.28 1.00 415.29 2630.94
   15:05:55.035.06-Aug-2020 4947.01 5734.19 78.28 1.00 415.49 2630.94
   15:05:55.235.06-Aug-2020 4947.01 5734.40 78.28 1.00 415.69 2630.94
   15:05:55.435.06-Aug-2020 4947.01 5734.33 78.28 1.00 415.89 2630.94
   15:05:55.635.06-Aug-2020 4947.01 5734.42 78.28 1.00 416.09 2630.94
   15:05:55.835.06-Aug-2020 4947.01 5734.42 78.28 1.00 416.29 2630.94
   15:05:56.035.06-Aug-2020 4947.01 5734.35 78.28 1.00 416.49 2630.94
   15:05:56.235.06-Aug-2020 4947.01 5734.75 78.28 1.00 416.69 2630.94
   15:05:56.435.06-Aug-2020 4947.01 5733.29 78.28 1.00 416.89 2630.94
   15:05:56.635.06-Aug-2020 4947.01 5733.97 78.28 1.00 417.09 2630.94
   15:05:56.835.06-Aug-2020 4947.01 5733.97 78.28 1.00 417.29 2630.94
   15:05:57.035.06-Aug-2020 4947.01 5727.09 78.28 1.00 417.49 2630.94
   15:05:57.235.06-Aug-2020 4947.01 5730.35 78.28 1.00 417.69 2630.94
   15:05:57.435.06-Aug-2020 4947.01 5733.87 78.28 1.00 417.89 2630.94
   15:05:57.635.06-Aug-2020 4947.01 5732.99 78.28 1.00 418.09 2630.94
   15:05:57.836.06-Aug-2020 4947.01 5732.99 78.28 1.00 418.29 2630.94
   15:05:58.036.06-Aug-2020 4947.01 5733.29 78.28 1.00 418.49 2630.94
   15:05:58.236.06-Aug-2020 4947.01 5735.07 78.28 1.00 418.69 2630.94
   15:05:58.436.06-Aug-2020 4947.01 5733.80 78.28 1.00 418.89 2630.94
   15:05:58.636.06-Aug-2020 4947.01 5734.79 78.28 1.00 419.09 2630.94
   15:05:58.836.06-Aug-2020 4947.01 5734.79 78.28 1.00 419.29 2630.94
   15:05:59.036.06-Aug-2020 4947.01 5733.55 78.28 1.00 419.49 2630.94
   15:05:59.236.06-Aug-2020 4947.01 5732.27 78.28 1.00 419.69 2630.94
   15:05:59.436.06-Aug-2020 4947.01 5732.77 78.28 1.00 419.89 2630.94
   15:05:59.636.06-Aug-2020 4947.01 5732.19 78.28 1.00 420.09 2630.94
   15:05:59.836.06-Aug-2020 4947.01 5732.19 78.28 1.00 420.29 2630.94
   15:06:00.036.06-Aug-2020 4947.01 5728.03 78.28 1.00 420.49 2630.94
   15:06:00.236.06-Aug-2020 4947.01 5730.69 78.28 1.00 420.69 2630.94
   15:06:00.436.06-Aug-2020 4947.01 5731.83 78.28 1.00 420.89 2630.94
   15:06:00.636.06-Aug-2020 4947.01 5725.92 78.28 1.00 421.09 2630.94
   15:06:00.836.06-Aug-2020 4947.01 5725.92 78.28 1.00 421.29 2630.94
   15:06:01.036.06-Aug-2020 4947.01 5731.75 78.28 1.00 421.49 2630.94
   15:06:01.236.06-Aug-2020 4947.01 5733.83 78.28 1.00 421.69 2630.94
   15:06:01.436.06-Aug-2020 4947.01 5733.19 78.28 1.00 421.89 2630.94
   15:06:01.636.06-Aug-2020 4947.01 5734.06 78.28 1.00 422.09 2630.94
   15:06:01.836.06-Aug-2020 4947.01 5734.06 78.28 1.00 422.29 2630.94
   15:06:02.036.06-Aug-2020 4947.01 5729.70 78.28 1.00 422.49 2630.94
   15:06:02.236.06-Aug-2020 4947.01 5730.90 78.28 1.00 422.69 2630.94
   15:06:02.436.06-Aug-2020 4947.01 5733.41 78.28 1.00 422.89 2630.94
   15:06:02.637.06-Aug-2020 4947.01 5732.19 78.28 1.00 423.09 2630.94
   15:06:02.837.06-Aug-2020 4947.01 5732.19 78.28 1.00 423.29 2630.94
   15:06:03.037.06-Aug-2020 4947.01 5724.85 78.28 1.00 423.49 2630.94
   15:06:03.237.06-Aug-2020 4947.01 5730.72 78.28 1.00 423.69 2630.94
   15:06:03.437.06-Aug-2020 4947.01 5731.63 78.28 1.00 423.89 2630.94
   15:06:03.637.06-Aug-2020 4947.01 5734.50 78.28 1.00 424.09 2630.94
   15:06:03.837.06-Aug-2020 4947.01 5734.50 78.28 1.00 424.29 2630.94
   15:06:04.037.06-Aug-2020 4947.01 5734.85 78.28 1.00 424.49 2630.94
   15:06:04.237.06-Aug-2020 4947.01 5733.94 78.28 1.00 424.69 2630.94
   15:06:04.437.06-Aug-2020 4947.01 5734.92 78.28 1.00 424.89 2630.94
   15:06:04.637.06-Aug-2020 4947.01 5734.93 78.28 1.00 425.09 2630.94
   15:06:04.837.06-Aug-2020 4947.01 5734.93 78.28 1.00 425.29 2630.94
   15:06:05.037.06-Aug-2020 4947.01 5734.23 78.28 1.00 425.49 2630.94
   15:06:05.237.06-Aug-2020 4947.01 5733.42 78.28 1.00 425.69 2630.94
   15:06:05.437.06-Aug-2020 4947.01 5733.46 78.28 1.00 425.89 2630.94
   15:06:05.637.06-Aug-2020 4947.01 5726.89 78.28 1.00 426.09 2630.94
   15:06:05.837.06-Aug-2020 4947.01 5726.89 78.28 1.00 426.29 2630.94
   15:06:06.037.06-Aug-2020 4947.01 5731.73 78.28 1.00 426.49 2630.94
   15:06:06.237.06-Aug-2020 4947.01 5733.51 78.28 1.00 426.69 2630.94
   15:06:06.437.06-Aug-2020 4947.01 5732.26 78.28 1.00 426.89 2630.94
   15:06:06.637.06-Aug-2020 4947.01 5733.73 78.28 1.00 427.09 2630.94
   15:06:06.837.06-Aug-2020 4947.01 5733.73 78.28 1.00 427.29 2630.94
   15:06:07.037.06-Aug-2020 4947.01 5735.01 78.28 1.00 427.49 2630.94
   15:06:07.238.06-Aug-2020 4947.01 5734.09 78.28 1.00 427.69 2630.94
   15:06:07.438.06-Aug-2020 4947.01 5735.33 78.28 1.00 427.89 2630.94
   15:06:07.638.06-Aug-2020 4947.01 5733.51 78.28 1.00 428.09 2630.94
   15:06:07.838.06-Aug-2020 4947.01 5733.51 78.28 1.00 428.29 2630.94
   15:06:08.038.06-Aug-2020 4947.01 5732.53 78.28 1.00 428.49 2630.94
   15:06:08.238.06-Aug-2020 4947.01 5733.59 78.28 1.00 428.69 2630.94
   15:06:08.438.06-Aug-2020 4947.01 5726.00 78.28 1.00 428.89 2630.94
   15:06:08.638.06-Aug-2020 4947.01 5728.02 78.28 1.00 429.09 2630.94
   15:06:08.838.06-Aug-2020 4947.01 5728.02 78.28 1.00 429.29 2630.94
   15:06:09.038.06-Aug-2020 4947.01 5732.34 78.28 1.00 429.49 2630.94
   15:06:09.238.06-Aug-2020 4947.01 5731.70 78.28 1.00 429.69 2630.94
   15:06:09.438.06-Aug-2020 4947.01 5726.04 78.28 1.00 429.89 2630.94
   15:06:09.638.06-Aug-2020 4947.01 5730.17 78.28 1.00 430.09 2630.94
   15:06:09.838.06-Aug-2020 4947.01 5730.17 78.28 1.00 430.29 2630.94
   15:06:10.038.06-Aug-2020 4947.01 5732.64 78.28 1.00 430.49 2630.94
   15:06:10.238.06-Aug-2020 4947.01 5734.13 78.28 1.00 430.69 2630.94
   15:06:10.438.06-Aug-2020 4947.01 5727.69 78.28 1.00 430.89 2630.94
   15:06:10.638.06-Aug-2020 4947.01 5728.95 78.28 1.00 431.09 2630.94
   15:06:10.838.06-Aug-2020 4947.01 5728.95 78.28 1.00 431.29 2630.94
   15:06:11.038.06-Aug-2020 4947.01 5732.18 78.28 1.00 431.49 2630.94
   15:06:11.238.06-Aug-2020 4947.01 5732.87 78.28 1.00 431.69 2630.94
   15:06:11.438.06-Aug-2020 4947.01 5731.18 78.28 1.00 431.89 2630.94
   15:06:11.638.06-Aug-2020 4947.01 5725.22 78.28 1.00 432.09 2630.94
   15:06:11.838.06-Aug-2020 4947.01 5725.22 78.28 1.00 432.29 2630.94
   15:06:12.039.06-Aug-2020 4947.01 5732.12 78.28 1.00 432.49 2630.94
   15:06:12.239.06-Aug-2020 4947.01 5732.43 78.28 1.00 432.69 2630.94
   15:06:12.439.06-Aug-2020 4947.01 5734.37 78.28 1.00 432.89 2630.94
   15:06:12.639.06-Aug-2020 4947.01 5733.01 78.28 1.00 433.09 2630.94
   15:06:12.839.06-Aug-2020 4947.01 5733.01 78.28 1.00 433.29 2630.94
   15:06:13.039.06-Aug-2020 4947.01 5732.57 78.28 1.00 433.49 2630.94
   15:06:13.239.06-Aug-2020 4947.01 5734.42 78.28 1.00 433.69 2630.94
   15:06:13.439.06-Aug-2020 4947.01 5732.79 78.28 1.00 433.89 2630.94
   15:06:13.639.06-Aug-2020 4947.01 5733.69 78.28 1.00 434.09 2630.94
   15:06:13.839.06-Aug-2020 4947.01 5733.69 78.28 1.00 434.29 2630.94
   15:06:14.039.06-Aug-2020 4947.01 5732.18 78.28 1.00 434.49 2630.94
   15:06:14.239.06-Aug-2020 4947.01 5725.78 78.28 1.00 434.69 2630.94
   15:06:14.439.06-Aug-2020 4947.01 5727.49 78.28 1.00 434.89 2630.94
   15:06:14.639.06-Aug-2020 4947.01 5730.37 78.28 1.00 435.09 2630.94
   15:06:14.839.06-Aug-2020 4947.01 5730.37 78.28 1.00 435.29 2630.94
   15:06:15.039.06-Aug-2020 4947.01 5731.42 78.28 1.00 435.49 2630.94
   15:06:15.239.06-Aug-2020 4947.01 5731.19 78.27 1.00 435.69 2630.94
   15:06:15.439.06-Aug-2020 4947.01 5732.33 78.27 1.00 435.89 2630.94
   15:06:15.639.06-Aug-2020 4947.01 5731.78 78.27 1.00 436.09 2630.94
   15:06:15.839.06-Aug-2020 4947.01 5731.78 78.27 1.00 436.29 2630.94
   15:06:16.039.06-Aug-2020 4947.01 5731.91 78.27 1.00 436.49 2630.94
   15:06:16.239.06-Aug-2020 4947.01 5732.47 78.27 1.00 436.69 2630.94
   15:06:16.439.06-Aug-2020 4947.01 5730.73 78.27 1.00 436.89 2630.94
