~Version Information
 VERS.                  2.0:   CWLS log ASCII Standard -VERSION 2.0
 WRAP.                   NO:   One line per depth step
~Well Information Block
#MNEM.UNIT     VALUE/NAME     DESCRIPTION
#---------     -----------    ---------------------------
 STRT.S             16:10:03 06-Aug-20: START TIME 16:10:03 06-Aug-20
 STOP.S             16:17:57 06-Aug-20: STOP TIME  16:17:57 06-Aug-20
 STEP.S                   0.00: STEP TIME
 NULL.                 -999.25: NULL VALUE
 DFWT.                        :  DIST FWL TEXT
 DFST.                        :  DIST FSL TEXT
 DMF .             Drill Floor:  DRILL MEAS FROM
 STIM.      12.00.00 03-Jul-20:  START TIME
 DATE.      00.50.00 09-Aug-20:  END TIME
 SPUD.               03-Jul-20:  SPUD DATE
 NREF.                    Grid:  NORTH REFERENCE
 HPTY.       Minimum Curvature:  HOLE POS TYPE
 DMOD.             Drill Model:  DRILL MOD DESC
 SVYD.                  Survey:  SURVEY DESC
 ILTD.               Lithology:  INTERP LTH DESC
 FTOP.          Formation Tops:  FORM TOPS DESC
 PDAT.          Mean Sea Level:  PERMANENT DATUM
 FLD .                     ACG:  FIELD NAME
 CTRY.              Azerbaijan:  COUNTRY NAME
 WELL.                    E04x:  WELL NAME
 SRVC.          Turan Drilling:  CONTRACTOR
 COMP.     BP Exploration (Caspian Sea) Ltd.:  COMPANY
 SON .        AZ-XX-0906531346:  JOB NUMBER
 WTYP.                Deviated:  WELL TYPE
 MDS .        Operator Entered:  MAG DATA SOURCE
 UWI .                     N/A:  UNIQUE WELL IDENTIFIER
 API .                     N/A:  API NUMBER
 BASE.              Azerbaijan:  LOGGING EQUIPMENT BASE LOCATION
 REGN.                   EESSA:  REGION
 PROV.                    Baku:  PROVINCE
 STAT.                    Baku:  STATE NAME
 MWDS.                    Baku:  MWD SHOP
 JOBN.        AZ-XX-0906531346:  JOB TICKET NUMB
 RIG .                     DWG:  RIG NAME
 DOE .                     N/A:  DOE NUMBER
 DCON.         Sperry Drilling:  DIRECTNL CONTR
 UNIT.                     N/A:  LOGGING EQUIPMENT ID
 CNTY.                        :  COUNTY
 LOC .                        :  LOCATION
 LMF .             Drill Floor:  LOG MEASURED FROM
 TVDS.m                  43.16:  TVDSS CORRECTN
 LATI.deg                40.17:  LATITUDE
 LONG.deg                51.17:  LONGITUDE
 WHNS.m                  -0.12:  WELL HEAD N/S
 WHEW.m                  -5.41:  WELL HEAD E/W
 UTMX.m              514337.95:  UTM X
 UTMY.m             4448627.46:  UTM Y
 DFWL.m                   0.00:  DISTANCE FWL
 DFSL.m                   0.00:  DISTANCE FSL
 SDEP.m                3088.01:  START DEPTH
 TDD .m                5200.01:  TOTAL DEPTH (DRILLER)
 VSDR.deg               244.51:  VERT SEC DIRECT
 GVFD.g                   1.00:  GRAVITY FIELD
 MFLD.nT              50329.80:  MAGNETIC FIELD
 MDIP.deg                59.63:  MAGNETIC DIP
 MDEC.deg                 6.59:  MAGNETIC DECL
 GRDC.deg                 0.09:  GRID CORRECTION
 AZTC.deg                 6.50:  AZM TOTAL CORR
 EPD .m                   0.00:  ELEVATION
 EGL .m                   0.00:  GROUND ELEVATION
 WDMS.m                 176.20:  WD ELEV
 APD .m                  43.16:  DEPTH ABOVE PD
 DEP .m                3084.71:  DEPTH
 AGAP.m                  43.16:  AIR GAP
 VSEW.m                  -5.41:  VERT SEC E/W
 VSNS.m                  -0.12:  VERT SEC N/S
 EKB .m                   0.00:  KB ELEVATION
 EDF .m                  43.16:  DF ELEVATION
 TDL .m                 243.00:  TOTAL DEPTH (LOGGER)
 VSC .                       0:  VS TO CLOSURE
 MAGU.                 1853542:  MAGUTM CHECKSUM
~Parameter Information Block
#MNEM.UNIT       Value        Description
#---------     -----------    ---------------------------
 AV  .mps                 1.91:  Ann Velocity 
 AVMX.mps                 2.52:  Max Ann Veloc 
 AZIF.deg               308.97:  Azm, Final 
 BHAT.        Rotary Steerable:  BHA Type 
 BROT.°/30m               1.00:  Build Rotating 
 BS  .in                  6.50:  Bit Size 
 BSZ .in                  6.50:  Bit Size 
 BTPL.psig              350.00:  Bit Press Loss 
 CABU.                      No:  Customer Abuse 
 CGEO.           Asif Pashayev:  Customer Geo 
 COMM.                     Ôöj:  Run Comments 1 
 TCS .hr                 35.86:  Time Ciculation Ended 
 CV  .mps                 2.31:  Crit Velocity 
 CVMX.mps                 2.31:  Max Crit Veloc 
 DD1 .         Intigam Rahimov:  Direct Drillr 1 
 DDSV.               Geo-Pilot:  DD Service 
 DEFF.%                  92.00:  % Det Eff 
 DLRX.°/30m               1.00:  Dogleg Rot Max 
 DLSO.°/30m               1.00:  Dogleg Oriented 
 DLSX.°/30m               1.42:  Dogleg Str Max 
 DRET.      15.50.00 07-Aug-20:  Drill End Time 
 DRST.      10.40.00 06-Aug-20:  Drill Start Tim 
 DTIM.hr                 21.30:  Time Drilling 
 EDEP.m                5200.01:  End Depth 
 ENG1.            Alan Tuganov:  Engineer 1 
 ENG2.         Almaz Almadatov:  Engineer 2 
 ENG3.     Zammelal Abdullah Sani:  Engineer 3 
 ETIM.      22.42.00 08-Aug-20:  End Time 
 FLOI.gpm               395.00:  Flow In 
 FLON.gpm               350.00:  Flow In Min 
 FLOS.cptm                0.00:  Fluid Loss 
 FLOX.gpm               404.00:  Flow In Max 
 FTRO.       Formation Presure:  FTWD Run Obj 
 HFLO.                      No:  High Flow 
 HPRE.                      No:  High Pressure 
 HTEM.                      No:  High Temp 
 HYDO.m                   1.80:  Hydro Offset 
 IFIN.deg                72.64:  Inc, Final 
 IMAX.deg                73.68:  Inc Max 
 IMIN.deg                72.64:  Inc Min 
 IMND.m                5189.69:  Inc Min Depth 
 IMXD.m                5067.88:  Inc Max Depth 
 JARR.                      No:  Jarring 
 LETM.      15.50.00 07-Aug-20:  Log End Time 
 LOST.hr                     0:  Lost Rig Time 
 LSTM.      10.40.00 06-Aug-20:  Log Start Time 
 MDCL.ppm             36000.00:  Mud Chlorides 
 MDES.     Inversion Oil/Synthetic:  Mud Desc 
 DFD .sg                  1.36:  Mud Density 
 MDMN.sg                  1.36:  Dens Mud Min 
 MDMX.sg                  1.36:  Dens Mud Max 
 MOIL.                      70:  Run Mud Oil % 
 MOWR.                   70:30:  Run Mud OWR 
 MSND.                    0.00:  Run Mud Sand % 
 MSOL.                   17.60:  Run Mud Solids% 
 DFV .spqt               73.00:  Mud Viscosity 
 MWOD.in                  4.75:  MWD Tool OD 
 MWSI.                      No:  Serv Intrp, MWD 
 OTIM.hr                 85.66:  Time Operating 
 PCON.           Look Like New:  Pad Condition 
 PMAX.psia             6250.00:  Press Op, Max 
 PV  .cP                 65.00:  Mud PV 
 RUN .                     900:  Run Number 
 ROPA.m/hr               11.40:  ROP Avg 
 ROPN.m/hr                5.00:  ROP Min 
 ROPX.m/hr               20.00:  ROP Max 
 RPMA.rpm               130.00:  RPM Surface Avg 
 RPMN.rpm                40.00:  RPM Surface Min 
 RPMX.rpm               140.00:  RPM Surface Max 
 RRUN.                    L205:  Rig Run Number 
 RTIM.hr                  1.00:  Time Reaming 
 SAZI.deg               313.52:  Azm, Start 
 SDEP.m                4957.01:  Start Depth 
 SIDD.                      No:  Serv Intrp, DD 
 SINC.deg                73.16:  Inc, Start 
 SPPA.psig             5657.00:  SPP Avg 
 SPPN.psig             2500.00:  SPP Min 
 SPPX.psig             5806.00:  SPP Max 
 STIM.      07.12.00 05-Aug-20:  Start Time 
 SVCS.                 DD, MWD:  Services 
 SVER.                    9.20:  Sperry Version 
 TDAT.m                 243.00:  Tot Depth Attmp 
 TDDF.                      No:  Trip for DD 
 TDLG.m                 243.00:  Tot Depth Loggd 
 TFF .                      No:  Trip for Fail 
 TQAA.f-kp               13.00:  Torque Abs Avg 
 TQAN.f-kp               11.00:  Torque Abs Min 
 TQAX.f-kp               16.00:  Torque Abs Max 
 TRRT.°/30m               1.00:  Turn Rotating 
 MRT .                    HCIM:  Maximum Recorded Temperature 
 TTMX.degC               96.08:  Max Tool Temp 
 VS01.                90515411:  Virtual Str1 SN 
 VS02.                90512716:  Virtual Str2 SN 
 VS03.                90522362:  Virtual Str3 SN 
 VS04.                90619415:  Virtual Str4 SN 
 VS05.                90619414:  Virtual Str5 SN 
 VS06.                90597748:  Virtual Str6 SN 
 WBMN.klb                 2.00:  WOB Min 
 WITN.           Adil Mammadov:  Customer Rep 
 WITN.     Alexander Yadullayev:  Customer Rep 2 
 WOBA.klb                 7.00:  WOB Avg 
 WOBX.klb                23.00:  WOB Max 
 YP  .lhf2               37.00:  Yield Point 
~Curve Information Block
#MNEM.UNIT                 API CODE     Curve Description
#---------               -----------    ---------------------------
 TIME.HHMMSS            00 000 000 000:  GT Time & Date
 GTDEPTH.m              00 000 000 000:  GT Depth
 GTPQH.psia             00 000 000 000:  GT HR Quartz Pressure
 GTTQ.degC              00 000 000 000:  GT Quartz Temperature
 GTTN.NONE              00 000 000 000:  GT Test Number
 GTET.sec               00 000 000 000:  GT Elapsed Test Time
 GTTVD.m                00 000 000 000:  GT True Vertical Depth
#Other Information
#
#WARRANTY: Halliburton will use its best efforts to furnish customers with 
#accurate information and interpretations that are part of, and incident to, the services 
#provided.  However, Halliburton cannot and does not warrant the accuracy 
#or correctness of such information and interpretations.  Under no circumstances should any 
#such information or interpretation be relied upon as the sole basis for any drilling, 
#completion, production, or financial decision or any procedure involving any risk to the 
#safety of any drilling venture, drilling rig or its crew or any other third party.  The 
#Customer has full responsibility for all drilling, completion and production operation.  
#Halliburton makes no representations or warranties, either expressed or 
#implied, including, but not limited to, the implied warranties of merchantability or fitness 
#for a particular purpose, with respect to the services rendered.  In no event will 
#Halliburton be liable for failure to obtain any particular results or for 
#any damages, including, but not limited to, indirect, special or consequential damages, 
#resulting from the use of any information or interpretation provided by Halliburton.
#
~A           TIME           GTDEPTH  GTPQH  GTTQ  GTTN  GTET   GTTVD  
# ...
   16:11:12.472.06-Aug-2020 4955.01 4252.38 80.88 2.00  69.01 2633.27
   16:11:12.672.06-Aug-2020 4955.01 4252.38 80.88 2.00  69.21 2633.27
   16:11:12.872.06-Aug-2020 4955.01 4252.49 80.88 2.00  69.41 2633.27
   16:11:13.072.06-Aug-2020 4955.01 4252.54 80.88 2.00  69.61 2633.27
   16:11:13.272.06-Aug-2020 4955.01 4252.55 80.88 2.00  69.81 2633.27
   16:11:13.472.06-Aug-2020 4955.01 4252.59 80.88 2.00  70.01 2633.27
   16:11:13.672.06-Aug-2020 4955.01 4252.65 80.88 2.00  70.22 2633.27
   16:11:13.872.06-Aug-2020 4955.01 4252.65 80.88 2.00  70.42 2633.27
   16:11:14.072.06-Aug-2020 4955.01 4252.68 80.87 2.00  70.62 2633.27
   16:11:14.272.06-Aug-2020 4955.01 4252.40 80.87 2.00  70.82 2633.27
   16:11:14.472.06-Aug-2020 4955.01 4252.69 80.87 2.00  71.02 2633.27
   16:11:14.672.06-Aug-2020 4955.01 4252.69 80.87 2.00  71.22 2633.27
   16:11:14.873.06-Aug-2020 4955.01 4252.84 80.87 2.00  71.42 2633.27
   16:11:15.073.06-Aug-2020 4955.01 4252.91 80.87 2.00  71.62 2633.27
   16:11:15.273.06-Aug-2020 4955.01 4252.83 80.87 2.00  71.82 2633.27
   16:11:15.473.06-Aug-2020 4955.01 4252.78 80.87 2.00  72.02 2633.27
   16:11:15.673.06-Aug-2020 4955.01 4252.78 80.87 2.00  72.22 2633.27
   16:11:15.873.06-Aug-2020 4955.01 4252.99 80.87 2.00  72.42 2633.27
   16:11:16.073.06-Aug-2020 4955.01 4253.09 80.87 2.00  72.62 2633.27
   16:11:16.273.06-Aug-2020 4955.01 4252.78 80.87 2.00  72.82 2633.27
   16:11:16.473.06-Aug-2020 4955.01 4253.12 80.87 2.00  73.02 2633.27
   16:11:16.673.06-Aug-2020 4955.01 4253.12 80.87 2.00  73.22 2633.27
   16:11:16.873.06-Aug-2020 4955.01 4253.22 80.87 2.00  73.42 2633.27
   16:11:17.073.06-Aug-2020 4955.01 4253.30 80.87 2.00  73.62 2633.27
   16:11:17.273.06-Aug-2020 4955.01 4253.33 80.87 2.00  73.82 2633.27
   16:11:17.473.06-Aug-2020 4955.01 4253.12 80.87 2.00  74.02 2633.27
   16:11:17.673.06-Aug-2020 4955.01 4253.29 80.86 2.00  74.22 2633.27
   16:11:17.873.06-Aug-2020 4955.01 4253.39 80.86 2.00  74.42 2633.27
   16:11:18.073.06-Aug-2020 4955.01 4253.50 80.86 2.00  74.62 2633.27
   16:11:18.273.06-Aug-2020 4955.01 4253.57 80.86 2.00  74.82 2633.27
   16:11:18.473.06-Aug-2020 4955.01 4253.62 80.86 2.00  75.02 2633.27
   16:11:18.673.06-Aug-2020 4955.01 4253.62 80.86 2.00  75.22 2633.27
   16:11:18.873.06-Aug-2020 4955.01 4253.65 80.86 2.00  75.42 2633.27
   16:11:19.073.06-Aug-2020 4955.01 4253.68 80.86 2.00  75.62 2633.27
   16:11:19.273.06-Aug-2020 4955.01 4253.71 80.86 2.00  75.82 2633.27
   16:11:19.474.06-Aug-2020 4955.01 4253.74 80.86 2.00  76.02 2633.27
   16:11:19.674.06-Aug-2020 4955.01 4253.74 80.86 2.00  76.22 2633.27
   16:11:19.874.06-Aug-2020 4955.01 4253.76 80.86 2.00  76.42 2633.27
   16:11:20.074.06-Aug-2020 4955.01 4253.52 80.86 2.00  76.62 2633.27
   16:11:20.274.06-Aug-2020 4955.01 4253.67 80.86 2.00  76.82 2633.27
   16:11:20.474.06-Aug-2020 4955.01 4253.83 80.86 2.00  77.02 2633.27
   16:11:20.674.06-Aug-2020 4955.01 4253.83 80.86 2.00  77.22 2633.27
   16:11:20.874.06-Aug-2020 4955.01 4253.92 80.86 2.00  77.42 2633.27
   16:11:21.074.06-Aug-2020 4955.01 4253.94 80.86 2.00  77.62 2633.27
   16:11:21.274.06-Aug-2020 4955.01 4253.96 80.85 2.00  77.82 2633.27
   16:11:21.474.06-Aug-2020 4955.01 4253.97 80.85 2.00  78.02 2633.27
   16:11:21.674.06-Aug-2020 4955.01 4254.03 80.85 2.00  78.22 2633.27
   16:11:21.874.06-Aug-2020 4955.01 4254.04 80.85 2.00  78.42 2633.27
   16:11:22.074.06-Aug-2020 4955.01 4254.09 80.85 2.00  78.62 2633.27
   16:11:22.274.06-Aug-2020 4955.01 4254.08 80.85 2.00  78.82 2633.27
   16:11:22.474.06-Aug-2020 4955.01 4254.09 80.85 2.00  79.02 2633.27
   16:11:22.674.06-Aug-2020 4955.01 4254.09 80.85 2.00  79.22 2633.27
   16:11:22.874.06-Aug-2020 4955.01 4253.86 80.85 2.00  79.42 2633.27
   16:11:23.074.06-Aug-2020 4955.01 4254.01 80.85 2.00  79.62 2633.27
   16:11:23.274.06-Aug-2020 4955.01 4254.14 80.85 2.00  79.82 2633.27
   16:11:23.474.06-Aug-2020 4955.01 4254.19 80.85 2.00  80.02 2633.27
   16:11:23.674.06-Aug-2020 4955.01 4254.19 80.85 2.00  80.22 2633.27
   16:11:23.874.06-Aug-2020 4955.01 4254.02 80.85 2.00  80.42 2633.27
   16:11:24.074.06-Aug-2020 4955.01 4254.19 80.85 2.00  80.62 2633.27
   16:11:24.275.06-Aug-2020 4955.01 4254.29 80.85 2.00  80.82 2633.27
   16:11:24.475.06-Aug-2020 4955.01 4254.37 80.85 2.00  81.02 2633.27
   16:11:24.675.06-Aug-2020 4955.01 4254.37 80.85 2.00  81.22 2633.27
   16:11:24.875.06-Aug-2020 4955.01 4254.14 80.84 2.00  81.42 2633.27
   16:11:25.075.06-Aug-2020 4955.01 4254.38 80.84 2.00  81.62 2633.27
   16:11:25.275.06-Aug-2020 4955.01 4254.51 80.84 2.00  81.82 2633.27
   16:11:25.475.06-Aug-2020 4955.01 4254.51 80.84 2.00  82.02 2633.27
   16:11:25.675.06-Aug-2020 4955.01 4254.58 80.84 2.00  82.22 2633.27
   16:11:25.875.06-Aug-2020 4955.01 4254.62 80.84 2.00  82.42 2633.27
   16:11:26.075.06-Aug-2020 4955.01 4254.31 80.84 2.00  82.62 2633.27
   16:11:26.275.06-Aug-2020 4955.01 4254.56 80.84 2.00  82.82 2633.27
   16:11:26.475.06-Aug-2020 4955.01 4254.64 80.84 2.00  83.02 2633.27
   16:11:26.675.06-Aug-2020 4955.01 4254.64 80.84 2.00  83.22 2633.27
   16:11:26.875.06-Aug-2020 4955.01 4254.73 80.84 2.00  83.42 2633.27
   16:11:27.075.06-Aug-2020 4955.01 4254.76 80.84 2.00  83.62 2633.27
   16:11:27.275.06-Aug-2020 4955.01 4254.80 80.84 2.00  83.82 2633.27
   16:11:27.475.06-Aug-2020 4955.01 4254.84 80.84 2.00  84.02 2633.27
   16:11:27.675.06-Aug-2020 4955.01 4254.84 80.84 2.00  84.22 2633.27
   16:11:27.875.06-Aug-2020 4955.01 4254.86 80.84 2.00  84.42 2633.27
   16:11:28.075.06-Aug-2020 4955.01 4254.87 80.84 2.00  84.62 2633.27
   16:11:28.275.06-Aug-2020 4955.01 4254.88 80.84 2.00  84.82 2633.27
   16:11:28.475.06-Aug-2020 4955.01 4254.87 80.84 2.00  85.02 2633.27
   16:11:28.675.06-Aug-2020 4955.01 4254.56 80.83 2.00  85.22 2633.27
   16:11:28.876.06-Aug-2020 4955.01 4254.82 80.83 2.00  85.42 2633.27
   16:11:29.076.06-Aug-2020 4955.01 4254.87 80.83 2.00  85.62 2633.27
   16:11:29.276.06-Aug-2020 4955.01 4254.91 80.83 2.00  85.82 2633.27
   16:11:29.476.06-Aug-2020 4955.01 4254.93 80.83 2.00  86.02 2633.27
   16:11:29.676.06-Aug-2020 4955.01 4254.93 80.83 2.00  86.22 2633.27
   16:11:29.876.06-Aug-2020 4955.01 4254.99 80.83 2.00  86.42 2633.27
   16:11:30.076.06-Aug-2020 4955.01 4255.03 80.83 2.00  86.62 2633.27
   16:11:30.276.06-Aug-2020 4955.01 4255.06 80.83 2.00  86.82 2633.27
   16:11:30.476.06-Aug-2020 4955.01 4255.13 80.83 2.00  87.02 2633.27
   16:11:30.676.06-Aug-2020 4955.01 4255.13 80.83 2.00  87.22 2633.27
   16:11:30.876.06-Aug-2020 4955.01 4255.11 80.83 2.00  87.42 2633.27
   16:11:31.076.06-Aug-2020 4955.01 4255.11 80.83 2.00  87.62 2633.27
   16:11:31.276.06-Aug-2020 4955.01 4255.11 80.83 2.00  87.82 2633.27
   16:11:31.476.06-Aug-2020 4955.01 4254.77 80.83 2.00  88.02 2633.27
   16:11:31.676.06-Aug-2020 4955.01 4254.77 80.83 2.00  88.22 2633.27
   16:11:31.876.06-Aug-2020 4955.01 4255.11 80.83 2.00  88.42 2633.27
   16:11:32.076.06-Aug-2020 4955.01 4255.18 80.83 2.00  88.62 2633.27
   16:11:32.276.06-Aug-2020 4955.01 4255.21 80.83 2.00  88.82 2633.27
   16:11:32.476.06-Aug-2020 4955.01 4255.12 80.82 2.00  89.02 2633.27
   16:11:32.676.06-Aug-2020 4955.01 4255.12 80.82 2.00  89.22 2633.27
   16:11:32.876.06-Aug-2020 4955.01 4255.22 80.82 2.00  89.42 2633.27
   16:11:33.076.06-Aug-2020 4955.01 4255.34 80.82 2.00  89.62 2633.27
   16:11:33.276.06-Aug-2020 4955.01 4255.37 80.82 2.00  89.82 2633.27
   16:11:33.476.06-Aug-2020 4955.01 4255.23 80.82 2.00  90.02 2633.27
   16:11:33.677.06-Aug-2020 4955.01 4255.26 80.82 2.00  90.22 2633.27
   16:11:33.877.06-Aug-2020 4955.01 4255.34 80.82 2.00  90.42 2633.27
   16:11:34.077.06-Aug-2020 4955.01 4255.44 80.82 2.00  90.62 2633.27
   16:11:34.277.06-Aug-2020 4955.01 4255.45 80.82 2.00  90.82 2633.27
   16:11:34.477.06-Aug-2020 4955.01 4255.48 80.82 2.00  91.02 2633.27
   16:11:34.677.06-Aug-2020 4955.01 4255.48 80.82 2.00  91.22 2633.27
   16:11:34.877.06-Aug-2020 4955.01 4255.19 80.82 2.00  91.42 2633.27
   16:11:35.077.06-Aug-2020 4955.01 4255.38 80.82 2.00  91.62 2633.27
   16:11:35.277.06-Aug-2020 4955.01 4255.54 80.82 2.00  91.82 2633.27
