~Version Information
 VERS.                  2.0:   CWLS log ASCII Standard -VERSION 2.0
 WRAP.                   NO:   One line per depth step
~Well Information Block
#MNEM.UNIT     VALUE/NAME     DESCRIPTION
#---------     -----------    ---------------------------
 STRT.S             16:10:03 06-Aug-20: START TIME 16:10:03 06-Aug-20
 STOP.S             16:17:57 06-Aug-20: STOP TIME  16:17:57 06-Aug-20
 STEP.S                   0.00: STEP TIME
 NULL.                 -999.25: NULL VALUE
 DFWT.                        :  DIST FWL TEXT
 DFST.                        :  DIST FSL TEXT
 DMF .             Drill Floor:  DRILL MEAS FROM
 STIM.      12.00.00 03-Jul-20:  START TIME
 DATE.      00.50.00 09-Aug-20:  END TIME
 SPUD.               03-Jul-20:  SPUD DATE
 NREF.                    Grid:  NORTH REFERENCE
 HPTY.       Minimum Curvature:  HOLE POS TYPE
 DMOD.             Drill Model:  DRILL MOD DESC
 SVYD.                  Survey:  SURVEY DESC
 ILTD.               Lithology:  INTERP LTH DESC
 FTOP.          Formation Tops:  FORM TOPS DESC
 PDAT.          Mean Sea Level:  PERMANENT DATUM
 FLD .                     ACG:  FIELD NAME
 CTRY.              Azerbaijan:  COUNTRY NAME
 WELL.                    E04x:  WELL NAME
 SRVC.          Turan Drilling:  CONTRACTOR
 COMP.     BP Exploration (Caspian Sea) Ltd.:  COMPANY
 SON .        AZ-XX-0906531346:  JOB NUMBER
 WTYP.                Deviated:  WELL TYPE
 MDS .        Operator Entered:  MAG DATA SOURCE
 UWI .                     N/A:  UNIQUE WELL IDENTIFIER
 API .                     N/A:  API NUMBER
 BASE.              Azerbaijan:  LOGGING EQUIPMENT BASE LOCATION
 REGN.                   EESSA:  REGION
 PROV.                    Baku:  PROVINCE
 STAT.                    Baku:  STATE NAME
 MWDS.                    Baku:  MWD SHOP
 JOBN.        AZ-XX-0906531346:  JOB TICKET NUMB
 RIG .                     DWG:  RIG NAME
 DOE .                     N/A:  DOE NUMBER
 DCON.         Sperry Drilling:  DIRECTNL CONTR
 UNIT.                     N/A:  LOGGING EQUIPMENT ID
 CNTY.                        :  COUNTY
 LOC .                        :  LOCATION
 LMF .             Drill Floor:  LOG MEASURED FROM
 TVDS.m                  43.16:  TVDSS CORRECTN
 LATI.deg                40.17:  LATITUDE
 LONG.deg                51.17:  LONGITUDE
 WHNS.m                  -0.12:  WELL HEAD N/S
 WHEW.m                  -5.41:  WELL HEAD E/W
 UTMX.m              514337.95:  UTM X
 UTMY.m             4448627.46:  UTM Y
 DFWL.m                   0.00:  DISTANCE FWL
 DFSL.m                   0.00:  DISTANCE FSL
 SDEP.m                3088.01:  START DEPTH
 TDD .m                5200.01:  TOTAL DEPTH (DRILLER)
 VSDR.deg               244.51:  VERT SEC DIRECT
 GVFD.g                   1.00:  GRAVITY FIELD
 MFLD.nT              50329.80:  MAGNETIC FIELD
 MDIP.deg                59.63:  MAGNETIC DIP
 MDEC.deg                 6.59:  MAGNETIC DECL
 GRDC.deg                 0.09:  GRID CORRECTION
 AZTC.deg                 6.50:  AZM TOTAL CORR
 EPD .m                   0.00:  ELEVATION
 EGL .m                   0.00:  GROUND ELEVATION
 WDMS.m                 176.20:  WD ELEV
 APD .m                  43.16:  DEPTH ABOVE PD
 DEP .m                3084.71:  DEPTH
 AGAP.m                  43.16:  AIR GAP
 VSEW.m                  -5.41:  VERT SEC E/W
 VSNS.m                  -0.12:  VERT SEC N/S
 EKB .m                   0.00:  KB ELEVATION
 EDF .m                  43.16:  DF ELEVATION
 TDL .m                 243.00:  TOTAL DEPTH (LOGGER)
 VSC .                       0:  VS TO CLOSURE
 MAGU.                 1853542:  MAGUTM CHECKSUM
~Parameter Information Block
#MNEM.UNIT       Value        Description
#---------     -----------    ---------------------------
 AV  .mps                 1.91:  Ann Velocity 
 AVMX.mps                 2.52:  Max Ann Veloc 
 AZIF.deg               308.97:  Azm, Final 
 BHAT.        Rotary Steerable:  BHA Type 
 BROT.°/30m               1.00:  Build Rotating 
 BS  .in                  6.50:  Bit Size 
 BSZ .in                  6.50:  Bit Size 
 BTPL.psig              350.00:  Bit Press Loss 
 CABU.                      No:  Customer Abuse 
 CGEO.           Asif Pashayev:  Customer Geo 
 COMM.                     Ôöj:  Run Comments 1 
 TCS .hr                 35.86:  Time Ciculation Ended 
 CV  .mps                 2.31:  Crit Velocity 
 CVMX.mps                 2.31:  Max Crit Veloc 
 DD1 .         Intigam Rahimov:  Direct Drillr 1 
 DDSV.               Geo-Pilot:  DD Service 
 DEFF.%                  92.00:  % Det Eff 
 DLRX.°/30m               1.00:  Dogleg Rot Max 
 DLSO.°/30m               1.00:  Dogleg Oriented 
 DLSX.°/30m               1.42:  Dogleg Str Max 
 DRET.      15.50.00 07-Aug-20:  Drill End Time 
 DRST.      10.40.00 06-Aug-20:  Drill Start Tim 
 DTIM.hr                 21.30:  Time Drilling 
 EDEP.m                5200.01:  End Depth 
 ENG1.            Alan Tuganov:  Engineer 1 
 ENG2.         Almaz Almadatov:  Engineer 2 
 ENG3.     Zammelal Abdullah Sani:  Engineer 3 
 ETIM.      22.42.00 08-Aug-20:  End Time 
 FLOI.gpm               395.00:  Flow In 
 FLON.gpm               350.00:  Flow In Min 
 FLOS.cptm                0.00:  Fluid Loss 
 FLOX.gpm               404.00:  Flow In Max 
 FTRO.       Formation Presure:  FTWD Run Obj 
 HFLO.                      No:  High Flow 
 HPRE.                      No:  High Pressure 
 HTEM.                      No:  High Temp 
 HYDO.m                   1.80:  Hydro Offset 
 IFIN.deg                72.64:  Inc, Final 
 IMAX.deg                73.68:  Inc Max 
 IMIN.deg                72.64:  Inc Min 
 IMND.m                5189.69:  Inc Min Depth 
 IMXD.m                5067.88:  Inc Max Depth 
 JARR.                      No:  Jarring 
 LETM.      15.50.00 07-Aug-20:  Log End Time 
 LOST.hr                     0:  Lost Rig Time 
 LSTM.      10.40.00 06-Aug-20:  Log Start Time 
 MDCL.ppm             36000.00:  Mud Chlorides 
 MDES.     Inversion Oil/Synthetic:  Mud Desc 
 DFD .sg                  1.36:  Mud Density 
 MDMN.sg                  1.36:  Dens Mud Min 
 MDMX.sg                  1.36:  Dens Mud Max 
 MOIL.                      70:  Run Mud Oil % 
 MOWR.                   70:30:  Run Mud OWR 
 MSND.                    0.00:  Run Mud Sand % 
 MSOL.                   17.60:  Run Mud Solids% 
 DFV .spqt               73.00:  Mud Viscosity 
 MWOD.in                  4.75:  MWD Tool OD 
 MWSI.                      No:  Serv Intrp, MWD 
 OTIM.hr                 85.66:  Time Operating 
 PCON.           Look Like New:  Pad Condition 
 PMAX.psia             6250.00:  Press Op, Max 
 PV  .cP                 65.00:  Mud PV 
 RUN .                     900:  Run Number 
 ROPA.m/hr               11.40:  ROP Avg 
 ROPN.m/hr                5.00:  ROP Min 
 ROPX.m/hr               20.00:  ROP Max 
 RPMA.rpm               130.00:  RPM Surface Avg 
 RPMN.rpm                40.00:  RPM Surface Min 
 RPMX.rpm               140.00:  RPM Surface Max 
 RRUN.                    L205:  Rig Run Number 
 RTIM.hr                  1.00:  Time Reaming 
 SAZI.deg               313.52:  Azm, Start 
 SDEP.m                4957.01:  Start Depth 
 SIDD.                      No:  Serv Intrp, DD 
 SINC.deg                73.16:  Inc, Start 
 SPPA.psig             5657.00:  SPP Avg 
 SPPN.psig             2500.00:  SPP Min 
 SPPX.psig             5806.00:  SPP Max 
 STIM.      07.12.00 05-Aug-20:  Start Time 
 SVCS.                 DD, MWD:  Services 
 SVER.                    9.20:  Sperry Version 
 TDAT.m                 243.00:  Tot Depth Attmp 
 TDDF.                      No:  Trip for DD 
 TDLG.m                 243.00:  Tot Depth Loggd 
 TFF .                      No:  Trip for Fail 
 TQAA.f-kp               13.00:  Torque Abs Avg 
 TQAN.f-kp               11.00:  Torque Abs Min 
 TQAX.f-kp               16.00:  Torque Abs Max 
 TRRT.°/30m               1.00:  Turn Rotating 
 MRT .                    HCIM:  Maximum Recorded Temperature 
 TTMX.degC               96.08:  Max Tool Temp 
 VS01.                90515411:  Virtual Str1 SN 
 VS02.                90512716:  Virtual Str2 SN 
 VS03.                90522362:  Virtual Str3 SN 
 VS04.                90619415:  Virtual Str4 SN 
 VS05.                90619414:  Virtual Str5 SN 
 VS06.                90597748:  Virtual Str6 SN 
 WBMN.klb                 2.00:  WOB Min 
 WITN.           Adil Mammadov:  Customer Rep 
 WITN.     Alexander Yadullayev:  Customer Rep 2 
 WOBA.klb                 7.00:  WOB Avg 
 WOBX.klb                23.00:  WOB Max 
 YP  .lhf2               37.00:  Yield Point 
~Curve Information Block
#MNEM.UNIT                 API CODE     Curve Description
#---------               -----------    ---------------------------
 TIME.HHMMSS            00 000 000 000:  GT Time & Date
 GTDEPTH.m              00 000 000 000:  GT Depth
 GTPQH.psia             00 000 000 000:  GT HR Quartz Pressure
 GTTQ.degC              00 000 000 000:  GT Quartz Temperature
 GTTN.NONE              00 000 000 000:  GT Test Number
 GTET.sec               00 000 000 000:  GT Elapsed Test Time
 GTTVD.m                00 000 000 000:  GT True Vertical Depth
#Other Information
#
#WARRANTY: Halliburton will use its best efforts to furnish customers with 
#accurate information and interpretations that are part of, and incident to, the services 
#provided.  However, Halliburton cannot and does not warrant the accuracy 
#or correctness of such information and interpretations.  Under no circumstances should any 
#such information or interpretation be relied upon as the sole basis for any drilling, 
#completion, production, or financial decision or any procedure involving any risk to the 
#safety of any drilling venture, drilling rig or its crew or any other third party.  The 
#Customer has full responsibility for all drilling, completion and production operation.  
#Halliburton makes no representations or warranties, either expressed or 
#implied, including, but not limited to, the implied warranties of merchantability or fitness 
#for a particular purpose, with respect to the services rendered.  In no event will 
#Halliburton be liable for failure to obtain any particular results or for 
#any damages, including, but not limited to, indirect, special or consequential damages, 
#resulting from the use of any information or interpretation provided by Halliburton.
#
~A           TIME           GTDEPTH  GTPQH  GTTQ  GTTN  GTET   GTTVD  
# ...
   16:12:44.492.06-Aug-2020 4955.01 4258.59 80.65 2.00 161.03 2633.27
   16:12:44.692.06-Aug-2020 4955.01 4258.59 80.65 2.00 161.23 2633.27
   16:12:44.892.06-Aug-2020 4955.01 4258.57 80.65 2.00 161.43 2633.27
   16:12:45.092.06-Aug-2020 4955.01 4258.37 80.65 2.00 161.63 2633.27
   16:12:45.292.06-Aug-2020 4955.01 4258.44 80.65 2.00 161.83 2633.27
   16:12:45.492.06-Aug-2020 4955.01 4258.48 80.65 2.00 162.03 2633.27
   16:12:45.692.06-Aug-2020 4955.01 4258.48 80.65 2.00 162.23 2633.27
   16:12:45.892.06-Aug-2020 4955.01 4258.55 80.65 2.00 162.43 2633.27
   16:12:46.092.06-Aug-2020 4955.01 4258.54 80.65 2.00 162.63 2633.27
   16:12:46.292.06-Aug-2020 4955.01 4258.56 80.65 2.00 162.83 2633.27
   16:12:46.492.06-Aug-2020 4955.01 4258.59 80.65 2.00 163.03 2633.27
   16:12:46.692.06-Aug-2020 4955.01 4258.59 80.65 2.00 163.23 2633.27
   16:12:46.892.06-Aug-2020 4955.01 4258.60 80.64 2.00 163.43 2633.27
   16:12:47.092.06-Aug-2020 4955.01 4258.59 80.64 2.00 163.63 2633.27
   16:12:47.292.06-Aug-2020 4955.01 4258.60 80.64 2.00 163.84 2633.27
   16:12:47.492.06-Aug-2020 4955.01 4258.56 80.64 2.00 164.04 2633.27
   16:12:47.692.06-Aug-2020 4955.01 4258.56 80.64 2.00 164.24 2633.27
   16:12:47.892.06-Aug-2020 4955.01 4258.36 80.64 2.00 164.44 2633.27
   16:12:48.092.06-Aug-2020 4955.01 4258.45 80.64 2.00 164.64 2633.27
   16:12:48.292.06-Aug-2020 4955.01 4258.54 80.64 2.00 164.84 2633.27
   16:12:48.493.06-Aug-2020 4955.01 4204.21 80.64 2.00 165.04 2633.27
   16:12:48.693.06-Aug-2020 4955.01 4204.21 80.64 2.00 165.24 2633.27
   16:12:48.893.06-Aug-2020 4955.01 3528.78 80.64 2.00 165.44 2633.27
   16:12:49.093.06-Aug-2020 4955.01 3337.10 80.64 2.00 165.64 2633.27
   16:12:49.293.06-Aug-2020 4955.01 3186.26 80.64 2.00 165.84 2633.27
   16:12:49.493.06-Aug-2020 4955.01 3081.83 80.64 2.00 166.04 2633.27
   16:12:49.693.06-Aug-2020 4955.01 3081.83 80.64 2.00 166.24 2633.27
   16:12:49.893.06-Aug-2020 4955.01 2949.11 80.64 2.00 166.44 2633.27
   16:12:50.093.06-Aug-2020 4955.01 2909.80 80.64 2.00 166.64 2633.27
   16:12:50.293.06-Aug-2020 4955.01 2884.17 80.64 2.00 166.84 2633.27
   16:12:50.493.06-Aug-2020 4955.01 2863.93 80.64 2.00 167.04 2633.27
   16:12:50.693.06-Aug-2020 4955.01 2863.93 80.64 2.00 167.24 2633.27
   16:12:50.893.06-Aug-2020 4955.01 2835.84 80.64 2.00 167.44 2633.27
   16:12:51.093.06-Aug-2020 4955.01 2817.42 80.63 2.00 167.64 2633.27
   16:12:51.293.06-Aug-2020 4955.01 2809.57 80.63 2.00 167.84 2633.27
   16:12:51.493.06-Aug-2020 4955.01 2804.12 80.63 2.00 168.04 2633.27
   16:12:51.693.06-Aug-2020 4955.01 2804.12 80.63 2.00 168.24 2633.27
   16:12:51.893.06-Aug-2020 4955.01 2797.24 80.63 2.00 168.44 2633.27
   16:12:52.093.06-Aug-2020 4955.01 2799.03 80.63 2.00 168.64 2633.27
   16:12:52.293.06-Aug-2020 4955.01 2796.79 80.63 2.00 168.84 2633.27
   16:12:52.493.06-Aug-2020 4955.01 2789.63 80.63 2.00 169.04 2633.27
   16:12:52.693.06-Aug-2020 4955.01 2789.63 80.63 2.00 169.24 2633.27
   16:12:52.893.06-Aug-2020 4955.01 2816.70 80.63 2.00 169.44 2633.27
   16:12:53.094.06-Aug-2020 4955.01 2832.56 80.63 2.00 169.64 2633.27
   16:12:53.294.06-Aug-2020 4955.01 2833.02 80.63 2.00 169.84 2633.27
   16:12:53.494.06-Aug-2020 4955.01 2826.13 80.63 2.00 170.04 2633.27
   16:12:53.694.06-Aug-2020 4955.01 2806.62 80.63 2.00 170.24 2633.27
   16:12:53.894.06-Aug-2020 4955.01 2792.62 80.62 2.00 170.44 2633.27
   16:12:54.094.06-Aug-2020 4955.01 2782.70 80.62 2.00 170.64 2633.27
   16:12:54.294.06-Aug-2020 4955.01 2774.56 80.62 2.00 170.84 2633.27
   16:12:54.494.06-Aug-2020 4955.01 2765.11 80.62 2.00 171.04 2633.27
   16:12:54.694.06-Aug-2020 4955.01 2765.11 80.62 2.00 171.24 2633.27
   16:12:54.894.06-Aug-2020 4955.01 2749.01 80.62 2.00 171.44 2633.27
   16:12:55.094.06-Aug-2020 4955.01 2742.89 80.62 2.00 171.64 2633.27
   16:12:55.294.06-Aug-2020 4955.01 2738.33 80.62 2.00 171.84 2633.27
   16:12:55.494.06-Aug-2020 4955.01 2738.27 80.62 2.00 172.04 2633.27
   16:12:55.694.06-Aug-2020 4955.01 2738.27 80.62 2.00 172.24 2633.27
   16:12:55.894.06-Aug-2020 4955.01 2733.85 80.62 2.00 172.44 2633.27
   16:12:56.094.06-Aug-2020 4955.01 2735.28 80.62 2.00 172.64 2633.27
   16:12:56.294.06-Aug-2020 4955.01 2733.37 80.61 2.00 172.84 2633.27
   16:12:56.494.06-Aug-2020 4955.01 2722.71 80.61 2.00 173.04 2633.27
   16:12:56.694.06-Aug-2020 4955.01 2722.71 80.61 2.00 173.24 2633.27
   16:12:56.894.06-Aug-2020 4955.01 2723.28 80.61 2.00 173.44 2633.27
   16:12:57.094.06-Aug-2020 4955.01 2721.85 80.61 2.00 173.64 2633.27
   16:12:57.294.06-Aug-2020 4955.01 2718.54 80.61 2.00 173.84 2633.27
   16:12:57.494.06-Aug-2020 4955.01 2714.74 80.61 2.00 174.04 2633.27
   16:12:57.694.06-Aug-2020 4955.01 2708.70 80.61 2.00 174.24 2633.27
   16:12:57.895.06-Aug-2020 4955.01 2709.43 80.61 2.00 174.44 2633.27
   16:12:58.095.06-Aug-2020 4955.01 2713.40 80.61 2.00 174.64 2633.27
   16:12:58.295.06-Aug-2020 4955.01 2709.40 80.61 2.00 174.84 2633.27
   16:12:58.495.06-Aug-2020 4955.01 2707.61 80.61 2.00 175.04 2633.27
   16:12:58.695.06-Aug-2020 4955.01 2707.61 80.61 2.00 175.24 2633.27
   16:12:58.895.06-Aug-2020 4955.01 3049.69 80.61 2.00 175.44 2633.27
   16:12:59.095.06-Aug-2020 4955.01 3280.98 80.60 2.00 175.64 2633.27
   16:12:59.295.06-Aug-2020 4955.01 3468.09 80.60 2.00 175.84 2633.27
   16:12:59.495.06-Aug-2020 4955.01 3614.14 80.60 2.00 176.04 2633.27
   16:12:59.695.06-Aug-2020 4955.01 3614.14 80.60 2.00 176.24 2633.27
   16:12:59.895.06-Aug-2020 4955.01 3820.66 80.60 2.00 176.44 2633.27
   16:13:00.095.06-Aug-2020 4955.01 3893.47 80.60 2.00 176.64 2633.27
   16:13:00.295.06-Aug-2020 4955.01 3951.78 80.60 2.00 176.84 2633.27
   16:13:00.495.06-Aug-2020 4955.01 3998.65 80.60 2.00 177.04 2633.27
   16:13:00.695.06-Aug-2020 4955.01 4036.59 80.60 2.00 177.24 2633.27
   16:13:00.895.06-Aug-2020 4955.01 4067.43 80.60 2.00 177.44 2633.27
   16:13:01.095.06-Aug-2020 4955.01 4092.68 80.60 2.00 177.64 2633.27
   16:13:01.295.06-Aug-2020 4955.01 4113.39 80.60 2.00 177.84 2633.27
   16:13:01.495.06-Aug-2020 4955.01 4130.60 80.60 2.00 178.04 2633.27
   16:13:01.695.06-Aug-2020 4955.01 4144.86 80.60 2.00 178.24 2633.27
   16:13:01.895.06-Aug-2020 4955.01 4156.80 80.60 2.00 178.44 2633.27
   16:13:02.095.06-Aug-2020 4955.01 4166.80 80.60 2.00 178.64 2633.27
   16:13:02.295.06-Aug-2020 4955.01 4174.69 80.60 2.00 178.84 2633.27
   16:13:02.496.06-Aug-2020 4955.01 4181.65 80.60 2.00 179.04 2633.27
   16:13:02.696.06-Aug-2020 4955.01 4181.65 80.60 2.00 179.24 2633.27
   16:13:02.896.06-Aug-2020 4955.01 4193.85 80.60 2.00 179.44 2633.27
   16:13:03.096.06-Aug-2020 4955.01 4198.51 80.60 2.00 179.64 2633.27
   16:13:03.296.06-Aug-2020 4955.01 4202.52 80.60 2.00 179.84 2633.27
   16:13:03.496.06-Aug-2020 4955.01 4206.24 80.59 2.00 180.04 2633.27
   16:13:03.696.06-Aug-2020 4955.01 4206.24 80.59 2.00 180.24 2633.27
   16:13:03.896.06-Aug-2020 4955.01 4212.11 80.59 2.00 180.44 2633.27
   16:13:04.096.06-Aug-2020 4955.01 4214.50 80.59 2.00 180.64 2633.27
   16:13:04.296.06-Aug-2020 4955.01 4216.71 80.59 2.00 180.84 2633.27
   16:13:04.496.06-Aug-2020 4955.01 4218.72 80.59 2.00 181.04 2633.27
   16:13:04.696.06-Aug-2020 4955.01 4218.72 80.59 2.00 181.24 2633.27
   16:13:04.896.06-Aug-2020 4955.01 4221.64 80.59 2.00 181.44 2633.27
   16:13:05.096.06-Aug-2020 4955.01 4222.77 80.59 2.00 181.64 2633.27
   16:13:05.296.06-Aug-2020 4955.01 4224.31 80.59 2.00 181.84 2633.27
   16:13:05.496.06-Aug-2020 4955.01 4225.74 80.59 2.00 182.04 2633.27
   16:13:05.696.06-Aug-2020 4955.01 4225.74 80.59 2.00 182.24 2633.27
   16:13:05.896.06-Aug-2020 4955.01 4228.09 80.59 2.00 182.44 2633.27
   16:13:06.096.06-Aug-2020 4955.01 4228.99 80.59 2.00 182.64 2633.27
   16:13:06.296.06-Aug-2020 4955.01 4229.98 80.59 2.00 182.84 2633.27
   16:13:06.496.06-Aug-2020 4955.01 4231.01 80.59 2.00 183.04 2633.27
   16:13:06.696.06-Aug-2020 4955.01 4231.01 80.59 2.00 183.24 2633.27
   16:13:06.896.06-Aug-2020 4955.01 4232.73 80.59 2.00 183.44 2633.27
   16:13:07.097.06-Aug-2020 4955.01 4233.27 80.59 2.00 183.64 2633.27
   16:13:07.297.06-Aug-2020 4955.01 4234.02 80.59 2.00 183.84 2633.27
