~Version Information
 VERS.                  2.0:   CWLS log ASCII Standard -VERSION 2.0
 WRAP.                   NO:   One line per depth step
~Well Information Block
#MNEM.UNIT     VALUE/NAME     DESCRIPTION
#---------     -----------    ---------------------------
 STRT.S             15:38:44 07-Aug-20: START TIME 15:38:44 07-Aug-20
 STOP.S             15:46:36 07-Aug-20: STOP TIME  15:46:36 07-Aug-20
 STEP.S                   0.00: STEP TIME
 NULL.                 -999.25: NULL VALUE
 DFWT.                        :  DIST FWL TEXT
 DFST.                        :  DIST FSL TEXT
 DMF .             Drill Floor:  DRILL MEAS FROM
 STIM.      12.00.00 03-Jul-20:  START TIME
 DATE.      00.50.00 09-Aug-20:  END TIME
 SPUD.               03-Jul-20:  SPUD DATE
 NREF.                    Grid:  NORTH REFERENCE
 HPTY.       Minimum Curvature:  HOLE POS TYPE
 DMOD.             Drill Model:  DRILL MOD DESC
 SVYD.                  Survey:  SURVEY DESC
 ILTD.               Lithology:  INTERP LTH DESC
 FTOP.          Formation Tops:  FORM TOPS DESC
 PDAT.          Mean Sea Level:  PERMANENT DATUM
 FLD .                     ACG:  FIELD NAME
 CTRY.              Azerbaijan:  COUNTRY NAME
 WELL.                    E04x:  WELL NAME
 SRVC.          Turan Drilling:  CONTRACTOR
 COMP.     BP Exploration (Caspian Sea) Ltd.:  COMPANY
 SON .        AZ-XX-0906531346:  JOB NUMBER
 WTYP.                Deviated:  WELL TYPE
 MDS .        Operator Entered:  MAG DATA SOURCE
 UWI .                     N/A:  UNIQUE WELL IDENTIFIER
 API .                     N/A:  API NUMBER
 BASE.              Azerbaijan:  LOGGING EQUIPMENT BASE LOCATION
 REGN.                   EESSA:  REGION
 PROV.                    Baku:  PROVINCE
 STAT.                    Baku:  STATE NAME
 MWDS.                    Baku:  MWD SHOP
 JOBN.        AZ-XX-0906531346:  JOB TICKET NUMB
 RIG .                     DWG:  RIG NAME
 DOE .                     N/A:  DOE NUMBER
 DCON.         Sperry Drilling:  DIRECTNL CONTR
 UNIT.                     N/A:  LOGGING EQUIPMENT ID
 CNTY.                        :  COUNTY
 LOC .                        :  LOCATION
 LMF .             Drill Floor:  LOG MEASURED FROM
 TVDS.m                  43.16:  TVDSS CORRECTN
 LATI.deg                40.17:  LATITUDE
 LONG.deg                51.17:  LONGITUDE
 WHNS.m                  -0.12:  WELL HEAD N/S
 WHEW.m                  -5.41:  WELL HEAD E/W
 UTMX.m              514337.95:  UTM X
 UTMY.m             4448627.46:  UTM Y
 DFWL.m                   0.00:  DISTANCE FWL
 DFSL.m                   0.00:  DISTANCE FSL
 SDEP.m                3088.01:  START DEPTH
 TDD .m                5200.01:  TOTAL DEPTH (DRILLER)
 VSDR.deg               244.51:  VERT SEC DIRECT
 GVFD.g                   1.00:  GRAVITY FIELD
 MFLD.nT              50329.80:  MAGNETIC FIELD
 MDIP.deg                59.63:  MAGNETIC DIP
 MDEC.deg                 6.59:  MAGNETIC DECL
 GRDC.deg                 0.09:  GRID CORRECTION
 AZTC.deg                 6.50:  AZM TOTAL CORR
 EPD .m                   0.00:  ELEVATION
 EGL .m                   0.00:  GROUND ELEVATION
 WDMS.m                 176.20:  WD ELEV
 APD .m                  43.16:  DEPTH ABOVE PD
 DEP .m                3084.71:  DEPTH
 AGAP.m                  43.16:  AIR GAP
 VSEW.m                  -5.41:  VERT SEC E/W
 VSNS.m                  -0.12:  VERT SEC N/S
 EKB .m                   0.00:  KB ELEVATION
 EDF .m                  43.16:  DF ELEVATION
 TDL .m                 243.00:  TOTAL DEPTH (LOGGER)
 VSC .                       0:  VS TO CLOSURE
 MAGU.                 1853542:  MAGUTM CHECKSUM
~Parameter Information Block
#MNEM.UNIT       Value        Description
#---------     -----------    ---------------------------
 AV  .mps                 1.91:  Ann Velocity 
 AVMX.mps                 2.52:  Max Ann Veloc 
 AZIF.deg               308.97:  Azm, Final 
 BHAT.        Rotary Steerable:  BHA Type 
 BROT.°/30m               1.00:  Build Rotating 
 BS  .in                  6.50:  Bit Size 
 BSZ .in                  6.50:  Bit Size 
 BTPL.psig              350.00:  Bit Press Loss 
 CABU.                      No:  Customer Abuse 
 CGEO.           Asif Pashayev:  Customer Geo 
 COMM.                     6…:  Run Comments 1 
 TCS .hr                 35.86:  Time Ciculation Ended 
 CV  .mps                 2.31:  Crit Velocity 
 CVMX.mps                 2.31:  Max Crit Veloc 
 DD1 .         Intigam Rahimov:  Direct Drillr 1 
 DDSV.               Geo-Pilot:  DD Service 
 DEFF.%                  92.00:  % Det Eff 
 DLRX.°/30m               1.00:  Dogleg Rot Max 
 DLSO.°/30m               1.00:  Dogleg Oriented 
 DLSX.°/30m               1.42:  Dogleg Str Max 
 DRET.      15.50.00 07-Aug-20:  Drill End Time 
 DRST.      10.40.00 06-Aug-20:  Drill Start Tim 
 DTIM.hr                 21.30:  Time Drilling 
 EDEP.m                5200.01:  End Depth 
 ENG1.            Alan Tuganov:  Engineer 1 
 ENG2.         Almaz Almadatov:  Engineer 2 
 ENG3.     Zammelal Abdullah Sani:  Engineer 3 
 ETIM.      22.42.00 08-Aug-20:  End Time 
 FLOI.gpm               395.00:  Flow In 
 FLON.gpm               350.00:  Flow In Min 
 FLOS.cptm                0.00:  Fluid Loss 
 FLOX.gpm               404.00:  Flow In Max 
 FTRO.       Formation Presure:  FTWD Run Obj 
 HFLO.                      No:  High Flow 
 HPRE.                      No:  High Pressure 
 HTEM.                      No:  High Temp 
 HYDO.m                   1.80:  Hydro Offset 
 IFIN.deg                72.64:  Inc, Final 
 IMAX.deg                73.68:  Inc Max 
 IMIN.deg                72.64:  Inc Min 
 IMND.m                5189.69:  Inc Min Depth 
 IMXD.m                5067.88:  Inc Max Depth 
 JARR.                      No:  Jarring 
 LETM.      15.50.00 07-Aug-20:  Log End Time 
 LOST.hr                     0:  Lost Rig Time 
 LSTM.      10.40.00 06-Aug-20:  Log Start Time 
 MDCL.ppm             36000.00:  Mud Chlorides 
 MDES.     Inversion Oil/Synthetic:  Mud Desc 
 DFD .sg                  1.36:  Mud Density 
 MDMN.sg                  1.36:  Dens Mud Min 
 MDMX.sg                  1.36:  Dens Mud Max 
 MOIL.                      70:  Run Mud Oil % 
 MOWR.                   70:30:  Run Mud OWR 
 MSND.                    0.00:  Run Mud Sand % 
 MSOL.                   17.60:  Run Mud Solids% 
 DFV .spqt               73.00:  Mud Viscosity 
 MWOD.in                  4.75:  MWD Tool OD 
 MWSI.                      No:  Serv Intrp, MWD 
 OTIM.hr                 85.66:  Time Operating 
 PCON.           Look Like New:  Pad Condition 
 PMAX.psia             6250.00:  Press Op, Max 
 PV  .cP                 65.00:  Mud PV 
 RUN .                     900:  Run Number 
 ROPA.m/hr               11.40:  ROP Avg 
 ROPN.m/hr                5.00:  ROP Min 
 ROPX.m/hr               20.00:  ROP Max 
 RPMA.rpm               130.00:  RPM Surface Avg 
 RPMN.rpm                40.00:  RPM Surface Min 
 RPMX.rpm               140.00:  RPM Surface Max 
 RRUN.                    L205:  Rig Run Number 
 RTIM.hr                  1.00:  Time Reaming 
 SAZI.deg               313.52:  Azm, Start 
 SDEP.m                4957.01:  Start Depth 
 SIDD.                      No:  Serv Intrp, DD 
 SINC.deg                73.16:  Inc, Start 
 SPPA.psig             5657.00:  SPP Avg 
 SPPN.psig             2500.00:  SPP Min 
 SPPX.psig             5806.00:  SPP Max 
 STIM.      07.12.00 05-Aug-20:  Start Time 
 SVCS.                 DD, MWD:  Services 
 SVER.                    9.20:  Sperry Version 
 TDAT.m                 243.00:  Tot Depth Attmp 
 TDDF.                      No:  Trip for DD 
 TDLG.m                 243.00:  Tot Depth Loggd 
 TFF .                      No:  Trip for Fail 
 TQAA.f-kp               13.00:  Torque Abs Avg 
 TQAN.f-kp               11.00:  Torque Abs Min 
 TQAX.f-kp               16.00:  Torque Abs Max 
 TRRT.°/30m               1.00:  Turn Rotating 
 MRT .                    HCIM:  Maximum Recorded Temperature 
 TTMX.degC               96.08:  Max Tool Temp 
 VS01.                90515411:  Virtual Str1 SN 
 VS02.                90512716:  Virtual Str2 SN 
 VS03.                90522362:  Virtual Str3 SN 
 VS04.                90619415:  Virtual Str4 SN 
 VS05.                90619414:  Virtual Str5 SN 
 VS06.                90597748:  Virtual Str6 SN 
 WBMN.klb                 2.00:  WOB Min 
 WITN.           Adil Mammadov:  Customer Rep 
 WITN.     Alexander Yadullayev:  Customer Rep 2 
 WOBA.klb                 7.00:  WOB Avg 
 WOBX.klb                23.00:  WOB Max 
 YP  .lhf2               37.00:  Yield Point 
~Curve Information Block
#MNEM.UNIT                 API CODE     Curve Description
#---------               -----------    ---------------------------
 TIME.HHMMSS            00 000 000 000:  GT Time & Date
 GTDEPTH.m              00 000 000 000:  GT Depth
 GTPQH.psia             00 000 000 000:  GT HR Quartz Pressure
 GTTQ.degC              00 000 000 000:  GT Quartz Temperature
 GTTN.NONE              00 000 000 000:  GT Test Number
 GTET.sec               00 000 000 000:  GT Elapsed Test Time
 GTTVD.m                00 000 000 000:  GT True Vertical Depth
#Other Information
#
#WARRANTY: Halliburton will use its best efforts to furnish customers with 
#accurate information and interpretations that are part of, and incident to, the services 
#provided.  However, Halliburton cannot and does not warrant the accuracy 
#or correctness of such information and interpretations.  Under no circumstances should any 
#such information or interpretation be relied upon as the sole basis for any drilling, 
#completion, production, or financial decision or any procedure involving any risk to the 
#safety of any drilling venture, drilling rig or its crew or any other third party.  The 
#Customer has full responsibility for all drilling, completion and production operation.  
#Halliburton makes no representations or warranties, either expressed or 
#implied, including, but not limited to, the implied warranties of merchantability or fitness 
#for a particular purpose, with respect to the services rendered.  In no event will 
#Halliburton be liable for failure to obtain any particular results or for 
#any damages, including, but not limited to, indirect, special or consequential damages, 
#resulting from the use of any information or interpretation provided by Halliburton.
#
~A           TIME           GTDEPTH  GTPQH  GTTQ  GTTN   GTET   GTTVD  
# ...
   15:44:23.914.07-Aug-2020 5157.51 3490.21 88.43 11.00 339.14 2691.72
   15:44:24.114.07-Aug-2020 5157.51 3490.21 88.43 11.00 339.34 2691.72
   15:44:24.314.07-Aug-2020 5157.51 3490.23 88.43 11.00 339.54 2691.72
   15:44:24.514.07-Aug-2020 5157.51 3490.05 88.43 11.00 339.74 2691.72
   15:44:24.714.07-Aug-2020 5157.51 3490.22 88.43 11.00 339.94 2691.72
   15:44:24.914.07-Aug-2020 5157.51 3490.12 88.43 11.00 340.14 2691.72
   15:44:25.114.07-Aug-2020 5157.51 3490.12 88.43 11.00 340.34 2691.72
   15:44:25.314.07-Aug-2020 5157.51 3490.22 88.43 11.00 340.54 2691.72
   15:44:25.514.07-Aug-2020 5157.51 3490.32 88.43 11.00 340.74 2691.72
   15:44:25.714.07-Aug-2020 5157.51 3489.71 88.42 11.00 340.94 2691.72
   15:44:25.914.07-Aug-2020 5157.51 3490.37 88.42 11.00 341.14 2691.72
   15:44:26.114.07-Aug-2020 5157.51 3490.37 88.42 11.00 341.34 2691.72
   15:44:26.315.07-Aug-2020 5157.51 3490.06 88.42 11.00 341.54 2691.72
   15:44:26.515.07-Aug-2020 5157.51 3490.12 88.42 11.00 341.74 2691.72
   15:44:26.715.07-Aug-2020 5157.51 3490.21 88.42 11.00 341.94 2691.72
   15:44:26.915.07-Aug-2020 5157.51 3490.30 88.42 11.00 342.14 2691.72
   15:44:27.115.07-Aug-2020 5157.51 3490.30 88.42 11.00 342.34 2691.72
   15:44:27.315.07-Aug-2020 5157.51 3490.06 88.42 11.00 342.54 2691.72
   15:44:27.515.07-Aug-2020 5157.51 3490.28 88.42 11.00 342.74 2691.72
   15:44:27.715.07-Aug-2020 5157.51 3490.28 88.42 11.00 342.94 2691.72
   15:44:27.915.07-Aug-2020 5157.51 3490.17 88.42 11.00 343.14 2691.72
   15:44:28.115.07-Aug-2020 5157.51 3490.17 88.42 11.00 343.34 2691.72
   15:44:28.315.07-Aug-2020 5157.51 3490.24 88.42 11.00 343.54 2691.72
   15:44:28.515.07-Aug-2020 5157.51 3490.21 88.42 11.00 343.74 2691.72
   15:44:28.716.07-Aug-2020 5157.51 3490.17 88.42 11.00 343.94 2691.72
   15:44:28.916.07-Aug-2020 5157.51 3490.18 88.42 11.00 344.14 2691.72
   15:44:29.116.07-Aug-2020 5157.51 3490.18 88.42 11.00 344.34 2691.72
   15:44:29.316.07-Aug-2020 5157.51 3489.91 88.42 11.00 344.54 2691.72
   15:44:29.516.07-Aug-2020 5157.51 3490.38 88.42 11.00 344.74 2691.72
   15:44:29.716.07-Aug-2020 5157.51 3490.32 88.42 11.00 344.94 2691.72
   15:44:29.916.07-Aug-2020 5157.51 3490.10 88.42 11.00 345.14 2691.72
   15:44:30.116.07-Aug-2020 5157.51 3490.10 88.41 11.00 345.34 2691.72
   15:44:30.316.07-Aug-2020 5157.51 3490.25 88.41 11.00 345.54 2691.72
   15:44:30.516.07-Aug-2020 5157.51 3490.23 88.41 11.00 345.74 2691.72
   15:44:30.716.07-Aug-2020 5157.51 3490.15 88.41 11.00 345.94 2691.72
   15:44:30.916.07-Aug-2020 5157.51 3490.21 88.41 11.00 346.14 2691.72
   15:44:31.117.07-Aug-2020 5157.51 3490.23 88.41 11.00 346.34 2691.72
   15:44:31.317.07-Aug-2020 5157.51 3490.17 88.41 11.00 346.54 2691.72
   15:44:31.517.07-Aug-2020 5157.51 3490.18 88.41 11.00 346.74 2691.72
   15:44:31.717.07-Aug-2020 5157.51 3490.20 88.41 11.00 346.94 2691.72
   15:44:31.917.07-Aug-2020 5157.51 3490.14 88.41 11.00 347.14 2691.72
   15:44:32.117.07-Aug-2020 5157.51 3490.03 88.41 11.00 347.34 2691.72
   15:44:32.317.07-Aug-2020 5157.51 3490.31 88.41 11.00 347.54 2691.72
   15:44:32.517.07-Aug-2020 5157.51 3490.35 88.41 11.00 347.74 2691.72
   15:44:32.717.07-Aug-2020 5157.51 3490.03 88.41 11.00 347.94 2691.72
   15:44:32.917.07-Aug-2020 5157.51 3490.27 88.41 11.00 348.14 2691.72
   15:44:33.117.07-Aug-2020 5157.51 3490.27 88.41 11.00 348.34 2691.72
   15:44:33.317.07-Aug-2020 5157.51 3489.99 88.41 11.00 348.54 2691.72
   15:44:33.518.07-Aug-2020 5157.51 3490.31 88.41 11.00 348.74 2691.72
   15:44:33.718.07-Aug-2020 5157.51 3490.38 88.41 11.00 348.94 2691.72
   15:44:33.918.07-Aug-2020 5157.51 3489.77 88.41 11.00 349.14 2691.72
   15:44:34.118.07-Aug-2020 5157.51 3490.38 88.41 11.00 349.34 2691.72
   15:44:34.318.07-Aug-2020 5157.51 3490.34 88.41 11.00 349.54 2691.72
   15:44:34.518.07-Aug-2020 5157.51 3490.26 88.41 11.00 349.74 2691.72
   15:44:34.718.07-Aug-2020 5157.51 3490.12 88.40 11.00 349.94 2691.72
   15:44:34.918.07-Aug-2020 5157.51 3490.01 88.40 11.00 350.14 2691.72
   15:44:35.118.07-Aug-2020 5157.51 3490.42 88.40 11.00 350.34 2691.72
   15:44:35.318.07-Aug-2020 5157.51 3490.32 88.40 11.00 350.54 2691.72
   15:44:35.518.07-Aug-2020 5157.51 3490.05 88.40 11.00 350.74 2691.72
   15:44:35.718.07-Aug-2020 5157.51 3490.32 88.40 11.00 350.94 2691.72
   15:44:35.919.07-Aug-2020 5157.51 3490.28 88.40 11.00 351.14 2691.72
   15:44:36.119.07-Aug-2020 5157.51 3490.28 88.40 11.00 351.34 2691.72
   15:44:36.319.07-Aug-2020 5157.51 3490.21 88.40 11.00 351.54 2691.72
   15:44:36.519.07-Aug-2020 5157.51 3490.27 88.40 11.00 351.74 2691.72
   15:44:36.719.07-Aug-2020 5157.51 3490.24 88.40 11.00 351.94 2691.72
   15:44:36.919.07-Aug-2020 5157.51 3490.20 88.40 11.00 352.15 2691.72
   15:44:37.119.07-Aug-2020 5157.51 3490.20 88.40 11.00 352.35 2691.72
   15:44:37.319.07-Aug-2020 5157.51 3490.20 88.40 11.00 352.55 2691.72
   15:44:37.519.07-Aug-2020 5157.51 3489.91 88.40 11.00 352.75 2691.72
   15:44:37.719.07-Aug-2020 5157.51 3490.37 88.40 11.00 352.95 2691.72
   15:44:37.919.07-Aug-2020 5157.51 3490.30 88.40 11.00 353.15 2691.72
   15:44:38.119.07-Aug-2020 5157.51 3490.30 88.40 11.00 353.35 2691.72
   15:44:38.320.07-Aug-2020 5157.51 3490.16 88.40 11.00 353.55 2691.72
   15:44:38.520.07-Aug-2020 5157.51 3490.24 88.40 11.00 353.75 2691.72
   15:44:38.720.07-Aug-2020 5157.51 3490.27 88.40 11.00 353.95 2691.72
   15:44:38.920.07-Aug-2020 5157.51 3490.16 88.40 11.00 354.15 2691.72
   15:44:39.120.07-Aug-2020 5157.51 3490.16 88.40 11.00 354.35 2691.72
   15:44:39.320.07-Aug-2020 5157.51 3490.24 88.39 11.00 354.55 2691.72
   15:44:39.520.07-Aug-2020 5157.51 3490.22 88.39 11.00 354.75 2691.72
   15:44:39.720.07-Aug-2020 5157.51 3490.17 88.39 11.00 354.95 2691.72
   15:44:39.920.07-Aug-2020 5157.51 3490.20 88.39 11.00 355.15 2691.72
   15:44:40.120.07-Aug-2020 5157.51 3490.20 88.39 11.00 355.35 2691.72
   15:44:40.320.07-Aug-2020 5157.51 3489.88 88.39 11.00 355.55 2691.72
   15:44:40.520.07-Aug-2020 5157.51 3490.38 88.39 11.00 355.75 2691.72
   15:44:40.720.07-Aug-2020 5157.51 3490.33 88.39 11.00 355.95 2691.72
   15:44:40.921.07-Aug-2020 5157.51 3490.10 88.39 11.00 356.15 2691.72
   15:44:41.121.07-Aug-2020 5157.51 3490.10 88.39 11.00 356.35 2691.72
   15:44:41.321.07-Aug-2020 5157.51 3490.24 88.39 11.00 356.55 2691.72
   15:44:41.521.07-Aug-2020 5157.51 3489.89 88.39 11.00 356.75 2691.72
   15:44:41.721.07-Aug-2020 5157.51 3490.39 88.39 11.00 356.95 2691.72
   15:44:41.921.07-Aug-2020 5157.51 3490.34 88.39 11.00 357.15 2691.72
   15:44:42.121.07-Aug-2020 5157.51 3490.10 88.39 11.00 357.35 2691.72
   15:44:42.321.07-Aug-2020 5157.51 3490.13 88.39 11.00 357.55 2691.72
   15:44:42.521.07-Aug-2020 5157.51 3490.31 88.39 11.00 357.75 2691.72
   15:44:42.721.07-Aug-2020 5157.51 3490.44 88.39 11.00 357.95 2691.72
   15:44:42.921.07-Aug-2020 5157.51 3490.01 88.39 11.00 358.15 2691.72
   15:44:43.121.07-Aug-2020 5157.51 3490.01 88.39 11.00 358.35 2691.72
   15:44:43.322.07-Aug-2020 5157.51 3490.56 88.39 11.00 358.55 2691.72
   15:44:43.522.07-Aug-2020 5157.51 3490.34 88.39 11.00 358.75 2691.72
   15:44:43.722.07-Aug-2020 5157.51 3490.16 88.39 11.00 358.95 2691.72
   15:44:43.922.07-Aug-2020 5157.51 3490.26 88.39 11.00 359.15 2691.72
   15:44:44.122.07-Aug-2020 5157.51 3490.26 88.39 11.00 359.35 2691.72
   15:44:44.322.07-Aug-2020 5157.51 3490.28 88.38 11.00 359.55 2691.72
   15:44:44.522.07-Aug-2020 5157.51 3490.19 88.38 11.00 359.75 2691.72
   15:44:44.722.07-Aug-2020 5157.51 3490.29 88.38 11.00 359.95 2691.72
   15:44:44.922.07-Aug-2020 5157.51 3490.27 88.38 11.00 360.15 2691.72
   15:44:45.122.07-Aug-2020 5157.51 3490.27 88.38 11.00 360.35 2691.72
   15:44:45.322.07-Aug-2020 5157.51 3490.24 88.38 11.00 360.55 2691.72
   15:44:45.522.07-Aug-2020 5157.51 3490.23 88.38 11.00 360.75 2691.72
   15:44:45.723.07-Aug-2020 5157.51 3490.14 88.38 11.00 360.95 2691.72
   15:44:45.923.07-Aug-2020 5157.51 3490.22 88.38 11.00 361.15 2691.72
   15:44:46.123.07-Aug-2020 5157.51 3490.22 88.38 11.00 361.35 2691.72
   15:44:46.323.07-Aug-2020 5157.51 3490.37 88.38 11.00 361.55 2691.72
