~Version Information
 VERS.                  2.0:   CWLS log ASCII Standard -VERSION 2.0
 WRAP.                   NO:   One line per depth step
~Well Information Block
#MNEM.UNIT     VALUE/NAME     DESCRIPTION
#---------     -----------    ---------------------------
 STRT.S             11:55:46 07-Aug-20: START TIME 11:55:46 07-Aug-20
 STOP.S             12:03:39 07-Aug-20: STOP TIME  12:03:39 07-Aug-20
 STEP.S                   0.00: STEP TIME
 NULL.                 -999.25: NULL VALUE
 DFWT.                        :  DIST FWL TEXT
 DFST.                        :  DIST FSL TEXT
 DMF .             Drill Floor:  DRILL MEAS FROM
 STIM.      12.00.00 03-Jul-20:  START TIME
 DATE.      00.50.00 09-Aug-20:  END TIME
 SPUD.               03-Jul-20:  SPUD DATE
 NREF.                    Grid:  NORTH REFERENCE
 HPTY.       Minimum Curvature:  HOLE POS TYPE
 DMOD.             Drill Model:  DRILL MOD DESC
 SVYD.                  Survey:  SURVEY DESC
 ILTD.               Lithology:  INTERP LTH DESC
 FTOP.          Formation Tops:  FORM TOPS DESC
 PDAT.          Mean Sea Level:  PERMANENT DATUM
 FLD .                     ACG:  FIELD NAME
 CTRY.              Azerbaijan:  COUNTRY NAME
 WELL.                    E04x:  WELL NAME
 SRVC.          Turan Drilling:  CONTRACTOR
 COMP.     BP Exploration (Caspian Sea) Ltd.:  COMPANY
 SON .        AZ-XX-0906531346:  JOB NUMBER
 WTYP.                Deviated:  WELL TYPE
 MDS .        Operator Entered:  MAG DATA SOURCE
 UWI .                     N/A:  UNIQUE WELL IDENTIFIER
 API .                     N/A:  API NUMBER
 BASE.              Azerbaijan:  LOGGING EQUIPMENT BASE LOCATION
 REGN.                   EESSA:  REGION
 PROV.                    Baku:  PROVINCE
 STAT.                    Baku:  STATE NAME
 MWDS.                    Baku:  MWD SHOP
 JOBN.        AZ-XX-0906531346:  JOB TICKET NUMB
 RIG .                     DWG:  RIG NAME
 DOE .                     N/A:  DOE NUMBER
 DCON.         Sperry Drilling:  DIRECTNL CONTR
 UNIT.                     N/A:  LOGGING EQUIPMENT ID
 CNTY.                        :  COUNTY
 LOC .                        :  LOCATION
 LMF .             Drill Floor:  LOG MEASURED FROM
 TVDS.m                  43.16:  TVDSS CORRECTN
 LATI.deg                40.17:  LATITUDE
 LONG.deg                51.17:  LONGITUDE
 WHNS.m                  -0.12:  WELL HEAD N/S
 WHEW.m                  -5.41:  WELL HEAD E/W
 UTMX.m              514337.95:  UTM X
 UTMY.m             4448627.46:  UTM Y
 DFWL.m                   0.00:  DISTANCE FWL
 DFSL.m                   0.00:  DISTANCE FSL
 SDEP.m                3088.01:  START DEPTH
 TDD .m                5200.01:  TOTAL DEPTH (DRILLER)
 VSDR.deg               244.51:  VERT SEC DIRECT
 GVFD.g                   1.00:  GRAVITY FIELD
 MFLD.nT              50329.80:  MAGNETIC FIELD
 MDIP.deg                59.63:  MAGNETIC DIP
 MDEC.deg                 6.59:  MAGNETIC DECL
 GRDC.deg                 0.09:  GRID CORRECTION
 AZTC.deg                 6.50:  AZM TOTAL CORR
 EPD .m                   0.00:  ELEVATION
 EGL .m                   0.00:  GROUND ELEVATION
 WDMS.m                 176.20:  WD ELEV
 APD .m                  43.16:  DEPTH ABOVE PD
 DEP .m                3084.71:  DEPTH
 AGAP.m                  43.16:  AIR GAP
 VSEW.m                  -5.41:  VERT SEC E/W
 VSNS.m                  -0.12:  VERT SEC N/S
 EKB .m                   0.00:  KB ELEVATION
 EDF .m                  43.16:  DF ELEVATION
 TDL .m                 243.00:  TOTAL DEPTH (LOGGER)
 VSC .                       0:  VS TO CLOSURE
 MAGU.                 1853542:  MAGUTM CHECKSUM
~Parameter Information Block
#MNEM.UNIT       Value        Description
#---------     -----------    ---------------------------
 AV  .mps                 1.91:  Ann Velocity 
 AVMX.mps                 2.52:  Max Ann Veloc 
 AZIF.deg               308.97:  Azm, Final 
 BHAT.        Rotary Steerable:  BHA Type 
 BROT.°/30m               1.00:  Build Rotating 
 BS  .in                  6.50:  Bit Size 
 BSZ .in                  6.50:  Bit Size 
 BTPL.psig              350.00:  Bit Press Loss 
 CABU.                      No:  Customer Abuse 
 CGEO.           Asif Pashayev:  Customer Geo 
 COMM.                     ¤4N:  Run Comments 1 
 TCS .hr                 35.86:  Time Ciculation Ended 
 CV  .mps                 2.31:  Crit Velocity 
 CVMX.mps                 2.31:  Max Crit Veloc 
 DD1 .         Intigam Rahimov:  Direct Drillr 1 
 DDSV.               Geo-Pilot:  DD Service 
 DEFF.%                  92.00:  % Det Eff 
 DLRX.°/30m               1.00:  Dogleg Rot Max 
 DLSO.°/30m               1.00:  Dogleg Oriented 
 DLSX.°/30m               1.42:  Dogleg Str Max 
 DRET.      15.50.00 07-Aug-20:  Drill End Time 
 DRST.      10.40.00 06-Aug-20:  Drill Start Tim 
 DTIM.hr                 21.30:  Time Drilling 
 EDEP.m                5200.01:  End Depth 
 ENG1.            Alan Tuganov:  Engineer 1 
 ENG2.         Almaz Almadatov:  Engineer 2 
 ENG3.     Zammelal Abdullah Sani:  Engineer 3 
 ETIM.      22.42.00 08-Aug-20:  End Time 
 FLOI.gpm               395.00:  Flow In 
 FLON.gpm               350.00:  Flow In Min 
 FLOS.cptm                0.00:  Fluid Loss 
 FLOX.gpm               404.00:  Flow In Max 
 FTRO.       Formation Presure:  FTWD Run Obj 
 HFLO.                      No:  High Flow 
 HPRE.                      No:  High Pressure 
 HTEM.                      No:  High Temp 
 HYDO.m                   1.80:  Hydro Offset 
 IFIN.deg                72.64:  Inc, Final 
 IMAX.deg                73.68:  Inc Max 
 IMIN.deg                72.64:  Inc Min 
 IMND.m                5189.69:  Inc Min Depth 
 IMXD.m                5067.88:  Inc Max Depth 
 JARR.                      No:  Jarring 
 LETM.      15.50.00 07-Aug-20:  Log End Time 
 LOST.hr                     0:  Lost Rig Time 
 LSTM.      10.40.00 06-Aug-20:  Log Start Time 
 MDCL.ppm             36000.00:  Mud Chlorides 
 MDES.     Inversion Oil/Synthetic:  Mud Desc 
 DFD .sg                  1.36:  Mud Density 
 MDMN.sg                  1.36:  Dens Mud Min 
 MDMX.sg                  1.36:  Dens Mud Max 
 MOIL.                      70:  Run Mud Oil % 
 MOWR.                   70:30:  Run Mud OWR 
 MSND.                    0.00:  Run Mud Sand % 
 MSOL.                   17.60:  Run Mud Solids% 
 DFV .spqt               73.00:  Mud Viscosity 
 MWOD.in                  4.75:  MWD Tool OD 
 MWSI.                      No:  Serv Intrp, MWD 
 OTIM.hr                 85.66:  Time Operating 
 PCON.           Look Like New:  Pad Condition 
 PMAX.psia             6250.00:  Press Op, Max 
 PV  .cP                 65.00:  Mud PV 
 RUN .                     900:  Run Number 
 ROPA.m/hr               11.40:  ROP Avg 
 ROPN.m/hr                5.00:  ROP Min 
 ROPX.m/hr               20.00:  ROP Max 
 RPMA.rpm               130.00:  RPM Surface Avg 
 RPMN.rpm                40.00:  RPM Surface Min 
 RPMX.rpm               140.00:  RPM Surface Max 
 RRUN.                    L205:  Rig Run Number 
 RTIM.hr                  1.00:  Time Reaming 
 SAZI.deg               313.52:  Azm, Start 
 SDEP.m                4957.01:  Start Depth 
 SIDD.                      No:  Serv Intrp, DD 
 SINC.deg                73.16:  Inc, Start 
 SPPA.psig             5657.00:  SPP Avg 
 SPPN.psig             2500.00:  SPP Min 
 SPPX.psig             5806.00:  SPP Max 
 STIM.      07.12.00 05-Aug-20:  Start Time 
 SVCS.                 DD, MWD:  Services 
 SVER.                    9.20:  Sperry Version 
 TDAT.m                 243.00:  Tot Depth Attmp 
 TDDF.                      No:  Trip for DD 
 TDLG.m                 243.00:  Tot Depth Loggd 
 TFF .                      No:  Trip for Fail 
 TQAA.f-kp               13.00:  Torque Abs Avg 
 TQAN.f-kp               11.00:  Torque Abs Min 
 TQAX.f-kp               16.00:  Torque Abs Max 
 TRRT.°/30m               1.00:  Turn Rotating 
 MRT .                    HCIM:  Maximum Recorded Temperature 
 TTMX.degC               96.08:  Max Tool Temp 
 VS01.                90515411:  Virtual Str1 SN 
 VS02.                90512716:  Virtual Str2 SN 
 VS03.                90522362:  Virtual Str3 SN 
 VS04.                90619415:  Virtual Str4 SN 
 VS05.                90619414:  Virtual Str5 SN 
 VS06.                90597748:  Virtual Str6 SN 
 WBMN.klb                 2.00:  WOB Min 
 WITN.           Adil Mammadov:  Customer Rep 
 WITN.     Alexander Yadullayev:  Customer Rep 2 
 WOBA.klb                 7.00:  WOB Avg 
 WOBX.klb                23.00:  WOB Max 
 YP  .lhf2               37.00:  Yield Point 
~Curve Information Block
#MNEM.UNIT                 API CODE     Curve Description
#---------               -----------    ---------------------------
 TIME.HHMMSS            00 000 000 000:  GT Time & Date
 GTDEPTH.m              00 000 000 000:  GT Depth
 GTPQH.psia             00 000 000 000:  GT HR Quartz Pressure
 GTTQ.degC              00 000 000 000:  GT Quartz Temperature
 GTTN.NONE              00 000 000 000:  GT Test Number
 GTET.sec               00 000 000 000:  GT Elapsed Test Time
 GTTVD.m                00 000 000 000:  GT True Vertical Depth
#Other Information
#
#WARRANTY: Halliburton will use its best efforts to furnish customers with 
#accurate information and interpretations that are part of, and incident to, the services 
#provided.  However, Halliburton cannot and does not warrant the accuracy 
#or correctness of such information and interpretations.  Under no circumstances should any 
#such information or interpretation be relied upon as the sole basis for any drilling, 
#completion, production, or financial decision or any procedure involving any risk to the 
#safety of any drilling venture, drilling rig or its crew or any other third party.  The 
#Customer has full responsibility for all drilling, completion and production operation.  
#Halliburton makes no representations or warranties, either expressed or 
#implied, including, but not limited to, the implied warranties of merchantability or fitness 
#for a particular purpose, with respect to the services rendered.  In no event will 
#Halliburton be liable for failure to obtain any particular results or for 
#any damages, including, but not limited to, indirect, special or consequential damages, 
#resulting from the use of any information or interpretation provided by Halliburton.
#
~A           TIME           GTDEPTH  GTPQH  GTTQ  GTTN   GTET   GTTVD  
# ...
   11:58:25.145.07-Aug-2020 5127.01 3414.19 87.68 10.00 158.26 2682.86
   11:58:25.346.07-Aug-2020 5127.01 3414.23 87.68 10.00 158.46 2682.86
   11:58:25.546.07-Aug-2020 5127.01 3414.23 87.68 10.00 158.66 2682.86
   11:58:25.746.07-Aug-2020 5127.01 3414.23 87.68 10.00 158.86 2682.86
   11:58:25.946.07-Aug-2020 5127.01 3414.22 87.68 10.00 159.06 2682.86
   11:58:26.146.07-Aug-2020 5127.01 3414.23 87.68 10.00 159.26 2682.86
   11:58:26.346.07-Aug-2020 5127.01 3414.19 87.68 10.00 159.46 2682.86
   11:58:26.546.07-Aug-2020 5127.01 3414.25 87.68 10.00 159.66 2682.86
   11:58:26.746.07-Aug-2020 5127.01 3414.23 87.68 10.00 159.86 2682.86
   11:58:26.946.07-Aug-2020 5127.01 3414.16 87.68 10.00 160.06 2682.86
   11:58:27.146.07-Aug-2020 5127.01 3414.16 87.68 10.00 160.26 2682.86
   11:58:27.346.07-Aug-2020 5127.01 3414.34 87.68 10.00 160.46 2682.86
   11:58:27.546.07-Aug-2020 5127.01 3414.27 87.68 10.00 160.66 2682.86
   11:58:27.746.07-Aug-2020 5127.01 3414.15 87.68 10.00 160.86 2682.86
   11:58:27.947.07-Aug-2020 5127.01 3414.25 87.68 10.00 161.06 2682.86
   11:58:28.147.07-Aug-2020 5127.01 3414.25 87.68 10.00 161.26 2682.86
   11:58:28.347.07-Aug-2020 5127.01 3414.16 87.68 10.00 161.46 2682.86
   11:58:28.547.07-Aug-2020 5127.01 3414.26 87.68 10.00 161.66 2682.86
   11:58:28.747.07-Aug-2020 5127.01 3414.22 87.68 10.00 161.86 2682.86
   11:58:28.947.07-Aug-2020 5127.01 3414.17 87.68 10.00 162.06 2682.86
   11:58:29.147.07-Aug-2020 5127.01 3414.17 87.68 10.00 162.26 2682.86
   11:58:29.347.07-Aug-2020 5127.01 3414.25 87.67 10.00 162.46 2682.86
   11:58:29.547.07-Aug-2020 5127.01 3414.06 87.67 10.00 162.66 2682.86
   11:58:29.747.07-Aug-2020 5127.01 3414.34 87.67 10.00 162.86 2682.86
   11:58:29.947.07-Aug-2020 5127.01 3414.25 87.67 10.00 163.06 2682.86
   11:58:30.147.07-Aug-2020 5127.01 3414.25 87.67 10.00 163.26 2682.86
   11:58:30.347.07-Aug-2020 5127.01 3414.23 87.67 10.00 163.46 2682.86
   11:58:30.548.07-Aug-2020 5127.01 3414.27 87.67 10.00 163.66 2682.86
   11:58:30.748.07-Aug-2020 5127.01 3395.21 87.67 10.00 163.86 2682.86
   11:58:30.948.07-Aug-2020 5127.01 3387.15 87.67 10.00 164.06 2682.86
   11:58:31.148.07-Aug-2020 5127.01 3387.15 87.67 10.00 164.26 2682.86
   11:58:31.348.07-Aug-2020 5127.01 3388.17 87.67 10.00 164.46 2682.86
   11:58:31.548.07-Aug-2020 5127.01 3387.91 87.67 10.00 164.66 2682.86
   11:58:31.748.07-Aug-2020 5127.01 3387.51 87.67 10.00 164.86 2682.86
   11:58:31.948.07-Aug-2020 5127.01 3387.92 87.67 10.00 165.06 2682.86
   11:58:32.148.07-Aug-2020 5127.01 3387.92 87.67 10.00 165.26 2682.86
   11:58:32.348.07-Aug-2020 5127.01 3386.72 87.67 10.00 165.46 2682.86
   11:58:32.548.07-Aug-2020 5127.01 3388.38 87.67 10.00 165.66 2682.86
   11:58:32.748.07-Aug-2020 5127.01 3388.28 87.67 10.00 165.86 2682.86
   11:58:32.948.07-Aug-2020 5127.01 3387.09 87.67 10.00 166.06 2682.86
   11:58:33.148.07-Aug-2020 5127.01 3387.09 87.67 10.00 166.26 2682.86
   11:58:33.349.07-Aug-2020 5127.01 3387.90 87.67 10.00 166.46 2682.86
   11:58:33.549.07-Aug-2020 5127.01 3387.53 87.67 10.00 166.66 2682.86
   11:58:33.749.07-Aug-2020 5127.01 3387.55 87.67 10.00 166.86 2682.86
   11:58:33.949.07-Aug-2020 5127.01 3387.54 87.66 10.00 167.06 2682.86
   11:58:34.149.07-Aug-2020 5127.01 3387.74 87.66 10.00 167.26 2682.86
   11:58:34.349.07-Aug-2020 5127.01 3387.58 87.66 10.00 167.46 2682.86
   11:58:34.549.07-Aug-2020 5127.01 3387.49 87.66 10.00 167.66 2682.86
   11:58:34.749.07-Aug-2020 5127.01 3387.57 87.66 10.00 167.86 2682.86
   11:58:34.949.07-Aug-2020 5127.01 3386.61 87.66 10.00 168.06 2682.86
   11:58:35.149.07-Aug-2020 5127.01 3386.61 87.66 10.00 168.26 2682.86
   11:58:35.349.07-Aug-2020 5127.01 3388.20 87.66 10.00 168.46 2682.86
   11:58:35.549.07-Aug-2020 5127.01 3387.90 87.66 10.00 168.66 2682.86
   11:58:35.749.07-Aug-2020 5127.01 3386.63 87.66 10.00 168.86 2682.86
   11:58:35.950.07-Aug-2020 5127.01 3388.32 87.66 10.00 169.06 2682.86
   11:58:36.150.07-Aug-2020 5127.01 3388.32 87.66 10.00 169.26 2682.86
   11:58:36.350.07-Aug-2020 5127.01 3387.22 87.66 10.00 169.46 2682.86
   11:58:36.550.07-Aug-2020 5127.01 3387.93 87.66 10.00 169.66 2682.86
   11:58:36.750.07-Aug-2020 5127.01 3387.98 87.66 10.00 169.86 2682.86
   11:58:36.950.07-Aug-2020 5127.01 3386.47 87.66 10.00 170.06 2682.86
   11:58:37.150.07-Aug-2020 5127.01 3386.47 87.66 10.00 170.26 2682.86
   11:58:37.350.07-Aug-2020 5127.01 3388.04 87.66 10.00 170.46 2682.86
   11:58:37.550.07-Aug-2020 5127.01 3387.53 87.66 10.00 170.66 2682.86
   11:58:37.750.07-Aug-2020 5127.01 3388.11 87.66 10.00 170.86 2682.86
   11:58:37.950.07-Aug-2020 5127.01 3387.73 87.66 10.00 171.06 2682.86
   11:58:38.150.07-Aug-2020 5127.01 3387.73 87.66 10.00 171.26 2682.86
   11:58:38.350.07-Aug-2020 5127.01 3387.95 87.65 10.00 171.46 2682.86
   11:58:38.551.07-Aug-2020 5127.01 3388.39 87.65 10.00 171.66 2682.86
   11:58:38.751.07-Aug-2020 5127.01 3387.19 87.65 10.00 171.86 2682.86
   11:58:38.951.07-Aug-2020 5127.01 3388.07 87.65 10.00 172.06 2682.86
   11:58:39.151.07-Aug-2020 5127.01 3388.07 87.65 10.00 172.26 2682.86
   11:58:39.351.07-Aug-2020 5127.01 3387.49 87.65 10.00 172.46 2682.86
   11:58:39.551.07-Aug-2020 5127.01 3387.68 87.65 10.00 172.66 2682.86
   11:58:39.751.07-Aug-2020 5127.01 3387.89 87.65 10.00 172.86 2682.86
   11:58:39.951.07-Aug-2020 5127.01 3387.32 87.65 10.00 173.06 2682.86
   11:58:40.151.07-Aug-2020 5127.01 3387.32 87.65 10.00 173.27 2682.86
   11:58:40.351.07-Aug-2020 5127.01 3387.33 87.65 10.00 173.47 2682.86
   11:58:40.551.07-Aug-2020 5127.01 3388.09 87.65 10.00 173.67 2682.86
   11:58:40.751.07-Aug-2020 5127.01 3389.64 87.65 10.00 173.87 2682.86
   11:58:40.951.07-Aug-2020 5127.01 3412.60 87.65 10.00 174.07 2682.86
   11:58:41.151.07-Aug-2020 5127.01 3412.60 87.65 10.00 174.27 2682.86
   11:58:41.352.07-Aug-2020 5127.01 3414.03 87.65 10.00 174.47 2682.86
   11:58:41.552.07-Aug-2020 5127.01 3414.04 87.65 10.00 174.67 2682.86
   11:58:41.752.07-Aug-2020 5127.01 3414.05 87.65 10.00 174.87 2682.86
   11:58:41.952.07-Aug-2020 5127.01 3414.09 87.65 10.00 175.07 2682.86
   11:58:42.152.07-Aug-2020 5127.01 3414.06 87.65 10.00 175.27 2682.86
   11:58:42.352.07-Aug-2020 5127.01 3414.10 87.65 10.00 175.47 2682.86
   11:58:42.552.07-Aug-2020 5127.01 3414.11 87.65 10.00 175.67 2682.86
   11:58:42.752.07-Aug-2020 5127.01 3414.13 87.65 10.00 175.87 2682.86
   11:58:42.952.07-Aug-2020 5127.01 3414.13 87.64 10.00 176.07 2682.86
   11:58:43.152.07-Aug-2020 5127.01 3414.13 87.64 10.00 176.27 2682.86
   11:58:43.352.07-Aug-2020 5127.01 3414.12 87.64 10.00 176.47 2682.86
   11:58:43.552.07-Aug-2020 5127.01 3414.07 87.64 10.00 176.67 2682.86
   11:58:43.752.07-Aug-2020 5127.01 3414.23 87.64 10.00 176.87 2682.86
   11:58:43.953.07-Aug-2020 5127.01 3414.18 87.64 10.00 177.07 2682.86
   11:58:44.153.07-Aug-2020 5127.01 3414.18 87.64 10.00 177.27 2682.86
   11:58:44.353.07-Aug-2020 5127.01 3414.23 87.64 10.00 177.47 2682.86
   11:58:44.553.07-Aug-2020 5127.01 3414.02 87.64 10.00 177.67 2682.86
   11:58:44.753.07-Aug-2020 5127.01 3414.29 87.64 10.00 177.87 2682.86
   11:58:44.953.07-Aug-2020 5127.01 3414.23 87.64 10.00 178.07 2682.86
   11:58:45.153.07-Aug-2020 5127.01 3414.23 87.64 10.00 178.27 2682.86
   11:58:45.353.07-Aug-2020 5127.01 3414.21 87.64 10.00 178.47 2682.86
   11:58:45.553.07-Aug-2020 5127.01 3414.14 87.64 10.00 178.67 2682.86
   11:58:45.753.07-Aug-2020 5127.01 3414.20 87.64 10.00 178.87 2682.86
   11:58:45.953.07-Aug-2020 5127.01 3414.22 87.64 10.00 179.07 2682.86
   11:58:46.153.07-Aug-2020 5127.01 3414.16 87.64 10.00 179.27 2682.86
   11:58:46.353.07-Aug-2020 5127.01 3414.05 87.64 10.00 179.47 2682.86
   11:58:46.554.07-Aug-2020 5127.01 3414.33 87.64 10.00 179.67 2682.86
   11:58:46.754.07-Aug-2020 5127.01 3414.22 87.64 10.00 179.87 2682.86
   11:58:46.954.07-Aug-2020 5127.01 3414.13 87.64 10.00 180.07 2682.86
   11:58:47.154.07-Aug-2020 5127.01 3414.13 87.64 10.00 180.27 2682.86
   11:58:47.354.07-Aug-2020 5127.01 3414.21 87.64 10.00 180.47 2682.86
   11:58:47.554.07-Aug-2020 5127.01 3414.16 87.63 10.00 180.67 2682.86
