~Version Information
 VERS.                  2.0:   CWLS log ASCII Standard -VERSION 2.0
 WRAP.                   NO:   One line per depth step
~Well Information Block
#MNEM.UNIT     VALUE/NAME     DESCRIPTION
#---------     -----------    ---------------------------
 STRT.S             15:38:44 07-Aug-20: START TIME 15:38:44 07-Aug-20
 STOP.S             15:46:36 07-Aug-20: STOP TIME  15:46:36 07-Aug-20
 STEP.S                   0.00: STEP TIME
 NULL.                 -999.25: NULL VALUE
 DFWT.                        :  DIST FWL TEXT
 DFST.                        :  DIST FSL TEXT
 DMF .             Drill Floor:  DRILL MEAS FROM
 STIM.      12.00.00 03-Jul-20:  START TIME
 DATE.      00.50.00 09-Aug-20:  END TIME
 SPUD.               03-Jul-20:  SPUD DATE
 NREF.                    Grid:  NORTH REFERENCE
 HPTY.       Minimum Curvature:  HOLE POS TYPE
 DMOD.             Drill Model:  DRILL MOD DESC
 SVYD.                  Survey:  SURVEY DESC
 ILTD.               Lithology:  INTERP LTH DESC
 FTOP.          Formation Tops:  FORM TOPS DESC
 PDAT.          Mean Sea Level:  PERMANENT DATUM
 FLD .                     ACG:  FIELD NAME
 CTRY.              Azerbaijan:  COUNTRY NAME
 WELL.                    E04x:  WELL NAME
 SRVC.          Turan Drilling:  CONTRACTOR
 COMP.     BP Exploration (Caspian Sea) Ltd.:  COMPANY
 SON .        AZ-XX-0906531346:  JOB NUMBER
 WTYP.                Deviated:  WELL TYPE
 MDS .        Operator Entered:  MAG DATA SOURCE
 UWI .                     N/A:  UNIQUE WELL IDENTIFIER
 API .                     N/A:  API NUMBER
 BASE.              Azerbaijan:  LOGGING EQUIPMENT BASE LOCATION
 REGN.                   EESSA:  REGION
 PROV.                    Baku:  PROVINCE
 STAT.                    Baku:  STATE NAME
 MWDS.                    Baku:  MWD SHOP
 JOBN.        AZ-XX-0906531346:  JOB TICKET NUMB
 RIG .                     DWG:  RIG NAME
 DOE .                     N/A:  DOE NUMBER
 DCON.         Sperry Drilling:  DIRECTNL CONTR
 UNIT.                     N/A:  LOGGING EQUIPMENT ID
 CNTY.                        :  COUNTY
 LOC .                        :  LOCATION
 LMF .             Drill Floor:  LOG MEASURED FROM
 TVDS.m                  43.16:  TVDSS CORRECTN
 LATI.deg                40.17:  LATITUDE
 LONG.deg                51.17:  LONGITUDE
 WHNS.m                  -0.12:  WELL HEAD N/S
 WHEW.m                  -5.41:  WELL HEAD E/W
 UTMX.m              514337.95:  UTM X
 UTMY.m             4448627.46:  UTM Y
 DFWL.m                   0.00:  DISTANCE FWL
 DFSL.m                   0.00:  DISTANCE FSL
 SDEP.m                3088.01:  START DEPTH
 TDD .m                5200.01:  TOTAL DEPTH (DRILLER)
 VSDR.deg               244.51:  VERT SEC DIRECT
 GVFD.g                   1.00:  GRAVITY FIELD
 MFLD.nT              50329.80:  MAGNETIC FIELD
 MDIP.deg                59.63:  MAGNETIC DIP
 MDEC.deg                 6.59:  MAGNETIC DECL
 GRDC.deg                 0.09:  GRID CORRECTION
 AZTC.deg                 6.50:  AZM TOTAL CORR
 EPD .m                   0.00:  ELEVATION
 EGL .m                   0.00:  GROUND ELEVATION
 WDMS.m                 176.20:  WD ELEV
 APD .m                  43.16:  DEPTH ABOVE PD
 DEP .m                3084.71:  DEPTH
 AGAP.m                  43.16:  AIR GAP
 VSEW.m                  -5.41:  VERT SEC E/W
 VSNS.m                  -0.12:  VERT SEC N/S
 EKB .m                   0.00:  KB ELEVATION
 EDF .m                  43.16:  DF ELEVATION
 TDL .m                 243.00:  TOTAL DEPTH (LOGGER)
 VSC .                       0:  VS TO CLOSURE
 MAGU.                 1853542:  MAGUTM CHECKSUM
~Parameter Information Block
#MNEM.UNIT       Value        Description
#---------     -----------    ---------------------------
 AV  .mps                 1.91:  Ann Velocity 
 AVMX.mps                 2.52:  Max Ann Veloc 
 AZIF.deg               308.97:  Azm, Final 
 BHAT.        Rotary Steerable:  BHA Type 
 BROT.°/30m               1.00:  Build Rotating 
 BS  .in                  6.50:  Bit Size 
 BSZ .in                  6.50:  Bit Size 
 BTPL.psig              350.00:  Bit Press Loss 
 CABU.                      No:  Customer Abuse 
 CGEO.           Asif Pashayev:  Customer Geo 
 COMM.                     6…:  Run Comments 1 
 TCS .hr                 35.86:  Time Ciculation Ended 
 CV  .mps                 2.31:  Crit Velocity 
 CVMX.mps                 2.31:  Max Crit Veloc 
 DD1 .         Intigam Rahimov:  Direct Drillr 1 
 DDSV.               Geo-Pilot:  DD Service 
 DEFF.%                  92.00:  % Det Eff 
 DLRX.°/30m               1.00:  Dogleg Rot Max 
 DLSO.°/30m               1.00:  Dogleg Oriented 
 DLSX.°/30m               1.42:  Dogleg Str Max 
 DRET.      15.50.00 07-Aug-20:  Drill End Time 
 DRST.      10.40.00 06-Aug-20:  Drill Start Tim 
 DTIM.hr                 21.30:  Time Drilling 
 EDEP.m                5200.01:  End Depth 
 ENG1.            Alan Tuganov:  Engineer 1 
 ENG2.         Almaz Almadatov:  Engineer 2 
 ENG3.     Zammelal Abdullah Sani:  Engineer 3 
 ETIM.      22.42.00 08-Aug-20:  End Time 
 FLOI.gpm               395.00:  Flow In 
 FLON.gpm               350.00:  Flow In Min 
 FLOS.cptm                0.00:  Fluid Loss 
 FLOX.gpm               404.00:  Flow In Max 
 FTRO.       Formation Presure:  FTWD Run Obj 
 HFLO.                      No:  High Flow 
 HPRE.                      No:  High Pressure 
 HTEM.                      No:  High Temp 
 HYDO.m                   1.80:  Hydro Offset 
 IFIN.deg                72.64:  Inc, Final 
 IMAX.deg                73.68:  Inc Max 
 IMIN.deg                72.64:  Inc Min 
 IMND.m                5189.69:  Inc Min Depth 
 IMXD.m                5067.88:  Inc Max Depth 
 JARR.                      No:  Jarring 
 LETM.      15.50.00 07-Aug-20:  Log End Time 
 LOST.hr                     0:  Lost Rig Time 
 LSTM.      10.40.00 06-Aug-20:  Log Start Time 
 MDCL.ppm             36000.00:  Mud Chlorides 
 MDES.     Inversion Oil/Synthetic:  Mud Desc 
 DFD .sg                  1.36:  Mud Density 
 MDMN.sg                  1.36:  Dens Mud Min 
 MDMX.sg                  1.36:  Dens Mud Max 
 MOIL.                      70:  Run Mud Oil % 
 MOWR.                   70:30:  Run Mud OWR 
 MSND.                    0.00:  Run Mud Sand % 
 MSOL.                   17.60:  Run Mud Solids% 
 DFV .spqt               73.00:  Mud Viscosity 
 MWOD.in                  4.75:  MWD Tool OD 
 MWSI.                      No:  Serv Intrp, MWD 
 OTIM.hr                 85.66:  Time Operating 
 PCON.           Look Like New:  Pad Condition 
 PMAX.psia             6250.00:  Press Op, Max 
 PV  .cP                 65.00:  Mud PV 
 RUN .                     900:  Run Number 
 ROPA.m/hr               11.40:  ROP Avg 
 ROPN.m/hr                5.00:  ROP Min 
 ROPX.m/hr               20.00:  ROP Max 
 RPMA.rpm               130.00:  RPM Surface Avg 
 RPMN.rpm                40.00:  RPM Surface Min 
 RPMX.rpm               140.00:  RPM Surface Max 
 RRUN.                    L205:  Rig Run Number 
 RTIM.hr                  1.00:  Time Reaming 
 SAZI.deg               313.52:  Azm, Start 
 SDEP.m                4957.01:  Start Depth 
 SIDD.                      No:  Serv Intrp, DD 
 SINC.deg                73.16:  Inc, Start 
 SPPA.psig             5657.00:  SPP Avg 
 SPPN.psig             2500.00:  SPP Min 
 SPPX.psig             5806.00:  SPP Max 
 STIM.      07.12.00 05-Aug-20:  Start Time 
 SVCS.                 DD, MWD:  Services 
 SVER.                    9.20:  Sperry Version 
 TDAT.m                 243.00:  Tot Depth Attmp 
 TDDF.                      No:  Trip for DD 
 TDLG.m                 243.00:  Tot Depth Loggd 
 TFF .                      No:  Trip for Fail 
 TQAA.f-kp               13.00:  Torque Abs Avg 
 TQAN.f-kp               11.00:  Torque Abs Min 
 TQAX.f-kp               16.00:  Torque Abs Max 
 TRRT.°/30m               1.00:  Turn Rotating 
 MRT .                    HCIM:  Maximum Recorded Temperature 
 TTMX.degC               96.08:  Max Tool Temp 
 VS01.                90515411:  Virtual Str1 SN 
 VS02.                90512716:  Virtual Str2 SN 
 VS03.                90522362:  Virtual Str3 SN 
 VS04.                90619415:  Virtual Str4 SN 
 VS05.                90619414:  Virtual Str5 SN 
 VS06.                90597748:  Virtual Str6 SN 
 WBMN.klb                 2.00:  WOB Min 
 WITN.           Adil Mammadov:  Customer Rep 
 WITN.     Alexander Yadullayev:  Customer Rep 2 
 WOBA.klb                 7.00:  WOB Avg 
 WOBX.klb                23.00:  WOB Max 
 YP  .lhf2               37.00:  Yield Point 
~Curve Information Block
#MNEM.UNIT                 API CODE     Curve Description
#---------               -----------    ---------------------------
 TIME.HHMMSS            00 000 000 000:  GT Time & Date
 GTDEPTH.m              00 000 000 000:  GT Depth
 GTPQH.psia             00 000 000 000:  GT HR Quartz Pressure
 GTTQ.degC              00 000 000 000:  GT Quartz Temperature
 GTTN.NONE              00 000 000 000:  GT Test Number
 GTET.sec               00 000 000 000:  GT Elapsed Test Time
 GTTVD.m                00 000 000 000:  GT True Vertical Depth
#Other Information
#
#WARRANTY: Halliburton will use its best efforts to furnish customers with 
#accurate information and interpretations that are part of, and incident to, the services 
#provided.  However, Halliburton cannot and does not warrant the accuracy 
#or correctness of such information and interpretations.  Under no circumstances should any 
#such information or interpretation be relied upon as the sole basis for any drilling, 
#completion, production, or financial decision or any procedure involving any risk to the 
#safety of any drilling venture, drilling rig or its crew or any other third party.  The 
#Customer has full responsibility for all drilling, completion and production operation.  
#Halliburton makes no representations or warranties, either expressed or 
#implied, including, but not limited to, the implied warranties of merchantability or fitness 
#for a particular purpose, with respect to the services rendered.  In no event will 
#Halliburton be liable for failure to obtain any particular results or for 
#any damages, including, but not limited to, indirect, special or consequential damages, 
#resulting from the use of any information or interpretation provided by Halliburton.
#
~A           TIME           GTDEPTH  GTPQH  GTTQ  GTTN   GTET   GTTVD  
# ...
   15:39:52.602.07-Aug-2020 5157.51 3489.68 89.10 11.00  67.83 2691.72
   15:39:52.802.07-Aug-2020 5157.51 3490.24 89.10 11.00  68.03 2691.72
   15:39:53.002.07-Aug-2020 5157.51 3490.24 89.10 11.00  68.23 2691.72
   15:39:53.202.07-Aug-2020 5157.51 3489.95 89.10 11.00  68.43 2691.72
   15:39:53.402.07-Aug-2020 5157.51 3490.04 89.10 11.00  68.63 2691.72
   15:39:53.602.07-Aug-2020 5157.51 3490.12 89.10 11.00  68.83 2691.72
   15:39:53.802.07-Aug-2020 5157.51 3490.11 89.10 11.00  69.03 2691.72
   15:39:54.002.07-Aug-2020 5157.51 3490.15 89.10 11.00  69.23 2691.72
   15:39:54.202.07-Aug-2020 5157.51 3489.92 89.10 11.00  69.43 2691.72
   15:39:54.403.07-Aug-2020 5157.51 3490.18 89.10 11.00  69.63 2691.72
   15:39:54.603.07-Aug-2020 5157.51 3490.12 89.09 11.00  69.83 2691.72
   15:39:54.803.07-Aug-2020 5157.51 3490.08 89.09 11.00  70.03 2691.72
   15:39:55.003.07-Aug-2020 5157.51 3490.13 89.09 11.00  70.23 2691.72
   15:39:55.203.07-Aug-2020 5157.51 3490.15 89.09 11.00  70.43 2691.72
   15:39:55.403.07-Aug-2020 5157.51 3490.13 89.09 11.00  70.63 2691.72
   15:39:55.603.07-Aug-2020 5157.51 3490.12 89.09 11.00  70.83 2691.72
   15:39:55.803.07-Aug-2020 5157.51 3490.12 89.09 11.00  71.03 2691.72
   15:39:56.003.07-Aug-2020 5157.51 3490.14 89.09 11.00  71.23 2691.72
   15:39:56.203.07-Aug-2020 5157.51 3489.88 89.09 11.00  71.43 2691.72
   15:39:56.403.07-Aug-2020 5157.51 3490.24 89.09 11.00  71.63 2691.72
   15:39:56.603.07-Aug-2020 5157.51 3490.20 89.09 11.00  71.83 2691.72
   15:39:56.804.07-Aug-2020 5157.51 3489.96 89.09 11.00  72.03 2691.72
   15:39:57.004.07-Aug-2020 5157.51 3489.96 89.09 11.00  72.23 2691.72
   15:39:57.204.07-Aug-2020 5157.51 3490.14 89.09 11.00  72.43 2691.72
   15:39:57.404.07-Aug-2020 5157.51 3490.16 89.09 11.00  72.63 2691.72
   15:39:57.604.07-Aug-2020 5157.51 3490.05 89.09 11.00  72.83 2691.72
   15:39:57.804.07-Aug-2020 5157.51 3490.19 89.08 11.00  73.03 2691.72
   15:39:58.004.07-Aug-2020 5157.51 3490.19 89.08 11.00  73.23 2691.72
   15:39:58.204.07-Aug-2020 5157.51 3490.16 89.08 11.00  73.43 2691.72
   15:39:58.404.07-Aug-2020 5157.51 3490.11 89.08 11.00  73.63 2691.72
   15:39:58.604.07-Aug-2020 5157.51 3490.16 89.08 11.00  73.83 2691.72
   15:39:58.804.07-Aug-2020 5157.51 3490.07 89.08 11.00  74.03 2691.72
   15:39:59.004.07-Aug-2020 5157.51 3490.07 89.08 11.00  74.23 2691.72
   15:39:59.205.07-Aug-2020 5157.51 3490.15 89.08 11.00  74.43 2691.72
   15:39:59.405.07-Aug-2020 5157.51 3490.26 89.08 11.00  74.63 2691.72
   15:39:59.605.07-Aug-2020 5157.51 3489.93 89.08 11.00  74.83 2691.72
   15:39:59.805.07-Aug-2020 5157.51 3490.17 89.08 11.00  75.03 2691.72
   15:40:00.005.07-Aug-2020 5157.51 3490.17 89.08 11.00  75.23 2691.72
   15:40:00.205.07-Aug-2020 5157.51 3489.93 89.08 11.00  75.43 2691.72
   15:40:00.405.07-Aug-2020 5157.51 3490.18 89.08 11.00  75.63 2691.72
   15:40:00.605.07-Aug-2020 5157.51 3490.29 89.08 11.00  75.83 2691.72
   15:40:00.805.07-Aug-2020 5157.51 3489.67 89.08 11.00  76.03 2691.72
   15:40:01.005.07-Aug-2020 5157.51 3489.67 89.08 11.00  76.23 2691.72
   15:40:01.205.07-Aug-2020 5157.51 3490.24 89.07 11.00  76.43 2691.72
   15:40:01.405.07-Aug-2020 5157.51 3490.12 89.07 11.00  76.63 2691.72
   15:40:01.606.07-Aug-2020 5157.51 3490.09 89.07 11.00  76.83 2691.72
   15:40:01.806.07-Aug-2020 5157.51 3489.97 89.07 11.00  77.03 2691.72
   15:40:02.006.07-Aug-2020 5157.51 3490.30 89.07 11.00  77.23 2691.72
   15:40:02.206.07-Aug-2020 5157.51 3490.20 89.07 11.00  77.43 2691.72
   15:40:02.406.07-Aug-2020 5157.51 3490.00 89.07 11.00  77.63 2691.72
   15:40:02.606.07-Aug-2020 5157.51 3490.21 89.07 11.00  77.83 2691.72
   15:40:02.806.07-Aug-2020 5157.51 3490.23 89.07 11.00  78.03 2691.72
   15:40:03.006.07-Aug-2020 5157.51 3490.23 89.07 11.00  78.23 2691.72
   15:40:03.206.07-Aug-2020 5157.51 3490.18 89.07 11.00  78.43 2691.72
   15:40:03.406.07-Aug-2020 5157.51 3490.16 89.07 11.00  78.63 2691.72
   15:40:03.606.07-Aug-2020 5157.51 3490.22 89.07 11.00  78.83 2691.72
   15:40:03.806.07-Aug-2020 5157.51 3490.14 89.07 11.00  79.03 2691.72
   15:40:04.007.07-Aug-2020 5157.51 3490.14 89.07 11.00  79.23 2691.72
   15:40:04.207.07-Aug-2020 5157.51 3490.15 89.07 11.00  79.43 2691.72
   15:40:04.407.07-Aug-2020 5157.51 3489.89 89.06 11.00  79.63 2691.72
   15:40:04.607.07-Aug-2020 5157.51 3490.27 89.06 11.00  79.83 2691.72
   15:40:04.807.07-Aug-2020 5157.51 3490.24 89.06 11.00  80.03 2691.72
   15:40:05.007.07-Aug-2020 5157.51 3490.24 89.06 11.00  80.23 2691.72
   15:40:05.207.07-Aug-2020 5157.51 3490.14 89.06 11.00  80.43 2691.72
   15:40:05.407.07-Aug-2020 5157.51 3490.19 89.06 11.00  80.63 2691.72
   15:40:05.607.07-Aug-2020 5157.51 3490.21 89.06 11.00  80.83 2691.72
   15:40:05.807.07-Aug-2020 5157.51 3490.11 89.06 11.00  81.03 2691.72
   15:40:06.007.07-Aug-2020 5157.51 3490.17 89.06 11.00  81.23 2691.72
   15:40:06.207.07-Aug-2020 5157.51 3490.23 89.06 11.00  81.43 2691.72
   15:40:06.407.07-Aug-2020 5157.51 3490.14 89.06 11.00  81.63 2691.72
   15:40:06.608.07-Aug-2020 5157.51 3490.17 89.06 11.00  81.83 2691.72
   15:40:06.808.07-Aug-2020 5157.51 3490.16 89.06 11.00  82.03 2691.72
   15:40:07.008.07-Aug-2020 5157.51 3490.16 89.06 11.00  82.23 2691.72
   15:40:07.208.07-Aug-2020 5157.51 3489.89 89.06 11.00  82.43 2691.72
   15:40:07.408.07-Aug-2020 5157.51 3490.31 89.06 11.00  82.63 2691.72
   15:40:07.608.07-Aug-2020 5157.51 3490.22 89.06 11.00  82.83 2691.72
   15:40:07.808.07-Aug-2020 5157.51 3490.03 89.05 11.00  83.03 2691.72
   15:40:08.008.07-Aug-2020 5157.51 3490.03 89.05 11.00  83.23 2691.72
   15:40:08.208.07-Aug-2020 5157.51 3490.21 89.05 11.00  83.43 2691.72
   15:40:08.408.07-Aug-2020 5157.51 3489.88 89.05 11.00  83.63 2691.72
   15:40:08.608.07-Aug-2020 5157.51 3490.33 89.05 11.00  83.83 2691.72
   15:40:08.808.07-Aug-2020 5157.51 3490.24 89.05 11.00  84.03 2691.72
   15:40:09.009.07-Aug-2020 5157.51 3490.24 89.05 11.00  84.23 2691.72
   15:40:09.209.07-Aug-2020 5157.51 3490.09 89.05 11.00  84.43 2691.72
   15:40:09.409.07-Aug-2020 5157.51 3490.21 89.05 11.00  84.63 2691.72
   15:40:09.609.07-Aug-2020 5157.51 3490.31 89.05 11.00  84.83 2691.72
   15:40:09.809.07-Aug-2020 5157.51 3489.97 89.05 11.00  85.04 2691.72
   15:40:10.009.07-Aug-2020 5157.51 3489.92 89.05 11.00  85.24 2691.72
   15:40:10.209.07-Aug-2020 5157.51 3490.44 89.05 11.00  85.44 2691.72
   15:40:10.409.07-Aug-2020 5157.51 3490.25 89.05 11.00  85.64 2691.72
   15:40:10.609.07-Aug-2020 5157.51 3490.05 89.05 11.00  85.84 2691.72
   15:40:10.809.07-Aug-2020 5157.51 3490.21 89.05 11.00  86.04 2691.72
   15:40:11.009.07-Aug-2020 5157.51 3490.21 89.05 11.00  86.24 2691.72
   15:40:11.209.07-Aug-2020 5157.51 3490.24 89.04 11.00  86.44 2691.72
   15:40:11.410.07-Aug-2020 5157.51 3490.12 89.04 11.00  86.64 2691.72
   15:40:11.610.07-Aug-2020 5157.51 3490.25 89.04 11.00  86.84 2691.72
   15:40:11.810.07-Aug-2020 5157.51 3490.21 89.04 11.00  87.04 2691.72
   15:40:12.010.07-Aug-2020 5157.51 3490.21 89.04 11.00  87.24 2691.72
   15:40:12.210.07-Aug-2020 5157.51 3490.18 89.04 11.00  87.44 2691.72
   15:40:12.410.07-Aug-2020 5157.51 3490.24 89.04 11.00  87.64 2691.72
   15:40:12.610.07-Aug-2020 5157.51 3490.13 89.04 11.00  87.84 2691.72
   15:40:12.810.07-Aug-2020 5157.51 3490.10 89.04 11.00  88.04 2691.72
   15:40:13.010.07-Aug-2020 5157.51 3490.10 89.04 11.00  88.24 2691.72
   15:40:13.210.07-Aug-2020 5157.51 3490.29 89.04 11.00  88.44 2691.72
   15:40:13.410.07-Aug-2020 5157.51 3490.01 89.04 11.00  88.64 2691.72
   15:40:13.610.07-Aug-2020 5157.51 3490.28 89.04 11.00  88.84 2691.72
   15:40:13.811.07-Aug-2020 5157.51 3490.23 89.04 11.00  89.04 2691.72
   15:40:14.011.07-Aug-2020 5157.51 3490.16 89.04 11.00  89.24 2691.72
   15:40:14.211.07-Aug-2020 5157.51 3490.19 89.04 11.00  89.44 2691.72
   15:40:14.411.07-Aug-2020 5157.51 3490.22 89.04 11.00  89.64 2691.72
   15:40:14.611.07-Aug-2020 5157.51 3490.21 89.03 11.00  89.84 2691.72
   15:40:14.811.07-Aug-2020 5157.51 3490.18 89.03 11.00  90.04 2691.72
   15:40:15.011.07-Aug-2020 5157.51 3490.18 89.03 11.00  90.24 2691.72
