~Version Information
 VERS.                  2.0:   CWLS log ASCII Standard -VERSION 2.0
 WRAP.                   NO:   One line per depth step
~Well Information Block
#MNEM.UNIT     VALUE/NAME     DESCRIPTION
#---------     -----------    ---------------------------
 STRT.S             06:40:56 07-Aug-20: START TIME 06:40:56 07-Aug-20
 STOP.S             06:48:48 07-Aug-20: STOP TIME  06:48:48 07-Aug-20
 STEP.S                   0.00: STEP TIME
 NULL.                 -999.25: NULL VALUE
 DFWT.                        :  DIST FWL TEXT
 DFST.                        :  DIST FSL TEXT
 DMF .             Drill Floor:  DRILL MEAS FROM
 STIM.      12.00.00 03-Jul-20:  START TIME
 DATE.      00.50.00 09-Aug-20:  END TIME
 SPUD.               03-Jul-20:  SPUD DATE
 NREF.                    Grid:  NORTH REFERENCE
 HPTY.       Minimum Curvature:  HOLE POS TYPE
 DMOD.             Drill Model:  DRILL MOD DESC
 SVYD.                  Survey:  SURVEY DESC
 ILTD.               Lithology:  INTERP LTH DESC
 FTOP.          Formation Tops:  FORM TOPS DESC
 PDAT.          Mean Sea Level:  PERMANENT DATUM
 FLD .                     ACG:  FIELD NAME
 CTRY.              Azerbaijan:  COUNTRY NAME
 WELL.                    E04x:  WELL NAME
 SRVC.          Turan Drilling:  CONTRACTOR
 COMP.     BP Exploration (Caspian Sea) Ltd.:  COMPANY
 SON .        AZ-XX-0906531346:  JOB NUMBER
 WTYP.                Deviated:  WELL TYPE
 MDS .        Operator Entered:  MAG DATA SOURCE
 UWI .                     N/A:  UNIQUE WELL IDENTIFIER
 API .                     N/A:  API NUMBER
 BASE.              Azerbaijan:  LOGGING EQUIPMENT BASE LOCATION
 REGN.                   EESSA:  REGION
 PROV.                    Baku:  PROVINCE
 STAT.                    Baku:  STATE NAME
 MWDS.                    Baku:  MWD SHOP
 JOBN.        AZ-XX-0906531346:  JOB TICKET NUMB
 RIG .                     DWG:  RIG NAME
 DOE .                     N/A:  DOE NUMBER
 DCON.         Sperry Drilling:  DIRECTNL CONTR
 UNIT.                     N/A:  LOGGING EQUIPMENT ID
 CNTY.                        :  COUNTY
 LOC .                        :  LOCATION
 LMF .             Drill Floor:  LOG MEASURED FROM
 TVDS.m                  43.16:  TVDSS CORRECTN
 LATI.deg                40.17:  LATITUDE
 LONG.deg                51.17:  LONGITUDE
 WHNS.m                  -0.12:  WELL HEAD N/S
 WHEW.m                  -5.41:  WELL HEAD E/W
 UTMX.m              514337.95:  UTM X
 UTMY.m             4448627.46:  UTM Y
 DFWL.m                   0.00:  DISTANCE FWL
 DFSL.m                   0.00:  DISTANCE FSL
 SDEP.m                3088.01:  START DEPTH
 TDD .m                5200.01:  TOTAL DEPTH (DRILLER)
 VSDR.deg               244.51:  VERT SEC DIRECT
 GVFD.g                   1.00:  GRAVITY FIELD
 MFLD.nT              50329.80:  MAGNETIC FIELD
 MDIP.deg                59.63:  MAGNETIC DIP
 MDEC.deg                 6.59:  MAGNETIC DECL
 GRDC.deg                 0.09:  GRID CORRECTION
 AZTC.deg                 6.50:  AZM TOTAL CORR
 EPD .m                   0.00:  ELEVATION
 EGL .m                   0.00:  GROUND ELEVATION
 WDMS.m                 176.20:  WD ELEV
 APD .m                  43.16:  DEPTH ABOVE PD
 DEP .m                3084.71:  DEPTH
 AGAP.m                  43.16:  AIR GAP
 VSEW.m                  -5.41:  VERT SEC E/W
 VSNS.m                  -0.12:  VERT SEC N/S
 EKB .m                   0.00:  KB ELEVATION
 EDF .m                  43.16:  DF ELEVATION
 TDL .m                 243.00:  TOTAL DEPTH (LOGGER)
 VSC .                       0:  VS TO CLOSURE
 MAGU.                 1853542:  MAGUTM CHECKSUM
~Parameter Information Block
#MNEM.UNIT       Value        Description
#---------     -----------    ---------------------------
 AV  .mps                 1.91:  Ann Velocity 
 AVMX.mps                 2.52:  Max Ann Veloc 
 AZIF.deg               308.97:  Azm, Final 
 BHAT.        Rotary Steerable:  BHA Type 
 BROT.°/30m               1.00:  Build Rotating 
 BS  .in                  6.50:  Bit Size 
 BSZ .in                  6.50:  Bit Size 
 BTPL.psig              350.00:  Bit Press Loss 
 CABU.                      No:  Customer Abuse 
 CGEO.           Asif Pashayev:  Customer Geo 
 TCS .hr                 35.86:  Time Ciculation Ended 
 CV  .mps                 2.31:  Crit Velocity 
 CVMX.mps                 2.31:  Max Crit Veloc 
 DD1 .         Intigam Rahimov:  Direct Drillr 1 
 DDSV.               Geo-Pilot:  DD Service 
 DEFF.%                  92.00:  % Det Eff 
 DLRX.°/30m               1.00:  Dogleg Rot Max 
 DLSO.°/30m               1.00:  Dogleg Oriented 
 DLSX.°/30m               1.42:  Dogleg Str Max 
 DRET.      15.50.00 07-Aug-20:  Drill End Time 
 DRST.      10.40.00 06-Aug-20:  Drill Start Tim 
 DTIM.hr                 21.30:  Time Drilling 
 EDEP.m                5200.01:  End Depth 
 ENG1.            Alan Tuganov:  Engineer 1 
 ENG2.         Almaz Almadatov:  Engineer 2 
 ENG3.     Zammelal Abdullah Sani:  Engineer 3 
 ETIM.      22.42.00 08-Aug-20:  End Time 
 FLOI.gpm               395.00:  Flow In 
 FLON.gpm               350.00:  Flow In Min 
 FLOS.cptm                0.00:  Fluid Loss 
 FLOX.gpm               404.00:  Flow In Max 
 FTRO.       Formation Presure:  FTWD Run Obj 
 HFLO.                      No:  High Flow 
 HPRE.                      No:  High Pressure 
 HTEM.                      No:  High Temp 
 HYDO.m                   1.80:  Hydro Offset 
 IFIN.deg                72.64:  Inc, Final 
 IMAX.deg                73.68:  Inc Max 
 IMIN.deg                72.64:  Inc Min 
 IMND.m                5189.69:  Inc Min Depth 
 IMXD.m                5067.88:  Inc Max Depth 
 JARR.                      No:  Jarring 
 LETM.      15.50.00 07-Aug-20:  Log End Time 
 LOST.hr                     0:  Lost Rig Time 
 LSTM.      10.40.00 06-Aug-20:  Log Start Time 
 MDCL.ppm             36000.00:  Mud Chlorides 
 MDES.     Inversion Oil/Synthetic:  Mud Desc 
 DFD .sg                  1.36:  Mud Density 
 MDMN.sg                  1.36:  Dens Mud Min 
 MDMX.sg                  1.36:  Dens Mud Max 
 MOIL.                      70:  Run Mud Oil % 
 MOWR.                   70:30:  Run Mud OWR 
 MSND.                    0.00:  Run Mud Sand % 
 MSOL.                   17.60:  Run Mud Solids% 
 DFV .spqt               73.00:  Mud Viscosity 
 MWOD.in                  4.75:  MWD Tool OD 
 MWSI.                      No:  Serv Intrp, MWD 
 OTIM.hr                 85.66:  Time Operating 
 PCON.           Look Like New:  Pad Condition 
 PMAX.psia             6250.00:  Press Op, Max 
 PV  .cP                 65.00:  Mud PV 
 RUN .                     900:  Run Number 
 ROPA.m/hr               11.40:  ROP Avg 
 ROPN.m/hr                5.00:  ROP Min 
 ROPX.m/hr               20.00:  ROP Max 
 RPMA.rpm               130.00:  RPM Surface Avg 
 RPMN.rpm                40.00:  RPM Surface Min 
 RPMX.rpm               140.00:  RPM Surface Max 
 RRUN.                    L205:  Rig Run Number 
 RTIM.hr                  1.00:  Time Reaming 
 SAZI.deg               313.52:  Azm, Start 
 SDEP.m                4957.01:  Start Depth 
 SIDD.                      No:  Serv Intrp, DD 
 SINC.deg                73.16:  Inc, Start 
 SPPA.psig             5657.00:  SPP Avg 
 SPPN.psig             2500.00:  SPP Min 
 SPPX.psig             5806.00:  SPP Max 
 STIM.      07.12.00 05-Aug-20:  Start Time 
 SVCS.                 DD, MWD:  Services 
 SVER.                    9.20:  Sperry Version 
 TDAT.m                 243.00:  Tot Depth Attmp 
 TDDF.                      No:  Trip for DD 
 TDLG.m                 243.00:  Tot Depth Loggd 
 TFF .                      No:  Trip for Fail 
 TQAA.f-kp               13.00:  Torque Abs Avg 
 TQAN.f-kp               11.00:  Torque Abs Min 
 TQAX.f-kp               16.00:  Torque Abs Max 
 TRRT.°/30m               1.00:  Turn Rotating 
 MRT .                    HCIM:  Maximum Recorded Temperature 
 TTMX.degC               96.08:  Max Tool Temp 
 VS01.                90515411:  Virtual Str1 SN 
 VS02.                90512716:  Virtual Str2 SN 
 VS03.                90522362:  Virtual Str3 SN 
 VS04.                90619415:  Virtual Str4 SN 
 VS05.                90619414:  Virtual Str5 SN 
 VS06.                90597748:  Virtual Str6 SN 
 WBMN.klb                 2.00:  WOB Min 
 WITN.           Adil Mammadov:  Customer Rep 
 WITN.     Alexander Yadullayev:  Customer Rep 2 
 WOBA.klb                 7.00:  WOB Avg 
 WOBX.klb                23.00:  WOB Max 
 YP  .lhf2               37.00:  Yield Point 
~Curve Information Block
#MNEM.UNIT                 API CODE     Curve Description
#---------               -----------    ---------------------------
 TIME.HHMMSS            00 000 000 000:  GT Time & Date
 GTDEPTH.m              00 000 000 000:  GT Depth
 GTPQH.psia             00 000 000 000:  GT HR Quartz Pressure
 GTTQ.degC              00 000 000 000:  GT Quartz Temperature
 GTTN.NONE              00 000 000 000:  GT Test Number
 GTET.sec               00 000 000 000:  GT Elapsed Test Time
 GTTVD.m                00 000 000 000:  GT True Vertical Depth
#Other Information
#
#WARRANTY: Halliburton will use its best efforts to furnish customers with 
#accurate information and interpretations that are part of, and incident to, the services 
#provided.  However, Halliburton cannot and does not warrant the accuracy 
#or correctness of such information and interpretations.  Under no circumstances should any 
#such information or interpretation be relied upon as the sole basis for any drilling, 
#completion, production, or financial decision or any procedure involving any risk to the 
#safety of any drilling venture, drilling rig or its crew or any other third party.  The 
#Customer has full responsibility for all drilling, completion and production operation.  
#Halliburton makes no representations or warranties, either expressed or 
#implied, including, but not limited to, the implied warranties of merchantability or fitness 
#for a particular purpose, with respect to the services rendered.  In no event will 
#Halliburton be liable for failure to obtain any particular results or for 
#any damages, including, but not limited to, indirect, special or consequential damages, 
#resulting from the use of any information or interpretation provided by Halliburton.
#
~A           TIME           GTDEPTH  GTPQH  GTTQ  GTTN  GTET   GTTVD  
# ...
   06:45:10.012.07-Aug-2020 5088.01 3691.04 88.42 8.00 253.07 2671.45
   06:45:10.213.07-Aug-2020 5088.01 3691.04 88.42 8.00 253.27 2671.45
   06:45:10.413.07-Aug-2020 5088.01 3691.04 88.42 8.00 253.47 2671.45
   06:45:10.613.07-Aug-2020 5088.01 3691.02 88.42 8.00 253.67 2671.45
   06:45:10.813.07-Aug-2020 5088.01 3691.05 88.42 8.00 253.87 2671.45
   06:45:11.013.07-Aug-2020 5088.01 3691.02 88.42 8.00 254.07 2671.45
   06:45:11.213.07-Aug-2020 5088.01 3691.02 88.42 8.00 254.27 2671.45
   06:45:11.413.07-Aug-2020 5088.01 3691.02 88.42 8.00 254.47 2671.45
   06:45:11.613.07-Aug-2020 5088.01 3690.99 88.42 8.00 254.67 2671.45
   06:45:11.813.07-Aug-2020 5088.01 3691.02 88.42 8.00 254.87 2671.45
   06:45:12.013.07-Aug-2020 5088.01 3691.07 88.41 8.00 255.07 2671.45
   06:45:12.213.07-Aug-2020 5088.01 3691.07 88.41 8.00 255.27 2671.45
   06:45:12.413.07-Aug-2020 5088.01 3691.07 88.41 8.00 255.47 2671.45
   06:45:12.613.07-Aug-2020 5088.01 3690.97 88.41 8.00 255.67 2671.45
   06:45:12.813.07-Aug-2020 5088.01 3691.07 88.41 8.00 255.87 2671.45
   06:45:13.013.07-Aug-2020 5088.01 3691.04 88.41 8.00 256.07 2671.45
   06:45:13.213.07-Aug-2020 5088.01 3691.00 88.41 8.00 256.27 2671.45
   06:45:13.413.07-Aug-2020 5088.01 3691.07 88.41 8.00 256.47 2671.45
   06:45:13.614.07-Aug-2020 5088.01 3691.06 88.41 8.00 256.67 2671.45
   06:45:13.814.07-Aug-2020 5088.01 3690.97 88.41 8.00 256.87 2671.45
   06:45:14.014.07-Aug-2020 5088.01 3691.07 88.41 8.00 257.07 2671.45
   06:45:14.214.07-Aug-2020 5088.01 3691.07 88.41 8.00 257.27 2671.45
   06:45:14.414.07-Aug-2020 5088.01 3691.07 88.41 8.00 257.47 2671.45
   06:45:14.614.07-Aug-2020 5088.01 3690.98 88.41 8.00 257.67 2671.45
   06:45:14.814.07-Aug-2020 5088.01 3691.05 88.41 8.00 257.87 2671.45
   06:45:15.014.07-Aug-2020 5088.01 3691.08 88.41 8.00 258.07 2671.45
   06:45:15.214.07-Aug-2020 5088.01 3691.08 88.41 8.00 258.28 2671.45
   06:45:15.414.07-Aug-2020 5088.01 3691.06 88.41 8.00 258.48 2671.45
   06:45:15.614.07-Aug-2020 5088.01 3691.04 88.41 8.00 258.68 2671.45
   06:45:15.814.07-Aug-2020 5088.01 3691.04 88.40 8.00 258.88 2671.45
   06:45:16.014.07-Aug-2020 5088.01 3691.03 88.40 8.00 259.08 2671.45
   06:45:16.214.07-Aug-2020 5088.01 3691.03 88.40 8.00 259.28 2671.45
   06:45:16.414.07-Aug-2020 5088.01 3691.02 88.40 8.00 259.48 2671.45
   06:45:16.614.07-Aug-2020 5088.01 3691.03 88.40 8.00 259.68 2671.45
   06:45:16.814.07-Aug-2020 5088.01 3691.01 88.40 8.00 259.88 2671.45
   06:45:17.015.07-Aug-2020 5088.01 3691.05 88.40 8.00 260.08 2671.45
   06:45:17.215.07-Aug-2020 5088.01 3691.05 88.40 8.00 260.28 2671.45
   06:45:17.415.07-Aug-2020 5088.01 3690.88 88.40 8.00 260.48 2671.45
   06:45:17.615.07-Aug-2020 5088.01 3691.12 88.40 8.00 260.68 2671.45
   06:45:17.815.07-Aug-2020 5088.01 3691.05 88.40 8.00 260.88 2671.45
   06:45:18.015.07-Aug-2020 5088.01 3691.02 88.40 8.00 261.08 2671.45
   06:45:18.215.07-Aug-2020 5088.01 3691.04 88.40 8.00 261.28 2671.45
   06:45:18.415.07-Aug-2020 5088.01 3691.03 88.40 8.00 261.48 2671.45
   06:45:18.615.07-Aug-2020 5088.01 3691.03 88.40 8.00 261.68 2671.45
   06:45:18.815.07-Aug-2020 5088.01 3691.02 88.40 8.00 261.88 2671.45
   06:45:19.015.07-Aug-2020 5088.01 3691.02 88.40 8.00 262.08 2671.45
   06:45:19.215.07-Aug-2020 5088.01 3691.02 88.40 8.00 262.28 2671.45
   06:45:19.415.07-Aug-2020 5088.01 3691.03 88.39 8.00 262.48 2671.45
   06:45:19.615.07-Aug-2020 5088.01 3691.01 88.39 8.00 262.68 2671.45
   06:45:19.815.07-Aug-2020 5088.01 3691.02 88.39 8.00 262.88 2671.45
   06:45:20.015.07-Aug-2020 5088.01 3690.96 88.39 8.00 263.08 2671.45
   06:45:20.215.07-Aug-2020 5088.01 3690.96 88.39 8.00 263.28 2671.45
   06:45:20.415.07-Aug-2020 5088.01 3691.06 88.39 8.00 263.48 2671.45
   06:45:20.616.07-Aug-2020 5088.01 3690.98 88.39 8.00 263.68 2671.45
   06:45:20.816.07-Aug-2020 5088.01 3691.05 88.39 8.00 263.88 2671.45
   06:45:21.016.07-Aug-2020 5088.01 3690.96 88.39 8.00 264.08 2671.45
   06:45:21.216.07-Aug-2020 5088.01 3691.07 88.39 8.00 264.28 2671.45
   06:45:21.416.07-Aug-2020 5088.01 3691.02 88.39 8.00 264.48 2671.45
   06:45:21.616.07-Aug-2020 5088.01 3690.99 88.39 8.00 264.68 2671.45
   06:45:21.816.07-Aug-2020 5088.01 3691.06 88.39 8.00 264.88 2671.45
   06:45:22.016.07-Aug-2020 5088.01 3691.04 88.39 8.00 265.08 2671.45
   06:45:22.216.07-Aug-2020 5088.01 3691.04 88.39 8.00 265.28 2671.45
   06:45:22.416.07-Aug-2020 5088.01 3691.08 88.39 8.00 265.48 2671.45
   06:45:22.616.07-Aug-2020 5088.01 3691.01 88.39 8.00 265.68 2671.45
   06:45:22.816.07-Aug-2020 5088.01 3691.06 88.39 8.00 265.88 2671.45
   06:45:23.016.07-Aug-2020 5088.01 3690.92 88.38 8.00 266.08 2671.45
   06:45:23.216.07-Aug-2020 5088.01 3690.92 88.38 8.00 266.28 2671.45
   06:45:23.416.07-Aug-2020 5088.01 3691.08 88.38 8.00 266.48 2671.45
   06:45:23.616.07-Aug-2020 5088.01 3691.01 88.38 8.00 266.68 2671.45
   06:45:23.816.07-Aug-2020 5088.01 3691.03 88.38 8.00 266.88 2671.45
   06:45:24.017.07-Aug-2020 5088.01 3691.04 88.38 8.00 267.08 2671.45
   06:45:24.217.07-Aug-2020 5088.01 3691.04 88.38 8.00 267.28 2671.45
   06:45:24.417.07-Aug-2020 5088.01 3691.03 88.38 8.00 267.48 2671.45
   06:45:24.617.07-Aug-2020 5088.01 3691.03 88.38 8.00 267.68 2671.45
   06:45:24.817.07-Aug-2020 5088.01 3691.03 88.38 8.00 267.88 2671.45
   06:45:25.017.07-Aug-2020 5088.01 3691.02 88.38 8.00 268.08 2671.45
   06:45:25.217.07-Aug-2020 5088.01 3691.02 88.38 8.00 268.28 2671.45
   06:45:25.417.07-Aug-2020 5088.01 3691.02 88.38 8.00 268.48 2671.45
   06:45:25.617.07-Aug-2020 5088.01 3691.01 88.38 8.00 268.68 2671.45
   06:45:25.817.07-Aug-2020 5088.01 3690.93 88.38 8.00 268.88 2671.45
   06:45:26.017.07-Aug-2020 5088.01 3691.06 88.38 8.00 269.08 2671.45
   06:45:26.217.07-Aug-2020 5088.01 3691.06 88.38 8.00 269.28 2671.45
   06:45:26.417.07-Aug-2020 5088.01 3691.03 88.38 8.00 269.48 2671.45
   06:45:26.617.07-Aug-2020 5088.01 3691.04 88.38 8.00 269.68 2671.45
   06:45:26.817.07-Aug-2020 5088.01 3691.01 88.37 8.00 269.88 2671.45
   06:45:27.017.07-Aug-2020 5088.01 3691.03 88.37 8.00 270.08 2671.45
   06:45:27.217.07-Aug-2020 5088.01 3691.03 88.37 8.00 270.28 2671.45
   06:45:27.418.07-Aug-2020 5088.01 3691.02 88.37 8.00 270.48 2671.45
   06:45:27.618.07-Aug-2020 5088.01 3691.00 88.37 8.00 270.68 2671.45
   06:45:27.818.07-Aug-2020 5088.01 3691.02 88.37 8.00 270.88 2671.45
   06:45:28.018.07-Aug-2020 5088.01 3691.00 88.37 8.00 271.08 2671.45
   06:45:28.218.07-Aug-2020 5088.01 3691.00 88.37 8.00 271.28 2671.45
   06:45:28.418.07-Aug-2020 5088.01 3690.93 88.37 8.00 271.48 2671.45
   06:45:28.618.07-Aug-2020 5088.01 3691.06 88.37 8.00 271.68 2671.45
   06:45:28.818.07-Aug-2020 5088.01 3691.03 88.37 8.00 271.88 2671.45
   06:45:29.018.07-Aug-2020 5088.01 3690.96 88.37 8.00 272.08 2671.45
   06:45:29.218.07-Aug-2020 5088.01 3691.05 88.37 8.00 272.28 2671.45
   06:45:29.418.07-Aug-2020 5088.01 3690.94 88.37 8.00 272.48 2671.45
   06:45:29.618.07-Aug-2020 5088.01 3691.04 88.37 8.00 272.68 2671.45
   06:45:29.818.07-Aug-2020 5088.01 3691.06 88.37 8.00 272.88 2671.45
   06:45:30.018.07-Aug-2020 5088.01 3690.99 88.37 8.00 273.08 2671.45
   06:45:30.218.07-Aug-2020 5088.01 3690.99 88.37 8.00 273.28 2671.45
   06:45:30.418.07-Aug-2020 5088.01 3690.99 88.37 8.00 273.48 2671.45
   06:45:30.618.07-Aug-2020 5088.01 3690.98 88.36 8.00 273.68 2671.45
   06:45:30.819.07-Aug-2020 5088.01 3691.06 88.36 8.00 273.88 2671.45
   06:45:31.019.07-Aug-2020 5088.01 3690.98 88.36 8.00 274.08 2671.45
   06:45:31.219.07-Aug-2020 5088.01 3690.98 88.36 8.00 274.28 2671.45
   06:45:31.419.07-Aug-2020 5088.01 3690.86 88.36 8.00 274.48 2671.45
   06:45:31.619.07-Aug-2020 5088.01 3691.11 88.36 8.00 274.68 2671.45
   06:45:31.819.07-Aug-2020 5088.01 3691.06 88.36 8.00 274.88 2671.45
   06:45:32.019.07-Aug-2020 5088.01 3691.01 88.36 8.00 275.08 2671.45
   06:45:32.219.07-Aug-2020 5088.01 3691.01 88.36 8.00 275.28 2671.45
   06:45:32.419.07-Aug-2020 5088.01 3691.03 88.36 8.00 275.48 2671.45
   06:45:32.619.07-Aug-2020 5088.01 3691.02 88.36 8.00 275.68 2671.45
   06:45:32.819.07-Aug-2020 5088.01 3691.03 88.36 8.00 275.88 2671.45
