~Version Information
 VERS.                  2.0:   CWLS log ASCII Standard -VERSION 2.0
 WRAP.                   NO:   One line per depth step
~Well Information Block
#MNEM.UNIT     VALUE/NAME     DESCRIPTION
#---------     -----------    ---------------------------
 STRT.S             03:58:24 07-Aug-20: START TIME 03:58:24 07-Aug-20
 STOP.S             04:06:16 07-Aug-20: STOP TIME  04:06:16 07-Aug-20
 STEP.S                   0.00: STEP TIME
 NULL.                 -999.25: NULL VALUE
 DFWT.                        :  DIST FWL TEXT
 DFST.                        :  DIST FSL TEXT
 DMF .             Drill Floor:  DRILL MEAS FROM
 STIM.      12.00.00 03-Jul-20:  START TIME
 DATE.      00.50.00 09-Aug-20:  END TIME
 SPUD.               03-Jul-20:  SPUD DATE
 NREF.                    Grid:  NORTH REFERENCE
 HPTY.       Minimum Curvature:  HOLE POS TYPE
 DMOD.             Drill Model:  DRILL MOD DESC
 SVYD.                  Survey:  SURVEY DESC
 ILTD.               Lithology:  INTERP LTH DESC
 FTOP.          Formation Tops:  FORM TOPS DESC
 PDAT.          Mean Sea Level:  PERMANENT DATUM
 FLD .                     ACG:  FIELD NAME
 CTRY.              Azerbaijan:  COUNTRY NAME
 WELL.                    E04x:  WELL NAME
 SRVC.          Turan Drilling:  CONTRACTOR
 COMP.     BP Exploration (Caspian Sea) Ltd.:  COMPANY
 SON .        AZ-XX-0906531346:  JOB NUMBER
 WTYP.                Deviated:  WELL TYPE
 MDS .        Operator Entered:  MAG DATA SOURCE
 UWI .                     N/A:  UNIQUE WELL IDENTIFIER
 API .                     N/A:  API NUMBER
 BASE.              Azerbaijan:  LOGGING EQUIPMENT BASE LOCATION
 REGN.                   EESSA:  REGION
 PROV.                    Baku:  PROVINCE
 STAT.                    Baku:  STATE NAME
 MWDS.                    Baku:  MWD SHOP
 JOBN.        AZ-XX-0906531346:  JOB TICKET NUMB
 RIG .                     DWG:  RIG NAME
 DOE .                     N/A:  DOE NUMBER
 DCON.         Sperry Drilling:  DIRECTNL CONTR
 UNIT.                     N/A:  LOGGING EQUIPMENT ID
 CNTY.                        :  COUNTY
 LOC .                        :  LOCATION
 LMF .             Drill Floor:  LOG MEASURED FROM
 TVDS.m                  43.16:  TVDSS CORRECTN
 LATI.deg                40.17:  LATITUDE
 LONG.deg                51.17:  LONGITUDE
 WHNS.m                  -0.12:  WELL HEAD N/S
 WHEW.m                  -5.41:  WELL HEAD E/W
 UTMX.m              514337.95:  UTM X
 UTMY.m             4448627.46:  UTM Y
 DFWL.m                   0.00:  DISTANCE FWL
 DFSL.m                   0.00:  DISTANCE FSL
 SDEP.m                3088.01:  START DEPTH
 TDD .m                5200.01:  TOTAL DEPTH (DRILLER)
 VSDR.deg               244.51:  VERT SEC DIRECT
 GVFD.g                   1.00:  GRAVITY FIELD
 MFLD.nT              50329.80:  MAGNETIC FIELD
 MDIP.deg                59.63:  MAGNETIC DIP
 MDEC.deg                 6.59:  MAGNETIC DECL
 GRDC.deg                 0.09:  GRID CORRECTION
 AZTC.deg                 6.50:  AZM TOTAL CORR
 EPD .m                   0.00:  ELEVATION
 EGL .m                   0.00:  GROUND ELEVATION
 WDMS.m                 176.20:  WD ELEV
 APD .m                  43.16:  DEPTH ABOVE PD
 DEP .m                3084.71:  DEPTH
 AGAP.m                  43.16:  AIR GAP
 VSEW.m                  -5.41:  VERT SEC E/W
 VSNS.m                  -0.12:  VERT SEC N/S
 EKB .m                   0.00:  KB ELEVATION
 EDF .m                  43.16:  DF ELEVATION
 TDL .m                 243.00:  TOTAL DEPTH (LOGGER)
 VSC .                       0:  VS TO CLOSURE
 MAGU.                 1853542:  MAGUTM CHECKSUM
~Parameter Information Block
#MNEM.UNIT       Value        Description
#---------     -----------    ---------------------------
 AV  .mps                 1.91:  Ann Velocity 
 AVMX.mps                 2.52:  Max Ann Veloc 
 AZIF.deg               308.97:  Azm, Final 
 BHAT.        Rotary Steerable:  BHA Type 
 BROT.°/30m               1.00:  Build Rotating 
 BS  .in                  6.50:  Bit Size 
 BSZ .in                  6.50:  Bit Size 
 BTPL.psig              350.00:  Bit Press Loss 
 CABU.                      No:  Customer Abuse 
 CGEO.           Asif Pashayev:  Customer Geo 
 TCS .hr                 35.86:  Time Ciculation Ended 
 CV  .mps                 2.31:  Crit Velocity 
 CVMX.mps                 2.31:  Max Crit Veloc 
 DD1 .         Intigam Rahimov:  Direct Drillr 1 
 DDSV.               Geo-Pilot:  DD Service 
 DEFF.%                  92.00:  % Det Eff 
 DLRX.°/30m               1.00:  Dogleg Rot Max 
 DLSO.°/30m               1.00:  Dogleg Oriented 
 DLSX.°/30m               1.42:  Dogleg Str Max 
 DRET.      15.50.00 07-Aug-20:  Drill End Time 
 DRST.      10.40.00 06-Aug-20:  Drill Start Tim 
 DTIM.hr                 21.30:  Time Drilling 
 EDEP.m                5200.01:  End Depth 
 ENG1.            Alan Tuganov:  Engineer 1 
 ENG2.         Almaz Almadatov:  Engineer 2 
 ENG3.     Zammelal Abdullah Sani:  Engineer 3 
 ETIM.      22.42.00 08-Aug-20:  End Time 
 FLOI.gpm               395.00:  Flow In 
 FLON.gpm               350.00:  Flow In Min 
 FLOS.cptm                0.00:  Fluid Loss 
 FLOX.gpm               404.00:  Flow In Max 
 FTRO.       Formation Presure:  FTWD Run Obj 
 HFLO.                      No:  High Flow 
 HPRE.                      No:  High Pressure 
 HTEM.                      No:  High Temp 
 HYDO.m                   1.80:  Hydro Offset 
 IFIN.deg                72.64:  Inc, Final 
 IMAX.deg                73.68:  Inc Max 
 IMIN.deg                72.64:  Inc Min 
 IMND.m                5189.69:  Inc Min Depth 
 IMXD.m                5067.88:  Inc Max Depth 
 JARR.                      No:  Jarring 
 LETM.      15.50.00 07-Aug-20:  Log End Time 
 LOST.hr                     0:  Lost Rig Time 
 LSTM.      10.40.00 06-Aug-20:  Log Start Time 
 MDCL.ppm             36000.00:  Mud Chlorides 
 MDES.     Inversion Oil/Synthetic:  Mud Desc 
 DFD .sg                  1.36:  Mud Density 
 MDMN.sg                  1.36:  Dens Mud Min 
 MDMX.sg                  1.36:  Dens Mud Max 
 MOIL.                      70:  Run Mud Oil % 
 MOWR.                   70:30:  Run Mud OWR 
 MSND.                    0.00:  Run Mud Sand % 
 MSOL.                   17.60:  Run Mud Solids% 
 DFV .spqt               73.00:  Mud Viscosity 
 MWOD.in                  4.75:  MWD Tool OD 
 MWSI.                      No:  Serv Intrp, MWD 
 OTIM.hr                 85.66:  Time Operating 
 PCON.           Look Like New:  Pad Condition 
 PMAX.psia             6250.00:  Press Op, Max 
 PV  .cP                 65.00:  Mud PV 
 RUN .                     900:  Run Number 
 ROPA.m/hr               11.40:  ROP Avg 
 ROPN.m/hr                5.00:  ROP Min 
 ROPX.m/hr               20.00:  ROP Max 
 RPMA.rpm               130.00:  RPM Surface Avg 
 RPMN.rpm                40.00:  RPM Surface Min 
 RPMX.rpm               140.00:  RPM Surface Max 
 RRUN.                    L205:  Rig Run Number 
 RTIM.hr                  1.00:  Time Reaming 
 SAZI.deg               313.52:  Azm, Start 
 SDEP.m                4957.01:  Start Depth 
 SIDD.                      No:  Serv Intrp, DD 
 SINC.deg                73.16:  Inc, Start 
 SPPA.psig             5657.00:  SPP Avg 
 SPPN.psig             2500.00:  SPP Min 
 SPPX.psig             5806.00:  SPP Max 
 STIM.      07.12.00 05-Aug-20:  Start Time 
 SVCS.                 DD, MWD:  Services 
 SVER.                    9.20:  Sperry Version 
 TDAT.m                 243.00:  Tot Depth Attmp 
 TDDF.                      No:  Trip for DD 
 TDLG.m                 243.00:  Tot Depth Loggd 
 TFF .                      No:  Trip for Fail 
 TQAA.f-kp               13.00:  Torque Abs Avg 
 TQAN.f-kp               11.00:  Torque Abs Min 
 TQAX.f-kp               16.00:  Torque Abs Max 
 TRRT.°/30m               1.00:  Turn Rotating 
 MRT .                    HCIM:  Maximum Recorded Temperature 
 TTMX.degC               96.08:  Max Tool Temp 
 VS01.                90515411:  Virtual Str1 SN 
 VS02.                90512716:  Virtual Str2 SN 
 VS03.                90522362:  Virtual Str3 SN 
 VS04.                90619415:  Virtual Str4 SN 
 VS05.                90619414:  Virtual Str5 SN 
 VS06.                90597748:  Virtual Str6 SN 
 WBMN.klb                 2.00:  WOB Min 
 WITN.           Adil Mammadov:  Customer Rep 
 WITN.     Alexander Yadullayev:  Customer Rep 2 
 WOBA.klb                 7.00:  WOB Avg 
 WOBX.klb                23.00:  WOB Max 
 YP  .lhf2               37.00:  Yield Point 
~Curve Information Block
#MNEM.UNIT                 API CODE     Curve Description
#---------               -----------    ---------------------------
 TIME.HHMMSS            00 000 000 000:  GT Time & Date
 GTDEPTH.m              00 000 000 000:  GT Depth
 GTPQH.psia             00 000 000 000:  GT HR Quartz Pressure
 GTTQ.degC              00 000 000 000:  GT Quartz Temperature
 GTTN.NONE              00 000 000 000:  GT Test Number
 GTET.sec               00 000 000 000:  GT Elapsed Test Time
 GTTVD.m                00 000 000 000:  GT True Vertical Depth
#Other Information
#
#WARRANTY: Halliburton will use its best efforts to furnish customers with 
#accurate information and interpretations that are part of, and incident to, the services 
#provided.  However, Halliburton cannot and does not warrant the accuracy 
#or correctness of such information and interpretations.  Under no circumstances should any 
#such information or interpretation be relied upon as the sole basis for any drilling, 
#completion, production, or financial decision or any procedure involving any risk to the 
#safety of any drilling venture, drilling rig or its crew or any other third party.  The 
#Customer has full responsibility for all drilling, completion and production operation.  
#Halliburton makes no representations or warranties, either expressed or 
#implied, including, but not limited to, the implied warranties of merchantability or fitness 
#for a particular purpose, with respect to the services rendered.  In no event will 
#Halliburton be liable for failure to obtain any particular results or for 
#any damages, including, but not limited to, indirect, special or consequential damages, 
#resulting from the use of any information or interpretation provided by Halliburton.
#
~A           TIME           GTDEPTH  GTPQH  GTTQ  GTTN  GTET   GTTVD  
   03:58:24.276.07-Aug-2020 5060.51 5791.20 88.19 7.00   0.00 2663.65
   03:58:24.476.07-Aug-2020 5060.51 5791.20 88.19 7.00   0.20 2663.65
   03:58:24.676.07-Aug-2020 5060.51 5791.20 88.19 7.00   0.40 2663.65
   03:58:24.876.07-Aug-2020 5060.51 5801.91 88.19 7.00   0.60 2663.65
   03:58:25.076.07-Aug-2020 5060.51 5801.91 88.19 7.00   0.80 2663.65
   03:58:25.276.07-Aug-2020 5060.51 5805.76 88.19 7.00   1.00 2663.65
   03:58:25.476.07-Aug-2020 5060.51 5805.76 88.19 7.00   1.20 2663.65
   03:58:25.676.07-Aug-2020 5060.51 5804.79 88.19 7.00   1.40 2663.65
   03:58:25.876.07-Aug-2020 5060.51 5800.54 88.19 7.00   1.60 2663.65
   03:58:26.076.07-Aug-2020 5060.51 5795.05 88.19 7.00   1.80 2663.65
   03:58:26.276.07-Aug-2020 5060.51 5804.01 88.18 7.00   2.00 2663.65
   03:58:26.476.07-Aug-2020 5060.51 5804.01 88.18 7.00   2.20 2663.65
   03:58:26.676.07-Aug-2020 5060.51 5802.31 88.18 7.00   2.40 2663.65
   03:58:26.877.07-Aug-2020 5060.51 5801.37 88.18 7.00   2.60 2663.65
   03:58:27.077.07-Aug-2020 5060.51 5795.22 88.18 7.00   2.80 2663.65
   03:58:27.277.07-Aug-2020 5060.51 5803.22 88.18 7.00   3.00 2663.65
   03:58:27.477.07-Aug-2020 5060.51 5803.22 88.18 7.00   3.20 2663.65
   03:58:27.677.07-Aug-2020 5060.51 5802.81 88.18 7.00   3.40 2663.65
   03:58:27.877.07-Aug-2020 5060.51 5793.80 88.18 7.00   3.60 2663.65
   03:58:28.077.07-Aug-2020 5060.51 5804.49 88.18 7.00   3.80 2663.65
   03:58:28.277.07-Aug-2020 5060.51 5798.12 88.18 7.00   4.00 2663.65
   03:58:28.477.07-Aug-2020 5060.51 5798.12 88.18 7.00   4.20 2663.65
   03:58:28.677.07-Aug-2020 5060.51 5803.86 88.18 7.00   4.40 2663.65
   03:58:28.877.07-Aug-2020 5060.51 5792.90 88.17 7.00   4.60 2663.65
   03:58:29.077.07-Aug-2020 5060.51 5807.69 88.17 7.00   4.80 2663.65
   03:58:29.277.07-Aug-2020 5060.51 5798.07 88.17 7.00   5.00 2663.65
   03:58:29.477.07-Aug-2020 5060.51 5798.07 88.17 7.00   5.20 2663.65
   03:58:29.677.07-Aug-2020 5060.51 5802.54 88.17 7.00   5.40 2663.65
   03:58:29.877.07-Aug-2020 5060.51 5805.15 88.17 7.00   5.60 2663.65
   03:58:30.077.07-Aug-2020 5060.51 5803.54 88.17 7.00   5.80 2663.65
   03:58:30.277.07-Aug-2020 5060.51 5806.53 88.17 7.00   6.00 2663.65
   03:58:30.477.07-Aug-2020 5060.51 5806.53 88.17 7.00   6.20 2663.65
   03:58:30.677.07-Aug-2020 5060.51 5806.61 88.17 7.00   6.40 2663.65
   03:58:30.877.07-Aug-2020 5060.51 5804.55 88.17 7.00   6.60 2663.65
   03:58:31.078.07-Aug-2020 5060.51 5806.78 88.17 7.00   6.80 2663.65
   03:58:31.278.07-Aug-2020 5060.51 5805.98 88.16 7.00   7.00 2663.65
   03:58:31.478.07-Aug-2020 5060.51 5805.98 88.16 7.00   7.20 2663.65
   03:58:31.678.07-Aug-2020 5060.51 5806.16 88.16 7.00   7.40 2663.65
   03:58:31.878.07-Aug-2020 5060.51 5800.19 88.16 7.00   7.60 2663.65
   03:58:32.078.07-Aug-2020 5060.51 5809.38 88.16 7.00   7.80 2663.65
   03:58:32.278.07-Aug-2020 5060.51 5801.85 88.16 7.00   8.00 2663.65
   03:58:32.478.07-Aug-2020 5060.51 5801.85 88.16 7.00   8.20 2663.65
   03:58:32.678.07-Aug-2020 5060.51 5806.29 88.16 7.00   8.40 2663.65
   03:58:32.878.07-Aug-2020 5060.51 5808.33 88.16 7.00   8.60 2663.65
   03:58:33.078.07-Aug-2020 5060.51 5807.66 88.16 7.00   8.80 2663.65
   03:58:33.278.07-Aug-2020 5060.51 5808.88 88.16 7.00   9.00 2663.65
   03:58:33.478.07-Aug-2020 5060.51 5808.88 88.16 7.00   9.20 2663.65
   03:58:33.678.07-Aug-2020 5060.51 5809.69 88.16 7.00   9.40 2663.65
   03:58:33.878.07-Aug-2020 5060.51 5801.13 88.15 7.00   9.60 2663.65
   03:58:34.078.07-Aug-2020 5060.51 5792.83 88.15 7.00   9.80 2663.65
   03:58:34.278.07-Aug-2020 5060.51 5792.54 88.15 7.00  10.00 2663.65
   03:58:34.478.07-Aug-2020 5060.51 5792.54 88.15 7.00  10.20 2663.65
   03:58:34.678.07-Aug-2020 5060.51 5769.86 88.15 7.00  10.40 2663.65
   03:58:34.878.07-Aug-2020 5060.51 5751.73 88.15 7.00  10.60 2663.65
   03:58:35.078.07-Aug-2020 5060.51 5729.90 88.15 7.00  10.80 2663.65
   03:58:35.279.07-Aug-2020 5060.51 5676.15 88.15 7.00  11.00 2663.65
   03:58:35.479.07-Aug-2020 5060.51 5676.15 88.15 7.00  11.20 2663.65
   03:58:35.679.07-Aug-2020 5060.51 5594.49 88.15 7.00  11.40 2663.65
   03:58:35.879.07-Aug-2020 5060.51 5536.74 88.15 7.00  11.60 2663.65
   03:58:36.079.07-Aug-2020 5060.51 5471.51 88.15 7.00  11.80 2663.65
   03:58:36.279.07-Aug-2020 5060.51 5393.88 88.15 7.00  12.00 2663.65
   03:58:36.479.07-Aug-2020 5060.51 5393.88 88.15 7.00  12.20 2663.65
   03:58:36.679.07-Aug-2020 5060.51 5227.72 88.14 7.00  12.40 2663.65
   03:58:36.879.07-Aug-2020 5060.51 5216.94 88.14 7.00  12.60 2663.65
   03:58:37.079.07-Aug-2020 5060.51 5123.24 88.14 7.00  12.80 2663.65
   03:58:37.279.07-Aug-2020 5060.51 5018.73 88.14 7.00  13.00 2663.65
   03:58:37.479.07-Aug-2020 5060.51 5018.73 88.14 7.00  13.20 2663.65
   03:58:37.679.07-Aug-2020 5060.51 4891.19 88.14 7.00  13.40 2663.65
   03:58:37.879.07-Aug-2020 5060.51 4880.94 88.14 7.00  13.60 2663.65
   03:58:38.079.07-Aug-2020 5060.51 4812.40 88.14 7.00  13.80 2663.65
   03:58:38.279.07-Aug-2020 5060.51 4734.28 88.14 7.00  14.00 2663.65
   03:58:38.479.07-Aug-2020 5060.51 4734.28 88.14 7.00  14.20 2663.65
   03:58:38.679.07-Aug-2020 5060.51 4586.86 88.13 7.00  14.40 2663.65
   03:58:38.879.07-Aug-2020 5060.51 4471.95 88.13 7.00  14.60 2663.65
   03:58:39.079.07-Aug-2020 5060.51 4403.92 88.13 7.00  14.80 2663.65
   03:58:39.279.07-Aug-2020 5060.51 4331.76 88.13 7.00  15.00 2663.65
   03:58:39.480.07-Aug-2020 5060.51 4331.76 88.13 7.00  15.20 2663.65
   03:58:39.680.07-Aug-2020 5060.51 4163.93 88.13 7.00  15.40 2663.65
   03:58:39.880.07-Aug-2020 5060.51 4098.19 88.13 7.00  15.60 2663.65
   03:58:40.080.07-Aug-2020 5060.51 4042.24 88.13 7.00  15.80 2663.65
   03:58:40.280.07-Aug-2020 5060.51 3983.71 88.13 7.00  16.00 2663.65
   03:58:40.480.07-Aug-2020 5060.51 3983.71 88.13 7.00  16.20 2663.65
   03:58:40.680.07-Aug-2020 5060.51 4035.20 88.12 7.00  16.40 2663.65
   03:58:40.880.07-Aug-2020 5060.51 4306.59 88.12 7.00  16.60 2663.65
   03:58:41.080.07-Aug-2020 5060.51 4261.14 88.12 7.00  16.80 2663.65
   03:58:41.280.07-Aug-2020 5060.51 4354.39 88.12 7.00  17.00 2663.65
   03:58:41.480.07-Aug-2020 5060.51 4354.39 88.12 7.00  17.20 2663.65
   03:58:41.680.07-Aug-2020 5060.51 4399.07 88.12 7.00  17.40 2663.65
   03:58:41.880.07-Aug-2020 5060.51 4389.41 88.12 7.00  17.60 2663.65
   03:58:42.080.07-Aug-2020 5060.51 4388.07 88.12 7.00  17.80 2663.65
   03:58:42.280.07-Aug-2020 5060.51 4408.04 88.11 7.00  18.00 2663.65
   03:58:42.480.07-Aug-2020 5060.51 4408.04 88.11 7.00  18.20 2663.65
   03:58:42.680.07-Aug-2020 5060.51 4516.08 88.11 7.00  18.40 2663.65
   03:58:42.880.07-Aug-2020 5060.51 5595.14 88.11 7.00  18.60 2663.65
   03:58:43.080.07-Aug-2020 5060.51 6332.24 88.11 7.00  18.80 2663.65
   03:58:43.280.07-Aug-2020 5060.51 6555.75 88.11 7.00  19.00 2663.65
   03:58:43.480.07-Aug-2020 5060.51 6555.75 88.11 7.00  19.20 2663.65
   03:58:43.680.07-Aug-2020 5060.51 6508.76 88.11 7.00  19.40 2663.65
   03:58:43.881.07-Aug-2020 5060.51 6349.37 88.11 7.00  19.60 2663.65
   03:58:44.081.07-Aug-2020 5060.51 6417.67 88.11 7.00  19.80 2663.65
   03:58:44.281.07-Aug-2020 5060.51 6541.40 88.10 7.00  20.00 2663.65
   03:58:44.481.07-Aug-2020 5060.51 6541.40 88.10 7.00  20.20 2663.65
   03:58:44.681.07-Aug-2020 5060.51 6524.01 88.10 7.00  20.40 2663.65
   03:58:44.881.07-Aug-2020 5060.51 6422.06 88.10 7.00  20.60 2663.65
   03:58:45.081.07-Aug-2020 5060.51 6466.01 88.10 7.00  20.80 2663.65
   03:58:45.281.07-Aug-2020 5060.51 6511.83 88.10 7.00  21.00 2663.65
   03:58:45.481.07-Aug-2020 5060.51 6511.83 88.10 7.00  21.20 2663.65
   03:58:45.681.07-Aug-2020 5060.51 6559.73 88.10 7.00  21.41 2663.65
   03:58:45.881.07-Aug-2020 5060.51 6572.78 88.10 7.00  21.61 2663.65
   03:58:46.081.07-Aug-2020 5060.51 6579.25 88.10 7.00  21.81 2663.65
   03:58:46.281.07-Aug-2020 5060.51 6585.06 88.10 7.00  22.01 2663.65
   03:58:46.481.07-Aug-2020 5060.51 6585.06 88.10 7.00  22.21 2663.65
   03:58:46.681.07-Aug-2020 5060.51 6593.54 88.10 7.00  22.41 2663.65
   03:58:46.881.07-Aug-2020 5060.51 6596.05 88.10 7.00  22.61 2663.65
   03:58:47.081.07-Aug-2020 5060.51 6462.14 88.10 7.00  22.81 2663.65
