~Version Information
 VERS.                  2.0:   CWLS log ASCII Standard -VERSION 2.0
 WRAP.                   NO:   One line per depth step
~Well Information Block
#MNEM.UNIT     VALUE/NAME     DESCRIPTION
#---------     -----------    ---------------------------
 STRT.S             16:10:03 06-Aug-20: START TIME 16:10:03 06-Aug-20
 STOP.S             16:17:57 06-Aug-20: STOP TIME  16:17:57 06-Aug-20
 STEP.S                   0.00: STEP TIME
 NULL.                 -999.25: NULL VALUE
 DFWT.                        :  DIST FWL TEXT
 DFST.                        :  DIST FSL TEXT
 DMF .             Drill Floor:  DRILL MEAS FROM
 STIM.      12.00.00 03-Jul-20:  START TIME
 DATE.      00.50.00 09-Aug-20:  END TIME
 SPUD.               03-Jul-20:  SPUD DATE
 NREF.                    Grid:  NORTH REFERENCE
 HPTY.       Minimum Curvature:  HOLE POS TYPE
 DMOD.             Drill Model:  DRILL MOD DESC
 SVYD.                  Survey:  SURVEY DESC
 ILTD.               Lithology:  INTERP LTH DESC
 FTOP.          Formation Tops:  FORM TOPS DESC
 PDAT.          Mean Sea Level:  PERMANENT DATUM
 FLD .                     ACG:  FIELD NAME
 CTRY.              Azerbaijan:  COUNTRY NAME
 WELL.                    E04x:  WELL NAME
 SRVC.          Turan Drilling:  CONTRACTOR
 COMP.     BP Exploration (Caspian Sea) Ltd.:  COMPANY
 SON .        AZ-XX-0906531346:  JOB NUMBER
 WTYP.                Deviated:  WELL TYPE
 MDS .        Operator Entered:  MAG DATA SOURCE
 UWI .                     N/A:  UNIQUE WELL IDENTIFIER
 API .                     N/A:  API NUMBER
 BASE.              Azerbaijan:  LOGGING EQUIPMENT BASE LOCATION
 REGN.                   EESSA:  REGION
 PROV.                    Baku:  PROVINCE
 STAT.                    Baku:  STATE NAME
 MWDS.                    Baku:  MWD SHOP
 JOBN.        AZ-XX-0906531346:  JOB TICKET NUMB
 RIG .                     DWG:  RIG NAME
 DOE .                     N/A:  DOE NUMBER
 DCON.         Sperry Drilling:  DIRECTNL CONTR
 UNIT.                     N/A:  LOGGING EQUIPMENT ID
 CNTY.                        :  COUNTY
 LOC .                        :  LOCATION
 LMF .             Drill Floor:  LOG MEASURED FROM
 TVDS.m                  43.16:  TVDSS CORRECTN
 LATI.deg                40.17:  LATITUDE
 LONG.deg                51.17:  LONGITUDE
 WHNS.m                  -0.12:  WELL HEAD N/S
 WHEW.m                  -5.41:  WELL HEAD E/W
 UTMX.m              514337.95:  UTM X
 UTMY.m             4448627.46:  UTM Y
 DFWL.m                   0.00:  DISTANCE FWL
 DFSL.m                   0.00:  DISTANCE FSL
 SDEP.m                3088.01:  START DEPTH
 TDD .m                5200.01:  TOTAL DEPTH (DRILLER)
 VSDR.deg               244.51:  VERT SEC DIRECT
 GVFD.g                   1.00:  GRAVITY FIELD
 MFLD.nT              50329.80:  MAGNETIC FIELD
 MDIP.deg                59.63:  MAGNETIC DIP
 MDEC.deg                 6.59:  MAGNETIC DECL
 GRDC.deg                 0.09:  GRID CORRECTION
 AZTC.deg                 6.50:  AZM TOTAL CORR
 EPD .m                   0.00:  ELEVATION
 EGL .m                   0.00:  GROUND ELEVATION
 WDMS.m                 176.20:  WD ELEV
 APD .m                  43.16:  DEPTH ABOVE PD
 DEP .m                3084.71:  DEPTH
 AGAP.m                  43.16:  AIR GAP
 VSEW.m                  -5.41:  VERT SEC E/W
 VSNS.m                  -0.12:  VERT SEC N/S
 EKB .m                   0.00:  KB ELEVATION
 EDF .m                  43.16:  DF ELEVATION
 TDL .m                 243.00:  TOTAL DEPTH (LOGGER)
 VSC .                       0:  VS TO CLOSURE
 MAGU.                 1853542:  MAGUTM CHECKSUM
~Parameter Information Block
#MNEM.UNIT       Value        Description
#---------     -----------    ---------------------------
 AV  .mps                 1.91:  Ann Velocity 
 AVMX.mps                 2.52:  Max Ann Veloc 
 AZIF.deg               308.97:  Azm, Final 
 BHAT.        Rotary Steerable:  BHA Type 
 BROT.°/30m               1.00:  Build Rotating 
 BS  .in                  6.50:  Bit Size 
 BSZ .in                  6.50:  Bit Size 
 BTPL.psig              350.00:  Bit Press Loss 
 CABU.                      No:  Customer Abuse 
 CGEO.           Asif Pashayev:  Customer Geo 
 COMM.                     Ôöj:  Run Comments 1 
 TCS .hr                 35.86:  Time Ciculation Ended 
 CV  .mps                 2.31:  Crit Velocity 
 CVMX.mps                 2.31:  Max Crit Veloc 
 DD1 .         Intigam Rahimov:  Direct Drillr 1 
 DDSV.               Geo-Pilot:  DD Service 
 DEFF.%                  92.00:  % Det Eff 
 DLRX.°/30m               1.00:  Dogleg Rot Max 
 DLSO.°/30m               1.00:  Dogleg Oriented 
 DLSX.°/30m               1.42:  Dogleg Str Max 
 DRET.      15.50.00 07-Aug-20:  Drill End Time 
 DRST.      10.40.00 06-Aug-20:  Drill Start Tim 
 DTIM.hr                 21.30:  Time Drilling 
 EDEP.m                5200.01:  End Depth 
 ENG1.            Alan Tuganov:  Engineer 1 
 ENG2.         Almaz Almadatov:  Engineer 2 
 ENG3.     Zammelal Abdullah Sani:  Engineer 3 
 ETIM.      22.42.00 08-Aug-20:  End Time 
 FLOI.gpm               395.00:  Flow In 
 FLON.gpm               350.00:  Flow In Min 
 FLOS.cptm                0.00:  Fluid Loss 
 FLOX.gpm               404.00:  Flow In Max 
 FTRO.       Formation Presure:  FTWD Run Obj 
 HFLO.                      No:  High Flow 
 HPRE.                      No:  High Pressure 
 HTEM.                      No:  High Temp 
 HYDO.m                   1.80:  Hydro Offset 
 IFIN.deg                72.64:  Inc, Final 
 IMAX.deg                73.68:  Inc Max 
 IMIN.deg                72.64:  Inc Min 
 IMND.m                5189.69:  Inc Min Depth 
 IMXD.m                5067.88:  Inc Max Depth 
 JARR.                      No:  Jarring 
 LETM.      15.50.00 07-Aug-20:  Log End Time 
 LOST.hr                     0:  Lost Rig Time 
 LSTM.      10.40.00 06-Aug-20:  Log Start Time 
 MDCL.ppm             36000.00:  Mud Chlorides 
 MDES.     Inversion Oil/Synthetic:  Mud Desc 
 DFD .sg                  1.36:  Mud Density 
 MDMN.sg                  1.36:  Dens Mud Min 
 MDMX.sg                  1.36:  Dens Mud Max 
 MOIL.                      70:  Run Mud Oil % 
 MOWR.                   70:30:  Run Mud OWR 
 MSND.                    0.00:  Run Mud Sand % 
 MSOL.                   17.60:  Run Mud Solids% 
 DFV .spqt               73.00:  Mud Viscosity 
 MWOD.in                  4.75:  MWD Tool OD 
 MWSI.                      No:  Serv Intrp, MWD 
 OTIM.hr                 85.66:  Time Operating 
 PCON.           Look Like New:  Pad Condition 
 PMAX.psia             6250.00:  Press Op, Max 
 PV  .cP                 65.00:  Mud PV 
 RUN .                     900:  Run Number 
 ROPA.m/hr               11.40:  ROP Avg 
 ROPN.m/hr                5.00:  ROP Min 
 ROPX.m/hr               20.00:  ROP Max 
 RPMA.rpm               130.00:  RPM Surface Avg 
 RPMN.rpm                40.00:  RPM Surface Min 
 RPMX.rpm               140.00:  RPM Surface Max 
 RRUN.                    L205:  Rig Run Number 
 RTIM.hr                  1.00:  Time Reaming 
 SAZI.deg               313.52:  Azm, Start 
 SDEP.m                4957.01:  Start Depth 
 SIDD.                      No:  Serv Intrp, DD 
 SINC.deg                73.16:  Inc, Start 
 SPPA.psig             5657.00:  SPP Avg 
 SPPN.psig             2500.00:  SPP Min 
 SPPX.psig             5806.00:  SPP Max 
 STIM.      07.12.00 05-Aug-20:  Start Time 
 SVCS.                 DD, MWD:  Services 
 SVER.                    9.20:  Sperry Version 
 TDAT.m                 243.00:  Tot Depth Attmp 
 TDDF.                      No:  Trip for DD 
 TDLG.m                 243.00:  Tot Depth Loggd 
 TFF .                      No:  Trip for Fail 
 TQAA.f-kp               13.00:  Torque Abs Avg 
 TQAN.f-kp               11.00:  Torque Abs Min 
 TQAX.f-kp               16.00:  Torque Abs Max 
 TRRT.°/30m               1.00:  Turn Rotating 
 MRT .                    HCIM:  Maximum Recorded Temperature 
 TTMX.degC               96.08:  Max Tool Temp 
 VS01.                90515411:  Virtual Str1 SN 
 VS02.                90512716:  Virtual Str2 SN 
 VS03.                90522362:  Virtual Str3 SN 
 VS04.                90619415:  Virtual Str4 SN 
 VS05.                90619414:  Virtual Str5 SN 
 VS06.                90597748:  Virtual Str6 SN 
 WBMN.klb                 2.00:  WOB Min 
 WITN.           Adil Mammadov:  Customer Rep 
 WITN.     Alexander Yadullayev:  Customer Rep 2 
 WOBA.klb                 7.00:  WOB Avg 
 WOBX.klb                23.00:  WOB Max 
 YP  .lhf2               37.00:  Yield Point 
~Curve Information Block
#MNEM.UNIT                 API CODE     Curve Description
#---------               -----------    ---------------------------
 TIME.HHMMSS            00 000 000 000:  GT Time & Date
 GTDEPTH.m              00 000 000 000:  GT Depth
 GTPQH.psia             00 000 000 000:  GT HR Quartz Pressure
 GTTQ.degC              00 000 000 000:  GT Quartz Temperature
 GTTN.NONE              00 000 000 000:  GT Test Number
 GTET.sec               00 000 000 000:  GT Elapsed Test Time
 GTTVD.m                00 000 000 000:  GT True Vertical Depth
#Other Information
#
#WARRANTY: Halliburton will use its best efforts to furnish customers with 
#accurate information and interpretations that are part of, and incident to, the services 
#provided.  However, Halliburton cannot and does not warrant the accuracy 
#or correctness of such information and interpretations.  Under no circumstances should any 
#such information or interpretation be relied upon as the sole basis for any drilling, 
#completion, production, or financial decision or any procedure involving any risk to the 
#safety of any drilling venture, drilling rig or its crew or any other third party.  The 
#Customer has full responsibility for all drilling, completion and production operation.  
#Halliburton makes no representations or warranties, either expressed or 
#implied, including, but not limited to, the implied warranties of merchantability or fitness 
#for a particular purpose, with respect to the services rendered.  In no event will 
#Halliburton be liable for failure to obtain any particular results or for 
#any damages, including, but not limited to, indirect, special or consequential damages, 
#resulting from the use of any information or interpretation provided by Halliburton.
#
~A           TIME           GTDEPTH  GTPQH  GTTQ  GTTN  GTET   GTTVD  
# ...
   16:14:39.516.06-Aug-2020 4955.01 4257.93 80.43 2.00 276.06 2633.27
   16:14:39.716.06-Aug-2020 4955.01 4257.93 80.43 2.00 276.26 2633.27
   16:14:39.916.06-Aug-2020 4955.01 4257.86 80.43 2.00 276.46 2633.27
   16:14:40.116.06-Aug-2020 4955.01 4257.95 80.43 2.00 276.66 2633.27
   16:14:40.316.06-Aug-2020 4955.01 4258.00 80.43 2.00 276.86 2633.27
   16:14:40.516.06-Aug-2020 4955.01 4257.99 80.43 2.00 277.06 2633.27
   16:14:40.717.06-Aug-2020 4955.01 4258.05 80.43 2.00 277.26 2633.27
   16:14:40.917.06-Aug-2020 4955.01 4257.69 80.43 2.00 277.46 2633.27
   16:14:41.117.06-Aug-2020 4955.01 4257.90 80.43 2.00 277.66 2633.27
   16:14:41.317.06-Aug-2020 4955.01 4258.02 80.43 2.00 277.86 2633.27
   16:14:41.517.06-Aug-2020 4955.01 4258.08 80.43 2.00 278.06 2633.27
   16:14:41.717.06-Aug-2020 4955.01 4258.12 80.43 2.00 278.26 2633.27
   16:14:41.917.06-Aug-2020 4955.01 4258.15 80.43 2.00 278.46 2633.27
   16:14:42.117.06-Aug-2020 4955.01 4258.13 80.43 2.00 278.66 2633.27
   16:14:42.317.06-Aug-2020 4955.01 4258.13 80.43 2.00 278.86 2633.27
   16:14:42.517.06-Aug-2020 4955.01 4258.13 80.43 2.00 279.06 2633.27
   16:14:42.717.06-Aug-2020 4955.01 4258.13 80.43 2.00 279.26 2633.27
   16:14:42.917.06-Aug-2020 4955.01 4258.08 80.43 2.00 279.46 2633.27
   16:14:43.117.06-Aug-2020 4955.01 4258.06 80.43 2.00 279.66 2633.27
   16:14:43.317.06-Aug-2020 4955.01 4258.07 80.42 2.00 279.86 2633.27
   16:14:43.517.06-Aug-2020 4955.01 4257.69 80.42 2.00 280.06 2633.27
   16:14:43.717.06-Aug-2020 4955.01 4257.69 80.42 2.00 280.26 2633.27
   16:14:43.917.06-Aug-2020 4955.01 4258.04 80.42 2.00 280.46 2633.27
   16:14:44.117.06-Aug-2020 4955.01 4258.10 80.42 2.00 280.66 2633.27
   16:14:44.317.06-Aug-2020 4955.01 4258.08 80.42 2.00 280.86 2633.27
   16:14:44.517.06-Aug-2020 4955.01 4258.11 80.42 2.00 281.06 2633.27
   16:14:44.717.06-Aug-2020 4955.01 4258.11 80.42 2.00 281.26 2633.27
   16:14:44.917.06-Aug-2020 4955.01 4258.13 80.42 2.00 281.46 2633.27
   16:14:45.117.06-Aug-2020 4955.01 4258.11 80.42 2.00 281.66 2633.27
   16:14:45.317.06-Aug-2020 4955.01 4258.16 80.42 2.00 281.86 2633.27
   16:14:45.518.06-Aug-2020 4955.01 4258.09 80.42 2.00 282.06 2633.27
   16:14:45.718.06-Aug-2020 4955.01 4258.14 80.42 2.00 282.26 2633.27
   16:14:45.918.06-Aug-2020 4955.01 4258.08 80.42 2.00 282.46 2633.27
   16:14:46.118.06-Aug-2020 4955.01 4258.07 80.42 2.00 282.66 2633.27
   16:14:46.318.06-Aug-2020 4955.01 4257.72 80.42 2.00 282.86 2633.27
   16:14:46.518.06-Aug-2020 4955.01 4257.89 80.42 2.00 283.06 2633.27
   16:14:46.718.06-Aug-2020 4955.01 4257.89 80.42 2.00 283.26 2633.27
   16:14:46.918.06-Aug-2020 4955.01 4258.08 80.42 2.00 283.46 2633.27
   16:14:47.118.06-Aug-2020 4955.01 4258.06 80.42 2.00 283.66 2633.27
   16:14:47.318.06-Aug-2020 4955.01 4258.11 80.42 2.00 283.86 2633.27
   16:14:47.518.06-Aug-2020 4955.01 4257.83 80.42 2.00 284.06 2633.27
   16:14:47.718.06-Aug-2020 4955.01 4257.83 80.42 2.00 284.26 2633.27
   16:14:47.918.06-Aug-2020 4955.01 4258.10 80.42 2.00 284.46 2633.27
   16:14:48.118.06-Aug-2020 4955.01 4258.00 80.42 2.00 284.66 2633.27
   16:14:48.318.06-Aug-2020 4955.01 4258.03 80.42 2.00 284.86 2633.27
   16:14:48.518.06-Aug-2020 4955.01 4258.04 80.42 2.00 285.06 2633.27
   16:14:48.718.06-Aug-2020 4955.01 4258.04 80.42 2.00 285.26 2633.27
   16:14:48.918.06-Aug-2020 4955.01 4258.13 80.42 2.00 285.46 2633.27
   16:14:49.118.06-Aug-2020 4955.01 4258.18 80.41 2.00 285.66 2633.27
   16:14:49.318.06-Aug-2020 4955.01 4257.87 80.41 2.00 285.86 2633.27
   16:14:49.518.06-Aug-2020 4955.01 4258.15 80.41 2.00 286.06 2633.27
   16:14:49.718.06-Aug-2020 4955.01 4258.15 80.41 2.00 286.26 2633.27
   16:14:49.918.06-Aug-2020 4955.01 4258.26 80.41 2.00 286.46 2633.27
   16:14:50.119.06-Aug-2020 4955.01 4258.24 80.41 2.00 286.66 2633.27
   16:14:50.319.06-Aug-2020 4955.01 4258.33 80.41 2.00 286.86 2633.27
   16:14:50.519.06-Aug-2020 4955.01 4258.29 80.41 2.00 287.06 2633.27
   16:14:50.719.06-Aug-2020 4955.01 4258.29 80.41 2.00 287.26 2633.27
   16:14:50.919.06-Aug-2020 4955.01 4258.27 80.41 2.00 287.46 2633.27
   16:14:51.119.06-Aug-2020 4955.01 4258.31 80.41 2.00 287.66 2633.27
   16:14:51.319.06-Aug-2020 4955.01 4258.30 80.41 2.00 287.86 2633.27
   16:14:51.519.06-Aug-2020 4955.01 4258.30 80.41 2.00 288.06 2633.27
   16:14:51.719.06-Aug-2020 4955.01 4258.30 80.41 2.00 288.26 2633.27
   16:14:51.919.06-Aug-2020 4955.01 4257.94 80.41 2.00 288.46 2633.27
   16:14:52.119.06-Aug-2020 4955.01 4258.24 80.41 2.00 288.66 2633.27
   16:14:52.319.06-Aug-2020 4955.01 4258.27 80.41 2.00 288.86 2633.27
   16:14:52.519.06-Aug-2020 4955.01 4258.29 80.41 2.00 289.06 2633.27
   16:14:52.719.06-Aug-2020 4955.01 4258.29 80.41 2.00 289.26 2633.27
   16:14:52.919.06-Aug-2020 4955.01 4258.30 80.41 2.00 289.46 2633.27
   16:14:53.119.06-Aug-2020 4955.01 4258.29 80.41 2.00 289.66 2633.27
   16:14:53.319.06-Aug-2020 4955.01 4258.31 80.41 2.00 289.86 2633.27
   16:14:53.519.06-Aug-2020 4955.01 4258.28 80.41 2.00 290.06 2633.27
   16:14:53.719.06-Aug-2020 4955.01 4258.29 80.41 2.00 290.26 2633.27
   16:14:53.919.06-Aug-2020 4955.01 4258.28 80.41 2.00 290.46 2633.27
   16:14:54.119.06-Aug-2020 4955.01 4258.30 80.41 2.00 290.66 2633.27
   16:14:54.319.06-Aug-2020 4955.01 4258.25 80.41 2.00 290.86 2633.27
   16:14:54.519.06-Aug-2020 4955.01 4258.27 80.41 2.00 291.06 2633.27
   16:14:54.720.06-Aug-2020 4955.01 4258.27 80.41 2.00 291.26 2633.27
   16:14:54.920.06-Aug-2020 4955.01 4258.17 80.41 2.00 291.46 2633.27
   16:14:55.120.06-Aug-2020 4955.01 4258.22 80.41 2.00 291.66 2633.27
   16:14:55.320.06-Aug-2020 4955.01 4258.28 80.40 2.00 291.86 2633.27
   16:14:55.520.06-Aug-2020 4955.01 4258.24 80.40 2.00 292.06 2633.27
   16:14:55.720.06-Aug-2020 4955.01 4258.24 80.40 2.00 292.26 2633.27
   16:14:55.920.06-Aug-2020 4955.01 4257.90 80.40 2.00 292.46 2633.27
   16:14:56.120.06-Aug-2020 4955.01 4258.29 80.40 2.00 292.66 2633.27
   16:14:56.320.06-Aug-2020 4955.01 4258.28 80.40 2.00 292.86 2633.27
   16:14:56.520.06-Aug-2020 4955.01 4258.23 80.40 2.00 293.06 2633.27
   16:14:56.720.06-Aug-2020 4955.01 4258.23 80.40 2.00 293.26 2633.27
   16:14:56.920.06-Aug-2020 4955.01 4258.18 80.40 2.00 293.46 2633.27
   16:14:57.120.06-Aug-2020 4955.01 4258.28 80.40 2.00 293.66 2633.27
   16:14:57.320.06-Aug-2020 4955.01 4258.30 80.40 2.00 293.86 2633.27
   16:14:57.520.06-Aug-2020 4955.01 4258.35 80.40 2.00 294.06 2633.27
   16:14:57.720.06-Aug-2020 4955.01 4258.24 80.40 2.00 294.26 2633.27
   16:14:57.920.06-Aug-2020 4955.01 4258.26 80.40 2.00 294.46 2633.27
   16:14:58.120.06-Aug-2020 4955.01 4258.31 80.40 2.00 294.66 2633.27
   16:14:58.320.06-Aug-2020 4955.01 4258.42 80.40 2.00 294.86 2633.27
   16:14:58.520.06-Aug-2020 4955.01 4258.44 80.40 2.00 295.06 2633.27
   16:14:58.720.06-Aug-2020 4955.01 4258.44 80.40 2.00 295.26 2633.27
   16:14:58.920.06-Aug-2020 4955.01 4258.47 80.40 2.00 295.46 2633.27
   16:14:59.120.06-Aug-2020 4955.01 4258.49 80.40 2.00 295.66 2633.27
   16:14:59.320.06-Aug-2020 4955.01 4258.46 80.40 2.00 295.86 2633.27
   16:14:59.521.06-Aug-2020 4955.01 4258.46 80.40 2.00 296.06 2633.27
   16:14:59.721.06-Aug-2020 4955.01 4258.46 80.40 2.00 296.26 2633.27
   16:14:59.921.06-Aug-2020 4955.01 4258.47 80.40 2.00 296.46 2633.27
   16:15:00.121.06-Aug-2020 4955.01 4258.38 80.40 2.00 296.66 2633.27
   16:15:00.321.06-Aug-2020 4955.01 4258.30 80.40 2.00 296.86 2633.27
   16:15:00.521.06-Aug-2020 4955.01 4258.14 80.40 2.00 297.06 2633.27
   16:15:00.721.06-Aug-2020 4955.01 4258.14 80.40 2.00 297.26 2633.27
   16:15:00.921.06-Aug-2020 4955.01 4258.35 80.40 2.00 297.46 2633.27
   16:15:01.121.06-Aug-2020 4955.01 4258.44 80.40 2.00 297.66 2633.27
   16:15:01.321.06-Aug-2020 4955.01 4258.42 80.39 2.00 297.86 2633.27
   16:15:01.521.06-Aug-2020 4955.01 4258.44 80.39 2.00 298.06 2633.27
   16:15:01.721.06-Aug-2020 4955.01 4258.44 80.39 2.00 298.26 2633.27
   16:15:01.921.06-Aug-2020 4955.01 4258.45 80.39 2.00 298.46 2633.27
   16:15:02.121.06-Aug-2020 4955.01 4258.47 80.39 2.00 298.66 2633.27
   16:15:02.321.06-Aug-2020 4955.01 4258.44 80.39 2.00 298.86 2633.27
