~Version Information
 VERS.                  2.0:   CWLS log ASCII Standard -VERSION 2.0
 WRAP.                   NO:   One line per depth step
~Well Information Block
#MNEM.UNIT     VALUE/NAME     DESCRIPTION
#---------     -----------    ---------------------------
 STRT.S             14:58:59 06-Aug-20: START TIME 14:58:59 06-Aug-20
 STOP.S             15:06:43 06-Aug-20: STOP TIME  15:06:43 06-Aug-20
 STEP.S                   0.00: STEP TIME
 NULL.                 -999.25: NULL VALUE
 DFWT.                        :  DIST FWL TEXT
 DFST.                        :  DIST FSL TEXT
 DMF .             Drill Floor:  DRILL MEAS FROM
 STIM.      12.00.00 03-Jul-20:  START TIME
 DATE.      00.50.00 09-Aug-20:  END TIME
 SPUD.               03-Jul-20:  SPUD DATE
 NREF.                    Grid:  NORTH REFERENCE
 HPTY.       Minimum Curvature:  HOLE POS TYPE
 DMOD.             Drill Model:  DRILL MOD DESC
 SVYD.                  Survey:  SURVEY DESC
 ILTD.               Lithology:  INTERP LTH DESC
 FTOP.          Formation Tops:  FORM TOPS DESC
 PDAT.          Mean Sea Level:  PERMANENT DATUM
 FLD .                     ACG:  FIELD NAME
 CTRY.              Azerbaijan:  COUNTRY NAME
 WELL.                    E04x:  WELL NAME
 SRVC.          Turan Drilling:  CONTRACTOR
 COMP.     BP Exploration (Caspian Sea) Ltd.:  COMPANY
 SON .        AZ-XX-0906531346:  JOB NUMBER
 WTYP.                Deviated:  WELL TYPE
 MDS .        Operator Entered:  MAG DATA SOURCE
 UWI .                     N/A:  UNIQUE WELL IDENTIFIER
 API .                     N/A:  API NUMBER
 BASE.              Azerbaijan:  LOGGING EQUIPMENT BASE LOCATION
 REGN.                   EESSA:  REGION
 PROV.                    Baku:  PROVINCE
 STAT.                    Baku:  STATE NAME
 MWDS.                    Baku:  MWD SHOP
 JOBN.        AZ-XX-0906531346:  JOB TICKET NUMB
 RIG .                     DWG:  RIG NAME
 DOE .                     N/A:  DOE NUMBER
 DCON.         Sperry Drilling:  DIRECTNL CONTR
 UNIT.                     N/A:  LOGGING EQUIPMENT ID
 CNTY.                        :  COUNTY
 LOC .                        :  LOCATION
 LMF .             Drill Floor:  LOG MEASURED FROM
 TVDS.m                  43.16:  TVDSS CORRECTN
 LATI.deg                40.17:  LATITUDE
 LONG.deg                51.17:  LONGITUDE
 WHNS.m                  -0.12:  WELL HEAD N/S
 WHEW.m                  -5.41:  WELL HEAD E/W
 UTMX.m              514337.95:  UTM X
 UTMY.m             4448627.46:  UTM Y
 DFWL.m                   0.00:  DISTANCE FWL
 DFSL.m                   0.00:  DISTANCE FSL
 SDEP.m                3088.01:  START DEPTH
 TDD .m                5200.01:  TOTAL DEPTH (DRILLER)
 VSDR.deg               244.51:  VERT SEC DIRECT
 GVFD.g                   1.00:  GRAVITY FIELD
 MFLD.nT              50329.80:  MAGNETIC FIELD
 MDIP.deg                59.63:  MAGNETIC DIP
 MDEC.deg                 6.59:  MAGNETIC DECL
 GRDC.deg                 0.09:  GRID CORRECTION
 AZTC.deg                 6.50:  AZM TOTAL CORR
 EPD .m                   0.00:  ELEVATION
 EGL .m                   0.00:  GROUND ELEVATION
 WDMS.m                 176.20:  WD ELEV
 APD .m                  43.16:  DEPTH ABOVE PD
 DEP .m                3084.71:  DEPTH
 AGAP.m                  43.16:  AIR GAP
 VSEW.m                  -5.41:  VERT SEC E/W
 VSNS.m                  -0.12:  VERT SEC N/S
 EKB .m                   0.00:  KB ELEVATION
 EDF .m                  43.16:  DF ELEVATION
 TDL .m                 243.00:  TOTAL DEPTH (LOGGER)
 VSC .                       0:  VS TO CLOSURE
 MAGU.                 1853542:  MAGUTM CHECKSUM
~Parameter Information Block
#MNEM.UNIT       Value        Description
#---------     -----------    ---------------------------
 AV  .mps                 1.91:  Ann Velocity 
 AVMX.mps                 2.52:  Max Ann Veloc 
 AZIF.deg               308.97:  Azm, Final 
 BHAT.        Rotary Steerable:  BHA Type 
 BROT.°/30m               1.00:  Build Rotating 
 BS  .in                  6.50:  Bit Size 
 BSZ .in                  6.50:  Bit Size 
 BTPL.psig              350.00:  Bit Press Loss 
 CABU.                      No:  Customer Abuse 
 CGEO.           Asif Pashayev:  Customer Geo 
 COMM.                     ”›T:  Run Comments 1 
 TCS .hr                 35.86:  Time Ciculation Ended 
 CV  .mps                 2.31:  Crit Velocity 
 CVMX.mps                 2.31:  Max Crit Veloc 
 DD1 .         Intigam Rahimov:  Direct Drillr 1 
 DDSV.               Geo-Pilot:  DD Service 
 DEFF.%                  92.00:  % Det Eff 
 DLRX.°/30m               1.00:  Dogleg Rot Max 
 DLSO.°/30m               1.00:  Dogleg Oriented 
 DLSX.°/30m               1.42:  Dogleg Str Max 
 DRET.      15.50.00 07-Aug-20:  Drill End Time 
 DRST.      10.40.00 06-Aug-20:  Drill Start Tim 
 DTIM.hr                 21.30:  Time Drilling 
 EDEP.m                5200.01:  End Depth 
 ENG1.            Alan Tuganov:  Engineer 1 
 ENG2.         Almaz Almadatov:  Engineer 2 
 ENG3.     Zammelal Abdullah Sani:  Engineer 3 
 ETIM.      22.42.00 08-Aug-20:  End Time 
 FLOI.gpm               395.00:  Flow In 
 FLON.gpm               350.00:  Flow In Min 
 FLOS.cptm                0.00:  Fluid Loss 
 FLOX.gpm               404.00:  Flow In Max 
 FTRO.       Formation Presure:  FTWD Run Obj 
 HFLO.                      No:  High Flow 
 HPRE.                      No:  High Pressure 
 HTEM.                      No:  High Temp 
 HYDO.m                   1.80:  Hydro Offset 
 IFIN.deg                72.64:  Inc, Final 
 IMAX.deg                73.68:  Inc Max 
 IMIN.deg                72.64:  Inc Min 
 IMND.m                5189.69:  Inc Min Depth 
 IMXD.m                5067.88:  Inc Max Depth 
 JARR.                      No:  Jarring 
 LETM.      15.50.00 07-Aug-20:  Log End Time 
 LOST.hr                     0:  Lost Rig Time 
 LSTM.      10.40.00 06-Aug-20:  Log Start Time 
 MDCL.ppm             36000.00:  Mud Chlorides 
 MDES.     Inversion Oil/Synthetic:  Mud Desc 
 DFD .sg                  1.36:  Mud Density 
 MDMN.sg                  1.36:  Dens Mud Min 
 MDMX.sg                  1.36:  Dens Mud Max 
 MOIL.                      70:  Run Mud Oil % 
 MOWR.                   70:30:  Run Mud OWR 
 MSND.                    0.00:  Run Mud Sand % 
 MSOL.                   17.60:  Run Mud Solids% 
 DFV .spqt               73.00:  Mud Viscosity 
 MWOD.in                  4.75:  MWD Tool OD 
 MWSI.                      No:  Serv Intrp, MWD 
 OTIM.hr                 85.66:  Time Operating 
 PCON.           Look Like New:  Pad Condition 
 PMAX.psia             6250.00:  Press Op, Max 
 PV  .cP                 65.00:  Mud PV 
 RUN .                     900:  Run Number 
 ROPA.m/hr               11.40:  ROP Avg 
 ROPN.m/hr                5.00:  ROP Min 
 ROPX.m/hr               20.00:  ROP Max 
 RPMA.rpm               130.00:  RPM Surface Avg 
 RPMN.rpm                40.00:  RPM Surface Min 
 RPMX.rpm               140.00:  RPM Surface Max 
 RRUN.                    L205:  Rig Run Number 
 RTIM.hr                  1.00:  Time Reaming 
 SAZI.deg               313.52:  Azm, Start 
 SDEP.m                4957.01:  Start Depth 
 SIDD.                      No:  Serv Intrp, DD 
 SINC.deg                73.16:  Inc, Start 
 SPPA.psig             5657.00:  SPP Avg 
 SPPN.psig             2500.00:  SPP Min 
 SPPX.psig             5806.00:  SPP Max 
 STIM.      07.12.00 05-Aug-20:  Start Time 
 SVCS.                 DD, MWD:  Services 
 SVER.                    9.20:  Sperry Version 
 TDAT.m                 243.00:  Tot Depth Attmp 
 TDDF.                      No:  Trip for DD 
 TDLG.m                 243.00:  Tot Depth Loggd 
 TFF .                      No:  Trip for Fail 
 TQAA.f-kp               13.00:  Torque Abs Avg 
 TQAN.f-kp               11.00:  Torque Abs Min 
 TQAX.f-kp               16.00:  Torque Abs Max 
 TRRT.°/30m               1.00:  Turn Rotating 
 MRT .                    HCIM:  Maximum Recorded Temperature 
 TTMX.degC               96.08:  Max Tool Temp 
 VS01.                90515411:  Virtual Str1 SN 
 VS02.                90512716:  Virtual Str2 SN 
 VS03.                90522362:  Virtual Str3 SN 
 VS04.                90619415:  Virtual Str4 SN 
 VS05.                90619414:  Virtual Str5 SN 
 VS06.                90597748:  Virtual Str6 SN 
 WBMN.klb                 2.00:  WOB Min 
 WITN.           Adil Mammadov:  Customer Rep 
 WITN.     Alexander Yadullayev:  Customer Rep 2 
 WOBA.klb                 7.00:  WOB Avg 
 WOBX.klb                23.00:  WOB Max 
 YP  .lhf2               37.00:  Yield Point 
~Curve Information Block
#MNEM.UNIT                 API CODE     Curve Description
#---------               -----------    ---------------------------
 TIME.HHMMSS            00 000 000 000:  GT Time & Date
 GTDEPTH.m              00 000 000 000:  GT Depth
 GTPQH.psia             00 000 000 000:  GT HR Quartz Pressure
 GTTQ.degC              00 000 000 000:  GT Quartz Temperature
 GTTN.NONE              00 000 000 000:  GT Test Number
 GTET.sec               00 000 000 000:  GT Elapsed Test Time
 GTTVD.m                00 000 000 000:  GT True Vertical Depth
#Other Information
#
#WARRANTY: Halliburton will use its best efforts to furnish customers with 
#accurate information and interpretations that are part of, and incident to, the services 
#provided.  However, Halliburton cannot and does not warrant the accuracy 
#or correctness of such information and interpretations.  Under no circumstances should any 
#such information or interpretation be relied upon as the sole basis for any drilling, 
#completion, production, or financial decision or any procedure involving any risk to the 
#safety of any drilling venture, drilling rig or its crew or any other third party.  The 
#Customer has full responsibility for all drilling, completion and production operation.  
#Halliburton makes no representations or warranties, either expressed or 
#implied, including, but not limited to, the implied warranties of merchantability or fitness 
#for a particular purpose, with respect to the services rendered.  In no event will 
#Halliburton be liable for failure to obtain any particular results or for 
#any damages, including, but not limited to, indirect, special or consequential damages, 
#resulting from the use of any information or interpretation provided by Halliburton.
#
~A           TIME           GTDEPTH  GTPQH  GTTQ  GTTN  GTET   GTTVD  
# ...
   15:00:08.561.06-Aug-2020 4947.01 5724.31 78.59 1.00  69.01 2630.94
   15:00:08.761.06-Aug-2020 4947.01 5724.31 78.59 1.00  69.21 2630.94
   15:00:08.961.06-Aug-2020 4947.01 5720.14 78.58 1.00  69.41 2630.94
   15:00:09.161.06-Aug-2020 4947.01 5722.58 78.58 1.00  69.61 2630.94
   15:00:09.361.06-Aug-2020 4947.01 5724.40 78.58 1.00  69.81 2630.94
   15:00:09.561.06-Aug-2020 4947.01 5724.10 78.58 1.00  70.01 2630.94
   15:00:09.761.06-Aug-2020 4947.01 5724.10 78.58 1.00  70.22 2630.94
   15:00:09.961.06-Aug-2020 4947.01 5725.46 78.58 1.00  70.42 2630.94
   15:00:10.161.06-Aug-2020 4947.01 5726.17 78.58 1.00  70.62 2630.94
   15:00:10.361.06-Aug-2020 4947.01 5725.40 78.58 1.00  70.82 2630.94
   15:00:10.561.06-Aug-2020 4947.01 5726.17 78.58 1.00  71.02 2630.94
   15:00:10.761.06-Aug-2020 4947.01 5726.17 78.58 1.00  71.22 2630.94
   15:00:10.961.06-Aug-2020 4947.01 5725.08 78.58 1.00  71.42 2630.94
   15:00:11.161.06-Aug-2020 4947.01 5723.88 78.58 1.00  71.62 2630.94
   15:00:11.361.06-Aug-2020 4947.01 5724.03 78.58 1.00  71.82 2630.94
   15:00:11.562.06-Aug-2020 4947.01 5718.07 78.58 1.00  72.02 2630.94
   15:00:11.762.06-Aug-2020 4947.01 5718.07 78.58 1.00  72.22 2630.94
   15:00:11.962.06-Aug-2020 4947.01 5721.41 78.58 1.00  72.42 2630.94
   15:00:12.162.06-Aug-2020 4947.01 5722.70 78.58 1.00  72.62 2630.94
   15:00:12.362.06-Aug-2020 4947.01 5716.15 78.58 1.00  72.82 2630.94
   15:00:12.562.06-Aug-2020 4947.01 5720.94 78.58 1.00  73.02 2630.94
   15:00:12.762.06-Aug-2020 4947.01 5720.94 78.58 1.00  73.22 2630.94
   15:00:12.962.06-Aug-2020 4947.01 5724.78 78.58 1.00  73.42 2630.94
   15:00:13.162.06-Aug-2020 4947.01 5725.58 78.58 1.00  73.62 2630.94
   15:00:13.362.06-Aug-2020 4947.01 5725.36 78.58 1.00  73.82 2630.94
   15:00:13.562.06-Aug-2020 4947.01 5718.28 78.58 1.00  74.02 2630.94
   15:00:13.762.06-Aug-2020 4947.01 5718.28 78.58 1.00  74.22 2630.94
   15:00:13.962.06-Aug-2020 4947.01 5724.57 78.58 1.00  74.42 2630.94
   15:00:14.162.06-Aug-2020 4947.01 5724.63 78.58 1.00  74.62 2630.94
   15:00:14.362.06-Aug-2020 4947.01 5718.80 78.58 1.00  74.82 2630.94
   15:00:14.562.06-Aug-2020 4947.01 5721.48 78.58 1.00  75.02 2630.94
   15:00:14.762.06-Aug-2020 4947.01 5721.48 78.58 1.00  75.22 2630.94
   15:00:14.962.06-Aug-2020 4947.01 5724.35 78.58 1.00  75.42 2630.94
   15:00:15.162.06-Aug-2020 4947.01 5725.41 78.57 1.00  75.62 2630.94
   15:00:15.362.06-Aug-2020 4947.01 5725.96 78.57 1.00  75.82 2630.94
   15:00:15.562.06-Aug-2020 4947.01 5727.25 78.57 1.00  76.02 2630.94
   15:00:15.762.06-Aug-2020 4947.01 5727.25 78.57 1.00  76.22 2630.94
   15:00:15.962.06-Aug-2020 4947.01 5727.51 78.57 1.00  76.42 2630.94
   15:00:16.162.06-Aug-2020 4947.01 5727.69 78.57 1.00  76.62 2630.94
   15:00:16.363.06-Aug-2020 4947.01 5728.08 78.57 1.00  76.82 2630.94
   15:00:16.563.06-Aug-2020 4947.01 5727.23 78.57 1.00  77.02 2630.94
   15:00:16.763.06-Aug-2020 4947.01 5727.23 78.57 1.00  77.22 2630.94
   15:00:16.963.06-Aug-2020 4947.01 5720.90 78.57 1.00  77.42 2630.94
   15:00:17.163.06-Aug-2020 4947.01 5720.29 78.57 1.00  77.62 2630.94
   15:00:17.363.06-Aug-2020 4947.01 5724.28 78.57 1.00  77.82 2630.94
   15:00:17.563.06-Aug-2020 4947.01 5725.99 78.57 1.00  78.02 2630.94
   15:00:17.763.06-Aug-2020 4947.01 5725.99 78.57 1.00  78.22 2630.94
   15:00:17.963.06-Aug-2020 4947.01 5726.01 78.57 1.00  78.42 2630.94
   15:00:18.163.06-Aug-2020 4947.01 5726.87 78.57 1.00  78.62 2630.94
   15:00:18.363.06-Aug-2020 4947.01 5726.28 78.57 1.00  78.82 2630.94
   15:00:18.563.06-Aug-2020 4947.01 5726.58 78.57 1.00  79.02 2630.94
   15:00:18.763.06-Aug-2020 4947.01 5726.58 78.57 1.00  79.22 2630.94
   15:00:18.963.06-Aug-2020 4947.01 5726.77 78.57 1.00  79.42 2630.94
   15:00:19.163.06-Aug-2020 4947.01 5726.00 78.57 1.00  79.62 2630.94
   15:00:19.363.06-Aug-2020 4947.01 5726.31 78.57 1.00  79.82 2630.94
   15:00:19.563.06-Aug-2020 4947.01 5725.27 78.57 1.00  80.02 2630.94
   15:00:19.763.06-Aug-2020 4947.01 5725.27 78.57 1.00  80.22 2630.94
   15:00:19.963.06-Aug-2020 4947.01 5720.82 78.57 1.00  80.42 2630.94
   15:00:20.163.06-Aug-2020 4947.01 5724.22 78.57 1.00  80.62 2630.94
   15:00:20.363.06-Aug-2020 4947.01 5724.19 78.57 1.00  80.82 2630.94
   15:00:20.563.06-Aug-2020 4947.01 5721.45 78.57 1.00  81.02 2630.94
   15:00:20.763.06-Aug-2020 4947.01 5721.45 78.57 1.00  81.22 2630.94
   15:00:20.964.06-Aug-2020 4947.01 5724.34 78.57 1.00  81.42 2630.94
   15:00:21.164.06-Aug-2020 4947.01 5725.11 78.57 1.00  81.62 2630.94
   15:00:21.364.06-Aug-2020 4947.01 5726.32 78.57 1.00  81.82 2630.94
   15:00:21.564.06-Aug-2020 4947.01 5726.21 78.57 1.00  82.02 2630.94
   15:00:21.764.06-Aug-2020 4947.01 5726.21 78.57 1.00  82.22 2630.94
   15:00:21.964.06-Aug-2020 4947.01 5721.70 78.56 1.00  82.42 2630.94
   15:00:22.164.06-Aug-2020 4947.01 5724.82 78.56 1.00  82.62 2630.94
   15:00:22.364.06-Aug-2020 4947.01 5725.81 78.56 1.00  82.82 2630.94
   15:00:22.564.06-Aug-2020 4947.01 5726.28 78.56 1.00  83.02 2630.94
   15:00:22.764.06-Aug-2020 4947.01 5726.28 78.56 1.00  83.22 2630.94
   15:00:22.964.06-Aug-2020 4947.01 5726.55 78.56 1.00  83.42 2630.94
   15:00:23.164.06-Aug-2020 4947.01 5719.59 78.56 1.00  83.62 2630.94
   15:00:23.364.06-Aug-2020 4947.01 5723.02 78.56 1.00  83.82 2630.94
   15:00:23.564.06-Aug-2020 4947.01 5726.43 78.56 1.00  84.02 2630.94
   15:00:23.764.06-Aug-2020 4947.01 5726.43 78.56 1.00  84.22 2630.94
   15:00:23.964.06-Aug-2020 4947.01 5728.17 78.56 1.00  84.42 2630.94
   15:00:24.164.06-Aug-2020 4947.01 5727.46 78.56 1.00  84.62 2630.94
   15:00:24.364.06-Aug-2020 4947.01 5728.59 78.56 1.00  84.82 2630.94
   15:00:24.564.06-Aug-2020 4947.01 5728.35 78.56 1.00  85.02 2630.94
   15:00:24.764.06-Aug-2020 4947.01 5728.35 78.56 1.00  85.22 2630.94
   15:00:24.964.06-Aug-2020 4947.01 5728.01 78.56 1.00  85.42 2630.94
   15:00:25.164.06-Aug-2020 4947.01 5728.15 78.56 1.00  85.62 2630.94
   15:00:25.364.06-Aug-2020 4947.01 5726.94 78.56 1.00  85.82 2630.94
   15:00:25.565.06-Aug-2020 4947.01 5727.92 78.56 1.00  86.02 2630.94
   15:00:25.765.06-Aug-2020 4947.01 5727.92 78.56 1.00  86.22 2630.94
   15:00:25.965.06-Aug-2020 4947.01 5723.38 78.56 1.00  86.42 2630.94
   15:00:26.165.06-Aug-2020 4947.01 5725.78 78.56 1.00  86.62 2630.94
   15:00:26.365.06-Aug-2020 4947.01 5727.18 78.56 1.00  86.82 2630.94
   15:00:26.565.06-Aug-2020 4947.01 5726.70 78.56 1.00  87.02 2630.94
   15:00:26.765.06-Aug-2020 4947.01 5726.70 78.56 1.00  87.22 2630.94
   15:00:26.965.06-Aug-2020 4947.01 5727.85 78.56 1.00  87.42 2630.94
   15:00:27.165.06-Aug-2020 4947.01 5728.21 78.56 1.00  87.62 2630.94
   15:00:27.365.06-Aug-2020 4947.01 5728.27 78.56 1.00  87.82 2630.94
   15:00:27.565.06-Aug-2020 4947.01 5728.04 78.56 1.00  88.02 2630.94
   15:00:27.765.06-Aug-2020 4947.01 5728.04 78.56 1.00  88.22 2630.94
   15:00:27.965.06-Aug-2020 4947.01 5726.85 78.56 1.00  88.42 2630.94
   15:00:28.165.06-Aug-2020 4947.01 5726.73 78.56 1.00  88.62 2630.94
   15:00:28.365.06-Aug-2020 4947.01 5726.02 78.55 1.00  88.82 2630.94
   15:00:28.565.06-Aug-2020 4947.01 5718.68 78.55 1.00  89.02 2630.94
   15:00:28.765.06-Aug-2020 4947.01 5718.68 78.55 1.00  89.22 2630.94
   15:00:28.965.06-Aug-2020 4947.01 5725.24 78.55 1.00  89.42 2630.94
   15:00:29.165.06-Aug-2020 4947.01 5725.33 78.55 1.00  89.62 2630.94
   15:00:29.365.06-Aug-2020 4947.01 5719.78 78.55 1.00  89.82 2630.94
   15:00:29.565.06-Aug-2020 4947.01 5722.33 78.55 1.00  90.02 2630.94
   15:00:29.765.06-Aug-2020 4947.01 5722.33 78.55 1.00  90.22 2630.94
   15:00:29.965.06-Aug-2020 4947.01 5726.74 78.55 1.00  90.42 2630.94
   15:00:30.165.06-Aug-2020 4947.01 5727.89 78.55 1.00  90.62 2630.94
   15:00:30.366.06-Aug-2020 4947.01 5727.51 78.55 1.00  90.82 2630.94
   15:00:30.566.06-Aug-2020 4947.01 5727.63 78.55 1.00  91.02 2630.94
   15:00:30.766.06-Aug-2020 4947.01 5727.63 78.55 1.00  91.22 2630.94
   15:00:30.966.06-Aug-2020 4947.01 5724.20 78.55 1.00  91.42 2630.94
   15:00:31.166.06-Aug-2020 4947.01 5725.85 78.55 1.00  91.62 2630.94
   15:00:31.366.06-Aug-2020 4947.01 5726.76 78.55 1.00  91.82 2630.94
