~Version Information
 VERS.                  2.0:   CWLS log ASCII Standard -VERSION 2.0
 WRAP.                   NO:   One line per depth step
~Well Information Block
#MNEM.UNIT     VALUE/NAME     DESCRIPTION
#---------     -----------    ---------------------------
 STRT.S             09:21:48 07-Aug-20: START TIME 09:21:48 07-Aug-20
 STOP.S             09:29:41 07-Aug-20: STOP TIME  09:29:41 07-Aug-20
 STEP.S                   0.00: STEP TIME
 NULL.                 -999.25: NULL VALUE
 DFWT.                        :  DIST FWL TEXT
 DFST.                        :  DIST FSL TEXT
 DMF .             Drill Floor:  DRILL MEAS FROM
 STIM.      12.00.00 03-Jul-20:  START TIME
 DATE.      00.50.00 09-Aug-20:  END TIME
 SPUD.               03-Jul-20:  SPUD DATE
 NREF.                    Grid:  NORTH REFERENCE
 HPTY.       Minimum Curvature:  HOLE POS TYPE
 DMOD.             Drill Model:  DRILL MOD DESC
 SVYD.                  Survey:  SURVEY DESC
 ILTD.               Lithology:  INTERP LTH DESC
 FTOP.          Formation Tops:  FORM TOPS DESC
 PDAT.          Mean Sea Level:  PERMANENT DATUM
 FLD .                     ACG:  FIELD NAME
 CTRY.              Azerbaijan:  COUNTRY NAME
 WELL.                    E04x:  WELL NAME
 SRVC.          Turan Drilling:  CONTRACTOR
 COMP.     BP Exploration (Caspian Sea) Ltd.:  COMPANY
 SON .        AZ-XX-0906531346:  JOB NUMBER
 WTYP.                Deviated:  WELL TYPE
 MDS .        Operator Entered:  MAG DATA SOURCE
 UWI .                     N/A:  UNIQUE WELL IDENTIFIER
 API .                     N/A:  API NUMBER
 BASE.              Azerbaijan:  LOGGING EQUIPMENT BASE LOCATION
 REGN.                   EESSA:  REGION
 PROV.                    Baku:  PROVINCE
 STAT.                    Baku:  STATE NAME
 MWDS.                    Baku:  MWD SHOP
 JOBN.        AZ-XX-0906531346:  JOB TICKET NUMB
 RIG .                     DWG:  RIG NAME
 DOE .                     N/A:  DOE NUMBER
 DCON.         Sperry Drilling:  DIRECTNL CONTR
 UNIT.                     N/A:  LOGGING EQUIPMENT ID
 CNTY.                        :  COUNTY
 LOC .                        :  LOCATION
 LMF .             Drill Floor:  LOG MEASURED FROM
 TVDS.m                  43.16:  TVDSS CORRECTN
 LATI.deg                40.17:  LATITUDE
 LONG.deg                51.17:  LONGITUDE
 WHNS.m                  -0.12:  WELL HEAD N/S
 WHEW.m                  -5.41:  WELL HEAD E/W
 UTMX.m              514337.95:  UTM X
 UTMY.m             4448627.46:  UTM Y
 DFWL.m                   0.00:  DISTANCE FWL
 DFSL.m                   0.00:  DISTANCE FSL
 SDEP.m                3088.01:  START DEPTH
 TDD .m                5200.01:  TOTAL DEPTH (DRILLER)
 VSDR.deg               244.51:  VERT SEC DIRECT
 GVFD.g                   1.00:  GRAVITY FIELD
 MFLD.nT              50329.80:  MAGNETIC FIELD
 MDIP.deg                59.63:  MAGNETIC DIP
 MDEC.deg                 6.59:  MAGNETIC DECL
 GRDC.deg                 0.09:  GRID CORRECTION
 AZTC.deg                 6.50:  AZM TOTAL CORR
 EPD .m                   0.00:  ELEVATION
 EGL .m                   0.00:  GROUND ELEVATION
 WDMS.m                 176.20:  WD ELEV
 APD .m                  43.16:  DEPTH ABOVE PD
 DEP .m                3084.71:  DEPTH
 AGAP.m                  43.16:  AIR GAP
 VSEW.m                  -5.41:  VERT SEC E/W
 VSNS.m                  -0.12:  VERT SEC N/S
 EKB .m                   0.00:  KB ELEVATION
 EDF .m                  43.16:  DF ELEVATION
 TDL .m                 243.00:  TOTAL DEPTH (LOGGER)
 VSC .                       0:  VS TO CLOSURE
 MAGU.                 1853542:  MAGUTM CHECKSUM
~Parameter Information Block
#MNEM.UNIT       Value        Description
#---------     -----------    ---------------------------
 AV  .mps                 1.91:  Ann Velocity 
 AVMX.mps                 2.52:  Max Ann Veloc 
 AZIF.deg               308.97:  Azm, Final 
 BHAT.        Rotary Steerable:  BHA Type 
 BROT.∞/30m               1.00:  Build Rotating 
 BS  .in                  6.50:  Bit Size 
 BSZ .in                  6.50:  Bit Size 
 BTPL.psig              350.00:  Bit Press Loss 
 CABU.                      No:  Customer Abuse 
 CGEO.           Asif Pashayev:  Customer Geo 
 COMM.                     ,[Å:  Run Comments 1 
 TCS .hr                 35.86:  Time Ciculation Ended 
 CV  .mps                 2.31:  Crit Velocity 
 CVMX.mps                 2.31:  Max Crit Veloc 
 DD1 .         Intigam Rahimov:  Direct Drillr 1 
 DDSV.               Geo-Pilot:  DD Service 
 DEFF.%                  92.00:  % Det Eff 
 DLRX.∞/30m               1.00:  Dogleg Rot Max 
 DLSO.∞/30m               1.00:  Dogleg Oriented 
 DLSX.∞/30m               1.42:  Dogleg Str Max 
 DRET.      15.50.00 07-Aug-20:  Drill End Time 
 DRST.      10.40.00 06-Aug-20:  Drill Start Tim 
 DTIM.hr                 21.30:  Time Drilling 
 EDEP.m                5200.01:  End Depth 
 ENG1.            Alan Tuganov:  Engineer 1 
 ENG2.         Almaz Almadatov:  Engineer 2 
 ENG3.     Zammelal Abdullah Sani:  Engineer 3 
 ETIM.      22.42.00 08-Aug-20:  End Time 
 FLOI.gpm               395.00:  Flow In 
 FLON.gpm               350.00:  Flow In Min 
 FLOS.cptm                0.00:  Fluid Loss 
 FLOX.gpm               404.00:  Flow In Max 
 FTRO.       Formation Presure:  FTWD Run Obj 
 HFLO.                      No:  High Flow 
 HPRE.                      No:  High Pressure 
 HTEM.                      No:  High Temp 
 HYDO.m                   1.80:  Hydro Offset 
 IFIN.deg                72.64:  Inc, Final 
 IMAX.deg                73.68:  Inc Max 
 IMIN.deg                72.64:  Inc Min 
 IMND.m                5189.69:  Inc Min Depth 
 IMXD.m                5067.88:  Inc Max Depth 
 JARR.                      No:  Jarring 
 LETM.      15.50.00 07-Aug-20:  Log End Time 
 LOST.hr                     0:  Lost Rig Time 
 LSTM.      10.40.00 06-Aug-20:  Log Start Time 
 MDCL.ppm             36000.00:  Mud Chlorides 
 MDES.     Inversion Oil/Synthetic:  Mud Desc 
 DFD .sg                  1.36:  Mud Density 
 MDMN.sg                  1.36:  Dens Mud Min 
 MDMX.sg                  1.36:  Dens Mud Max 
 MOIL.                      70:  Run Mud Oil % 
 MOWR.                   70:30:  Run Mud OWR 
 MSND.                    0.00:  Run Mud Sand % 
 MSOL.                   17.60:  Run Mud Solids% 
 DFV .spqt               73.00:  Mud Viscosity 
 MWOD.in                  4.75:  MWD Tool OD 
 MWSI.                      No:  Serv Intrp, MWD 
 OTIM.hr                 85.66:  Time Operating 
 PCON.           Look Like New:  Pad Condition 
 PMAX.psia             6250.00:  Press Op, Max 
 PV  .cP                 65.00:  Mud PV 
 RUN .                     900:  Run Number 
 ROPA.m/hr               11.40:  ROP Avg 
 ROPN.m/hr                5.00:  ROP Min 
 ROPX.m/hr               20.00:  ROP Max 
 RPMA.rpm               130.00:  RPM Surface Avg 
 RPMN.rpm                40.00:  RPM Surface Min 
 RPMX.rpm               140.00:  RPM Surface Max 
 RRUN.                    L205:  Rig Run Number 
 RTIM.hr                  1.00:  Time Reaming 
 SAZI.deg               313.52:  Azm, Start 
 SDEP.m                4957.01:  Start Depth 
 SIDD.                      No:  Serv Intrp, DD 
 SINC.deg                73.16:  Inc, Start 
 SPPA.psig             5657.00:  SPP Avg 
 SPPN.psig             2500.00:  SPP Min 
 SPPX.psig             5806.00:  SPP Max 
 STIM.      07.12.00 05-Aug-20:  Start Time 
 SVCS.                 DD, MWD:  Services 
 SVER.                    9.20:  Sperry Version 
 TDAT.m                 243.00:  Tot Depth Attmp 
 TDDF.                      No:  Trip for DD 
 TDLG.m                 243.00:  Tot Depth Loggd 
 TFF .                      No:  Trip for Fail 
 TQAA.f-kp               13.00:  Torque Abs Avg 
 TQAN.f-kp               11.00:  Torque Abs Min 
 TQAX.f-kp               16.00:  Torque Abs Max 
 TRRT.∞/30m               1.00:  Turn Rotating 
 MRT .                    HCIM:  Maximum Recorded Temperature 
 TTMX.degC               96.08:  Max Tool Temp 
 VS01.                90515411:  Virtual Str1 SN 
 VS02.                90512716:  Virtual Str2 SN 
 VS03.                90522362:  Virtual Str3 SN 
 VS04.                90619415:  Virtual Str4 SN 
 VS05.                90619414:  Virtual Str5 SN 
 VS06.                90597748:  Virtual Str6 SN 
 WBMN.klb                 2.00:  WOB Min 
 WITN.           Adil Mammadov:  Customer Rep 
 WITN.     Alexander Yadullayev:  Customer Rep 2 
 WOBA.klb                 7.00:  WOB Avg 
 WOBX.klb                23.00:  WOB Max 
 YP  .lhf2               37.00:  Yield Point 
~Curve Information Block
#MNEM.UNIT                 API CODE     Curve Description
#---------               -----------    ---------------------------
 TIME.HHMMSS            00 000 000 000:  GT Time & Date
 GTDEPTH.m              00 000 000 000:  GT Depth
 GTPQH.psia             00 000 000 000:  GT HR Quartz Pressure
 GTTQ.degC              00 000 000 000:  GT Quartz Temperature
 GTTN.NONE              00 000 000 000:  GT Test Number
 GTET.sec               00 000 000 000:  GT Elapsed Test Time
 GTTVD.m                00 000 000 000:  GT True Vertical Depth
#Other Information
#
#WARRANTY: Halliburton will use its best efforts to furnish customers with 
#accurate information and interpretations that are part of, and incident to, the services 
#provided.  However, Halliburton cannot and does not warrant the accuracy 
#or correctness of such information and interpretations.  Under no circumstances should any 
#such information or interpretation be relied upon as the sole basis for any drilling, 
#completion, production, or financial decision or any procedure involving any risk to the 
#safety of any drilling venture, drilling rig or its crew or any other third party.  The 
#Customer has full responsibility for all drilling, completion and production operation.  
#Halliburton makes no representations or warranties, either expressed or 
#implied, including, but not limited to, the implied warranties of merchantability or fitness 
#for a particular purpose, with respect to the services rendered.  In no event will 
#Halliburton be liable for failure to obtain any particular results or for 
#any damages, including, but not limited to, indirect, special or consequential damages, 
#resulting from the use of any information or interpretation provided by Halliburton.
#
~A           TIME           GTDEPTH  GTPQH  GTTQ  GTTN  GTET   GTTVD  
# ...
   09:26:24.492.07-Aug-2020 5109.01 3406.32 86.35 9.00 275.92 2677.54
   09:26:24.691.07-Aug-2020 5109.01 3406.32 86.35 9.00 276.12 2677.54
   09:26:24.891.07-Aug-2020 5109.01 3406.50 86.35 9.00 276.32 2677.54
   09:26:25.091.07-Aug-2020 5109.01 3406.44 86.34 9.00 276.52 2677.54
   09:26:25.291.07-Aug-2020 5109.01 3406.31 86.34 9.00 276.72 2677.54
   09:26:25.491.07-Aug-2020 5109.01 3406.58 86.34 9.00 276.92 2677.54
   09:26:25.691.07-Aug-2020 5109.01 3406.58 86.34 9.00 277.12 2677.54
   09:26:25.891.07-Aug-2020 5109.01 3406.44 86.34 9.00 277.32 2677.54
   09:26:26.091.07-Aug-2020 5109.01 3406.49 86.34 9.00 277.52 2677.54
   09:26:26.291.07-Aug-2020 5109.01 3406.44 86.34 9.00 277.72 2677.54
   09:26:26.491.07-Aug-2020 5109.01 3406.44 86.34 9.00 277.92 2677.54
   09:26:26.691.07-Aug-2020 5109.01 3406.44 86.34 9.00 278.12 2677.54
   09:26:26.891.07-Aug-2020 5109.01 3406.44 86.34 9.00 278.32 2677.54
   09:26:27.091.07-Aug-2020 5109.01 3406.49 86.34 9.00 278.52 2677.54
   09:26:27.291.07-Aug-2020 5109.01 3406.48 86.34 9.00 278.72 2677.54
   09:26:27.491.07-Aug-2020 5109.01 3406.37 86.34 9.00 278.92 2677.54
   09:26:27.691.07-Aug-2020 5109.01 3406.37 86.34 9.00 279.12 2677.54
   09:26:27.890.07-Aug-2020 5109.01 3406.50 86.34 9.00 279.32 2677.54
   09:26:28.090.07-Aug-2020 5109.01 3406.44 86.34 9.00 279.52 2677.54
   09:26:28.290.07-Aug-2020 5109.01 3406.48 86.34 9.00 279.72 2677.54
   09:26:28.490.07-Aug-2020 5109.01 3406.49 86.34 9.00 279.92 2677.54
   09:26:28.690.07-Aug-2020 5109.01 3406.49 86.34 9.00 280.12 2677.54
   09:26:28.890.07-Aug-2020 5109.01 3406.47 86.34 9.00 280.32 2677.54
   09:26:29.090.07-Aug-2020 5109.01 3406.46 86.34 9.00 280.52 2677.54
   09:26:29.290.07-Aug-2020 5109.01 3406.46 86.34 9.00 280.72 2677.54
   09:26:29.490.07-Aug-2020 5109.01 3406.47 86.34 9.00 280.92 2677.54
   09:26:29.690.07-Aug-2020 5109.01 3406.47 86.34 9.00 281.12 2677.54
   09:26:29.890.07-Aug-2020 5109.01 3406.44 86.34 9.00 281.32 2677.54
   09:26:30.090.07-Aug-2020 5109.01 3406.47 86.34 9.00 281.52 2677.54
   09:26:30.290.07-Aug-2020 5109.01 3406.38 86.34 9.00 281.72 2677.54
   09:26:30.490.07-Aug-2020 5109.01 3406.51 86.34 9.00 281.92 2677.54
   09:26:30.690.07-Aug-2020 5109.01 3406.51 86.34 9.00 282.12 2677.54
   09:26:30.890.07-Aug-2020 5109.01 3406.46 86.34 9.00 282.31 2677.54
   09:26:31.090.07-Aug-2020 5109.01 3406.48 86.34 9.00 282.51 2677.54
   09:26:31.289.07-Aug-2020 5109.01 3406.46 86.34 9.00 282.71 2677.54
   09:26:31.489.07-Aug-2020 5109.01 3406.45 86.34 9.00 282.91 2677.54
   09:26:31.689.07-Aug-2020 5109.01 3406.45 86.34 9.00 283.11 2677.54
   09:26:31.889.07-Aug-2020 5109.01 3406.46 86.33 9.00 283.31 2677.54
   09:26:32.089.07-Aug-2020 5109.01 3406.45 86.33 9.00 283.51 2677.54
   09:26:32.289.07-Aug-2020 5109.01 3406.45 86.33 9.00 283.71 2677.54
   09:26:32.489.07-Aug-2020 5109.01 3406.47 86.33 9.00 283.91 2677.54
   09:26:32.689.07-Aug-2020 5109.01 3406.47 86.33 9.00 284.11 2677.54
   09:26:32.889.07-Aug-2020 5109.01 3406.39 86.33 9.00 284.31 2677.54
   09:26:33.089.07-Aug-2020 5109.01 3406.49 86.33 9.00 284.51 2677.54
   09:26:33.289.07-Aug-2020 5109.01 3406.46 86.33 9.00 284.71 2677.54
   09:26:33.489.07-Aug-2020 5109.01 3406.44 86.33 9.00 284.91 2677.54
   09:26:33.689.07-Aug-2020 5109.01 3406.44 86.33 9.00 285.11 2677.54
   09:26:33.889.07-Aug-2020 5109.01 3406.45 86.33 9.00 285.31 2677.54
   09:26:34.089.07-Aug-2020 5109.01 3406.46 86.33 9.00 285.51 2677.54
   09:26:34.289.07-Aug-2020 5109.01 3406.46 86.33 9.00 285.71 2677.54
   09:26:34.489.07-Aug-2020 5109.01 3406.49 86.33 9.00 285.91 2677.54
   09:26:34.688.07-Aug-2020 5109.01 3406.49 86.33 9.00 286.11 2677.54
   09:26:34.888.07-Aug-2020 5109.01 3406.30 86.33 9.00 286.31 2677.54
   09:26:35.088.07-Aug-2020 5109.01 3406.57 86.33 9.00 286.51 2677.54
   09:26:35.288.07-Aug-2020 5109.01 3406.51 86.33 9.00 286.71 2677.54
   09:26:35.488.07-Aug-2020 5109.01 3406.43 86.33 9.00 286.91 2677.54
   09:26:35.688.07-Aug-2020 5109.01 3406.43 86.33 9.00 287.11 2677.54
   09:26:35.888.07-Aug-2020 5109.01 3406.48 86.33 9.00 287.31 2677.54
   09:26:36.088.07-Aug-2020 5109.01 3406.38 86.33 9.00 287.51 2677.54
   09:26:36.288.07-Aug-2020 5109.01 3406.49 86.33 9.00 287.71 2677.54
   09:26:36.488.07-Aug-2020 5109.01 3406.48 86.33 9.00 287.91 2677.54
   09:26:36.688.07-Aug-2020 5109.01 3406.48 86.33 9.00 288.11 2677.54
   09:26:36.888.07-Aug-2020 5109.01 3406.48 86.33 9.00 288.31 2677.54
   09:26:37.088.07-Aug-2020 5109.01 3406.46 86.33 9.00 288.51 2677.54
   09:26:37.288.07-Aug-2020 5109.01 3406.46 86.33 9.00 288.71 2677.54
   09:26:37.488.07-Aug-2020 5109.01 3406.47 86.33 9.00 288.91 2677.54
   09:26:37.688.07-Aug-2020 5109.01 3406.47 86.33 9.00 289.11 2677.54
   09:26:37.887.07-Aug-2020 5109.01 3406.46 86.33 9.00 289.31 2677.54
   09:26:38.087.07-Aug-2020 5109.01 3406.47 86.33 9.00 289.51 2677.54
   09:26:38.287.07-Aug-2020 5109.01 3406.47 86.33 9.00 289.71 2677.54
   09:26:38.487.07-Aug-2020 5109.01 3406.45 86.32 9.00 289.91 2677.54
   09:26:38.687.07-Aug-2020 5109.01 3406.45 86.32 9.00 290.11 2677.54
   09:26:38.887.07-Aug-2020 5109.01 3406.51 86.32 9.00 290.31 2677.54
   09:26:39.087.07-Aug-2020 5109.01 3406.48 86.32 9.00 290.51 2677.54
   09:26:39.287.07-Aug-2020 5109.01 3406.43 86.32 9.00 290.71 2677.54
   09:26:39.487.07-Aug-2020 5109.01 3406.47 86.32 9.00 290.91 2677.54
   09:26:39.687.07-Aug-2020 5109.01 3406.47 86.32 9.00 291.11 2677.54
   09:26:39.887.07-Aug-2020 5109.01 3406.44 86.32 9.00 291.31 2677.54
   09:26:40.087.07-Aug-2020 5109.01 3406.47 86.32 9.00 291.51 2677.54
   09:26:40.287.07-Aug-2020 5109.01 3406.46 86.32 9.00 291.71 2677.54
   09:26:40.487.07-Aug-2020 5109.01 3406.45 86.32 9.00 291.91 2677.54
   09:26:40.687.07-Aug-2020 5109.01 3406.45 86.32 9.00 292.11 2677.54
   09:26:40.887.07-Aug-2020 5109.01 3406.45 86.32 9.00 292.31 2677.54
   09:26:41.087.07-Aug-2020 5109.01 3406.45 86.32 9.00 292.51 2677.54
   09:26:41.286.07-Aug-2020 5109.01 3406.44 86.32 9.00 292.71 2677.54
   09:26:41.486.07-Aug-2020 5109.01 3406.33 86.32 9.00 292.91 2677.54
   09:26:41.686.07-Aug-2020 5109.01 3406.52 86.32 9.00 293.11 2677.54
   09:26:41.886.07-Aug-2020 5109.01 3406.49 86.32 9.00 293.31 2677.54
   09:26:42.086.07-Aug-2020 5109.01 3406.41 86.32 9.00 293.51 2677.54
   09:26:42.286.07-Aug-2020 5109.01 3406.31 86.32 9.00 293.71 2677.54
   09:26:42.486.07-Aug-2020 5109.01 3406.57 86.32 9.00 293.91 2677.54
   09:26:42.686.07-Aug-2020 5109.01 3406.57 86.32 9.00 294.11 2677.54
   09:26:42.886.07-Aug-2020 5109.01 3406.41 86.32 9.00 294.31 2677.54
   09:26:43.086.07-Aug-2020 5109.01 3406.49 86.32 9.00 294.51 2677.54
   09:26:43.286.07-Aug-2020 5109.01 3406.43 86.32 9.00 294.71 2677.54
   09:26:43.486.07-Aug-2020 5109.01 3406.44 86.32 9.00 294.91 2677.54
   09:26:43.686.07-Aug-2020 5109.01 3406.44 86.32 9.00 295.11 2677.54
   09:26:43.886.07-Aug-2020 5109.01 3406.43 86.32 9.00 295.31 2677.54
   09:26:44.086.07-Aug-2020 5109.01 3406.47 86.32 9.00 295.51 2677.54
   09:26:44.286.07-Aug-2020 5109.01 3406.47 86.32 9.00 295.71 2677.54
   09:26:44.485.07-Aug-2020 5109.01 3406.34 86.32 9.00 295.91 2677.54
   09:26:44.685.07-Aug-2020 5109.01 3406.34 86.32 9.00 296.11 2677.54
   09:26:44.885.07-Aug-2020 5109.01 3406.49 86.32 9.00 296.31 2677.54
   09:26:45.085.07-Aug-2020 5109.01 3406.42 86.32 9.00 296.51 2677.54
   09:26:45.285.07-Aug-2020 5109.01 3406.47 86.31 9.00 296.71 2677.54
   09:26:45.485.07-Aug-2020 5109.01 3406.48 86.31 9.00 296.91 2677.54
   09:26:45.685.07-Aug-2020 5109.01 3406.48 86.31 9.00 297.11 2677.54
   09:26:45.885.07-Aug-2020 5109.01 3406.47 86.31 9.00 297.31 2677.54
   09:26:46.085.07-Aug-2020 5109.01 3406.45 86.31 9.00 297.51 2677.54
   09:26:46.285.07-Aug-2020 5109.01 3406.45 86.31 9.00 297.71 2677.54
   09:26:46.485.07-Aug-2020 5109.01 3406.45 86.31 9.00 297.91 2677.54
   09:26:46.685.07-Aug-2020 5109.01 3406.45 86.31 9.00 298.11 2677.54
   09:26:46.885.07-Aug-2020 5109.01 3406.45 86.31 9.00 298.31 2677.54
   09:26:47.085.07-Aug-2020 5109.01 3406.45 86.31 9.00 298.51 2677.54
   09:26:47.285.07-Aug-2020 5109.01 3406.36 86.31 9.00 298.71 2677.54
