~Version Information
 VERS.                  2.0:   CWLS log ASCII Standard -VERSION 2.0
 WRAP.                   NO:   One line per depth step
~Well Information Block
#MNEM.UNIT     VALUE/NAME     DESCRIPTION
#---------     -----------    ---------------------------
 STRT.S             16:10:03 06-Aug-20: START TIME 16:10:03 06-Aug-20
 STOP.S             16:17:57 06-Aug-20: STOP TIME  16:17:57 06-Aug-20
 STEP.S                   0.00: STEP TIME
 NULL.                 -999.25: NULL VALUE
 DFWT.                        :  DIST FWL TEXT
 DFST.                        :  DIST FSL TEXT
 DMF .             Drill Floor:  DRILL MEAS FROM
 STIM.      12.00.00 03-Jul-20:  START TIME
 DATE.      00.50.00 09-Aug-20:  END TIME
 SPUD.               03-Jul-20:  SPUD DATE
 NREF.                    Grid:  NORTH REFERENCE
 HPTY.       Minimum Curvature:  HOLE POS TYPE
 DMOD.             Drill Model:  DRILL MOD DESC
 SVYD.                  Survey:  SURVEY DESC
 ILTD.               Lithology:  INTERP LTH DESC
 FTOP.          Formation Tops:  FORM TOPS DESC
 PDAT.          Mean Sea Level:  PERMANENT DATUM
 FLD .                     ACG:  FIELD NAME
 CTRY.              Azerbaijan:  COUNTRY NAME
 WELL.                    E04x:  WELL NAME
 SRVC.          Turan Drilling:  CONTRACTOR
 COMP.     BP Exploration (Caspian Sea) Ltd.:  COMPANY
 SON .        AZ-XX-0906531346:  JOB NUMBER
 WTYP.                Deviated:  WELL TYPE
 MDS .        Operator Entered:  MAG DATA SOURCE
 UWI .                     N/A:  UNIQUE WELL IDENTIFIER
 API .                     N/A:  API NUMBER
 BASE.              Azerbaijan:  LOGGING EQUIPMENT BASE LOCATION
 REGN.                   EESSA:  REGION
 PROV.                    Baku:  PROVINCE
 STAT.                    Baku:  STATE NAME
 MWDS.                    Baku:  MWD SHOP
 JOBN.        AZ-XX-0906531346:  JOB TICKET NUMB
 RIG .                     DWG:  RIG NAME
 DOE .                     N/A:  DOE NUMBER
 DCON.         Sperry Drilling:  DIRECTNL CONTR
 UNIT.                     N/A:  LOGGING EQUIPMENT ID
 CNTY.                        :  COUNTY
 LOC .                        :  LOCATION
 LMF .             Drill Floor:  LOG MEASURED FROM
 TVDS.m                  43.16:  TVDSS CORRECTN
 LATI.deg                40.17:  LATITUDE
 LONG.deg                51.17:  LONGITUDE
 WHNS.m                  -0.12:  WELL HEAD N/S
 WHEW.m                  -5.41:  WELL HEAD E/W
 UTMX.m              514337.95:  UTM X
 UTMY.m             4448627.46:  UTM Y
 DFWL.m                   0.00:  DISTANCE FWL
 DFSL.m                   0.00:  DISTANCE FSL
 SDEP.m                3088.01:  START DEPTH
 TDD .m                5200.01:  TOTAL DEPTH (DRILLER)
 VSDR.deg               244.51:  VERT SEC DIRECT
 GVFD.g                   1.00:  GRAVITY FIELD
 MFLD.nT              50329.80:  MAGNETIC FIELD
 MDIP.deg                59.63:  MAGNETIC DIP
 MDEC.deg                 6.59:  MAGNETIC DECL
 GRDC.deg                 0.09:  GRID CORRECTION
 AZTC.deg                 6.50:  AZM TOTAL CORR
 EPD .m                   0.00:  ELEVATION
 EGL .m                   0.00:  GROUND ELEVATION
 WDMS.m                 176.20:  WD ELEV
 APD .m                  43.16:  DEPTH ABOVE PD
 DEP .m                3084.71:  DEPTH
 AGAP.m                  43.16:  AIR GAP
 VSEW.m                  -5.41:  VERT SEC E/W
 VSNS.m                  -0.12:  VERT SEC N/S
 EKB .m                   0.00:  KB ELEVATION
 EDF .m                  43.16:  DF ELEVATION
 TDL .m                 243.00:  TOTAL DEPTH (LOGGER)
 VSC .                       0:  VS TO CLOSURE
 MAGU.                 1853542:  MAGUTM CHECKSUM
~Parameter Information Block
#MNEM.UNIT       Value        Description
#---------     -----------    ---------------------------
 AV  .mps                 1.91:  Ann Velocity 
 AVMX.mps                 2.52:  Max Ann Veloc 
 AZIF.deg               308.97:  Azm, Final 
 BHAT.        Rotary Steerable:  BHA Type 
 BROT.°/30m               1.00:  Build Rotating 
 BS  .in                  6.50:  Bit Size 
 BSZ .in                  6.50:  Bit Size 
 BTPL.psig              350.00:  Bit Press Loss 
 CABU.                      No:  Customer Abuse 
 CGEO.           Asif Pashayev:  Customer Geo 
 COMM.                     Ôöj:  Run Comments 1 
 TCS .hr                 35.86:  Time Ciculation Ended 
 CV  .mps                 2.31:  Crit Velocity 
 CVMX.mps                 2.31:  Max Crit Veloc 
 DD1 .         Intigam Rahimov:  Direct Drillr 1 
 DDSV.               Geo-Pilot:  DD Service 
 DEFF.%                  92.00:  % Det Eff 
 DLRX.°/30m               1.00:  Dogleg Rot Max 
 DLSO.°/30m               1.00:  Dogleg Oriented 
 DLSX.°/30m               1.42:  Dogleg Str Max 
 DRET.      15.50.00 07-Aug-20:  Drill End Time 
 DRST.      10.40.00 06-Aug-20:  Drill Start Tim 
 DTIM.hr                 21.30:  Time Drilling 
 EDEP.m                5200.01:  End Depth 
 ENG1.            Alan Tuganov:  Engineer 1 
 ENG2.         Almaz Almadatov:  Engineer 2 
 ENG3.     Zammelal Abdullah Sani:  Engineer 3 
 ETIM.      22.42.00 08-Aug-20:  End Time 
 FLOI.gpm               395.00:  Flow In 
 FLON.gpm               350.00:  Flow In Min 
 FLOS.cptm                0.00:  Fluid Loss 
 FLOX.gpm               404.00:  Flow In Max 
 FTRO.       Formation Presure:  FTWD Run Obj 
 HFLO.                      No:  High Flow 
 HPRE.                      No:  High Pressure 
 HTEM.                      No:  High Temp 
 HYDO.m                   1.80:  Hydro Offset 
 IFIN.deg                72.64:  Inc, Final 
 IMAX.deg                73.68:  Inc Max 
 IMIN.deg                72.64:  Inc Min 
 IMND.m                5189.69:  Inc Min Depth 
 IMXD.m                5067.88:  Inc Max Depth 
 JARR.                      No:  Jarring 
 LETM.      15.50.00 07-Aug-20:  Log End Time 
 LOST.hr                     0:  Lost Rig Time 
 LSTM.      10.40.00 06-Aug-20:  Log Start Time 
 MDCL.ppm             36000.00:  Mud Chlorides 
 MDES.     Inversion Oil/Synthetic:  Mud Desc 
 DFD .sg                  1.36:  Mud Density 
 MDMN.sg                  1.36:  Dens Mud Min 
 MDMX.sg                  1.36:  Dens Mud Max 
 MOIL.                      70:  Run Mud Oil % 
 MOWR.                   70:30:  Run Mud OWR 
 MSND.                    0.00:  Run Mud Sand % 
 MSOL.                   17.60:  Run Mud Solids% 
 DFV .spqt               73.00:  Mud Viscosity 
 MWOD.in                  4.75:  MWD Tool OD 
 MWSI.                      No:  Serv Intrp, MWD 
 OTIM.hr                 85.66:  Time Operating 
 PCON.           Look Like New:  Pad Condition 
 PMAX.psia             6250.00:  Press Op, Max 
 PV  .cP                 65.00:  Mud PV 
 RUN .                     900:  Run Number 
 ROPA.m/hr               11.40:  ROP Avg 
 ROPN.m/hr                5.00:  ROP Min 
 ROPX.m/hr               20.00:  ROP Max 
 RPMA.rpm               130.00:  RPM Surface Avg 
 RPMN.rpm                40.00:  RPM Surface Min 
 RPMX.rpm               140.00:  RPM Surface Max 
 RRUN.                    L205:  Rig Run Number 
 RTIM.hr                  1.00:  Time Reaming 
 SAZI.deg               313.52:  Azm, Start 
 SDEP.m                4957.01:  Start Depth 
 SIDD.                      No:  Serv Intrp, DD 
 SINC.deg                73.16:  Inc, Start 
 SPPA.psig             5657.00:  SPP Avg 
 SPPN.psig             2500.00:  SPP Min 
 SPPX.psig             5806.00:  SPP Max 
 STIM.      07.12.00 05-Aug-20:  Start Time 
 SVCS.                 DD, MWD:  Services 
 SVER.                    9.20:  Sperry Version 
 TDAT.m                 243.00:  Tot Depth Attmp 
 TDDF.                      No:  Trip for DD 
 TDLG.m                 243.00:  Tot Depth Loggd 
 TFF .                      No:  Trip for Fail 
 TQAA.f-kp               13.00:  Torque Abs Avg 
 TQAN.f-kp               11.00:  Torque Abs Min 
 TQAX.f-kp               16.00:  Torque Abs Max 
 TRRT.°/30m               1.00:  Turn Rotating 
 MRT .                    HCIM:  Maximum Recorded Temperature 
 TTMX.degC               96.08:  Max Tool Temp 
 VS01.                90515411:  Virtual Str1 SN 
 VS02.                90512716:  Virtual Str2 SN 
 VS03.                90522362:  Virtual Str3 SN 
 VS04.                90619415:  Virtual Str4 SN 
 VS05.                90619414:  Virtual Str5 SN 
 VS06.                90597748:  Virtual Str6 SN 
 WBMN.klb                 2.00:  WOB Min 
 WITN.           Adil Mammadov:  Customer Rep 
 WITN.     Alexander Yadullayev:  Customer Rep 2 
 WOBA.klb                 7.00:  WOB Avg 
 WOBX.klb                23.00:  WOB Max 
 YP  .lhf2               37.00:  Yield Point 
~Curve Information Block
#MNEM.UNIT                 API CODE     Curve Description
#---------               -----------    ---------------------------
 TIME.HHMMSS            00 000 000 000:  GT Time & Date
 GTDEPTH.m              00 000 000 000:  GT Depth
 GTPQH.psia             00 000 000 000:  GT HR Quartz Pressure
 GTTQ.degC              00 000 000 000:  GT Quartz Temperature
 GTTN.NONE              00 000 000 000:  GT Test Number
 GTET.sec               00 000 000 000:  GT Elapsed Test Time
 GTTVD.m                00 000 000 000:  GT True Vertical Depth
#Other Information
#
#WARRANTY: Halliburton will use its best efforts to furnish customers with 
#accurate information and interpretations that are part of, and incident to, the services 
#provided.  However, Halliburton cannot and does not warrant the accuracy 
#or correctness of such information and interpretations.  Under no circumstances should any 
#such information or interpretation be relied upon as the sole basis for any drilling, 
#completion, production, or financial decision or any procedure involving any risk to the 
#safety of any drilling venture, drilling rig or its crew or any other third party.  The 
#Customer has full responsibility for all drilling, completion and production operation.  
#Halliburton makes no representations or warranties, either expressed or 
#implied, including, but not limited to, the implied warranties of merchantability or fitness 
#for a particular purpose, with respect to the services rendered.  In no event will 
#Halliburton be liable for failure to obtain any particular results or for 
#any damages, including, but not limited to, indirect, special or consequential damages, 
#resulting from the use of any information or interpretation provided by Halliburton.
#
~A           TIME           GTDEPTH  GTPQH  GTTQ  GTTN  GTET   GTTVD  
# ...
   16:17:43.556.06-Aug-2020 4955.01 5756.65 80.18 2.00 460.10 2633.27
   16:17:43.756.06-Aug-2020 4955.01 5756.65 80.18 2.00 460.30 2633.27
   16:17:43.956.06-Aug-2020 4955.01 5755.98 80.18 2.00 460.50 2633.27
   16:17:44.156.06-Aug-2020 4955.01 5755.40 80.18 2.00 460.70 2633.27
   16:17:44.356.06-Aug-2020 4955.01 5750.01 80.18 2.00 460.90 2633.27
   16:17:44.556.06-Aug-2020 4955.01 5752.14 80.18 2.00 461.10 2633.27
   16:17:44.756.06-Aug-2020 4955.01 5752.14 80.18 2.00 461.30 2633.27
   16:17:44.956.06-Aug-2020 4955.01 5754.81 80.18 2.00 461.50 2633.27
   16:17:45.156.06-Aug-2020 4955.01 5755.96 80.18 2.00 461.70 2633.27
   16:17:45.356.06-Aug-2020 4955.01 5750.58 80.18 2.00 461.90 2633.27
   16:17:45.556.06-Aug-2020 4955.01 5752.16 80.18 2.00 462.10 2633.27
   16:17:45.756.06-Aug-2020 4955.01 5755.07 80.18 2.00 462.30 2633.27
   16:17:45.956.06-Aug-2020 4955.01 5757.37 80.18 2.00 462.50 2633.27
   16:17:46.156.06-Aug-2020 4955.01 5757.46 80.18 2.00 462.70 2633.27
   16:17:46.356.06-Aug-2020 4955.01 5758.85 80.18 2.00 462.90 2633.27
   16:17:46.556.06-Aug-2020 4955.01 5757.58 80.18 2.00 463.10 2633.27
   16:17:46.756.06-Aug-2020 4955.01 5757.58 80.18 2.00 463.30 2633.27
   16:17:46.956.06-Aug-2020 4955.01 5755.20 80.18 2.00 463.50 2633.27
   16:17:47.156.06-Aug-2020 4955.01 5758.08 80.18 2.00 463.70 2633.27
   16:17:47.356.06-Aug-2020 4955.01 5759.79 80.18 2.00 463.90 2633.27
   16:17:47.556.06-Aug-2020 4955.01 5762.70 80.18 2.00 464.10 2633.27
   16:17:47.756.06-Aug-2020 4955.01 5762.70 80.18 2.00 464.30 2633.27
   16:17:47.957.06-Aug-2020 4955.01 5752.33 80.18 2.00 464.50 2633.27
   16:17:48.157.06-Aug-2020 4955.01 5755.02 80.18 2.00 464.70 2633.27
   16:17:48.357.06-Aug-2020 4955.01 5757.70 80.18 2.00 464.90 2633.27
   16:17:48.557.06-Aug-2020 4955.01 5758.39 80.18 2.00 465.10 2633.27
   16:17:48.757.06-Aug-2020 4955.01 5758.62 80.18 2.00 465.30 2633.27
   16:17:48.957.06-Aug-2020 4955.01 5759.10 80.18 2.00 465.50 2633.27
   16:17:49.157.06-Aug-2020 4955.01 5758.90 80.18 2.00 465.70 2633.27
   16:17:49.357.06-Aug-2020 4955.01 5759.41 80.18 2.00 465.90 2633.27
   16:17:49.557.06-Aug-2020 4955.01 5758.13 80.18 2.00 466.10 2633.27
   16:17:49.757.06-Aug-2020 4955.01 5758.13 80.18 2.00 466.30 2633.27
   16:17:49.957.06-Aug-2020 4955.01 5756.96 80.18 2.00 466.50 2633.27
   16:17:50.157.06-Aug-2020 4955.01 5757.72 80.18 2.00 466.70 2633.27
   16:17:50.357.06-Aug-2020 4955.01 5755.94 80.18 2.00 466.90 2633.27
   16:17:50.557.06-Aug-2020 4955.01 5752.95 80.18 2.00 467.10 2633.27
   16:17:50.757.06-Aug-2020 4955.01 5752.95 80.18 2.00 467.30 2633.27
   16:17:50.957.06-Aug-2020 4955.01 5755.83 80.17 2.00 467.50 2633.27
   16:17:51.157.06-Aug-2020 4955.01 5755.76 80.17 2.00 467.70 2633.27
   16:17:51.357.06-Aug-2020 4955.01 5756.93 80.17 2.00 467.90 2633.27
   16:17:51.557.06-Aug-2020 4955.01 5755.85 80.17 2.00 468.10 2633.27
   16:17:51.757.06-Aug-2020 4955.01 5755.85 80.17 2.00 468.30 2633.27
   16:17:51.957.06-Aug-2020 4955.01 5756.71 80.17 2.00 468.50 2633.27
   16:17:52.157.06-Aug-2020 4955.01 5757.67 80.17 2.00 468.70 2633.27
   16:17:52.357.06-Aug-2020 4955.01 5756.38 80.17 2.00 468.90 2633.27
   16:17:52.558.06-Aug-2020 4955.01 5756.68 80.17 2.00 469.10 2633.27
   16:17:52.758.06-Aug-2020 4955.01 5756.68 80.17 2.00 469.30 2633.27
   16:17:52.958.06-Aug-2020 4955.01 5755.79 80.17 2.00 469.50 2633.27
   16:17:53.158.06-Aug-2020 4955.01 5754.91 80.17 2.00 469.70 2633.27
   16:17:53.358.06-Aug-2020 4955.01 5747.56 80.17 2.00 469.90 2633.27
   16:17:53.558.06-Aug-2020 4955.01 5752.35 80.17 2.00 470.10 2633.27
   16:17:53.758.06-Aug-2020 4955.01 5752.35 80.17 2.00 470.30 2633.27
   16:17:53.958.06-Aug-2020 4955.01 5754.76 80.17 2.00 470.50 2633.27
   16:17:54.158.06-Aug-2020 4955.01 5754.42 80.17 2.00 470.70 2633.27
   16:17:54.358.06-Aug-2020 4955.01 5751.43 80.17 2.00 470.90 2633.27
   16:17:54.558.06-Aug-2020 4955.01 5751.26 80.17 2.00 471.10 2633.27
   16:17:54.758.06-Aug-2020 4955.01 5751.26 80.17 2.00 471.30 2633.27
   16:17:54.958.06-Aug-2020 4955.01 5756.00 80.17 2.00 471.50 2633.27
   16:17:55.158.06-Aug-2020 4955.01 5757.15 80.17 2.00 471.70 2633.27
   16:17:55.358.06-Aug-2020 4955.01 5755.51 80.17 2.00 471.90 2633.27
   16:17:55.558.06-Aug-2020 4955.01 5748.73 80.17 2.00 472.10 2633.27
   16:17:55.758.06-Aug-2020 4955.01 5748.73 80.17 2.00 472.30 2633.27
   16:17:55.958.06-Aug-2020 4955.01 5754.89 80.17 2.00 472.50 2633.27
   16:17:56.158.06-Aug-2020 4955.01 5754.18 80.17 2.00 472.70 2633.27
   16:17:56.358.06-Aug-2020 4955.01 5755.78 80.17 2.00 472.90 2633.27
   16:17:56.558.06-Aug-2020 4955.01 5754.90 80.17 2.00 473.10 2633.27
   16:17:56.758.06-Aug-2020 4955.01 5754.90 80.17 2.00 473.30 2633.27
   16:17:56.958.06-Aug-2020 4955.01 5749.99 80.17 2.00 473.50 2633.27
   16:17:57.158.06-Aug-2020 4955.01 5753.06 80.17 2.00 473.70 2633.27
   16:17:57.359.06-Aug-2020 4955.01 5755.11 80.17 2.00 473.90 2633.27
