~Version Information
 VERS.                  2.0:   CWLS log ASCII Standard -VERSION 2.0
 WRAP.                   NO:   One line per depth step
~Well Information Block
#MNEM.UNIT     VALUE/NAME     DESCRIPTION
#---------     -----------    ---------------------------
 STRT.S             06:40:56 07-Aug-20: START TIME 06:40:56 07-Aug-20
 STOP.S             06:48:48 07-Aug-20: STOP TIME  06:48:48 07-Aug-20
 STEP.S                   0.00: STEP TIME
 NULL.                 -999.25: NULL VALUE
 DFWT.                        :  DIST FWL TEXT
 DFST.                        :  DIST FSL TEXT
 DMF .             Drill Floor:  DRILL MEAS FROM
 STIM.      12.00.00 03-Jul-20:  START TIME
 DATE.      00.50.00 09-Aug-20:  END TIME
 SPUD.               03-Jul-20:  SPUD DATE
 NREF.                    Grid:  NORTH REFERENCE
 HPTY.       Minimum Curvature:  HOLE POS TYPE
 DMOD.             Drill Model:  DRILL MOD DESC
 SVYD.                  Survey:  SURVEY DESC
 ILTD.               Lithology:  INTERP LTH DESC
 FTOP.          Formation Tops:  FORM TOPS DESC
 PDAT.          Mean Sea Level:  PERMANENT DATUM
 FLD .                     ACG:  FIELD NAME
 CTRY.              Azerbaijan:  COUNTRY NAME
 WELL.                    E04x:  WELL NAME
 SRVC.          Turan Drilling:  CONTRACTOR
 COMP.     BP Exploration (Caspian Sea) Ltd.:  COMPANY
 SON .        AZ-XX-0906531346:  JOB NUMBER
 WTYP.                Deviated:  WELL TYPE
 MDS .        Operator Entered:  MAG DATA SOURCE
 UWI .                     N/A:  UNIQUE WELL IDENTIFIER
 API .                     N/A:  API NUMBER
 BASE.              Azerbaijan:  LOGGING EQUIPMENT BASE LOCATION
 REGN.                   EESSA:  REGION
 PROV.                    Baku:  PROVINCE
 STAT.                    Baku:  STATE NAME
 MWDS.                    Baku:  MWD SHOP
 JOBN.        AZ-XX-0906531346:  JOB TICKET NUMB
 RIG .                     DWG:  RIG NAME
 DOE .                     N/A:  DOE NUMBER
 DCON.         Sperry Drilling:  DIRECTNL CONTR
 UNIT.                     N/A:  LOGGING EQUIPMENT ID
 CNTY.                        :  COUNTY
 LOC .                        :  LOCATION
 LMF .             Drill Floor:  LOG MEASURED FROM
 TVDS.m                  43.16:  TVDSS CORRECTN
 LATI.deg                40.17:  LATITUDE
 LONG.deg                51.17:  LONGITUDE
 WHNS.m                  -0.12:  WELL HEAD N/S
 WHEW.m                  -5.41:  WELL HEAD E/W
 UTMX.m              514337.95:  UTM X
 UTMY.m             4448627.46:  UTM Y
 DFWL.m                   0.00:  DISTANCE FWL
 DFSL.m                   0.00:  DISTANCE FSL
 SDEP.m                3088.01:  START DEPTH
 TDD .m                5200.01:  TOTAL DEPTH (DRILLER)
 VSDR.deg               244.51:  VERT SEC DIRECT
 GVFD.g                   1.00:  GRAVITY FIELD
 MFLD.nT              50329.80:  MAGNETIC FIELD
 MDIP.deg                59.63:  MAGNETIC DIP
 MDEC.deg                 6.59:  MAGNETIC DECL
 GRDC.deg                 0.09:  GRID CORRECTION
 AZTC.deg                 6.50:  AZM TOTAL CORR
 EPD .m                   0.00:  ELEVATION
 EGL .m                   0.00:  GROUND ELEVATION
 WDMS.m                 176.20:  WD ELEV
 APD .m                  43.16:  DEPTH ABOVE PD
 DEP .m                3084.71:  DEPTH
 AGAP.m                  43.16:  AIR GAP
 VSEW.m                  -5.41:  VERT SEC E/W
 VSNS.m                  -0.12:  VERT SEC N/S
 EKB .m                   0.00:  KB ELEVATION
 EDF .m                  43.16:  DF ELEVATION
 TDL .m                 243.00:  TOTAL DEPTH (LOGGER)
 VSC .                       0:  VS TO CLOSURE
 MAGU.                 1853542:  MAGUTM CHECKSUM
~Parameter Information Block
#MNEM.UNIT       Value        Description
#---------     -----------    ---------------------------
 AV  .mps                 1.91:  Ann Velocity 
 AVMX.mps                 2.52:  Max Ann Veloc 
 AZIF.deg               308.97:  Azm, Final 
 BHAT.        Rotary Steerable:  BHA Type 
 BROT.°/30m               1.00:  Build Rotating 
 BS  .in                  6.50:  Bit Size 
 BSZ .in                  6.50:  Bit Size 
 BTPL.psig              350.00:  Bit Press Loss 
 CABU.                      No:  Customer Abuse 
 CGEO.           Asif Pashayev:  Customer Geo 
 TCS .hr                 35.86:  Time Ciculation Ended 
 CV  .mps                 2.31:  Crit Velocity 
 CVMX.mps                 2.31:  Max Crit Veloc 
 DD1 .         Intigam Rahimov:  Direct Drillr 1 
 DDSV.               Geo-Pilot:  DD Service 
 DEFF.%                  92.00:  % Det Eff 
 DLRX.°/30m               1.00:  Dogleg Rot Max 
 DLSO.°/30m               1.00:  Dogleg Oriented 
 DLSX.°/30m               1.42:  Dogleg Str Max 
 DRET.      15.50.00 07-Aug-20:  Drill End Time 
 DRST.      10.40.00 06-Aug-20:  Drill Start Tim 
 DTIM.hr                 21.30:  Time Drilling 
 EDEP.m                5200.01:  End Depth 
 ENG1.            Alan Tuganov:  Engineer 1 
 ENG2.         Almaz Almadatov:  Engineer 2 
 ENG3.     Zammelal Abdullah Sani:  Engineer 3 
 ETIM.      22.42.00 08-Aug-20:  End Time 
 FLOI.gpm               395.00:  Flow In 
 FLON.gpm               350.00:  Flow In Min 
 FLOS.cptm                0.00:  Fluid Loss 
 FLOX.gpm               404.00:  Flow In Max 
 FTRO.       Formation Presure:  FTWD Run Obj 
 HFLO.                      No:  High Flow 
 HPRE.                      No:  High Pressure 
 HTEM.                      No:  High Temp 
 HYDO.m                   1.80:  Hydro Offset 
 IFIN.deg                72.64:  Inc, Final 
 IMAX.deg                73.68:  Inc Max 
 IMIN.deg                72.64:  Inc Min 
 IMND.m                5189.69:  Inc Min Depth 
 IMXD.m                5067.88:  Inc Max Depth 
 JARR.                      No:  Jarring 
 LETM.      15.50.00 07-Aug-20:  Log End Time 
 LOST.hr                     0:  Lost Rig Time 
 LSTM.      10.40.00 06-Aug-20:  Log Start Time 
 MDCL.ppm             36000.00:  Mud Chlorides 
 MDES.     Inversion Oil/Synthetic:  Mud Desc 
 DFD .sg                  1.36:  Mud Density 
 MDMN.sg                  1.36:  Dens Mud Min 
 MDMX.sg                  1.36:  Dens Mud Max 
 MOIL.                      70:  Run Mud Oil % 
 MOWR.                   70:30:  Run Mud OWR 
 MSND.                    0.00:  Run Mud Sand % 
 MSOL.                   17.60:  Run Mud Solids% 
 DFV .spqt               73.00:  Mud Viscosity 
 MWOD.in                  4.75:  MWD Tool OD 
 MWSI.                      No:  Serv Intrp, MWD 
 OTIM.hr                 85.66:  Time Operating 
 PCON.           Look Like New:  Pad Condition 
 PMAX.psia             6250.00:  Press Op, Max 
 PV  .cP                 65.00:  Mud PV 
 RUN .                     900:  Run Number 
 ROPA.m/hr               11.40:  ROP Avg 
 ROPN.m/hr                5.00:  ROP Min 
 ROPX.m/hr               20.00:  ROP Max 
 RPMA.rpm               130.00:  RPM Surface Avg 
 RPMN.rpm                40.00:  RPM Surface Min 
 RPMX.rpm               140.00:  RPM Surface Max 
 RRUN.                    L205:  Rig Run Number 
 RTIM.hr                  1.00:  Time Reaming 
 SAZI.deg               313.52:  Azm, Start 
 SDEP.m                4957.01:  Start Depth 
 SIDD.                      No:  Serv Intrp, DD 
 SINC.deg                73.16:  Inc, Start 
 SPPA.psig             5657.00:  SPP Avg 
 SPPN.psig             2500.00:  SPP Min 
 SPPX.psig             5806.00:  SPP Max 
 STIM.      07.12.00 05-Aug-20:  Start Time 
 SVCS.                 DD, MWD:  Services 
 SVER.                    9.20:  Sperry Version 
 TDAT.m                 243.00:  Tot Depth Attmp 
 TDDF.                      No:  Trip for DD 
 TDLG.m                 243.00:  Tot Depth Loggd 
 TFF .                      No:  Trip for Fail 
 TQAA.f-kp               13.00:  Torque Abs Avg 
 TQAN.f-kp               11.00:  Torque Abs Min 
 TQAX.f-kp               16.00:  Torque Abs Max 
 TRRT.°/30m               1.00:  Turn Rotating 
 MRT .                    HCIM:  Maximum Recorded Temperature 
 TTMX.degC               96.08:  Max Tool Temp 
 VS01.                90515411:  Virtual Str1 SN 
 VS02.                90512716:  Virtual Str2 SN 
 VS03.                90522362:  Virtual Str3 SN 
 VS04.                90619415:  Virtual Str4 SN 
 VS05.                90619414:  Virtual Str5 SN 
 VS06.                90597748:  Virtual Str6 SN 
 WBMN.klb                 2.00:  WOB Min 
 WITN.           Adil Mammadov:  Customer Rep 
 WITN.     Alexander Yadullayev:  Customer Rep 2 
 WOBA.klb                 7.00:  WOB Avg 
 WOBX.klb                23.00:  WOB Max 
 YP  .lhf2               37.00:  Yield Point 
~Curve Information Block
#MNEM.UNIT                 API CODE     Curve Description
#---------               -----------    ---------------------------
 TIME.HHMMSS            00 000 000 000:  GT Time & Date
 GTDEPTH.m              00 000 000 000:  GT Depth
 GTPQH.psia             00 000 000 000:  GT HR Quartz Pressure
 GTTQ.degC              00 000 000 000:  GT Quartz Temperature
 GTTN.NONE              00 000 000 000:  GT Test Number
 GTET.sec               00 000 000 000:  GT Elapsed Test Time
 GTTVD.m                00 000 000 000:  GT True Vertical Depth
#Other Information
#
#WARRANTY: Halliburton will use its best efforts to furnish customers with 
#accurate information and interpretations that are part of, and incident to, the services 
#provided.  However, Halliburton cannot and does not warrant the accuracy 
#or correctness of such information and interpretations.  Under no circumstances should any 
#such information or interpretation be relied upon as the sole basis for any drilling, 
#completion, production, or financial decision or any procedure involving any risk to the 
#safety of any drilling venture, drilling rig or its crew or any other third party.  The 
#Customer has full responsibility for all drilling, completion and production operation.  
#Halliburton makes no representations or warranties, either expressed or 
#implied, including, but not limited to, the implied warranties of merchantability or fitness 
#for a particular purpose, with respect to the services rendered.  In no event will 
#Halliburton be liable for failure to obtain any particular results or for 
#any damages, including, but not limited to, indirect, special or consequential damages, 
#resulting from the use of any information or interpretation provided by Halliburton.
#
~A           TIME           GTDEPTH  GTPQH  GTTQ  GTTN  GTET   GTTVD  
# ...
   06:42:51.972.07-Aug-2020 5088.01 3691.34 88.82 8.00 115.03 2671.45
   06:42:52.172.07-Aug-2020 5088.01 3691.34 88.82 8.00 115.23 2671.45
   06:42:52.373.07-Aug-2020 5088.01 3691.25 88.82 8.00 115.43 2671.45
   06:42:52.573.07-Aug-2020 5088.01 3691.34 88.82 8.00 115.63 2671.45
   06:42:52.773.07-Aug-2020 5088.01 3691.32 88.82 8.00 115.83 2671.45
   06:42:52.973.07-Aug-2020 5088.01 3691.30 88.82 8.00 116.03 2671.45
   06:42:53.173.07-Aug-2020 5088.01 3691.32 88.82 8.00 116.23 2671.45
   06:42:53.373.07-Aug-2020 5088.01 3691.32 88.82 8.00 116.43 2671.45
   06:42:53.573.07-Aug-2020 5088.01 3691.32 88.82 8.00 116.63 2671.45
   06:42:53.773.07-Aug-2020 5088.01 3691.29 88.82 8.00 116.83 2671.45
   06:42:53.973.07-Aug-2020 5088.01 3691.32 88.82 8.00 117.03 2671.45
   06:42:54.173.07-Aug-2020 5088.01 3691.32 88.82 8.00 117.23 2671.45
   06:42:54.373.07-Aug-2020 5088.01 3691.32 88.82 8.00 117.43 2671.45
   06:42:54.573.07-Aug-2020 5088.01 3691.14 88.82 8.00 117.63 2671.45
   06:42:54.773.07-Aug-2020 5088.01 3691.41 88.82 8.00 117.83 2671.45
   06:42:54.973.07-Aug-2020 5088.01 3691.31 88.81 8.00 118.03 2671.45
   06:42:55.173.07-Aug-2020 5088.01 3691.31 88.81 8.00 118.23 2671.45
   06:42:55.373.07-Aug-2020 5088.01 3691.30 88.81 8.00 118.43 2671.45
   06:42:55.573.07-Aug-2020 5088.01 3691.30 88.81 8.00 118.63 2671.45
   06:42:55.773.07-Aug-2020 5088.01 3691.30 88.81 8.00 118.83 2671.45
   06:42:55.974.07-Aug-2020 5088.01 3691.31 88.81 8.00 119.03 2671.45
   06:42:56.174.07-Aug-2020 5088.01 3691.31 88.81 8.00 119.23 2671.45
   06:42:56.374.07-Aug-2020 5088.01 3691.30 88.81 8.00 119.43 2671.45
   06:42:56.574.07-Aug-2020 5088.01 3691.29 88.81 8.00 119.63 2671.45
   06:42:56.774.07-Aug-2020 5088.01 3691.30 88.81 8.00 119.83 2671.45
   06:42:56.974.07-Aug-2020 5088.01 3691.29 88.81 8.00 120.03 2671.45
   06:42:57.174.07-Aug-2020 5088.01 3691.29 88.81 8.00 120.23 2671.45
   06:42:57.374.07-Aug-2020 5088.01 3691.26 88.81 8.00 120.43 2671.45
   06:42:57.574.07-Aug-2020 5088.01 3691.32 88.81 8.00 120.64 2671.45
   06:42:57.774.07-Aug-2020 5088.01 3691.26 88.81 8.00 120.84 2671.45
   06:42:57.974.07-Aug-2020 5088.01 3691.30 88.81 8.00 121.04 2671.45
   06:42:58.174.07-Aug-2020 5088.01 3691.30 88.81 8.00 121.24 2671.45
   06:42:58.374.07-Aug-2020 5088.01 3691.28 88.80 8.00 121.44 2671.45
   06:42:58.574.07-Aug-2020 5088.01 3691.32 88.80 8.00 121.64 2671.45
   06:42:58.774.07-Aug-2020 5088.01 3691.24 88.80 8.00 121.84 2671.45
   06:42:58.974.07-Aug-2020 5088.01 3691.31 88.80 8.00 122.04 2671.45
   06:42:59.174.07-Aug-2020 5088.01 3691.31 88.80 8.00 122.24 2671.45
   06:42:59.375.07-Aug-2020 5088.01 3691.22 88.80 8.00 122.44 2671.45
   06:42:59.575.07-Aug-2020 5088.01 3691.29 88.80 8.00 122.64 2671.45
   06:42:59.775.07-Aug-2020 5088.01 3691.28 88.80 8.00 122.84 2671.45
   06:42:59.975.07-Aug-2020 5088.01 3691.29 88.80 8.00 123.04 2671.45
   06:43:00.175.07-Aug-2020 5088.01 3691.29 88.80 8.00 123.24 2671.45
   06:43:00.375.07-Aug-2020 5088.01 3691.28 88.80 8.00 123.44 2671.45
   06:43:00.575.07-Aug-2020 5088.01 3691.32 88.80 8.00 123.64 2671.45
   06:43:00.775.07-Aug-2020 5088.01 3691.22 88.80 8.00 123.84 2671.45
   06:43:00.975.07-Aug-2020 5088.01 3691.31 88.80 8.00 124.04 2671.45
   06:43:01.175.07-Aug-2020 5088.01 3691.31 88.79 8.00 124.24 2671.45
   06:43:01.375.07-Aug-2020 5088.01 3691.28 88.79 8.00 124.44 2671.45
   06:43:01.575.07-Aug-2020 5088.01 3691.28 88.79 8.00 124.64 2671.45
   06:43:01.775.07-Aug-2020 5088.01 3691.28 88.79 8.00 124.84 2671.45
   06:43:01.975.07-Aug-2020 5088.01 3691.26 88.79 8.00 125.04 2671.45
   06:43:02.175.07-Aug-2020 5088.01 3691.26 88.79 8.00 125.24 2671.45
   06:43:02.375.07-Aug-2020 5088.01 3691.27 88.79 8.00 125.44 2671.45
   06:43:02.575.07-Aug-2020 5088.01 3691.27 88.79 8.00 125.64 2671.45
   06:43:02.776.07-Aug-2020 5088.01 3691.27 88.79 8.00 125.84 2671.45
   06:43:02.976.07-Aug-2020 5088.01 3691.12 88.79 8.00 126.04 2671.45
   06:43:03.176.07-Aug-2020 5088.01 3691.12 88.79 8.00 126.24 2671.45
   06:43:03.376.07-Aug-2020 5088.01 3691.26 88.79 8.00 126.44 2671.45
   06:43:03.576.07-Aug-2020 5088.01 3691.27 88.79 8.00 126.64 2671.45
   06:43:03.776.07-Aug-2020 5088.01 3691.26 88.79 8.00 126.84 2671.45
   06:43:03.976.07-Aug-2020 5088.01 3691.27 88.79 8.00 127.04 2671.45
   06:43:04.176.07-Aug-2020 5088.01 3691.27 88.79 8.00 127.24 2671.45
   06:43:04.376.07-Aug-2020 5088.01 3691.28 88.78 8.00 127.44 2671.45
   06:43:04.576.07-Aug-2020 5088.01 3691.24 88.78 8.00 127.64 2671.45
   06:43:04.776.07-Aug-2020 5088.01 3691.27 88.78 8.00 127.84 2671.45
   06:43:04.976.07-Aug-2020 5088.01 3691.24 88.78 8.00 128.04 2671.45
   06:43:05.176.07-Aug-2020 5088.01 3691.24 88.78 8.00 128.24 2671.45
   06:43:05.376.07-Aug-2020 5088.01 3691.24 88.78 8.00 128.44 2671.45
   06:43:05.576.07-Aug-2020 5088.01 3691.20 88.78 8.00 128.64 2671.45
   06:43:05.776.07-Aug-2020 5088.01 3691.25 88.78 8.00 128.84 2671.45
   06:43:05.976.07-Aug-2020 5088.01 3691.29 88.78 8.00 129.04 2671.45
   06:43:06.177.07-Aug-2020 5088.01 3691.29 88.78 8.00 129.24 2671.45
   06:43:06.377.07-Aug-2020 5088.01 3691.28 88.78 8.00 129.44 2671.45
   06:43:06.577.07-Aug-2020 5088.01 3691.19 88.78 8.00 129.64 2671.45
   06:43:06.777.07-Aug-2020 5088.01 3691.30 88.78 8.00 129.84 2671.45
   06:43:06.977.07-Aug-2020 5088.01 3691.25 88.78 8.00 130.04 2671.45
   06:43:07.177.07-Aug-2020 5088.01 3691.25 88.78 8.00 130.24 2671.45
   06:43:07.377.07-Aug-2020 5088.01 3691.28 88.78 8.00 130.44 2671.45
   06:43:07.577.07-Aug-2020 5088.01 3691.26 88.77 8.00 130.64 2671.45
   06:43:07.777.07-Aug-2020 5088.01 3691.19 88.77 8.00 130.84 2671.45
   06:43:07.977.07-Aug-2020 5088.01 3691.28 88.77 8.00 131.04 2671.45
   06:43:08.177.07-Aug-2020 5088.01 3691.28 88.77 8.00 131.24 2671.45
   06:43:08.377.07-Aug-2020 5088.01 3691.26 88.77 8.00 131.44 2671.45
   06:43:08.577.07-Aug-2020 5088.01 3691.16 88.77 8.00 131.64 2671.45
   06:43:08.777.07-Aug-2020 5088.01 3691.28 88.77 8.00 131.84 2671.45
   06:43:08.977.07-Aug-2020 5088.01 3691.31 88.77 8.00 132.04 2671.45
   06:43:09.177.07-Aug-2020 5088.01 3691.22 88.77 8.00 132.24 2671.45
   06:43:09.377.07-Aug-2020 5088.01 3691.27 88.77 8.00 132.44 2671.45
   06:43:09.578.07-Aug-2020 5088.01 3691.23 88.77 8.00 132.64 2671.45
   06:43:09.778.07-Aug-2020 5088.01 3691.27 88.77 8.00 132.84 2671.45
   06:43:09.978.07-Aug-2020 5088.01 3691.25 88.77 8.00 133.04 2671.45
   06:43:10.178.07-Aug-2020 5088.01 3691.25 88.77 8.00 133.24 2671.45
   06:43:10.378.07-Aug-2020 5088.01 3691.23 88.77 8.00 133.44 2671.45
   06:43:10.578.07-Aug-2020 5088.01 3691.26 88.77 8.00 133.64 2671.45
   06:43:10.778.07-Aug-2020 5088.01 3691.22 88.76 8.00 133.84 2671.45
   06:43:10.978.07-Aug-2020 5088.01 3691.25 88.76 8.00 134.04 2671.45
   06:43:11.178.07-Aug-2020 5088.01 3691.25 88.76 8.00 134.24 2671.45
   06:43:11.378.07-Aug-2020 5088.01 3691.16 88.76 8.00 134.44 2671.45
   06:43:11.578.07-Aug-2020 5088.01 3691.27 88.76 8.00 134.64 2671.45
   06:43:11.778.07-Aug-2020 5088.01 3691.21 88.76 8.00 134.84 2671.45
   06:43:11.978.07-Aug-2020 5088.01 3691.27 88.76 8.00 135.04 2671.45
   06:43:12.178.07-Aug-2020 5088.01 3691.27 88.76 8.00 135.24 2671.45
   06:43:12.378.07-Aug-2020 5088.01 3691.23 88.76 8.00 135.44 2671.45
   06:43:12.578.07-Aug-2020 5088.01 3691.24 88.76 8.00 135.64 2671.45
   06:43:12.778.07-Aug-2020 5088.01 3691.24 88.76 8.00 135.84 2671.45
   06:43:12.978.07-Aug-2020 5088.01 3691.22 88.76 8.00 136.04 2671.45
   06:43:13.179.07-Aug-2020 5088.01 3691.23 88.76 8.00 136.24 2671.45
   06:43:13.379.07-Aug-2020 5088.01 3691.23 88.76 8.00 136.44 2671.45
   06:43:13.579.07-Aug-2020 5088.01 3691.22 88.76 8.00 136.64 2671.45
   06:43:13.779.07-Aug-2020 5088.01 3691.21 88.76 8.00 136.84 2671.45
   06:43:13.979.07-Aug-2020 5088.01 3691.17 88.75 8.00 137.04 2671.45
   06:43:14.179.07-Aug-2020 5088.01 3691.17 88.75 8.00 137.24 2671.45
   06:43:14.379.07-Aug-2020 5088.01 3691.24 88.75 8.00 137.44 2671.45
   06:43:14.579.07-Aug-2020 5088.01 3691.16 88.75 8.00 137.64 2671.45
   06:43:14.779.07-Aug-2020 5088.01 3691.27 88.75 8.00 137.84 2671.45
