~Version Information
 VERS.                  2.0:   CWLS log ASCII Standard -VERSION 2.0
 WRAP.                   NO:   One line per depth step
~Well Information Block
#MNEM.UNIT     VALUE/NAME     DESCRIPTION
#---------     -----------    ---------------------------
 STRT.S             21:52:26 06-Aug-20: START TIME 21:52:26 06-Aug-20
 STOP.S             22:00:18 06-Aug-20: STOP TIME  22:00:18 06-Aug-20
 STEP.S                   0.00: STEP TIME
 NULL.                 -999.25: NULL VALUE
 DFWT.                        :  DIST FWL TEXT
 DFST.                        :  DIST FSL TEXT
 DMF .             Drill Floor:  DRILL MEAS FROM
 STIM.      12.00.00 03-Jul-20:  START TIME
 DATE.      00.50.00 09-Aug-20:  END TIME
 SPUD.               03-Jul-20:  SPUD DATE
 NREF.                    Grid:  NORTH REFERENCE
 HPTY.       Minimum Curvature:  HOLE POS TYPE
 DMOD.             Drill Model:  DRILL MOD DESC
 SVYD.                  Survey:  SURVEY DESC
 ILTD.               Lithology:  INTERP LTH DESC
 FTOP.          Formation Tops:  FORM TOPS DESC
 PDAT.          Mean Sea Level:  PERMANENT DATUM
 FLD .                     ACG:  FIELD NAME
 CTRY.              Azerbaijan:  COUNTRY NAME
 WELL.                    E04x:  WELL NAME
 SRVC.          Turan Drilling:  CONTRACTOR
 COMP.     BP Exploration (Caspian Sea) Ltd.:  COMPANY
 SON .        AZ-XX-0906531346:  JOB NUMBER
 WTYP.                Deviated:  WELL TYPE
 MDS .        Operator Entered:  MAG DATA SOURCE
 UWI .                     N/A:  UNIQUE WELL IDENTIFIER
 API .                     N/A:  API NUMBER
 BASE.              Azerbaijan:  LOGGING EQUIPMENT BASE LOCATION
 REGN.                   EESSA:  REGION
 PROV.                    Baku:  PROVINCE
 STAT.                    Baku:  STATE NAME
 MWDS.                    Baku:  MWD SHOP
 JOBN.        AZ-XX-0906531346:  JOB TICKET NUMB
 RIG .                     DWG:  RIG NAME
 DOE .                     N/A:  DOE NUMBER
 DCON.         Sperry Drilling:  DIRECTNL CONTR
 UNIT.                     N/A:  LOGGING EQUIPMENT ID
 CNTY.                        :  COUNTY
 LOC .                        :  LOCATION
 LMF .             Drill Floor:  LOG MEASURED FROM
 TVDS.m                  43.16:  TVDSS CORRECTN
 LATI.deg                40.17:  LATITUDE
 LONG.deg                51.17:  LONGITUDE
 WHNS.m                  -0.12:  WELL HEAD N/S
 WHEW.m                  -5.41:  WELL HEAD E/W
 UTMX.m              514337.95:  UTM X
 UTMY.m             4448627.46:  UTM Y
 DFWL.m                   0.00:  DISTANCE FWL
 DFSL.m                   0.00:  DISTANCE FSL
 SDEP.m                3088.01:  START DEPTH
 TDD .m                5200.01:  TOTAL DEPTH (DRILLER)
 VSDR.deg               244.51:  VERT SEC DIRECT
 GVFD.g                   1.00:  GRAVITY FIELD
 MFLD.nT              50329.80:  MAGNETIC FIELD
 MDIP.deg                59.63:  MAGNETIC DIP
 MDEC.deg                 6.59:  MAGNETIC DECL
 GRDC.deg                 0.09:  GRID CORRECTION
 AZTC.deg                 6.50:  AZM TOTAL CORR
 EPD .m                   0.00:  ELEVATION
 EGL .m                   0.00:  GROUND ELEVATION
 WDMS.m                 176.20:  WD ELEV
 APD .m                  43.16:  DEPTH ABOVE PD
 DEP .m                3084.71:  DEPTH
 AGAP.m                  43.16:  AIR GAP
 VSEW.m                  -5.41:  VERT SEC E/W
 VSNS.m                  -0.12:  VERT SEC N/S
 EKB .m                   0.00:  KB ELEVATION
 EDF .m                  43.16:  DF ELEVATION
 TDL .m                 243.00:  TOTAL DEPTH (LOGGER)
 VSC .                       0:  VS TO CLOSURE
 MAGU.                 1853542:  MAGUTM CHECKSUM
~Parameter Information Block
#MNEM.UNIT       Value        Description
#---------     -----------    ---------------------------
 AV  .mps                 1.91:  Ann Velocity 
 AVMX.mps                 2.52:  Max Ann Veloc 
 AZIF.deg               308.97:  Azm, Final 
 BHAT.        Rotary Steerable:  BHA Type 
 BROT.°/30m               1.00:  Build Rotating 
 BS  .in                  6.50:  Bit Size 
 BSZ .in                  6.50:  Bit Size 
 BTPL.psig              350.00:  Bit Press Loss 
 CABU.                      No:  Customer Abuse 
 CGEO.           Asif Pashayev:  Customer Geo 
 COMM.                     #‚:  Run Comments 1 
 TCS .hr                 35.86:  Time Ciculation Ended 
 CV  .mps                 2.31:  Crit Velocity 
 CVMX.mps                 2.31:  Max Crit Veloc 
 DD1 .         Intigam Rahimov:  Direct Drillr 1 
 DDSV.               Geo-Pilot:  DD Service 
 DEFF.%                  92.00:  % Det Eff 
 DLRX.°/30m               1.00:  Dogleg Rot Max 
 DLSO.°/30m               1.00:  Dogleg Oriented 
 DLSX.°/30m               1.42:  Dogleg Str Max 
 DRET.      15.50.00 07-Aug-20:  Drill End Time 
 DRST.      10.40.00 06-Aug-20:  Drill Start Tim 
 DTIM.hr                 21.30:  Time Drilling 
 EDEP.m                5200.01:  End Depth 
 ENG1.            Alan Tuganov:  Engineer 1 
 ENG2.         Almaz Almadatov:  Engineer 2 
 ENG3.     Zammelal Abdullah Sani:  Engineer 3 
 ETIM.      22.42.00 08-Aug-20:  End Time 
 FLOI.gpm               395.00:  Flow In 
 FLON.gpm               350.00:  Flow In Min 
 FLOS.cptm                0.00:  Fluid Loss 
 FLOX.gpm               404.00:  Flow In Max 
 FTRO.       Formation Presure:  FTWD Run Obj 
 HFLO.                      No:  High Flow 
 HPRE.                      No:  High Pressure 
 HTEM.                      No:  High Temp 
 HYDO.m                   1.80:  Hydro Offset 
 IFIN.deg                72.64:  Inc, Final 
 IMAX.deg                73.68:  Inc Max 
 IMIN.deg                72.64:  Inc Min 
 IMND.m                5189.69:  Inc Min Depth 
 IMXD.m                5067.88:  Inc Max Depth 
 JARR.                      No:  Jarring 
 LETM.      15.50.00 07-Aug-20:  Log End Time 
 LOST.hr                     0:  Lost Rig Time 
 LSTM.      10.40.00 06-Aug-20:  Log Start Time 
 MDCL.ppm             36000.00:  Mud Chlorides 
 MDES.     Inversion Oil/Synthetic:  Mud Desc 
 DFD .sg                  1.36:  Mud Density 
 MDMN.sg                  1.36:  Dens Mud Min 
 MDMX.sg                  1.36:  Dens Mud Max 
 MOIL.                      70:  Run Mud Oil % 
 MOWR.                   70:30:  Run Mud OWR 
 MSND.                    0.00:  Run Mud Sand % 
 MSOL.                   17.60:  Run Mud Solids% 
 DFV .spqt               73.00:  Mud Viscosity 
 MWOD.in                  4.75:  MWD Tool OD 
 MWSI.                      No:  Serv Intrp, MWD 
 OTIM.hr                 85.66:  Time Operating 
 PCON.           Look Like New:  Pad Condition 
 PMAX.psia             6250.00:  Press Op, Max 
 PV  .cP                 65.00:  Mud PV 
 RUN .                     900:  Run Number 
 ROPA.m/hr               11.40:  ROP Avg 
 ROPN.m/hr                5.00:  ROP Min 
 ROPX.m/hr               20.00:  ROP Max 
 RPMA.rpm               130.00:  RPM Surface Avg 
 RPMN.rpm                40.00:  RPM Surface Min 
 RPMX.rpm               140.00:  RPM Surface Max 
 RRUN.                    L205:  Rig Run Number 
 RTIM.hr                  1.00:  Time Reaming 
 SAZI.deg               313.52:  Azm, Start 
 SDEP.m                4957.01:  Start Depth 
 SIDD.                      No:  Serv Intrp, DD 
 SINC.deg                73.16:  Inc, Start 
 SPPA.psig             5657.00:  SPP Avg 
 SPPN.psig             2500.00:  SPP Min 
 SPPX.psig             5806.00:  SPP Max 
 STIM.      07.12.00 05-Aug-20:  Start Time 
 SVCS.                 DD, MWD:  Services 
 SVER.                    9.20:  Sperry Version 
 TDAT.m                 243.00:  Tot Depth Attmp 
 TDDF.                      No:  Trip for DD 
 TDLG.m                 243.00:  Tot Depth Loggd 
 TFF .                      No:  Trip for Fail 
 TQAA.f-kp               13.00:  Torque Abs Avg 
 TQAN.f-kp               11.00:  Torque Abs Min 
 TQAX.f-kp               16.00:  Torque Abs Max 
 TRRT.°/30m               1.00:  Turn Rotating 
 MRT .                    HCIM:  Maximum Recorded Temperature 
 TTMX.degC               96.08:  Max Tool Temp 
 VS01.                90515411:  Virtual Str1 SN 
 VS02.                90512716:  Virtual Str2 SN 
 VS03.                90522362:  Virtual Str3 SN 
 VS04.                90619415:  Virtual Str4 SN 
 VS05.                90619414:  Virtual Str5 SN 
 VS06.                90597748:  Virtual Str6 SN 
 WBMN.klb                 2.00:  WOB Min 
 WITN.           Adil Mammadov:  Customer Rep 
 WITN.     Alexander Yadullayev:  Customer Rep 2 
 WOBA.klb                 7.00:  WOB Avg 
 WOBX.klb                23.00:  WOB Max 
 YP  .lhf2               37.00:  Yield Point 
~Curve Information Block
#MNEM.UNIT                 API CODE     Curve Description
#---------               -----------    ---------------------------
 TIME.HHMMSS            00 000 000 000:  GT Time & Date
 GTDEPTH.m              00 000 000 000:  GT Depth
 GTPQH.psia             00 000 000 000:  GT HR Quartz Pressure
 GTTQ.degC              00 000 000 000:  GT Quartz Temperature
 GTTN.NONE              00 000 000 000:  GT Test Number
 GTET.sec               00 000 000 000:  GT Elapsed Test Time
 GTTVD.m                00 000 000 000:  GT True Vertical Depth
#Other Information
#
#WARRANTY: Halliburton will use its best efforts to furnish customers with 
#accurate information and interpretations that are part of, and incident to, the services 
#provided.  However, Halliburton cannot and does not warrant the accuracy 
#or correctness of such information and interpretations.  Under no circumstances should any 
#such information or interpretation be relied upon as the sole basis for any drilling, 
#completion, production, or financial decision or any procedure involving any risk to the 
#safety of any drilling venture, drilling rig or its crew or any other third party.  The 
#Customer has full responsibility for all drilling, completion and production operation.  
#Halliburton makes no representations or warranties, either expressed or 
#implied, including, but not limited to, the implied warranties of merchantability or fitness 
#for a particular purpose, with respect to the services rendered.  In no event will 
#Halliburton be liable for failure to obtain any particular results or for 
#any damages, including, but not limited to, indirect, special or consequential damages, 
#resulting from the use of any information or interpretation provided by Halliburton.
#
~A           TIME           GTDEPTH  GTPQH  GTTQ  GTTN  GTET   GTTVD  
   21:52:26.000.06-Aug-2020 5001.01 5762.26 84.29 4.00   0.00 2646.47
   21:52:26.200.06-Aug-2020 5001.01 5762.26 84.29 4.00   0.20 2646.47
   21:52:26.400.06-Aug-2020 5001.01 5767.82 84.29 4.00   0.40 2646.47
   21:52:26.600.06-Aug-2020 5001.01 5767.54 84.29 4.00   0.60 2646.47
   21:52:26.800.06-Aug-2020 5001.01 5762.27 84.29 4.00   0.80 2646.47
   21:52:27.000.06-Aug-2020 5001.01 5770.10 84.29 4.00   1.00 2646.47
   21:52:27.200.06-Aug-2020 5001.01 5770.10 84.29 4.00   1.20 2646.47
   21:52:27.400.06-Aug-2020 5001.01 5768.41 84.29 4.00   1.40 2646.47
   21:52:27.600.06-Aug-2020 5001.01 5769.07 84.29 4.00   1.60 2646.47
   21:52:27.800.06-Aug-2020 5001.01 5768.77 84.29 4.00   1.80 2646.47
   21:52:28.000.06-Aug-2020 5001.01 5766.41 84.29 4.00   2.00 2646.47
   21:52:28.200.06-Aug-2020 5001.01 5766.41 84.29 4.00   2.20 2646.47
   21:52:28.400.06-Aug-2020 5001.01 5762.64 84.28 4.00   2.40 2646.47
   21:52:28.600.06-Aug-2020 5001.01 5769.87 84.28 4.00   2.60 2646.47
   21:52:28.800.06-Aug-2020 5001.01 5766.41 84.28 4.00   2.80 2646.47
   21:52:29.000.06-Aug-2020 5001.01 5766.78 84.28 4.00   3.00 2646.47
   21:52:29.200.06-Aug-2020 5001.01 5766.78 84.28 4.00   3.20 2646.47
   21:52:29.400.06-Aug-2020 5001.01 5771.28 84.28 4.00   3.40 2646.47
   21:52:29.600.06-Aug-2020 5001.01 5767.34 84.28 4.00   3.60 2646.47
   21:52:29.800.06-Aug-2020 5001.01 5770.17 84.28 4.00   3.80 2646.47
   21:52:30.000.06-Aug-2020 5001.01 5769.17 84.28 4.00   4.00 2646.47
   21:52:30.200.06-Aug-2020 5001.01 5769.17 84.28 4.00   4.20 2646.47
   21:52:30.400.06-Aug-2020 5001.01 5768.06 84.28 4.00   4.40 2646.47
   21:52:30.600.06-Aug-2020 5001.01 5771.35 84.28 4.00   4.60 2646.47
   21:52:30.800.06-Aug-2020 5001.01 5768.78 84.28 4.00   4.80 2646.47
   21:52:31.000.06-Aug-2020 5001.01 5767.36 84.28 4.00   5.00 2646.47
   21:52:31.200.06-Aug-2020 5001.01 5767.36 84.28 4.00   5.20 2646.47
   21:52:31.400.06-Aug-2020 5001.01 5767.24 84.27 4.00   5.40 2646.47
   21:52:31.600.06-Aug-2020 5001.01 5771.28 84.27 4.00   5.60 2646.47
   21:52:31.800.06-Aug-2020 5001.01 5771.66 84.27 4.00   5.80 2646.47
   21:52:32.000.06-Aug-2020 5001.01 5771.45 84.27 4.00   6.00 2646.47
   21:52:32.200.06-Aug-2020 5001.01 5772.53 84.27 4.00   6.20 2646.47
   21:52:32.400.06-Aug-2020 5001.01 5772.23 84.27 4.00   6.40 2646.47
   21:52:32.600.06-Aug-2020 5001.01 5772.47 84.27 4.00   6.60 2646.47
   21:52:32.800.06-Aug-2020 5001.01 5772.65 84.27 4.00   6.80 2646.47
   21:52:33.000.06-Aug-2020 5001.01 5772.49 84.27 4.00   7.00 2646.47
   21:52:33.200.06-Aug-2020 5001.01 5772.49 84.27 4.00   7.20 2646.47
   21:52:33.400.06-Aug-2020 5001.01 5772.49 84.27 4.00   7.40 2646.47
   21:52:33.600.06-Aug-2020 5001.01 5773.98 84.27 4.00   7.60 2646.47
   21:52:33.800.06-Aug-2020 5001.01 5772.67 84.27 4.00   7.80 2646.47
   21:52:34.000.06-Aug-2020 5001.01 5767.04 84.27 4.00   8.00 2646.47
   21:52:34.200.06-Aug-2020 5001.01 5767.04 84.27 4.00   8.20 2646.47
   21:52:34.400.06-Aug-2020 5001.01 5773.99 84.27 4.00   8.40 2646.47
   21:52:34.600.06-Aug-2020 5001.01 5773.38 84.26 4.00   8.60 2646.47
   21:52:34.800.06-Aug-2020 5001.01 5776.53 84.26 4.00   8.80 2646.47
   21:52:35.000.06-Aug-2020 5001.01 5774.25 84.26 4.00   9.00 2646.47
   21:52:35.200.06-Aug-2020 5001.01 5776.87 84.26 4.00   9.20 2646.47
   21:52:35.400.06-Aug-2020 5001.01 5775.12 84.26 4.00   9.40 2646.47
   21:52:35.600.06-Aug-2020 5001.01 5776.83 84.26 4.00   9.60 2646.47
   21:52:35.800.06-Aug-2020 5001.01 5774.80 84.26 4.00   9.80 2646.47
   21:52:36.000.06-Aug-2020 5001.01 5776.23 84.26 4.00  10.00 2646.47
   21:52:36.200.06-Aug-2020 5001.01 5776.23 84.26 4.00  10.20 2646.47
   21:52:36.400.06-Aug-2020 5001.01 5775.78 84.26 4.00  10.40 2646.47
   21:52:36.600.06-Aug-2020 5001.01 5768.85 84.26 4.00  10.60 2646.47
   21:52:36.800.06-Aug-2020 5001.01 5776.86 84.26 4.00  10.80 2646.47
   21:52:37.000.06-Aug-2020 5001.01 5768.57 84.26 4.00  11.00 2646.47
   21:52:37.200.06-Aug-2020 5001.01 5768.57 84.26 4.00  11.20 2646.47
   21:52:37.400.06-Aug-2020 5001.01 5767.12 84.26 4.00  11.40 2646.47
   21:52:37.600.06-Aug-2020 5001.01 5747.99 84.25 4.00  11.60 2646.47
   21:52:37.800.06-Aug-2020 5001.01 5762.36 84.25 4.00  11.80 2646.47
   21:52:38.000.06-Aug-2020 5001.01 5702.41 84.25 4.00  12.00 2646.47
   21:52:38.200.06-Aug-2020 5001.01 5702.41 84.25 4.00  12.20 2646.47
   21:52:38.400.06-Aug-2020 5001.01 5609.56 84.25 4.00  12.40 2646.47
   21:52:38.600.06-Aug-2020 5001.01 5539.52 84.25 4.00  12.60 2646.47
   21:52:38.800.06-Aug-2020 5001.01 5480.52 84.25 4.00  12.80 2646.47
   21:52:39.000.06-Aug-2020 5001.01 5406.67 84.25 4.00  13.00 2646.47
   21:52:39.200.06-Aug-2020 5001.01 5406.67 84.25 4.00  13.20 2646.47
   21:52:39.400.06-Aug-2020 5001.01 5216.91 84.25 4.00  13.40 2646.47
   21:52:39.600.06-Aug-2020 5001.01 5158.38 84.25 4.00  13.60 2646.47
   21:52:39.800.06-Aug-2020 5001.01 5126.39 84.25 4.00  13.80 2646.47
   21:52:40.000.06-Aug-2020 5001.01 5049.68 84.25 4.00  14.00 2646.47
   21:52:40.200.06-Aug-2020 5001.01 5049.68 84.25 4.00  14.20 2646.47
   21:52:40.400.06-Aug-2020 5001.01 5006.49 84.25 4.00  14.40 2646.47
   21:52:40.600.06-Aug-2020 5001.01 4924.67 84.24 4.00  14.60 2646.47
   21:52:40.800.06-Aug-2020 5001.01 4877.61 84.24 4.00  14.80 2646.47
   21:52:41.000.06-Aug-2020 5001.01 4813.85 84.24 4.00  15.00 2646.47
   21:52:41.200.06-Aug-2020 5001.01 4813.85 84.24 4.00  15.20 2646.47
   21:52:41.400.06-Aug-2020 5001.01 4696.27 84.24 4.00  15.40 2646.47
   21:52:41.600.06-Aug-2020 5001.01 4623.25 84.24 4.00  15.60 2646.47
   21:52:41.800.06-Aug-2020 5001.01 4551.42 84.24 4.00  15.80 2646.47
   21:52:42.000.06-Aug-2020 5001.01 4562.74 84.24 4.00  16.00 2646.47
   21:52:42.200.06-Aug-2020 5001.01 4562.74 84.24 4.00  16.20 2646.47
   21:52:42.400.06-Aug-2020 5001.01 4620.86 84.24 4.00  16.40 2646.47
   21:52:42.600.06-Aug-2020 5001.01 4543.95 84.24 4.00  16.60 2646.47
   21:52:42.800.06-Aug-2020 5001.01 4470.06 84.24 4.00  16.80 2646.47
   21:52:43.000.06-Aug-2020 5001.01 4416.59 84.23 4.00  17.00 2646.47
   21:52:43.200.06-Aug-2020 5001.01 4416.59 84.23 4.00  17.20 2646.47
   21:52:43.400.06-Aug-2020 5001.01 4594.95 84.23 4.00  17.40 2646.47
   21:52:43.600.06-Aug-2020 5001.01 4879.25 84.23 4.00  17.60 2646.47
   21:52:43.800.06-Aug-2020 5001.01 5332.73 84.23 4.00  17.80 2646.47
   21:52:44.000.06-Aug-2020 5001.01 5537.55 84.23 4.00  18.00 2646.47
   21:52:44.200.06-Aug-2020 5001.01 5724.03 84.23 4.00  18.20 2646.47
   21:52:44.400.06-Aug-2020 5001.01 5888.01 84.23 4.00  18.40 2646.47
   21:52:44.600.06-Aug-2020 5001.01 6004.27 84.23 4.00  18.60 2646.47
   21:52:44.800.06-Aug-2020 5001.01 6115.97 84.23 4.00  18.80 2646.47
   21:52:45.000.06-Aug-2020 5001.01 6275.16 84.23 4.00  19.00 2646.47
   21:52:45.200.06-Aug-2020 5001.01 6275.16 84.23 4.00  19.20 2646.47
   21:52:45.400.06-Aug-2020 5001.01 6519.47 84.22 4.00  19.40 2646.47
   21:52:45.600.06-Aug-2020 5001.01 6542.35 84.22 4.00  19.60 2646.47
   21:52:45.800.06-Aug-2020 5001.01 6391.96 84.22 4.00  19.80 2646.47
   21:52:46.000.06-Aug-2020 5001.01 6321.96 84.22 4.00  20.00 2646.47
   21:52:46.200.06-Aug-2020 5001.01 6321.96 84.22 4.00  20.20 2646.47
   21:52:46.400.06-Aug-2020 5001.01 6445.43 84.22 4.00  20.40 2646.47
   21:52:46.600.06-Aug-2020 5001.01 6513.20 84.22 4.00  20.60 2646.47
   21:52:46.800.06-Aug-2020 5001.01 6531.84 84.22 4.00  20.80 2646.47
   21:52:47.000.06-Aug-2020 5001.01 6603.98 84.22 4.00  21.00 2646.47
   21:52:47.200.06-Aug-2020 5001.01 6603.98 84.22 4.00  21.20 2646.47
   21:52:47.400.06-Aug-2020 5001.01 6432.06 84.22 4.00  21.40 2646.47
   21:52:47.600.06-Aug-2020 5001.01 6462.98 84.22 4.00  21.60 2646.47
   21:52:47.800.06-Aug-2020 5001.01 6485.80 84.22 4.00  21.80 2646.47
   21:52:48.000.06-Aug-2020 5001.01 6500.37 84.22 4.00  22.00 2646.47
   21:52:48.200.06-Aug-2020 5001.01 6500.37 84.22 4.00  22.20 2646.47
   21:52:48.400.06-Aug-2020 5001.01 6516.29 84.22 4.00  22.40 2646.47
   21:52:48.600.06-Aug-2020 5001.01 6521.36 84.21 4.00  22.60 2646.47
   21:52:48.800.06-Aug-2020 5001.01 6525.00 84.21 4.00  22.80 2646.47
