~Version Information
 VERS.                  2.0:   CWLS log ASCII Standard -VERSION 2.0
 WRAP.                   NO:   One line per depth step
~Well Information Block
#MNEM.UNIT     VALUE/NAME     DESCRIPTION
#---------     -----------    ---------------------------
 STRT.S             21:52:26 06-Aug-20: START TIME 21:52:26 06-Aug-20
 STOP.S             22:00:18 06-Aug-20: STOP TIME  22:00:18 06-Aug-20
 STEP.S                   0.00: STEP TIME
 NULL.                 -999.25: NULL VALUE
 DFWT.                        :  DIST FWL TEXT
 DFST.                        :  DIST FSL TEXT
 DMF .             Drill Floor:  DRILL MEAS FROM
 STIM.      12.00.00 03-Jul-20:  START TIME
 DATE.      00.50.00 09-Aug-20:  END TIME
 SPUD.               03-Jul-20:  SPUD DATE
 NREF.                    Grid:  NORTH REFERENCE
 HPTY.       Minimum Curvature:  HOLE POS TYPE
 DMOD.             Drill Model:  DRILL MOD DESC
 SVYD.                  Survey:  SURVEY DESC
 ILTD.               Lithology:  INTERP LTH DESC
 FTOP.          Formation Tops:  FORM TOPS DESC
 PDAT.          Mean Sea Level:  PERMANENT DATUM
 FLD .                     ACG:  FIELD NAME
 CTRY.              Azerbaijan:  COUNTRY NAME
 WELL.                    E04x:  WELL NAME
 SRVC.          Turan Drilling:  CONTRACTOR
 COMP.     BP Exploration (Caspian Sea) Ltd.:  COMPANY
 SON .        AZ-XX-0906531346:  JOB NUMBER
 WTYP.                Deviated:  WELL TYPE
 MDS .        Operator Entered:  MAG DATA SOURCE
 UWI .                     N/A:  UNIQUE WELL IDENTIFIER
 API .                     N/A:  API NUMBER
 BASE.              Azerbaijan:  LOGGING EQUIPMENT BASE LOCATION
 REGN.                   EESSA:  REGION
 PROV.                    Baku:  PROVINCE
 STAT.                    Baku:  STATE NAME
 MWDS.                    Baku:  MWD SHOP
 JOBN.        AZ-XX-0906531346:  JOB TICKET NUMB
 RIG .                     DWG:  RIG NAME
 DOE .                     N/A:  DOE NUMBER
 DCON.         Sperry Drilling:  DIRECTNL CONTR
 UNIT.                     N/A:  LOGGING EQUIPMENT ID
 CNTY.                        :  COUNTY
 LOC .                        :  LOCATION
 LMF .             Drill Floor:  LOG MEASURED FROM
 TVDS.m                  43.16:  TVDSS CORRECTN
 LATI.deg                40.17:  LATITUDE
 LONG.deg                51.17:  LONGITUDE
 WHNS.m                  -0.12:  WELL HEAD N/S
 WHEW.m                  -5.41:  WELL HEAD E/W
 UTMX.m              514337.95:  UTM X
 UTMY.m             4448627.46:  UTM Y
 DFWL.m                   0.00:  DISTANCE FWL
 DFSL.m                   0.00:  DISTANCE FSL
 SDEP.m                3088.01:  START DEPTH
 TDD .m                5200.01:  TOTAL DEPTH (DRILLER)
 VSDR.deg               244.51:  VERT SEC DIRECT
 GVFD.g                   1.00:  GRAVITY FIELD
 MFLD.nT              50329.80:  MAGNETIC FIELD
 MDIP.deg                59.63:  MAGNETIC DIP
 MDEC.deg                 6.59:  MAGNETIC DECL
 GRDC.deg                 0.09:  GRID CORRECTION
 AZTC.deg                 6.50:  AZM TOTAL CORR
 EPD .m                   0.00:  ELEVATION
 EGL .m                   0.00:  GROUND ELEVATION
 WDMS.m                 176.20:  WD ELEV
 APD .m                  43.16:  DEPTH ABOVE PD
 DEP .m                3084.71:  DEPTH
 AGAP.m                  43.16:  AIR GAP
 VSEW.m                  -5.41:  VERT SEC E/W
 VSNS.m                  -0.12:  VERT SEC N/S
 EKB .m                   0.00:  KB ELEVATION
 EDF .m                  43.16:  DF ELEVATION
 TDL .m                 243.00:  TOTAL DEPTH (LOGGER)
 VSC .                       0:  VS TO CLOSURE
 MAGU.                 1853542:  MAGUTM CHECKSUM
~Parameter Information Block
#MNEM.UNIT       Value        Description
#---------     -----------    ---------------------------
 AV  .mps                 1.91:  Ann Velocity 
 AVMX.mps                 2.52:  Max Ann Veloc 
 AZIF.deg               308.97:  Azm, Final 
 BHAT.        Rotary Steerable:  BHA Type 
 BROT.°/30m               1.00:  Build Rotating 
 BS  .in                  6.50:  Bit Size 
 BSZ .in                  6.50:  Bit Size 
 BTPL.psig              350.00:  Bit Press Loss 
 CABU.                      No:  Customer Abuse 
 CGEO.           Asif Pashayev:  Customer Geo 
 COMM.                     #‚:  Run Comments 1 
 TCS .hr                 35.86:  Time Ciculation Ended 
 CV  .mps                 2.31:  Crit Velocity 
 CVMX.mps                 2.31:  Max Crit Veloc 
 DD1 .         Intigam Rahimov:  Direct Drillr 1 
 DDSV.               Geo-Pilot:  DD Service 
 DEFF.%                  92.00:  % Det Eff 
 DLRX.°/30m               1.00:  Dogleg Rot Max 
 DLSO.°/30m               1.00:  Dogleg Oriented 
 DLSX.°/30m               1.42:  Dogleg Str Max 
 DRET.      15.50.00 07-Aug-20:  Drill End Time 
 DRST.      10.40.00 06-Aug-20:  Drill Start Tim 
 DTIM.hr                 21.30:  Time Drilling 
 EDEP.m                5200.01:  End Depth 
 ENG1.            Alan Tuganov:  Engineer 1 
 ENG2.         Almaz Almadatov:  Engineer 2 
 ENG3.     Zammelal Abdullah Sani:  Engineer 3 
 ETIM.      22.42.00 08-Aug-20:  End Time 
 FLOI.gpm               395.00:  Flow In 
 FLON.gpm               350.00:  Flow In Min 
 FLOS.cptm                0.00:  Fluid Loss 
 FLOX.gpm               404.00:  Flow In Max 
 FTRO.       Formation Presure:  FTWD Run Obj 
 HFLO.                      No:  High Flow 
 HPRE.                      No:  High Pressure 
 HTEM.                      No:  High Temp 
 HYDO.m                   1.80:  Hydro Offset 
 IFIN.deg                72.64:  Inc, Final 
 IMAX.deg                73.68:  Inc Max 
 IMIN.deg                72.64:  Inc Min 
 IMND.m                5189.69:  Inc Min Depth 
 IMXD.m                5067.88:  Inc Max Depth 
 JARR.                      No:  Jarring 
 LETM.      15.50.00 07-Aug-20:  Log End Time 
 LOST.hr                     0:  Lost Rig Time 
 LSTM.      10.40.00 06-Aug-20:  Log Start Time 
 MDCL.ppm             36000.00:  Mud Chlorides 
 MDES.     Inversion Oil/Synthetic:  Mud Desc 
 DFD .sg                  1.36:  Mud Density 
 MDMN.sg                  1.36:  Dens Mud Min 
 MDMX.sg                  1.36:  Dens Mud Max 
 MOIL.                      70:  Run Mud Oil % 
 MOWR.                   70:30:  Run Mud OWR 
 MSND.                    0.00:  Run Mud Sand % 
 MSOL.                   17.60:  Run Mud Solids% 
 DFV .spqt               73.00:  Mud Viscosity 
 MWOD.in                  4.75:  MWD Tool OD 
 MWSI.                      No:  Serv Intrp, MWD 
 OTIM.hr                 85.66:  Time Operating 
 PCON.           Look Like New:  Pad Condition 
 PMAX.psia             6250.00:  Press Op, Max 
 PV  .cP                 65.00:  Mud PV 
 RUN .                     900:  Run Number 
 ROPA.m/hr               11.40:  ROP Avg 
 ROPN.m/hr                5.00:  ROP Min 
 ROPX.m/hr               20.00:  ROP Max 
 RPMA.rpm               130.00:  RPM Surface Avg 
 RPMN.rpm                40.00:  RPM Surface Min 
 RPMX.rpm               140.00:  RPM Surface Max 
 RRUN.                    L205:  Rig Run Number 
 RTIM.hr                  1.00:  Time Reaming 
 SAZI.deg               313.52:  Azm, Start 
 SDEP.m                4957.01:  Start Depth 
 SIDD.                      No:  Serv Intrp, DD 
 SINC.deg                73.16:  Inc, Start 
 SPPA.psig             5657.00:  SPP Avg 
 SPPN.psig             2500.00:  SPP Min 
 SPPX.psig             5806.00:  SPP Max 
 STIM.      07.12.00 05-Aug-20:  Start Time 
 SVCS.                 DD, MWD:  Services 
 SVER.                    9.20:  Sperry Version 
 TDAT.m                 243.00:  Tot Depth Attmp 
 TDDF.                      No:  Trip for DD 
 TDLG.m                 243.00:  Tot Depth Loggd 
 TFF .                      No:  Trip for Fail 
 TQAA.f-kp               13.00:  Torque Abs Avg 
 TQAN.f-kp               11.00:  Torque Abs Min 
 TQAX.f-kp               16.00:  Torque Abs Max 
 TRRT.°/30m               1.00:  Turn Rotating 
 MRT .                    HCIM:  Maximum Recorded Temperature 
 TTMX.degC               96.08:  Max Tool Temp 
 VS01.                90515411:  Virtual Str1 SN 
 VS02.                90512716:  Virtual Str2 SN 
 VS03.                90522362:  Virtual Str3 SN 
 VS04.                90619415:  Virtual Str4 SN 
 VS05.                90619414:  Virtual Str5 SN 
 VS06.                90597748:  Virtual Str6 SN 
 WBMN.klb                 2.00:  WOB Min 
 WITN.           Adil Mammadov:  Customer Rep 
 WITN.     Alexander Yadullayev:  Customer Rep 2 
 WOBA.klb                 7.00:  WOB Avg 
 WOBX.klb                23.00:  WOB Max 
 YP  .lhf2               37.00:  Yield Point 
~Curve Information Block
#MNEM.UNIT                 API CODE     Curve Description
#---------               -----------    ---------------------------
 TIME.HHMMSS            00 000 000 000:  GT Time & Date
 GTDEPTH.m              00 000 000 000:  GT Depth
 GTPQH.psia             00 000 000 000:  GT HR Quartz Pressure
 GTTQ.degC              00 000 000 000:  GT Quartz Temperature
 GTTN.NONE              00 000 000 000:  GT Test Number
 GTET.sec               00 000 000 000:  GT Elapsed Test Time
 GTTVD.m                00 000 000 000:  GT True Vertical Depth
#Other Information
#
#WARRANTY: Halliburton will use its best efforts to furnish customers with 
#accurate information and interpretations that are part of, and incident to, the services 
#provided.  However, Halliburton cannot and does not warrant the accuracy 
#or correctness of such information and interpretations.  Under no circumstances should any 
#such information or interpretation be relied upon as the sole basis for any drilling, 
#completion, production, or financial decision or any procedure involving any risk to the 
#safety of any drilling venture, drilling rig or its crew or any other third party.  The 
#Customer has full responsibility for all drilling, completion and production operation.  
#Halliburton makes no representations or warranties, either expressed or 
#implied, including, but not limited to, the implied warranties of merchantability or fitness 
#for a particular purpose, with respect to the services rendered.  In no event will 
#Halliburton be liable for failure to obtain any particular results or for 
#any damages, including, but not limited to, indirect, special or consequential damages, 
#resulting from the use of any information or interpretation provided by Halliburton.
#
~A           TIME           GTDEPTH  GTPQH  GTTQ  GTTN  GTET   GTTVD  
# ...
   21:52:49.000.06-Aug-2020 5001.01 6528.80 84.21 4.00  23.00 2646.47
   21:52:49.200.06-Aug-2020 5001.01 6528.80 84.21 4.00  23.20 2646.47
   21:52:49.400.06-Aug-2020 5001.01 6530.17 84.21 4.00  23.40 2646.47
   21:52:49.600.06-Aug-2020 5001.01 6530.35 84.21 4.00  23.60 2646.47
   21:52:49.800.06-Aug-2020 5001.01 6528.63 84.21 4.00  23.80 2646.47
   21:52:50.000.06-Aug-2020 5001.01 6530.00 84.21 4.00  24.00 2646.47
   21:52:50.200.06-Aug-2020 5001.01 6531.23 84.21 4.00  24.20 2646.47
   21:52:50.400.06-Aug-2020 5001.01 6531.63 84.21 4.00  24.40 2646.47
   21:52:50.600.06-Aug-2020 5001.01 6532.59 84.21 4.00  24.60 2646.47
   21:52:50.800.06-Aug-2020 5001.01 6532.90 84.21 4.00  24.80 2646.47
   21:52:51.000.06-Aug-2020 5001.01 6533.53 84.21 4.00  25.00 2646.47
   21:52:51.200.06-Aug-2020 5001.01 6533.53 84.21 4.00  25.20 2646.47
   21:52:51.400.06-Aug-2020 5001.01 6533.94 84.21 4.00  25.40 2646.47
   21:52:51.600.06-Aug-2020 5001.01 6533.91 84.21 4.00  25.60 2646.47
   21:52:51.800.06-Aug-2020 5001.01 6463.57 84.21 4.00  25.80 2646.47
   21:52:52.000.06-Aug-2020 5001.01 5738.57 84.21 4.00  26.00 2646.47
   21:52:52.200.06-Aug-2020 5001.01 5472.28 84.21 4.00  26.20 2646.47
   21:52:52.400.06-Aug-2020 5001.01 5184.38 84.21 4.00  26.40 2646.47
   21:52:52.600.06-Aug-2020 5001.01 4700.35 84.21 4.00  26.60 2646.47
   21:52:52.800.06-Aug-2020 5001.01 4258.53 84.21 4.00  26.80 2646.47
   21:52:53.000.06-Aug-2020 5001.01 3859.74 84.21 4.00  27.00 2646.47
   21:52:53.200.06-Aug-2020 5001.01 3859.74 84.21 4.00  27.20 2646.47
   21:52:53.400.06-Aug-2020 5001.01 3484.67 84.21 4.00  27.40 2646.47
   21:52:53.600.06-Aug-2020 5001.01 3488.52 84.20 4.00  27.60 2646.47
   21:52:53.800.06-Aug-2020 5001.01 3492.24 84.20 4.00  27.80 2646.47
   21:52:54.000.06-Aug-2020 5001.01 3490.71 84.20 4.00  28.00 2646.47
   21:52:54.200.06-Aug-2020 5001.01 3490.71 84.20 4.00  28.20 2646.47
   21:52:54.400.06-Aug-2020 5001.01 3488.06 84.20 4.00  28.40 2646.47
   21:52:54.600.06-Aug-2020 5001.01 3486.66 84.20 4.00  28.60 2646.47
   21:52:54.800.06-Aug-2020 5001.01 3489.75 84.20 4.00  28.80 2646.47
   21:52:55.000.06-Aug-2020 5001.01 3486.99 84.20 4.00  29.00 2646.47
   21:52:55.200.06-Aug-2020 5001.01 3486.99 84.20 4.00  29.20 2646.47
   21:52:55.400.06-Aug-2020 5001.01 3485.52 84.20 4.00  29.40 2646.47
   21:52:55.600.06-Aug-2020 5001.01 3484.09 84.20 4.00  29.60 2646.47
   21:52:55.800.06-Aug-2020 5001.01 3483.60 84.19 4.00  29.80 2646.47
   21:52:56.000.06-Aug-2020 5001.01 3483.24 84.19 4.00  30.00 2646.47
   21:52:56.200.06-Aug-2020 5001.01 3483.24 84.19 4.00  30.20 2646.47
   21:52:56.400.06-Aug-2020 5001.01 3482.75 84.19 4.00  30.40 2646.47
   21:52:56.600.06-Aug-2020 5001.01 3482.19 84.19 4.00  30.60 2646.47
   21:52:56.800.06-Aug-2020 5001.01 3482.18 84.19 4.00  30.80 2646.47
   21:52:57.000.06-Aug-2020 5001.01 3481.93 84.19 4.00  31.00 2646.47
   21:52:57.200.06-Aug-2020 5001.01 3481.93 84.19 4.00  31.20 2646.47
   21:52:57.400.06-Aug-2020 5001.01 3481.72 84.19 4.00  31.40 2646.47
   21:52:57.600.06-Aug-2020 5001.01 3481.63 84.18 4.00  31.60 2646.47
   21:52:57.800.06-Aug-2020 5001.01 3481.24 84.18 4.00  31.80 2646.47
   21:52:58.000.06-Aug-2020 5001.01 3481.37 84.18 4.00  32.00 2646.47
   21:52:58.200.06-Aug-2020 5001.01 3481.37 84.18 4.00  32.20 2646.47
   21:52:58.400.06-Aug-2020 5001.01 3481.19 84.18 4.00  32.40 2646.47
   21:52:58.600.06-Aug-2020 5001.01 3481.26 84.18 4.00  32.60 2646.47
   21:52:58.800.06-Aug-2020 5001.01 3481.08 84.18 4.00  32.80 2646.47
   21:52:59.000.06-Aug-2020 5001.01 3481.09 84.18 4.00  33.00 2646.47
   21:52:59.200.06-Aug-2020 5001.01 3481.09 84.18 4.00  33.20 2646.47
   21:52:59.400.06-Aug-2020 5001.01 3480.97 84.17 4.00  33.40 2646.47
   21:52:59.600.06-Aug-2020 5001.01 3481.04 84.17 4.00  33.60 2646.47
   21:52:59.800.06-Aug-2020 5001.01 3481.01 84.17 4.00  33.80 2646.47
   21:53:00.000.06-Aug-2020 5001.01 3480.95 84.17 4.00  34.00 2646.47
   21:53:00.200.06-Aug-2020 5001.01 3480.95 84.17 4.00  34.20 2646.47
   21:53:00.400.06-Aug-2020 5001.01 3480.86 84.17 4.00  34.40 2646.47
   21:53:00.600.06-Aug-2020 5001.01 3480.77 84.17 4.00  34.60 2646.47
   21:53:00.800.06-Aug-2020 5001.01 3481.02 84.16 4.00  34.80 2646.47
   21:53:01.000.06-Aug-2020 5001.01 3481.09 84.18 4.00  35.00 2646.47
   21:53:01.200.06-Aug-2020 5001.01 3480.68 84.16 4.00  35.20 2646.47
   21:53:01.400.06-Aug-2020 5001.01 3480.68 84.16 4.00  35.40 2646.47
   21:53:01.600.06-Aug-2020 5001.01 3489.26 84.16 4.00  35.60 2646.47
   21:53:01.800.06-Aug-2020 5001.01 3489.50 84.16 4.00  35.80 2646.47
   21:53:02.000.06-Aug-2020 5001.01 3489.47 84.16 4.00  36.00 2646.47
   21:53:02.200.06-Aug-2020 5001.01 3489.47 84.16 4.00  36.20 2646.47
   21:53:02.400.06-Aug-2020 5001.01 3489.50 84.16 4.00  36.40 2646.47
   21:53:02.600.06-Aug-2020 5001.01 3489.56 84.15 4.00  36.60 2646.47
   21:53:02.800.06-Aug-2020 5001.01 3489.53 84.15 4.00  36.80 2646.47
   21:53:03.000.06-Aug-2020 5001.01 3489.58 84.15 4.00  37.00 2646.47
   21:53:03.200.06-Aug-2020 5001.01 3489.58 84.15 4.00  37.20 2646.47
   21:53:03.400.06-Aug-2020 5001.01 3489.52 84.15 4.00  37.40 2646.47
   21:53:03.600.06-Aug-2020 5001.01 3489.53 84.15 4.00  37.60 2646.47
   21:53:03.800.06-Aug-2020 5001.01 3489.65 84.15 4.00  37.80 2646.47
   21:53:04.000.06-Aug-2020 5001.01 3489.58 84.15 4.00  38.00 2646.47
   21:53:04.200.06-Aug-2020 5001.01 3489.58 84.15 4.00  38.20 2646.47
   21:53:04.400.06-Aug-2020 5001.01 3489.54 84.15 4.00  38.40 2646.47
   21:53:04.600.06-Aug-2020 5001.01 3489.59 84.14 4.00  38.60 2646.47
   21:53:04.800.06-Aug-2020 5001.01 3489.68 84.14 4.00  38.80 2646.47
   21:53:05.000.06-Aug-2020 5001.01 3489.59 84.14 4.00  39.00 2646.47
   21:53:05.200.06-Aug-2020 5001.01 3489.59 84.14 4.00  39.20 2646.47
   21:53:05.400.06-Aug-2020 5001.01 3489.58 84.14 4.00  39.40 2646.47
   21:53:05.600.06-Aug-2020 5001.01 3489.70 84.14 4.00  39.60 2646.47
   21:53:05.800.06-Aug-2020 5001.01 3489.54 84.14 4.00  39.80 2646.47
   21:53:06.000.06-Aug-2020 5001.01 3489.72 84.14 4.00  40.00 2646.47
   21:53:06.200.06-Aug-2020 5001.01 3489.72 84.14 4.00  40.20 2646.47
   21:53:06.400.06-Aug-2020 5001.01 3489.68 84.14 4.00  40.40 2646.47
   21:53:06.600.06-Aug-2020 5001.01 3489.50 84.14 4.00  40.60 2646.47
   21:53:06.800.06-Aug-2020 5001.01 3489.71 84.13 4.00  40.80 2646.47
   21:53:07.000.06-Aug-2020 5001.01 3489.66 84.13 4.00  41.00 2646.47
   21:53:07.200.06-Aug-2020 5001.01 3489.66 84.13 4.00  41.20 2646.47
   21:53:07.400.06-Aug-2020 5001.01 3489.69 84.13 4.00  41.40 2646.47
   21:53:07.600.06-Aug-2020 5001.01 3489.66 84.13 4.00  41.60 2646.47
   21:53:07.800.06-Aug-2020 5001.01 3489.67 84.13 4.00  41.80 2646.47
   21:53:08.000.06-Aug-2020 5001.01 3489.61 84.13 4.00  42.00 2646.47
   21:53:08.200.06-Aug-2020 5001.01 3489.61 84.13 4.00  42.20 2646.47
   21:53:08.400.06-Aug-2020 5001.01 3489.68 84.13 4.00  42.40 2646.47
   21:53:08.600.06-Aug-2020 5001.01 3489.70 84.13 4.00  42.60 2646.47
   21:53:08.800.06-Aug-2020 5001.01 3489.71 84.13 4.00  42.80 2646.47
   21:53:09.000.06-Aug-2020 5001.01 3489.72 84.13 4.00  43.00 2646.47
   21:53:09.200.06-Aug-2020 5001.01 3489.72 84.13 4.00  43.20 2646.47
   21:53:09.400.06-Aug-2020 5001.01 3489.73 84.12 4.00  43.40 2646.47
   21:53:09.600.06-Aug-2020 5001.01 3489.71 84.12 4.00  43.60 2646.47
   21:53:09.800.06-Aug-2020 5001.01 3489.75 84.12 4.00  43.80 2646.47
   21:53:10.000.06-Aug-2020 5001.01 3489.73 84.12 4.00  44.00 2646.47
   21:53:10.200.06-Aug-2020 5001.01 3489.73 84.12 4.00  44.20 2646.47
   21:53:10.400.06-Aug-2020 5001.01 3489.57 84.12 4.00  44.40 2646.47
   21:53:10.600.06-Aug-2020 5001.01 3489.78 84.12 4.00  44.60 2646.47
   21:53:10.800.06-Aug-2020 5001.01 3489.73 84.12 4.00  44.80 2646.47
   21:53:11.000.06-Aug-2020 5001.01 3489.74 84.12 4.00  45.00 2646.47
   21:53:11.200.06-Aug-2020 5001.01 3489.74 84.12 4.00  45.20 2646.47
   21:53:11.400.06-Aug-2020 5001.01 3489.76 84.12 4.00  45.40 2646.47
   21:53:11.600.06-Aug-2020 5001.01 3489.73 84.12 4.00  45.60 2646.47
   21:53:11.800.06-Aug-2020 5001.01 3489.78 84.12 4.00  45.80 2646.47
