~Version Information
 VERS.                  2.0:   CWLS log ASCII Standard -VERSION 2.0
 WRAP.                   NO:   One line per depth step
~Well Information Block
#MNEM.UNIT     VALUE/NAME     DESCRIPTION
#---------     -----------    ---------------------------
 STRT.S             15:38:44 07-Aug-20: START TIME 15:38:44 07-Aug-20
 STOP.S             15:46:36 07-Aug-20: STOP TIME  15:46:36 07-Aug-20
 STEP.S                   0.00: STEP TIME
 NULL.                 -999.25: NULL VALUE
 DFWT.                        :  DIST FWL TEXT
 DFST.                        :  DIST FSL TEXT
 DMF .             Drill Floor:  DRILL MEAS FROM
 STIM.      12.00.00 03-Jul-20:  START TIME
 DATE.      00.50.00 09-Aug-20:  END TIME
 SPUD.               03-Jul-20:  SPUD DATE
 NREF.                    Grid:  NORTH REFERENCE
 HPTY.       Minimum Curvature:  HOLE POS TYPE
 DMOD.             Drill Model:  DRILL MOD DESC
 SVYD.                  Survey:  SURVEY DESC
 ILTD.               Lithology:  INTERP LTH DESC
 FTOP.          Formation Tops:  FORM TOPS DESC
 PDAT.          Mean Sea Level:  PERMANENT DATUM
 FLD .                     ACG:  FIELD NAME
 CTRY.              Azerbaijan:  COUNTRY NAME
 WELL.                    E04x:  WELL NAME
 SRVC.          Turan Drilling:  CONTRACTOR
 COMP.     BP Exploration (Caspian Sea) Ltd.:  COMPANY
 SON .        AZ-XX-0906531346:  JOB NUMBER
 WTYP.                Deviated:  WELL TYPE
 MDS .        Operator Entered:  MAG DATA SOURCE
 UWI .                     N/A:  UNIQUE WELL IDENTIFIER
 API .                     N/A:  API NUMBER
 BASE.              Azerbaijan:  LOGGING EQUIPMENT BASE LOCATION
 REGN.                   EESSA:  REGION
 PROV.                    Baku:  PROVINCE
 STAT.                    Baku:  STATE NAME
 MWDS.                    Baku:  MWD SHOP
 JOBN.        AZ-XX-0906531346:  JOB TICKET NUMB
 RIG .                     DWG:  RIG NAME
 DOE .                     N/A:  DOE NUMBER
 DCON.         Sperry Drilling:  DIRECTNL CONTR
 UNIT.                     N/A:  LOGGING EQUIPMENT ID
 CNTY.                        :  COUNTY
 LOC .                        :  LOCATION
 LMF .             Drill Floor:  LOG MEASURED FROM
 TVDS.m                  43.16:  TVDSS CORRECTN
 LATI.deg                40.17:  LATITUDE
 LONG.deg                51.17:  LONGITUDE
 WHNS.m                  -0.12:  WELL HEAD N/S
 WHEW.m                  -5.41:  WELL HEAD E/W
 UTMX.m              514337.95:  UTM X
 UTMY.m             4448627.46:  UTM Y
 DFWL.m                   0.00:  DISTANCE FWL
 DFSL.m                   0.00:  DISTANCE FSL
 SDEP.m                3088.01:  START DEPTH
 TDD .m                5200.01:  TOTAL DEPTH (DRILLER)
 VSDR.deg               244.51:  VERT SEC DIRECT
 GVFD.g                   1.00:  GRAVITY FIELD
 MFLD.nT              50329.80:  MAGNETIC FIELD
 MDIP.deg                59.63:  MAGNETIC DIP
 MDEC.deg                 6.59:  MAGNETIC DECL
 GRDC.deg                 0.09:  GRID CORRECTION
 AZTC.deg                 6.50:  AZM TOTAL CORR
 EPD .m                   0.00:  ELEVATION
 EGL .m                   0.00:  GROUND ELEVATION
 WDMS.m                 176.20:  WD ELEV
 APD .m                  43.16:  DEPTH ABOVE PD
 DEP .m                3084.71:  DEPTH
 AGAP.m                  43.16:  AIR GAP
 VSEW.m                  -5.41:  VERT SEC E/W
 VSNS.m                  -0.12:  VERT SEC N/S
 EKB .m                   0.00:  KB ELEVATION
 EDF .m                  43.16:  DF ELEVATION
 TDL .m                 243.00:  TOTAL DEPTH (LOGGER)
 VSC .                       0:  VS TO CLOSURE
 MAGU.                 1853542:  MAGUTM CHECKSUM
~Parameter Information Block
#MNEM.UNIT       Value        Description
#---------     -----------    ---------------------------
 AV  .mps                 1.91:  Ann Velocity 
 AVMX.mps                 2.52:  Max Ann Veloc 
 AZIF.deg               308.97:  Azm, Final 
 BHAT.        Rotary Steerable:  BHA Type 
 BROT.°/30m               1.00:  Build Rotating 
 BS  .in                  6.50:  Bit Size 
 BSZ .in                  6.50:  Bit Size 
 BTPL.psig              350.00:  Bit Press Loss 
 CABU.                      No:  Customer Abuse 
 CGEO.           Asif Pashayev:  Customer Geo 
 COMM.                     6…:  Run Comments 1 
 TCS .hr                 35.86:  Time Ciculation Ended 
 CV  .mps                 2.31:  Crit Velocity 
 CVMX.mps                 2.31:  Max Crit Veloc 
 DD1 .         Intigam Rahimov:  Direct Drillr 1 
 DDSV.               Geo-Pilot:  DD Service 
 DEFF.%                  92.00:  % Det Eff 
 DLRX.°/30m               1.00:  Dogleg Rot Max 
 DLSO.°/30m               1.00:  Dogleg Oriented 
 DLSX.°/30m               1.42:  Dogleg Str Max 
 DRET.      15.50.00 07-Aug-20:  Drill End Time 
 DRST.      10.40.00 06-Aug-20:  Drill Start Tim 
 DTIM.hr                 21.30:  Time Drilling 
 EDEP.m                5200.01:  End Depth 
 ENG1.            Alan Tuganov:  Engineer 1 
 ENG2.         Almaz Almadatov:  Engineer 2 
 ENG3.     Zammelal Abdullah Sani:  Engineer 3 
 ETIM.      22.42.00 08-Aug-20:  End Time 
 FLOI.gpm               395.00:  Flow In 
 FLON.gpm               350.00:  Flow In Min 
 FLOS.cptm                0.00:  Fluid Loss 
 FLOX.gpm               404.00:  Flow In Max 
 FTRO.       Formation Presure:  FTWD Run Obj 
 HFLO.                      No:  High Flow 
 HPRE.                      No:  High Pressure 
 HTEM.                      No:  High Temp 
 HYDO.m                   1.80:  Hydro Offset 
 IFIN.deg                72.64:  Inc, Final 
 IMAX.deg                73.68:  Inc Max 
 IMIN.deg                72.64:  Inc Min 
 IMND.m                5189.69:  Inc Min Depth 
 IMXD.m                5067.88:  Inc Max Depth 
 JARR.                      No:  Jarring 
 LETM.      15.50.00 07-Aug-20:  Log End Time 
 LOST.hr                     0:  Lost Rig Time 
 LSTM.      10.40.00 06-Aug-20:  Log Start Time 
 MDCL.ppm             36000.00:  Mud Chlorides 
 MDES.     Inversion Oil/Synthetic:  Mud Desc 
 DFD .sg                  1.36:  Mud Density 
 MDMN.sg                  1.36:  Dens Mud Min 
 MDMX.sg                  1.36:  Dens Mud Max 
 MOIL.                      70:  Run Mud Oil % 
 MOWR.                   70:30:  Run Mud OWR 
 MSND.                    0.00:  Run Mud Sand % 
 MSOL.                   17.60:  Run Mud Solids% 
 DFV .spqt               73.00:  Mud Viscosity 
 MWOD.in                  4.75:  MWD Tool OD 
 MWSI.                      No:  Serv Intrp, MWD 
 OTIM.hr                 85.66:  Time Operating 
 PCON.           Look Like New:  Pad Condition 
 PMAX.psia             6250.00:  Press Op, Max 
 PV  .cP                 65.00:  Mud PV 
 RUN .                     900:  Run Number 
 ROPA.m/hr               11.40:  ROP Avg 
 ROPN.m/hr                5.00:  ROP Min 
 ROPX.m/hr               20.00:  ROP Max 
 RPMA.rpm               130.00:  RPM Surface Avg 
 RPMN.rpm                40.00:  RPM Surface Min 
 RPMX.rpm               140.00:  RPM Surface Max 
 RRUN.                    L205:  Rig Run Number 
 RTIM.hr                  1.00:  Time Reaming 
 SAZI.deg               313.52:  Azm, Start 
 SDEP.m                4957.01:  Start Depth 
 SIDD.                      No:  Serv Intrp, DD 
 SINC.deg                73.16:  Inc, Start 
 SPPA.psig             5657.00:  SPP Avg 
 SPPN.psig             2500.00:  SPP Min 
 SPPX.psig             5806.00:  SPP Max 
 STIM.      07.12.00 05-Aug-20:  Start Time 
 SVCS.                 DD, MWD:  Services 
 SVER.                    9.20:  Sperry Version 
 TDAT.m                 243.00:  Tot Depth Attmp 
 TDDF.                      No:  Trip for DD 
 TDLG.m                 243.00:  Tot Depth Loggd 
 TFF .                      No:  Trip for Fail 
 TQAA.f-kp               13.00:  Torque Abs Avg 
 TQAN.f-kp               11.00:  Torque Abs Min 
 TQAX.f-kp               16.00:  Torque Abs Max 
 TRRT.°/30m               1.00:  Turn Rotating 
 MRT .                    HCIM:  Maximum Recorded Temperature 
 TTMX.degC               96.08:  Max Tool Temp 
 VS01.                90515411:  Virtual Str1 SN 
 VS02.                90512716:  Virtual Str2 SN 
 VS03.                90522362:  Virtual Str3 SN 
 VS04.                90619415:  Virtual Str4 SN 
 VS05.                90619414:  Virtual Str5 SN 
 VS06.                90597748:  Virtual Str6 SN 
 WBMN.klb                 2.00:  WOB Min 
 WITN.           Adil Mammadov:  Customer Rep 
 WITN.     Alexander Yadullayev:  Customer Rep 2 
 WOBA.klb                 7.00:  WOB Avg 
 WOBX.klb                23.00:  WOB Max 
 YP  .lhf2               37.00:  Yield Point 
~Curve Information Block
#MNEM.UNIT                 API CODE     Curve Description
#---------               -----------    ---------------------------
 TIME.HHMMSS            00 000 000 000:  GT Time & Date
 GTDEPTH.m              00 000 000 000:  GT Depth
 GTPQH.psia             00 000 000 000:  GT HR Quartz Pressure
 GTTQ.degC              00 000 000 000:  GT Quartz Temperature
 GTTN.NONE              00 000 000 000:  GT Test Number
 GTET.sec               00 000 000 000:  GT Elapsed Test Time
 GTTVD.m                00 000 000 000:  GT True Vertical Depth
#Other Information
#
#WARRANTY: Halliburton will use its best efforts to furnish customers with 
#accurate information and interpretations that are part of, and incident to, the services 
#provided.  However, Halliburton cannot and does not warrant the accuracy 
#or correctness of such information and interpretations.  Under no circumstances should any 
#such information or interpretation be relied upon as the sole basis for any drilling, 
#completion, production, or financial decision or any procedure involving any risk to the 
#safety of any drilling venture, drilling rig or its crew or any other third party.  The 
#Customer has full responsibility for all drilling, completion and production operation.  
#Halliburton makes no representations or warranties, either expressed or 
#implied, including, but not limited to, the implied warranties of merchantability or fitness 
#for a particular purpose, with respect to the services rendered.  In no event will 
#Halliburton be liable for failure to obtain any particular results or for 
#any damages, including, but not limited to, indirect, special or consequential damages, 
#resulting from the use of any information or interpretation provided by Halliburton.
#
~A           TIME           GTDEPTH  GTPQH  GTTQ  GTTN   GTET   GTTVD  
# ...
   15:45:54.351.07-Aug-2020 5157.51 3490.29 88.24 11.00 429.58 2691.72
   15:45:54.551.07-Aug-2020 5157.51 3490.21 88.24 11.00 429.78 2691.72
   15:45:54.751.07-Aug-2020 5157.51 3490.11 88.24 11.00 429.98 2691.72
   15:45:54.951.07-Aug-2020 5157.51 3490.35 88.23 11.00 430.18 2691.72
   15:45:55.151.07-Aug-2020 5157.51 3490.35 88.23 11.00 430.38 2691.72
   15:45:55.351.07-Aug-2020 5157.51 3490.10 88.23 11.00 430.58 2691.72
   15:45:55.551.07-Aug-2020 5157.51 3490.33 88.23 11.00 430.78 2691.72
   15:45:55.751.07-Aug-2020 5157.51 3490.33 88.23 11.00 430.98 2691.72
   15:45:55.951.07-Aug-2020 5157.51 3490.06 88.23 11.00 431.18 2691.72
   15:45:56.152.07-Aug-2020 5157.51 3490.06 88.23 11.00 431.38 2691.72
   15:45:56.352.07-Aug-2020 5157.51 3490.46 88.23 11.00 431.58 2691.72
   15:45:56.552.07-Aug-2020 5157.51 3489.86 88.23 11.00 431.78 2691.72
   15:45:56.752.07-Aug-2020 5157.51 3490.45 88.23 11.00 431.98 2691.72
   15:45:56.952.07-Aug-2020 5157.51 3490.40 88.23 11.00 432.18 2691.72
   15:45:57.152.07-Aug-2020 5157.51 3490.40 88.23 11.00 432.38 2691.72
   15:45:57.352.07-Aug-2020 5157.51 3490.19 88.23 11.00 432.58 2691.72
   15:45:57.552.07-Aug-2020 5157.51 3490.08 88.23 11.00 432.78 2691.72
   15:45:57.752.07-Aug-2020 5157.51 3490.51 88.23 11.00 432.98 2691.72
   15:45:57.952.07-Aug-2020 5157.51 3490.39 88.23 11.00 433.18 2691.72
   15:45:58.152.07-Aug-2020 5157.51 3490.39 88.23 11.00 433.38 2691.72
   15:45:58.352.07-Aug-2020 5157.51 3490.37 88.23 11.00 433.58 2691.72
   15:45:58.553.07-Aug-2020 5157.51 3490.38 88.23 11.00 433.78 2691.72
   15:45:58.753.07-Aug-2020 5157.51 3490.30 88.23 11.00 433.98 2691.72
   15:45:58.953.07-Aug-2020 5157.51 3490.30 88.23 11.00 434.18 2691.72
   15:45:59.153.07-Aug-2020 5157.51 3490.30 88.23 11.00 434.38 2691.72
   15:45:59.353.07-Aug-2020 5157.51 3490.34 88.23 11.00 434.58 2691.72
   15:45:59.553.07-Aug-2020 5157.51 3490.27 88.23 11.00 434.78 2691.72
   15:45:59.753.07-Aug-2020 5157.51 3490.28 88.22 11.00 434.98 2691.72
   15:45:59.953.07-Aug-2020 5157.51 3490.30 88.22 11.00 435.18 2691.72
   15:46:00.153.07-Aug-2020 5157.51 3490.30 88.22 11.00 435.38 2691.72
   15:46:00.353.07-Aug-2020 5157.51 3490.43 88.22 11.00 435.58 2691.72
   15:46:00.553.07-Aug-2020 5157.51 3490.36 88.22 11.00 435.78 2691.72
   15:46:00.753.07-Aug-2020 5157.51 3490.32 88.22 11.00 435.98 2691.72
   15:46:00.954.07-Aug-2020 5157.51 3490.26 88.22 11.00 436.18 2691.72
   15:46:01.154.07-Aug-2020 5157.51 3490.26 88.22 11.00 436.38 2691.72
   15:46:01.354.07-Aug-2020 5157.51 3490.37 88.22 11.00 436.58 2691.72
   15:46:01.554.07-Aug-2020 5157.51 3490.24 88.22 11.00 436.78 2691.72
   15:46:01.754.07-Aug-2020 5157.51 3490.32 88.22 11.00 436.98 2691.72
   15:46:01.954.07-Aug-2020 5157.51 3490.31 88.22 11.00 437.18 2691.72
   15:46:02.154.07-Aug-2020 5157.51 3490.30 88.22 11.00 437.38 2691.72
   15:46:02.354.07-Aug-2020 5157.51 3490.28 88.22 11.00 437.58 2691.72
   15:46:02.554.07-Aug-2020 5157.51 3490.27 88.22 11.00 437.78 2691.72
   15:46:02.754.07-Aug-2020 5157.51 3490.28 88.22 11.00 437.98 2691.72
   15:46:02.954.07-Aug-2020 5157.51 3489.96 88.22 11.00 438.18 2691.72
   15:46:03.154.07-Aug-2020 5157.51 3489.96 88.22 11.00 438.38 2691.72
   15:46:03.355.07-Aug-2020 5157.51 3490.40 88.22 11.00 438.58 2691.72
   15:46:03.555.07-Aug-2020 5157.51 3490.18 88.22 11.00 438.78 2691.72
   15:46:03.755.07-Aug-2020 5157.51 3490.29 88.22 11.00 438.98 2691.72
   15:46:03.955.07-Aug-2020 5157.51 3493.51 88.22 11.00 439.18 2691.72
   15:46:04.155.07-Aug-2020 5157.51 3493.51 88.22 11.00 439.38 2691.72
   15:46:04.355.07-Aug-2020 5157.51 3771.51 88.22 11.00 439.58 2691.72
   15:46:04.555.07-Aug-2020 5157.51 5886.46 88.22 11.00 439.78 2691.72
   15:46:04.755.07-Aug-2020 5157.51 5890.74 88.21 11.00 439.98 2691.72
   15:46:04.955.07-Aug-2020 5157.51 5881.79 88.21 11.00 440.18 2691.72
   15:46:05.155.07-Aug-2020 5157.51 5881.79 88.21 11.00 440.38 2691.72
   15:46:05.355.07-Aug-2020 5157.51 5895.69 88.21 11.00 440.58 2691.72
   15:46:05.555.07-Aug-2020 5157.51 5885.98 88.21 11.00 440.78 2691.72
   15:46:05.756.07-Aug-2020 5157.51 5881.75 88.21 11.00 440.98 2691.72
   15:46:05.956.07-Aug-2020 5157.51 5896.44 88.21 11.00 441.18 2691.72
   15:46:06.156.07-Aug-2020 5157.51 5895.11 88.21 11.00 441.38 2691.72
   15:46:06.356.07-Aug-2020 5157.51 5893.22 88.21 11.00 441.58 2691.72
   15:46:06.556.07-Aug-2020 5157.51 5892.75 88.21 11.00 441.78 2691.72
   15:46:06.756.07-Aug-2020 5157.51 5896.02 88.21 11.00 441.98 2691.72
   15:46:06.956.07-Aug-2020 5157.51 5897.25 88.21 11.00 442.18 2691.72
   15:46:07.156.07-Aug-2020 5157.51 5897.25 88.21 11.00 442.38 2691.72
   15:46:07.356.07-Aug-2020 5157.51 5897.59 88.21 11.00 442.58 2691.72
   15:46:07.556.07-Aug-2020 5157.51 5898.64 88.21 11.00 442.78 2691.72
   15:46:07.756.07-Aug-2020 5157.51 5898.27 88.21 11.00 442.98 2691.72
   15:46:07.956.07-Aug-2020 5157.51 5897.72 88.21 11.00 443.18 2691.72
   15:46:08.157.07-Aug-2020 5157.51 5897.72 88.21 11.00 443.38 2691.72
   15:46:08.357.07-Aug-2020 5157.51 5898.23 88.21 11.00 443.58 2691.72
   15:46:08.557.07-Aug-2020 5157.51 5892.61 88.21 11.00 443.78 2691.72
   15:46:08.757.07-Aug-2020 5157.51 5897.93 88.21 11.00 443.98 2691.72
   15:46:08.957.07-Aug-2020 5157.51 5902.16 88.21 11.00 444.18 2691.72
   15:46:09.157.07-Aug-2020 5157.51 5902.16 88.21 11.00 444.38 2691.72
   15:46:09.357.07-Aug-2020 5157.51 5899.67 88.22 11.00 444.58 2691.72
   15:46:09.557.07-Aug-2020 5157.51 5900.23 88.22 11.00 444.78 2691.72
   15:46:09.757.07-Aug-2020 5157.51 5899.15 88.22 11.00 444.98 2691.72
   15:46:09.957.07-Aug-2020 5157.51 5898.13 88.22 11.00 445.18 2691.72
   15:46:10.157.07-Aug-2020 5157.51 5899.68 88.22 11.00 445.38 2691.72
   15:46:10.357.07-Aug-2020 5157.51 5899.93 88.22 11.00 445.58 2691.72
   15:46:10.558.07-Aug-2020 5157.51 5899.10 88.22 11.00 445.78 2691.72
   15:46:10.758.07-Aug-2020 5157.51 5898.67 88.22 11.00 445.98 2691.72
   15:46:10.958.07-Aug-2020 5157.51 5899.47 88.22 11.00 446.18 2691.72
   15:46:11.158.07-Aug-2020 5157.51 5899.47 88.22 11.00 446.38 2691.72
   15:46:11.358.07-Aug-2020 5157.51 5897.83 88.22 11.00 446.58 2691.72
   15:46:11.558.07-Aug-2020 5157.51 5898.58 88.22 11.00 446.78 2691.72
   15:46:11.758.07-Aug-2020 5157.51 5899.81 88.22 11.00 446.98 2691.72
   15:46:11.958.07-Aug-2020 5157.51 5894.44 88.22 11.00 447.18 2691.72
   15:46:12.158.07-Aug-2020 5157.51 5894.44 88.22 11.00 447.38 2691.72
   15:46:12.358.07-Aug-2020 5157.51 5895.89 88.22 11.00 447.58 2691.72
   15:46:12.558.07-Aug-2020 5157.51 5892.69 88.22 11.00 447.78 2691.72
   15:46:12.758.07-Aug-2020 5157.51 5897.40 88.22 11.00 447.98 2691.72
   15:46:12.958.07-Aug-2020 5157.51 5900.58 88.22 11.00 448.18 2691.72
   15:46:13.159.07-Aug-2020 5157.51 5900.58 88.22 11.00 448.38 2691.72
   15:46:13.359.07-Aug-2020 5157.51 5897.31 88.22 11.00 448.58 2691.72
   15:46:13.559.07-Aug-2020 5157.51 5901.08 88.22 11.00 448.78 2691.72
   15:46:13.759.07-Aug-2020 5157.51 5893.74 88.22 11.00 448.98 2691.72
   15:46:13.959.07-Aug-2020 5157.51 5893.06 88.22 11.00 449.19 2691.72
   15:46:14.159.07-Aug-2020 5157.51 5893.06 88.22 11.00 449.39 2691.72
   15:46:14.359.07-Aug-2020 5157.51 5898.43 88.22 11.00 449.59 2691.72
   15:46:14.559.07-Aug-2020 5157.51 5898.05 88.22 11.00 449.79 2691.72
   15:46:14.759.07-Aug-2020 5157.51 5891.98 88.22 11.00 449.99 2691.72
   15:46:14.959.07-Aug-2020 5157.51 5897.09 88.22 11.00 450.19 2691.72
   15:46:15.159.07-Aug-2020 5157.51 5897.09 88.22 11.00 450.39 2691.72
   15:46:15.359.07-Aug-2020 5157.51 5896.22 88.22 11.00 450.59 2691.72
   15:46:15.560.07-Aug-2020 5157.51 5897.95 88.22 11.00 450.79 2691.72
   15:46:15.760.07-Aug-2020 5157.51 5898.57 88.22 11.00 450.99 2691.72
   15:46:15.960.07-Aug-2020 5157.51 5899.11 88.22 11.00 451.19 2691.72
   15:46:16.160.07-Aug-2020 5157.51 5899.11 88.22 11.00 451.39 2691.72
   15:46:16.360.07-Aug-2020 5157.51 5898.80 88.22 11.00 451.59 2691.72
   15:46:16.560.07-Aug-2020 5157.51 5898.81 88.22 11.00 451.79 2691.72
   15:46:16.760.07-Aug-2020 5157.51 5891.81 88.22 11.00 451.99 2691.72
