~Version Information
 VERS.                  2.0:   CWLS log ASCII Standard -VERSION 2.0
 WRAP.                   NO:   One line per depth step
~Well Information Block
#MNEM.UNIT     VALUE/NAME     DESCRIPTION
#---------     -----------    ---------------------------
 STRT.S             21:52:26 06-Aug-20: START TIME 21:52:26 06-Aug-20
 STOP.S             22:00:18 06-Aug-20: STOP TIME  22:00:18 06-Aug-20
 STEP.S                   0.00: STEP TIME
 NULL.                 -999.25: NULL VALUE
 DFWT.                        :  DIST FWL TEXT
 DFST.                        :  DIST FSL TEXT
 DMF .             Drill Floor:  DRILL MEAS FROM
 STIM.      12.00.00 03-Jul-20:  START TIME
 DATE.      00.50.00 09-Aug-20:  END TIME
 SPUD.               03-Jul-20:  SPUD DATE
 NREF.                    Grid:  NORTH REFERENCE
 HPTY.       Minimum Curvature:  HOLE POS TYPE
 DMOD.             Drill Model:  DRILL MOD DESC
 SVYD.                  Survey:  SURVEY DESC
 ILTD.               Lithology:  INTERP LTH DESC
 FTOP.          Formation Tops:  FORM TOPS DESC
 PDAT.          Mean Sea Level:  PERMANENT DATUM
 FLD .                     ACG:  FIELD NAME
 CTRY.              Azerbaijan:  COUNTRY NAME
 WELL.                    E04x:  WELL NAME
 SRVC.          Turan Drilling:  CONTRACTOR
 COMP.     BP Exploration (Caspian Sea) Ltd.:  COMPANY
 SON .        AZ-XX-0906531346:  JOB NUMBER
 WTYP.                Deviated:  WELL TYPE
 MDS .        Operator Entered:  MAG DATA SOURCE
 UWI .                     N/A:  UNIQUE WELL IDENTIFIER
 API .                     N/A:  API NUMBER
 BASE.              Azerbaijan:  LOGGING EQUIPMENT BASE LOCATION
 REGN.                   EESSA:  REGION
 PROV.                    Baku:  PROVINCE
 STAT.                    Baku:  STATE NAME
 MWDS.                    Baku:  MWD SHOP
 JOBN.        AZ-XX-0906531346:  JOB TICKET NUMB
 RIG .                     DWG:  RIG NAME
 DOE .                     N/A:  DOE NUMBER
 DCON.         Sperry Drilling:  DIRECTNL CONTR
 UNIT.                     N/A:  LOGGING EQUIPMENT ID
 CNTY.                        :  COUNTY
 LOC .                        :  LOCATION
 LMF .             Drill Floor:  LOG MEASURED FROM
 TVDS.m                  43.16:  TVDSS CORRECTN
 LATI.deg                40.17:  LATITUDE
 LONG.deg                51.17:  LONGITUDE
 WHNS.m                  -0.12:  WELL HEAD N/S
 WHEW.m                  -5.41:  WELL HEAD E/W
 UTMX.m              514337.95:  UTM X
 UTMY.m             4448627.46:  UTM Y
 DFWL.m                   0.00:  DISTANCE FWL
 DFSL.m                   0.00:  DISTANCE FSL
 SDEP.m                3088.01:  START DEPTH
 TDD .m                5200.01:  TOTAL DEPTH (DRILLER)
 VSDR.deg               244.51:  VERT SEC DIRECT
 GVFD.g                   1.00:  GRAVITY FIELD
 MFLD.nT              50329.80:  MAGNETIC FIELD
 MDIP.deg                59.63:  MAGNETIC DIP
 MDEC.deg                 6.59:  MAGNETIC DECL
 GRDC.deg                 0.09:  GRID CORRECTION
 AZTC.deg                 6.50:  AZM TOTAL CORR
 EPD .m                   0.00:  ELEVATION
 EGL .m                   0.00:  GROUND ELEVATION
 WDMS.m                 176.20:  WD ELEV
 APD .m                  43.16:  DEPTH ABOVE PD
 DEP .m                3084.71:  DEPTH
 AGAP.m                  43.16:  AIR GAP
 VSEW.m                  -5.41:  VERT SEC E/W
 VSNS.m                  -0.12:  VERT SEC N/S
 EKB .m                   0.00:  KB ELEVATION
 EDF .m                  43.16:  DF ELEVATION
 TDL .m                 243.00:  TOTAL DEPTH (LOGGER)
 VSC .                       0:  VS TO CLOSURE
 MAGU.                 1853542:  MAGUTM CHECKSUM
~Parameter Information Block
#MNEM.UNIT       Value        Description
#---------     -----------    ---------------------------
 AV  .mps                 1.91:  Ann Velocity 
 AVMX.mps                 2.52:  Max Ann Veloc 
 AZIF.deg               308.97:  Azm, Final 
 BHAT.        Rotary Steerable:  BHA Type 
 BROT.°/30m               1.00:  Build Rotating 
 BS  .in                  6.50:  Bit Size 
 BSZ .in                  6.50:  Bit Size 
 BTPL.psig              350.00:  Bit Press Loss 
 CABU.                      No:  Customer Abuse 
 CGEO.           Asif Pashayev:  Customer Geo 
 COMM.                     #‚:  Run Comments 1 
 TCS .hr                 35.86:  Time Ciculation Ended 
 CV  .mps                 2.31:  Crit Velocity 
 CVMX.mps                 2.31:  Max Crit Veloc 
 DD1 .         Intigam Rahimov:  Direct Drillr 1 
 DDSV.               Geo-Pilot:  DD Service 
 DEFF.%                  92.00:  % Det Eff 
 DLRX.°/30m               1.00:  Dogleg Rot Max 
 DLSO.°/30m               1.00:  Dogleg Oriented 
 DLSX.°/30m               1.42:  Dogleg Str Max 
 DRET.      15.50.00 07-Aug-20:  Drill End Time 
 DRST.      10.40.00 06-Aug-20:  Drill Start Tim 
 DTIM.hr                 21.30:  Time Drilling 
 EDEP.m                5200.01:  End Depth 
 ENG1.            Alan Tuganov:  Engineer 1 
 ENG2.         Almaz Almadatov:  Engineer 2 
 ENG3.     Zammelal Abdullah Sani:  Engineer 3 
 ETIM.      22.42.00 08-Aug-20:  End Time 
 FLOI.gpm               395.00:  Flow In 
 FLON.gpm               350.00:  Flow In Min 
 FLOS.cptm                0.00:  Fluid Loss 
 FLOX.gpm               404.00:  Flow In Max 
 FTRO.       Formation Presure:  FTWD Run Obj 
 HFLO.                      No:  High Flow 
 HPRE.                      No:  High Pressure 
 HTEM.                      No:  High Temp 
 HYDO.m                   1.80:  Hydro Offset 
 IFIN.deg                72.64:  Inc, Final 
 IMAX.deg                73.68:  Inc Max 
 IMIN.deg                72.64:  Inc Min 
 IMND.m                5189.69:  Inc Min Depth 
 IMXD.m                5067.88:  Inc Max Depth 
 JARR.                      No:  Jarring 
 LETM.      15.50.00 07-Aug-20:  Log End Time 
 LOST.hr                     0:  Lost Rig Time 
 LSTM.      10.40.00 06-Aug-20:  Log Start Time 
 MDCL.ppm             36000.00:  Mud Chlorides 
 MDES.     Inversion Oil/Synthetic:  Mud Desc 
 DFD .sg                  1.36:  Mud Density 
 MDMN.sg                  1.36:  Dens Mud Min 
 MDMX.sg                  1.36:  Dens Mud Max 
 MOIL.                      70:  Run Mud Oil % 
 MOWR.                   70:30:  Run Mud OWR 
 MSND.                    0.00:  Run Mud Sand % 
 MSOL.                   17.60:  Run Mud Solids% 
 DFV .spqt               73.00:  Mud Viscosity 
 MWOD.in                  4.75:  MWD Tool OD 
 MWSI.                      No:  Serv Intrp, MWD 
 OTIM.hr                 85.66:  Time Operating 
 PCON.           Look Like New:  Pad Condition 
 PMAX.psia             6250.00:  Press Op, Max 
 PV  .cP                 65.00:  Mud PV 
 RUN .                     900:  Run Number 
 ROPA.m/hr               11.40:  ROP Avg 
 ROPN.m/hr                5.00:  ROP Min 
 ROPX.m/hr               20.00:  ROP Max 
 RPMA.rpm               130.00:  RPM Surface Avg 
 RPMN.rpm                40.00:  RPM Surface Min 
 RPMX.rpm               140.00:  RPM Surface Max 
 RRUN.                    L205:  Rig Run Number 
 RTIM.hr                  1.00:  Time Reaming 
 SAZI.deg               313.52:  Azm, Start 
 SDEP.m                4957.01:  Start Depth 
 SIDD.                      No:  Serv Intrp, DD 
 SINC.deg                73.16:  Inc, Start 
 SPPA.psig             5657.00:  SPP Avg 
 SPPN.psig             2500.00:  SPP Min 
 SPPX.psig             5806.00:  SPP Max 
 STIM.      07.12.00 05-Aug-20:  Start Time 
 SVCS.                 DD, MWD:  Services 
 SVER.                    9.20:  Sperry Version 
 TDAT.m                 243.00:  Tot Depth Attmp 
 TDDF.                      No:  Trip for DD 
 TDLG.m                 243.00:  Tot Depth Loggd 
 TFF .                      No:  Trip for Fail 
 TQAA.f-kp               13.00:  Torque Abs Avg 
 TQAN.f-kp               11.00:  Torque Abs Min 
 TQAX.f-kp               16.00:  Torque Abs Max 
 TRRT.°/30m               1.00:  Turn Rotating 
 MRT .                    HCIM:  Maximum Recorded Temperature 
 TTMX.degC               96.08:  Max Tool Temp 
 VS01.                90515411:  Virtual Str1 SN 
 VS02.                90512716:  Virtual Str2 SN 
 VS03.                90522362:  Virtual Str3 SN 
 VS04.                90619415:  Virtual Str4 SN 
 VS05.                90619414:  Virtual Str5 SN 
 VS06.                90597748:  Virtual Str6 SN 
 WBMN.klb                 2.00:  WOB Min 
 WITN.           Adil Mammadov:  Customer Rep 
 WITN.     Alexander Yadullayev:  Customer Rep 2 
 WOBA.klb                 7.00:  WOB Avg 
 WOBX.klb                23.00:  WOB Max 
 YP  .lhf2               37.00:  Yield Point 
~Curve Information Block
#MNEM.UNIT                 API CODE     Curve Description
#---------               -----------    ---------------------------
 TIME.HHMMSS            00 000 000 000:  GT Time & Date
 GTDEPTH.m              00 000 000 000:  GT Depth
 GTPQH.psia             00 000 000 000:  GT HR Quartz Pressure
 GTTQ.degC              00 000 000 000:  GT Quartz Temperature
 GTTN.NONE              00 000 000 000:  GT Test Number
 GTET.sec               00 000 000 000:  GT Elapsed Test Time
 GTTVD.m                00 000 000 000:  GT True Vertical Depth
#Other Information
#
#WARRANTY: Halliburton will use its best efforts to furnish customers with 
#accurate information and interpretations that are part of, and incident to, the services 
#provided.  However, Halliburton cannot and does not warrant the accuracy 
#or correctness of such information and interpretations.  Under no circumstances should any 
#such information or interpretation be relied upon as the sole basis for any drilling, 
#completion, production, or financial decision or any procedure involving any risk to the 
#safety of any drilling venture, drilling rig or its crew or any other third party.  The 
#Customer has full responsibility for all drilling, completion and production operation.  
#Halliburton makes no representations or warranties, either expressed or 
#implied, including, but not limited to, the implied warranties of merchantability or fitness 
#for a particular purpose, with respect to the services rendered.  In no event will 
#Halliburton be liable for failure to obtain any particular results or for 
#any damages, including, but not limited to, indirect, special or consequential damages, 
#resulting from the use of any information or interpretation provided by Halliburton.
#
~A           TIME           GTDEPTH  GTPQH  GTTQ  GTTN  GTET   GTTVD  
# ...
   21:55:30.000.06-Aug-2020 5001.01 3489.50 83.76 4.00 184.00 2646.47
   21:55:30.200.06-Aug-2020 5001.01 3489.50 83.76 4.00 184.20 2646.47
   21:55:30.400.06-Aug-2020 5001.01 3489.51 83.76 4.00 184.40 2646.47
   21:55:30.600.06-Aug-2020 5001.01 3489.53 83.76 4.00 184.60 2646.47
   21:55:30.800.06-Aug-2020 5001.01 3489.52 83.76 4.00 184.80 2646.47
   21:55:31.000.06-Aug-2020 5001.01 3489.52 83.76 4.00 185.00 2646.47
   21:55:31.200.06-Aug-2020 5001.01 3489.52 83.76 4.00 185.20 2646.47
   21:55:31.400.06-Aug-2020 5001.01 3489.50 83.76 4.00 185.40 2646.47
   21:55:31.600.06-Aug-2020 5001.01 3489.52 83.76 4.00 185.60 2646.47
   21:55:31.800.06-Aug-2020 5001.01 3489.50 83.76 4.00 185.80 2646.47
   21:55:32.000.06-Aug-2020 5001.01 3489.49 83.76 4.00 186.00 2646.47
   21:55:32.200.06-Aug-2020 5001.01 3489.49 83.76 4.00 186.20 2646.47
   21:55:32.400.06-Aug-2020 5001.01 3489.51 83.76 4.00 186.40 2646.47
   21:55:32.600.06-Aug-2020 5001.01 3489.54 83.76 4.00 186.60 2646.47
   21:55:32.800.06-Aug-2020 5001.01 3489.52 83.76 4.00 186.80 2646.47
   21:55:33.000.06-Aug-2020 5001.01 3489.51 83.76 4.00 187.00 2646.47
   21:55:33.200.06-Aug-2020 5001.01 3489.51 83.76 4.00 187.20 2646.47
   21:55:33.400.06-Aug-2020 5001.01 3489.55 83.75 4.00 187.40 2646.47
   21:55:33.600.06-Aug-2020 5001.01 3489.47 83.75 4.00 187.60 2646.47
   21:55:33.800.06-Aug-2020 5001.01 3489.53 83.75 4.00 187.80 2646.47
   21:55:34.000.06-Aug-2020 5001.01 3489.40 83.75 4.00 188.00 2646.47
   21:55:34.200.06-Aug-2020 5001.01 3489.40 83.75 4.00 188.20 2646.47
   21:55:34.400.06-Aug-2020 5001.01 3489.53 83.75 4.00 188.40 2646.47
   21:55:34.600.06-Aug-2020 5001.01 3489.49 83.75 4.00 188.60 2646.47
   21:55:34.800.06-Aug-2020 5001.01 3489.48 83.75 4.00 188.80 2646.47
   21:55:35.000.06-Aug-2020 5001.01 3489.58 83.75 4.00 189.00 2646.47
   21:55:35.200.06-Aug-2020 5001.01 3489.58 83.75 4.00 189.20 2646.47
   21:55:35.400.06-Aug-2020 5001.01 3489.53 83.75 4.00 189.40 2646.47
   21:55:35.600.06-Aug-2020 5001.01 3489.54 83.75 4.00 189.60 2646.47
   21:55:35.800.06-Aug-2020 5001.01 3489.52 83.75 4.00 189.80 2646.47
   21:55:36.000.06-Aug-2020 5001.01 3489.53 83.75 4.00 190.00 2646.47
   21:55:36.200.06-Aug-2020 5001.01 3489.53 83.75 4.00 190.20 2646.47
   21:55:36.400.06-Aug-2020 5001.01 3489.52 83.75 4.00 190.40 2646.47
   21:55:36.600.06-Aug-2020 5001.01 3489.53 83.75 4.00 190.60 2646.47
   21:55:36.800.06-Aug-2020 5001.01 3489.50 83.75 4.00 190.80 2646.47
   21:55:37.000.06-Aug-2020 5001.01 3489.53 83.75 4.00 191.00 2646.47
   21:55:37.200.06-Aug-2020 5001.01 3489.53 83.75 4.00 191.20 2646.47
   21:55:37.400.06-Aug-2020 5001.01 3489.52 83.75 4.00 191.40 2646.47
   21:55:37.600.06-Aug-2020 5001.01 3489.44 83.75 4.00 191.60 2646.47
   21:55:37.800.06-Aug-2020 5001.01 3489.50 83.75 4.00 191.80 2646.47
   21:55:38.000.06-Aug-2020 5001.01 3489.55 83.75 4.00 192.00 2646.47
   21:55:38.200.06-Aug-2020 5001.01 3489.55 83.75 4.00 192.20 2646.47
   21:55:38.400.06-Aug-2020 5001.01 3489.52 83.74 4.00 192.40 2646.47
   21:55:38.600.06-Aug-2020 5001.01 3489.52 83.74 4.00 192.60 2646.47
   21:55:38.800.06-Aug-2020 5001.01 3489.50 83.74 4.00 192.80 2646.47
   21:55:39.000.06-Aug-2020 5001.01 3489.52 83.74 4.00 193.00 2646.47
   21:55:39.200.06-Aug-2020 5001.01 3489.52 83.74 4.00 193.20 2646.47
   21:55:39.400.06-Aug-2020 5001.01 3489.52 83.74 4.00 193.40 2646.47
   21:55:39.600.06-Aug-2020 5001.01 3489.50 83.74 4.00 193.60 2646.47
   21:55:39.800.06-Aug-2020 5001.01 3489.51 83.74 4.00 193.80 2646.47
   21:55:40.000.06-Aug-2020 5001.01 3489.49 83.74 4.00 194.00 2646.47
   21:55:40.200.06-Aug-2020 5001.01 3489.49 83.74 4.00 194.20 2646.47
   21:55:40.400.06-Aug-2020 5001.01 3489.54 83.74 4.00 194.40 2646.47
   21:55:40.600.06-Aug-2020 5001.01 3489.45 83.74 4.00 194.60 2646.47
   21:55:40.800.06-Aug-2020 5001.01 3489.54 83.74 4.00 194.80 2646.47
   21:55:41.000.06-Aug-2020 5001.01 3489.51 83.74 4.00 195.00 2646.47
   21:55:41.200.06-Aug-2020 5001.01 3489.51 83.74 4.00 195.20 2646.47
   21:55:41.400.06-Aug-2020 5001.01 3489.47 83.74 4.00 195.40 2646.47
   21:55:41.600.06-Aug-2020 5001.01 3489.57 83.74 4.00 195.60 2646.47
   21:55:41.800.06-Aug-2020 5001.01 3489.42 83.74 4.00 195.80 2646.47
   21:55:42.000.06-Aug-2020 5001.01 3489.55 83.74 4.00 196.00 2646.47
   21:55:42.200.06-Aug-2020 5001.01 3489.55 83.74 4.00 196.20 2646.47
   21:55:42.400.06-Aug-2020 5001.01 3489.63 83.74 4.00 196.40 2646.47
   21:55:42.600.06-Aug-2020 5001.01 3489.51 83.74 4.00 196.60 2646.47
   21:55:42.800.06-Aug-2020 5001.01 3489.51 83.73 4.00 196.80 2646.47
   21:55:43.000.06-Aug-2020 5001.01 3489.38 83.73 4.00 197.00 2646.47
   21:55:43.200.06-Aug-2020 5001.01 3489.63 83.73 4.00 197.20 2646.47
   21:55:43.400.06-Aug-2020 5001.01 3489.49 83.73 4.00 197.40 2646.47
   21:55:43.600.06-Aug-2020 5001.01 3489.52 83.73 4.00 197.60 2646.47
   21:55:43.800.06-Aug-2020 5001.01 3489.51 83.73 4.00 197.80 2646.47
   21:55:44.000.06-Aug-2020 5001.01 3489.52 83.73 4.00 198.00 2646.47
   21:55:44.200.06-Aug-2020 5001.01 3489.50 83.73 4.00 198.20 2646.47
   21:55:44.400.06-Aug-2020 5001.01 3489.52 83.73 4.00 198.40 2646.47
   21:55:44.600.06-Aug-2020 5001.01 3489.50 83.73 4.00 198.60 2646.47
   21:55:44.800.06-Aug-2020 5001.01 3489.52 83.73 4.00 198.80 2646.47
   21:55:45.000.06-Aug-2020 5001.01 3489.49 83.73 4.00 199.00 2646.47
   21:55:45.200.06-Aug-2020 5001.01 3489.49 83.73 4.00 199.20 2646.47
   21:55:45.400.06-Aug-2020 5001.01 3489.48 83.73 4.00 199.40 2646.47
   21:55:45.600.06-Aug-2020 5001.01 3489.50 83.73 4.00 199.60 2646.47
   21:55:45.800.06-Aug-2020 5001.01 3489.44 83.73 4.00 199.80 2646.47
   21:55:46.000.06-Aug-2020 5001.01 3489.48 83.73 4.00 200.00 2646.47
   21:55:46.200.06-Aug-2020 5001.01 3489.48 83.73 4.00 200.20 2646.47
   21:55:46.400.06-Aug-2020 5001.01 3489.46 83.73 4.00 200.40 2646.47
   21:55:46.600.06-Aug-2020 5001.01 3489.53 83.73 4.00 200.60 2646.47
   21:55:46.800.06-Aug-2020 5001.01 3489.48 83.73 4.00 200.80 2646.47
   21:55:47.000.06-Aug-2020 5001.01 3489.51 83.73 4.00 201.00 2646.47
   21:55:47.200.06-Aug-2020 5001.01 3489.51 83.73 4.00 201.20 2646.47
   21:55:47.400.06-Aug-2020 5001.01 3489.52 83.73 4.00 201.40 2646.47
   21:55:47.600.06-Aug-2020 5001.01 3489.47 83.72 4.00 201.60 2646.47
   21:55:47.800.06-Aug-2020 5001.01 3489.50 83.72 4.00 201.80 2646.47
   21:55:48.000.06-Aug-2020 5001.01 3489.48 83.72 4.00 202.00 2646.47
   21:55:48.200.06-Aug-2020 5001.01 3489.48 83.72 4.00 202.20 2646.47
   21:55:48.400.06-Aug-2020 5001.01 3489.42 83.72 4.00 202.40 2646.47
   21:55:48.600.06-Aug-2020 5001.01 3489.57 83.72 4.00 202.60 2646.47
   21:55:48.800.06-Aug-2020 5001.01 3489.40 83.72 4.00 202.80 2646.47
   21:55:49.000.06-Aug-2020 5001.01 3489.54 83.72 4.00 203.00 2646.47
   21:55:49.200.06-Aug-2020 5001.01 3489.54 83.72 4.00 203.20 2646.47
   21:55:49.400.06-Aug-2020 5001.01 3489.50 83.72 4.00 203.40 2646.47
   21:55:49.600.06-Aug-2020 5001.01 3489.40 83.72 4.00 203.60 2646.47
   21:55:49.800.06-Aug-2020 5001.01 3489.58 83.72 4.00 203.80 2646.47
   21:55:50.000.06-Aug-2020 5001.01 3489.44 83.72 4.00 204.00 2646.47
   21:55:50.200.06-Aug-2020 5001.01 3489.44 83.72 4.00 204.20 2646.47
   21:55:50.400.06-Aug-2020 5001.01 3489.34 83.72 4.00 204.40 2646.47
   21:55:50.600.06-Aug-2020 5001.01 3489.56 83.72 4.00 204.60 2646.47
   21:55:50.800.06-Aug-2020 5001.01 3489.53 83.72 4.00 204.80 2646.47
   21:55:51.000.06-Aug-2020 5001.01 3489.50 83.72 4.00 205.00 2646.47
   21:55:51.200.06-Aug-2020 5001.01 3489.50 83.72 4.00 205.20 2646.47
   21:55:51.400.06-Aug-2020 5001.01 3489.61 83.72 4.00 205.40 2646.47
   21:55:51.600.06-Aug-2020 5001.01 3489.51 83.72 4.00 205.60 2646.47
   21:55:51.800.06-Aug-2020 5001.01 3489.49 83.72 4.00 205.80 2646.47
   21:55:52.000.06-Aug-2020 5001.01 3489.52 83.72 4.00 206.00 2646.47
   21:55:52.200.06-Aug-2020 5001.01 3489.52 83.72 4.00 206.20 2646.47
   21:55:52.400.06-Aug-2020 5001.01 3489.52 83.71 4.00 206.40 2646.47
   21:55:52.600.06-Aug-2020 5001.01 3489.47 83.71 4.00 206.60 2646.47
   21:55:52.800.06-Aug-2020 5001.01 3489.51 83.71 4.00 206.80 2646.47
