~Version Information
 VERS.                  2.0:   CWLS log ASCII Standard -VERSION 2.0
 WRAP.                   NO:   One line per depth step
~Well Information Block
#MNEM.UNIT     VALUE/NAME     DESCRIPTION
#---------     -----------    ---------------------------
 STRT.S             14:58:59 06-Aug-20: START TIME 14:58:59 06-Aug-20
 STOP.S             15:06:43 06-Aug-20: STOP TIME  15:06:43 06-Aug-20
 STEP.S                   0.00: STEP TIME
 NULL.                 -999.25: NULL VALUE
 DFWT.                        :  DIST FWL TEXT
 DFST.                        :  DIST FSL TEXT
 DMF .             Drill Floor:  DRILL MEAS FROM
 STIM.      12.00.00 03-Jul-20:  START TIME
 DATE.      00.50.00 09-Aug-20:  END TIME
 SPUD.               03-Jul-20:  SPUD DATE
 NREF.                    Grid:  NORTH REFERENCE
 HPTY.       Minimum Curvature:  HOLE POS TYPE
 DMOD.             Drill Model:  DRILL MOD DESC
 SVYD.                  Survey:  SURVEY DESC
 ILTD.               Lithology:  INTERP LTH DESC
 FTOP.          Formation Tops:  FORM TOPS DESC
 PDAT.          Mean Sea Level:  PERMANENT DATUM
 FLD .                     ACG:  FIELD NAME
 CTRY.              Azerbaijan:  COUNTRY NAME
 WELL.                    E04x:  WELL NAME
 SRVC.          Turan Drilling:  CONTRACTOR
 COMP.     BP Exploration (Caspian Sea) Ltd.:  COMPANY
 SON .        AZ-XX-0906531346:  JOB NUMBER
 WTYP.                Deviated:  WELL TYPE
 MDS .        Operator Entered:  MAG DATA SOURCE
 UWI .                     N/A:  UNIQUE WELL IDENTIFIER
 API .                     N/A:  API NUMBER
 BASE.              Azerbaijan:  LOGGING EQUIPMENT BASE LOCATION
 REGN.                   EESSA:  REGION
 PROV.                    Baku:  PROVINCE
 STAT.                    Baku:  STATE NAME
 MWDS.                    Baku:  MWD SHOP
 JOBN.        AZ-XX-0906531346:  JOB TICKET NUMB
 RIG .                     DWG:  RIG NAME
 DOE .                     N/A:  DOE NUMBER
 DCON.         Sperry Drilling:  DIRECTNL CONTR
 UNIT.                     N/A:  LOGGING EQUIPMENT ID
 CNTY.                        :  COUNTY
 LOC .                        :  LOCATION
 LMF .             Drill Floor:  LOG MEASURED FROM
 TVDS.m                  43.16:  TVDSS CORRECTN
 LATI.deg                40.17:  LATITUDE
 LONG.deg                51.17:  LONGITUDE
 WHNS.m                  -0.12:  WELL HEAD N/S
 WHEW.m                  -5.41:  WELL HEAD E/W
 UTMX.m              514337.95:  UTM X
 UTMY.m             4448627.46:  UTM Y
 DFWL.m                   0.00:  DISTANCE FWL
 DFSL.m                   0.00:  DISTANCE FSL
 SDEP.m                3088.01:  START DEPTH
 TDD .m                5200.01:  TOTAL DEPTH (DRILLER)
 VSDR.deg               244.51:  VERT SEC DIRECT
 GVFD.g                   1.00:  GRAVITY FIELD
 MFLD.nT              50329.80:  MAGNETIC FIELD
 MDIP.deg                59.63:  MAGNETIC DIP
 MDEC.deg                 6.59:  MAGNETIC DECL
 GRDC.deg                 0.09:  GRID CORRECTION
 AZTC.deg                 6.50:  AZM TOTAL CORR
 EPD .m                   0.00:  ELEVATION
 EGL .m                   0.00:  GROUND ELEVATION
 WDMS.m                 176.20:  WD ELEV
 APD .m                  43.16:  DEPTH ABOVE PD
 DEP .m                3084.71:  DEPTH
 AGAP.m                  43.16:  AIR GAP
 VSEW.m                  -5.41:  VERT SEC E/W
 VSNS.m                  -0.12:  VERT SEC N/S
 EKB .m                   0.00:  KB ELEVATION
 EDF .m                  43.16:  DF ELEVATION
 TDL .m                 243.00:  TOTAL DEPTH (LOGGER)
 VSC .                       0:  VS TO CLOSURE
 MAGU.                 1853542:  MAGUTM CHECKSUM
~Parameter Information Block
#MNEM.UNIT       Value        Description
#---------     -----------    ---------------------------
 AV  .mps                 1.91:  Ann Velocity 
 AVMX.mps                 2.52:  Max Ann Veloc 
 AZIF.deg               308.97:  Azm, Final 
 BHAT.        Rotary Steerable:  BHA Type 
 BROT.°/30m               1.00:  Build Rotating 
 BS  .in                  6.50:  Bit Size 
 BSZ .in                  6.50:  Bit Size 
 BTPL.psig              350.00:  Bit Press Loss 
 CABU.                      No:  Customer Abuse 
 CGEO.           Asif Pashayev:  Customer Geo 
 COMM.                     ”›T:  Run Comments 1 
 TCS .hr                 35.86:  Time Ciculation Ended 
 CV  .mps                 2.31:  Crit Velocity 
 CVMX.mps                 2.31:  Max Crit Veloc 
 DD1 .         Intigam Rahimov:  Direct Drillr 1 
 DDSV.               Geo-Pilot:  DD Service 
 DEFF.%                  92.00:  % Det Eff 
 DLRX.°/30m               1.00:  Dogleg Rot Max 
 DLSO.°/30m               1.00:  Dogleg Oriented 
 DLSX.°/30m               1.42:  Dogleg Str Max 
 DRET.      15.50.00 07-Aug-20:  Drill End Time 
 DRST.      10.40.00 06-Aug-20:  Drill Start Tim 
 DTIM.hr                 21.30:  Time Drilling 
 EDEP.m                5200.01:  End Depth 
 ENG1.            Alan Tuganov:  Engineer 1 
 ENG2.         Almaz Almadatov:  Engineer 2 
 ENG3.     Zammelal Abdullah Sani:  Engineer 3 
 ETIM.      22.42.00 08-Aug-20:  End Time 
 FLOI.gpm               395.00:  Flow In 
 FLON.gpm               350.00:  Flow In Min 
 FLOS.cptm                0.00:  Fluid Loss 
 FLOX.gpm               404.00:  Flow In Max 
 FTRO.       Formation Presure:  FTWD Run Obj 
 HFLO.                      No:  High Flow 
 HPRE.                      No:  High Pressure 
 HTEM.                      No:  High Temp 
 HYDO.m                   1.80:  Hydro Offset 
 IFIN.deg                72.64:  Inc, Final 
 IMAX.deg                73.68:  Inc Max 
 IMIN.deg                72.64:  Inc Min 
 IMND.m                5189.69:  Inc Min Depth 
 IMXD.m                5067.88:  Inc Max Depth 
 JARR.                      No:  Jarring 
 LETM.      15.50.00 07-Aug-20:  Log End Time 
 LOST.hr                     0:  Lost Rig Time 
 LSTM.      10.40.00 06-Aug-20:  Log Start Time 
 MDCL.ppm             36000.00:  Mud Chlorides 
 MDES.     Inversion Oil/Synthetic:  Mud Desc 
 DFD .sg                  1.36:  Mud Density 
 MDMN.sg                  1.36:  Dens Mud Min 
 MDMX.sg                  1.36:  Dens Mud Max 
 MOIL.                      70:  Run Mud Oil % 
 MOWR.                   70:30:  Run Mud OWR 
 MSND.                    0.00:  Run Mud Sand % 
 MSOL.                   17.60:  Run Mud Solids% 
 DFV .spqt               73.00:  Mud Viscosity 
 MWOD.in                  4.75:  MWD Tool OD 
 MWSI.                      No:  Serv Intrp, MWD 
 OTIM.hr                 85.66:  Time Operating 
 PCON.           Look Like New:  Pad Condition 
 PMAX.psia             6250.00:  Press Op, Max 
 PV  .cP                 65.00:  Mud PV 
 RUN .                     900:  Run Number 
 ROPA.m/hr               11.40:  ROP Avg 
 ROPN.m/hr                5.00:  ROP Min 
 ROPX.m/hr               20.00:  ROP Max 
 RPMA.rpm               130.00:  RPM Surface Avg 
 RPMN.rpm                40.00:  RPM Surface Min 
 RPMX.rpm               140.00:  RPM Surface Max 
 RRUN.                    L205:  Rig Run Number 
 RTIM.hr                  1.00:  Time Reaming 
 SAZI.deg               313.52:  Azm, Start 
 SDEP.m                4957.01:  Start Depth 
 SIDD.                      No:  Serv Intrp, DD 
 SINC.deg                73.16:  Inc, Start 
 SPPA.psig             5657.00:  SPP Avg 
 SPPN.psig             2500.00:  SPP Min 
 SPPX.psig             5806.00:  SPP Max 
 STIM.      07.12.00 05-Aug-20:  Start Time 
 SVCS.                 DD, MWD:  Services 
 SVER.                    9.20:  Sperry Version 
 TDAT.m                 243.00:  Tot Depth Attmp 
 TDDF.                      No:  Trip for DD 
 TDLG.m                 243.00:  Tot Depth Loggd 
 TFF .                      No:  Trip for Fail 
 TQAA.f-kp               13.00:  Torque Abs Avg 
 TQAN.f-kp               11.00:  Torque Abs Min 
 TQAX.f-kp               16.00:  Torque Abs Max 
 TRRT.°/30m               1.00:  Turn Rotating 
 MRT .                    HCIM:  Maximum Recorded Temperature 
 TTMX.degC               96.08:  Max Tool Temp 
 VS01.                90515411:  Virtual Str1 SN 
 VS02.                90512716:  Virtual Str2 SN 
 VS03.                90522362:  Virtual Str3 SN 
 VS04.                90619415:  Virtual Str4 SN 
 VS05.                90619414:  Virtual Str5 SN 
 VS06.                90597748:  Virtual Str6 SN 
 WBMN.klb                 2.00:  WOB Min 
 WITN.           Adil Mammadov:  Customer Rep 
 WITN.     Alexander Yadullayev:  Customer Rep 2 
 WOBA.klb                 7.00:  WOB Avg 
 WOBX.klb                23.00:  WOB Max 
 YP  .lhf2               37.00:  Yield Point 
~Curve Information Block
#MNEM.UNIT                 API CODE     Curve Description
#---------               -----------    ---------------------------
 TIME.HHMMSS            00 000 000 000:  GT Time & Date
 GTDEPTH.m              00 000 000 000:  GT Depth
 GTPQH.psia             00 000 000 000:  GT HR Quartz Pressure
 GTTQ.degC              00 000 000 000:  GT Quartz Temperature
 GTTN.NONE              00 000 000 000:  GT Test Number
 GTET.sec               00 000 000 000:  GT Elapsed Test Time
 GTTVD.m                00 000 000 000:  GT True Vertical Depth
#Other Information
#
#WARRANTY: Halliburton will use its best efforts to furnish customers with 
#accurate information and interpretations that are part of, and incident to, the services 
#provided.  However, Halliburton cannot and does not warrant the accuracy 
#or correctness of such information and interpretations.  Under no circumstances should any 
#such information or interpretation be relied upon as the sole basis for any drilling, 
#completion, production, or financial decision or any procedure involving any risk to the 
#safety of any drilling venture, drilling rig or its crew or any other third party.  The 
#Customer has full responsibility for all drilling, completion and production operation.  
#Halliburton makes no representations or warranties, either expressed or 
#implied, including, but not limited to, the implied warranties of merchantability or fitness 
#for a particular purpose, with respect to the services rendered.  In no event will 
#Halliburton be liable for failure to obtain any particular results or for 
#any damages, including, but not limited to, indirect, special or consequential damages, 
#resulting from the use of any information or interpretation provided by Halliburton.
#
~A           TIME           GTDEPTH  GTPQH  GTTQ  GTTN  GTET   GTTVD  
# ...
   14:59:22.551.06-Aug-2020 4947.01 5701.08 78.66 1.00  23.00 2630.94
   14:59:22.751.06-Aug-2020 4947.01 5701.08 78.66 1.00  23.20 2630.94
   14:59:22.951.06-Aug-2020 4947.01 5703.62 78.66 1.00  23.41 2630.94
   14:59:23.151.06-Aug-2020 4947.01 5698.96 78.66 1.00  23.61 2630.94
   14:59:23.351.06-Aug-2020 4947.01 5703.24 78.66 1.00  23.81 2630.94
   14:59:23.551.06-Aug-2020 4947.01 5704.85 78.66 1.00  24.01 2630.94
   14:59:23.751.06-Aug-2020 4947.01 5698.86 78.66 1.00  24.21 2630.94
   14:59:23.951.06-Aug-2020 4947.01 5702.45 78.66 1.00  24.41 2630.94
   14:59:24.151.06-Aug-2020 4947.01 5705.36 78.66 1.00  24.61 2630.94
   14:59:24.351.06-Aug-2020 4947.01 5707.57 78.66 1.00  24.81 2630.94
   14:59:24.551.06-Aug-2020 4947.01 5707.79 78.66 1.00  25.01 2630.94
   14:59:24.752.06-Aug-2020 4947.01 5707.79 78.66 1.00  25.21 2630.94
   14:59:24.952.06-Aug-2020 4947.01 5700.87 78.66 1.00  25.41 2630.94
   14:59:25.152.06-Aug-2020 4947.01 5705.32 78.66 1.00  25.61 2630.94
   14:59:25.352.06-Aug-2020 4947.01 5707.19 78.66 1.00  25.81 2630.94
   14:59:25.552.06-Aug-2020 4947.01 5709.35 78.66 1.00  26.01 2630.94
   14:59:25.752.06-Aug-2020 4947.01 5709.35 78.66 1.00  26.21 2630.94
   14:59:25.952.06-Aug-2020 4947.01 5709.05 78.66 1.00  26.41 2630.94
   14:59:26.152.06-Aug-2020 4947.01 5708.20 78.66 1.00  26.61 2630.94
   14:59:26.352.06-Aug-2020 4947.01 5709.42 78.66 1.00  26.81 2630.94
   14:59:26.552.06-Aug-2020 4947.01 5708.14 78.66 1.00  27.01 2630.94
   14:59:26.752.06-Aug-2020 4947.01 5708.14 78.66 1.00  27.21 2630.94
   14:59:26.952.06-Aug-2020 4947.01 5708.90 78.66 1.00  27.41 2630.94
   14:59:27.152.06-Aug-2020 4947.01 5709.39 78.66 1.00  27.61 2630.94
   14:59:27.352.06-Aug-2020 4947.01 5708.56 78.66 1.00  27.81 2630.94
   14:59:27.552.06-Aug-2020 4947.01 5704.51 78.66 1.00  28.01 2630.94
   14:59:27.752.06-Aug-2020 4947.01 5704.51 78.66 1.00  28.21 2630.94
   14:59:27.952.06-Aug-2020 4947.01 5708.56 78.66 1.00  28.41 2630.94
   14:59:28.152.06-Aug-2020 4947.01 5709.88 78.66 1.00  28.61 2630.94
   14:59:28.352.06-Aug-2020 4947.01 5710.02 78.65 1.00  28.81 2630.94
   14:59:28.552.06-Aug-2020 4947.01 5710.03 78.65 1.00  29.01 2630.94
   14:59:28.752.06-Aug-2020 4947.01 5710.03 78.65 1.00  29.21 2630.94
   14:59:28.952.06-Aug-2020 4947.01 5710.76 78.65 1.00  29.41 2630.94
   14:59:29.152.06-Aug-2020 4947.01 5710.45 78.65 1.00  29.61 2630.94
   14:59:29.352.06-Aug-2020 4947.01 5710.60 78.65 1.00  29.81 2630.94
   14:59:29.553.06-Aug-2020 4947.01 5709.47 78.65 1.00  30.01 2630.94
   14:59:29.753.06-Aug-2020 4947.01 5709.47 78.65 1.00  30.21 2630.94
   14:59:29.953.06-Aug-2020 4947.01 5708.90 78.65 1.00  30.41 2630.94
   14:59:30.153.06-Aug-2020 4947.01 5709.81 78.65 1.00  30.61 2630.94
   14:59:30.353.06-Aug-2020 4947.01 5701.89 78.65 1.00  30.81 2630.94
   14:59:30.553.06-Aug-2020 4947.01 5706.53 78.65 1.00  31.01 2630.94
   14:59:30.753.06-Aug-2020 4947.01 5706.53 78.65 1.00  31.21 2630.94
   14:59:30.953.06-Aug-2020 4947.01 5710.22 78.65 1.00  31.41 2630.94
   14:59:31.153.06-Aug-2020 4947.01 5702.10 78.65 1.00  31.61 2630.94
   14:59:31.353.06-Aug-2020 4947.01 5706.92 78.65 1.00  31.81 2630.94
   14:59:31.553.06-Aug-2020 4947.01 5709.53 78.65 1.00  32.01 2630.94
   14:59:31.753.06-Aug-2020 4947.01 5709.53 78.65 1.00  32.21 2630.94
   14:59:31.953.06-Aug-2020 4947.01 5711.07 78.65 1.00  32.41 2630.94
   14:59:32.153.06-Aug-2020 4947.01 5704.83 78.65 1.00  32.61 2630.94
   14:59:32.353.06-Aug-2020 4947.01 5707.75 78.65 1.00  32.81 2630.94
   14:59:32.553.06-Aug-2020 4947.01 5710.32 78.65 1.00  33.01 2630.94
   14:59:32.753.06-Aug-2020 4947.01 5710.32 78.65 1.00  33.21 2630.94
   14:59:32.953.06-Aug-2020 4947.01 5704.73 78.65 1.00  33.41 2630.94
   14:59:33.153.06-Aug-2020 4947.01 5707.61 78.65 1.00  33.61 2630.94
   14:59:33.353.06-Aug-2020 4947.01 5711.02 78.65 1.00  33.81 2630.94
   14:59:33.553.06-Aug-2020 4947.01 5712.34 78.65 1.00  34.01 2630.94
   14:59:33.753.06-Aug-2020 4947.01 5712.34 78.65 1.00  34.21 2630.94
   14:59:33.953.06-Aug-2020 4947.01 5713.04 78.64 1.00  34.41 2630.94
   14:59:34.154.06-Aug-2020 4947.01 5713.09 78.64 1.00  34.61 2630.94
   14:59:34.354.06-Aug-2020 4947.01 5714.24 78.64 1.00  34.81 2630.94
   14:59:34.554.06-Aug-2020 4947.01 5713.36 78.64 1.00  35.01 2630.94
   14:59:34.754.06-Aug-2020 4947.01 5713.36 78.64 1.00  35.21 2630.94
   14:59:34.954.06-Aug-2020 4947.01 5713.76 78.64 1.00  35.41 2630.94
   14:59:35.154.06-Aug-2020 4947.01 5715.15 78.64 1.00  35.61 2630.94
   14:59:35.354.06-Aug-2020 4947.01 5714.23 78.64 1.00  35.81 2630.94
   14:59:35.554.06-Aug-2020 4947.01 5712.81 78.64 1.00  36.01 2630.94
   14:59:35.754.06-Aug-2020 4947.01 5712.81 78.64 1.00  36.21 2630.94
   14:59:35.954.06-Aug-2020 4947.01 5711.94 78.64 1.00  36.41 2630.94
   14:59:36.154.06-Aug-2020 4947.01 5712.90 78.64 1.00  36.61 2630.94
   14:59:36.354.06-Aug-2020 4947.01 5714.20 78.64 1.00  36.81 2630.94
   14:59:36.554.06-Aug-2020 4947.01 5713.50 78.64 1.00  37.01 2630.94
   14:59:36.754.06-Aug-2020 4947.01 5713.50 78.64 1.00  37.21 2630.94
   14:59:36.954.06-Aug-2020 4947.01 5714.67 78.64 1.00  37.41 2630.94
   14:59:37.154.06-Aug-2020 4947.01 5715.02 78.64 1.00  37.61 2630.94
   14:59:37.354.06-Aug-2020 4947.01 5714.41 78.64 1.00  37.81 2630.94
   14:59:37.554.06-Aug-2020 4947.01 5714.79 78.64 1.00  38.01 2630.94
   14:59:37.754.06-Aug-2020 4947.01 5714.79 78.64 1.00  38.21 2630.94
   14:59:37.954.06-Aug-2020 4947.01 5714.60 78.64 1.00  38.41 2630.94
   14:59:38.154.06-Aug-2020 4947.01 5714.16 78.64 1.00  38.61 2630.94
   14:59:38.354.06-Aug-2020 4947.01 5713.85 78.64 1.00  38.81 2630.94
   14:59:38.554.06-Aug-2020 4947.01 5706.97 78.64 1.00  39.01 2630.94
   14:59:38.754.06-Aug-2020 4947.01 5706.97 78.64 1.00  39.21 2630.94
   14:59:38.955.06-Aug-2020 4947.01 5712.67 78.64 1.00  39.41 2630.94
   14:59:39.155.06-Aug-2020 4947.01 5712.72 78.64 1.00  39.61 2630.94
   14:59:39.355.06-Aug-2020 4947.01 5707.93 78.64 1.00  39.81 2630.94
   14:59:39.555.06-Aug-2020 4947.01 5710.05 78.63 1.00  40.01 2630.94
   14:59:39.755.06-Aug-2020 4947.01 5710.05 78.63 1.00  40.21 2630.94
   14:59:39.955.06-Aug-2020 4947.01 5714.38 78.63 1.00  40.41 2630.94
   14:59:40.155.06-Aug-2020 4947.01 5715.74 78.63 1.00  40.61 2630.94
   14:59:40.355.06-Aug-2020 4947.01 5710.18 78.63 1.00  40.81 2630.94
   14:59:40.555.06-Aug-2020 4947.01 5711.10 78.63 1.00  41.01 2630.94
   14:59:40.755.06-Aug-2020 4947.01 5711.10 78.63 1.00  41.21 2630.94
   14:59:40.955.06-Aug-2020 4947.01 5714.99 78.63 1.00  41.41 2630.94
   14:59:41.155.06-Aug-2020 4947.01 5707.28 78.63 1.00  41.61 2630.94
   14:59:41.355.06-Aug-2020 4947.01 5712.35 78.63 1.00  41.81 2630.94
   14:59:41.555.06-Aug-2020 4947.01 5713.79 78.63 1.00  42.01 2630.94
   14:59:41.755.06-Aug-2020 4947.01 5713.79 78.63 1.00  42.21 2630.94
   14:59:41.955.06-Aug-2020 4947.01 5714.89 78.63 1.00  42.41 2630.94
   14:59:42.155.06-Aug-2020 4947.01 5716.29 78.63 1.00  42.61 2630.94
   14:59:42.355.06-Aug-2020 4947.01 5716.91 78.63 1.00  42.81 2630.94
   14:59:42.555.06-Aug-2020 4947.01 5717.91 78.63 1.00  43.01 2630.94
   14:59:42.755.06-Aug-2020 4947.01 5717.91 78.63 1.00  43.21 2630.94
   14:59:42.955.06-Aug-2020 4947.01 5718.38 78.63 1.00  43.41 2630.94
   14:59:43.155.06-Aug-2020 4947.01 5719.15 78.63 1.00  43.61 2630.94
   14:59:43.355.06-Aug-2020 4947.01 5719.48 78.63 1.00  43.81 2630.94
   14:59:43.556.06-Aug-2020 4947.01 5719.69 78.63 1.00  44.01 2630.94
   14:59:43.756.06-Aug-2020 4947.01 5719.69 78.63 1.00  44.21 2630.94
   14:59:43.956.06-Aug-2020 4947.01 5711.24 78.63 1.00  44.41 2630.94
   14:59:44.156.06-Aug-2020 4947.01 5714.89 78.63 1.00  44.61 2630.94
   14:59:44.356.06-Aug-2020 4947.01 5717.80 78.63 1.00  44.81 2630.94
   14:59:44.556.06-Aug-2020 4947.01 5717.50 78.63 1.00  45.01 2630.94
   14:59:44.756.06-Aug-2020 4947.01 5717.50 78.63 1.00  45.21 2630.94
   14:59:44.956.06-Aug-2020 4947.01 5717.94 78.63 1.00  45.41 2630.94
   14:59:45.156.06-Aug-2020 4947.01 5719.16 78.62 1.00  45.61 2630.94
   14:59:45.356.06-Aug-2020 4947.01 5718.19 78.62 1.00  45.81 2630.94
