~Version Information
 VERS.                  2.0:   CWLS log ASCII Standard -VERSION 2.0
 WRAP.                   NO:   One line per depth step
~Well Information Block
#MNEM.UNIT     VALUE/NAME     DESCRIPTION
#---------     -----------    ---------------------------
 STRT.S             01:47:02 07-Aug-20: START TIME 01:47:02 07-Aug-20
 STOP.S             01:54:54 07-Aug-20: STOP TIME  01:54:54 07-Aug-20
 STEP.S                   0.00: STEP TIME
 NULL.                 -999.25: NULL VALUE
 DFWT.                        :  DIST FWL TEXT
 DFST.                        :  DIST FSL TEXT
 DMF .             Drill Floor:  DRILL MEAS FROM
 STIM.      12.00.00 03-Jul-20:  START TIME
 DATE.      00.50.00 09-Aug-20:  END TIME
 SPUD.               03-Jul-20:  SPUD DATE
 NREF.                    Grid:  NORTH REFERENCE
 HPTY.       Minimum Curvature:  HOLE POS TYPE
 DMOD.             Drill Model:  DRILL MOD DESC
 SVYD.                  Survey:  SURVEY DESC
 ILTD.               Lithology:  INTERP LTH DESC
 FTOP.          Formation Tops:  FORM TOPS DESC
 PDAT.          Mean Sea Level:  PERMANENT DATUM
 FLD .                     ACG:  FIELD NAME
 CTRY.              Azerbaijan:  COUNTRY NAME
 WELL.                    E04x:  WELL NAME
 SRVC.          Turan Drilling:  CONTRACTOR
 COMP.     BP Exploration (Caspian Sea) Ltd.:  COMPANY
 SON .        AZ-XX-0906531346:  JOB NUMBER
 WTYP.                Deviated:  WELL TYPE
 MDS .        Operator Entered:  MAG DATA SOURCE
 UWI .                     N/A:  UNIQUE WELL IDENTIFIER
 API .                     N/A:  API NUMBER
 BASE.              Azerbaijan:  LOGGING EQUIPMENT BASE LOCATION
 REGN.                   EESSA:  REGION
 PROV.                    Baku:  PROVINCE
 STAT.                    Baku:  STATE NAME
 MWDS.                    Baku:  MWD SHOP
 JOBN.        AZ-XX-0906531346:  JOB TICKET NUMB
 RIG .                     DWG:  RIG NAME
 DOE .                     N/A:  DOE NUMBER
 DCON.         Sperry Drilling:  DIRECTNL CONTR
 UNIT.                     N/A:  LOGGING EQUIPMENT ID
 CNTY.                        :  COUNTY
 LOC .                        :  LOCATION
 LMF .             Drill Floor:  LOG MEASURED FROM
 TVDS.m                  43.16:  TVDSS CORRECTN
 LATI.deg                40.17:  LATITUDE
 LONG.deg                51.17:  LONGITUDE
 WHNS.m                  -0.12:  WELL HEAD N/S
 WHEW.m                  -5.41:  WELL HEAD E/W
 UTMX.m              514337.95:  UTM X
 UTMY.m             4448627.46:  UTM Y
 DFWL.m                   0.00:  DISTANCE FWL
 DFSL.m                   0.00:  DISTANCE FSL
 SDEP.m                3088.01:  START DEPTH
 TDD .m                5200.01:  TOTAL DEPTH (DRILLER)
 VSDR.deg               244.51:  VERT SEC DIRECT
 GVFD.g                   1.00:  GRAVITY FIELD
 MFLD.nT              50329.80:  MAGNETIC FIELD
 MDIP.deg                59.63:  MAGNETIC DIP
 MDEC.deg                 6.59:  MAGNETIC DECL
 GRDC.deg                 0.09:  GRID CORRECTION
 AZTC.deg                 6.50:  AZM TOTAL CORR
 EPD .m                   0.00:  ELEVATION
 EGL .m                   0.00:  GROUND ELEVATION
 WDMS.m                 176.20:  WD ELEV
 APD .m                  43.16:  DEPTH ABOVE PD
 DEP .m                3084.71:  DEPTH
 AGAP.m                  43.16:  AIR GAP
 VSEW.m                  -5.41:  VERT SEC E/W
 VSNS.m                  -0.12:  VERT SEC N/S
 EKB .m                   0.00:  KB ELEVATION
 EDF .m                  43.16:  DF ELEVATION
 TDL .m                 243.00:  TOTAL DEPTH (LOGGER)
 VSC .                       0:  VS TO CLOSURE
 MAGU.                 1853542:  MAGUTM CHECKSUM
~Parameter Information Block
#MNEM.UNIT       Value        Description
#---------     -----------    ---------------------------
 AV  .mps                 1.91:  Ann Velocity 
 AVMX.mps                 2.52:  Max Ann Veloc 
 AZIF.deg               308.97:  Azm, Final 
 BHAT.        Rotary Steerable:  BHA Type 
 BROT.°/30m               1.00:  Build Rotating 
 BS  .in                  6.50:  Bit Size 
 BSZ .in                  6.50:  Bit Size 
 BTPL.psig              350.00:  Bit Press Loss 
 CABU.                      No:  Customer Abuse 
 CGEO.           Asif Pashayev:  Customer Geo 
 COMM.                     Ô¿r:  Run Comments 1 
 TCS .hr                 35.86:  Time Ciculation Ended 
 CV  .mps                 2.31:  Crit Velocity 
 CVMX.mps                 2.31:  Max Crit Veloc 
 DD1 .         Intigam Rahimov:  Direct Drillr 1 
 DDSV.               Geo-Pilot:  DD Service 
 DEFF.%                  92.00:  % Det Eff 
 DLRX.°/30m               1.00:  Dogleg Rot Max 
 DLSO.°/30m               1.00:  Dogleg Oriented 
 DLSX.°/30m               1.42:  Dogleg Str Max 
 DRET.      15.50.00 07-Aug-20:  Drill End Time 
 DRST.      10.40.00 06-Aug-20:  Drill Start Tim 
 DTIM.hr                 21.30:  Time Drilling 
 EDEP.m                5200.01:  End Depth 
 ENG1.            Alan Tuganov:  Engineer 1 
 ENG2.         Almaz Almadatov:  Engineer 2 
 ENG3.     Zammelal Abdullah Sani:  Engineer 3 
 ETIM.      22.42.00 08-Aug-20:  End Time 
 FLOI.gpm               395.00:  Flow In 
 FLON.gpm               350.00:  Flow In Min 
 FLOS.cptm                0.00:  Fluid Loss 
 FLOX.gpm               404.00:  Flow In Max 
 FTRO.       Formation Presure:  FTWD Run Obj 
 HFLO.                      No:  High Flow 
 HPRE.                      No:  High Pressure 
 HTEM.                      No:  High Temp 
 HYDO.m                   1.80:  Hydro Offset 
 IFIN.deg                72.64:  Inc, Final 
 IMAX.deg                73.68:  Inc Max 
 IMIN.deg                72.64:  Inc Min 
 IMND.m                5189.69:  Inc Min Depth 
 IMXD.m                5067.88:  Inc Max Depth 
 JARR.                      No:  Jarring 
 LETM.      15.50.00 07-Aug-20:  Log End Time 
 LOST.hr                     0:  Lost Rig Time 
 LSTM.      10.40.00 06-Aug-20:  Log Start Time 
 MDCL.ppm             36000.00:  Mud Chlorides 
 MDES.     Inversion Oil/Synthetic:  Mud Desc 
 DFD .sg                  1.36:  Mud Density 
 MDMN.sg                  1.36:  Dens Mud Min 
 MDMX.sg                  1.36:  Dens Mud Max 
 MOIL.                      70:  Run Mud Oil % 
 MOWR.                   70:30:  Run Mud OWR 
 MSND.                    0.00:  Run Mud Sand % 
 MSOL.                   17.60:  Run Mud Solids% 
 DFV .spqt               73.00:  Mud Viscosity 
 MWOD.in                  4.75:  MWD Tool OD 
 MWSI.                      No:  Serv Intrp, MWD 
 OTIM.hr                 85.66:  Time Operating 
 PCON.           Look Like New:  Pad Condition 
 PMAX.psia             6250.00:  Press Op, Max 
 PV  .cP                 65.00:  Mud PV 
 RUN .                     900:  Run Number 
 ROPA.m/hr               11.40:  ROP Avg 
 ROPN.m/hr                5.00:  ROP Min 
 ROPX.m/hr               20.00:  ROP Max 
 RPMA.rpm               130.00:  RPM Surface Avg 
 RPMN.rpm                40.00:  RPM Surface Min 
 RPMX.rpm               140.00:  RPM Surface Max 
 RRUN.                    L205:  Rig Run Number 
 RTIM.hr                  1.00:  Time Reaming 
 SAZI.deg               313.52:  Azm, Start 
 SDEP.m                4957.01:  Start Depth 
 SIDD.                      No:  Serv Intrp, DD 
 SINC.deg                73.16:  Inc, Start 
 SPPA.psig             5657.00:  SPP Avg 
 SPPN.psig             2500.00:  SPP Min 
 SPPX.psig             5806.00:  SPP Max 
 STIM.      07.12.00 05-Aug-20:  Start Time 
 SVCS.                 DD, MWD:  Services 
 SVER.                    9.20:  Sperry Version 
 TDAT.m                 243.00:  Tot Depth Attmp 
 TDDF.                      No:  Trip for DD 
 TDLG.m                 243.00:  Tot Depth Loggd 
 TFF .                      No:  Trip for Fail 
 TQAA.f-kp               13.00:  Torque Abs Avg 
 TQAN.f-kp               11.00:  Torque Abs Min 
 TQAX.f-kp               16.00:  Torque Abs Max 
 TRRT.°/30m               1.00:  Turn Rotating 
 MRT .                    HCIM:  Maximum Recorded Temperature 
 TTMX.degC               96.08:  Max Tool Temp 
 VS01.                90515411:  Virtual Str1 SN 
 VS02.                90512716:  Virtual Str2 SN 
 VS03.                90522362:  Virtual Str3 SN 
 VS04.                90619415:  Virtual Str4 SN 
 VS05.                90619414:  Virtual Str5 SN 
 VS06.                90597748:  Virtual Str6 SN 
 WBMN.klb                 2.00:  WOB Min 
 WITN.           Adil Mammadov:  Customer Rep 
 WITN.     Alexander Yadullayev:  Customer Rep 2 
 WOBA.klb                 7.00:  WOB Avg 
 WOBX.klb                23.00:  WOB Max 
 YP  .lhf2               37.00:  Yield Point 
~Curve Information Block
#MNEM.UNIT                 API CODE     Curve Description
#---------               -----------    ---------------------------
 TIME.HHMMSS            00 000 000 000:  GT Time & Date
 GTDEPTH.m              00 000 000 000:  GT Depth
 GTPQH.psia             00 000 000 000:  GT HR Quartz Pressure
 GTTQ.degC              00 000 000 000:  GT Quartz Temperature
 GTTN.NONE              00 000 000 000:  GT Test Number
 GTET.sec               00 000 000 000:  GT Elapsed Test Time
 GTTVD.m                00 000 000 000:  GT True Vertical Depth
#Other Information
#
#WARRANTY: Halliburton will use its best efforts to furnish customers with 
#accurate information and interpretations that are part of, and incident to, the services 
#provided.  However, Halliburton cannot and does not warrant the accuracy 
#or correctness of such information and interpretations.  Under no circumstances should any 
#such information or interpretation be relied upon as the sole basis for any drilling, 
#completion, production, or financial decision or any procedure involving any risk to the 
#safety of any drilling venture, drilling rig or its crew or any other third party.  The 
#Customer has full responsibility for all drilling, completion and production operation.  
#Halliburton makes no representations or warranties, either expressed or 
#implied, including, but not limited to, the implied warranties of merchantability or fitness 
#for a particular purpose, with respect to the services rendered.  In no event will 
#Halliburton be liable for failure to obtain any particular results or for 
#any damages, including, but not limited to, indirect, special or consequential damages, 
#resulting from the use of any information or interpretation provided by Halliburton.
#
~A           TIME           GTDEPTH  GTPQH  GTTQ  GTTN  GTET   GTTVD  
# ...
   01:49:43.458.07-Aug-2020 5042.01 3681.53 85.49 6.00 161.04 2658.32
   01:49:43.658.07-Aug-2020 5042.01 3681.53 85.49 6.00 161.24 2658.32
   01:49:43.859.07-Aug-2020 5042.01 3681.29 85.49 6.00 161.44 2658.32
   01:49:44.059.07-Aug-2020 5042.01 3681.14 85.49 6.00 161.64 2658.32
   01:49:44.259.07-Aug-2020 5042.01 3681.32 85.49 6.00 161.84 2658.32
   01:49:44.459.07-Aug-2020 5042.01 3681.05 85.49 6.00 162.04 2658.32
   01:49:44.659.07-Aug-2020 5042.01 3681.05 85.49 6.00 162.24 2658.32
   01:49:44.859.07-Aug-2020 5042.01 3681.22 85.49 6.00 162.44 2658.32
   01:49:45.059.07-Aug-2020 5042.01 3681.20 85.49 6.00 162.64 2658.32
   01:49:45.259.07-Aug-2020 5042.01 3681.17 85.49 6.00 162.84 2658.32
   01:49:45.459.07-Aug-2020 5042.01 3677.83 85.49 6.00 163.04 2658.32
   01:49:45.659.07-Aug-2020 5042.01 3677.83 85.49 6.00 163.24 2658.32
   01:49:45.859.07-Aug-2020 5042.01 3658.70 85.49 6.00 163.44 2658.32
   01:49:46.059.07-Aug-2020 5042.01 3658.99 85.49 6.00 163.64 2658.32
   01:49:46.259.07-Aug-2020 5042.01 3657.49 85.49 6.00 163.84 2658.32
   01:49:46.459.07-Aug-2020 5042.01 3659.55 85.49 6.00 164.04 2658.32
   01:49:46.659.07-Aug-2020 5042.01 3659.55 85.49 6.00 164.24 2658.32
   01:49:46.859.07-Aug-2020 5042.01 3659.18 85.49 6.00 164.44 2658.32
   01:49:47.059.07-Aug-2020 5042.01 3658.12 85.49 6.00 164.64 2658.32
   01:49:47.259.07-Aug-2020 5042.01 3658.85 85.49 6.00 164.84 2658.32
   01:49:47.459.07-Aug-2020 5042.01 3658.23 85.49 6.00 165.04 2658.32
   01:49:47.659.07-Aug-2020 5042.01 3658.23 85.49 6.00 165.24 2658.32
   01:49:47.859.07-Aug-2020 5042.01 3658.26 85.49 6.00 165.44 2658.32
   01:49:48.059.07-Aug-2020 5042.01 3658.52 85.49 6.00 165.64 2658.32
   01:49:48.260.07-Aug-2020 5042.01 3658.76 85.49 6.00 165.84 2658.32
   01:49:48.460.07-Aug-2020 5042.01 3658.30 85.49 6.00 166.04 2658.32
   01:49:48.660.07-Aug-2020 5042.01 3658.42 85.49 6.00 166.24 2658.32
   01:49:48.860.07-Aug-2020 5042.01 3658.49 85.48 6.00 166.44 2658.32
   01:49:49.060.07-Aug-2020 5042.01 3658.61 85.48 6.00 166.64 2658.32
   01:49:49.260.07-Aug-2020 5042.01 3659.04 85.48 6.00 166.84 2658.32
   01:49:49.460.07-Aug-2020 5042.01 3658.58 85.48 6.00 167.04 2658.32
   01:49:49.660.07-Aug-2020 5042.01 3658.58 85.48 6.00 167.24 2658.32
   01:49:49.860.07-Aug-2020 5042.01 3658.36 85.48 6.00 167.44 2658.32
   01:49:50.060.07-Aug-2020 5042.01 3658.29 85.48 6.00 167.64 2658.32
   01:49:50.260.07-Aug-2020 5042.01 3658.63 85.48 6.00 167.84 2658.32
   01:49:50.460.07-Aug-2020 5042.01 3658.17 85.48 6.00 168.04 2658.32
   01:49:50.660.07-Aug-2020 5042.01 3658.17 85.48 6.00 168.24 2658.32
   01:49:50.860.07-Aug-2020 5042.01 3658.29 85.48 6.00 168.44 2658.32
   01:49:51.060.07-Aug-2020 5042.01 3658.86 85.48 6.00 168.64 2658.32
   01:49:51.260.07-Aug-2020 5042.01 3658.26 85.48 6.00 168.84 2658.32
   01:49:51.460.07-Aug-2020 5042.01 3658.68 85.48 6.00 169.04 2658.32
   01:49:51.660.07-Aug-2020 5042.01 3658.68 85.48 6.00 169.24 2658.32
   01:49:51.860.07-Aug-2020 5042.01 3659.07 85.48 6.00 169.44 2658.32
   01:49:52.060.07-Aug-2020 5042.01 3658.55 85.48 6.00 169.64 2658.32
   01:49:52.260.07-Aug-2020 5042.01 3659.27 85.48 6.00 169.84 2658.32
   01:49:52.461.07-Aug-2020 5042.01 3657.55 85.48 6.00 170.04 2658.32
   01:49:52.661.07-Aug-2020 5042.01 3657.55 85.48 6.00 170.24 2658.32
   01:49:52.861.07-Aug-2020 5042.01 3658.62 85.48 6.00 170.44 2658.32
   01:49:53.061.07-Aug-2020 5042.01 3659.04 85.48 6.00 170.64 2658.32
   01:49:53.261.07-Aug-2020 5042.01 3658.58 85.48 6.00 170.84 2658.32
   01:49:53.461.07-Aug-2020 5042.01 3658.49 85.48 6.00 171.04 2658.32
   01:49:53.661.07-Aug-2020 5042.01 3658.49 85.48 6.00 171.24 2658.32
   01:49:53.861.07-Aug-2020 5042.01 3659.11 85.48 6.00 171.44 2658.32
   01:49:54.061.07-Aug-2020 5042.01 3658.39 85.48 6.00 171.64 2658.32
   01:49:54.261.07-Aug-2020 5042.01 3658.75 85.47 6.00 171.84 2658.32
   01:49:54.461.07-Aug-2020 5042.01 3658.75 85.47 6.00 172.04 2658.32
   01:49:54.661.07-Aug-2020 5042.01 3658.75 85.47 6.00 172.24 2658.32
   01:49:54.861.07-Aug-2020 5042.01 3659.57 85.47 6.00 172.44 2658.32
   01:49:55.061.07-Aug-2020 5042.01 3658.21 85.47 6.00 172.64 2658.32
   01:49:55.261.07-Aug-2020 5042.01 3658.84 85.47 6.00 172.84 2658.32
   01:49:55.461.07-Aug-2020 5042.01 3658.88 85.47 6.00 173.04 2658.32
   01:49:55.661.07-Aug-2020 5042.01 3658.88 85.47 6.00 173.24 2658.32
   01:49:55.861.07-Aug-2020 5042.01 3680.48 85.47 6.00 173.44 2658.32
   01:49:56.061.07-Aug-2020 5042.01 3680.97 85.47 6.00 173.64 2658.32
   01:49:56.261.07-Aug-2020 5042.01 3680.85 85.47 6.00 173.84 2658.32
   01:49:56.461.07-Aug-2020 5042.01 3681.00 85.47 6.00 174.04 2658.32
   01:49:56.662.07-Aug-2020 5042.01 3681.00 85.47 6.00 174.24 2658.32
   01:49:56.862.07-Aug-2020 5042.01 3681.04 85.47 6.00 174.44 2658.32
   01:49:57.062.07-Aug-2020 5042.01 3680.96 85.47 6.00 174.64 2658.32
   01:49:57.262.07-Aug-2020 5042.01 3681.05 85.47 6.00 174.84 2658.32
   01:49:57.462.07-Aug-2020 5042.01 3680.98 85.47 6.00 175.04 2658.32
   01:49:57.662.07-Aug-2020 5042.01 3680.98 85.47 6.00 175.24 2658.32
   01:49:57.862.07-Aug-2020 5042.01 3681.02 85.47 6.00 175.44 2658.32
   01:49:58.062.07-Aug-2020 5042.01 3681.16 85.47 6.00 175.64 2658.32
   01:49:58.262.07-Aug-2020 5042.01 3681.09 85.47 6.00 175.84 2658.32
   01:49:58.462.07-Aug-2020 5042.01 3681.13 85.47 6.00 176.04 2658.32
   01:49:58.662.07-Aug-2020 5042.01 3681.13 85.47 6.00 176.24 2658.32
   01:49:58.862.07-Aug-2020 5042.01 3681.13 85.47 6.00 176.44 2658.32
   01:49:59.062.07-Aug-2020 5042.01 3681.12 85.47 6.00 176.64 2658.32
   01:49:59.262.07-Aug-2020 5042.01 3681.13 85.47 6.00 176.84 2658.32
   01:49:59.462.07-Aug-2020 5042.01 3681.14 85.47 6.00 177.04 2658.32
   01:49:59.662.07-Aug-2020 5042.01 3681.14 85.47 6.00 177.24 2658.32
   01:49:59.862.07-Aug-2020 5042.01 3681.16 85.46 6.00 177.44 2658.32
   01:50:00.062.07-Aug-2020 5042.01 3680.98 85.46 6.00 177.64 2658.32
   01:50:00.262.07-Aug-2020 5042.01 3681.29 85.46 6.00 177.84 2658.32
   01:50:00.462.07-Aug-2020 5042.01 3681.00 85.46 6.00 178.04 2658.32
   01:50:00.662.07-Aug-2020 5042.01 3681.00 85.46 6.00 178.24 2658.32
   01:50:00.863.07-Aug-2020 5042.01 3681.00 85.46 6.00 178.44 2658.32
   01:50:01.063.07-Aug-2020 5042.01 3681.35 85.46 6.00 178.64 2658.32
   01:50:01.263.07-Aug-2020 5042.01 3680.94 85.46 6.00 178.84 2658.32
   01:50:01.463.07-Aug-2020 5042.01 3681.32 85.46 6.00 179.04 2658.32
   01:50:01.663.07-Aug-2020 5042.01 3681.32 85.46 6.00 179.24 2658.32
   01:50:01.863.07-Aug-2020 5042.01 3681.23 85.46 6.00 179.44 2658.32
   01:50:02.063.07-Aug-2020 5042.01 3681.14 85.46 6.00 179.64 2658.32
   01:50:02.263.07-Aug-2020 5042.01 3681.12 85.46 6.00 179.84 2658.32
   01:50:02.463.07-Aug-2020 5042.01 3681.14 85.46 6.00 180.04 2658.32
   01:50:02.663.07-Aug-2020 5042.01 3681.14 85.46 6.00 180.24 2658.32
   01:50:02.863.07-Aug-2020 5042.01 3680.91 85.46 6.00 180.44 2658.32
   01:50:03.063.07-Aug-2020 5042.01 3681.40 85.46 6.00 180.64 2658.32
   01:50:03.263.07-Aug-2020 5042.01 3681.07 85.46 6.00 180.84 2658.32
   01:50:03.463.07-Aug-2020 5042.01 3681.27 85.46 6.00 181.04 2658.32
   01:50:03.663.07-Aug-2020 5042.01 3681.27 85.46 6.00 181.24 2658.32
   01:50:03.863.07-Aug-2020 5042.01 3681.19 85.46 6.00 181.44 2658.32
   01:50:04.063.07-Aug-2020 5042.01 3681.17 85.46 6.00 181.64 2658.32
   01:50:04.263.07-Aug-2020 5042.01 3681.17 85.46 6.00 181.84 2658.32
   01:50:04.463.07-Aug-2020 5042.01 3681.19 85.46 6.00 182.04 2658.32
   01:50:04.663.07-Aug-2020 5042.01 3681.19 85.46 6.00 182.24 2658.32
   01:50:04.863.07-Aug-2020 5042.01 3681.20 85.46 6.00 182.44 2658.32
   01:50:05.063.07-Aug-2020 5042.01 3681.11 85.46 6.00 182.64 2658.32
   01:50:05.264.07-Aug-2020 5042.01 3681.22 85.45 6.00 182.84 2658.32
   01:50:05.464.07-Aug-2020 5042.01 3681.11 85.45 6.00 183.04 2658.32
   01:50:05.664.07-Aug-2020 5042.01 3681.11 85.45 6.00 183.24 2658.32
   01:50:05.864.07-Aug-2020 5042.01 3681.18 85.45 6.00 183.44 2658.32
   01:50:06.064.07-Aug-2020 5042.01 3681.14 85.45 6.00 183.64 2658.32
   01:50:06.264.07-Aug-2020 5042.01 3681.16 85.45 6.00 183.84 2658.32
