~Version Information
 VERS.                  2.0:   CWLS log ASCII Standard -VERSION 2.0
 WRAP.                   NO:   One line per depth step
~Well Information Block
#MNEM.UNIT     VALUE/NAME     DESCRIPTION
#---------     -----------    ---------------------------
 STRT.S             01:47:02 07-Aug-20: START TIME 01:47:02 07-Aug-20
 STOP.S             01:54:54 07-Aug-20: STOP TIME  01:54:54 07-Aug-20
 STEP.S                   0.00: STEP TIME
 NULL.                 -999.25: NULL VALUE
 DFWT.                        :  DIST FWL TEXT
 DFST.                        :  DIST FSL TEXT
 DMF .             Drill Floor:  DRILL MEAS FROM
 STIM.      12.00.00 03-Jul-20:  START TIME
 DATE.      00.50.00 09-Aug-20:  END TIME
 SPUD.               03-Jul-20:  SPUD DATE
 NREF.                    Grid:  NORTH REFERENCE
 HPTY.       Minimum Curvature:  HOLE POS TYPE
 DMOD.             Drill Model:  DRILL MOD DESC
 SVYD.                  Survey:  SURVEY DESC
 ILTD.               Lithology:  INTERP LTH DESC
 FTOP.          Formation Tops:  FORM TOPS DESC
 PDAT.          Mean Sea Level:  PERMANENT DATUM
 FLD .                     ACG:  FIELD NAME
 CTRY.              Azerbaijan:  COUNTRY NAME
 WELL.                    E04x:  WELL NAME
 SRVC.          Turan Drilling:  CONTRACTOR
 COMP.     BP Exploration (Caspian Sea) Ltd.:  COMPANY
 SON .        AZ-XX-0906531346:  JOB NUMBER
 WTYP.                Deviated:  WELL TYPE
 MDS .        Operator Entered:  MAG DATA SOURCE
 UWI .                     N/A:  UNIQUE WELL IDENTIFIER
 API .                     N/A:  API NUMBER
 BASE.              Azerbaijan:  LOGGING EQUIPMENT BASE LOCATION
 REGN.                   EESSA:  REGION
 PROV.                    Baku:  PROVINCE
 STAT.                    Baku:  STATE NAME
 MWDS.                    Baku:  MWD SHOP
 JOBN.        AZ-XX-0906531346:  JOB TICKET NUMB
 RIG .                     DWG:  RIG NAME
 DOE .                     N/A:  DOE NUMBER
 DCON.         Sperry Drilling:  DIRECTNL CONTR
 UNIT.                     N/A:  LOGGING EQUIPMENT ID
 CNTY.                        :  COUNTY
 LOC .                        :  LOCATION
 LMF .             Drill Floor:  LOG MEASURED FROM
 TVDS.m                  43.16:  TVDSS CORRECTN
 LATI.deg                40.17:  LATITUDE
 LONG.deg                51.17:  LONGITUDE
 WHNS.m                  -0.12:  WELL HEAD N/S
 WHEW.m                  -5.41:  WELL HEAD E/W
 UTMX.m              514337.95:  UTM X
 UTMY.m             4448627.46:  UTM Y
 DFWL.m                   0.00:  DISTANCE FWL
 DFSL.m                   0.00:  DISTANCE FSL
 SDEP.m                3088.01:  START DEPTH
 TDD .m                5200.01:  TOTAL DEPTH (DRILLER)
 VSDR.deg               244.51:  VERT SEC DIRECT
 GVFD.g                   1.00:  GRAVITY FIELD
 MFLD.nT              50329.80:  MAGNETIC FIELD
 MDIP.deg                59.63:  MAGNETIC DIP
 MDEC.deg                 6.59:  MAGNETIC DECL
 GRDC.deg                 0.09:  GRID CORRECTION
 AZTC.deg                 6.50:  AZM TOTAL CORR
 EPD .m                   0.00:  ELEVATION
 EGL .m                   0.00:  GROUND ELEVATION
 WDMS.m                 176.20:  WD ELEV
 APD .m                  43.16:  DEPTH ABOVE PD
 DEP .m                3084.71:  DEPTH
 AGAP.m                  43.16:  AIR GAP
 VSEW.m                  -5.41:  VERT SEC E/W
 VSNS.m                  -0.12:  VERT SEC N/S
 EKB .m                   0.00:  KB ELEVATION
 EDF .m                  43.16:  DF ELEVATION
 TDL .m                 243.00:  TOTAL DEPTH (LOGGER)
 VSC .                       0:  VS TO CLOSURE
 MAGU.                 1853542:  MAGUTM CHECKSUM
~Parameter Information Block
#MNEM.UNIT       Value        Description
#---------     -----------    ---------------------------
 AV  .mps                 1.91:  Ann Velocity 
 AVMX.mps                 2.52:  Max Ann Veloc 
 AZIF.deg               308.97:  Azm, Final 
 BHAT.        Rotary Steerable:  BHA Type 
 BROT.°/30m               1.00:  Build Rotating 
 BS  .in                  6.50:  Bit Size 
 BSZ .in                  6.50:  Bit Size 
 BTPL.psig              350.00:  Bit Press Loss 
 CABU.                      No:  Customer Abuse 
 CGEO.           Asif Pashayev:  Customer Geo 
 COMM.                     Ô¿r:  Run Comments 1 
 TCS .hr                 35.86:  Time Ciculation Ended 
 CV  .mps                 2.31:  Crit Velocity 
 CVMX.mps                 2.31:  Max Crit Veloc 
 DD1 .         Intigam Rahimov:  Direct Drillr 1 
 DDSV.               Geo-Pilot:  DD Service 
 DEFF.%                  92.00:  % Det Eff 
 DLRX.°/30m               1.00:  Dogleg Rot Max 
 DLSO.°/30m               1.00:  Dogleg Oriented 
 DLSX.°/30m               1.42:  Dogleg Str Max 
 DRET.      15.50.00 07-Aug-20:  Drill End Time 
 DRST.      10.40.00 06-Aug-20:  Drill Start Tim 
 DTIM.hr                 21.30:  Time Drilling 
 EDEP.m                5200.01:  End Depth 
 ENG1.            Alan Tuganov:  Engineer 1 
 ENG2.         Almaz Almadatov:  Engineer 2 
 ENG3.     Zammelal Abdullah Sani:  Engineer 3 
 ETIM.      22.42.00 08-Aug-20:  End Time 
 FLOI.gpm               395.00:  Flow In 
 FLON.gpm               350.00:  Flow In Min 
 FLOS.cptm                0.00:  Fluid Loss 
 FLOX.gpm               404.00:  Flow In Max 
 FTRO.       Formation Presure:  FTWD Run Obj 
 HFLO.                      No:  High Flow 
 HPRE.                      No:  High Pressure 
 HTEM.                      No:  High Temp 
 HYDO.m                   1.80:  Hydro Offset 
 IFIN.deg                72.64:  Inc, Final 
 IMAX.deg                73.68:  Inc Max 
 IMIN.deg                72.64:  Inc Min 
 IMND.m                5189.69:  Inc Min Depth 
 IMXD.m                5067.88:  Inc Max Depth 
 JARR.                      No:  Jarring 
 LETM.      15.50.00 07-Aug-20:  Log End Time 
 LOST.hr                     0:  Lost Rig Time 
 LSTM.      10.40.00 06-Aug-20:  Log Start Time 
 MDCL.ppm             36000.00:  Mud Chlorides 
 MDES.     Inversion Oil/Synthetic:  Mud Desc 
 DFD .sg                  1.36:  Mud Density 
 MDMN.sg                  1.36:  Dens Mud Min 
 MDMX.sg                  1.36:  Dens Mud Max 
 MOIL.                      70:  Run Mud Oil % 
 MOWR.                   70:30:  Run Mud OWR 
 MSND.                    0.00:  Run Mud Sand % 
 MSOL.                   17.60:  Run Mud Solids% 
 DFV .spqt               73.00:  Mud Viscosity 
 MWOD.in                  4.75:  MWD Tool OD 
 MWSI.                      No:  Serv Intrp, MWD 
 OTIM.hr                 85.66:  Time Operating 
 PCON.           Look Like New:  Pad Condition 
 PMAX.psia             6250.00:  Press Op, Max 
 PV  .cP                 65.00:  Mud PV 
 RUN .                     900:  Run Number 
 ROPA.m/hr               11.40:  ROP Avg 
 ROPN.m/hr                5.00:  ROP Min 
 ROPX.m/hr               20.00:  ROP Max 
 RPMA.rpm               130.00:  RPM Surface Avg 
 RPMN.rpm                40.00:  RPM Surface Min 
 RPMX.rpm               140.00:  RPM Surface Max 
 RRUN.                    L205:  Rig Run Number 
 RTIM.hr                  1.00:  Time Reaming 
 SAZI.deg               313.52:  Azm, Start 
 SDEP.m                4957.01:  Start Depth 
 SIDD.                      No:  Serv Intrp, DD 
 SINC.deg                73.16:  Inc, Start 
 SPPA.psig             5657.00:  SPP Avg 
 SPPN.psig             2500.00:  SPP Min 
 SPPX.psig             5806.00:  SPP Max 
 STIM.      07.12.00 05-Aug-20:  Start Time 
 SVCS.                 DD, MWD:  Services 
 SVER.                    9.20:  Sperry Version 
 TDAT.m                 243.00:  Tot Depth Attmp 
 TDDF.                      No:  Trip for DD 
 TDLG.m                 243.00:  Tot Depth Loggd 
 TFF .                      No:  Trip for Fail 
 TQAA.f-kp               13.00:  Torque Abs Avg 
 TQAN.f-kp               11.00:  Torque Abs Min 
 TQAX.f-kp               16.00:  Torque Abs Max 
 TRRT.°/30m               1.00:  Turn Rotating 
 MRT .                    HCIM:  Maximum Recorded Temperature 
 TTMX.degC               96.08:  Max Tool Temp 
 VS01.                90515411:  Virtual Str1 SN 
 VS02.                90512716:  Virtual Str2 SN 
 VS03.                90522362:  Virtual Str3 SN 
 VS04.                90619415:  Virtual Str4 SN 
 VS05.                90619414:  Virtual Str5 SN 
 VS06.                90597748:  Virtual Str6 SN 
 WBMN.klb                 2.00:  WOB Min 
 WITN.           Adil Mammadov:  Customer Rep 
 WITN.     Alexander Yadullayev:  Customer Rep 2 
 WOBA.klb                 7.00:  WOB Avg 
 WOBX.klb                23.00:  WOB Max 
 YP  .lhf2               37.00:  Yield Point 
~Curve Information Block
#MNEM.UNIT                 API CODE     Curve Description
#---------               -----------    ---------------------------
 TIME.HHMMSS            00 000 000 000:  GT Time & Date
 GTDEPTH.m              00 000 000 000:  GT Depth
 GTPQH.psia             00 000 000 000:  GT HR Quartz Pressure
 GTTQ.degC              00 000 000 000:  GT Quartz Temperature
 GTTN.NONE              00 000 000 000:  GT Test Number
 GTET.sec               00 000 000 000:  GT Elapsed Test Time
 GTTVD.m                00 000 000 000:  GT True Vertical Depth
#Other Information
#
#WARRANTY: Halliburton will use its best efforts to furnish customers with 
#accurate information and interpretations that are part of, and incident to, the services 
#provided.  However, Halliburton cannot and does not warrant the accuracy 
#or correctness of such information and interpretations.  Under no circumstances should any 
#such information or interpretation be relied upon as the sole basis for any drilling, 
#completion, production, or financial decision or any procedure involving any risk to the 
#safety of any drilling venture, drilling rig or its crew or any other third party.  The 
#Customer has full responsibility for all drilling, completion and production operation.  
#Halliburton makes no representations or warranties, either expressed or 
#implied, including, but not limited to, the implied warranties of merchantability or fitness 
#for a particular purpose, with respect to the services rendered.  In no event will 
#Halliburton be liable for failure to obtain any particular results or for 
#any damages, including, but not limited to, indirect, special or consequential damages, 
#resulting from the use of any information or interpretation provided by Halliburton.
#
~A           TIME           GTDEPTH  GTPQH  GTTQ  GTTN  GTET   GTTVD  
# ...
   01:48:57.448.07-Aug-2020 5042.01 3681.29 85.59 6.00 115.03 2658.32
   01:48:57.648.07-Aug-2020 5042.01 3681.29 85.59 6.00 115.23 2658.32
   01:48:57.848.07-Aug-2020 5042.01 3681.29 85.59 6.00 115.43 2658.32
   01:48:58.048.07-Aug-2020 5042.01 3681.38 85.58 6.00 115.63 2658.32
   01:48:58.248.07-Aug-2020 5042.01 3681.28 85.58 6.00 115.83 2658.32
   01:48:58.448.07-Aug-2020 5042.01 3681.07 85.58 6.00 116.03 2658.32
   01:48:58.648.07-Aug-2020 5042.01 3681.07 85.58 6.00 116.23 2658.32
   01:48:58.848.07-Aug-2020 5042.01 3681.29 85.58 6.00 116.43 2658.32
   01:48:59.048.07-Aug-2020 5042.01 3681.38 85.58 6.00 116.63 2658.32
   01:48:59.248.07-Aug-2020 5042.01 3681.34 85.58 6.00 116.83 2658.32
   01:48:59.448.07-Aug-2020 5042.01 3681.32 85.58 6.00 117.03 2658.32
   01:48:59.648.07-Aug-2020 5042.01 3681.32 85.58 6.00 117.23 2658.32
   01:48:59.848.07-Aug-2020 5042.01 3681.33 85.58 6.00 117.43 2658.32
   01:49:00.048.07-Aug-2020 5042.01 3681.32 85.58 6.00 117.63 2658.32
   01:49:00.248.07-Aug-2020 5042.01 3681.35 85.58 6.00 117.83 2658.32
   01:49:00.448.07-Aug-2020 5042.01 3681.32 85.58 6.00 118.03 2658.32
   01:49:00.648.07-Aug-2020 5042.01 3681.32 85.58 6.00 118.23 2658.32
   01:49:00.848.07-Aug-2020 5042.01 3681.29 85.58 6.00 118.43 2658.32
   01:49:01.048.07-Aug-2020 5042.01 3681.37 85.58 6.00 118.63 2658.32
   01:49:01.248.07-Aug-2020 5042.01 3681.22 85.58 6.00 118.83 2658.32
   01:49:01.449.07-Aug-2020 5042.01 3681.40 85.58 6.00 119.03 2658.32
   01:49:01.649.07-Aug-2020 5042.01 3681.40 85.58 6.00 119.23 2658.32
   01:49:01.849.07-Aug-2020 5042.01 3681.39 85.58 6.00 119.43 2658.32
   01:49:02.049.07-Aug-2020 5042.01 3681.12 85.58 6.00 119.63 2658.32
   01:49:02.249.07-Aug-2020 5042.01 3681.50 85.58 6.00 119.83 2658.32
   01:49:02.449.07-Aug-2020 5042.01 3681.16 85.58 6.00 120.03 2658.32
   01:49:02.649.07-Aug-2020 5042.01 3681.16 85.58 6.00 120.23 2658.32
   01:49:02.849.07-Aug-2020 5042.01 3681.23 85.57 6.00 120.43 2658.32
   01:49:03.049.07-Aug-2020 5042.01 3681.25 85.57 6.00 120.63 2658.32
   01:49:03.249.07-Aug-2020 5042.01 3681.39 85.57 6.00 120.83 2658.32
   01:49:03.449.07-Aug-2020 5042.01 3681.31 85.57 6.00 121.03 2658.32
   01:49:03.649.07-Aug-2020 5042.01 3681.31 85.57 6.00 121.23 2658.32
   01:49:03.849.07-Aug-2020 5042.01 3681.31 85.57 6.00 121.43 2658.32
   01:49:04.049.07-Aug-2020 5042.01 3681.30 85.57 6.00 121.63 2658.32
   01:49:04.249.07-Aug-2020 5042.01 3681.33 85.57 6.00 121.83 2658.32
   01:49:04.449.07-Aug-2020 5042.01 3681.24 85.57 6.00 122.03 2658.32
   01:49:04.649.07-Aug-2020 5042.01 3681.24 85.57 6.00 122.23 2658.32
   01:49:04.849.07-Aug-2020 5042.01 3681.31 85.57 6.00 122.43 2658.32
   01:49:05.049.07-Aug-2020 5042.01 3681.31 85.57 6.00 122.63 2658.32
   01:49:05.249.07-Aug-2020 5042.01 3681.34 85.57 6.00 122.83 2658.32
   01:49:05.449.07-Aug-2020 5042.01 3681.30 85.57 6.00 123.03 2658.32
   01:49:05.650.07-Aug-2020 5042.01 3681.30 85.57 6.00 123.23 2658.32
   01:49:05.850.07-Aug-2020 5042.01 3681.27 85.57 6.00 123.43 2658.32
   01:49:06.050.07-Aug-2020 5042.01 3681.35 85.57 6.00 123.63 2658.32
   01:49:06.250.07-Aug-2020 5042.01 3681.26 85.57 6.00 123.83 2658.32
   01:49:06.450.07-Aug-2020 5042.01 3681.36 85.57 6.00 124.03 2658.32
   01:49:06.650.07-Aug-2020 5042.01 3681.36 85.57 6.00 124.23 2658.32
   01:49:06.850.07-Aug-2020 5042.01 3681.18 85.57 6.00 124.43 2658.32
   01:49:07.050.07-Aug-2020 5042.01 3681.39 85.57 6.00 124.63 2658.32
   01:49:07.250.07-Aug-2020 5042.01 3681.30 85.57 6.00 124.83 2658.32
   01:49:07.450.07-Aug-2020 5042.01 3681.32 85.57 6.00 125.03 2658.32
   01:49:07.650.07-Aug-2020 5042.01 3681.32 85.57 6.00 125.23 2658.32
   01:49:07.850.07-Aug-2020 5042.01 3681.28 85.56 6.00 125.43 2658.32
   01:49:08.050.07-Aug-2020 5042.01 3681.33 85.56 6.00 125.63 2658.32
   01:49:08.250.07-Aug-2020 5042.01 3681.26 85.56 6.00 125.83 2658.32
   01:49:08.450.07-Aug-2020 5042.01 3681.35 85.56 6.00 126.03 2658.32
   01:49:08.650.07-Aug-2020 5042.01 3681.35 85.56 6.00 126.23 2658.32
   01:49:08.850.07-Aug-2020 5042.01 3681.33 85.56 6.00 126.43 2658.32
   01:49:09.050.07-Aug-2020 5042.01 3681.28 85.56 6.00 126.63 2658.32
   01:49:09.250.07-Aug-2020 5042.01 3681.32 85.56 6.00 126.83 2658.32
   01:49:09.450.07-Aug-2020 5042.01 3681.28 85.56 6.00 127.03 2658.32
   01:49:09.650.07-Aug-2020 5042.01 3681.28 85.56 6.00 127.23 2658.32
   01:49:09.851.07-Aug-2020 5042.01 3681.37 85.56 6.00 127.43 2658.32
   01:49:10.051.07-Aug-2020 5042.01 3681.22 85.56 6.00 127.63 2658.32
   01:49:10.251.07-Aug-2020 5042.01 3681.33 85.56 6.00 127.83 2658.32
   01:49:10.451.07-Aug-2020 5042.01 3680.96 85.56 6.00 128.03 2658.32
   01:49:10.651.07-Aug-2020 5042.01 3680.96 85.56 6.00 128.23 2658.32
   01:49:10.851.07-Aug-2020 5042.01 3681.17 85.56 6.00 128.43 2658.32
   01:49:11.051.07-Aug-2020 5042.01 3681.43 85.56 6.00 128.63 2658.32
   01:49:11.251.07-Aug-2020 5042.01 3681.24 85.56 6.00 128.83 2658.32
   01:49:11.451.07-Aug-2020 5042.01 3681.30 85.56 6.00 129.03 2658.32
   01:49:11.651.07-Aug-2020 5042.01 3681.30 85.56 6.00 129.23 2658.32
   01:49:11.851.07-Aug-2020 5042.01 3681.25 85.56 6.00 129.43 2658.32
   01:49:12.051.07-Aug-2020 5042.01 3681.33 85.56 6.00 129.63 2658.32
   01:49:12.251.07-Aug-2020 5042.01 3681.31 85.56 6.00 129.83 2658.32
   01:49:12.451.07-Aug-2020 5042.01 3681.26 85.56 6.00 130.03 2658.32
   01:49:12.651.07-Aug-2020 5042.01 3681.26 85.56 6.00 130.23 2658.32
   01:49:12.851.07-Aug-2020 5042.01 3681.24 85.55 6.00 130.43 2658.32
   01:49:13.051.07-Aug-2020 5042.01 3681.34 85.55 6.00 130.63 2658.32
   01:49:13.251.07-Aug-2020 5042.01 3681.26 85.55 6.00 130.83 2658.32
   01:49:13.451.07-Aug-2020 5042.01 3681.32 85.55 6.00 131.03 2658.32
   01:49:13.651.07-Aug-2020 5042.01 3681.32 85.55 6.00 131.23 2658.32
   01:49:13.851.07-Aug-2020 5042.01 3681.33 85.55 6.00 131.43 2658.32
   01:49:14.051.07-Aug-2020 5042.01 3681.26 85.55 6.00 131.63 2658.32
   01:49:14.252.07-Aug-2020 5042.01 3681.31 85.55 6.00 131.83 2658.32
   01:49:14.452.07-Aug-2020 5042.01 3681.27 85.55 6.00 132.03 2658.32
   01:49:14.652.07-Aug-2020 5042.01 3681.27 85.55 6.00 132.23 2658.32
   01:49:14.852.07-Aug-2020 5042.01 3681.29 85.55 6.00 132.43 2658.32
   01:49:15.052.07-Aug-2020 5042.01 3681.28 85.55 6.00 132.63 2658.32
   01:49:15.252.07-Aug-2020 5042.01 3681.21 85.55 6.00 132.83 2658.32
   01:49:15.452.07-Aug-2020 5042.01 3681.34 85.55 6.00 133.03 2658.32
   01:49:15.652.07-Aug-2020 5042.01 3681.34 85.55 6.00 133.23 2658.32
   01:49:15.852.07-Aug-2020 5042.01 3681.33 85.55 6.00 133.43 2658.32
   01:49:16.052.07-Aug-2020 5042.01 3681.28 85.55 6.00 133.63 2658.32
   01:49:16.252.07-Aug-2020 5042.01 3681.25 85.55 6.00 133.83 2658.32
   01:49:16.452.07-Aug-2020 5042.01 3681.33 85.55 6.00 134.03 2658.32
   01:49:16.652.07-Aug-2020 5042.01 3681.33 85.55 6.00 134.23 2658.32
   01:49:16.852.07-Aug-2020 5042.01 3681.34 85.55 6.00 134.43 2658.32
   01:49:17.052.07-Aug-2020 5042.01 3681.22 85.55 6.00 134.63 2658.32
   01:49:17.252.07-Aug-2020 5042.01 3681.34 85.55 6.00 134.83 2658.32
   01:49:17.452.07-Aug-2020 5042.01 3681.21 85.55 6.00 135.03 2658.32
   01:49:17.652.07-Aug-2020 5042.01 3681.21 85.55 6.00 135.23 2658.32
   01:49:17.852.07-Aug-2020 5042.01 3681.23 85.54 6.00 135.43 2658.32
   01:49:18.052.07-Aug-2020 5042.01 3681.30 85.54 6.00 135.63 2658.32
   01:49:18.252.07-Aug-2020 5042.01 3681.24 85.54 6.00 135.83 2658.32
   01:49:18.453.07-Aug-2020 5042.01 3681.24 85.54 6.00 136.03 2658.32
   01:49:18.653.07-Aug-2020 5042.01 3681.24 85.54 6.00 136.23 2658.32
   01:49:18.853.07-Aug-2020 5042.01 3680.95 85.54 6.00 136.43 2658.32
   01:49:19.053.07-Aug-2020 5042.01 3681.57 85.54 6.00 136.63 2658.32
   01:49:19.253.07-Aug-2020 5042.01 3681.19 85.54 6.00 136.83 2658.32
   01:49:19.453.07-Aug-2020 5042.01 3681.36 85.54 6.00 137.03 2658.32
   01:49:19.653.07-Aug-2020 5042.01 3681.36 85.54 6.00 137.23 2658.32
   01:49:19.853.07-Aug-2020 5042.01 3681.29 85.54 6.00 137.43 2658.32
   01:49:20.053.07-Aug-2020 5042.01 3681.32 85.54 6.00 137.63 2658.32
   01:49:20.253.07-Aug-2020 5042.01 3681.14 85.54 6.00 137.83 2658.32
