~Version Information
 VERS.                  2.0:   CWLS log ASCII Standard -VERSION 2.0
 WRAP.                   NO:   One line per depth step
~Well Information Block
#MNEM.UNIT     VALUE/NAME     DESCRIPTION
#---------     -----------    ---------------------------
 STRT.S             14:58:59 06-Aug-20: START TIME 14:58:59 06-Aug-20
 STOP.S             15:06:43 06-Aug-20: STOP TIME  15:06:43 06-Aug-20
 STEP.S                   0.00: STEP TIME
 NULL.                 -999.25: NULL VALUE
 DFWT.                        :  DIST FWL TEXT
 DFST.                        :  DIST FSL TEXT
 DMF .             Drill Floor:  DRILL MEAS FROM
 STIM.      12.00.00 03-Jul-20:  START TIME
 DATE.      00.50.00 09-Aug-20:  END TIME
 SPUD.               03-Jul-20:  SPUD DATE
 NREF.                    Grid:  NORTH REFERENCE
 HPTY.       Minimum Curvature:  HOLE POS TYPE
 DMOD.             Drill Model:  DRILL MOD DESC
 SVYD.                  Survey:  SURVEY DESC
 ILTD.               Lithology:  INTERP LTH DESC
 FTOP.          Formation Tops:  FORM TOPS DESC
 PDAT.          Mean Sea Level:  PERMANENT DATUM
 FLD .                     ACG:  FIELD NAME
 CTRY.              Azerbaijan:  COUNTRY NAME
 WELL.                    E04x:  WELL NAME
 SRVC.          Turan Drilling:  CONTRACTOR
 COMP.     BP Exploration (Caspian Sea) Ltd.:  COMPANY
 SON .        AZ-XX-0906531346:  JOB NUMBER
 WTYP.                Deviated:  WELL TYPE
 MDS .        Operator Entered:  MAG DATA SOURCE
 UWI .                     N/A:  UNIQUE WELL IDENTIFIER
 API .                     N/A:  API NUMBER
 BASE.              Azerbaijan:  LOGGING EQUIPMENT BASE LOCATION
 REGN.                   EESSA:  REGION
 PROV.                    Baku:  PROVINCE
 STAT.                    Baku:  STATE NAME
 MWDS.                    Baku:  MWD SHOP
 JOBN.        AZ-XX-0906531346:  JOB TICKET NUMB
 RIG .                     DWG:  RIG NAME
 DOE .                     N/A:  DOE NUMBER
 DCON.         Sperry Drilling:  DIRECTNL CONTR
 UNIT.                     N/A:  LOGGING EQUIPMENT ID
 CNTY.                        :  COUNTY
 LOC .                        :  LOCATION
 LMF .             Drill Floor:  LOG MEASURED FROM
 TVDS.m                  43.16:  TVDSS CORRECTN
 LATI.deg                40.17:  LATITUDE
 LONG.deg                51.17:  LONGITUDE
 WHNS.m                  -0.12:  WELL HEAD N/S
 WHEW.m                  -5.41:  WELL HEAD E/W
 UTMX.m              514337.95:  UTM X
 UTMY.m             4448627.46:  UTM Y
 DFWL.m                   0.00:  DISTANCE FWL
 DFSL.m                   0.00:  DISTANCE FSL
 SDEP.m                3088.01:  START DEPTH
 TDD .m                5200.01:  TOTAL DEPTH (DRILLER)
 VSDR.deg               244.51:  VERT SEC DIRECT
 GVFD.g                   1.00:  GRAVITY FIELD
 MFLD.nT              50329.80:  MAGNETIC FIELD
 MDIP.deg                59.63:  MAGNETIC DIP
 MDEC.deg                 6.59:  MAGNETIC DECL
 GRDC.deg                 0.09:  GRID CORRECTION
 AZTC.deg                 6.50:  AZM TOTAL CORR
 EPD .m                   0.00:  ELEVATION
 EGL .m                   0.00:  GROUND ELEVATION
 WDMS.m                 176.20:  WD ELEV
 APD .m                  43.16:  DEPTH ABOVE PD
 DEP .m                3084.71:  DEPTH
 AGAP.m                  43.16:  AIR GAP
 VSEW.m                  -5.41:  VERT SEC E/W
 VSNS.m                  -0.12:  VERT SEC N/S
 EKB .m                   0.00:  KB ELEVATION
 EDF .m                  43.16:  DF ELEVATION
 TDL .m                 243.00:  TOTAL DEPTH (LOGGER)
 VSC .                       0:  VS TO CLOSURE
 MAGU.                 1853542:  MAGUTM CHECKSUM
~Parameter Information Block
#MNEM.UNIT       Value        Description
#---------     -----------    ---------------------------
 AV  .mps                 1.91:  Ann Velocity 
 AVMX.mps                 2.52:  Max Ann Veloc 
 AZIF.deg               308.97:  Azm, Final 
 BHAT.        Rotary Steerable:  BHA Type 
 BROT.°/30m               1.00:  Build Rotating 
 BS  .in                  6.50:  Bit Size 
 BSZ .in                  6.50:  Bit Size 
 BTPL.psig              350.00:  Bit Press Loss 
 CABU.                      No:  Customer Abuse 
 CGEO.           Asif Pashayev:  Customer Geo 
 COMM.                     ”›T:  Run Comments 1 
 TCS .hr                 35.86:  Time Ciculation Ended 
 CV  .mps                 2.31:  Crit Velocity 
 CVMX.mps                 2.31:  Max Crit Veloc 
 DD1 .         Intigam Rahimov:  Direct Drillr 1 
 DDSV.               Geo-Pilot:  DD Service 
 DEFF.%                  92.00:  % Det Eff 
 DLRX.°/30m               1.00:  Dogleg Rot Max 
 DLSO.°/30m               1.00:  Dogleg Oriented 
 DLSX.°/30m               1.42:  Dogleg Str Max 
 DRET.      15.50.00 07-Aug-20:  Drill End Time 
 DRST.      10.40.00 06-Aug-20:  Drill Start Tim 
 DTIM.hr                 21.30:  Time Drilling 
 EDEP.m                5200.01:  End Depth 
 ENG1.            Alan Tuganov:  Engineer 1 
 ENG2.         Almaz Almadatov:  Engineer 2 
 ENG3.     Zammelal Abdullah Sani:  Engineer 3 
 ETIM.      22.42.00 08-Aug-20:  End Time 
 FLOI.gpm               395.00:  Flow In 
 FLON.gpm               350.00:  Flow In Min 
 FLOS.cptm                0.00:  Fluid Loss 
 FLOX.gpm               404.00:  Flow In Max 
 FTRO.       Formation Presure:  FTWD Run Obj 
 HFLO.                      No:  High Flow 
 HPRE.                      No:  High Pressure 
 HTEM.                      No:  High Temp 
 HYDO.m                   1.80:  Hydro Offset 
 IFIN.deg                72.64:  Inc, Final 
 IMAX.deg                73.68:  Inc Max 
 IMIN.deg                72.64:  Inc Min 
 IMND.m                5189.69:  Inc Min Depth 
 IMXD.m                5067.88:  Inc Max Depth 
 JARR.                      No:  Jarring 
 LETM.      15.50.00 07-Aug-20:  Log End Time 
 LOST.hr                     0:  Lost Rig Time 
 LSTM.      10.40.00 06-Aug-20:  Log Start Time 
 MDCL.ppm             36000.00:  Mud Chlorides 
 MDES.     Inversion Oil/Synthetic:  Mud Desc 
 DFD .sg                  1.36:  Mud Density 
 MDMN.sg                  1.36:  Dens Mud Min 
 MDMX.sg                  1.36:  Dens Mud Max 
 MOIL.                      70:  Run Mud Oil % 
 MOWR.                   70:30:  Run Mud OWR 
 MSND.                    0.00:  Run Mud Sand % 
 MSOL.                   17.60:  Run Mud Solids% 
 DFV .spqt               73.00:  Mud Viscosity 
 MWOD.in                  4.75:  MWD Tool OD 
 MWSI.                      No:  Serv Intrp, MWD 
 OTIM.hr                 85.66:  Time Operating 
 PCON.           Look Like New:  Pad Condition 
 PMAX.psia             6250.00:  Press Op, Max 
 PV  .cP                 65.00:  Mud PV 
 RUN .                     900:  Run Number 
 ROPA.m/hr               11.40:  ROP Avg 
 ROPN.m/hr                5.00:  ROP Min 
 ROPX.m/hr               20.00:  ROP Max 
 RPMA.rpm               130.00:  RPM Surface Avg 
 RPMN.rpm                40.00:  RPM Surface Min 
 RPMX.rpm               140.00:  RPM Surface Max 
 RRUN.                    L205:  Rig Run Number 
 RTIM.hr                  1.00:  Time Reaming 
 SAZI.deg               313.52:  Azm, Start 
 SDEP.m                4957.01:  Start Depth 
 SIDD.                      No:  Serv Intrp, DD 
 SINC.deg                73.16:  Inc, Start 
 SPPA.psig             5657.00:  SPP Avg 
 SPPN.psig             2500.00:  SPP Min 
 SPPX.psig             5806.00:  SPP Max 
 STIM.      07.12.00 05-Aug-20:  Start Time 
 SVCS.                 DD, MWD:  Services 
 SVER.                    9.20:  Sperry Version 
 TDAT.m                 243.00:  Tot Depth Attmp 
 TDDF.                      No:  Trip for DD 
 TDLG.m                 243.00:  Tot Depth Loggd 
 TFF .                      No:  Trip for Fail 
 TQAA.f-kp               13.00:  Torque Abs Avg 
 TQAN.f-kp               11.00:  Torque Abs Min 
 TQAX.f-kp               16.00:  Torque Abs Max 
 TRRT.°/30m               1.00:  Turn Rotating 
 MRT .                    HCIM:  Maximum Recorded Temperature 
 TTMX.degC               96.08:  Max Tool Temp 
 VS01.                90515411:  Virtual Str1 SN 
 VS02.                90512716:  Virtual Str2 SN 
 VS03.                90522362:  Virtual Str3 SN 
 VS04.                90619415:  Virtual Str4 SN 
 VS05.                90619414:  Virtual Str5 SN 
 VS06.                90597748:  Virtual Str6 SN 
 WBMN.klb                 2.00:  WOB Min 
 WITN.           Adil Mammadov:  Customer Rep 
 WITN.     Alexander Yadullayev:  Customer Rep 2 
 WOBA.klb                 7.00:  WOB Avg 
 WOBX.klb                23.00:  WOB Max 
 YP  .lhf2               37.00:  Yield Point 
~Curve Information Block
#MNEM.UNIT                 API CODE     Curve Description
#---------               -----------    ---------------------------
 TIME.HHMMSS            00 000 000 000:  GT Time & Date
 GTDEPTH.m              00 000 000 000:  GT Depth
 GTPQH.psia             00 000 000 000:  GT HR Quartz Pressure
 GTTQ.degC              00 000 000 000:  GT Quartz Temperature
 GTTN.NONE              00 000 000 000:  GT Test Number
 GTET.sec               00 000 000 000:  GT Elapsed Test Time
 GTTVD.m                00 000 000 000:  GT True Vertical Depth
#Other Information
#
#WARRANTY: Halliburton will use its best efforts to furnish customers with 
#accurate information and interpretations that are part of, and incident to, the services 
#provided.  However, Halliburton cannot and does not warrant the accuracy 
#or correctness of such information and interpretations.  Under no circumstances should any 
#such information or interpretation be relied upon as the sole basis for any drilling, 
#completion, production, or financial decision or any procedure involving any risk to the 
#safety of any drilling venture, drilling rig or its crew or any other third party.  The 
#Customer has full responsibility for all drilling, completion and production operation.  
#Halliburton makes no representations or warranties, either expressed or 
#implied, including, but not limited to, the implied warranties of merchantability or fitness 
#for a particular purpose, with respect to the services rendered.  In no event will 
#Halliburton be liable for failure to obtain any particular results or for 
#any damages, including, but not limited to, indirect, special or consequential damages, 
#resulting from the use of any information or interpretation provided by Halliburton.
#
~A           TIME           GTDEPTH  GTPQH  GTTQ  GTTN  GTET   GTTVD  
# ...
   15:02:49.595.06-Aug-2020 4947.01 5726.62 78.40 1.00 230.05 2630.94
   15:02:49.795.06-Aug-2020 4947.01 5726.62 78.40 1.00 230.25 2630.94
   15:02:49.995.06-Aug-2020 4947.01 5732.37 78.40 1.00 230.45 2630.94
   15:02:50.195.06-Aug-2020 4947.01 5733.51 78.40 1.00 230.65 2630.94
   15:02:50.395.06-Aug-2020 4947.01 5733.39 78.39 1.00 230.85 2630.94
   15:02:50.595.06-Aug-2020 4947.01 5733.60 78.39 1.00 231.05 2630.94
   15:02:50.796.06-Aug-2020 4947.01 5733.60 78.39 1.00 231.25 2630.94
   15:02:50.996.06-Aug-2020 4947.01 5729.60 78.39 1.00 231.45 2630.94
   15:02:51.196.06-Aug-2020 4947.01 5732.24 78.39 1.00 231.65 2630.94
   15:02:51.396.06-Aug-2020 4947.01 5734.56 78.39 1.00 231.85 2630.94
   15:02:51.596.06-Aug-2020 4947.01 5734.39 78.39 1.00 232.05 2630.94
   15:02:51.796.06-Aug-2020 4947.01 5734.39 78.39 1.00 232.25 2630.94
   15:02:51.996.06-Aug-2020 4947.01 5734.07 78.39 1.00 232.45 2630.94
   15:02:52.196.06-Aug-2020 4947.01 5735.02 78.39 1.00 232.65 2630.94
   15:02:52.396.06-Aug-2020 4947.01 5734.84 78.39 1.00 232.85 2630.94
   15:02:52.596.06-Aug-2020 4947.01 5734.92 78.39 1.00 233.05 2630.94
   15:02:52.796.06-Aug-2020 4947.01 5734.92 78.39 1.00 233.25 2630.94
   15:02:52.996.06-Aug-2020 4947.01 5733.60 78.39 1.00 233.45 2630.94
   15:02:53.196.06-Aug-2020 4947.01 5733.21 78.39 1.00 233.65 2630.94
   15:02:53.396.06-Aug-2020 4947.01 5726.68 78.39 1.00 233.85 2630.94
   15:02:53.596.06-Aug-2020 4947.01 5728.80 78.39 1.00 234.05 2630.94
   15:02:53.796.06-Aug-2020 4947.01 5728.80 78.39 1.00 234.25 2630.94
   15:02:53.996.06-Aug-2020 4947.01 5733.01 78.39 1.00 234.45 2630.94
   15:02:54.196.06-Aug-2020 4947.01 5732.80 78.39 1.00 234.65 2630.94
   15:02:54.396.06-Aug-2020 4947.01 5732.77 78.39 1.00 234.85 2630.94
   15:02:54.596.06-Aug-2020 4947.01 5733.65 78.39 1.00 235.05 2630.94
   15:02:54.796.06-Aug-2020 4947.01 5733.65 78.39 1.00 235.25 2630.94
   15:02:54.996.06-Aug-2020 4947.01 5734.34 78.39 1.00 235.45 2630.94
   15:02:55.196.06-Aug-2020 4947.01 5734.41 78.39 1.00 235.65 2630.94
   15:02:55.397.06-Aug-2020 4947.01 5733.76 78.39 1.00 235.85 2630.94
   15:02:55.597.06-Aug-2020 4947.01 5733.58 78.39 1.00 236.05 2630.94
   15:02:55.797.06-Aug-2020 4947.01 5733.58 78.39 1.00 236.25 2630.94
   15:02:55.997.06-Aug-2020 4947.01 5733.45 78.39 1.00 236.45 2630.94
   15:02:56.197.06-Aug-2020 4947.01 5730.63 78.39 1.00 236.65 2630.94
   15:02:56.397.06-Aug-2020 4947.01 5726.64 78.39 1.00 236.85 2630.94
   15:02:56.597.06-Aug-2020 4947.01 5730.70 78.39 1.00 237.05 2630.94
   15:02:56.797.06-Aug-2020 4947.01 5730.70 78.39 1.00 237.25 2630.94
   15:02:56.997.06-Aug-2020 4947.01 5732.64 78.39 1.00 237.45 2630.94
   15:02:57.197.06-Aug-2020 4947.01 5726.94 78.39 1.00 237.65 2630.94
   15:02:57.397.06-Aug-2020 4947.01 5730.13 78.39 1.00 237.85 2630.94
   15:02:57.597.06-Aug-2020 4947.01 5733.11 78.39 1.00 238.05 2630.94
   15:02:57.797.06-Aug-2020 4947.01 5733.11 78.39 1.00 238.25 2630.94
   15:02:57.997.06-Aug-2020 4947.01 5734.12 78.39 1.00 238.45 2630.94
   15:02:58.197.06-Aug-2020 4947.01 5726.06 78.39 1.00 238.65 2630.94
   15:02:58.397.06-Aug-2020 4947.01 5730.13 78.39 1.00 238.85 2630.94
   15:02:58.597.06-Aug-2020 4947.01 5732.11 78.39 1.00 239.05 2630.94
   15:02:58.797.06-Aug-2020 4947.01 5732.11 78.39 1.00 239.25 2630.94
   15:02:58.997.06-Aug-2020 4947.01 5732.87 78.39 1.00 239.45 2630.94
   15:02:59.197.06-Aug-2020 4947.01 5732.96 78.39 1.00 239.65 2630.94
   15:02:59.397.06-Aug-2020 4947.01 5732.84 78.39 1.00 239.85 2630.94
   15:02:59.597.06-Aug-2020 4947.01 5725.98 78.39 1.00 240.05 2630.94
   15:02:59.797.06-Aug-2020 4947.01 5725.98 78.39 1.00 240.25 2630.94
   15:02:59.998.06-Aug-2020 4947.01 5731.86 78.39 1.00 240.45 2630.94
   15:03:00.198.06-Aug-2020 4947.01 5733.47 78.39 1.00 240.65 2630.94
   15:03:00.398.06-Aug-2020 4947.01 5733.30 78.39 1.00 240.85 2630.94
   15:03:00.598.06-Aug-2020 4947.01 5733.47 78.39 1.00 241.05 2630.94
   15:03:00.798.06-Aug-2020 4947.01 5733.47 78.39 1.00 241.25 2630.94
   15:03:00.998.06-Aug-2020 4947.01 5734.84 78.39 1.00 241.45 2630.94
   15:03:01.198.06-Aug-2020 4947.01 5734.51 78.39 1.00 241.65 2630.94
   15:03:01.398.06-Aug-2020 4947.01 5734.84 78.39 1.00 241.85 2630.94
   15:03:01.598.06-Aug-2020 4947.01 5733.72 78.39 1.00 242.05 2630.94
   15:03:01.798.06-Aug-2020 4947.01 5733.72 78.39 1.00 242.25 2630.94
   15:03:01.998.06-Aug-2020 4947.01 5733.61 78.39 1.00 242.45 2630.94
   15:03:02.198.06-Aug-2020 4947.01 5728.72 78.39 1.00 242.65 2630.94
   15:03:02.398.06-Aug-2020 4947.01 5727.89 78.39 1.00 242.85 2630.94
   15:03:02.598.06-Aug-2020 4947.01 5732.43 78.39 1.00 243.05 2630.94
   15:03:02.798.06-Aug-2020 4947.01 5732.43 78.39 1.00 243.25 2630.94
   15:03:02.998.06-Aug-2020 4947.01 5733.39 78.38 1.00 243.45 2630.94
   15:03:03.198.06-Aug-2020 4947.01 5733.28 78.38 1.00 243.65 2630.94
   15:03:03.398.06-Aug-2020 4947.01 5734.68 78.38 1.00 243.85 2630.94
   15:03:03.598.06-Aug-2020 4947.01 5734.77 78.38 1.00 244.05 2630.94
   15:03:03.798.06-Aug-2020 4947.01 5734.77 78.38 1.00 244.25 2630.94
   15:03:03.998.06-Aug-2020 4947.01 5734.69 78.38 1.00 244.45 2630.94
   15:03:04.198.06-Aug-2020 4947.01 5734.28 78.38 1.00 244.65 2630.94
   15:03:04.398.06-Aug-2020 4947.01 5733.85 78.38 1.00 244.85 2630.94
   15:03:04.598.06-Aug-2020 4947.01 5733.38 78.38 1.00 245.05 2630.94
   15:03:04.799.06-Aug-2020 4947.01 5733.38 78.38 1.00 245.25 2630.94
   15:03:04.999.06-Aug-2020 4947.01 5727.45 78.38 1.00 245.45 2630.94
   15:03:05.199.06-Aug-2020 4947.01 5727.67 78.38 1.00 245.65 2630.94
   15:03:05.399.06-Aug-2020 4947.01 5730.35 78.38 1.00 245.85 2630.94
   15:03:05.599.06-Aug-2020 4947.01 5731.79 78.38 1.00 246.05 2630.94
   15:03:05.799.06-Aug-2020 4947.01 5731.79 78.38 1.00 246.25 2630.94
   15:03:05.999.06-Aug-2020 4947.01 5725.55 78.38 1.00 246.45 2630.94
   15:03:06.199.06-Aug-2020 4947.01 5729.60 78.38 1.00 246.65 2630.94
   15:03:06.399.06-Aug-2020 4947.01 5732.59 78.38 1.00 246.85 2630.94
   15:03:06.599.06-Aug-2020 4947.01 5733.01 78.38 1.00 247.05 2630.94
   15:03:06.799.06-Aug-2020 4947.01 5733.01 78.38 1.00 247.25 2630.94
   15:03:06.999.06-Aug-2020 4947.01 5727.82 78.38 1.00 247.45 2630.94
   15:03:07.199.06-Aug-2020 4947.01 5728.87 78.38 1.00 247.65 2630.94
   15:03:07.399.06-Aug-2020 4947.01 5731.19 78.38 1.00 247.85 2630.94
   15:03:07.599.06-Aug-2020 4947.01 5732.40 78.38 1.00 248.05 2630.94
   15:03:07.799.06-Aug-2020 4947.01 5732.40 78.38 1.00 248.25 2630.94
   15:03:07.999.06-Aug-2020 4947.01 5732.69 78.38 1.00 248.45 2630.94
   15:03:08.199.06-Aug-2020 4947.01 5730.01 78.38 1.00 248.65 2630.94
   15:03:08.399.06-Aug-2020 4947.01 5726.42 78.38 1.00 248.85 2630.94
   15:03:08.599.06-Aug-2020 4947.01 5730.39 78.38 1.00 249.05 2630.94
   15:03:08.799.06-Aug-2020 4947.01 5730.39 78.38 1.00 249.25 2630.94
   15:03:08.999.06-Aug-2020 4947.01 5733.89 78.38 1.00 249.45 2630.94
   15:03:09.199.06-Aug-2020 4947.01 5734.09 78.38 1.00 249.65 2630.94
   15:03:09.400.06-Aug-2020 4947.01 5734.06 78.38 1.00 249.85 2630.94
   15:03:09.600.06-Aug-2020 4947.01 5734.09 78.38 1.00 250.05 2630.94
   15:03:09.800.06-Aug-2020 4947.01 5734.09 78.38 1.00 250.25 2630.94
   15:03:10.000.06-Aug-2020 4947.01 5734.61 78.38 1.00 250.45 2630.94
   15:03:10.200.06-Aug-2020 4947.01 5734.60 78.38 1.00 250.65 2630.94
   15:03:10.400.06-Aug-2020 4947.01 5733.57 78.38 1.00 250.85 2630.94
   15:03:10.600.06-Aug-2020 4947.01 5733.44 78.38 1.00 251.05 2630.94
   15:03:10.800.06-Aug-2020 4947.01 5733.44 78.38 1.00 251.25 2630.94
   15:03:11.000.06-Aug-2020 4947.01 5726.84 78.38 1.00 251.45 2630.94
   15:03:11.200.06-Aug-2020 4947.01 5729.58 78.38 1.00 251.65 2630.94
   15:03:11.400.06-Aug-2020 4947.01 5732.36 78.38 1.00 251.85 2630.94
   15:03:11.600.06-Aug-2020 4947.01 5732.51 78.38 1.00 252.05 2630.94
   15:03:11.800.06-Aug-2020 4947.01 5732.51 78.38 1.00 252.25 2630.94
   15:03:12.000.06-Aug-2020 4947.01 5733.01 78.38 1.00 252.45 2630.94
   15:03:12.200.06-Aug-2020 4947.01 5734.33 78.38 1.00 252.65 2630.94
   15:03:12.400.06-Aug-2020 4947.01 5734.10 78.38 1.00 252.85 2630.94
