~Version Information
 VERS.                  2.0:   CWLS log ASCII Standard -VERSION 2.0
 WRAP.                   NO:   One line per depth step
~Well Information Block
#MNEM.UNIT     VALUE/NAME     DESCRIPTION
#---------     -----------    ---------------------------
 STRT.S             03:58:24 07-Aug-20: START TIME 03:58:24 07-Aug-20
 STOP.S             04:06:16 07-Aug-20: STOP TIME  04:06:16 07-Aug-20
 STEP.S                   0.00: STEP TIME
 NULL.                 -999.25: NULL VALUE
 DFWT.                        :  DIST FWL TEXT
 DFST.                        :  DIST FSL TEXT
 DMF .             Drill Floor:  DRILL MEAS FROM
 STIM.      12.00.00 03-Jul-20:  START TIME
 DATE.      00.50.00 09-Aug-20:  END TIME
 SPUD.               03-Jul-20:  SPUD DATE
 NREF.                    Grid:  NORTH REFERENCE
 HPTY.       Minimum Curvature:  HOLE POS TYPE
 DMOD.             Drill Model:  DRILL MOD DESC
 SVYD.                  Survey:  SURVEY DESC
 ILTD.               Lithology:  INTERP LTH DESC
 FTOP.          Formation Tops:  FORM TOPS DESC
 PDAT.          Mean Sea Level:  PERMANENT DATUM
 FLD .                     ACG:  FIELD NAME
 CTRY.              Azerbaijan:  COUNTRY NAME
 WELL.                    E04x:  WELL NAME
 SRVC.          Turan Drilling:  CONTRACTOR
 COMP.     BP Exploration (Caspian Sea) Ltd.:  COMPANY
 SON .        AZ-XX-0906531346:  JOB NUMBER
 WTYP.                Deviated:  WELL TYPE
 MDS .        Operator Entered:  MAG DATA SOURCE
 UWI .                     N/A:  UNIQUE WELL IDENTIFIER
 API .                     N/A:  API NUMBER
 BASE.              Azerbaijan:  LOGGING EQUIPMENT BASE LOCATION
 REGN.                   EESSA:  REGION
 PROV.                    Baku:  PROVINCE
 STAT.                    Baku:  STATE NAME
 MWDS.                    Baku:  MWD SHOP
 JOBN.        AZ-XX-0906531346:  JOB TICKET NUMB
 RIG .                     DWG:  RIG NAME
 DOE .                     N/A:  DOE NUMBER
 DCON.         Sperry Drilling:  DIRECTNL CONTR
 UNIT.                     N/A:  LOGGING EQUIPMENT ID
 CNTY.                        :  COUNTY
 LOC .                        :  LOCATION
 LMF .             Drill Floor:  LOG MEASURED FROM
 TVDS.m                  43.16:  TVDSS CORRECTN
 LATI.deg                40.17:  LATITUDE
 LONG.deg                51.17:  LONGITUDE
 WHNS.m                  -0.12:  WELL HEAD N/S
 WHEW.m                  -5.41:  WELL HEAD E/W
 UTMX.m              514337.95:  UTM X
 UTMY.m             4448627.46:  UTM Y
 DFWL.m                   0.00:  DISTANCE FWL
 DFSL.m                   0.00:  DISTANCE FSL
 SDEP.m                3088.01:  START DEPTH
 TDD .m                5200.01:  TOTAL DEPTH (DRILLER)
 VSDR.deg               244.51:  VERT SEC DIRECT
 GVFD.g                   1.00:  GRAVITY FIELD
 MFLD.nT              50329.80:  MAGNETIC FIELD
 MDIP.deg                59.63:  MAGNETIC DIP
 MDEC.deg                 6.59:  MAGNETIC DECL
 GRDC.deg                 0.09:  GRID CORRECTION
 AZTC.deg                 6.50:  AZM TOTAL CORR
 EPD .m                   0.00:  ELEVATION
 EGL .m                   0.00:  GROUND ELEVATION
 WDMS.m                 176.20:  WD ELEV
 APD .m                  43.16:  DEPTH ABOVE PD
 DEP .m                3084.71:  DEPTH
 AGAP.m                  43.16:  AIR GAP
 VSEW.m                  -5.41:  VERT SEC E/W
 VSNS.m                  -0.12:  VERT SEC N/S
 EKB .m                   0.00:  KB ELEVATION
 EDF .m                  43.16:  DF ELEVATION
 TDL .m                 243.00:  TOTAL DEPTH (LOGGER)
 VSC .                       0:  VS TO CLOSURE
 MAGU.                 1853542:  MAGUTM CHECKSUM
~Parameter Information Block
#MNEM.UNIT       Value        Description
#---------     -----------    ---------------------------
 AV  .mps                 1.91:  Ann Velocity 
 AVMX.mps                 2.52:  Max Ann Veloc 
 AZIF.deg               308.97:  Azm, Final 
 BHAT.        Rotary Steerable:  BHA Type 
 BROT.°/30m               1.00:  Build Rotating 
 BS  .in                  6.50:  Bit Size 
 BSZ .in                  6.50:  Bit Size 
 BTPL.psig              350.00:  Bit Press Loss 
 CABU.                      No:  Customer Abuse 
 CGEO.           Asif Pashayev:  Customer Geo 
 TCS .hr                 35.86:  Time Ciculation Ended 
 CV  .mps                 2.31:  Crit Velocity 
 CVMX.mps                 2.31:  Max Crit Veloc 
 DD1 .         Intigam Rahimov:  Direct Drillr 1 
 DDSV.               Geo-Pilot:  DD Service 
 DEFF.%                  92.00:  % Det Eff 
 DLRX.°/30m               1.00:  Dogleg Rot Max 
 DLSO.°/30m               1.00:  Dogleg Oriented 
 DLSX.°/30m               1.42:  Dogleg Str Max 
 DRET.      15.50.00 07-Aug-20:  Drill End Time 
 DRST.      10.40.00 06-Aug-20:  Drill Start Tim 
 DTIM.hr                 21.30:  Time Drilling 
 EDEP.m                5200.01:  End Depth 
 ENG1.            Alan Tuganov:  Engineer 1 
 ENG2.         Almaz Almadatov:  Engineer 2 
 ENG3.     Zammelal Abdullah Sani:  Engineer 3 
 ETIM.      22.42.00 08-Aug-20:  End Time 
 FLOI.gpm               395.00:  Flow In 
 FLON.gpm               350.00:  Flow In Min 
 FLOS.cptm                0.00:  Fluid Loss 
 FLOX.gpm               404.00:  Flow In Max 
 FTRO.       Formation Presure:  FTWD Run Obj 
 HFLO.                      No:  High Flow 
 HPRE.                      No:  High Pressure 
 HTEM.                      No:  High Temp 
 HYDO.m                   1.80:  Hydro Offset 
 IFIN.deg                72.64:  Inc, Final 
 IMAX.deg                73.68:  Inc Max 
 IMIN.deg                72.64:  Inc Min 
 IMND.m                5189.69:  Inc Min Depth 
 IMXD.m                5067.88:  Inc Max Depth 
 JARR.                      No:  Jarring 
 LETM.      15.50.00 07-Aug-20:  Log End Time 
 LOST.hr                     0:  Lost Rig Time 
 LSTM.      10.40.00 06-Aug-20:  Log Start Time 
 MDCL.ppm             36000.00:  Mud Chlorides 
 MDES.     Inversion Oil/Synthetic:  Mud Desc 
 DFD .sg                  1.36:  Mud Density 
 MDMN.sg                  1.36:  Dens Mud Min 
 MDMX.sg                  1.36:  Dens Mud Max 
 MOIL.                      70:  Run Mud Oil % 
 MOWR.                   70:30:  Run Mud OWR 
 MSND.                    0.00:  Run Mud Sand % 
 MSOL.                   17.60:  Run Mud Solids% 
 DFV .spqt               73.00:  Mud Viscosity 
 MWOD.in                  4.75:  MWD Tool OD 
 MWSI.                      No:  Serv Intrp, MWD 
 OTIM.hr                 85.66:  Time Operating 
 PCON.           Look Like New:  Pad Condition 
 PMAX.psia             6250.00:  Press Op, Max 
 PV  .cP                 65.00:  Mud PV 
 RUN .                     900:  Run Number 
 ROPA.m/hr               11.40:  ROP Avg 
 ROPN.m/hr                5.00:  ROP Min 
 ROPX.m/hr               20.00:  ROP Max 
 RPMA.rpm               130.00:  RPM Surface Avg 
 RPMN.rpm                40.00:  RPM Surface Min 
 RPMX.rpm               140.00:  RPM Surface Max 
 RRUN.                    L205:  Rig Run Number 
 RTIM.hr                  1.00:  Time Reaming 
 SAZI.deg               313.52:  Azm, Start 
 SDEP.m                4957.01:  Start Depth 
 SIDD.                      No:  Serv Intrp, DD 
 SINC.deg                73.16:  Inc, Start 
 SPPA.psig             5657.00:  SPP Avg 
 SPPN.psig             2500.00:  SPP Min 
 SPPX.psig             5806.00:  SPP Max 
 STIM.      07.12.00 05-Aug-20:  Start Time 
 SVCS.                 DD, MWD:  Services 
 SVER.                    9.20:  Sperry Version 
 TDAT.m                 243.00:  Tot Depth Attmp 
 TDDF.                      No:  Trip for DD 
 TDLG.m                 243.00:  Tot Depth Loggd 
 TFF .                      No:  Trip for Fail 
 TQAA.f-kp               13.00:  Torque Abs Avg 
 TQAN.f-kp               11.00:  Torque Abs Min 
 TQAX.f-kp               16.00:  Torque Abs Max 
 TRRT.°/30m               1.00:  Turn Rotating 
 MRT .                    HCIM:  Maximum Recorded Temperature 
 TTMX.degC               96.08:  Max Tool Temp 
 VS01.                90515411:  Virtual Str1 SN 
 VS02.                90512716:  Virtual Str2 SN 
 VS03.                90522362:  Virtual Str3 SN 
 VS04.                90619415:  Virtual Str4 SN 
 VS05.                90619414:  Virtual Str5 SN 
 VS06.                90597748:  Virtual Str6 SN 
 WBMN.klb                 2.00:  WOB Min 
 WITN.           Adil Mammadov:  Customer Rep 
 WITN.     Alexander Yadullayev:  Customer Rep 2 
 WOBA.klb                 7.00:  WOB Avg 
 WOBX.klb                23.00:  WOB Max 
 YP  .lhf2               37.00:  Yield Point 
~Curve Information Block
#MNEM.UNIT                 API CODE     Curve Description
#---------               -----------    ---------------------------
 TIME.HHMMSS            00 000 000 000:  GT Time & Date
 GTDEPTH.m              00 000 000 000:  GT Depth
 GTPQH.psia             00 000 000 000:  GT HR Quartz Pressure
 GTTQ.degC              00 000 000 000:  GT Quartz Temperature
 GTTN.NONE              00 000 000 000:  GT Test Number
 GTET.sec               00 000 000 000:  GT Elapsed Test Time
 GTTVD.m                00 000 000 000:  GT True Vertical Depth
#Other Information
#
#WARRANTY: Halliburton will use its best efforts to furnish customers with 
#accurate information and interpretations that are part of, and incident to, the services 
#provided.  However, Halliburton cannot and does not warrant the accuracy 
#or correctness of such information and interpretations.  Under no circumstances should any 
#such information or interpretation be relied upon as the sole basis for any drilling, 
#completion, production, or financial decision or any procedure involving any risk to the 
#safety of any drilling venture, drilling rig or its crew or any other third party.  The 
#Customer has full responsibility for all drilling, completion and production operation.  
#Halliburton makes no representations or warranties, either expressed or 
#implied, including, but not limited to, the implied warranties of merchantability or fitness 
#for a particular purpose, with respect to the services rendered.  In no event will 
#Halliburton be liable for failure to obtain any particular results or for 
#any damages, including, but not limited to, indirect, special or consequential damages, 
#resulting from the use of any information or interpretation provided by Halliburton.
#
~A           TIME           GTDEPTH  GTPQH  GTTQ  GTTN  GTET   GTTVD  
# ...
   04:03:23.346.07-Aug-2020 5060.51 3684.13 87.26 7.00 299.07 2663.65
   04:03:23.546.07-Aug-2020 5060.51 3684.13 87.26 7.00 299.27 2663.65
   04:03:23.746.07-Aug-2020 5060.51 3684.16 87.26 7.00 299.47 2663.65
   04:03:23.946.07-Aug-2020 5060.51 3684.11 87.26 7.00 299.67 2663.65
   04:03:24.147.07-Aug-2020 5060.51 3684.13 87.26 7.00 299.87 2663.65
   04:03:24.347.07-Aug-2020 5060.51 3684.12 87.26 7.00 300.07 2663.65
   04:03:24.547.07-Aug-2020 5060.51 3684.12 87.26 7.00 300.27 2663.65
   04:03:24.747.07-Aug-2020 5060.51 3678.72 87.26 7.00 300.47 2663.65
   04:03:24.947.07-Aug-2020 5060.51 3678.33 87.26 7.00 300.67 2663.65
   04:03:25.147.07-Aug-2020 5060.51 3678.35 87.26 7.00 300.87 2663.65
   04:03:25.347.07-Aug-2020 5060.51 3678.23 87.25 7.00 301.07 2663.65
   04:03:25.547.07-Aug-2020 5060.51 3678.23 87.25 7.00 301.27 2663.65
   04:03:25.747.07-Aug-2020 5060.51 3678.18 87.25 7.00 301.47 2663.65
   04:03:25.947.07-Aug-2020 5060.51 3677.90 87.25 7.00 301.67 2663.65
   04:03:26.147.07-Aug-2020 5060.51 3678.36 87.25 7.00 301.87 2663.65
   04:03:26.347.07-Aug-2020 5060.51 3678.22 87.25 7.00 302.07 2663.65
   04:03:26.547.07-Aug-2020 5060.51 3678.22 87.25 7.00 302.27 2663.65
   04:03:26.747.07-Aug-2020 5060.51 3678.10 87.25 7.00 302.47 2663.65
   04:03:26.947.07-Aug-2020 5060.51 3678.22 87.25 7.00 302.67 2663.65
   04:03:27.147.07-Aug-2020 5060.51 3678.19 87.25 7.00 302.87 2663.65
   04:03:27.347.07-Aug-2020 5060.51 3678.23 87.25 7.00 303.07 2663.65
   04:03:27.547.07-Aug-2020 5060.51 3678.23 87.25 7.00 303.27 2663.65
   04:03:27.747.07-Aug-2020 5060.51 3678.18 87.25 7.00 303.47 2663.65
   04:03:27.947.07-Aug-2020 5060.51 3678.18 87.25 7.00 303.67 2663.65
   04:03:28.147.07-Aug-2020 5060.51 3678.24 87.25 7.00 303.87 2663.65
   04:03:28.348.07-Aug-2020 5060.51 3678.28 87.25 7.00 304.07 2663.65
   04:03:28.548.07-Aug-2020 5060.51 3678.28 87.25 7.00 304.27 2663.65
   04:03:28.748.07-Aug-2020 5060.51 3678.21 87.25 7.00 304.47 2663.65
   04:03:28.948.07-Aug-2020 5060.51 3678.46 87.25 7.00 304.67 2663.65
   04:03:29.148.07-Aug-2020 5060.51 3678.24 87.25 7.00 304.87 2663.65
   04:03:29.348.07-Aug-2020 5060.51 3678.24 87.24 7.00 305.07 2663.65
   04:03:29.548.07-Aug-2020 5060.51 3678.30 87.24 7.00 305.27 2663.65
   04:03:29.748.07-Aug-2020 5060.51 3678.30 87.24 7.00 305.47 2663.65
   04:03:29.948.07-Aug-2020 5060.51 3678.24 87.24 7.00 305.67 2663.65
   04:03:30.148.07-Aug-2020 5060.51 3678.22 87.24 7.00 305.87 2663.65
   04:03:30.348.07-Aug-2020 5060.51 3678.18 87.24 7.00 306.07 2663.65
   04:03:30.548.07-Aug-2020 5060.51 3678.14 87.24 7.00 306.27 2663.65
   04:03:30.748.07-Aug-2020 5060.51 3678.14 87.24 7.00 306.47 2663.65
   04:03:30.948.07-Aug-2020 5060.51 3678.15 87.24 7.00 306.67 2663.65
   04:03:31.148.07-Aug-2020 5060.51 3678.11 87.24 7.00 306.87 2663.65
   04:03:31.348.07-Aug-2020 5060.51 3677.80 87.24 7.00 307.07 2663.65
   04:03:31.548.07-Aug-2020 5060.51 3677.80 87.24 7.00 307.27 2663.65
   04:03:31.748.07-Aug-2020 5060.51 3678.16 87.24 7.00 307.47 2663.65
   04:03:31.948.07-Aug-2020 5060.51 3678.27 87.24 7.00 307.67 2663.65
   04:03:32.148.07-Aug-2020 5060.51 3677.93 87.24 7.00 307.87 2663.65
   04:03:32.348.07-Aug-2020 5060.51 3678.14 87.24 7.00 308.07 2663.65
   04:03:32.548.07-Aug-2020 5060.51 3678.14 87.24 7.00 308.27 2663.65
   04:03:32.749.07-Aug-2020 5060.51 3678.10 87.24 7.00 308.47 2663.65
   04:03:32.949.07-Aug-2020 5060.51 3678.21 87.24 7.00 308.67 2663.65
   04:03:33.149.07-Aug-2020 5060.51 3677.96 87.24 7.00 308.87 2663.65
   04:03:33.349.07-Aug-2020 5060.51 3677.96 87.24 7.00 309.07 2663.65
   04:03:33.549.07-Aug-2020 5060.51 3677.96 87.24 7.00 309.27 2663.65
   04:03:33.749.07-Aug-2020 5060.51 3678.53 87.23 7.00 309.47 2663.65
   04:03:33.949.07-Aug-2020 5060.51 3678.64 87.23 7.00 309.67 2663.65
   04:03:34.149.07-Aug-2020 5060.51 3678.53 87.23 7.00 309.87 2663.65
   04:03:34.349.07-Aug-2020 5060.51 3678.60 87.23 7.00 310.07 2663.65
   04:03:34.549.07-Aug-2020 5060.51 3678.60 87.23 7.00 310.27 2663.65
   04:03:34.749.07-Aug-2020 5060.51 3680.52 87.23 7.00 310.47 2663.65
   04:03:34.949.07-Aug-2020 5060.51 3683.92 87.23 7.00 310.67 2663.65
   04:03:35.149.07-Aug-2020 5060.51 3683.95 87.23 7.00 310.87 2663.65
   04:03:35.349.07-Aug-2020 5060.51 3684.00 87.23 7.00 311.07 2663.65
   04:03:35.549.07-Aug-2020 5060.51 3684.00 87.23 7.00 311.27 2663.65
   04:03:35.749.07-Aug-2020 5060.51 3684.00 87.23 7.00 311.47 2663.65
   04:03:35.949.07-Aug-2020 5060.51 3684.01 87.23 7.00 311.67 2663.65
   04:03:36.149.07-Aug-2020 5060.51 3684.01 87.23 7.00 311.87 2663.65
   04:03:36.349.07-Aug-2020 5060.51 3684.01 87.23 7.00 312.07 2663.65
   04:03:36.549.07-Aug-2020 5060.51 3684.01 87.23 7.00 312.27 2663.65
   04:03:36.749.07-Aug-2020 5060.51 3684.01 87.23 7.00 312.47 2663.65
   04:03:36.950.07-Aug-2020 5060.51 3684.02 87.23 7.00 312.67 2663.65
   04:03:37.150.07-Aug-2020 5060.51 3684.02 87.23 7.00 312.87 2663.65
   04:03:37.350.07-Aug-2020 5060.51 3683.93 87.23 7.00 313.07 2663.65
   04:03:37.550.07-Aug-2020 5060.51 3683.93 87.23 7.00 313.27 2663.65
   04:03:37.750.07-Aug-2020 5060.51 3684.07 87.22 7.00 313.47 2663.65
   04:03:37.950.07-Aug-2020 5060.51 3684.10 87.22 7.00 313.67 2663.65
   04:03:38.150.07-Aug-2020 5060.51 3684.08 87.22 7.00 313.87 2663.65
   04:03:38.350.07-Aug-2020 5060.51 3684.06 87.22 7.00 314.07 2663.65
   04:03:38.550.07-Aug-2020 5060.51 3684.06 87.22 7.00 314.27 2663.65
   04:03:38.750.07-Aug-2020 5060.51 3684.07 87.22 7.00 314.47 2663.65
   04:03:38.950.07-Aug-2020 5060.51 3684.06 87.22 7.00 314.67 2663.65
   04:03:39.150.07-Aug-2020 5060.51 3684.07 87.22 7.00 314.87 2663.65
   04:03:39.350.07-Aug-2020 5060.51 3684.06 87.22 7.00 315.07 2663.65
   04:03:39.550.07-Aug-2020 5060.51 3684.06 87.22 7.00 315.27 2663.65
   04:03:39.750.07-Aug-2020 5060.51 3684.06 87.22 7.00 315.47 2663.65
   04:03:39.950.07-Aug-2020 5060.51 3684.00 87.22 7.00 315.67 2663.65
   04:03:40.150.07-Aug-2020 5060.51 3684.05 87.22 7.00 315.87 2663.65
   04:03:40.350.07-Aug-2020 5060.51 3684.12 87.22 7.00 316.07 2663.65
   04:03:40.550.07-Aug-2020 5060.51 3684.12 87.22 7.00 316.27 2663.65
   04:03:40.750.07-Aug-2020 5060.51 3684.08 87.22 7.00 316.47 2663.65
   04:03:40.950.07-Aug-2020 5060.51 3684.05 87.22 7.00 316.67 2663.65
   04:03:41.151.07-Aug-2020 5060.51 3684.12 87.22 7.00 316.87 2663.65
   04:03:41.351.07-Aug-2020 5060.51 3684.05 87.22 7.00 317.07 2663.65
   04:03:41.551.07-Aug-2020 5060.51 3684.05 87.22 7.00 317.27 2663.65
   04:03:41.751.07-Aug-2020 5060.51 3684.09 87.22 7.00 317.47 2663.65
   04:03:41.951.07-Aug-2020 5060.51 3684.10 87.21 7.00 317.67 2663.65
   04:03:42.151.07-Aug-2020 5060.51 3683.99 87.21 7.00 317.87 2663.65
   04:03:42.351.07-Aug-2020 5060.51 3684.16 87.21 7.00 318.07 2663.65
   04:03:42.551.07-Aug-2020 5060.51 3684.16 87.21 7.00 318.27 2663.65
   04:03:42.751.07-Aug-2020 5060.51 3684.11 87.21 7.00 318.47 2663.65
   04:03:42.951.07-Aug-2020 5060.51 3684.08 87.21 7.00 318.68 2663.65
   04:03:43.151.07-Aug-2020 5060.51 3684.03 87.21 7.00 318.88 2663.65
   04:03:43.351.07-Aug-2020 5060.51 3684.12 87.21 7.00 319.08 2663.65
   04:03:43.551.07-Aug-2020 5060.51 3684.12 87.21 7.00 319.28 2663.65
   04:03:43.751.07-Aug-2020 5060.51 3684.08 87.21 7.00 319.48 2663.65
   04:03:43.951.07-Aug-2020 5060.51 3684.10 87.21 7.00 319.68 2663.65
   04:03:44.151.07-Aug-2020 5060.51 3684.08 87.21 7.00 319.88 2663.65
   04:03:44.351.07-Aug-2020 5060.51 3684.10 87.21 7.00 320.08 2663.65
   04:03:44.551.07-Aug-2020 5060.51 3684.10 87.21 7.00 320.28 2663.65
   04:03:44.751.07-Aug-2020 5060.51 3684.08 87.21 7.00 320.48 2663.65
   04:03:44.951.07-Aug-2020 5060.51 3684.08 87.21 7.00 320.68 2663.65
   04:03:45.151.07-Aug-2020 5060.51 3684.07 87.21 7.00 320.88 2663.65
   04:03:45.352.07-Aug-2020 5060.51 3684.08 87.21 7.00 321.08 2663.65
   04:03:45.552.07-Aug-2020 5060.51 3684.07 87.21 7.00 321.28 2663.65
   04:03:45.752.07-Aug-2020 5060.51 3684.08 87.21 7.00 321.48 2663.65
   04:03:45.952.07-Aug-2020 5060.51 3683.95 87.21 7.00 321.68 2663.65
   04:03:46.152.07-Aug-2020 5060.51 3684.15 87.20 7.00 321.88 2663.65
