~Version Information
 VERS.                  2.0:   CWLS log ASCII Standard -VERSION 2.0
 WRAP.                   NO:   One line per depth step
~Well Information Block
#MNEM.UNIT     VALUE/NAME     DESCRIPTION
#---------     -----------    ---------------------------
 STRT.S             11:55:46 07-Aug-20: START TIME 11:55:46 07-Aug-20
 STOP.S             12:03:39 07-Aug-20: STOP TIME  12:03:39 07-Aug-20
 STEP.S                   0.00: STEP TIME
 NULL.                 -999.25: NULL VALUE
 DFWT.                        :  DIST FWL TEXT
 DFST.                        :  DIST FSL TEXT
 DMF .             Drill Floor:  DRILL MEAS FROM
 STIM.      12.00.00 03-Jul-20:  START TIME
 DATE.      00.50.00 09-Aug-20:  END TIME
 SPUD.               03-Jul-20:  SPUD DATE
 NREF.                    Grid:  NORTH REFERENCE
 HPTY.       Minimum Curvature:  HOLE POS TYPE
 DMOD.             Drill Model:  DRILL MOD DESC
 SVYD.                  Survey:  SURVEY DESC
 ILTD.               Lithology:  INTERP LTH DESC
 FTOP.          Formation Tops:  FORM TOPS DESC
 PDAT.          Mean Sea Level:  PERMANENT DATUM
 FLD .                     ACG:  FIELD NAME
 CTRY.              Azerbaijan:  COUNTRY NAME
 WELL.                    E04x:  WELL NAME
 SRVC.          Turan Drilling:  CONTRACTOR
 COMP.     BP Exploration (Caspian Sea) Ltd.:  COMPANY
 SON .        AZ-XX-0906531346:  JOB NUMBER
 WTYP.                Deviated:  WELL TYPE
 MDS .        Operator Entered:  MAG DATA SOURCE
 UWI .                     N/A:  UNIQUE WELL IDENTIFIER
 API .                     N/A:  API NUMBER
 BASE.              Azerbaijan:  LOGGING EQUIPMENT BASE LOCATION
 REGN.                   EESSA:  REGION
 PROV.                    Baku:  PROVINCE
 STAT.                    Baku:  STATE NAME
 MWDS.                    Baku:  MWD SHOP
 JOBN.        AZ-XX-0906531346:  JOB TICKET NUMB
 RIG .                     DWG:  RIG NAME
 DOE .                     N/A:  DOE NUMBER
 DCON.         Sperry Drilling:  DIRECTNL CONTR
 UNIT.                     N/A:  LOGGING EQUIPMENT ID
 CNTY.                        :  COUNTY
 LOC .                        :  LOCATION
 LMF .             Drill Floor:  LOG MEASURED FROM
 TVDS.m                  43.16:  TVDSS CORRECTN
 LATI.deg                40.17:  LATITUDE
 LONG.deg                51.17:  LONGITUDE
 WHNS.m                  -0.12:  WELL HEAD N/S
 WHEW.m                  -5.41:  WELL HEAD E/W
 UTMX.m              514337.95:  UTM X
 UTMY.m             4448627.46:  UTM Y
 DFWL.m                   0.00:  DISTANCE FWL
 DFSL.m                   0.00:  DISTANCE FSL
 SDEP.m                3088.01:  START DEPTH
 TDD .m                5200.01:  TOTAL DEPTH (DRILLER)
 VSDR.deg               244.51:  VERT SEC DIRECT
 GVFD.g                   1.00:  GRAVITY FIELD
 MFLD.nT              50329.80:  MAGNETIC FIELD
 MDIP.deg                59.63:  MAGNETIC DIP
 MDEC.deg                 6.59:  MAGNETIC DECL
 GRDC.deg                 0.09:  GRID CORRECTION
 AZTC.deg                 6.50:  AZM TOTAL CORR
 EPD .m                   0.00:  ELEVATION
 EGL .m                   0.00:  GROUND ELEVATION
 WDMS.m                 176.20:  WD ELEV
 APD .m                  43.16:  DEPTH ABOVE PD
 DEP .m                3084.71:  DEPTH
 AGAP.m                  43.16:  AIR GAP
 VSEW.m                  -5.41:  VERT SEC E/W
 VSNS.m                  -0.12:  VERT SEC N/S
 EKB .m                   0.00:  KB ELEVATION
 EDF .m                  43.16:  DF ELEVATION
 TDL .m                 243.00:  TOTAL DEPTH (LOGGER)
 VSC .                       0:  VS TO CLOSURE
 MAGU.                 1853542:  MAGUTM CHECKSUM
~Parameter Information Block
#MNEM.UNIT       Value        Description
#---------     -----------    ---------------------------
 AV  .mps                 1.91:  Ann Velocity 
 AVMX.mps                 2.52:  Max Ann Veloc 
 AZIF.deg               308.97:  Azm, Final 
 BHAT.        Rotary Steerable:  BHA Type 
 BROT.°/30m               1.00:  Build Rotating 
 BS  .in                  6.50:  Bit Size 
 BSZ .in                  6.50:  Bit Size 
 BTPL.psig              350.00:  Bit Press Loss 
 CABU.                      No:  Customer Abuse 
 CGEO.           Asif Pashayev:  Customer Geo 
 COMM.                     ¤4N:  Run Comments 1 
 TCS .hr                 35.86:  Time Ciculation Ended 
 CV  .mps                 2.31:  Crit Velocity 
 CVMX.mps                 2.31:  Max Crit Veloc 
 DD1 .         Intigam Rahimov:  Direct Drillr 1 
 DDSV.               Geo-Pilot:  DD Service 
 DEFF.%                  92.00:  % Det Eff 
 DLRX.°/30m               1.00:  Dogleg Rot Max 
 DLSO.°/30m               1.00:  Dogleg Oriented 
 DLSX.°/30m               1.42:  Dogleg Str Max 
 DRET.      15.50.00 07-Aug-20:  Drill End Time 
 DRST.      10.40.00 06-Aug-20:  Drill Start Tim 
 DTIM.hr                 21.30:  Time Drilling 
 EDEP.m                5200.01:  End Depth 
 ENG1.            Alan Tuganov:  Engineer 1 
 ENG2.         Almaz Almadatov:  Engineer 2 
 ENG3.     Zammelal Abdullah Sani:  Engineer 3 
 ETIM.      22.42.00 08-Aug-20:  End Time 
 FLOI.gpm               395.00:  Flow In 
 FLON.gpm               350.00:  Flow In Min 
 FLOS.cptm                0.00:  Fluid Loss 
 FLOX.gpm               404.00:  Flow In Max 
 FTRO.       Formation Presure:  FTWD Run Obj 
 HFLO.                      No:  High Flow 
 HPRE.                      No:  High Pressure 
 HTEM.                      No:  High Temp 
 HYDO.m                   1.80:  Hydro Offset 
 IFIN.deg                72.64:  Inc, Final 
 IMAX.deg                73.68:  Inc Max 
 IMIN.deg                72.64:  Inc Min 
 IMND.m                5189.69:  Inc Min Depth 
 IMXD.m                5067.88:  Inc Max Depth 
 JARR.                      No:  Jarring 
 LETM.      15.50.00 07-Aug-20:  Log End Time 
 LOST.hr                     0:  Lost Rig Time 
 LSTM.      10.40.00 06-Aug-20:  Log Start Time 
 MDCL.ppm             36000.00:  Mud Chlorides 
 MDES.     Inversion Oil/Synthetic:  Mud Desc 
 DFD .sg                  1.36:  Mud Density 
 MDMN.sg                  1.36:  Dens Mud Min 
 MDMX.sg                  1.36:  Dens Mud Max 
 MOIL.                      70:  Run Mud Oil % 
 MOWR.                   70:30:  Run Mud OWR 
 MSND.                    0.00:  Run Mud Sand % 
 MSOL.                   17.60:  Run Mud Solids% 
 DFV .spqt               73.00:  Mud Viscosity 
 MWOD.in                  4.75:  MWD Tool OD 
 MWSI.                      No:  Serv Intrp, MWD 
 OTIM.hr                 85.66:  Time Operating 
 PCON.           Look Like New:  Pad Condition 
 PMAX.psia             6250.00:  Press Op, Max 
 PV  .cP                 65.00:  Mud PV 
 RUN .                     900:  Run Number 
 ROPA.m/hr               11.40:  ROP Avg 
 ROPN.m/hr                5.00:  ROP Min 
 ROPX.m/hr               20.00:  ROP Max 
 RPMA.rpm               130.00:  RPM Surface Avg 
 RPMN.rpm                40.00:  RPM Surface Min 
 RPMX.rpm               140.00:  RPM Surface Max 
 RRUN.                    L205:  Rig Run Number 
 RTIM.hr                  1.00:  Time Reaming 
 SAZI.deg               313.52:  Azm, Start 
 SDEP.m                4957.01:  Start Depth 
 SIDD.                      No:  Serv Intrp, DD 
 SINC.deg                73.16:  Inc, Start 
 SPPA.psig             5657.00:  SPP Avg 
 SPPN.psig             2500.00:  SPP Min 
 SPPX.psig             5806.00:  SPP Max 
 STIM.      07.12.00 05-Aug-20:  Start Time 
 SVCS.                 DD, MWD:  Services 
 SVER.                    9.20:  Sperry Version 
 TDAT.m                 243.00:  Tot Depth Attmp 
 TDDF.                      No:  Trip for DD 
 TDLG.m                 243.00:  Tot Depth Loggd 
 TFF .                      No:  Trip for Fail 
 TQAA.f-kp               13.00:  Torque Abs Avg 
 TQAN.f-kp               11.00:  Torque Abs Min 
 TQAX.f-kp               16.00:  Torque Abs Max 
 TRRT.°/30m               1.00:  Turn Rotating 
 MRT .                    HCIM:  Maximum Recorded Temperature 
 TTMX.degC               96.08:  Max Tool Temp 
 VS01.                90515411:  Virtual Str1 SN 
 VS02.                90512716:  Virtual Str2 SN 
 VS03.                90522362:  Virtual Str3 SN 
 VS04.                90619415:  Virtual Str4 SN 
 VS05.                90619414:  Virtual Str5 SN 
 VS06.                90597748:  Virtual Str6 SN 
 WBMN.klb                 2.00:  WOB Min 
 WITN.           Adil Mammadov:  Customer Rep 
 WITN.     Alexander Yadullayev:  Customer Rep 2 
 WOBA.klb                 7.00:  WOB Avg 
 WOBX.klb                23.00:  WOB Max 
 YP  .lhf2               37.00:  Yield Point 
~Curve Information Block
#MNEM.UNIT                 API CODE     Curve Description
#---------               -----------    ---------------------------
 TIME.HHMMSS            00 000 000 000:  GT Time & Date
 GTDEPTH.m              00 000 000 000:  GT Depth
 GTPQH.psia             00 000 000 000:  GT HR Quartz Pressure
 GTTQ.degC              00 000 000 000:  GT Quartz Temperature
 GTTN.NONE              00 000 000 000:  GT Test Number
 GTET.sec               00 000 000 000:  GT Elapsed Test Time
 GTTVD.m                00 000 000 000:  GT True Vertical Depth
#Other Information
#
#WARRANTY: Halliburton will use its best efforts to furnish customers with 
#accurate information and interpretations that are part of, and incident to, the services 
#provided.  However, Halliburton cannot and does not warrant the accuracy 
#or correctness of such information and interpretations.  Under no circumstances should any 
#such information or interpretation be relied upon as the sole basis for any drilling, 
#completion, production, or financial decision or any procedure involving any risk to the 
#safety of any drilling venture, drilling rig or its crew or any other third party.  The 
#Customer has full responsibility for all drilling, completion and production operation.  
#Halliburton makes no representations or warranties, either expressed or 
#implied, including, but not limited to, the implied warranties of merchantability or fitness 
#for a particular purpose, with respect to the services rendered.  In no event will 
#Halliburton be liable for failure to obtain any particular results or for 
#any damages, including, but not limited to, indirect, special or consequential damages, 
#resulting from the use of any information or interpretation provided by Halliburton.
#
~A           TIME           GTDEPTH  GTPQH  GTTQ  GTTN   GTET   GTTVD  
# ...
   11:57:39.929.07-Aug-2020 5127.01 3414.36 87.79 10.00 113.04 2682.86
   11:57:40.129.07-Aug-2020 5127.01 3414.36 87.79 10.00 113.24 2682.86
   11:57:40.329.07-Aug-2020 5127.01 3414.35 87.79 10.00 113.44 2682.86
   11:57:40.529.07-Aug-2020 5127.01 3414.36 87.79 10.00 113.64 2682.86
   11:57:40.729.07-Aug-2020 5127.01 3414.29 87.79 10.00 113.84 2682.86
   11:57:40.929.07-Aug-2020 5127.01 3414.42 87.79 10.00 114.04 2682.86
   11:57:41.129.07-Aug-2020 5127.01 3414.42 87.79 10.00 114.24 2682.86
   11:57:41.329.07-Aug-2020 5127.01 3414.30 87.79 10.00 114.44 2682.86
   11:57:41.529.07-Aug-2020 5127.01 3414.38 87.79 10.00 114.64 2682.86
   11:57:41.729.07-Aug-2020 5127.01 3414.36 87.79 10.00 114.84 2682.86
   11:57:41.929.07-Aug-2020 5127.01 3414.33 87.79 10.00 115.04 2682.86
   11:57:42.129.07-Aug-2020 5127.01 3414.36 87.79 10.00 115.24 2682.86
   11:57:42.329.07-Aug-2020 5127.01 3414.35 87.78 10.00 115.44 2682.86
   11:57:42.529.07-Aug-2020 5127.01 3414.35 87.78 10.00 115.64 2682.86
   11:57:42.730.07-Aug-2020 5127.01 3414.33 87.78 10.00 115.84 2682.86
   11:57:42.930.07-Aug-2020 5127.01 3414.35 87.78 10.00 116.04 2682.86
   11:57:43.130.07-Aug-2020 5127.01 3414.35 87.78 10.00 116.24 2682.86
   11:57:43.330.07-Aug-2020 5127.01 3414.35 87.78 10.00 116.44 2682.86
   11:57:43.530.07-Aug-2020 5127.01 3414.15 87.78 10.00 116.64 2682.86
   11:57:43.730.07-Aug-2020 5127.01 3414.51 87.78 10.00 116.84 2682.86
   11:57:43.930.07-Aug-2020 5127.01 3414.40 87.78 10.00 117.04 2682.86
   11:57:44.130.07-Aug-2020 5127.01 3414.40 87.78 10.00 117.24 2682.86
   11:57:44.330.07-Aug-2020 5127.01 3414.32 87.78 10.00 117.44 2682.86
   11:57:44.530.07-Aug-2020 5127.01 3414.39 87.78 10.00 117.64 2682.86
   11:57:44.730.07-Aug-2020 5127.01 3414.36 87.78 10.00 117.84 2682.86
   11:57:44.930.07-Aug-2020 5127.01 3414.32 87.78 10.00 118.04 2682.86
   11:57:45.130.07-Aug-2020 5127.01 3414.32 87.78 10.00 118.24 2682.86
   11:57:45.331.07-Aug-2020 5127.01 3414.35 87.78 10.00 118.44 2682.86
   11:57:45.531.07-Aug-2020 5127.01 3414.12 87.78 10.00 118.64 2682.86
   11:57:45.731.07-Aug-2020 5127.01 3414.50 87.78 10.00 118.84 2682.86
   11:57:45.931.07-Aug-2020 5127.01 3414.41 87.78 10.00 119.04 2682.86
   11:57:46.131.07-Aug-2020 5127.01 3414.25 87.78 10.00 119.24 2682.86
   11:57:46.331.07-Aug-2020 5127.01 3414.37 87.77 10.00 119.44 2682.86
   11:57:46.531.07-Aug-2020 5127.01 3414.36 87.77 10.00 119.64 2682.86
   11:57:46.731.07-Aug-2020 5127.01 3414.26 87.77 10.00 119.85 2682.86
   11:57:46.931.07-Aug-2020 5127.01 3414.36 87.77 10.00 120.05 2682.86
   11:57:47.131.07-Aug-2020 5127.01 3414.36 87.77 10.00 120.25 2682.86
   11:57:47.331.07-Aug-2020 5127.01 3414.28 87.77 10.00 120.45 2682.86
   11:57:47.531.07-Aug-2020 5127.01 3414.35 87.77 10.00 120.65 2682.86
   11:57:47.731.07-Aug-2020 5127.01 3414.36 87.77 10.00 120.85 2682.86
   11:57:47.932.07-Aug-2020 5127.01 3414.31 87.77 10.00 121.05 2682.86
   11:57:48.132.07-Aug-2020 5127.01 3414.31 87.77 10.00 121.25 2682.86
   11:57:48.332.07-Aug-2020 5127.01 3414.34 87.77 10.00 121.45 2682.86
   11:57:48.532.07-Aug-2020 5127.01 3414.33 87.77 10.00 121.65 2682.86
   11:57:48.732.07-Aug-2020 5127.01 3414.33 87.77 10.00 121.85 2682.86
   11:57:48.932.07-Aug-2020 5127.01 3414.33 87.77 10.00 122.05 2682.86
   11:57:49.132.07-Aug-2020 5127.01 3414.33 87.77 10.00 122.25 2682.86
   11:57:49.332.07-Aug-2020 5127.01 3414.21 87.77 10.00 122.45 2682.86
   11:57:49.532.07-Aug-2020 5127.01 3414.41 87.77 10.00 122.65 2682.86
   11:57:49.732.07-Aug-2020 5127.01 3414.37 87.77 10.00 122.85 2682.86
   11:57:49.932.07-Aug-2020 5127.01 3414.25 87.77 10.00 123.05 2682.86
   11:57:50.132.07-Aug-2020 5127.01 3414.34 87.77 10.00 123.25 2682.86
   11:57:50.332.07-Aug-2020 5127.01 3414.32 87.77 10.00 123.45 2682.86
   11:57:50.532.07-Aug-2020 5127.01 3414.31 87.76 10.00 123.65 2682.86
   11:57:50.733.07-Aug-2020 5127.01 3414.32 87.76 10.00 123.85 2682.86
   11:57:50.933.07-Aug-2020 5127.01 3414.34 87.76 10.00 124.05 2682.86
   11:57:51.133.07-Aug-2020 5127.01 3414.34 87.76 10.00 124.25 2682.86
   11:57:51.333.07-Aug-2020 5127.01 3414.32 87.76 10.00 124.45 2682.86
   11:57:51.533.07-Aug-2020 5127.01 3414.31 87.76 10.00 124.65 2682.86
   11:57:51.733.07-Aug-2020 5127.01 3414.33 87.76 10.00 124.85 2682.86
   11:57:51.933.07-Aug-2020 5127.01 3414.31 87.76 10.00 125.05 2682.86
   11:57:52.133.07-Aug-2020 5127.01 3414.31 87.76 10.00 125.25 2682.86
   11:57:52.333.07-Aug-2020 5127.01 3414.37 87.76 10.00 125.45 2682.86
   11:57:52.533.07-Aug-2020 5127.01 3414.36 87.76 10.00 125.65 2682.86
   11:57:52.733.07-Aug-2020 5127.01 3414.20 87.76 10.00 125.85 2682.86
   11:57:52.933.07-Aug-2020 5127.01 3414.32 87.76 10.00 126.05 2682.86
   11:57:53.133.07-Aug-2020 5127.01 3414.32 87.76 10.00 126.25 2682.86
   11:57:53.334.07-Aug-2020 5127.01 3414.29 87.76 10.00 126.45 2682.86
   11:57:53.534.07-Aug-2020 5127.01 3414.31 87.76 10.00 126.65 2682.86
   11:57:53.734.07-Aug-2020 5127.01 3414.32 87.76 10.00 126.85 2682.86
   11:57:53.934.07-Aug-2020 5127.01 3414.33 87.76 10.00 127.05 2682.86
   11:57:54.134.07-Aug-2020 5127.01 3414.33 87.76 10.00 127.25 2682.86
   11:57:54.334.07-Aug-2020 5127.01 3414.37 87.76 10.00 127.45 2682.86
   11:57:54.534.07-Aug-2020 5127.01 3414.35 87.76 10.00 127.65 2682.86
   11:57:54.734.07-Aug-2020 5127.01 3414.23 87.75 10.00 127.85 2682.86
   11:57:54.934.07-Aug-2020 5127.01 3414.33 87.75 10.00 128.05 2682.86
   11:57:55.134.07-Aug-2020 5127.01 3414.33 87.75 10.00 128.25 2682.86
   11:57:55.334.07-Aug-2020 5127.01 3414.24 87.75 10.00 128.45 2682.86
   11:57:55.534.07-Aug-2020 5127.01 3414.35 87.75 10.00 128.65 2682.86
   11:57:55.734.07-Aug-2020 5127.01 3414.29 87.75 10.00 128.85 2682.86
   11:57:55.935.07-Aug-2020 5127.01 3414.33 87.76 10.00 129.05 2682.86
   11:57:56.135.07-Aug-2020 5127.01 3414.28 87.75 10.00 129.25 2682.86
   11:57:56.335.07-Aug-2020 5127.01 3414.28 87.75 10.00 129.45 2682.86
   11:57:56.535.07-Aug-2020 5127.01 3414.28 87.75 10.00 129.65 2682.86
   11:57:56.735.07-Aug-2020 5127.01 3414.30 87.75 10.00 129.85 2682.86
   11:57:56.935.07-Aug-2020 5127.01 3414.31 87.75 10.00 130.05 2682.86
   11:57:57.135.07-Aug-2020 5127.01 3414.31 87.75 10.00 130.25 2682.86
   11:57:57.335.07-Aug-2020 5127.01 3414.29 87.75 10.00 130.45 2682.86
   11:57:57.535.07-Aug-2020 5127.01 3414.30 87.75 10.00 130.65 2682.86
   11:57:57.735.07-Aug-2020 5127.01 3414.30 87.75 10.00 130.85 2682.86
   11:57:57.935.07-Aug-2020 5127.01 3414.09 87.75 10.00 131.05 2682.86
   11:57:58.135.07-Aug-2020 5127.01 3414.09 87.75 10.00 131.25 2682.86
   11:57:58.335.07-Aug-2020 5127.01 3414.34 87.75 10.00 131.45 2682.86
   11:57:58.535.07-Aug-2020 5127.01 3414.21 87.75 10.00 131.65 2682.86
   11:57:58.736.07-Aug-2020 5127.01 3414.32 87.75 10.00 131.85 2682.86
   11:57:58.936.07-Aug-2020 5127.01 3414.32 87.74 10.00 132.05 2682.86
   11:57:59.136.07-Aug-2020 5127.01 3414.32 87.74 10.00 132.25 2682.86
   11:57:59.336.07-Aug-2020 5127.01 3414.29 87.74 10.00 132.45 2682.86
   11:57:59.536.07-Aug-2020 5127.01 3414.30 87.74 10.00 132.65 2682.86
   11:57:59.736.07-Aug-2020 5127.01 3414.30 87.74 10.00 132.85 2682.86
   11:57:59.936.07-Aug-2020 5127.01 3414.27 87.74 10.00 133.05 2682.86
   11:58:00.136.07-Aug-2020 5127.01 3414.27 87.74 10.00 133.25 2682.86
   11:58:00.336.07-Aug-2020 5127.01 3414.27 87.74 10.00 133.45 2682.86
   11:58:00.536.07-Aug-2020 5127.01 3414.30 87.74 10.00 133.65 2682.86
   11:58:00.736.07-Aug-2020 5127.01 3414.23 87.74 10.00 133.85 2682.86
   11:58:00.936.07-Aug-2020 5127.01 3414.31 87.74 10.00 134.05 2682.86
   11:58:01.136.07-Aug-2020 5127.01 3414.31 87.74 10.00 134.25 2682.86
   11:58:01.337.07-Aug-2020 5127.01 3414.19 87.74 10.00 134.45 2682.86
   11:58:01.537.07-Aug-2020 5127.01 3414.31 87.74 10.00 134.65 2682.86
   11:58:01.737.07-Aug-2020 5127.01 3414.30 87.74 10.00 134.85 2682.86
   11:58:01.937.07-Aug-2020 5127.01 3414.23 87.74 10.00 135.05 2682.86
   11:58:02.137.07-Aug-2020 5127.01 3414.30 87.74 10.00 135.25 2682.86
   11:58:02.337.07-Aug-2020 5127.01 3414.31 87.74 10.00 135.45 2682.86
