~Version Information
 VERS.                  2.0:   CWLS log ASCII Standard -VERSION 2.0
 WRAP.                   NO:   One line per depth step
~Well Information Block
#MNEM.UNIT     VALUE/NAME     DESCRIPTION
#---------     -----------    ---------------------------
 STRT.S             20:19:41 06-Aug-20: START TIME 20:19:41 06-Aug-20
 STOP.S             20:27:33 06-Aug-20: STOP TIME  20:27:33 06-Aug-20
 STEP.S                   0.00: STEP TIME
 NULL.                 -999.25: NULL VALUE
 DFWT.                        :  DIST FWL TEXT
 DFST.                        :  DIST FSL TEXT
 DMF .             Drill Floor:  DRILL MEAS FROM
 STIM.      12.00.00 03-Jul-20:  START TIME
 DATE.      00.50.00 09-Aug-20:  END TIME
 SPUD.               03-Jul-20:  SPUD DATE
 NREF.                    Grid:  NORTH REFERENCE
 HPTY.       Minimum Curvature:  HOLE POS TYPE
 DMOD.             Drill Model:  DRILL MOD DESC
 SVYD.                  Survey:  SURVEY DESC
 ILTD.               Lithology:  INTERP LTH DESC
 FTOP.          Formation Tops:  FORM TOPS DESC
 PDAT.          Mean Sea Level:  PERMANENT DATUM
 FLD .                     ACG:  FIELD NAME
 CTRY.              Azerbaijan:  COUNTRY NAME
 WELL.                    E04x:  WELL NAME
 SRVC.          Turan Drilling:  CONTRACTOR
 COMP.     BP Exploration (Caspian Sea) Ltd.:  COMPANY
 SON .        AZ-XX-0906531346:  JOB NUMBER
 WTYP.                Deviated:  WELL TYPE
 MDS .        Operator Entered:  MAG DATA SOURCE
 UWI .                     N/A:  UNIQUE WELL IDENTIFIER
 API .                     N/A:  API NUMBER
 BASE.              Azerbaijan:  LOGGING EQUIPMENT BASE LOCATION
 REGN.                   EESSA:  REGION
 PROV.                    Baku:  PROVINCE
 STAT.                    Baku:  STATE NAME
 MWDS.                    Baku:  MWD SHOP
 JOBN.        AZ-XX-0906531346:  JOB TICKET NUMB
 RIG .                     DWG:  RIG NAME
 DOE .                     N/A:  DOE NUMBER
 DCON.         Sperry Drilling:  DIRECTNL CONTR
 UNIT.                     N/A:  LOGGING EQUIPMENT ID
 CNTY.                        :  COUNTY
 LOC .                        :  LOCATION
 LMF .             Drill Floor:  LOG MEASURED FROM
 TVDS.m                  43.16:  TVDSS CORRECTN
 LATI.deg                40.17:  LATITUDE
 LONG.deg                51.17:  LONGITUDE
 WHNS.m                  -0.12:  WELL HEAD N/S
 WHEW.m                  -5.41:  WELL HEAD E/W
 UTMX.m              514337.95:  UTM X
 UTMY.m             4448627.46:  UTM Y
 DFWL.m                   0.00:  DISTANCE FWL
 DFSL.m                   0.00:  DISTANCE FSL
 SDEP.m                3088.01:  START DEPTH
 TDD .m                5200.01:  TOTAL DEPTH (DRILLER)
 VSDR.deg               244.51:  VERT SEC DIRECT
 GVFD.g                   1.00:  GRAVITY FIELD
 MFLD.nT              50329.80:  MAGNETIC FIELD
 MDIP.deg                59.63:  MAGNETIC DIP
 MDEC.deg                 6.59:  MAGNETIC DECL
 GRDC.deg                 0.09:  GRID CORRECTION
 AZTC.deg                 6.50:  AZM TOTAL CORR
 EPD .m                   0.00:  ELEVATION
 EGL .m                   0.00:  GROUND ELEVATION
 WDMS.m                 176.20:  WD ELEV
 APD .m                  43.16:  DEPTH ABOVE PD
 DEP .m                3084.71:  DEPTH
 AGAP.m                  43.16:  AIR GAP
 VSEW.m                  -5.41:  VERT SEC E/W
 VSNS.m                  -0.12:  VERT SEC N/S
 EKB .m                   0.00:  KB ELEVATION
 EDF .m                  43.16:  DF ELEVATION
 TDL .m                 243.00:  TOTAL DEPTH (LOGGER)
 VSC .                       0:  VS TO CLOSURE
 MAGU.                 1853542:  MAGUTM CHECKSUM
~Parameter Information Block
#MNEM.UNIT       Value        Description
#---------     -----------    ---------------------------
 AV  .mps                 1.91:  Ann Velocity 
 AVMX.mps                 2.52:  Max Ann Veloc 
 AZIF.deg               308.97:  Azm, Final 
 BHAT.        Rotary Steerable:  BHA Type 
 BROT.°/30m               1.00:  Build Rotating 
 BS  .in                  6.50:  Bit Size 
 BSZ .in                  6.50:  Bit Size 
 BTPL.psig              350.00:  Bit Press Loss 
 CABU.                      No:  Customer Abuse 
 CGEO.           Asif Pashayev:  Customer Geo 
 COMM.                     4è‹:  Run Comments 1 
 TCS .hr                 35.86:  Time Ciculation Ended 
 CV  .mps                 2.31:  Crit Velocity 
 CVMX.mps                 2.31:  Max Crit Veloc 
 DD1 .         Intigam Rahimov:  Direct Drillr 1 
 DDSV.               Geo-Pilot:  DD Service 
 DEFF.%                  92.00:  % Det Eff 
 DLRX.°/30m               1.00:  Dogleg Rot Max 
 DLSO.°/30m               1.00:  Dogleg Oriented 
 DLSX.°/30m               1.42:  Dogleg Str Max 
 DRET.      15.50.00 07-Aug-20:  Drill End Time 
 DRST.      10.40.00 06-Aug-20:  Drill Start Tim 
 DTIM.hr                 21.30:  Time Drilling 
 EDEP.m                5200.01:  End Depth 
 ENG1.            Alan Tuganov:  Engineer 1 
 ENG2.         Almaz Almadatov:  Engineer 2 
 ENG3.     Zammelal Abdullah Sani:  Engineer 3 
 ETIM.      22.42.00 08-Aug-20:  End Time 
 FLOI.gpm               395.00:  Flow In 
 FLON.gpm               350.00:  Flow In Min 
 FLOS.cptm                0.00:  Fluid Loss 
 FLOX.gpm               404.00:  Flow In Max 
 FTRO.       Formation Presure:  FTWD Run Obj 
 HFLO.                      No:  High Flow 
 HPRE.                      No:  High Pressure 
 HTEM.                      No:  High Temp 
 HYDO.m                   1.80:  Hydro Offset 
 IFIN.deg                72.64:  Inc, Final 
 IMAX.deg                73.68:  Inc Max 
 IMIN.deg                72.64:  Inc Min 
 IMND.m                5189.69:  Inc Min Depth 
 IMXD.m                5067.88:  Inc Max Depth 
 JARR.                      No:  Jarring 
 LETM.      15.50.00 07-Aug-20:  Log End Time 
 LOST.hr                     0:  Lost Rig Time 
 LSTM.      10.40.00 06-Aug-20:  Log Start Time 
 MDCL.ppm             36000.00:  Mud Chlorides 
 MDES.     Inversion Oil/Synthetic:  Mud Desc 
 DFD .sg                  1.36:  Mud Density 
 MDMN.sg                  1.36:  Dens Mud Min 
 MDMX.sg                  1.36:  Dens Mud Max 
 MOIL.                      70:  Run Mud Oil % 
 MOWR.                   70:30:  Run Mud OWR 
 MSND.                    0.00:  Run Mud Sand % 
 MSOL.                   17.60:  Run Mud Solids% 
 DFV .spqt               73.00:  Mud Viscosity 
 MWOD.in                  4.75:  MWD Tool OD 
 MWSI.                      No:  Serv Intrp, MWD 
 OTIM.hr                 85.66:  Time Operating 
 PCON.           Look Like New:  Pad Condition 
 PMAX.psia             6250.00:  Press Op, Max 
 PV  .cP                 65.00:  Mud PV 
 RUN .                     900:  Run Number 
 ROPA.m/hr               11.40:  ROP Avg 
 ROPN.m/hr                5.00:  ROP Min 
 ROPX.m/hr               20.00:  ROP Max 
 RPMA.rpm               130.00:  RPM Surface Avg 
 RPMN.rpm                40.00:  RPM Surface Min 
 RPMX.rpm               140.00:  RPM Surface Max 
 RRUN.                    L205:  Rig Run Number 
 RTIM.hr                  1.00:  Time Reaming 
 SAZI.deg               313.52:  Azm, Start 
 SDEP.m                4957.01:  Start Depth 
 SIDD.                      No:  Serv Intrp, DD 
 SINC.deg                73.16:  Inc, Start 
 SPPA.psig             5657.00:  SPP Avg 
 SPPN.psig             2500.00:  SPP Min 
 SPPX.psig             5806.00:  SPP Max 
 STIM.      07.12.00 05-Aug-20:  Start Time 
 SVCS.                 DD, MWD:  Services 
 SVER.                    9.20:  Sperry Version 
 TDAT.m                 243.00:  Tot Depth Attmp 
 TDDF.                      No:  Trip for DD 
 TDLG.m                 243.00:  Tot Depth Loggd 
 TFF .                      No:  Trip for Fail 
 TQAA.f-kp               13.00:  Torque Abs Avg 
 TQAN.f-kp               11.00:  Torque Abs Min 
 TQAX.f-kp               16.00:  Torque Abs Max 
 TRRT.°/30m               1.00:  Turn Rotating 
 MRT .                    HCIM:  Maximum Recorded Temperature 
 TTMX.degC               96.08:  Max Tool Temp 
 VS01.                90515411:  Virtual Str1 SN 
 VS02.                90512716:  Virtual Str2 SN 
 VS03.                90522362:  Virtual Str3 SN 
 VS04.                90619415:  Virtual Str4 SN 
 VS05.                90619414:  Virtual Str5 SN 
 VS06.                90597748:  Virtual Str6 SN 
 WBMN.klb                 2.00:  WOB Min 
 WITN.           Adil Mammadov:  Customer Rep 
 WITN.     Alexander Yadullayev:  Customer Rep 2 
 WOBA.klb                 7.00:  WOB Avg 
 WOBX.klb                23.00:  WOB Max 
 YP  .lhf2               37.00:  Yield Point 
~Curve Information Block
#MNEM.UNIT                 API CODE     Curve Description
#---------               -----------    ---------------------------
 TIME.HHMMSS            00 000 000 000:  GT Time & Date
 GTDEPTH.m              00 000 000 000:  GT Depth
 GTPQH.psia             00 000 000 000:  GT HR Quartz Pressure
 GTTQ.degC              00 000 000 000:  GT Quartz Temperature
 GTTN.NONE              00 000 000 000:  GT Test Number
 GTET.sec               00 000 000 000:  GT Elapsed Test Time
 GTTVD.m                00 000 000 000:  GT True Vertical Depth
#Other Information
#
#WARRANTY: Halliburton will use its best efforts to furnish customers with 
#accurate information and interpretations that are part of, and incident to, the services 
#provided.  However, Halliburton cannot and does not warrant the accuracy 
#or correctness of such information and interpretations.  Under no circumstances should any 
#such information or interpretation be relied upon as the sole basis for any drilling, 
#completion, production, or financial decision or any procedure involving any risk to the 
#safety of any drilling venture, drilling rig or its crew or any other third party.  The 
#Customer has full responsibility for all drilling, completion and production operation.  
#Halliburton makes no representations or warranties, either expressed or 
#implied, including, but not limited to, the implied warranties of merchantability or fitness 
#for a particular purpose, with respect to the services rendered.  In no event will 
#Halliburton be liable for failure to obtain any particular results or for 
#any damages, including, but not limited to, indirect, special or consequential damages, 
#resulting from the use of any information or interpretation provided by Halliburton.
#
~A           TIME           GTDEPTH  GTPQH  GTTQ  GTTN  GTET   GTTVD  
# ...
   20:24:17.452.06-Aug-2020 4993.01 3486.90 82.64 3.00 276.11 2644.18
   20:24:17.652.06-Aug-2020 4993.01 3486.90 82.64 3.00 276.31 2644.18
   20:24:17.852.06-Aug-2020 4993.01 3486.91 82.64 3.00 276.51 2644.18
   20:24:18.052.06-Aug-2020 4993.01 3487.04 82.64 3.00 276.71 2644.18
   20:24:18.252.06-Aug-2020 4993.01 3486.89 82.64 3.00 276.91 2644.18
   20:24:18.452.06-Aug-2020 4993.01 3486.97 82.64 3.00 277.11 2644.18
   20:24:18.652.06-Aug-2020 4993.01 3486.97 82.64 3.00 277.31 2644.18
   20:24:18.852.06-Aug-2020 4993.01 3486.95 82.63 3.00 277.51 2644.18
   20:24:19.052.06-Aug-2020 4993.01 3486.92 82.63 3.00 277.71 2644.18
   20:24:19.253.06-Aug-2020 4993.01 3486.94 82.63 3.00 277.91 2644.18
   20:24:19.453.06-Aug-2020 4993.01 3486.90 82.63 3.00 278.11 2644.18
   20:24:19.653.06-Aug-2020 4993.01 3486.90 82.63 3.00 278.31 2644.18
   20:24:19.853.06-Aug-2020 4993.01 3486.91 82.63 3.00 278.51 2644.18
   20:24:20.053.06-Aug-2020 4993.01 3486.93 82.63 3.00 278.71 2644.18
   20:24:20.253.06-Aug-2020 4993.01 3486.79 82.63 3.00 278.91 2644.18
   20:24:20.453.06-Aug-2020 4993.01 3487.00 82.63 3.00 279.11 2644.18
   20:24:20.653.06-Aug-2020 4993.01 3487.00 82.63 3.00 279.31 2644.18
   20:24:20.853.06-Aug-2020 4993.01 3487.00 82.63 3.00 279.51 2644.18
   20:24:21.053.06-Aug-2020 4993.01 3486.95 82.63 3.00 279.71 2644.18
   20:24:21.253.06-Aug-2020 4993.01 3486.93 82.63 3.00 279.91 2644.18
   20:24:21.453.06-Aug-2020 4993.01 3486.81 82.63 3.00 280.11 2644.18
   20:24:21.653.06-Aug-2020 4993.01 3486.81 82.63 3.00 280.31 2644.18
   20:24:21.854.06-Aug-2020 4993.01 3486.91 82.63 3.00 280.51 2644.18
   20:24:22.054.06-Aug-2020 4993.01 3486.90 82.63 3.00 280.71 2644.18
   20:24:22.254.06-Aug-2020 4993.01 3486.98 82.63 3.00 280.91 2644.18
   20:24:22.454.06-Aug-2020 4993.01 3486.75 82.63 3.00 281.11 2644.18
   20:24:22.654.06-Aug-2020 4993.01 3486.75 82.63 3.00 281.31 2644.18
   20:24:22.854.06-Aug-2020 4993.01 3487.00 82.63 3.00 281.51 2644.18
   20:24:23.054.06-Aug-2020 4993.01 3486.83 82.63 3.00 281.71 2644.18
   20:24:23.254.06-Aug-2020 4993.01 3487.07 82.63 3.00 281.91 2644.18
   20:24:23.454.06-Aug-2020 4993.01 3486.89 82.62 3.00 282.11 2644.18
   20:24:23.654.06-Aug-2020 4993.01 3486.89 82.62 3.00 282.31 2644.18
   20:24:23.854.06-Aug-2020 4993.01 3486.99 82.62 3.00 282.51 2644.18
   20:24:24.054.06-Aug-2020 4993.01 3486.91 82.62 3.00 282.71 2644.18
   20:24:24.254.06-Aug-2020 4993.01 3486.97 82.62 3.00 282.91 2644.18
   20:24:24.455.06-Aug-2020 4993.01 3486.92 82.62 3.00 283.11 2644.18
   20:24:24.655.06-Aug-2020 4993.01 3486.92 82.62 3.00 283.31 2644.18
   20:24:24.855.06-Aug-2020 4993.01 3486.91 82.62 3.00 283.51 2644.18
   20:24:25.055.06-Aug-2020 4993.01 3486.95 82.62 3.00 283.71 2644.18
   20:24:25.255.06-Aug-2020 4993.01 3486.90 82.62 3.00 283.91 2644.18
   20:24:25.455.06-Aug-2020 4993.01 3486.95 82.62 3.00 284.11 2644.18
   20:24:25.655.06-Aug-2020 4993.01 3486.95 82.62 3.00 284.31 2644.18
   20:24:25.855.06-Aug-2020 4993.01 3486.77 82.62 3.00 284.51 2644.18
   20:24:26.055.06-Aug-2020 4993.01 3486.97 82.62 3.00 284.71 2644.18
   20:24:26.255.06-Aug-2020 4993.01 3487.02 82.62 3.00 284.91 2644.18
   20:24:26.455.06-Aug-2020 4993.01 3486.92 82.62 3.00 285.11 2644.18
   20:24:26.655.06-Aug-2020 4993.01 3486.92 82.62 3.00 285.31 2644.18
   20:24:26.855.06-Aug-2020 4993.01 3486.94 82.62 3.00 285.51 2644.18
   20:24:27.056.06-Aug-2020 4993.01 3486.92 82.62 3.00 285.71 2644.18
   20:24:27.256.06-Aug-2020 4993.01 3486.94 82.62 3.00 285.91 2644.18
   20:24:27.456.06-Aug-2020 4993.01 3486.90 82.62 3.00 286.11 2644.18
   20:24:27.656.06-Aug-2020 4993.01 3486.90 82.62 3.00 286.31 2644.18
   20:24:27.856.06-Aug-2020 4993.01 3486.91 82.62 3.00 286.51 2644.18
   20:24:28.056.06-Aug-2020 4993.01 3486.94 82.61 3.00 286.71 2644.18
   20:24:28.256.06-Aug-2020 4993.01 3486.89 82.61 3.00 286.91 2644.18
   20:24:28.456.06-Aug-2020 4993.01 3486.88 82.61 3.00 287.11 2644.18
   20:24:28.656.06-Aug-2020 4993.01 3486.88 82.61 3.00 287.31 2644.18
   20:24:28.856.06-Aug-2020 4993.01 3486.88 82.61 3.00 287.51 2644.18
   20:24:29.056.06-Aug-2020 4993.01 3486.96 82.61 3.00 287.71 2644.18
   20:24:29.256.06-Aug-2020 4993.01 3486.95 82.61 3.00 287.91 2644.18
   20:24:29.456.06-Aug-2020 4993.01 3486.89 82.61 3.00 288.11 2644.18
   20:24:29.657.06-Aug-2020 4993.01 3486.89 82.61 3.00 288.31 2644.18
   20:24:29.857.06-Aug-2020 4993.01 3487.05 82.61 3.00 288.51 2644.18
   20:24:30.057.06-Aug-2020 4993.01 3486.88 82.61 3.00 288.71 2644.18
   20:24:30.257.06-Aug-2020 4993.01 3486.92 82.61 3.00 288.91 2644.18
   20:24:30.457.06-Aug-2020 4993.01 3486.96 82.61 3.00 289.11 2644.18
   20:24:30.657.06-Aug-2020 4993.01 3486.96 82.61 3.00 289.31 2644.18
   20:24:30.857.06-Aug-2020 4993.01 3487.05 82.61 3.00 289.51 2644.18
   20:24:31.057.06-Aug-2020 4993.01 3487.00 82.61 3.00 289.71 2644.18
   20:24:31.257.06-Aug-2020 4993.01 3486.81 82.61 3.00 289.91 2644.18
   20:24:31.457.06-Aug-2020 4993.01 3487.04 82.61 3.00 290.11 2644.18
   20:24:31.657.06-Aug-2020 4993.01 3487.04 82.61 3.00 290.31 2644.18
   20:24:31.857.06-Aug-2020 4993.01 3486.99 82.61 3.00 290.51 2644.18
   20:24:32.057.06-Aug-2020 4993.01 3486.94 82.61 3.00 290.71 2644.18
   20:24:32.258.06-Aug-2020 4993.01 3486.95 82.61 3.00 290.91 2644.18
   20:24:32.458.06-Aug-2020 4993.01 3486.93 82.61 3.00 291.11 2644.18
   20:24:32.658.06-Aug-2020 4993.01 3486.93 82.61 3.00 291.31 2644.18
   20:24:32.858.06-Aug-2020 4993.01 3486.90 82.60 3.00 291.51 2644.18
   20:24:33.058.06-Aug-2020 4993.01 3486.95 82.60 3.00 291.71 2644.18
   20:24:33.258.06-Aug-2020 4993.01 3486.89 82.60 3.00 291.91 2644.18
   20:24:33.458.06-Aug-2020 4993.01 3486.95 82.60 3.00 292.11 2644.18
   20:24:33.658.06-Aug-2020 4993.01 3486.95 82.60 3.00 292.31 2644.18
   20:24:33.858.06-Aug-2020 4993.01 3486.93 82.60 3.00 292.51 2644.18
   20:24:34.058.06-Aug-2020 4993.01 3486.67 82.60 3.00 292.71 2644.18
   20:24:34.258.06-Aug-2020 4993.01 3487.06 82.60 3.00 292.91 2644.18
   20:24:34.458.06-Aug-2020 4993.01 3486.98 82.60 3.00 293.11 2644.18
   20:24:34.658.06-Aug-2020 4993.01 3486.98 82.60 3.00 293.31 2644.18
   20:24:34.859.06-Aug-2020 4993.01 3486.94 82.60 3.00 293.51 2644.18
   20:24:35.059.06-Aug-2020 4993.01 3486.94 82.60 3.00 293.71 2644.18
   20:24:35.259.06-Aug-2020 4993.01 3486.89 82.60 3.00 293.91 2644.18
   20:24:35.459.06-Aug-2020 4993.01 3486.93 82.60 3.00 294.11 2644.18
   20:24:35.659.06-Aug-2020 4993.01 3486.93 82.60 3.00 294.31 2644.18
   20:24:35.859.06-Aug-2020 4993.01 3486.91 82.60 3.00 294.51 2644.18
   20:24:36.059.06-Aug-2020 4993.01 3486.91 82.60 3.00 294.71 2644.18
   20:24:36.259.06-Aug-2020 4993.01 3486.91 82.60 3.00 294.91 2644.18
   20:24:36.459.06-Aug-2020 4993.01 3486.91 82.60 3.00 295.11 2644.18
   20:24:36.659.06-Aug-2020 4993.01 3486.91 82.60 3.00 295.31 2644.18
   20:24:36.859.06-Aug-2020 4993.01 3486.90 82.60 3.00 295.51 2644.18
   20:24:37.059.06-Aug-2020 4993.01 3486.86 82.60 3.00 295.71 2644.18
   20:24:37.259.06-Aug-2020 4993.01 3486.99 82.60 3.00 295.91 2644.18
   20:24:37.460.06-Aug-2020 4993.01 3486.89 82.59 3.00 296.11 2644.18
   20:24:37.660.06-Aug-2020 4993.01 3486.89 82.59 3.00 296.31 2644.18
   20:24:37.860.06-Aug-2020 4993.01 3486.77 82.59 3.00 296.51 2644.18
   20:24:38.060.06-Aug-2020 4993.01 3487.07 82.59 3.00 296.71 2644.18
   20:24:38.260.06-Aug-2020 4993.01 3486.83 82.59 3.00 296.91 2644.18
   20:24:38.460.06-Aug-2020 4993.01 3486.99 82.59 3.00 297.11 2644.18
   20:24:38.660.06-Aug-2020 4993.01 3486.99 82.59 3.00 297.31 2644.18
   20:24:38.860.06-Aug-2020 4993.01 3486.74 82.59 3.00 297.51 2644.18
   20:24:39.060.06-Aug-2020 4993.01 3487.02 82.59 3.00 297.71 2644.18
   20:24:39.260.06-Aug-2020 4993.01 3486.98 82.59 3.00 297.91 2644.18
   20:24:39.460.06-Aug-2020 4993.01 3486.82 82.59 3.00 298.11 2644.18
   20:24:39.660.06-Aug-2020 4993.01 3486.82 82.59 3.00 298.31 2644.18
   20:24:39.860.06-Aug-2020 4993.01 3486.85 82.59 3.00 298.51 2644.18
   20:24:40.061.06-Aug-2020 4993.01 3487.00 82.59 3.00 298.71 2644.18
   20:24:40.261.06-Aug-2020 4993.01 3486.92 82.59 3.00 298.91 2644.18
