~Version Information
 VERS.                  2.0:   CWLS log ASCII Standard -VERSION 2.0
 WRAP.                   NO:   One line per depth step
~Well Information Block
#MNEM.UNIT     VALUE/NAME     DESCRIPTION
#---------     -----------    ---------------------------
 STRT.S             01:47:02 07-Aug-20: START TIME 01:47:02 07-Aug-20
 STOP.S             01:54:54 07-Aug-20: STOP TIME  01:54:54 07-Aug-20
 STEP.S                   0.00: STEP TIME
 NULL.                 -999.25: NULL VALUE
 DFWT.                        :  DIST FWL TEXT
 DFST.                        :  DIST FSL TEXT
 DMF .             Drill Floor:  DRILL MEAS FROM
 STIM.      12.00.00 03-Jul-20:  START TIME
 DATE.      00.50.00 09-Aug-20:  END TIME
 SPUD.               03-Jul-20:  SPUD DATE
 NREF.                    Grid:  NORTH REFERENCE
 HPTY.       Minimum Curvature:  HOLE POS TYPE
 DMOD.             Drill Model:  DRILL MOD DESC
 SVYD.                  Survey:  SURVEY DESC
 ILTD.               Lithology:  INTERP LTH DESC
 FTOP.          Formation Tops:  FORM TOPS DESC
 PDAT.          Mean Sea Level:  PERMANENT DATUM
 FLD .                     ACG:  FIELD NAME
 CTRY.              Azerbaijan:  COUNTRY NAME
 WELL.                    E04x:  WELL NAME
 SRVC.          Turan Drilling:  CONTRACTOR
 COMP.     BP Exploration (Caspian Sea) Ltd.:  COMPANY
 SON .        AZ-XX-0906531346:  JOB NUMBER
 WTYP.                Deviated:  WELL TYPE
 MDS .        Operator Entered:  MAG DATA SOURCE
 UWI .                     N/A:  UNIQUE WELL IDENTIFIER
 API .                     N/A:  API NUMBER
 BASE.              Azerbaijan:  LOGGING EQUIPMENT BASE LOCATION
 REGN.                   EESSA:  REGION
 PROV.                    Baku:  PROVINCE
 STAT.                    Baku:  STATE NAME
 MWDS.                    Baku:  MWD SHOP
 JOBN.        AZ-XX-0906531346:  JOB TICKET NUMB
 RIG .                     DWG:  RIG NAME
 DOE .                     N/A:  DOE NUMBER
 DCON.         Sperry Drilling:  DIRECTNL CONTR
 UNIT.                     N/A:  LOGGING EQUIPMENT ID
 CNTY.                        :  COUNTY
 LOC .                        :  LOCATION
 LMF .             Drill Floor:  LOG MEASURED FROM
 TVDS.m                  43.16:  TVDSS CORRECTN
 LATI.deg                40.17:  LATITUDE
 LONG.deg                51.17:  LONGITUDE
 WHNS.m                  -0.12:  WELL HEAD N/S
 WHEW.m                  -5.41:  WELL HEAD E/W
 UTMX.m              514337.95:  UTM X
 UTMY.m             4448627.46:  UTM Y
 DFWL.m                   0.00:  DISTANCE FWL
 DFSL.m                   0.00:  DISTANCE FSL
 SDEP.m                3088.01:  START DEPTH
 TDD .m                5200.01:  TOTAL DEPTH (DRILLER)
 VSDR.deg               244.51:  VERT SEC DIRECT
 GVFD.g                   1.00:  GRAVITY FIELD
 MFLD.nT              50329.80:  MAGNETIC FIELD
 MDIP.deg                59.63:  MAGNETIC DIP
 MDEC.deg                 6.59:  MAGNETIC DECL
 GRDC.deg                 0.09:  GRID CORRECTION
 AZTC.deg                 6.50:  AZM TOTAL CORR
 EPD .m                   0.00:  ELEVATION
 EGL .m                   0.00:  GROUND ELEVATION
 WDMS.m                 176.20:  WD ELEV
 APD .m                  43.16:  DEPTH ABOVE PD
 DEP .m                3084.71:  DEPTH
 AGAP.m                  43.16:  AIR GAP
 VSEW.m                  -5.41:  VERT SEC E/W
 VSNS.m                  -0.12:  VERT SEC N/S
 EKB .m                   0.00:  KB ELEVATION
 EDF .m                  43.16:  DF ELEVATION
 TDL .m                 243.00:  TOTAL DEPTH (LOGGER)
 VSC .                       0:  VS TO CLOSURE
 MAGU.                 1853542:  MAGUTM CHECKSUM
~Parameter Information Block
#MNEM.UNIT       Value        Description
#---------     -----------    ---------------------------
 AV  .mps                 1.91:  Ann Velocity 
 AVMX.mps                 2.52:  Max Ann Veloc 
 AZIF.deg               308.97:  Azm, Final 
 BHAT.        Rotary Steerable:  BHA Type 
 BROT.°/30m               1.00:  Build Rotating 
 BS  .in                  6.50:  Bit Size 
 BSZ .in                  6.50:  Bit Size 
 BTPL.psig              350.00:  Bit Press Loss 
 CABU.                      No:  Customer Abuse 
 CGEO.           Asif Pashayev:  Customer Geo 
 COMM.                     Ô¿r:  Run Comments 1 
 TCS .hr                 35.86:  Time Ciculation Ended 
 CV  .mps                 2.31:  Crit Velocity 
 CVMX.mps                 2.31:  Max Crit Veloc 
 DD1 .         Intigam Rahimov:  Direct Drillr 1 
 DDSV.               Geo-Pilot:  DD Service 
 DEFF.%                  92.00:  % Det Eff 
 DLRX.°/30m               1.00:  Dogleg Rot Max 
 DLSO.°/30m               1.00:  Dogleg Oriented 
 DLSX.°/30m               1.42:  Dogleg Str Max 
 DRET.      15.50.00 07-Aug-20:  Drill End Time 
 DRST.      10.40.00 06-Aug-20:  Drill Start Tim 
 DTIM.hr                 21.30:  Time Drilling 
 EDEP.m                5200.01:  End Depth 
 ENG1.            Alan Tuganov:  Engineer 1 
 ENG2.         Almaz Almadatov:  Engineer 2 
 ENG3.     Zammelal Abdullah Sani:  Engineer 3 
 ETIM.      22.42.00 08-Aug-20:  End Time 
 FLOI.gpm               395.00:  Flow In 
 FLON.gpm               350.00:  Flow In Min 
 FLOS.cptm                0.00:  Fluid Loss 
 FLOX.gpm               404.00:  Flow In Max 
 FTRO.       Formation Presure:  FTWD Run Obj 
 HFLO.                      No:  High Flow 
 HPRE.                      No:  High Pressure 
 HTEM.                      No:  High Temp 
 HYDO.m                   1.80:  Hydro Offset 
 IFIN.deg                72.64:  Inc, Final 
 IMAX.deg                73.68:  Inc Max 
 IMIN.deg                72.64:  Inc Min 
 IMND.m                5189.69:  Inc Min Depth 
 IMXD.m                5067.88:  Inc Max Depth 
 JARR.                      No:  Jarring 
 LETM.      15.50.00 07-Aug-20:  Log End Time 
 LOST.hr                     0:  Lost Rig Time 
 LSTM.      10.40.00 06-Aug-20:  Log Start Time 
 MDCL.ppm             36000.00:  Mud Chlorides 
 MDES.     Inversion Oil/Synthetic:  Mud Desc 
 DFD .sg                  1.36:  Mud Density 
 MDMN.sg                  1.36:  Dens Mud Min 
 MDMX.sg                  1.36:  Dens Mud Max 
 MOIL.                      70:  Run Mud Oil % 
 MOWR.                   70:30:  Run Mud OWR 
 MSND.                    0.00:  Run Mud Sand % 
 MSOL.                   17.60:  Run Mud Solids% 
 DFV .spqt               73.00:  Mud Viscosity 
 MWOD.in                  4.75:  MWD Tool OD 
 MWSI.                      No:  Serv Intrp, MWD 
 OTIM.hr                 85.66:  Time Operating 
 PCON.           Look Like New:  Pad Condition 
 PMAX.psia             6250.00:  Press Op, Max 
 PV  .cP                 65.00:  Mud PV 
 RUN .                     900:  Run Number 
 ROPA.m/hr               11.40:  ROP Avg 
 ROPN.m/hr                5.00:  ROP Min 
 ROPX.m/hr               20.00:  ROP Max 
 RPMA.rpm               130.00:  RPM Surface Avg 
 RPMN.rpm                40.00:  RPM Surface Min 
 RPMX.rpm               140.00:  RPM Surface Max 
 RRUN.                    L205:  Rig Run Number 
 RTIM.hr                  1.00:  Time Reaming 
 SAZI.deg               313.52:  Azm, Start 
 SDEP.m                4957.01:  Start Depth 
 SIDD.                      No:  Serv Intrp, DD 
 SINC.deg                73.16:  Inc, Start 
 SPPA.psig             5657.00:  SPP Avg 
 SPPN.psig             2500.00:  SPP Min 
 SPPX.psig             5806.00:  SPP Max 
 STIM.      07.12.00 05-Aug-20:  Start Time 
 SVCS.                 DD, MWD:  Services 
 SVER.                    9.20:  Sperry Version 
 TDAT.m                 243.00:  Tot Depth Attmp 
 TDDF.                      No:  Trip for DD 
 TDLG.m                 243.00:  Tot Depth Loggd 
 TFF .                      No:  Trip for Fail 
 TQAA.f-kp               13.00:  Torque Abs Avg 
 TQAN.f-kp               11.00:  Torque Abs Min 
 TQAX.f-kp               16.00:  Torque Abs Max 
 TRRT.°/30m               1.00:  Turn Rotating 
 MRT .                    HCIM:  Maximum Recorded Temperature 
 TTMX.degC               96.08:  Max Tool Temp 
 VS01.                90515411:  Virtual Str1 SN 
 VS02.                90512716:  Virtual Str2 SN 
 VS03.                90522362:  Virtual Str3 SN 
 VS04.                90619415:  Virtual Str4 SN 
 VS05.                90619414:  Virtual Str5 SN 
 VS06.                90597748:  Virtual Str6 SN 
 WBMN.klb                 2.00:  WOB Min 
 WITN.           Adil Mammadov:  Customer Rep 
 WITN.     Alexander Yadullayev:  Customer Rep 2 
 WOBA.klb                 7.00:  WOB Avg 
 WOBX.klb                23.00:  WOB Max 
 YP  .lhf2               37.00:  Yield Point 
~Curve Information Block
#MNEM.UNIT                 API CODE     Curve Description
#---------               -----------    ---------------------------
 TIME.HHMMSS            00 000 000 000:  GT Time & Date
 GTDEPTH.m              00 000 000 000:  GT Depth
 GTPQH.psia             00 000 000 000:  GT HR Quartz Pressure
 GTTQ.degC              00 000 000 000:  GT Quartz Temperature
 GTTN.NONE              00 000 000 000:  GT Test Number
 GTET.sec               00 000 000 000:  GT Elapsed Test Time
 GTTVD.m                00 000 000 000:  GT True Vertical Depth
#Other Information
#
#WARRANTY: Halliburton will use its best efforts to furnish customers with 
#accurate information and interpretations that are part of, and incident to, the services 
#provided.  However, Halliburton cannot and does not warrant the accuracy 
#or correctness of such information and interpretations.  Under no circumstances should any 
#such information or interpretation be relied upon as the sole basis for any drilling, 
#completion, production, or financial decision or any procedure involving any risk to the 
#safety of any drilling venture, drilling rig or its crew or any other third party.  The 
#Customer has full responsibility for all drilling, completion and production operation.  
#Halliburton makes no representations or warranties, either expressed or 
#implied, including, but not limited to, the implied warranties of merchantability or fitness 
#for a particular purpose, with respect to the services rendered.  In no event will 
#Halliburton be liable for failure to obtain any particular results or for 
#any damages, including, but not limited to, indirect, special or consequential damages, 
#resulting from the use of any information or interpretation provided by Halliburton.
#
~A           TIME           GTDEPTH  GTPQH  GTTQ  GTTN  GTET   GTTVD  
# ...
   01:50:06.464.07-Aug-2020 5042.01 3681.20 85.45 6.00 184.04 2658.32
   01:50:06.664.07-Aug-2020 5042.01 3681.20 85.45 6.00 184.24 2658.32
   01:50:06.864.07-Aug-2020 5042.01 3681.21 85.45 6.00 184.44 2658.32
   01:50:07.064.07-Aug-2020 5042.01 3681.13 85.45 6.00 184.64 2658.32
   01:50:07.264.07-Aug-2020 5042.01 3681.19 85.45 6.00 184.84 2658.32
   01:50:07.464.07-Aug-2020 5042.01 3681.13 85.45 6.00 185.04 2658.32
   01:50:07.664.07-Aug-2020 5042.01 3681.13 85.45 6.00 185.24 2658.32
   01:50:07.864.07-Aug-2020 5042.01 3681.13 85.45 6.00 185.44 2658.32
   01:50:08.064.07-Aug-2020 5042.01 3681.18 85.45 6.00 185.64 2658.32
   01:50:08.264.07-Aug-2020 5042.01 3681.11 85.45 6.00 185.84 2658.32
   01:50:08.464.07-Aug-2020 5042.01 3681.23 85.45 6.00 186.04 2658.32
   01:50:08.664.07-Aug-2020 5042.01 3681.23 85.45 6.00 186.24 2658.32
   01:50:08.864.07-Aug-2020 5042.01 3681.23 85.45 6.00 186.44 2658.32
   01:50:09.064.07-Aug-2020 5042.01 3681.16 85.45 6.00 186.64 2658.32
   01:50:09.264.07-Aug-2020 5042.01 3681.11 85.45 6.00 186.84 2658.32
   01:50:09.465.07-Aug-2020 5042.01 3681.24 85.45 6.00 187.04 2658.32
   01:50:09.665.07-Aug-2020 5042.01 3681.24 85.45 6.00 187.24 2658.32
   01:50:09.865.07-Aug-2020 5042.01 3681.24 85.45 6.00 187.44 2658.32
   01:50:10.065.07-Aug-2020 5042.01 3681.12 85.45 6.00 187.64 2658.32
   01:50:10.265.07-Aug-2020 5042.01 3680.90 85.45 6.00 187.84 2658.32
   01:50:10.465.07-Aug-2020 5042.01 3681.43 85.45 6.00 188.04 2658.32
   01:50:10.665.07-Aug-2020 5042.01 3681.43 85.45 6.00 188.24 2658.32
   01:50:10.865.07-Aug-2020 5042.01 3681.19 85.45 6.00 188.44 2658.32
   01:50:11.065.07-Aug-2020 5042.01 3681.20 85.44 6.00 188.64 2658.32
   01:50:11.265.07-Aug-2020 5042.01 3681.09 85.44 6.00 188.84 2658.32
   01:50:11.465.07-Aug-2020 5042.01 3681.30 85.44 6.00 189.04 2658.32
   01:50:11.665.07-Aug-2020 5042.01 3681.30 85.44 6.00 189.24 2658.32
   01:50:11.865.07-Aug-2020 5042.01 3681.31 85.44 6.00 189.44 2658.32
   01:50:12.065.07-Aug-2020 5042.01 3681.09 85.44 6.00 189.64 2658.32
   01:50:12.265.07-Aug-2020 5042.01 3681.23 85.44 6.00 189.84 2658.32
   01:50:12.465.07-Aug-2020 5042.01 3681.14 85.44 6.00 190.04 2658.32
   01:50:12.665.07-Aug-2020 5042.01 3681.14 85.44 6.00 190.24 2658.32
   01:50:12.865.07-Aug-2020 5042.01 3681.14 85.44 6.00 190.44 2658.32
   01:50:13.065.07-Aug-2020 5042.01 3681.18 85.44 6.00 190.64 2658.32
   01:50:13.265.07-Aug-2020 5042.01 3681.16 85.44 6.00 190.84 2658.32
   01:50:13.465.07-Aug-2020 5042.01 3681.17 85.44 6.00 191.04 2658.32
   01:50:13.666.07-Aug-2020 5042.01 3681.17 85.44 6.00 191.25 2658.32
   01:50:13.866.07-Aug-2020 5042.01 3681.15 85.44 6.00 191.45 2658.32
   01:50:14.066.07-Aug-2020 5042.01 3680.84 85.44 6.00 191.65 2658.32
   01:50:14.266.07-Aug-2020 5042.01 3681.45 85.44 6.00 191.85 2658.32
   01:50:14.466.07-Aug-2020 5042.01 3681.11 85.44 6.00 192.05 2658.32
   01:50:14.666.07-Aug-2020 5042.01 3681.11 85.44 6.00 192.25 2658.32
   01:50:14.866.07-Aug-2020 5042.01 3681.19 85.44 6.00 192.45 2658.32
   01:50:15.066.07-Aug-2020 5042.01 3681.14 85.44 6.00 192.65 2658.32
   01:50:15.266.07-Aug-2020 5042.01 3681.22 85.44 6.00 192.85 2658.32
   01:50:15.466.07-Aug-2020 5042.01 3681.10 85.44 6.00 193.05 2658.32
   01:50:15.666.07-Aug-2020 5042.01 3681.10 85.44 6.00 193.25 2658.32
   01:50:15.866.07-Aug-2020 5042.01 3681.10 85.44 6.00 193.45 2658.32
   01:50:16.066.07-Aug-2020 5042.01 3681.21 85.44 6.00 193.65 2658.32
   01:50:16.266.07-Aug-2020 5042.01 3681.10 85.44 6.00 193.85 2658.32
   01:50:16.466.07-Aug-2020 5042.01 3681.20 85.44 6.00 194.05 2658.32
   01:50:16.666.07-Aug-2020 5042.01 3681.20 85.44 6.00 194.25 2658.32
   01:50:16.866.07-Aug-2020 5042.01 3681.18 85.43 6.00 194.45 2658.32
   01:50:17.066.07-Aug-2020 5042.01 3681.08 85.43 6.00 194.65 2658.32
   01:50:17.266.07-Aug-2020 5042.01 3681.21 85.43 6.00 194.85 2658.32
   01:50:17.466.07-Aug-2020 5042.01 3681.12 85.43 6.00 195.05 2658.32
   01:50:17.666.07-Aug-2020 5042.01 3681.12 85.43 6.00 195.25 2658.32
   01:50:17.867.07-Aug-2020 5042.01 3681.18 85.43 6.00 195.45 2658.32
   01:50:18.067.07-Aug-2020 5042.01 3681.09 85.43 6.00 195.65 2658.32
   01:50:18.267.07-Aug-2020 5042.01 3681.22 85.43 6.00 195.85 2658.32
   01:50:18.467.07-Aug-2020 5042.01 3681.13 85.43 6.00 196.05 2658.32
   01:50:18.667.07-Aug-2020 5042.01 3681.13 85.43 6.00 196.25 2658.32
   01:50:18.867.07-Aug-2020 5042.01 3681.40 85.43 6.00 196.45 2658.32
   01:50:19.067.07-Aug-2020 5042.01 3681.10 85.43 6.00 196.65 2658.32
   01:50:19.267.07-Aug-2020 5042.01 3681.22 85.43 6.00 196.85 2658.32
   01:50:19.467.07-Aug-2020 5042.01 3681.17 85.43 6.00 197.05 2658.32
   01:50:19.667.07-Aug-2020 5042.01 3681.17 85.43 6.00 197.25 2658.32
   01:50:19.867.07-Aug-2020 5042.01 3681.26 85.43 6.00 197.45 2658.32
   01:50:20.067.07-Aug-2020 5042.01 3681.00 85.43 6.00 197.65 2658.32
   01:50:20.267.07-Aug-2020 5042.01 3681.26 85.43 6.00 197.85 2658.32
   01:50:20.467.07-Aug-2020 5042.01 3681.10 85.43 6.00 198.05 2658.32
   01:50:20.667.07-Aug-2020 5042.01 3681.10 85.43 6.00 198.25 2658.32
   01:50:20.867.07-Aug-2020 5042.01 3681.10 85.43 6.00 198.45 2658.32
   01:50:21.067.07-Aug-2020 5042.01 3681.23 85.43 6.00 198.65 2658.32
   01:50:21.267.07-Aug-2020 5042.01 3681.10 85.43 6.00 198.85 2658.32
   01:50:21.467.07-Aug-2020 5042.01 3681.19 85.43 6.00 199.05 2658.32
   01:50:21.667.07-Aug-2020 5042.01 3681.19 85.43 6.00 199.25 2658.32
   01:50:21.867.07-Aug-2020 5042.01 3681.21 85.43 6.00 199.45 2658.32
   01:50:22.068.07-Aug-2020 5042.01 3681.10 85.43 6.00 199.65 2658.32
   01:50:22.268.07-Aug-2020 5042.01 3681.19 85.42 6.00 199.85 2658.32
   01:50:22.468.07-Aug-2020 5042.01 3680.85 85.42 6.00 200.05 2658.32
   01:50:22.668.07-Aug-2020 5042.01 3680.85 85.42 6.00 200.25 2658.32
   01:50:22.868.07-Aug-2020 5042.01 3681.06 85.42 6.00 200.45 2658.32
   01:50:23.068.07-Aug-2020 5042.01 3681.24 85.42 6.00 200.65 2658.32
   01:50:23.268.07-Aug-2020 5042.01 3681.13 85.42 6.00 200.85 2658.32
   01:50:23.468.07-Aug-2020 5042.01 3681.16 85.42 6.00 201.05 2658.32
   01:50:23.668.07-Aug-2020 5042.01 3681.16 85.42 6.00 201.25 2658.32
   01:50:23.868.07-Aug-2020 5042.01 3681.14 85.42 6.00 201.45 2658.32
   01:50:24.068.07-Aug-2020 5042.01 3681.17 85.42 6.00 201.65 2658.32
   01:50:24.268.07-Aug-2020 5042.01 3681.11 85.42 6.00 201.85 2658.32
   01:50:24.468.07-Aug-2020 5042.01 3681.19 85.42 6.00 202.05 2658.32
   01:50:24.668.07-Aug-2020 5042.01 3681.19 85.42 6.00 202.25 2658.32
   01:50:24.868.07-Aug-2020 5042.01 3681.20 85.42 6.00 202.45 2658.32
   01:50:25.068.07-Aug-2020 5042.01 3681.07 85.42 6.00 202.65 2658.32
   01:50:25.268.07-Aug-2020 5042.01 3681.15 85.42 6.00 202.85 2658.32
   01:50:25.468.07-Aug-2020 5042.01 3681.15 85.42 6.00 203.05 2658.32
   01:50:25.668.07-Aug-2020 5042.01 3681.15 85.42 6.00 203.25 2658.32
   01:50:25.868.07-Aug-2020 5042.01 3681.10 85.42 6.00 203.45 2658.32
   01:50:26.068.07-Aug-2020 5042.01 3681.01 85.42 6.00 203.65 2658.32
   01:50:26.268.07-Aug-2020 5042.01 3681.27 85.42 6.00 203.85 2658.32
   01:50:26.469.07-Aug-2020 5042.01 3681.10 85.42 6.00 204.05 2658.32
   01:50:26.669.07-Aug-2020 5042.01 3681.10 85.42 6.00 204.25 2658.32
   01:50:26.869.07-Aug-2020 5042.01 3681.17 85.42 6.00 204.45 2658.32
   01:50:27.069.07-Aug-2020 5042.01 3681.00 85.42 6.00 204.65 2658.32
   01:50:27.269.07-Aug-2020 5042.01 3681.30 85.42 6.00 204.85 2658.32
   01:50:27.469.07-Aug-2020 5042.01 3681.06 85.42 6.00 205.05 2658.32
   01:50:27.669.07-Aug-2020 5042.01 3681.06 85.42 6.00 205.25 2658.32
   01:50:27.869.07-Aug-2020 5042.01 3681.10 85.42 6.00 205.45 2658.32
   01:50:28.069.07-Aug-2020 5042.01 3681.18 85.42 6.00 205.65 2658.32
   01:50:28.269.07-Aug-2020 5042.01 3681.14 85.41 6.00 205.85 2658.32
   01:50:28.469.07-Aug-2020 5042.01 3681.10 85.41 6.00 206.05 2658.32
   01:50:28.669.07-Aug-2020 5042.01 3681.10 85.41 6.00 206.25 2658.32
   01:50:28.869.07-Aug-2020 5042.01 3681.12 85.41 6.00 206.45 2658.32
   01:50:29.069.07-Aug-2020 5042.01 3681.18 85.41 6.00 206.65 2658.32
   01:50:29.269.07-Aug-2020 5042.01 3681.12 85.41 6.00 206.85 2658.32
