~Version Information
 VERS.                  2.0:   CWLS log ASCII Standard -VERSION 2.0
 WRAP.                   NO:   One line per depth step
~Well Information Block
#MNEM.UNIT     VALUE/NAME     DESCRIPTION
#---------     -----------    ---------------------------
 STRT.S             09:21:48 07-Aug-20: START TIME 09:21:48 07-Aug-20
 STOP.S             09:29:41 07-Aug-20: STOP TIME  09:29:41 07-Aug-20
 STEP.S                   0.00: STEP TIME
 NULL.                 -999.25: NULL VALUE
 DFWT.                        :  DIST FWL TEXT
 DFST.                        :  DIST FSL TEXT
 DMF .             Drill Floor:  DRILL MEAS FROM
 STIM.      12.00.00 03-Jul-20:  START TIME
 DATE.      00.50.00 09-Aug-20:  END TIME
 SPUD.               03-Jul-20:  SPUD DATE
 NREF.                    Grid:  NORTH REFERENCE
 HPTY.       Minimum Curvature:  HOLE POS TYPE
 DMOD.             Drill Model:  DRILL MOD DESC
 SVYD.                  Survey:  SURVEY DESC
 ILTD.               Lithology:  INTERP LTH DESC
 FTOP.          Formation Tops:  FORM TOPS DESC
 PDAT.          Mean Sea Level:  PERMANENT DATUM
 FLD .                     ACG:  FIELD NAME
 CTRY.              Azerbaijan:  COUNTRY NAME
 WELL.                    E04x:  WELL NAME
 SRVC.          Turan Drilling:  CONTRACTOR
 COMP.     BP Exploration (Caspian Sea) Ltd.:  COMPANY
 SON .        AZ-XX-0906531346:  JOB NUMBER
 WTYP.                Deviated:  WELL TYPE
 MDS .        Operator Entered:  MAG DATA SOURCE
 UWI .                     N/A:  UNIQUE WELL IDENTIFIER
 API .                     N/A:  API NUMBER
 BASE.              Azerbaijan:  LOGGING EQUIPMENT BASE LOCATION
 REGN.                   EESSA:  REGION
 PROV.                    Baku:  PROVINCE
 STAT.                    Baku:  STATE NAME
 MWDS.                    Baku:  MWD SHOP
 JOBN.        AZ-XX-0906531346:  JOB TICKET NUMB
 RIG .                     DWG:  RIG NAME
 DOE .                     N/A:  DOE NUMBER
 DCON.         Sperry Drilling:  DIRECTNL CONTR
 UNIT.                     N/A:  LOGGING EQUIPMENT ID
 CNTY.                        :  COUNTY
 LOC .                        :  LOCATION
 LMF .             Drill Floor:  LOG MEASURED FROM
 TVDS.m                  43.16:  TVDSS CORRECTN
 LATI.deg                40.17:  LATITUDE
 LONG.deg                51.17:  LONGITUDE
 WHNS.m                  -0.12:  WELL HEAD N/S
 WHEW.m                  -5.41:  WELL HEAD E/W
 UTMX.m              514337.95:  UTM X
 UTMY.m             4448627.46:  UTM Y
 DFWL.m                   0.00:  DISTANCE FWL
 DFSL.m                   0.00:  DISTANCE FSL
 SDEP.m                3088.01:  START DEPTH
 TDD .m                5200.01:  TOTAL DEPTH (DRILLER)
 VSDR.deg               244.51:  VERT SEC DIRECT
 GVFD.g                   1.00:  GRAVITY FIELD
 MFLD.nT              50329.80:  MAGNETIC FIELD
 MDIP.deg                59.63:  MAGNETIC DIP
 MDEC.deg                 6.59:  MAGNETIC DECL
 GRDC.deg                 0.09:  GRID CORRECTION
 AZTC.deg                 6.50:  AZM TOTAL CORR
 EPD .m                   0.00:  ELEVATION
 EGL .m                   0.00:  GROUND ELEVATION
 WDMS.m                 176.20:  WD ELEV
 APD .m                  43.16:  DEPTH ABOVE PD
 DEP .m                3084.71:  DEPTH
 AGAP.m                  43.16:  AIR GAP
 VSEW.m                  -5.41:  VERT SEC E/W
 VSNS.m                  -0.12:  VERT SEC N/S
 EKB .m                   0.00:  KB ELEVATION
 EDF .m                  43.16:  DF ELEVATION
 TDL .m                 243.00:  TOTAL DEPTH (LOGGER)
 VSC .                       0:  VS TO CLOSURE
 MAGU.                 1853542:  MAGUTM CHECKSUM
~Parameter Information Block
#MNEM.UNIT       Value        Description
#---------     -----------    ---------------------------
 AV  .mps                 1.91:  Ann Velocity 
 AVMX.mps                 2.52:  Max Ann Veloc 
 AZIF.deg               308.97:  Azm, Final 
 BHAT.        Rotary Steerable:  BHA Type 
 BROT.∞/30m               1.00:  Build Rotating 
 BS  .in                  6.50:  Bit Size 
 BSZ .in                  6.50:  Bit Size 
 BTPL.psig              350.00:  Bit Press Loss 
 CABU.                      No:  Customer Abuse 
 CGEO.           Asif Pashayev:  Customer Geo 
 COMM.                     ,[Å:  Run Comments 1 
 TCS .hr                 35.86:  Time Ciculation Ended 
 CV  .mps                 2.31:  Crit Velocity 
 CVMX.mps                 2.31:  Max Crit Veloc 
 DD1 .         Intigam Rahimov:  Direct Drillr 1 
 DDSV.               Geo-Pilot:  DD Service 
 DEFF.%                  92.00:  % Det Eff 
 DLRX.∞/30m               1.00:  Dogleg Rot Max 
 DLSO.∞/30m               1.00:  Dogleg Oriented 
 DLSX.∞/30m               1.42:  Dogleg Str Max 
 DRET.      15.50.00 07-Aug-20:  Drill End Time 
 DRST.      10.40.00 06-Aug-20:  Drill Start Tim 
 DTIM.hr                 21.30:  Time Drilling 
 EDEP.m                5200.01:  End Depth 
 ENG1.            Alan Tuganov:  Engineer 1 
 ENG2.         Almaz Almadatov:  Engineer 2 
 ENG3.     Zammelal Abdullah Sani:  Engineer 3 
 ETIM.      22.42.00 08-Aug-20:  End Time 
 FLOI.gpm               395.00:  Flow In 
 FLON.gpm               350.00:  Flow In Min 
 FLOS.cptm                0.00:  Fluid Loss 
 FLOX.gpm               404.00:  Flow In Max 
 FTRO.       Formation Presure:  FTWD Run Obj 
 HFLO.                      No:  High Flow 
 HPRE.                      No:  High Pressure 
 HTEM.                      No:  High Temp 
 HYDO.m                   1.80:  Hydro Offset 
 IFIN.deg                72.64:  Inc, Final 
 IMAX.deg                73.68:  Inc Max 
 IMIN.deg                72.64:  Inc Min 
 IMND.m                5189.69:  Inc Min Depth 
 IMXD.m                5067.88:  Inc Max Depth 
 JARR.                      No:  Jarring 
 LETM.      15.50.00 07-Aug-20:  Log End Time 
 LOST.hr                     0:  Lost Rig Time 
 LSTM.      10.40.00 06-Aug-20:  Log Start Time 
 MDCL.ppm             36000.00:  Mud Chlorides 
 MDES.     Inversion Oil/Synthetic:  Mud Desc 
 DFD .sg                  1.36:  Mud Density 
 MDMN.sg                  1.36:  Dens Mud Min 
 MDMX.sg                  1.36:  Dens Mud Max 
 MOIL.                      70:  Run Mud Oil % 
 MOWR.                   70:30:  Run Mud OWR 
 MSND.                    0.00:  Run Mud Sand % 
 MSOL.                   17.60:  Run Mud Solids% 
 DFV .spqt               73.00:  Mud Viscosity 
 MWOD.in                  4.75:  MWD Tool OD 
 MWSI.                      No:  Serv Intrp, MWD 
 OTIM.hr                 85.66:  Time Operating 
 PCON.           Look Like New:  Pad Condition 
 PMAX.psia             6250.00:  Press Op, Max 
 PV  .cP                 65.00:  Mud PV 
 RUN .                     900:  Run Number 
 ROPA.m/hr               11.40:  ROP Avg 
 ROPN.m/hr                5.00:  ROP Min 
 ROPX.m/hr               20.00:  ROP Max 
 RPMA.rpm               130.00:  RPM Surface Avg 
 RPMN.rpm                40.00:  RPM Surface Min 
 RPMX.rpm               140.00:  RPM Surface Max 
 RRUN.                    L205:  Rig Run Number 
 RTIM.hr                  1.00:  Time Reaming 
 SAZI.deg               313.52:  Azm, Start 
 SDEP.m                4957.01:  Start Depth 
 SIDD.                      No:  Serv Intrp, DD 
 SINC.deg                73.16:  Inc, Start 
 SPPA.psig             5657.00:  SPP Avg 
 SPPN.psig             2500.00:  SPP Min 
 SPPX.psig             5806.00:  SPP Max 
 STIM.      07.12.00 05-Aug-20:  Start Time 
 SVCS.                 DD, MWD:  Services 
 SVER.                    9.20:  Sperry Version 
 TDAT.m                 243.00:  Tot Depth Attmp 
 TDDF.                      No:  Trip for DD 
 TDLG.m                 243.00:  Tot Depth Loggd 
 TFF .                      No:  Trip for Fail 
 TQAA.f-kp               13.00:  Torque Abs Avg 
 TQAN.f-kp               11.00:  Torque Abs Min 
 TQAX.f-kp               16.00:  Torque Abs Max 
 TRRT.∞/30m               1.00:  Turn Rotating 
 MRT .                    HCIM:  Maximum Recorded Temperature 
 TTMX.degC               96.08:  Max Tool Temp 
 VS01.                90515411:  Virtual Str1 SN 
 VS02.                90512716:  Virtual Str2 SN 
 VS03.                90522362:  Virtual Str3 SN 
 VS04.                90619415:  Virtual Str4 SN 
 VS05.                90619414:  Virtual Str5 SN 
 VS06.                90597748:  Virtual Str6 SN 
 WBMN.klb                 2.00:  WOB Min 
 WITN.           Adil Mammadov:  Customer Rep 
 WITN.     Alexander Yadullayev:  Customer Rep 2 
 WOBA.klb                 7.00:  WOB Avg 
 WOBX.klb                23.00:  WOB Max 
 YP  .lhf2               37.00:  Yield Point 
~Curve Information Block
#MNEM.UNIT                 API CODE     Curve Description
#---------               -----------    ---------------------------
 TIME.HHMMSS            00 000 000 000:  GT Time & Date
 GTDEPTH.m              00 000 000 000:  GT Depth
 GTPQH.psia             00 000 000 000:  GT HR Quartz Pressure
 GTTQ.degC              00 000 000 000:  GT Quartz Temperature
 GTTN.NONE              00 000 000 000:  GT Test Number
 GTET.sec               00 000 000 000:  GT Elapsed Test Time
 GTTVD.m                00 000 000 000:  GT True Vertical Depth
#Other Information
#
#WARRANTY: Halliburton will use its best efforts to furnish customers with 
#accurate information and interpretations that are part of, and incident to, the services 
#provided.  However, Halliburton cannot and does not warrant the accuracy 
#or correctness of such information and interpretations.  Under no circumstances should any 
#such information or interpretation be relied upon as the sole basis for any drilling, 
#completion, production, or financial decision or any procedure involving any risk to the 
#safety of any drilling venture, drilling rig or its crew or any other third party.  The 
#Customer has full responsibility for all drilling, completion and production operation.  
#Halliburton makes no representations or warranties, either expressed or 
#implied, including, but not limited to, the implied warranties of merchantability or fitness 
#for a particular purpose, with respect to the services rendered.  In no event will 
#Halliburton be liable for failure to obtain any particular results or for 
#any damages, including, but not limited to, indirect, special or consequential damages, 
#resulting from the use of any information or interpretation provided by Halliburton.
#
~A           TIME           GTDEPTH  GTPQH  GTTQ  GTTN  GTET   GTTVD  
# ...
   09:27:33.471.07-Aug-2020 5109.01 3406.42 86.25 9.00 344.90 2677.54
   09:27:33.671.07-Aug-2020 5109.01 3406.42 86.24 9.00 345.10 2677.54
   09:27:33.871.07-Aug-2020 5109.01 3406.35 86.24 9.00 345.30 2677.54
   09:27:34.071.07-Aug-2020 5109.01 3406.46 86.24 9.00 345.50 2677.54
   09:27:34.271.07-Aug-2020 5109.01 3406.45 86.24 9.00 345.70 2677.54
   09:27:34.470.07-Aug-2020 5109.01 3406.39 86.24 9.00 345.90 2677.54
   09:27:34.670.07-Aug-2020 5109.01 3406.39 86.24 9.00 346.10 2677.54
   09:27:34.870.07-Aug-2020 5109.01 3406.45 86.24 9.00 346.30 2677.54
   09:27:35.070.07-Aug-2020 5109.01 3406.25 86.24 9.00 346.50 2677.54
   09:27:35.270.07-Aug-2020 5109.01 3406.52 86.24 9.00 346.70 2677.54
   09:27:35.470.07-Aug-2020 5109.01 3406.47 86.24 9.00 346.90 2677.54
   09:27:35.670.07-Aug-2020 5109.01 3406.47 86.24 9.00 347.10 2677.54
   09:27:35.870.07-Aug-2020 5109.01 3406.44 86.24 9.00 347.30 2677.54
   09:27:36.070.07-Aug-2020 5109.01 3406.45 86.24 9.00 347.50 2677.54
   09:27:36.270.07-Aug-2020 5109.01 3406.42 86.24 9.00 347.70 2677.54
   09:27:36.470.07-Aug-2020 5109.01 3406.43 86.24 9.00 347.90 2677.54
   09:27:36.670.07-Aug-2020 5109.01 3406.43 86.24 9.00 348.10 2677.54
   09:27:36.870.07-Aug-2020 5109.01 3406.42 86.24 9.00 348.30 2677.54
   09:27:37.070.07-Aug-2020 5109.01 3406.42 86.24 9.00 348.50 2677.54
   09:27:37.270.07-Aug-2020 5109.01 3406.42 86.24 9.00 348.69 2677.54
   09:27:37.470.07-Aug-2020 5109.01 3406.41 86.24 9.00 348.89 2677.54
   09:27:37.669.07-Aug-2020 5109.01 3406.38 86.24 9.00 349.09 2677.54
   09:27:37.869.07-Aug-2020 5109.01 3406.42 86.24 9.00 349.29 2677.54
   09:27:38.069.07-Aug-2020 5109.01 3406.43 86.24 9.00 349.49 2677.54
   09:27:38.269.07-Aug-2020 5109.01 3406.40 86.24 9.00 349.69 2677.54
   09:27:38.469.07-Aug-2020 5109.01 3406.45 86.24 9.00 349.89 2677.54
   09:27:38.669.07-Aug-2020 5109.01 3406.45 86.24 9.00 350.09 2677.54
   09:27:38.869.07-Aug-2020 5109.01 3406.42 86.24 9.00 350.29 2677.54
   09:27:39.069.07-Aug-2020 5109.01 3406.41 86.24 9.00 350.49 2677.54
   09:27:39.269.07-Aug-2020 5109.01 3406.43 86.24 9.00 350.69 2677.54
   09:27:39.469.07-Aug-2020 5109.01 3406.42 86.24 9.00 350.89 2677.54
   09:27:39.669.07-Aug-2020 5109.01 3406.42 86.24 9.00 351.09 2677.54
   09:27:39.869.07-Aug-2020 5109.01 3406.41 86.24 9.00 351.29 2677.54
   09:27:40.069.07-Aug-2020 5109.01 3406.42 86.24 9.00 351.49 2677.54
   09:27:40.269.07-Aug-2020 5109.01 3406.41 86.24 9.00 351.69 2677.54
   09:27:40.469.07-Aug-2020 5109.01 3406.30 86.24 9.00 351.89 2677.54
   09:27:40.669.07-Aug-2020 5109.01 3406.30 86.24 9.00 352.09 2677.54
   09:27:40.869.07-Aug-2020 5109.01 3406.45 86.23 9.00 352.29 2677.54
   09:27:41.068.07-Aug-2020 5109.01 3406.38 86.23 9.00 352.49 2677.54
   09:27:41.268.07-Aug-2020 5109.01 3406.37 86.23 9.00 352.69 2677.54
   09:27:41.468.07-Aug-2020 5109.01 3406.47 86.23 9.00 352.89 2677.54
   09:27:41.668.07-Aug-2020 5109.01 3406.42 86.23 9.00 353.09 2677.54
   09:27:41.868.07-Aug-2020 5109.01 3406.40 86.23 9.00 353.29 2677.54
   09:27:42.068.07-Aug-2020 5109.01 3406.45 86.23 9.00 353.49 2677.54
   09:27:42.268.07-Aug-2020 5109.01 3406.42 86.23 9.00 353.69 2677.54
   09:27:42.468.07-Aug-2020 5109.01 3406.34 86.23 9.00 353.89 2677.54
   09:27:42.668.07-Aug-2020 5109.01 3406.34 86.23 9.00 354.09 2677.54
   09:27:42.868.07-Aug-2020 5109.01 3406.44 86.23 9.00 354.29 2677.54
   09:27:43.068.07-Aug-2020 5109.01 3406.40 86.23 9.00 354.49 2677.54
   09:27:43.268.07-Aug-2020 5109.01 3406.44 86.23 9.00 354.69 2677.54
   09:27:43.468.07-Aug-2020 5109.01 3406.39 86.23 9.00 354.89 2677.54
   09:27:43.668.07-Aug-2020 5109.01 3406.39 86.23 9.00 355.09 2677.54
   09:27:43.868.07-Aug-2020 5109.01 3406.43 86.23 9.00 355.29 2677.54
   09:27:44.068.07-Aug-2020 5109.01 3406.40 86.23 9.00 355.49 2677.54
   09:27:44.267.07-Aug-2020 5109.01 3406.45 86.23 9.00 355.69 2677.54
   09:27:44.467.07-Aug-2020 5109.01 3406.43 86.23 9.00 355.89 2677.54
   09:27:44.667.07-Aug-2020 5109.01 3406.43 86.23 9.00 356.09 2677.54
   09:27:44.867.07-Aug-2020 5109.01 3406.43 86.23 9.00 356.29 2677.54
   09:27:45.067.07-Aug-2020 5109.01 3406.42 86.23 9.00 356.49 2677.54
   09:27:45.267.07-Aug-2020 5109.01 3406.41 86.23 9.00 356.69 2677.54
   09:27:45.467.07-Aug-2020 5109.01 3406.43 86.23 9.00 356.89 2677.54
   09:27:45.667.07-Aug-2020 5109.01 3406.43 86.23 9.00 357.09 2677.54
   09:27:45.867.07-Aug-2020 5109.01 3406.41 86.23 9.00 357.29 2677.54
   09:27:46.067.07-Aug-2020 5109.01 3406.42 86.23 9.00 357.49 2677.54
   09:27:46.267.07-Aug-2020 5109.01 3406.25 86.23 9.00 357.69 2677.54
   09:27:46.467.07-Aug-2020 5109.01 3406.51 86.23 9.00 357.89 2677.54
   09:27:46.667.07-Aug-2020 5109.01 3406.51 86.23 9.00 358.09 2677.54
   09:27:46.867.07-Aug-2020 5109.01 3406.37 86.23 9.00 358.29 2677.54
   09:27:47.067.07-Aug-2020 5109.01 3406.44 86.23 9.00 358.49 2677.54
   09:27:47.267.07-Aug-2020 5109.01 3406.42 86.23 9.00 358.69 2677.54
   09:27:47.467.07-Aug-2020 5109.01 3406.40 86.23 9.00 358.89 2677.54
   09:27:47.666.07-Aug-2020 5109.01 3406.40 86.23 9.00 359.09 2677.54
   09:27:47.866.07-Aug-2020 5109.01 3406.42 86.23 9.00 359.29 2677.54
   09:27:48.066.07-Aug-2020 5109.01 3406.41 86.22 9.00 359.49 2677.54
   09:27:48.266.07-Aug-2020 5109.01 3406.41 86.22 9.00 359.69 2677.54
   09:27:48.466.07-Aug-2020 5109.01 3406.43 86.22 9.00 359.89 2677.54
   09:27:48.666.07-Aug-2020 5109.01 3406.43 86.22 9.00 360.09 2677.54
   09:27:48.866.07-Aug-2020 5109.01 3406.40 86.22 9.00 360.29 2677.54
   09:27:49.066.07-Aug-2020 5109.01 3406.34 86.22 9.00 360.49 2677.54
   09:27:49.266.07-Aug-2020 5109.01 3406.44 86.22 9.00 360.69 2677.54
   09:27:49.466.07-Aug-2020 5109.01 3406.40 86.22 9.00 360.89 2677.54
   09:27:49.666.07-Aug-2020 5109.01 3406.41 86.22 9.00 361.09 2677.54
   09:27:49.866.07-Aug-2020 5109.01 3406.35 86.22 9.00 361.29 2677.54
   09:27:50.066.07-Aug-2020 5109.01 3406.43 86.22 9.00 361.49 2677.54
   09:27:50.266.07-Aug-2020 5109.01 3406.42 86.22 9.00 361.69 2677.54
   09:27:50.466.07-Aug-2020 5109.01 3406.41 86.22 9.00 361.89 2677.54
   09:27:50.666.07-Aug-2020 5109.01 3406.41 86.22 9.00 362.09 2677.54
   09:27:50.866.07-Aug-2020 5109.01 3406.34 86.22 9.00 362.29 2677.54
   09:27:51.065.07-Aug-2020 5109.01 3406.44 86.22 9.00 362.49 2677.54
   09:27:51.265.07-Aug-2020 5109.01 3406.44 86.22 9.00 362.69 2677.54
   09:27:51.465.07-Aug-2020 5109.01 3406.39 86.22 9.00 362.89 2677.54
   09:27:51.665.07-Aug-2020 5109.01 3406.39 86.22 9.00 363.09 2677.54
   09:27:51.865.07-Aug-2020 5109.01 3406.44 86.22 9.00 363.29 2677.54
   09:27:52.065.07-Aug-2020 5109.01 3406.25 86.22 9.00 363.49 2677.54
   09:27:52.265.07-Aug-2020 5109.01 3406.51 86.22 9.00 363.69 2677.54
   09:27:52.465.07-Aug-2020 5109.01 3406.46 86.22 9.00 363.89 2677.54
   09:27:52.665.07-Aug-2020 5109.01 3406.46 86.22 9.00 364.09 2677.54
   09:27:52.865.07-Aug-2020 5109.01 3406.43 86.22 9.00 364.29 2677.54
   09:27:53.065.07-Aug-2020 5109.01 3406.42 86.22 9.00 364.49 2677.54
   09:27:53.265.07-Aug-2020 5109.01 3406.41 86.22 9.00 364.69 2677.54
   09:27:53.465.07-Aug-2020 5109.01 3406.43 86.22 9.00 364.89 2677.54
   09:27:53.665.07-Aug-2020 5109.01 3406.43 86.22 9.00 365.09 2677.54
   09:27:53.865.07-Aug-2020 5109.01 3406.41 86.22 9.00 365.29 2677.54
   09:27:54.065.07-Aug-2020 5109.01 3406.41 86.22 9.00 365.49 2677.54
   09:27:54.264.07-Aug-2020 5109.01 3406.42 86.22 9.00 365.69 2677.54
   09:27:54.464.07-Aug-2020 5109.01 3406.41 86.22 9.00 365.89 2677.54
   09:27:54.664.07-Aug-2020 5109.01 3406.41 86.22 9.00 366.09 2677.54
   09:27:54.864.07-Aug-2020 5109.01 3406.40 86.22 9.00 366.29 2677.54
   09:27:55.064.07-Aug-2020 5109.01 3406.42 86.21 9.00 366.49 2677.54
   09:27:55.264.07-Aug-2020 5109.01 3406.39 86.21 9.00 366.69 2677.54
   09:27:55.464.07-Aug-2020 5109.01 3406.44 86.21 9.00 366.89 2677.54
   09:27:55.664.07-Aug-2020 5109.01 3406.44 86.21 9.00 367.09 2677.54
   09:27:55.864.07-Aug-2020 5109.01 3406.41 86.21 9.00 367.29 2677.54
   09:27:56.064.07-Aug-2020 5109.01 3406.42 86.21 9.00 367.49 2677.54
   09:27:56.264.07-Aug-2020 5109.01 3406.41 86.21 9.00 367.69 2677.54
