~Version Information
 VERS.                  2.0:   CWLS log ASCII Standard -VERSION 2.0
 WRAP.                   NO:   One line per depth step
~Well Information Block
#MNEM.UNIT     VALUE/NAME     DESCRIPTION
#---------     -----------    ---------------------------
 STRT.S             11:55:46 07-Aug-20: START TIME 11:55:46 07-Aug-20
 STOP.S             12:03:39 07-Aug-20: STOP TIME  12:03:39 07-Aug-20
 STEP.S                   0.00: STEP TIME
 NULL.                 -999.25: NULL VALUE
 DFWT.                        :  DIST FWL TEXT
 DFST.                        :  DIST FSL TEXT
 DMF .             Drill Floor:  DRILL MEAS FROM
 STIM.      12.00.00 03-Jul-20:  START TIME
 DATE.      00.50.00 09-Aug-20:  END TIME
 SPUD.               03-Jul-20:  SPUD DATE
 NREF.                    Grid:  NORTH REFERENCE
 HPTY.       Minimum Curvature:  HOLE POS TYPE
 DMOD.             Drill Model:  DRILL MOD DESC
 SVYD.                  Survey:  SURVEY DESC
 ILTD.               Lithology:  INTERP LTH DESC
 FTOP.          Formation Tops:  FORM TOPS DESC
 PDAT.          Mean Sea Level:  PERMANENT DATUM
 FLD .                     ACG:  FIELD NAME
 CTRY.              Azerbaijan:  COUNTRY NAME
 WELL.                    E04x:  WELL NAME
 SRVC.          Turan Drilling:  CONTRACTOR
 COMP.     BP Exploration (Caspian Sea) Ltd.:  COMPANY
 SON .        AZ-XX-0906531346:  JOB NUMBER
 WTYP.                Deviated:  WELL TYPE
 MDS .        Operator Entered:  MAG DATA SOURCE
 UWI .                     N/A:  UNIQUE WELL IDENTIFIER
 API .                     N/A:  API NUMBER
 BASE.              Azerbaijan:  LOGGING EQUIPMENT BASE LOCATION
 REGN.                   EESSA:  REGION
 PROV.                    Baku:  PROVINCE
 STAT.                    Baku:  STATE NAME
 MWDS.                    Baku:  MWD SHOP
 JOBN.        AZ-XX-0906531346:  JOB TICKET NUMB
 RIG .                     DWG:  RIG NAME
 DOE .                     N/A:  DOE NUMBER
 DCON.         Sperry Drilling:  DIRECTNL CONTR
 UNIT.                     N/A:  LOGGING EQUIPMENT ID
 CNTY.                        :  COUNTY
 LOC .                        :  LOCATION
 LMF .             Drill Floor:  LOG MEASURED FROM
 TVDS.m                  43.16:  TVDSS CORRECTN
 LATI.deg                40.17:  LATITUDE
 LONG.deg                51.17:  LONGITUDE
 WHNS.m                  -0.12:  WELL HEAD N/S
 WHEW.m                  -5.41:  WELL HEAD E/W
 UTMX.m              514337.95:  UTM X
 UTMY.m             4448627.46:  UTM Y
 DFWL.m                   0.00:  DISTANCE FWL
 DFSL.m                   0.00:  DISTANCE FSL
 SDEP.m                3088.01:  START DEPTH
 TDD .m                5200.01:  TOTAL DEPTH (DRILLER)
 VSDR.deg               244.51:  VERT SEC DIRECT
 GVFD.g                   1.00:  GRAVITY FIELD
 MFLD.nT              50329.80:  MAGNETIC FIELD
 MDIP.deg                59.63:  MAGNETIC DIP
 MDEC.deg                 6.59:  MAGNETIC DECL
 GRDC.deg                 0.09:  GRID CORRECTION
 AZTC.deg                 6.50:  AZM TOTAL CORR
 EPD .m                   0.00:  ELEVATION
 EGL .m                   0.00:  GROUND ELEVATION
 WDMS.m                 176.20:  WD ELEV
 APD .m                  43.16:  DEPTH ABOVE PD
 DEP .m                3084.71:  DEPTH
 AGAP.m                  43.16:  AIR GAP
 VSEW.m                  -5.41:  VERT SEC E/W
 VSNS.m                  -0.12:  VERT SEC N/S
 EKB .m                   0.00:  KB ELEVATION
 EDF .m                  43.16:  DF ELEVATION
 TDL .m                 243.00:  TOTAL DEPTH (LOGGER)
 VSC .                       0:  VS TO CLOSURE
 MAGU.                 1853542:  MAGUTM CHECKSUM
~Parameter Information Block
#MNEM.UNIT       Value        Description
#---------     -----------    ---------------------------
 AV  .mps                 1.91:  Ann Velocity 
 AVMX.mps                 2.52:  Max Ann Veloc 
 AZIF.deg               308.97:  Azm, Final 
 BHAT.        Rotary Steerable:  BHA Type 
 BROT.°/30m               1.00:  Build Rotating 
 BS  .in                  6.50:  Bit Size 
 BSZ .in                  6.50:  Bit Size 
 BTPL.psig              350.00:  Bit Press Loss 
 CABU.                      No:  Customer Abuse 
 CGEO.           Asif Pashayev:  Customer Geo 
 COMM.                     ¤4N:  Run Comments 1 
 TCS .hr                 35.86:  Time Ciculation Ended 
 CV  .mps                 2.31:  Crit Velocity 
 CVMX.mps                 2.31:  Max Crit Veloc 
 DD1 .         Intigam Rahimov:  Direct Drillr 1 
 DDSV.               Geo-Pilot:  DD Service 
 DEFF.%                  92.00:  % Det Eff 
 DLRX.°/30m               1.00:  Dogleg Rot Max 
 DLSO.°/30m               1.00:  Dogleg Oriented 
 DLSX.°/30m               1.42:  Dogleg Str Max 
 DRET.      15.50.00 07-Aug-20:  Drill End Time 
 DRST.      10.40.00 06-Aug-20:  Drill Start Tim 
 DTIM.hr                 21.30:  Time Drilling 
 EDEP.m                5200.01:  End Depth 
 ENG1.            Alan Tuganov:  Engineer 1 
 ENG2.         Almaz Almadatov:  Engineer 2 
 ENG3.     Zammelal Abdullah Sani:  Engineer 3 
 ETIM.      22.42.00 08-Aug-20:  End Time 
 FLOI.gpm               395.00:  Flow In 
 FLON.gpm               350.00:  Flow In Min 
 FLOS.cptm                0.00:  Fluid Loss 
 FLOX.gpm               404.00:  Flow In Max 
 FTRO.       Formation Presure:  FTWD Run Obj 
 HFLO.                      No:  High Flow 
 HPRE.                      No:  High Pressure 
 HTEM.                      No:  High Temp 
 HYDO.m                   1.80:  Hydro Offset 
 IFIN.deg                72.64:  Inc, Final 
 IMAX.deg                73.68:  Inc Max 
 IMIN.deg                72.64:  Inc Min 
 IMND.m                5189.69:  Inc Min Depth 
 IMXD.m                5067.88:  Inc Max Depth 
 JARR.                      No:  Jarring 
 LETM.      15.50.00 07-Aug-20:  Log End Time 
 LOST.hr                     0:  Lost Rig Time 
 LSTM.      10.40.00 06-Aug-20:  Log Start Time 
 MDCL.ppm             36000.00:  Mud Chlorides 
 MDES.     Inversion Oil/Synthetic:  Mud Desc 
 DFD .sg                  1.36:  Mud Density 
 MDMN.sg                  1.36:  Dens Mud Min 
 MDMX.sg                  1.36:  Dens Mud Max 
 MOIL.                      70:  Run Mud Oil % 
 MOWR.                   70:30:  Run Mud OWR 
 MSND.                    0.00:  Run Mud Sand % 
 MSOL.                   17.60:  Run Mud Solids% 
 DFV .spqt               73.00:  Mud Viscosity 
 MWOD.in                  4.75:  MWD Tool OD 
 MWSI.                      No:  Serv Intrp, MWD 
 OTIM.hr                 85.66:  Time Operating 
 PCON.           Look Like New:  Pad Condition 
 PMAX.psia             6250.00:  Press Op, Max 
 PV  .cP                 65.00:  Mud PV 
 RUN .                     900:  Run Number 
 ROPA.m/hr               11.40:  ROP Avg 
 ROPN.m/hr                5.00:  ROP Min 
 ROPX.m/hr               20.00:  ROP Max 
 RPMA.rpm               130.00:  RPM Surface Avg 
 RPMN.rpm                40.00:  RPM Surface Min 
 RPMX.rpm               140.00:  RPM Surface Max 
 RRUN.                    L205:  Rig Run Number 
 RTIM.hr                  1.00:  Time Reaming 
 SAZI.deg               313.52:  Azm, Start 
 SDEP.m                4957.01:  Start Depth 
 SIDD.                      No:  Serv Intrp, DD 
 SINC.deg                73.16:  Inc, Start 
 SPPA.psig             5657.00:  SPP Avg 
 SPPN.psig             2500.00:  SPP Min 
 SPPX.psig             5806.00:  SPP Max 
 STIM.      07.12.00 05-Aug-20:  Start Time 
 SVCS.                 DD, MWD:  Services 
 SVER.                    9.20:  Sperry Version 
 TDAT.m                 243.00:  Tot Depth Attmp 
 TDDF.                      No:  Trip for DD 
 TDLG.m                 243.00:  Tot Depth Loggd 
 TFF .                      No:  Trip for Fail 
 TQAA.f-kp               13.00:  Torque Abs Avg 
 TQAN.f-kp               11.00:  Torque Abs Min 
 TQAX.f-kp               16.00:  Torque Abs Max 
 TRRT.°/30m               1.00:  Turn Rotating 
 MRT .                    HCIM:  Maximum Recorded Temperature 
 TTMX.degC               96.08:  Max Tool Temp 
 VS01.                90515411:  Virtual Str1 SN 
 VS02.                90512716:  Virtual Str2 SN 
 VS03.                90522362:  Virtual Str3 SN 
 VS04.                90619415:  Virtual Str4 SN 
 VS05.                90619414:  Virtual Str5 SN 
 VS06.                90597748:  Virtual Str6 SN 
 WBMN.klb                 2.00:  WOB Min 
 WITN.           Adil Mammadov:  Customer Rep 
 WITN.     Alexander Yadullayev:  Customer Rep 2 
 WOBA.klb                 7.00:  WOB Avg 
 WOBX.klb                23.00:  WOB Max 
 YP  .lhf2               37.00:  Yield Point 
~Curve Information Block
#MNEM.UNIT                 API CODE     Curve Description
#---------               -----------    ---------------------------
 TIME.HHMMSS            00 000 000 000:  GT Time & Date
 GTDEPTH.m              00 000 000 000:  GT Depth
 GTPQH.psia             00 000 000 000:  GT HR Quartz Pressure
 GTTQ.degC              00 000 000 000:  GT Quartz Temperature
 GTTN.NONE              00 000 000 000:  GT Test Number
 GTET.sec               00 000 000 000:  GT Elapsed Test Time
 GTTVD.m                00 000 000 000:  GT True Vertical Depth
#Other Information
#
#WARRANTY: Halliburton will use its best efforts to furnish customers with 
#accurate information and interpretations that are part of, and incident to, the services 
#provided.  However, Halliburton cannot and does not warrant the accuracy 
#or correctness of such information and interpretations.  Under no circumstances should any 
#such information or interpretation be relied upon as the sole basis for any drilling, 
#completion, production, or financial decision or any procedure involving any risk to the 
#safety of any drilling venture, drilling rig or its crew or any other third party.  The 
#Customer has full responsibility for all drilling, completion and production operation.  
#Halliburton makes no representations or warranties, either expressed or 
#implied, including, but not limited to, the implied warranties of merchantability or fitness 
#for a particular purpose, with respect to the services rendered.  In no event will 
#Halliburton be liable for failure to obtain any particular results or for 
#any damages, including, but not limited to, indirect, special or consequential damages, 
#resulting from the use of any information or interpretation provided by Halliburton.
#
~A           TIME           GTDEPTH  GTPQH  GTTQ  GTTN   GTET   GTTVD  
# ...
   12:02:56.447.07-Aug-2020 5127.01 3413.98 87.17 10.00 429.56 2682.86
   12:02:56.647.07-Aug-2020 5127.01 3414.00 87.16 10.00 429.76 2682.86
   12:02:56.848.07-Aug-2020 5127.01 3414.04 87.16 10.00 429.96 2682.86
   12:02:57.048.07-Aug-2020 5127.01 3414.00 87.16 10.00 430.16 2682.86
   12:02:57.248.07-Aug-2020 5127.01 3414.00 87.16 10.00 430.36 2682.86
   12:02:57.448.07-Aug-2020 5127.01 3414.01 87.16 10.00 430.56 2682.86
   12:02:57.648.07-Aug-2020 5127.01 3414.01 87.16 10.00 430.76 2682.86
   12:02:57.848.07-Aug-2020 5127.01 3413.77 87.16 10.00 430.96 2682.86
   12:02:58.048.07-Aug-2020 5127.01 3414.18 87.16 10.00 431.16 2682.86
   12:02:58.248.07-Aug-2020 5127.01 3414.18 87.16 10.00 431.36 2682.86
   12:02:58.448.07-Aug-2020 5127.01 3413.95 87.16 10.00 431.56 2682.86
   12:02:58.648.07-Aug-2020 5127.01 3414.02 87.16 10.00 431.76 2682.86
   12:02:58.848.07-Aug-2020 5127.01 3414.03 87.16 10.00 431.96 2682.86
   12:02:59.048.07-Aug-2020 5127.01 3413.98 87.16 10.00 432.16 2682.86
   12:02:59.248.07-Aug-2020 5127.01 3413.98 87.16 10.00 432.36 2682.86
   12:02:59.448.07-Aug-2020 5127.01 3414.00 87.16 10.00 432.56 2682.86
   12:02:59.649.07-Aug-2020 5127.01 3414.01 87.16 10.00 432.76 2682.86
   12:02:59.849.07-Aug-2020 5127.01 3414.00 87.16 10.00 432.96 2682.86
   12:03:00.049.07-Aug-2020 5127.01 3414.01 87.16 10.00 433.16 2682.86
   12:03:00.249.07-Aug-2020 5127.01 3414.01 87.16 10.00 433.36 2682.86
   12:03:00.449.07-Aug-2020 5127.01 3414.00 87.16 10.00 433.56 2682.86
   12:03:00.649.07-Aug-2020 5127.01 3413.92 87.16 10.00 433.76 2682.86
   12:03:00.849.07-Aug-2020 5127.01 3414.02 87.16 10.00 433.96 2682.86
   12:03:01.049.07-Aug-2020 5127.01 3414.06 87.16 10.00 434.16 2682.86
   12:03:01.249.07-Aug-2020 5127.01 3414.06 87.16 10.00 434.36 2682.86
   12:03:01.449.07-Aug-2020 5127.01 3414.03 87.16 10.00 434.56 2682.86
   12:03:01.649.07-Aug-2020 5127.01 3414.04 87.16 10.00 434.76 2682.86
   12:03:01.849.07-Aug-2020 5127.01 3413.95 87.16 10.00 434.96 2682.86
   12:03:02.049.07-Aug-2020 5127.01 3414.01 87.16 10.00 435.16 2682.86
   12:03:02.250.07-Aug-2020 5127.01 3414.05 87.16 10.00 435.36 2682.86
   12:03:02.450.07-Aug-2020 5127.01 3414.00 87.16 10.00 435.56 2682.86
   12:03:02.650.07-Aug-2020 5127.01 3413.93 87.15 10.00 435.76 2682.86
   12:03:02.850.07-Aug-2020 5127.01 3414.01 87.15 10.00 435.96 2682.86
   12:03:03.050.07-Aug-2020 5127.01 3414.07 87.15 10.00 436.16 2682.86
   12:03:03.250.07-Aug-2020 5127.01 3414.07 87.15 10.00 436.36 2682.86
   12:03:03.450.07-Aug-2020 5127.01 3414.03 87.15 10.00 436.56 2682.86
   12:03:03.650.07-Aug-2020 5127.01 3413.99 87.15 10.00 436.76 2682.86
   12:03:03.850.07-Aug-2020 5127.01 3414.00 87.15 10.00 436.96 2682.86
   12:03:04.050.07-Aug-2020 5127.01 3413.99 87.15 10.00 437.16 2682.86
   12:03:04.250.07-Aug-2020 5127.01 3413.99 87.15 10.00 437.36 2682.86
   12:03:04.450.07-Aug-2020 5127.01 3413.99 87.15 10.00 437.56 2682.86
   12:03:04.650.07-Aug-2020 5127.01 3414.02 87.15 10.00 437.76 2682.86
   12:03:04.851.07-Aug-2020 5127.01 3414.00 87.15 10.00 437.96 2682.86
   12:03:05.051.07-Aug-2020 5127.01 3414.00 87.15 10.00 438.16 2682.86
   12:03:05.251.07-Aug-2020 5127.01 3414.00 87.15 10.00 438.36 2682.86
   12:03:05.451.07-Aug-2020 5127.01 3414.00 87.15 10.00 438.56 2682.86
   12:03:05.651.07-Aug-2020 5127.01 3414.01 87.15 10.00 438.76 2682.86
   12:03:05.851.07-Aug-2020 5127.01 3414.00 87.15 10.00 438.96 2682.86
   12:03:06.051.07-Aug-2020 5127.01 3413.98 87.15 10.00 439.16 2682.86
   12:03:06.251.07-Aug-2020 5127.01 3414.00 87.15 10.00 439.36 2682.86
   12:03:06.451.07-Aug-2020 5127.01 3413.76 87.15 10.00 439.57 2682.86
   12:03:06.651.07-Aug-2020 5127.01 3414.20 87.15 10.00 439.77 2682.86
   12:03:06.851.07-Aug-2020 5127.01 3418.28 87.15 10.00 439.97 2682.86
   12:03:07.051.07-Aug-2020 5127.01 3433.65 87.15 10.00 440.17 2682.86
   12:03:07.251.07-Aug-2020 5127.01 3433.65 87.15 10.00 440.37 2682.86
   12:03:07.451.07-Aug-2020 5127.01 5896.37 87.15 10.00 440.57 2682.86
   12:03:07.652.07-Aug-2020 5127.01 5895.31 87.15 10.00 440.77 2682.86
   12:03:07.852.07-Aug-2020 5127.01 5894.05 87.15 10.00 440.97 2682.86
   12:03:08.052.07-Aug-2020 5127.01 5896.27 87.15 10.00 441.17 2682.86
   12:03:08.252.07-Aug-2020 5127.01 5896.27 87.15 10.00 441.37 2682.86
   12:03:08.452.07-Aug-2020 5127.01 5897.05 87.15 10.00 441.57 2682.86
   12:03:08.652.07-Aug-2020 5127.01 5897.83 87.15 10.00 441.77 2682.86
   12:03:08.852.07-Aug-2020 5127.01 5898.64 87.15 10.00 441.97 2682.86
   12:03:09.052.07-Aug-2020 5127.01 5898.43 87.15 10.00 442.17 2682.86
   12:03:09.252.07-Aug-2020 5127.01 5898.43 87.15 10.00 442.37 2682.86
   12:03:09.452.07-Aug-2020 5127.01 5900.52 87.15 10.00 442.57 2682.86
   12:03:09.652.07-Aug-2020 5127.01 5903.00 87.15 10.00 442.77 2682.86
   12:03:09.852.07-Aug-2020 5127.01 5893.61 87.15 10.00 442.97 2682.86
   12:03:10.052.07-Aug-2020 5127.01 5892.51 87.15 10.00 443.17 2682.86
   12:03:10.253.07-Aug-2020 5127.01 5902.18 87.15 10.00 443.37 2682.86
   12:03:10.453.07-Aug-2020 5127.01 5899.71 87.15 10.00 443.57 2682.86
   12:03:10.653.07-Aug-2020 5127.01 5897.85 87.15 10.00 443.77 2682.86
   12:03:10.853.07-Aug-2020 5127.01 5901.83 87.15 10.00 443.97 2682.86
   12:03:11.053.07-Aug-2020 5127.01 5904.10 87.15 10.00 444.17 2682.86
   12:03:11.253.07-Aug-2020 5127.01 5904.10 87.15 10.00 444.37 2682.86
   12:03:11.453.07-Aug-2020 5127.01 5903.81 87.15 10.00 444.57 2682.86
   12:03:11.653.07-Aug-2020 5127.01 5906.32 87.15 10.00 444.77 2682.86
   12:03:11.853.07-Aug-2020 5127.01 5897.58 87.15 10.00 444.97 2682.86
   12:03:12.053.07-Aug-2020 5127.01 5902.01 87.15 10.00 445.17 2682.86
   12:03:12.253.07-Aug-2020 5127.01 5902.01 87.15 10.00 445.37 2682.86
   12:03:12.453.07-Aug-2020 5127.01 5894.70 87.15 10.00 445.57 2682.86
   12:03:12.653.07-Aug-2020 5127.01 5902.96 87.15 10.00 445.77 2682.86
   12:03:12.854.07-Aug-2020 5127.01 5904.10 87.15 10.00 445.97 2682.86
   12:03:13.054.07-Aug-2020 5127.01 5899.91 87.15 10.00 446.17 2682.86
   12:03:13.254.07-Aug-2020 5127.01 5899.91 87.15 10.00 446.37 2682.86
   12:03:13.454.07-Aug-2020 5127.01 5904.91 87.15 10.00 446.57 2682.86
   12:03:13.654.07-Aug-2020 5127.01 5903.04 87.15 10.00 446.77 2682.86
   12:03:13.854.07-Aug-2020 5127.01 5903.39 87.15 10.00 446.97 2682.86
   12:03:14.054.07-Aug-2020 5127.01 5904.17 87.15 10.00 447.17 2682.86
   12:03:14.254.07-Aug-2020 5127.01 5904.10 87.15 10.00 447.37 2682.86
   12:03:14.454.07-Aug-2020 5127.01 5904.70 87.15 10.00 447.57 2682.86
   12:03:14.654.07-Aug-2020 5127.01 5903.68 87.15 10.00 447.77 2682.86
   12:03:14.854.07-Aug-2020 5127.01 5904.15 87.15 10.00 447.97 2682.86
   12:03:15.054.07-Aug-2020 5127.01 5894.14 87.15 10.00 448.17 2682.86
   12:03:15.254.07-Aug-2020 5127.01 5894.14 87.15 10.00 448.37 2682.86
   12:03:15.454.07-Aug-2020 5127.01 5906.38 87.15 10.00 448.57 2682.86
   12:03:15.655.07-Aug-2020 5127.01 5898.73 87.15 10.00 448.77 2682.86
   12:03:15.855.07-Aug-2020 5127.01 5901.92 87.15 10.00 448.97 2682.86
   12:03:16.055.07-Aug-2020 5127.01 5904.92 87.15 10.00 449.17 2682.86
   12:03:16.255.07-Aug-2020 5127.01 5904.92 87.15 10.00 449.37 2682.86
   12:03:16.455.07-Aug-2020 5127.01 5902.73 87.15 10.00 449.57 2682.86
   12:03:16.655.07-Aug-2020 5127.01 5902.83 87.15 10.00 449.77 2682.86
   12:03:16.855.07-Aug-2020 5127.01 5903.75 87.15 10.00 449.97 2682.86
   12:03:17.055.07-Aug-2020 5127.01 5902.20 87.15 10.00 450.17 2682.86
   12:03:17.255.07-Aug-2020 5127.01 5902.20 87.15 10.00 450.37 2682.86
   12:03:17.455.07-Aug-2020 5127.01 5902.56 87.15 10.00 450.57 2682.86
   12:03:17.655.07-Aug-2020 5127.01 5902.78 87.15 10.00 450.77 2682.86
   12:03:17.855.07-Aug-2020 5127.01 5898.74 87.15 10.00 450.97 2682.86
   12:03:18.055.07-Aug-2020 5127.01 5899.02 87.15 10.00 451.17 2682.86
   12:03:18.256.07-Aug-2020 5127.01 5899.02 87.15 10.00 451.37 2682.86
   12:03:18.456.07-Aug-2020 5127.01 5900.98 87.15 10.00 451.57 2682.86
   12:03:18.656.07-Aug-2020 5127.01 5890.60 87.15 10.00 451.77 2682.86
   12:03:18.856.07-Aug-2020 5127.01 5903.16 87.15 10.00 451.97 2682.86
