~Version Information
 VERS.                  2.0:   CWLS log ASCII Standard -VERSION 2.0
 WRAP.                   NO:   One line per depth step
~Well Information Block
#MNEM.UNIT     VALUE/NAME     DESCRIPTION
#---------     -----------    ---------------------------
 STRT.S             20:19:41 06-Aug-20: START TIME 20:19:41 06-Aug-20
 STOP.S             20:27:33 06-Aug-20: STOP TIME  20:27:33 06-Aug-20
 STEP.S                   0.00: STEP TIME
 NULL.                 -999.25: NULL VALUE
 DFWT.                        :  DIST FWL TEXT
 DFST.                        :  DIST FSL TEXT
 DMF .             Drill Floor:  DRILL MEAS FROM
 STIM.      12.00.00 03-Jul-20:  START TIME
 DATE.      00.50.00 09-Aug-20:  END TIME
 SPUD.               03-Jul-20:  SPUD DATE
 NREF.                    Grid:  NORTH REFERENCE
 HPTY.       Minimum Curvature:  HOLE POS TYPE
 DMOD.             Drill Model:  DRILL MOD DESC
 SVYD.                  Survey:  SURVEY DESC
 ILTD.               Lithology:  INTERP LTH DESC
 FTOP.          Formation Tops:  FORM TOPS DESC
 PDAT.          Mean Sea Level:  PERMANENT DATUM
 FLD .                     ACG:  FIELD NAME
 CTRY.              Azerbaijan:  COUNTRY NAME
 WELL.                    E04x:  WELL NAME
 SRVC.          Turan Drilling:  CONTRACTOR
 COMP.     BP Exploration (Caspian Sea) Ltd.:  COMPANY
 SON .        AZ-XX-0906531346:  JOB NUMBER
 WTYP.                Deviated:  WELL TYPE
 MDS .        Operator Entered:  MAG DATA SOURCE
 UWI .                     N/A:  UNIQUE WELL IDENTIFIER
 API .                     N/A:  API NUMBER
 BASE.              Azerbaijan:  LOGGING EQUIPMENT BASE LOCATION
 REGN.                   EESSA:  REGION
 PROV.                    Baku:  PROVINCE
 STAT.                    Baku:  STATE NAME
 MWDS.                    Baku:  MWD SHOP
 JOBN.        AZ-XX-0906531346:  JOB TICKET NUMB
 RIG .                     DWG:  RIG NAME
 DOE .                     N/A:  DOE NUMBER
 DCON.         Sperry Drilling:  DIRECTNL CONTR
 UNIT.                     N/A:  LOGGING EQUIPMENT ID
 CNTY.                        :  COUNTY
 LOC .                        :  LOCATION
 LMF .             Drill Floor:  LOG MEASURED FROM
 TVDS.m                  43.16:  TVDSS CORRECTN
 LATI.deg                40.17:  LATITUDE
 LONG.deg                51.17:  LONGITUDE
 WHNS.m                  -0.12:  WELL HEAD N/S
 WHEW.m                  -5.41:  WELL HEAD E/W
 UTMX.m              514337.95:  UTM X
 UTMY.m             4448627.46:  UTM Y
 DFWL.m                   0.00:  DISTANCE FWL
 DFSL.m                   0.00:  DISTANCE FSL
 SDEP.m                3088.01:  START DEPTH
 TDD .m                5200.01:  TOTAL DEPTH (DRILLER)
 VSDR.deg               244.51:  VERT SEC DIRECT
 GVFD.g                   1.00:  GRAVITY FIELD
 MFLD.nT              50329.80:  MAGNETIC FIELD
 MDIP.deg                59.63:  MAGNETIC DIP
 MDEC.deg                 6.59:  MAGNETIC DECL
 GRDC.deg                 0.09:  GRID CORRECTION
 AZTC.deg                 6.50:  AZM TOTAL CORR
 EPD .m                   0.00:  ELEVATION
 EGL .m                   0.00:  GROUND ELEVATION
 WDMS.m                 176.20:  WD ELEV
 APD .m                  43.16:  DEPTH ABOVE PD
 DEP .m                3084.71:  DEPTH
 AGAP.m                  43.16:  AIR GAP
 VSEW.m                  -5.41:  VERT SEC E/W
 VSNS.m                  -0.12:  VERT SEC N/S
 EKB .m                   0.00:  KB ELEVATION
 EDF .m                  43.16:  DF ELEVATION
 TDL .m                 243.00:  TOTAL DEPTH (LOGGER)
 VSC .                       0:  VS TO CLOSURE
 MAGU.                 1853542:  MAGUTM CHECKSUM
~Parameter Information Block
#MNEM.UNIT       Value        Description
#---------     -----------    ---------------------------
 AV  .mps                 1.91:  Ann Velocity 
 AVMX.mps                 2.52:  Max Ann Veloc 
 AZIF.deg               308.97:  Azm, Final 
 BHAT.        Rotary Steerable:  BHA Type 
 BROT.°/30m               1.00:  Build Rotating 
 BS  .in                  6.50:  Bit Size 
 BSZ .in                  6.50:  Bit Size 
 BTPL.psig              350.00:  Bit Press Loss 
 CABU.                      No:  Customer Abuse 
 CGEO.           Asif Pashayev:  Customer Geo 
 COMM.                     4è‹:  Run Comments 1 
 TCS .hr                 35.86:  Time Ciculation Ended 
 CV  .mps                 2.31:  Crit Velocity 
 CVMX.mps                 2.31:  Max Crit Veloc 
 DD1 .         Intigam Rahimov:  Direct Drillr 1 
 DDSV.               Geo-Pilot:  DD Service 
 DEFF.%                  92.00:  % Det Eff 
 DLRX.°/30m               1.00:  Dogleg Rot Max 
 DLSO.°/30m               1.00:  Dogleg Oriented 
 DLSX.°/30m               1.42:  Dogleg Str Max 
 DRET.      15.50.00 07-Aug-20:  Drill End Time 
 DRST.      10.40.00 06-Aug-20:  Drill Start Tim 
 DTIM.hr                 21.30:  Time Drilling 
 EDEP.m                5200.01:  End Depth 
 ENG1.            Alan Tuganov:  Engineer 1 
 ENG2.         Almaz Almadatov:  Engineer 2 
 ENG3.     Zammelal Abdullah Sani:  Engineer 3 
 ETIM.      22.42.00 08-Aug-20:  End Time 
 FLOI.gpm               395.00:  Flow In 
 FLON.gpm               350.00:  Flow In Min 
 FLOS.cptm                0.00:  Fluid Loss 
 FLOX.gpm               404.00:  Flow In Max 
 FTRO.       Formation Presure:  FTWD Run Obj 
 HFLO.                      No:  High Flow 
 HPRE.                      No:  High Pressure 
 HTEM.                      No:  High Temp 
 HYDO.m                   1.80:  Hydro Offset 
 IFIN.deg                72.64:  Inc, Final 
 IMAX.deg                73.68:  Inc Max 
 IMIN.deg                72.64:  Inc Min 
 IMND.m                5189.69:  Inc Min Depth 
 IMXD.m                5067.88:  Inc Max Depth 
 JARR.                      No:  Jarring 
 LETM.      15.50.00 07-Aug-20:  Log End Time 
 LOST.hr                     0:  Lost Rig Time 
 LSTM.      10.40.00 06-Aug-20:  Log Start Time 
 MDCL.ppm             36000.00:  Mud Chlorides 
 MDES.     Inversion Oil/Synthetic:  Mud Desc 
 DFD .sg                  1.36:  Mud Density 
 MDMN.sg                  1.36:  Dens Mud Min 
 MDMX.sg                  1.36:  Dens Mud Max 
 MOIL.                      70:  Run Mud Oil % 
 MOWR.                   70:30:  Run Mud OWR 
 MSND.                    0.00:  Run Mud Sand % 
 MSOL.                   17.60:  Run Mud Solids% 
 DFV .spqt               73.00:  Mud Viscosity 
 MWOD.in                  4.75:  MWD Tool OD 
 MWSI.                      No:  Serv Intrp, MWD 
 OTIM.hr                 85.66:  Time Operating 
 PCON.           Look Like New:  Pad Condition 
 PMAX.psia             6250.00:  Press Op, Max 
 PV  .cP                 65.00:  Mud PV 
 RUN .                     900:  Run Number 
 ROPA.m/hr               11.40:  ROP Avg 
 ROPN.m/hr                5.00:  ROP Min 
 ROPX.m/hr               20.00:  ROP Max 
 RPMA.rpm               130.00:  RPM Surface Avg 
 RPMN.rpm                40.00:  RPM Surface Min 
 RPMX.rpm               140.00:  RPM Surface Max 
 RRUN.                    L205:  Rig Run Number 
 RTIM.hr                  1.00:  Time Reaming 
 SAZI.deg               313.52:  Azm, Start 
 SDEP.m                4957.01:  Start Depth 
 SIDD.                      No:  Serv Intrp, DD 
 SINC.deg                73.16:  Inc, Start 
 SPPA.psig             5657.00:  SPP Avg 
 SPPN.psig             2500.00:  SPP Min 
 SPPX.psig             5806.00:  SPP Max 
 STIM.      07.12.00 05-Aug-20:  Start Time 
 SVCS.                 DD, MWD:  Services 
 SVER.                    9.20:  Sperry Version 
 TDAT.m                 243.00:  Tot Depth Attmp 
 TDDF.                      No:  Trip for DD 
 TDLG.m                 243.00:  Tot Depth Loggd 
 TFF .                      No:  Trip for Fail 
 TQAA.f-kp               13.00:  Torque Abs Avg 
 TQAN.f-kp               11.00:  Torque Abs Min 
 TQAX.f-kp               16.00:  Torque Abs Max 
 TRRT.°/30m               1.00:  Turn Rotating 
 MRT .                    HCIM:  Maximum Recorded Temperature 
 TTMX.degC               96.08:  Max Tool Temp 
 VS01.                90515411:  Virtual Str1 SN 
 VS02.                90512716:  Virtual Str2 SN 
 VS03.                90522362:  Virtual Str3 SN 
 VS04.                90619415:  Virtual Str4 SN 
 VS05.                90619414:  Virtual Str5 SN 
 VS06.                90597748:  Virtual Str6 SN 
 WBMN.klb                 2.00:  WOB Min 
 WITN.           Adil Mammadov:  Customer Rep 
 WITN.     Alexander Yadullayev:  Customer Rep 2 
 WOBA.klb                 7.00:  WOB Avg 
 WOBX.klb                23.00:  WOB Max 
 YP  .lhf2               37.00:  Yield Point 
~Curve Information Block
#MNEM.UNIT                 API CODE     Curve Description
#---------               -----------    ---------------------------
 TIME.HHMMSS            00 000 000 000:  GT Time & Date
 GTDEPTH.m              00 000 000 000:  GT Depth
 GTPQH.psia             00 000 000 000:  GT HR Quartz Pressure
 GTTQ.degC              00 000 000 000:  GT Quartz Temperature
 GTTN.NONE              00 000 000 000:  GT Test Number
 GTET.sec               00 000 000 000:  GT Elapsed Test Time
 GTTVD.m                00 000 000 000:  GT True Vertical Depth
#Other Information
#
#WARRANTY: Halliburton will use its best efforts to furnish customers with 
#accurate information and interpretations that are part of, and incident to, the services 
#provided.  However, Halliburton cannot and does not warrant the accuracy 
#or correctness of such information and interpretations.  Under no circumstances should any 
#such information or interpretation be relied upon as the sole basis for any drilling, 
#completion, production, or financial decision or any procedure involving any risk to the 
#safety of any drilling venture, drilling rig or its crew or any other third party.  The 
#Customer has full responsibility for all drilling, completion and production operation.  
#Halliburton makes no representations or warranties, either expressed or 
#implied, including, but not limited to, the implied warranties of merchantability or fitness 
#for a particular purpose, with respect to the services rendered.  In no event will 
#Halliburton be liable for failure to obtain any particular results or for 
#any damages, including, but not limited to, indirect, special or consequential damages, 
#resulting from the use of any information or interpretation provided by Halliburton.
#
~A           TIME           GTDEPTH  GTPQH  GTTQ  GTTN  GTET   GTTVD  
# ...
   20:23:08.425.06-Aug-2020 4993.01 3486.95 82.79 3.00 207.08 2644.18
   20:23:08.626.06-Aug-2020 4993.01 3486.95 82.79 3.00 207.28 2644.18
   20:23:08.826.06-Aug-2020 4993.01 3487.01 82.79 3.00 207.48 2644.18
   20:23:09.026.06-Aug-2020 4993.01 3486.93 82.79 3.00 207.68 2644.18
   20:23:09.226.06-Aug-2020 4993.01 3487.09 82.79 3.00 207.88 2644.18
   20:23:09.426.06-Aug-2020 4993.01 3486.95 82.79 3.00 208.08 2644.18
   20:23:09.626.06-Aug-2020 4993.01 3486.95 82.79 3.00 208.28 2644.18
   20:23:09.826.06-Aug-2020 4993.01 3486.99 82.79 3.00 208.48 2644.18
   20:23:10.026.06-Aug-2020 4993.01 3487.01 82.79 3.00 208.68 2644.18
   20:23:10.226.06-Aug-2020 4993.01 3486.98 82.79 3.00 208.88 2644.18
   20:23:10.426.06-Aug-2020 4993.01 3487.02 82.79 3.00 209.08 2644.18
   20:23:10.626.06-Aug-2020 4993.01 3487.02 82.79 3.00 209.28 2644.18
   20:23:10.826.06-Aug-2020 4993.01 3487.01 82.79 3.00 209.48 2644.18
   20:23:11.026.06-Aug-2020 4993.01 3486.97 82.79 3.00 209.68 2644.18
   20:23:11.227.06-Aug-2020 4993.01 3487.01 82.78 3.00 209.88 2644.18
   20:23:11.427.06-Aug-2020 4993.01 3486.84 82.78 3.00 210.08 2644.18
   20:23:11.627.06-Aug-2020 4993.01 3486.84 82.78 3.00 210.28 2644.18
   20:23:11.827.06-Aug-2020 4993.01 3486.92 82.78 3.00 210.48 2644.18
   20:23:12.027.06-Aug-2020 4993.01 3486.99 82.78 3.00 210.68 2644.18
   20:23:12.227.06-Aug-2020 4993.01 3487.01 82.78 3.00 210.88 2644.18
   20:23:12.427.06-Aug-2020 4993.01 3486.98 82.78 3.00 211.08 2644.18
   20:23:12.627.06-Aug-2020 4993.01 3486.98 82.78 3.00 211.28 2644.18
   20:23:12.827.06-Aug-2020 4993.01 3486.98 82.78 3.00 211.48 2644.18
   20:23:13.027.06-Aug-2020 4993.01 3486.97 82.78 3.00 211.68 2644.18
   20:23:13.227.06-Aug-2020 4993.01 3486.97 82.78 3.00 211.88 2644.18
   20:23:13.427.06-Aug-2020 4993.01 3486.98 82.78 3.00 212.08 2644.18
   20:23:13.627.06-Aug-2020 4993.01 3486.98 82.78 3.00 212.28 2644.18
   20:23:13.828.06-Aug-2020 4993.01 3486.97 82.78 3.00 212.48 2644.18
   20:23:14.028.06-Aug-2020 4993.01 3486.95 82.78 3.00 212.68 2644.18
   20:23:14.228.06-Aug-2020 4993.01 3486.80 82.78 3.00 212.88 2644.18
   20:23:14.428.06-Aug-2020 4993.01 3487.02 82.78 3.00 213.08 2644.18
   20:23:14.628.06-Aug-2020 4993.01 3487.02 82.78 3.00 213.28 2644.18
   20:23:14.828.06-Aug-2020 4993.01 3486.95 82.78 3.00 213.48 2644.18
   20:23:15.028.06-Aug-2020 4993.01 3487.02 82.78 3.00 213.68 2644.18
   20:23:15.228.06-Aug-2020 4993.01 3486.92 82.78 3.00 213.88 2644.18
   20:23:15.428.06-Aug-2020 4993.01 3487.01 82.78 3.00 214.08 2644.18
   20:23:15.628.06-Aug-2020 4993.01 3487.01 82.78 3.00 214.28 2644.18
   20:23:15.828.06-Aug-2020 4993.01 3487.07 82.77 3.00 214.48 2644.18
   20:23:16.028.06-Aug-2020 4993.01 3486.97 82.77 3.00 214.68 2644.18
   20:23:16.228.06-Aug-2020 4993.01 3486.92 82.77 3.00 214.88 2644.18
   20:23:16.429.06-Aug-2020 4993.01 3487.03 82.77 3.00 215.08 2644.18
   20:23:16.629.06-Aug-2020 4993.01 3487.03 82.77 3.00 215.28 2644.18
   20:23:16.829.06-Aug-2020 4993.01 3487.02 82.77 3.00 215.48 2644.18
   20:23:17.029.06-Aug-2020 4993.01 3486.89 82.77 3.00 215.68 2644.18
   20:23:17.229.06-Aug-2020 4993.01 3487.07 82.77 3.00 215.88 2644.18
   20:23:17.429.06-Aug-2020 4993.01 3486.93 82.77 3.00 216.08 2644.18
   20:23:17.629.06-Aug-2020 4993.01 3486.93 82.77 3.00 216.28 2644.18
   20:23:17.829.06-Aug-2020 4993.01 3487.02 82.77 3.00 216.48 2644.18
   20:23:18.029.06-Aug-2020 4993.01 3486.99 82.77 3.00 216.68 2644.18
   20:23:18.229.06-Aug-2020 4993.01 3486.99 82.77 3.00 216.88 2644.18
   20:23:18.429.06-Aug-2020 4993.01 3487.00 82.77 3.00 217.08 2644.18
   20:23:18.629.06-Aug-2020 4993.01 3487.00 82.77 3.00 217.28 2644.18
   20:23:18.829.06-Aug-2020 4993.01 3486.99 82.77 3.00 217.48 2644.18
   20:23:19.030.06-Aug-2020 4993.01 3486.97 82.77 3.00 217.68 2644.18
   20:23:19.230.06-Aug-2020 4993.01 3486.99 82.77 3.00 217.88 2644.18
   20:23:19.430.06-Aug-2020 4993.01 3486.95 82.77 3.00 218.08 2644.18
   20:23:19.630.06-Aug-2020 4993.01 3486.95 82.77 3.00 218.28 2644.18
   20:23:19.830.06-Aug-2020 4993.01 3486.74 82.77 3.00 218.48 2644.18
   20:23:20.030.06-Aug-2020 4993.01 3487.07 82.76 3.00 218.68 2644.18
   20:23:20.230.06-Aug-2020 4993.01 3487.03 82.76 3.00 218.88 2644.18
   20:23:20.430.06-Aug-2020 4993.01 3486.99 82.76 3.00 219.08 2644.18
   20:23:20.630.06-Aug-2020 4993.01 3486.99 82.76 3.00 219.28 2644.18
   20:23:20.830.06-Aug-2020 4993.01 3487.00 82.76 3.00 219.48 2644.18
   20:23:21.030.06-Aug-2020 4993.01 3486.95 82.76 3.00 219.68 2644.18
   20:23:21.230.06-Aug-2020 4993.01 3486.99 82.76 3.00 219.88 2644.18
   20:23:21.430.06-Aug-2020 4993.01 3486.96 82.76 3.00 220.08 2644.18
   20:23:21.630.06-Aug-2020 4993.01 3486.96 82.76 3.00 220.28 2644.18
   20:23:21.831.06-Aug-2020 4993.01 3486.95 82.76 3.00 220.48 2644.18
   20:23:22.031.06-Aug-2020 4993.01 3486.98 82.76 3.00 220.68 2644.18
   20:23:22.231.06-Aug-2020 4993.01 3486.95 82.76 3.00 220.88 2644.18
   20:23:22.431.06-Aug-2020 4993.01 3486.92 82.76 3.00 221.08 2644.18
   20:23:22.631.06-Aug-2020 4993.01 3486.92 82.76 3.00 221.28 2644.18
   20:23:22.831.06-Aug-2020 4993.01 3486.91 82.76 3.00 221.48 2644.18
   20:23:23.031.06-Aug-2020 4993.01 3487.04 82.76 3.00 221.68 2644.18
   20:23:23.231.06-Aug-2020 4993.01 3486.96 82.76 3.00 221.88 2644.18
   20:23:23.431.06-Aug-2020 4993.01 3486.97 82.76 3.00 222.08 2644.18
   20:23:23.631.06-Aug-2020 4993.01 3486.97 82.76 3.00 222.29 2644.18
   20:23:23.831.06-Aug-2020 4993.01 3487.13 82.76 3.00 222.49 2644.18
   20:23:24.031.06-Aug-2020 4993.01 3486.90 82.76 3.00 222.69 2644.18
   20:23:24.231.06-Aug-2020 4993.01 3487.01 82.76 3.00 222.89 2644.18
   20:23:24.432.06-Aug-2020 4993.01 3486.98 82.75 3.00 223.09 2644.18
   20:23:24.632.06-Aug-2020 4993.01 3486.98 82.75 3.00 223.29 2644.18
   20:23:24.832.06-Aug-2020 4993.01 3487.09 82.75 3.00 223.49 2644.18
   20:23:25.032.06-Aug-2020 4993.01 3486.96 82.75 3.00 223.69 2644.18
   20:23:25.232.06-Aug-2020 4993.01 3486.94 82.75 3.00 223.89 2644.18
   20:23:25.432.06-Aug-2020 4993.01 3486.85 82.75 3.00 224.09 2644.18
   20:23:25.632.06-Aug-2020 4993.01 3486.85 82.75 3.00 224.29 2644.18
   20:23:25.832.06-Aug-2020 4993.01 3487.04 82.75 3.00 224.49 2644.18
   20:23:26.032.06-Aug-2020 4993.01 3486.95 82.75 3.00 224.69 2644.18
   20:23:26.232.06-Aug-2020 4993.01 3487.04 82.75 3.00 224.89 2644.18
   20:23:26.432.06-Aug-2020 4993.01 3486.98 82.75 3.00 225.09 2644.18
   20:23:26.632.06-Aug-2020 4993.01 3486.98 82.75 3.00 225.29 2644.18
   20:23:26.832.06-Aug-2020 4993.01 3486.98 82.75 3.00 225.49 2644.18
   20:23:27.033.06-Aug-2020 4993.01 3486.98 82.75 3.00 225.69 2644.18
   20:23:27.233.06-Aug-2020 4993.01 3486.97 82.75 3.00 225.89 2644.18
   20:23:27.433.06-Aug-2020 4993.01 3486.98 82.75 3.00 226.09 2644.18
   20:23:27.633.06-Aug-2020 4993.01 3486.98 82.75 3.00 226.29 2644.18
   20:23:27.833.06-Aug-2020 4993.01 3486.97 82.75 3.00 226.49 2644.18
   20:23:28.033.06-Aug-2020 4993.01 3486.93 82.75 3.00 226.69 2644.18
   20:23:28.233.06-Aug-2020 4993.01 3486.98 82.75 3.00 226.89 2644.18
   20:23:28.433.06-Aug-2020 4993.01 3486.92 82.75 3.00 227.09 2644.18
   20:23:28.633.06-Aug-2020 4993.01 3486.92 82.75 3.00 227.29 2644.18
   20:23:28.833.06-Aug-2020 4993.01 3486.98 82.74 3.00 227.49 2644.18
   20:23:29.033.06-Aug-2020 4993.01 3486.95 82.74 3.00 227.69 2644.18
   20:23:29.233.06-Aug-2020 4993.01 3487.01 82.74 3.00 227.89 2644.18
   20:23:29.433.06-Aug-2020 4993.01 3486.95 82.74 3.00 228.09 2644.18
   20:23:29.634.06-Aug-2020 4993.01 3486.95 82.74 3.00 228.29 2644.18
   20:23:29.834.06-Aug-2020 4993.01 3486.96 82.74 3.00 228.49 2644.18
   20:23:30.034.06-Aug-2020 4993.01 3486.99 82.74 3.00 228.69 2644.18
   20:23:30.234.06-Aug-2020 4993.01 3486.93 82.74 3.00 228.89 2644.18
   20:23:30.434.06-Aug-2020 4993.01 3486.98 82.74 3.00 229.09 2644.18
   20:23:30.634.06-Aug-2020 4993.01 3486.98 82.74 3.00 229.29 2644.18
   20:23:30.834.06-Aug-2020 4993.01 3486.84 82.74 3.00 229.49 2644.18
   20:23:31.034.06-Aug-2020 4993.01 3487.09 82.74 3.00 229.69 2644.18
   20:23:31.234.06-Aug-2020 4993.01 3486.91 82.74 3.00 229.89 2644.18
