~Version Information
 VERS.                  2.0:   CWLS log ASCII Standard -VERSION 2.0
 WRAP.                   NO:   One line per depth step
~Well Information Block
#MNEM.UNIT     VALUE/NAME     DESCRIPTION
#---------     -----------    ---------------------------
 STRT.S             16:10:03 06-Aug-20: START TIME 16:10:03 06-Aug-20
 STOP.S             16:17:57 06-Aug-20: STOP TIME  16:17:57 06-Aug-20
 STEP.S                   0.00: STEP TIME
 NULL.                 -999.25: NULL VALUE
 DFWT.                        :  DIST FWL TEXT
 DFST.                        :  DIST FSL TEXT
 DMF .             Drill Floor:  DRILL MEAS FROM
 STIM.      12.00.00 03-Jul-20:  START TIME
 DATE.      00.50.00 09-Aug-20:  END TIME
 SPUD.               03-Jul-20:  SPUD DATE
 NREF.                    Grid:  NORTH REFERENCE
 HPTY.       Minimum Curvature:  HOLE POS TYPE
 DMOD.             Drill Model:  DRILL MOD DESC
 SVYD.                  Survey:  SURVEY DESC
 ILTD.               Lithology:  INTERP LTH DESC
 FTOP.          Formation Tops:  FORM TOPS DESC
 PDAT.          Mean Sea Level:  PERMANENT DATUM
 FLD .                     ACG:  FIELD NAME
 CTRY.              Azerbaijan:  COUNTRY NAME
 WELL.                    E04x:  WELL NAME
 SRVC.          Turan Drilling:  CONTRACTOR
 COMP.     BP Exploration (Caspian Sea) Ltd.:  COMPANY
 SON .        AZ-XX-0906531346:  JOB NUMBER
 WTYP.                Deviated:  WELL TYPE
 MDS .        Operator Entered:  MAG DATA SOURCE
 UWI .                     N/A:  UNIQUE WELL IDENTIFIER
 API .                     N/A:  API NUMBER
 BASE.              Azerbaijan:  LOGGING EQUIPMENT BASE LOCATION
 REGN.                   EESSA:  REGION
 PROV.                    Baku:  PROVINCE
 STAT.                    Baku:  STATE NAME
 MWDS.                    Baku:  MWD SHOP
 JOBN.        AZ-XX-0906531346:  JOB TICKET NUMB
 RIG .                     DWG:  RIG NAME
 DOE .                     N/A:  DOE NUMBER
 DCON.         Sperry Drilling:  DIRECTNL CONTR
 UNIT.                     N/A:  LOGGING EQUIPMENT ID
 CNTY.                        :  COUNTY
 LOC .                        :  LOCATION
 LMF .             Drill Floor:  LOG MEASURED FROM
 TVDS.m                  43.16:  TVDSS CORRECTN
 LATI.deg                40.17:  LATITUDE
 LONG.deg                51.17:  LONGITUDE
 WHNS.m                  -0.12:  WELL HEAD N/S
 WHEW.m                  -5.41:  WELL HEAD E/W
 UTMX.m              514337.95:  UTM X
 UTMY.m             4448627.46:  UTM Y
 DFWL.m                   0.00:  DISTANCE FWL
 DFSL.m                   0.00:  DISTANCE FSL
 SDEP.m                3088.01:  START DEPTH
 TDD .m                5200.01:  TOTAL DEPTH (DRILLER)
 VSDR.deg               244.51:  VERT SEC DIRECT
 GVFD.g                   1.00:  GRAVITY FIELD
 MFLD.nT              50329.80:  MAGNETIC FIELD
 MDIP.deg                59.63:  MAGNETIC DIP
 MDEC.deg                 6.59:  MAGNETIC DECL
 GRDC.deg                 0.09:  GRID CORRECTION
 AZTC.deg                 6.50:  AZM TOTAL CORR
 EPD .m                   0.00:  ELEVATION
 EGL .m                   0.00:  GROUND ELEVATION
 WDMS.m                 176.20:  WD ELEV
 APD .m                  43.16:  DEPTH ABOVE PD
 DEP .m                3084.71:  DEPTH
 AGAP.m                  43.16:  AIR GAP
 VSEW.m                  -5.41:  VERT SEC E/W
 VSNS.m                  -0.12:  VERT SEC N/S
 EKB .m                   0.00:  KB ELEVATION
 EDF .m                  43.16:  DF ELEVATION
 TDL .m                 243.00:  TOTAL DEPTH (LOGGER)
 VSC .                       0:  VS TO CLOSURE
 MAGU.                 1853542:  MAGUTM CHECKSUM
~Parameter Information Block
#MNEM.UNIT       Value        Description
#---------     -----------    ---------------------------
 AV  .mps                 1.91:  Ann Velocity 
 AVMX.mps                 2.52:  Max Ann Veloc 
 AZIF.deg               308.97:  Azm, Final 
 BHAT.        Rotary Steerable:  BHA Type 
 BROT.°/30m               1.00:  Build Rotating 
 BS  .in                  6.50:  Bit Size 
 BSZ .in                  6.50:  Bit Size 
 BTPL.psig              350.00:  Bit Press Loss 
 CABU.                      No:  Customer Abuse 
 CGEO.           Asif Pashayev:  Customer Geo 
 COMM.                     Ôöj:  Run Comments 1 
 TCS .hr                 35.86:  Time Ciculation Ended 
 CV  .mps                 2.31:  Crit Velocity 
 CVMX.mps                 2.31:  Max Crit Veloc 
 DD1 .         Intigam Rahimov:  Direct Drillr 1 
 DDSV.               Geo-Pilot:  DD Service 
 DEFF.%                  92.00:  % Det Eff 
 DLRX.°/30m               1.00:  Dogleg Rot Max 
 DLSO.°/30m               1.00:  Dogleg Oriented 
 DLSX.°/30m               1.42:  Dogleg Str Max 
 DRET.      15.50.00 07-Aug-20:  Drill End Time 
 DRST.      10.40.00 06-Aug-20:  Drill Start Tim 
 DTIM.hr                 21.30:  Time Drilling 
 EDEP.m                5200.01:  End Depth 
 ENG1.            Alan Tuganov:  Engineer 1 
 ENG2.         Almaz Almadatov:  Engineer 2 
 ENG3.     Zammelal Abdullah Sani:  Engineer 3 
 ETIM.      22.42.00 08-Aug-20:  End Time 
 FLOI.gpm               395.00:  Flow In 
 FLON.gpm               350.00:  Flow In Min 
 FLOS.cptm                0.00:  Fluid Loss 
 FLOX.gpm               404.00:  Flow In Max 
 FTRO.       Formation Presure:  FTWD Run Obj 
 HFLO.                      No:  High Flow 
 HPRE.                      No:  High Pressure 
 HTEM.                      No:  High Temp 
 HYDO.m                   1.80:  Hydro Offset 
 IFIN.deg                72.64:  Inc, Final 
 IMAX.deg                73.68:  Inc Max 
 IMIN.deg                72.64:  Inc Min 
 IMND.m                5189.69:  Inc Min Depth 
 IMXD.m                5067.88:  Inc Max Depth 
 JARR.                      No:  Jarring 
 LETM.      15.50.00 07-Aug-20:  Log End Time 
 LOST.hr                     0:  Lost Rig Time 
 LSTM.      10.40.00 06-Aug-20:  Log Start Time 
 MDCL.ppm             36000.00:  Mud Chlorides 
 MDES.     Inversion Oil/Synthetic:  Mud Desc 
 DFD .sg                  1.36:  Mud Density 
 MDMN.sg                  1.36:  Dens Mud Min 
 MDMX.sg                  1.36:  Dens Mud Max 
 MOIL.                      70:  Run Mud Oil % 
 MOWR.                   70:30:  Run Mud OWR 
 MSND.                    0.00:  Run Mud Sand % 
 MSOL.                   17.60:  Run Mud Solids% 
 DFV .spqt               73.00:  Mud Viscosity 
 MWOD.in                  4.75:  MWD Tool OD 
 MWSI.                      No:  Serv Intrp, MWD 
 OTIM.hr                 85.66:  Time Operating 
 PCON.           Look Like New:  Pad Condition 
 PMAX.psia             6250.00:  Press Op, Max 
 PV  .cP                 65.00:  Mud PV 
 RUN .                     900:  Run Number 
 ROPA.m/hr               11.40:  ROP Avg 
 ROPN.m/hr                5.00:  ROP Min 
 ROPX.m/hr               20.00:  ROP Max 
 RPMA.rpm               130.00:  RPM Surface Avg 
 RPMN.rpm                40.00:  RPM Surface Min 
 RPMX.rpm               140.00:  RPM Surface Max 
 RRUN.                    L205:  Rig Run Number 
 RTIM.hr                  1.00:  Time Reaming 
 SAZI.deg               313.52:  Azm, Start 
 SDEP.m                4957.01:  Start Depth 
 SIDD.                      No:  Serv Intrp, DD 
 SINC.deg                73.16:  Inc, Start 
 SPPA.psig             5657.00:  SPP Avg 
 SPPN.psig             2500.00:  SPP Min 
 SPPX.psig             5806.00:  SPP Max 
 STIM.      07.12.00 05-Aug-20:  Start Time 
 SVCS.                 DD, MWD:  Services 
 SVER.                    9.20:  Sperry Version 
 TDAT.m                 243.00:  Tot Depth Attmp 
 TDDF.                      No:  Trip for DD 
 TDLG.m                 243.00:  Tot Depth Loggd 
 TFF .                      No:  Trip for Fail 
 TQAA.f-kp               13.00:  Torque Abs Avg 
 TQAN.f-kp               11.00:  Torque Abs Min 
 TQAX.f-kp               16.00:  Torque Abs Max 
 TRRT.°/30m               1.00:  Turn Rotating 
 MRT .                    HCIM:  Maximum Recorded Temperature 
 TTMX.degC               96.08:  Max Tool Temp 
 VS01.                90515411:  Virtual Str1 SN 
 VS02.                90512716:  Virtual Str2 SN 
 VS03.                90522362:  Virtual Str3 SN 
 VS04.                90619415:  Virtual Str4 SN 
 VS05.                90619414:  Virtual Str5 SN 
 VS06.                90597748:  Virtual Str6 SN 
 WBMN.klb                 2.00:  WOB Min 
 WITN.           Adil Mammadov:  Customer Rep 
 WITN.     Alexander Yadullayev:  Customer Rep 2 
 WOBA.klb                 7.00:  WOB Avg 
 WOBX.klb                23.00:  WOB Max 
 YP  .lhf2               37.00:  Yield Point 
~Curve Information Block
#MNEM.UNIT                 API CODE     Curve Description
#---------               -----------    ---------------------------
 TIME.HHMMSS            00 000 000 000:  GT Time & Date
 GTDEPTH.m              00 000 000 000:  GT Depth
 GTPQH.psia             00 000 000 000:  GT HR Quartz Pressure
 GTTQ.degC              00 000 000 000:  GT Quartz Temperature
 GTTN.NONE              00 000 000 000:  GT Test Number
 GTET.sec               00 000 000 000:  GT Elapsed Test Time
 GTTVD.m                00 000 000 000:  GT True Vertical Depth
#Other Information
#
#WARRANTY: Halliburton will use its best efforts to furnish customers with 
#accurate information and interpretations that are part of, and incident to, the services 
#provided.  However, Halliburton cannot and does not warrant the accuracy 
#or correctness of such information and interpretations.  Under no circumstances should any 
#such information or interpretation be relied upon as the sole basis for any drilling, 
#completion, production, or financial decision or any procedure involving any risk to the 
#safety of any drilling venture, drilling rig or its crew or any other third party.  The 
#Customer has full responsibility for all drilling, completion and production operation.  
#Halliburton makes no representations or warranties, either expressed or 
#implied, including, but not limited to, the implied warranties of merchantability or fitness 
#for a particular purpose, with respect to the services rendered.  In no event will 
#Halliburton be liable for failure to obtain any particular results or for 
#any damages, including, but not limited to, indirect, special or consequential damages, 
#resulting from the use of any information or interpretation provided by Halliburton.
#
~A           TIME           GTDEPTH  GTPQH  GTTQ  GTTN  GTET   GTTVD  
# ...
   16:13:30.502.06-Aug-2020 4955.01 4252.90 80.56 2.00 207.04 2633.27
   16:13:30.702.06-Aug-2020 4955.01 4252.90 80.55 2.00 207.24 2633.27
   16:13:30.902.06-Aug-2020 4955.01 4253.00 80.55 2.00 207.44 2633.27
   16:13:31.102.06-Aug-2020 4955.01 4253.09 80.55 2.00 207.64 2633.27
   16:13:31.302.06-Aug-2020 4955.01 4252.85 80.55 2.00 207.84 2633.27
   16:13:31.502.06-Aug-2020 4955.01 4253.10 80.55 2.00 208.04 2633.27
   16:13:31.702.06-Aug-2020 4955.01 4253.10 80.55 2.00 208.24 2633.27
   16:13:31.902.06-Aug-2020 4955.01 4253.28 80.55 2.00 208.44 2633.27
   16:13:32.102.06-Aug-2020 4955.01 4253.01 80.55 2.00 208.64 2633.27
   16:13:32.302.06-Aug-2020 4955.01 4253.32 80.55 2.00 208.84 2633.27
   16:13:32.502.06-Aug-2020 4955.01 4253.39 80.55 2.00 209.04 2633.27
   16:13:32.702.06-Aug-2020 4955.01 4253.39 80.55 2.00 209.24 2633.27
   16:13:32.902.06-Aug-2020 4955.01 4253.50 80.55 2.00 209.44 2633.27
   16:13:33.102.06-Aug-2020 4955.01 4253.58 80.55 2.00 209.64 2633.27
   16:13:33.302.06-Aug-2020 4955.01 4253.33 80.55 2.00 209.84 2633.27
   16:13:33.502.06-Aug-2020 4955.01 4253.52 80.55 2.00 210.04 2633.27
   16:13:33.702.06-Aug-2020 4955.01 4253.70 80.55 2.00 210.24 2633.27
   16:13:33.902.06-Aug-2020 4955.01 4253.76 80.55 2.00 210.44 2633.27
   16:13:34.102.06-Aug-2020 4955.01 4253.82 80.55 2.00 210.65 2633.27
   16:13:34.302.06-Aug-2020 4955.01 4253.85 80.55 2.00 210.85 2633.27
   16:13:34.502.06-Aug-2020 4955.01 4253.85 80.55 2.00 211.05 2633.27
   16:13:34.702.06-Aug-2020 4955.01 4253.85 80.55 2.00 211.25 2633.27
   16:13:34.902.06-Aug-2020 4955.01 4253.89 80.55 2.00 211.45 2633.27
   16:13:35.102.06-Aug-2020 4955.01 4253.92 80.55 2.00 211.65 2633.27
   16:13:35.303.06-Aug-2020 4955.01 4253.98 80.55 2.00 211.85 2633.27
   16:13:35.503.06-Aug-2020 4955.01 4253.97 80.55 2.00 212.05 2633.27
   16:13:35.703.06-Aug-2020 4955.01 4253.97 80.55 2.00 212.25 2633.27
   16:13:35.903.06-Aug-2020 4955.01 4253.66 80.54 2.00 212.45 2633.27
   16:13:36.103.06-Aug-2020 4955.01 4254.01 80.54 2.00 212.65 2633.27
   16:13:36.303.06-Aug-2020 4955.01 4254.09 80.54 2.00 212.85 2633.27
   16:13:36.503.06-Aug-2020 4955.01 4254.16 80.54 2.00 213.05 2633.27
   16:13:36.703.06-Aug-2020 4955.01 4254.16 80.54 2.00 213.25 2633.27
   16:13:36.903.06-Aug-2020 4955.01 4254.22 80.54 2.00 213.45 2633.27
   16:13:37.103.06-Aug-2020 4955.01 4254.21 80.54 2.00 213.65 2633.27
   16:13:37.303.06-Aug-2020 4955.01 4254.26 80.54 2.00 213.85 2633.27
   16:13:37.503.06-Aug-2020 4955.01 4254.25 80.54 2.00 214.05 2633.27
   16:13:37.703.06-Aug-2020 4955.01 4254.25 80.54 2.00 214.25 2633.27
   16:13:37.903.06-Aug-2020 4955.01 4254.27 80.54 2.00 214.45 2633.27
   16:13:38.103.06-Aug-2020 4955.01 4254.33 80.54 2.00 214.65 2633.27
   16:13:38.303.06-Aug-2020 4955.01 4254.31 80.54 2.00 214.85 2633.27
   16:13:38.503.06-Aug-2020 4955.01 4254.34 80.54 2.00 215.05 2633.27
   16:13:38.703.06-Aug-2020 4955.01 4254.34 80.54 2.00 215.25 2633.27
   16:13:38.903.06-Aug-2020 4955.01 4254.26 80.54 2.00 215.45 2633.27
   16:13:39.103.06-Aug-2020 4955.01 4254.43 80.54 2.00 215.65 2633.27
   16:13:39.303.06-Aug-2020 4955.01 4254.47 80.54 2.00 215.85 2633.27
   16:13:39.503.06-Aug-2020 4955.01 4254.51 80.54 2.00 216.05 2633.27
   16:13:39.703.06-Aug-2020 4955.01 4254.51 80.54 2.00 216.25 2633.27
   16:13:39.904.06-Aug-2020 4955.01 4254.45 80.54 2.00 216.45 2633.27
   16:13:40.104.06-Aug-2020 4955.01 4254.55 80.54 2.00 216.65 2633.27
   16:13:40.304.06-Aug-2020 4955.01 4254.63 80.54 2.00 216.85 2633.27
   16:13:40.504.06-Aug-2020 4955.01 4254.66 80.54 2.00 217.05 2633.27
   16:13:40.704.06-Aug-2020 4955.01 4254.66 80.54 2.00 217.25 2633.27
   16:13:40.904.06-Aug-2020 4955.01 4254.68 80.54 2.00 217.45 2633.27
   16:13:41.104.06-Aug-2020 4955.01 4254.74 80.54 2.00 217.65 2633.27
   16:13:41.304.06-Aug-2020 4955.01 4254.74 80.53 2.00 217.85 2633.27
   16:13:41.504.06-Aug-2020 4955.01 4254.83 80.53 2.00 218.05 2633.27
   16:13:41.704.06-Aug-2020 4955.01 4254.83 80.53 2.00 218.25 2633.27
   16:13:41.904.06-Aug-2020 4955.01 4254.61 80.53 2.00 218.45 2633.27
   16:13:42.104.06-Aug-2020 4955.01 4254.78 80.53 2.00 218.65 2633.27
   16:13:42.304.06-Aug-2020 4955.01 4254.89 80.53 2.00 218.85 2633.27
   16:13:42.504.06-Aug-2020 4955.01 4254.94 80.53 2.00 219.05 2633.27
   16:13:42.704.06-Aug-2020 4955.01 4254.94 80.53 2.00 219.25 2633.27
   16:13:42.904.06-Aug-2020 4955.01 4255.04 80.53 2.00 219.45 2633.27
   16:13:43.104.06-Aug-2020 4955.01 4255.07 80.53 2.00 219.65 2633.27
   16:13:43.304.06-Aug-2020 4955.01 4255.07 80.53 2.00 219.85 2633.27
   16:13:43.504.06-Aug-2020 4955.01 4255.10 80.53 2.00 220.05 2633.27
   16:13:43.704.06-Aug-2020 4955.01 4255.10 80.53 2.00 220.25 2633.27
   16:13:43.904.06-Aug-2020 4955.01 4255.13 80.53 2.00 220.45 2633.27
   16:13:44.104.06-Aug-2020 4955.01 4255.12 80.53 2.00 220.65 2633.27
   16:13:44.304.06-Aug-2020 4955.01 4255.11 80.53 2.00 220.85 2633.27
   16:13:44.504.06-Aug-2020 4955.01 4254.93 80.53 2.00 221.05 2633.27
   16:13:44.705.06-Aug-2020 4955.01 4254.93 80.53 2.00 221.25 2633.27
   16:13:44.905.06-Aug-2020 4955.01 4255.14 80.53 2.00 221.45 2633.27
   16:13:45.105.06-Aug-2020 4955.01 4255.16 80.53 2.00 221.65 2633.27
   16:13:45.305.06-Aug-2020 4955.01 4255.20 80.53 2.00 221.85 2633.27
   16:13:45.505.06-Aug-2020 4955.01 4255.19 80.53 2.00 222.05 2633.27
   16:13:45.705.06-Aug-2020 4955.01 4255.19 80.53 2.00 222.25 2633.27
   16:13:45.905.06-Aug-2020 4955.01 4255.28 80.53 2.00 222.45 2633.27
   16:13:46.105.06-Aug-2020 4955.01 4255.33 80.53 2.00 222.65 2633.27
   16:13:46.305.06-Aug-2020 4955.01 4255.31 80.53 2.00 222.85 2633.27
   16:13:46.505.06-Aug-2020 4955.01 4255.34 80.52 2.00 223.05 2633.27
   16:13:46.705.06-Aug-2020 4955.01 4255.34 80.52 2.00 223.25 2633.27
   16:13:46.905.06-Aug-2020 4955.01 4255.34 80.52 2.00 223.45 2633.27
   16:13:47.105.06-Aug-2020 4955.01 4255.36 80.52 2.00 223.65 2633.27
   16:13:47.305.06-Aug-2020 4955.01 4255.08 80.52 2.00 223.85 2633.27
   16:13:47.505.06-Aug-2020 4955.01 4255.28 80.52 2.00 224.05 2633.27
   16:13:47.705.06-Aug-2020 4955.01 4255.28 80.52 2.00 224.25 2633.27
   16:13:47.905.06-Aug-2020 4955.01 4255.41 80.52 2.00 224.45 2633.27
   16:13:48.105.06-Aug-2020 4955.01 4255.45 80.52 2.00 224.65 2633.27
   16:13:48.305.06-Aug-2020 4955.01 4255.46 80.52 2.00 224.85 2633.27
   16:13:48.505.06-Aug-2020 4955.01 4255.25 80.52 2.00 225.05 2633.27
   16:13:48.705.06-Aug-2020 4955.01 4255.25 80.52 2.00 225.25 2633.27
   16:13:48.905.06-Aug-2020 4955.01 4255.58 80.52 2.00 225.45 2633.27
   16:13:49.105.06-Aug-2020 4955.01 4255.60 80.52 2.00 225.65 2633.27
   16:13:49.306.06-Aug-2020 4955.01 4255.55 80.52 2.00 225.85 2633.27
   16:13:49.506.06-Aug-2020 4955.01 4255.40 80.52 2.00 226.05 2633.27
   16:13:49.706.06-Aug-2020 4955.01 4255.40 80.52 2.00 226.25 2633.27
   16:13:49.906.06-Aug-2020 4955.01 4255.57 80.52 2.00 226.45 2633.27
   16:13:50.106.06-Aug-2020 4955.01 4255.63 80.52 2.00 226.65 2633.27
   16:13:50.306.06-Aug-2020 4955.01 4255.69 80.52 2.00 226.85 2633.27
   16:13:50.506.06-Aug-2020 4955.01 4255.39 80.52 2.00 227.05 2633.27
   16:13:50.706.06-Aug-2020 4955.01 4255.39 80.52 2.00 227.25 2633.27
   16:13:50.906.06-Aug-2020 4955.01 4255.72 80.52 2.00 227.45 2633.27
   16:13:51.106.06-Aug-2020 4955.01 4255.78 80.52 2.00 227.65 2633.27
   16:13:51.306.06-Aug-2020 4955.01 4255.81 80.52 2.00 227.85 2633.27
   16:13:51.506.06-Aug-2020 4955.01 4255.88 80.52 2.00 228.05 2633.27
   16:13:51.706.06-Aug-2020 4955.01 4255.89 80.52 2.00 228.25 2633.27
   16:13:51.906.06-Aug-2020 4955.01 4255.91 80.51 2.00 228.45 2633.27
   16:13:52.106.06-Aug-2020 4955.01 4255.88 80.51 2.00 228.65 2633.27
   16:13:52.306.06-Aug-2020 4955.01 4255.90 80.51 2.00 228.85 2633.27
   16:13:52.506.06-Aug-2020 4955.01 4255.91 80.51 2.00 229.05 2633.27
   16:13:52.706.06-Aug-2020 4955.01 4255.91 80.51 2.00 229.25 2633.27
   16:13:52.906.06-Aug-2020 4955.01 4255.90 80.51 2.00 229.45 2633.27
   16:13:53.106.06-Aug-2020 4955.01 4255.56 80.51 2.00 229.65 2633.27
   16:13:53.306.06-Aug-2020 4955.01 4255.83 80.51 2.00 229.85 2633.27
