~Version Information
 VERS.                  2.0:   CWLS log ASCII Standard -VERSION 2.0
 WRAP.                   NO:   One line per depth step
~Well Information Block
#MNEM.UNIT     VALUE/NAME     DESCRIPTION
#---------     -----------    ---------------------------
 STRT.S             21:52:26 06-Aug-20: START TIME 21:52:26 06-Aug-20
 STOP.S             22:00:18 06-Aug-20: STOP TIME  22:00:18 06-Aug-20
 STEP.S                   0.00: STEP TIME
 NULL.                 -999.25: NULL VALUE
 DFWT.                        :  DIST FWL TEXT
 DFST.                        :  DIST FSL TEXT
 DMF .             Drill Floor:  DRILL MEAS FROM
 STIM.      12.00.00 03-Jul-20:  START TIME
 DATE.      00.50.00 09-Aug-20:  END TIME
 SPUD.               03-Jul-20:  SPUD DATE
 NREF.                    Grid:  NORTH REFERENCE
 HPTY.       Minimum Curvature:  HOLE POS TYPE
 DMOD.             Drill Model:  DRILL MOD DESC
 SVYD.                  Survey:  SURVEY DESC
 ILTD.               Lithology:  INTERP LTH DESC
 FTOP.          Formation Tops:  FORM TOPS DESC
 PDAT.          Mean Sea Level:  PERMANENT DATUM
 FLD .                     ACG:  FIELD NAME
 CTRY.              Azerbaijan:  COUNTRY NAME
 WELL.                    E04x:  WELL NAME
 SRVC.          Turan Drilling:  CONTRACTOR
 COMP.     BP Exploration (Caspian Sea) Ltd.:  COMPANY
 SON .        AZ-XX-0906531346:  JOB NUMBER
 WTYP.                Deviated:  WELL TYPE
 MDS .        Operator Entered:  MAG DATA SOURCE
 UWI .                     N/A:  UNIQUE WELL IDENTIFIER
 API .                     N/A:  API NUMBER
 BASE.              Azerbaijan:  LOGGING EQUIPMENT BASE LOCATION
 REGN.                   EESSA:  REGION
 PROV.                    Baku:  PROVINCE
 STAT.                    Baku:  STATE NAME
 MWDS.                    Baku:  MWD SHOP
 JOBN.        AZ-XX-0906531346:  JOB TICKET NUMB
 RIG .                     DWG:  RIG NAME
 DOE .                     N/A:  DOE NUMBER
 DCON.         Sperry Drilling:  DIRECTNL CONTR
 UNIT.                     N/A:  LOGGING EQUIPMENT ID
 CNTY.                        :  COUNTY
 LOC .                        :  LOCATION
 LMF .             Drill Floor:  LOG MEASURED FROM
 TVDS.m                  43.16:  TVDSS CORRECTN
 LATI.deg                40.17:  LATITUDE
 LONG.deg                51.17:  LONGITUDE
 WHNS.m                  -0.12:  WELL HEAD N/S
 WHEW.m                  -5.41:  WELL HEAD E/W
 UTMX.m              514337.95:  UTM X
 UTMY.m             4448627.46:  UTM Y
 DFWL.m                   0.00:  DISTANCE FWL
 DFSL.m                   0.00:  DISTANCE FSL
 SDEP.m                3088.01:  START DEPTH
 TDD .m                5200.01:  TOTAL DEPTH (DRILLER)
 VSDR.deg               244.51:  VERT SEC DIRECT
 GVFD.g                   1.00:  GRAVITY FIELD
 MFLD.nT              50329.80:  MAGNETIC FIELD
 MDIP.deg                59.63:  MAGNETIC DIP
 MDEC.deg                 6.59:  MAGNETIC DECL
 GRDC.deg                 0.09:  GRID CORRECTION
 AZTC.deg                 6.50:  AZM TOTAL CORR
 EPD .m                   0.00:  ELEVATION
 EGL .m                   0.00:  GROUND ELEVATION
 WDMS.m                 176.20:  WD ELEV
 APD .m                  43.16:  DEPTH ABOVE PD
 DEP .m                3084.71:  DEPTH
 AGAP.m                  43.16:  AIR GAP
 VSEW.m                  -5.41:  VERT SEC E/W
 VSNS.m                  -0.12:  VERT SEC N/S
 EKB .m                   0.00:  KB ELEVATION
 EDF .m                  43.16:  DF ELEVATION
 TDL .m                 243.00:  TOTAL DEPTH (LOGGER)
 VSC .                       0:  VS TO CLOSURE
 MAGU.                 1853542:  MAGUTM CHECKSUM
~Parameter Information Block
#MNEM.UNIT       Value        Description
#---------     -----------    ---------------------------
 AV  .mps                 1.91:  Ann Velocity 
 AVMX.mps                 2.52:  Max Ann Veloc 
 AZIF.deg               308.97:  Azm, Final 
 BHAT.        Rotary Steerable:  BHA Type 
 BROT.°/30m               1.00:  Build Rotating 
 BS  .in                  6.50:  Bit Size 
 BSZ .in                  6.50:  Bit Size 
 BTPL.psig              350.00:  Bit Press Loss 
 CABU.                      No:  Customer Abuse 
 CGEO.           Asif Pashayev:  Customer Geo 
 COMM.                     #‚:  Run Comments 1 
 TCS .hr                 35.86:  Time Ciculation Ended 
 CV  .mps                 2.31:  Crit Velocity 
 CVMX.mps                 2.31:  Max Crit Veloc 
 DD1 .         Intigam Rahimov:  Direct Drillr 1 
 DDSV.               Geo-Pilot:  DD Service 
 DEFF.%                  92.00:  % Det Eff 
 DLRX.°/30m               1.00:  Dogleg Rot Max 
 DLSO.°/30m               1.00:  Dogleg Oriented 
 DLSX.°/30m               1.42:  Dogleg Str Max 
 DRET.      15.50.00 07-Aug-20:  Drill End Time 
 DRST.      10.40.00 06-Aug-20:  Drill Start Tim 
 DTIM.hr                 21.30:  Time Drilling 
 EDEP.m                5200.01:  End Depth 
 ENG1.            Alan Tuganov:  Engineer 1 
 ENG2.         Almaz Almadatov:  Engineer 2 
 ENG3.     Zammelal Abdullah Sani:  Engineer 3 
 ETIM.      22.42.00 08-Aug-20:  End Time 
 FLOI.gpm               395.00:  Flow In 
 FLON.gpm               350.00:  Flow In Min 
 FLOS.cptm                0.00:  Fluid Loss 
 FLOX.gpm               404.00:  Flow In Max 
 FTRO.       Formation Presure:  FTWD Run Obj 
 HFLO.                      No:  High Flow 
 HPRE.                      No:  High Pressure 
 HTEM.                      No:  High Temp 
 HYDO.m                   1.80:  Hydro Offset 
 IFIN.deg                72.64:  Inc, Final 
 IMAX.deg                73.68:  Inc Max 
 IMIN.deg                72.64:  Inc Min 
 IMND.m                5189.69:  Inc Min Depth 
 IMXD.m                5067.88:  Inc Max Depth 
 JARR.                      No:  Jarring 
 LETM.      15.50.00 07-Aug-20:  Log End Time 
 LOST.hr                     0:  Lost Rig Time 
 LSTM.      10.40.00 06-Aug-20:  Log Start Time 
 MDCL.ppm             36000.00:  Mud Chlorides 
 MDES.     Inversion Oil/Synthetic:  Mud Desc 
 DFD .sg                  1.36:  Mud Density 
 MDMN.sg                  1.36:  Dens Mud Min 
 MDMX.sg                  1.36:  Dens Mud Max 
 MOIL.                      70:  Run Mud Oil % 
 MOWR.                   70:30:  Run Mud OWR 
 MSND.                    0.00:  Run Mud Sand % 
 MSOL.                   17.60:  Run Mud Solids% 
 DFV .spqt               73.00:  Mud Viscosity 
 MWOD.in                  4.75:  MWD Tool OD 
 MWSI.                      No:  Serv Intrp, MWD 
 OTIM.hr                 85.66:  Time Operating 
 PCON.           Look Like New:  Pad Condition 
 PMAX.psia             6250.00:  Press Op, Max 
 PV  .cP                 65.00:  Mud PV 
 RUN .                     900:  Run Number 
 ROPA.m/hr               11.40:  ROP Avg 
 ROPN.m/hr                5.00:  ROP Min 
 ROPX.m/hr               20.00:  ROP Max 
 RPMA.rpm               130.00:  RPM Surface Avg 
 RPMN.rpm                40.00:  RPM Surface Min 
 RPMX.rpm               140.00:  RPM Surface Max 
 RRUN.                    L205:  Rig Run Number 
 RTIM.hr                  1.00:  Time Reaming 
 SAZI.deg               313.52:  Azm, Start 
 SDEP.m                4957.01:  Start Depth 
 SIDD.                      No:  Serv Intrp, DD 
 SINC.deg                73.16:  Inc, Start 
 SPPA.psig             5657.00:  SPP Avg 
 SPPN.psig             2500.00:  SPP Min 
 SPPX.psig             5806.00:  SPP Max 
 STIM.      07.12.00 05-Aug-20:  Start Time 
 SVCS.                 DD, MWD:  Services 
 SVER.                    9.20:  Sperry Version 
 TDAT.m                 243.00:  Tot Depth Attmp 
 TDDF.                      No:  Trip for DD 
 TDLG.m                 243.00:  Tot Depth Loggd 
 TFF .                      No:  Trip for Fail 
 TQAA.f-kp               13.00:  Torque Abs Avg 
 TQAN.f-kp               11.00:  Torque Abs Min 
 TQAX.f-kp               16.00:  Torque Abs Max 
 TRRT.°/30m               1.00:  Turn Rotating 
 MRT .                    HCIM:  Maximum Recorded Temperature 
 TTMX.degC               96.08:  Max Tool Temp 
 VS01.                90515411:  Virtual Str1 SN 
 VS02.                90512716:  Virtual Str2 SN 
 VS03.                90522362:  Virtual Str3 SN 
 VS04.                90619415:  Virtual Str4 SN 
 VS05.                90619414:  Virtual Str5 SN 
 VS06.                90597748:  Virtual Str6 SN 
 WBMN.klb                 2.00:  WOB Min 
 WITN.           Adil Mammadov:  Customer Rep 
 WITN.     Alexander Yadullayev:  Customer Rep 2 
 WOBA.klb                 7.00:  WOB Avg 
 WOBX.klb                23.00:  WOB Max 
 YP  .lhf2               37.00:  Yield Point 
~Curve Information Block
#MNEM.UNIT                 API CODE     Curve Description
#---------               -----------    ---------------------------
 TIME.HHMMSS            00 000 000 000:  GT Time & Date
 GTDEPTH.m              00 000 000 000:  GT Depth
 GTPQH.psia             00 000 000 000:  GT HR Quartz Pressure
 GTTQ.degC              00 000 000 000:  GT Quartz Temperature
 GTTN.NONE              00 000 000 000:  GT Test Number
 GTET.sec               00 000 000 000:  GT Elapsed Test Time
 GTTVD.m                00 000 000 000:  GT True Vertical Depth
#Other Information
#
#WARRANTY: Halliburton will use its best efforts to furnish customers with 
#accurate information and interpretations that are part of, and incident to, the services 
#provided.  However, Halliburton cannot and does not warrant the accuracy 
#or correctness of such information and interpretations.  Under no circumstances should any 
#such information or interpretation be relied upon as the sole basis for any drilling, 
#completion, production, or financial decision or any procedure involving any risk to the 
#safety of any drilling venture, drilling rig or its crew or any other third party.  The 
#Customer has full responsibility for all drilling, completion and production operation.  
#Halliburton makes no representations or warranties, either expressed or 
#implied, including, but not limited to, the implied warranties of merchantability or fitness 
#for a particular purpose, with respect to the services rendered.  In no event will 
#Halliburton be liable for failure to obtain any particular results or for 
#any damages, including, but not limited to, indirect, special or consequential damages, 
#resulting from the use of any information or interpretation provided by Halliburton.
#
~A           TIME           GTDEPTH  GTPQH  GTTQ  GTTN  GTET   GTTVD  
# ...
   21:53:58.000.06-Aug-2020 5001.01 3489.79 83.98 4.00  92.00 2646.47
   21:53:58.200.06-Aug-2020 5001.01 3489.79 83.98 4.00  92.20 2646.47
   21:53:58.400.06-Aug-2020 5001.01 3489.79 83.98 4.00  92.40 2646.47
   21:53:58.600.06-Aug-2020 5001.01 3489.79 83.98 4.00  92.60 2646.47
   21:53:58.800.06-Aug-2020 5001.01 3489.77 83.98 4.00  92.80 2646.47
   21:53:59.000.06-Aug-2020 5001.01 3489.79 83.98 4.00  93.00 2646.47
   21:53:59.200.06-Aug-2020 5001.01 3489.79 83.98 4.00  93.20 2646.47
   21:53:59.400.06-Aug-2020 5001.01 3489.75 83.98 4.00  93.40 2646.47
   21:53:59.600.06-Aug-2020 5001.01 3489.82 83.98 4.00  93.60 2646.47
   21:53:59.800.06-Aug-2020 5001.01 3489.71 83.98 4.00  93.80 2646.47
   21:54:00.000.06-Aug-2020 5001.01 3489.78 83.98 4.00  94.00 2646.47
   21:54:00.200.06-Aug-2020 5001.01 3489.78 83.98 4.00  94.20 2646.47
   21:54:00.400.06-Aug-2020 5001.01 3489.74 83.97 4.00  94.40 2646.47
   21:54:00.600.06-Aug-2020 5001.01 3489.79 83.97 4.00  94.60 2646.47
   21:54:00.800.06-Aug-2020 5001.01 3489.75 83.97 4.00  94.80 2646.47
   21:54:01.000.06-Aug-2020 5001.01 3489.78 83.97 4.00  95.00 2646.47
   21:54:01.200.06-Aug-2020 5001.01 3489.78 83.97 4.00  95.20 2646.47
   21:54:01.400.06-Aug-2020 5001.01 3489.79 83.97 4.00  95.40 2646.47
   21:54:01.600.06-Aug-2020 5001.01 3489.75 83.97 4.00  95.60 2646.47
   21:54:01.800.06-Aug-2020 5001.01 3489.78 83.97 4.00  95.80 2646.47
   21:54:02.000.06-Aug-2020 5001.01 3489.75 83.97 4.00  96.00 2646.47
   21:54:02.200.06-Aug-2020 5001.01 3489.75 83.97 4.00  96.20 2646.47
   21:54:02.400.06-Aug-2020 5001.01 3489.85 83.97 4.00  96.40 2646.47
   21:54:02.600.06-Aug-2020 5001.01 3489.78 83.97 4.00  96.60 2646.47
   21:54:02.800.06-Aug-2020 5001.01 3489.74 83.97 4.00  96.80 2646.47
   21:54:03.000.06-Aug-2020 5001.01 3489.78 83.97 4.00  97.00 2646.47
   21:54:03.200.06-Aug-2020 5001.01 3489.76 83.97 4.00  97.20 2646.47
   21:54:03.400.06-Aug-2020 5001.01 3489.64 83.97 4.00  97.40 2646.47
   21:54:03.600.06-Aug-2020 5001.01 3489.80 83.97 4.00  97.60 2646.47
   21:54:03.800.06-Aug-2020 5001.01 3489.77 83.97 4.00  97.80 2646.47
   21:54:04.000.06-Aug-2020 5001.01 3489.75 83.96 4.00  98.00 2646.47
   21:54:04.200.06-Aug-2020 5001.01 3489.75 83.96 4.00  98.20 2646.47
   21:54:04.400.06-Aug-2020 5001.01 3489.75 83.96 4.00  98.40 2646.47
   21:54:04.600.06-Aug-2020 5001.01 3489.78 83.96 4.00  98.60 2646.47
   21:54:04.800.06-Aug-2020 5001.01 3489.75 83.96 4.00  98.80 2646.47
   21:54:05.000.06-Aug-2020 5001.01 3489.67 83.96 4.00  99.00 2646.47
   21:54:05.200.06-Aug-2020 5001.01 3489.67 83.96 4.00  99.20 2646.47
   21:54:05.400.06-Aug-2020 5001.01 3489.76 83.96 4.00  99.40 2646.47
   21:54:05.600.06-Aug-2020 5001.01 3489.75 83.96 4.00  99.60 2646.47
   21:54:05.800.06-Aug-2020 5001.01 3489.74 83.96 4.00  99.80 2646.47
   21:54:06.000.06-Aug-2020 5001.01 3489.76 83.96 4.00 100.00 2646.47
   21:54:06.200.06-Aug-2020 5001.01 3489.76 83.96 4.00 100.20 2646.47
   21:54:06.400.06-Aug-2020 5001.01 3489.75 83.96 4.00 100.40 2646.47
   21:54:06.600.06-Aug-2020 5001.01 3489.73 83.96 4.00 100.60 2646.47
   21:54:06.800.06-Aug-2020 5001.01 3489.75 83.96 4.00 100.80 2646.47
   21:54:07.000.06-Aug-2020 5001.01 3489.74 83.96 4.00 101.00 2646.47
   21:54:07.200.06-Aug-2020 5001.01 3489.74 83.96 4.00 101.20 2646.47
   21:54:07.400.06-Aug-2020 5001.01 3489.75 83.96 4.00 101.40 2646.47
   21:54:07.600.06-Aug-2020 5001.01 3489.66 83.96 4.00 101.60 2646.47
   21:54:07.800.06-Aug-2020 5001.01 3489.79 83.96 4.00 101.80 2646.47
   21:54:08.000.06-Aug-2020 5001.01 3489.70 83.95 4.00 102.00 2646.47
   21:54:08.200.06-Aug-2020 5001.01 3489.70 83.95 4.00 102.20 2646.47
   21:54:08.400.06-Aug-2020 5001.01 3489.73 83.95 4.00 102.40 2646.47
   21:54:08.600.06-Aug-2020 5001.01 3489.75 83.95 4.00 102.60 2646.47
   21:54:08.800.06-Aug-2020 5001.01 3489.73 83.95 4.00 102.80 2646.47
   21:54:09.000.06-Aug-2020 5001.01 3489.75 83.95 4.00 103.00 2646.47
   21:54:09.200.06-Aug-2020 5001.01 3489.71 83.95 4.00 103.20 2646.47
   21:54:09.400.06-Aug-2020 5001.01 3489.76 83.95 4.00 103.40 2646.47
   21:54:09.600.06-Aug-2020 5001.01 3489.72 83.95 4.00 103.60 2646.47
   21:54:09.800.06-Aug-2020 5001.01 3489.75 83.95 4.00 103.80 2646.47
   21:54:10.000.06-Aug-2020 5001.01 3489.71 83.95 4.00 104.00 2646.47
   21:54:10.200.06-Aug-2020 5001.01 3489.71 83.95 4.00 104.20 2646.47
   21:54:10.400.06-Aug-2020 5001.01 3489.58 83.95 4.00 104.40 2646.47
   21:54:10.600.06-Aug-2020 5001.01 3489.79 83.95 4.00 104.60 2646.47
   21:54:10.800.06-Aug-2020 5001.01 3489.72 83.95 4.00 104.80 2646.47
   21:54:11.000.06-Aug-2020 5001.01 3489.75 83.95 4.00 105.00 2646.47
   21:54:11.200.06-Aug-2020 5001.01 3489.75 83.95 4.00 105.20 2646.47
   21:54:11.400.06-Aug-2020 5001.01 3489.74 83.95 4.00 105.40 2646.47
   21:54:11.600.06-Aug-2020 5001.01 3489.66 83.95 4.00 105.60 2646.47
   21:54:11.800.06-Aug-2020 5001.01 3489.70 83.95 4.00 105.80 2646.47
   21:54:12.000.06-Aug-2020 5001.01 3489.76 83.94 4.00 106.00 2646.47
   21:54:12.200.06-Aug-2020 5001.01 3489.69 83.94 4.00 106.20 2646.47
   21:54:12.400.06-Aug-2020 5001.01 3489.72 83.94 4.00 106.40 2646.47
   21:54:12.600.06-Aug-2020 5001.01 3489.69 83.94 4.00 106.60 2646.47
   21:54:12.800.06-Aug-2020 5001.01 3489.76 83.94 4.00 106.80 2646.47
   21:54:13.000.06-Aug-2020 5001.01 3489.70 83.94 4.00 107.00 2646.47
   21:54:13.200.06-Aug-2020 5001.01 3489.70 83.94 4.00 107.20 2646.47
   21:54:13.400.06-Aug-2020 5001.01 3489.70 83.94 4.00 107.40 2646.47
   21:54:13.600.06-Aug-2020 5001.01 3489.77 83.94 4.00 107.60 2646.47
   21:54:13.800.06-Aug-2020 5001.01 3489.70 83.94 4.00 107.80 2646.47
   21:54:14.000.06-Aug-2020 5001.01 3489.74 83.94 4.00 108.00 2646.47
   21:54:14.200.06-Aug-2020 5001.01 3489.74 83.94 4.00 108.20 2646.47
   21:54:14.400.06-Aug-2020 5001.01 3489.74 83.94 4.00 108.40 2646.47
   21:54:14.600.06-Aug-2020 5001.01 3489.71 83.94 4.00 108.60 2646.47
   21:54:14.800.06-Aug-2020 5001.01 3489.74 83.94 4.00 108.80 2646.47
   21:54:15.000.06-Aug-2020 5001.01 3489.70 83.94 4.00 109.00 2646.47
   21:54:15.200.06-Aug-2020 5001.01 3489.73 83.94 4.00 109.20 2646.47
   21:54:15.400.06-Aug-2020 5001.01 3489.69 83.94 4.00 109.40 2646.47
   21:54:15.600.06-Aug-2020 5001.01 3489.74 83.94 4.00 109.60 2646.47
   21:54:15.800.06-Aug-2020 5001.01 3489.53 83.93 4.00 109.80 2646.47
   21:54:16.000.06-Aug-2020 5001.01 3489.84 83.93 4.00 110.00 2646.47
   21:54:16.200.06-Aug-2020 5001.01 3489.84 83.93 4.00 110.20 2646.47
   21:54:16.400.06-Aug-2020 5001.01 3489.72 83.93 4.00 110.40 2646.47
   21:54:16.600.06-Aug-2020 5001.01 3489.72 83.93 4.00 110.60 2646.47
   21:54:16.800.06-Aug-2020 5001.01 3489.71 83.93 4.00 110.80 2646.47
   21:54:17.000.06-Aug-2020 5001.01 3489.71 83.93 4.00 111.00 2646.47
   21:54:17.200.06-Aug-2020 5001.01 3489.71 83.93 4.00 111.20 2646.47
   21:54:17.400.06-Aug-2020 5001.01 3489.70 83.93 4.00 111.40 2646.47
   21:54:17.600.06-Aug-2020 5001.01 3489.72 83.93 4.00 111.60 2646.47
   21:54:17.800.06-Aug-2020 5001.01 3489.71 83.93 4.00 111.80 2646.47
   21:54:18.000.06-Aug-2020 5001.01 3489.71 83.93 4.00 112.00 2646.47
   21:54:18.200.06-Aug-2020 5001.01 3489.71 83.93 4.00 112.20 2646.47
   21:54:18.400.06-Aug-2020 5001.01 3489.69 83.93 4.00 112.40 2646.47
   21:54:18.600.06-Aug-2020 5001.01 3489.65 83.93 4.00 112.60 2646.47
   21:54:18.800.06-Aug-2020 5001.01 3489.65 83.93 4.00 112.80 2646.47
   21:54:19.000.06-Aug-2020 5001.01 3489.76 83.93 4.00 113.00 2646.47
   21:54:19.200.06-Aug-2020 5001.01 3489.76 83.93 4.00 113.20 2646.47
   21:54:19.400.06-Aug-2020 5001.01 3489.73 83.93 4.00 113.40 2646.47
   21:54:19.600.06-Aug-2020 5001.01 3489.68 83.93 4.00 113.60 2646.47
   21:54:19.800.06-Aug-2020 5001.01 3489.65 83.92 4.00 113.80 2646.47
   21:54:20.000.06-Aug-2020 5001.01 3489.67 83.92 4.00 114.00 2646.47
   21:54:20.200.06-Aug-2020 5001.01 3489.77 83.92 4.00 114.20 2646.47
   21:54:20.400.06-Aug-2020 5001.01 3489.61 83.92 4.00 114.40 2646.47
   21:54:20.600.06-Aug-2020 5001.01 3489.76 83.92 4.00 114.60 2646.47
   21:54:20.800.06-Aug-2020 5001.01 3489.60 83.92 4.00 114.80 2646.47
