~Version Information
 VERS.                  2.0:   CWLS log ASCII Standard -VERSION 2.0
 WRAP.                   NO:   One line per depth step
~Well Information Block
#MNEM.UNIT     VALUE/NAME     DESCRIPTION
#---------     -----------    ---------------------------
 STRT.S             15:38:44 07-Aug-20: START TIME 15:38:44 07-Aug-20
 STOP.S             15:46:36 07-Aug-20: STOP TIME  15:46:36 07-Aug-20
 STEP.S                   0.00: STEP TIME
 NULL.                 -999.25: NULL VALUE
 DFWT.                        :  DIST FWL TEXT
 DFST.                        :  DIST FSL TEXT
 DMF .             Drill Floor:  DRILL MEAS FROM
 STIM.      12.00.00 03-Jul-20:  START TIME
 DATE.      00.50.00 09-Aug-20:  END TIME
 SPUD.               03-Jul-20:  SPUD DATE
 NREF.                    Grid:  NORTH REFERENCE
 HPTY.       Minimum Curvature:  HOLE POS TYPE
 DMOD.             Drill Model:  DRILL MOD DESC
 SVYD.                  Survey:  SURVEY DESC
 ILTD.               Lithology:  INTERP LTH DESC
 FTOP.          Formation Tops:  FORM TOPS DESC
 PDAT.          Mean Sea Level:  PERMANENT DATUM
 FLD .                     ACG:  FIELD NAME
 CTRY.              Azerbaijan:  COUNTRY NAME
 WELL.                    E04x:  WELL NAME
 SRVC.          Turan Drilling:  CONTRACTOR
 COMP.     BP Exploration (Caspian Sea) Ltd.:  COMPANY
 SON .        AZ-XX-0906531346:  JOB NUMBER
 WTYP.                Deviated:  WELL TYPE
 MDS .        Operator Entered:  MAG DATA SOURCE
 UWI .                     N/A:  UNIQUE WELL IDENTIFIER
 API .                     N/A:  API NUMBER
 BASE.              Azerbaijan:  LOGGING EQUIPMENT BASE LOCATION
 REGN.                   EESSA:  REGION
 PROV.                    Baku:  PROVINCE
 STAT.                    Baku:  STATE NAME
 MWDS.                    Baku:  MWD SHOP
 JOBN.        AZ-XX-0906531346:  JOB TICKET NUMB
 RIG .                     DWG:  RIG NAME
 DOE .                     N/A:  DOE NUMBER
 DCON.         Sperry Drilling:  DIRECTNL CONTR
 UNIT.                     N/A:  LOGGING EQUIPMENT ID
 CNTY.                        :  COUNTY
 LOC .                        :  LOCATION
 LMF .             Drill Floor:  LOG MEASURED FROM
 TVDS.m                  43.16:  TVDSS CORRECTN
 LATI.deg                40.17:  LATITUDE
 LONG.deg                51.17:  LONGITUDE
 WHNS.m                  -0.12:  WELL HEAD N/S
 WHEW.m                  -5.41:  WELL HEAD E/W
 UTMX.m              514337.95:  UTM X
 UTMY.m             4448627.46:  UTM Y
 DFWL.m                   0.00:  DISTANCE FWL
 DFSL.m                   0.00:  DISTANCE FSL
 SDEP.m                3088.01:  START DEPTH
 TDD .m                5200.01:  TOTAL DEPTH (DRILLER)
 VSDR.deg               244.51:  VERT SEC DIRECT
 GVFD.g                   1.00:  GRAVITY FIELD
 MFLD.nT              50329.80:  MAGNETIC FIELD
 MDIP.deg                59.63:  MAGNETIC DIP
 MDEC.deg                 6.59:  MAGNETIC DECL
 GRDC.deg                 0.09:  GRID CORRECTION
 AZTC.deg                 6.50:  AZM TOTAL CORR
 EPD .m                   0.00:  ELEVATION
 EGL .m                   0.00:  GROUND ELEVATION
 WDMS.m                 176.20:  WD ELEV
 APD .m                  43.16:  DEPTH ABOVE PD
 DEP .m                3084.71:  DEPTH
 AGAP.m                  43.16:  AIR GAP
 VSEW.m                  -5.41:  VERT SEC E/W
 VSNS.m                  -0.12:  VERT SEC N/S
 EKB .m                   0.00:  KB ELEVATION
 EDF .m                  43.16:  DF ELEVATION
 TDL .m                 243.00:  TOTAL DEPTH (LOGGER)
 VSC .                       0:  VS TO CLOSURE
 MAGU.                 1853542:  MAGUTM CHECKSUM
~Parameter Information Block
#MNEM.UNIT       Value        Description
#---------     -----------    ---------------------------
 AV  .mps                 1.91:  Ann Velocity 
 AVMX.mps                 2.52:  Max Ann Veloc 
 AZIF.deg               308.97:  Azm, Final 
 BHAT.        Rotary Steerable:  BHA Type 
 BROT.°/30m               1.00:  Build Rotating 
 BS  .in                  6.50:  Bit Size 
 BSZ .in                  6.50:  Bit Size 
 BTPL.psig              350.00:  Bit Press Loss 
 CABU.                      No:  Customer Abuse 
 CGEO.           Asif Pashayev:  Customer Geo 
 COMM.                     6…:  Run Comments 1 
 TCS .hr                 35.86:  Time Ciculation Ended 
 CV  .mps                 2.31:  Crit Velocity 
 CVMX.mps                 2.31:  Max Crit Veloc 
 DD1 .         Intigam Rahimov:  Direct Drillr 1 
 DDSV.               Geo-Pilot:  DD Service 
 DEFF.%                  92.00:  % Det Eff 
 DLRX.°/30m               1.00:  Dogleg Rot Max 
 DLSO.°/30m               1.00:  Dogleg Oriented 
 DLSX.°/30m               1.42:  Dogleg Str Max 
 DRET.      15.50.00 07-Aug-20:  Drill End Time 
 DRST.      10.40.00 06-Aug-20:  Drill Start Tim 
 DTIM.hr                 21.30:  Time Drilling 
 EDEP.m                5200.01:  End Depth 
 ENG1.            Alan Tuganov:  Engineer 1 
 ENG2.         Almaz Almadatov:  Engineer 2 
 ENG3.     Zammelal Abdullah Sani:  Engineer 3 
 ETIM.      22.42.00 08-Aug-20:  End Time 
 FLOI.gpm               395.00:  Flow In 
 FLON.gpm               350.00:  Flow In Min 
 FLOS.cptm                0.00:  Fluid Loss 
 FLOX.gpm               404.00:  Flow In Max 
 FTRO.       Formation Presure:  FTWD Run Obj 
 HFLO.                      No:  High Flow 
 HPRE.                      No:  High Pressure 
 HTEM.                      No:  High Temp 
 HYDO.m                   1.80:  Hydro Offset 
 IFIN.deg                72.64:  Inc, Final 
 IMAX.deg                73.68:  Inc Max 
 IMIN.deg                72.64:  Inc Min 
 IMND.m                5189.69:  Inc Min Depth 
 IMXD.m                5067.88:  Inc Max Depth 
 JARR.                      No:  Jarring 
 LETM.      15.50.00 07-Aug-20:  Log End Time 
 LOST.hr                     0:  Lost Rig Time 
 LSTM.      10.40.00 06-Aug-20:  Log Start Time 
 MDCL.ppm             36000.00:  Mud Chlorides 
 MDES.     Inversion Oil/Synthetic:  Mud Desc 
 DFD .sg                  1.36:  Mud Density 
 MDMN.sg                  1.36:  Dens Mud Min 
 MDMX.sg                  1.36:  Dens Mud Max 
 MOIL.                      70:  Run Mud Oil % 
 MOWR.                   70:30:  Run Mud OWR 
 MSND.                    0.00:  Run Mud Sand % 
 MSOL.                   17.60:  Run Mud Solids% 
 DFV .spqt               73.00:  Mud Viscosity 
 MWOD.in                  4.75:  MWD Tool OD 
 MWSI.                      No:  Serv Intrp, MWD 
 OTIM.hr                 85.66:  Time Operating 
 PCON.           Look Like New:  Pad Condition 
 PMAX.psia             6250.00:  Press Op, Max 
 PV  .cP                 65.00:  Mud PV 
 RUN .                     900:  Run Number 
 ROPA.m/hr               11.40:  ROP Avg 
 ROPN.m/hr                5.00:  ROP Min 
 ROPX.m/hr               20.00:  ROP Max 
 RPMA.rpm               130.00:  RPM Surface Avg 
 RPMN.rpm                40.00:  RPM Surface Min 
 RPMX.rpm               140.00:  RPM Surface Max 
 RRUN.                    L205:  Rig Run Number 
 RTIM.hr                  1.00:  Time Reaming 
 SAZI.deg               313.52:  Azm, Start 
 SDEP.m                4957.01:  Start Depth 
 SIDD.                      No:  Serv Intrp, DD 
 SINC.deg                73.16:  Inc, Start 
 SPPA.psig             5657.00:  SPP Avg 
 SPPN.psig             2500.00:  SPP Min 
 SPPX.psig             5806.00:  SPP Max 
 STIM.      07.12.00 05-Aug-20:  Start Time 
 SVCS.                 DD, MWD:  Services 
 SVER.                    9.20:  Sperry Version 
 TDAT.m                 243.00:  Tot Depth Attmp 
 TDDF.                      No:  Trip for DD 
 TDLG.m                 243.00:  Tot Depth Loggd 
 TFF .                      No:  Trip for Fail 
 TQAA.f-kp               13.00:  Torque Abs Avg 
 TQAN.f-kp               11.00:  Torque Abs Min 
 TQAX.f-kp               16.00:  Torque Abs Max 
 TRRT.°/30m               1.00:  Turn Rotating 
 MRT .                    HCIM:  Maximum Recorded Temperature 
 TTMX.degC               96.08:  Max Tool Temp 
 VS01.                90515411:  Virtual Str1 SN 
 VS02.                90512716:  Virtual Str2 SN 
 VS03.                90522362:  Virtual Str3 SN 
 VS04.                90619415:  Virtual Str4 SN 
 VS05.                90619414:  Virtual Str5 SN 
 VS06.                90597748:  Virtual Str6 SN 
 WBMN.klb                 2.00:  WOB Min 
 WITN.           Adil Mammadov:  Customer Rep 
 WITN.     Alexander Yadullayev:  Customer Rep 2 
 WOBA.klb                 7.00:  WOB Avg 
 WOBX.klb                23.00:  WOB Max 
 YP  .lhf2               37.00:  Yield Point 
~Curve Information Block
#MNEM.UNIT                 API CODE     Curve Description
#---------               -----------    ---------------------------
 TIME.HHMMSS            00 000 000 000:  GT Time & Date
 GTDEPTH.m              00 000 000 000:  GT Depth
 GTPQH.psia             00 000 000 000:  GT HR Quartz Pressure
 GTTQ.degC              00 000 000 000:  GT Quartz Temperature
 GTTN.NONE              00 000 000 000:  GT Test Number
 GTET.sec               00 000 000 000:  GT Elapsed Test Time
 GTTVD.m                00 000 000 000:  GT True Vertical Depth
#Other Information
#
#WARRANTY: Halliburton will use its best efforts to furnish customers with 
#accurate information and interpretations that are part of, and incident to, the services 
#provided.  However, Halliburton cannot and does not warrant the accuracy 
#or correctness of such information and interpretations.  Under no circumstances should any 
#such information or interpretation be relied upon as the sole basis for any drilling, 
#completion, production, or financial decision or any procedure involving any risk to the 
#safety of any drilling venture, drilling rig or its crew or any other third party.  The 
#Customer has full responsibility for all drilling, completion and production operation.  
#Halliburton makes no representations or warranties, either expressed or 
#implied, including, but not limited to, the implied warranties of merchantability or fitness 
#for a particular purpose, with respect to the services rendered.  In no event will 
#Halliburton be liable for failure to obtain any particular results or for 
#any damages, including, but not limited to, indirect, special or consequential damages, 
#resulting from the use of any information or interpretation provided by Halliburton.
#
~A           TIME           GTDEPTH  GTPQH  GTTQ  GTTN   GTET   GTTVD  
# ...
   15:40:15.211.07-Aug-2020 5157.51 3490.22 89.03 11.00  90.44 2691.72
   15:40:15.411.07-Aug-2020 5157.51 3489.86 89.03 11.00  90.64 2691.72
   15:40:15.611.07-Aug-2020 5157.51 3490.33 89.03 11.00  90.84 2691.72
   15:40:15.811.07-Aug-2020 5157.51 3490.28 89.03 11.00  91.04 2691.72
   15:40:16.011.07-Aug-2020 5157.51 3490.28 89.03 11.00  91.24 2691.72
   15:40:16.212.07-Aug-2020 5157.51 3490.17 89.03 11.00  91.44 2691.72
   15:40:16.412.07-Aug-2020 5157.51 3490.17 89.03 11.00  91.64 2691.72
   15:40:16.612.07-Aug-2020 5157.51 3490.07 89.03 11.00  91.84 2691.72
   15:40:16.812.07-Aug-2020 5157.51 3490.18 89.03 11.00  92.04 2691.72
   15:40:17.012.07-Aug-2020 5157.51 3490.18 89.03 11.00  92.24 2691.72
   15:40:17.212.07-Aug-2020 5157.51 3490.25 89.03 11.00  92.44 2691.72
   15:40:17.412.07-Aug-2020 5157.51 3489.90 89.03 11.00  92.64 2691.72
   15:40:17.612.07-Aug-2020 5157.51 3490.26 89.03 11.00  92.84 2691.72
   15:40:17.812.07-Aug-2020 5157.51 3490.38 89.02 11.00  93.04 2691.72
   15:40:18.012.07-Aug-2020 5157.51 3490.38 89.02 11.00  93.24 2691.72
   15:40:18.212.07-Aug-2020 5157.51 3490.08 89.02 11.00  93.44 2691.72
   15:40:18.412.07-Aug-2020 5157.51 3490.30 89.02 11.00  93.64 2691.72
   15:40:18.613.07-Aug-2020 5157.51 3490.24 89.02 11.00  93.84 2691.72
   15:40:18.813.07-Aug-2020 5157.51 3490.17 89.02 11.00  94.04 2691.72
   15:40:19.013.07-Aug-2020 5157.51 3490.17 89.02 11.00  94.24 2691.72
   15:40:19.213.07-Aug-2020 5157.51 3490.25 89.02 11.00  94.44 2691.72
   15:40:19.413.07-Aug-2020 5157.51 3490.25 89.02 11.00  94.64 2691.72
   15:40:19.613.07-Aug-2020 5157.51 3490.15 89.02 11.00  94.84 2691.72
   15:40:19.813.07-Aug-2020 5157.51 3490.25 89.02 11.00  95.04 2691.72
   15:40:20.013.07-Aug-2020 5157.51 3490.25 89.02 11.00  95.24 2691.72
   15:40:20.213.07-Aug-2020 5157.51 3490.17 89.02 11.00  95.44 2691.72
   15:40:20.413.07-Aug-2020 5157.51 3490.23 89.02 11.00  95.64 2691.72
   15:40:20.613.07-Aug-2020 5157.51 3490.20 89.02 11.00  95.84 2691.72
   15:40:20.813.07-Aug-2020 5157.51 3490.22 89.02 11.00  96.04 2691.72
   15:40:21.014.07-Aug-2020 5157.51 3490.22 89.02 11.00  96.24 2691.72
   15:40:21.214.07-Aug-2020 5157.51 3490.32 89.02 11.00  96.44 2691.72
   15:40:21.414.07-Aug-2020 5157.51 3490.28 89.01 11.00  96.64 2691.72
   15:40:21.614.07-Aug-2020 5157.51 3490.07 89.01 11.00  96.84 2691.72
   15:40:21.814.07-Aug-2020 5157.51 3490.25 89.01 11.00  97.04 2691.72
   15:40:22.014.07-Aug-2020 5157.51 3490.28 89.01 11.00  97.24 2691.72
   15:40:22.214.07-Aug-2020 5157.51 3490.19 89.01 11.00  97.44 2691.72
   15:40:22.414.07-Aug-2020 5157.51 3490.18 89.01 11.00  97.64 2691.72
   15:40:22.614.07-Aug-2020 5157.51 3490.20 89.01 11.00  97.84 2691.72
   15:40:22.814.07-Aug-2020 5157.51 3490.27 89.01 11.00  98.04 2691.72
   15:40:23.014.07-Aug-2020 5157.51 3490.27 89.01 11.00  98.24 2691.72
   15:40:23.214.07-Aug-2020 5157.51 3490.24 89.01 11.00  98.44 2691.72
   15:40:23.415.07-Aug-2020 5157.51 3490.20 89.01 11.00  98.64 2691.72
   15:40:23.615.07-Aug-2020 5157.51 3490.18 89.01 11.00  98.84 2691.72
   15:40:23.815.07-Aug-2020 5157.51 3490.04 89.01 11.00  99.04 2691.72
   15:40:24.015.07-Aug-2020 5157.51 3490.04 89.01 11.00  99.24 2691.72
   15:40:24.215.07-Aug-2020 5157.51 3490.30 89.01 11.00  99.44 2691.72
   15:40:24.415.07-Aug-2020 5157.51 3490.02 89.01 11.00  99.64 2691.72
   15:40:24.615.07-Aug-2020 5157.51 3490.24 89.01 11.00  99.84 2691.72
   15:40:24.815.07-Aug-2020 5157.51 3490.24 89.01 11.00 100.04 2691.72
   15:40:25.015.07-Aug-2020 5157.51 3490.24 89.00 11.00 100.24 2691.72
   15:40:25.215.07-Aug-2020 5157.51 3490.26 89.00 11.00 100.44 2691.72
   15:40:25.415.07-Aug-2020 5157.51 3490.38 89.00 11.00 100.64 2691.72
   15:40:25.615.07-Aug-2020 5157.51 3489.71 89.00 11.00 100.84 2691.72
   15:40:25.815.07-Aug-2020 5157.51 3490.40 89.00 11.00 101.04 2691.72
   15:40:26.016.07-Aug-2020 5157.51 3490.40 89.00 11.00 101.24 2691.72
   15:40:26.216.07-Aug-2020 5157.51 3490.19 89.00 11.00 101.44 2691.72
   15:40:26.416.07-Aug-2020 5157.51 3490.13 89.00 11.00 101.64 2691.72
   15:40:26.616.07-Aug-2020 5157.51 3490.07 89.00 11.00 101.84 2691.72
   15:40:26.816.07-Aug-2020 5157.51 3490.33 89.00 11.00 102.04 2691.72
   15:40:27.016.07-Aug-2020 5157.51 3490.33 89.00 11.00 102.24 2691.72
   15:40:27.216.07-Aug-2020 5157.51 3489.99 89.00 11.00 102.44 2691.72
   15:40:27.416.07-Aug-2020 5157.51 3490.29 89.00 11.00 102.64 2691.72
   15:40:27.616.07-Aug-2020 5157.51 3490.25 89.00 11.00 102.84 2691.72
   15:40:27.816.07-Aug-2020 5157.51 3490.22 89.00 11.00 103.04 2691.72
   15:40:28.016.07-Aug-2020 5157.51 3490.22 89.00 11.00 103.24 2691.72
   15:40:28.216.07-Aug-2020 5157.51 3490.27 89.00 11.00 103.44 2691.72
   15:40:28.417.07-Aug-2020 5157.51 3490.23 88.99 11.00 103.64 2691.72
   15:40:28.617.07-Aug-2020 5157.51 3490.22 88.99 11.00 103.84 2691.72
   15:40:28.817.07-Aug-2020 5157.51 3490.20 88.99 11.00 104.04 2691.72
   15:40:29.017.07-Aug-2020 5157.51 3490.20 88.99 11.00 104.24 2691.72
   15:40:29.217.07-Aug-2020 5157.51 3489.89 88.99 11.00 104.44 2691.72
   15:40:29.417.07-Aug-2020 5157.51 3490.42 88.99 11.00 104.64 2691.72
   15:40:29.617.07-Aug-2020 5157.51 3490.29 88.99 11.00 104.84 2691.72
   15:40:29.817.07-Aug-2020 5157.51 3490.19 88.99 11.00 105.04 2691.72
   15:40:30.017.07-Aug-2020 5157.51 3490.19 88.99 11.00 105.24 2691.72
   15:40:30.217.07-Aug-2020 5157.51 3490.23 88.99 11.00 105.44 2691.72
   15:40:30.417.07-Aug-2020 5157.51 3490.27 88.99 11.00 105.64 2691.72
   15:40:30.617.07-Aug-2020 5157.51 3490.16 88.99 11.00 105.84 2691.72
   15:40:30.818.07-Aug-2020 5157.51 3490.25 88.99 11.00 106.04 2691.72
   15:40:31.018.07-Aug-2020 5157.51 3490.25 88.99 11.00 106.24 2691.72
   15:40:31.218.07-Aug-2020 5157.51 3490.23 88.99 11.00 106.44 2691.72
   15:40:31.418.07-Aug-2020 5157.51 3490.19 88.99 11.00 106.64 2691.72
   15:40:31.618.07-Aug-2020 5157.51 3490.24 88.99 11.00 106.84 2691.72
   15:40:31.818.07-Aug-2020 5157.51 3490.23 88.99 11.00 107.04 2691.72
   15:40:32.018.07-Aug-2020 5157.51 3490.00 88.98 11.00 107.24 2691.72
   15:40:32.218.07-Aug-2020 5157.51 3490.30 88.98 11.00 107.44 2691.72
   15:40:32.418.07-Aug-2020 5157.51 3490.34 88.98 11.00 107.64 2691.72
   15:40:32.618.07-Aug-2020 5157.51 3490.04 88.98 11.00 107.84 2691.72
   15:40:32.818.07-Aug-2020 5157.51 3490.28 88.98 11.00 108.04 2691.72
   15:40:33.018.07-Aug-2020 5157.51 3490.28 88.98 11.00 108.24 2691.72
   15:40:33.219.07-Aug-2020 5157.51 3489.97 88.98 11.00 108.44 2691.72
   15:40:33.419.07-Aug-2020 5157.51 3490.29 88.98 11.00 108.64 2691.72
   15:40:33.619.07-Aug-2020 5157.51 3490.34 88.98 11.00 108.84 2691.72
   15:40:33.819.07-Aug-2020 5157.51 3490.03 88.98 11.00 109.04 2691.72
   15:40:34.019.07-Aug-2020 5157.51 3490.22 88.98 11.00 109.25 2691.72
   15:40:34.219.07-Aug-2020 5157.51 3490.23 88.98 11.00 109.45 2691.72
   15:40:34.419.07-Aug-2020 5157.51 3490.35 88.98 11.00 109.65 2691.72
   15:40:34.619.07-Aug-2020 5157.51 3490.01 88.98 11.00 109.85 2691.72
   15:40:34.819.07-Aug-2020 5157.51 3489.99 88.98 11.00 110.05 2691.72
   15:40:35.019.07-Aug-2020 5157.51 3489.99 88.98 11.00 110.25 2691.72
   15:40:35.219.07-Aug-2020 5157.51 3490.27 88.98 11.00 110.45 2691.72
   15:40:35.419.07-Aug-2020 5157.51 3490.10 88.98 11.00 110.65 2691.72
   15:40:35.620.07-Aug-2020 5157.51 3490.24 88.97 11.00 110.85 2691.72
   15:40:35.820.07-Aug-2020 5157.51 3490.28 88.97 11.00 111.05 2691.72
   15:40:36.020.07-Aug-2020 5157.51 3490.28 88.97 11.00 111.25 2691.72
   15:40:36.220.07-Aug-2020 5157.51 3490.20 88.97 11.00 111.45 2691.72
   15:40:36.420.07-Aug-2020 5157.51 3490.24 88.97 11.00 111.65 2691.72
   15:40:36.620.07-Aug-2020 5157.51 3490.26 88.97 11.00 111.85 2691.72
   15:40:36.820.07-Aug-2020 5157.51 3490.19 88.97 11.00 112.05 2691.72
   15:40:37.020.07-Aug-2020 5157.51 3490.19 88.97 11.00 112.25 2691.72
   15:40:37.220.07-Aug-2020 5157.51 3490.21 88.97 11.00 112.45 2691.72
   15:40:37.420.07-Aug-2020 5157.51 3490.16 88.97 11.00 112.65 2691.72
   15:40:37.620.07-Aug-2020 5157.51 3490.11 88.97 11.00 112.85 2691.72
