~Version Information
 VERS.                  2.0:   CWLS log ASCII Standard -VERSION 2.0
 WRAP.                   NO:   One line per depth step
~Well Information Block
#MNEM.UNIT     VALUE/NAME     DESCRIPTION
#---------     -----------    ---------------------------
 STRT.S             15:38:44 07-Aug-20: START TIME 15:38:44 07-Aug-20
 STOP.S             15:46:36 07-Aug-20: STOP TIME  15:46:36 07-Aug-20
 STEP.S                   0.00: STEP TIME
 NULL.                 -999.25: NULL VALUE
 DFWT.                        :  DIST FWL TEXT
 DFST.                        :  DIST FSL TEXT
 DMF .             Drill Floor:  DRILL MEAS FROM
 STIM.      12.00.00 03-Jul-20:  START TIME
 DATE.      00.50.00 09-Aug-20:  END TIME
 SPUD.               03-Jul-20:  SPUD DATE
 NREF.                    Grid:  NORTH REFERENCE
 HPTY.       Minimum Curvature:  HOLE POS TYPE
 DMOD.             Drill Model:  DRILL MOD DESC
 SVYD.                  Survey:  SURVEY DESC
 ILTD.               Lithology:  INTERP LTH DESC
 FTOP.          Formation Tops:  FORM TOPS DESC
 PDAT.          Mean Sea Level:  PERMANENT DATUM
 FLD .                     ACG:  FIELD NAME
 CTRY.              Azerbaijan:  COUNTRY NAME
 WELL.                    E04x:  WELL NAME
 SRVC.          Turan Drilling:  CONTRACTOR
 COMP.     BP Exploration (Caspian Sea) Ltd.:  COMPANY
 SON .        AZ-XX-0906531346:  JOB NUMBER
 WTYP.                Deviated:  WELL TYPE
 MDS .        Operator Entered:  MAG DATA SOURCE
 UWI .                     N/A:  UNIQUE WELL IDENTIFIER
 API .                     N/A:  API NUMBER
 BASE.              Azerbaijan:  LOGGING EQUIPMENT BASE LOCATION
 REGN.                   EESSA:  REGION
 PROV.                    Baku:  PROVINCE
 STAT.                    Baku:  STATE NAME
 MWDS.                    Baku:  MWD SHOP
 JOBN.        AZ-XX-0906531346:  JOB TICKET NUMB
 RIG .                     DWG:  RIG NAME
 DOE .                     N/A:  DOE NUMBER
 DCON.         Sperry Drilling:  DIRECTNL CONTR
 UNIT.                     N/A:  LOGGING EQUIPMENT ID
 CNTY.                        :  COUNTY
 LOC .                        :  LOCATION
 LMF .             Drill Floor:  LOG MEASURED FROM
 TVDS.m                  43.16:  TVDSS CORRECTN
 LATI.deg                40.17:  LATITUDE
 LONG.deg                51.17:  LONGITUDE
 WHNS.m                  -0.12:  WELL HEAD N/S
 WHEW.m                  -5.41:  WELL HEAD E/W
 UTMX.m              514337.95:  UTM X
 UTMY.m             4448627.46:  UTM Y
 DFWL.m                   0.00:  DISTANCE FWL
 DFSL.m                   0.00:  DISTANCE FSL
 SDEP.m                3088.01:  START DEPTH
 TDD .m                5200.01:  TOTAL DEPTH (DRILLER)
 VSDR.deg               244.51:  VERT SEC DIRECT
 GVFD.g                   1.00:  GRAVITY FIELD
 MFLD.nT              50329.80:  MAGNETIC FIELD
 MDIP.deg                59.63:  MAGNETIC DIP
 MDEC.deg                 6.59:  MAGNETIC DECL
 GRDC.deg                 0.09:  GRID CORRECTION
 AZTC.deg                 6.50:  AZM TOTAL CORR
 EPD .m                   0.00:  ELEVATION
 EGL .m                   0.00:  GROUND ELEVATION
 WDMS.m                 176.20:  WD ELEV
 APD .m                  43.16:  DEPTH ABOVE PD
 DEP .m                3084.71:  DEPTH
 AGAP.m                  43.16:  AIR GAP
 VSEW.m                  -5.41:  VERT SEC E/W
 VSNS.m                  -0.12:  VERT SEC N/S
 EKB .m                   0.00:  KB ELEVATION
 EDF .m                  43.16:  DF ELEVATION
 TDL .m                 243.00:  TOTAL DEPTH (LOGGER)
 VSC .                       0:  VS TO CLOSURE
 MAGU.                 1853542:  MAGUTM CHECKSUM
~Parameter Information Block
#MNEM.UNIT       Value        Description
#---------     -----------    ---------------------------
 AV  .mps                 1.91:  Ann Velocity 
 AVMX.mps                 2.52:  Max Ann Veloc 
 AZIF.deg               308.97:  Azm, Final 
 BHAT.        Rotary Steerable:  BHA Type 
 BROT.°/30m               1.00:  Build Rotating 
 BS  .in                  6.50:  Bit Size 
 BSZ .in                  6.50:  Bit Size 
 BTPL.psig              350.00:  Bit Press Loss 
 CABU.                      No:  Customer Abuse 
 CGEO.           Asif Pashayev:  Customer Geo 
 COMM.                     6…:  Run Comments 1 
 TCS .hr                 35.86:  Time Ciculation Ended 
 CV  .mps                 2.31:  Crit Velocity 
 CVMX.mps                 2.31:  Max Crit Veloc 
 DD1 .         Intigam Rahimov:  Direct Drillr 1 
 DDSV.               Geo-Pilot:  DD Service 
 DEFF.%                  92.00:  % Det Eff 
 DLRX.°/30m               1.00:  Dogleg Rot Max 
 DLSO.°/30m               1.00:  Dogleg Oriented 
 DLSX.°/30m               1.42:  Dogleg Str Max 
 DRET.      15.50.00 07-Aug-20:  Drill End Time 
 DRST.      10.40.00 06-Aug-20:  Drill Start Tim 
 DTIM.hr                 21.30:  Time Drilling 
 EDEP.m                5200.01:  End Depth 
 ENG1.            Alan Tuganov:  Engineer 1 
 ENG2.         Almaz Almadatov:  Engineer 2 
 ENG3.     Zammelal Abdullah Sani:  Engineer 3 
 ETIM.      22.42.00 08-Aug-20:  End Time 
 FLOI.gpm               395.00:  Flow In 
 FLON.gpm               350.00:  Flow In Min 
 FLOS.cptm                0.00:  Fluid Loss 
 FLOX.gpm               404.00:  Flow In Max 
 FTRO.       Formation Presure:  FTWD Run Obj 
 HFLO.                      No:  High Flow 
 HPRE.                      No:  High Pressure 
 HTEM.                      No:  High Temp 
 HYDO.m                   1.80:  Hydro Offset 
 IFIN.deg                72.64:  Inc, Final 
 IMAX.deg                73.68:  Inc Max 
 IMIN.deg                72.64:  Inc Min 
 IMND.m                5189.69:  Inc Min Depth 
 IMXD.m                5067.88:  Inc Max Depth 
 JARR.                      No:  Jarring 
 LETM.      15.50.00 07-Aug-20:  Log End Time 
 LOST.hr                     0:  Lost Rig Time 
 LSTM.      10.40.00 06-Aug-20:  Log Start Time 
 MDCL.ppm             36000.00:  Mud Chlorides 
 MDES.     Inversion Oil/Synthetic:  Mud Desc 
 DFD .sg                  1.36:  Mud Density 
 MDMN.sg                  1.36:  Dens Mud Min 
 MDMX.sg                  1.36:  Dens Mud Max 
 MOIL.                      70:  Run Mud Oil % 
 MOWR.                   70:30:  Run Mud OWR 
 MSND.                    0.00:  Run Mud Sand % 
 MSOL.                   17.60:  Run Mud Solids% 
 DFV .spqt               73.00:  Mud Viscosity 
 MWOD.in                  4.75:  MWD Tool OD 
 MWSI.                      No:  Serv Intrp, MWD 
 OTIM.hr                 85.66:  Time Operating 
 PCON.           Look Like New:  Pad Condition 
 PMAX.psia             6250.00:  Press Op, Max 
 PV  .cP                 65.00:  Mud PV 
 RUN .                     900:  Run Number 
 ROPA.m/hr               11.40:  ROP Avg 
 ROPN.m/hr                5.00:  ROP Min 
 ROPX.m/hr               20.00:  ROP Max 
 RPMA.rpm               130.00:  RPM Surface Avg 
 RPMN.rpm                40.00:  RPM Surface Min 
 RPMX.rpm               140.00:  RPM Surface Max 
 RRUN.                    L205:  Rig Run Number 
 RTIM.hr                  1.00:  Time Reaming 
 SAZI.deg               313.52:  Azm, Start 
 SDEP.m                4957.01:  Start Depth 
 SIDD.                      No:  Serv Intrp, DD 
 SINC.deg                73.16:  Inc, Start 
 SPPA.psig             5657.00:  SPP Avg 
 SPPN.psig             2500.00:  SPP Min 
 SPPX.psig             5806.00:  SPP Max 
 STIM.      07.12.00 05-Aug-20:  Start Time 
 SVCS.                 DD, MWD:  Services 
 SVER.                    9.20:  Sperry Version 
 TDAT.m                 243.00:  Tot Depth Attmp 
 TDDF.                      No:  Trip for DD 
 TDLG.m                 243.00:  Tot Depth Loggd 
 TFF .                      No:  Trip for Fail 
 TQAA.f-kp               13.00:  Torque Abs Avg 
 TQAN.f-kp               11.00:  Torque Abs Min 
 TQAX.f-kp               16.00:  Torque Abs Max 
 TRRT.°/30m               1.00:  Turn Rotating 
 MRT .                    HCIM:  Maximum Recorded Temperature 
 TTMX.degC               96.08:  Max Tool Temp 
 VS01.                90515411:  Virtual Str1 SN 
 VS02.                90512716:  Virtual Str2 SN 
 VS03.                90522362:  Virtual Str3 SN 
 VS04.                90619415:  Virtual Str4 SN 
 VS05.                90619414:  Virtual Str5 SN 
 VS06.                90597748:  Virtual Str6 SN 
 WBMN.klb                 2.00:  WOB Min 
 WITN.           Adil Mammadov:  Customer Rep 
 WITN.     Alexander Yadullayev:  Customer Rep 2 
 WOBA.klb                 7.00:  WOB Avg 
 WOBX.klb                23.00:  WOB Max 
 YP  .lhf2               37.00:  Yield Point 
~Curve Information Block
#MNEM.UNIT                 API CODE     Curve Description
#---------               -----------    ---------------------------
 TIME.HHMMSS            00 000 000 000:  GT Time & Date
 GTDEPTH.m              00 000 000 000:  GT Depth
 GTPQH.psia             00 000 000 000:  GT HR Quartz Pressure
 GTTQ.degC              00 000 000 000:  GT Quartz Temperature
 GTTN.NONE              00 000 000 000:  GT Test Number
 GTET.sec               00 000 000 000:  GT Elapsed Test Time
 GTTVD.m                00 000 000 000:  GT True Vertical Depth
#Other Information
#
#WARRANTY: Halliburton will use its best efforts to furnish customers with 
#accurate information and interpretations that are part of, and incident to, the services 
#provided.  However, Halliburton cannot and does not warrant the accuracy 
#or correctness of such information and interpretations.  Under no circumstances should any 
#such information or interpretation be relied upon as the sole basis for any drilling, 
#completion, production, or financial decision or any procedure involving any risk to the 
#safety of any drilling venture, drilling rig or its crew or any other third party.  The 
#Customer has full responsibility for all drilling, completion and production operation.  
#Halliburton makes no representations or warranties, either expressed or 
#implied, including, but not limited to, the implied warranties of merchantability or fitness 
#for a particular purpose, with respect to the services rendered.  In no event will 
#Halliburton be liable for failure to obtain any particular results or for 
#any damages, including, but not limited to, indirect, special or consequential damages, 
#resulting from the use of any information or interpretation provided by Halliburton.
#
~A           TIME           GTDEPTH  GTPQH  GTTQ  GTTN   GTET   GTTVD  
# ...
   15:41:23.039.07-Aug-2020 5157.51 3490.04 88.85 11.00 158.27 2691.72
   15:41:23.239.07-Aug-2020 5157.51 3490.41 88.85 11.00 158.47 2691.72
   15:41:23.439.07-Aug-2020 5157.51 3489.79 88.85 11.00 158.67 2691.72
   15:41:23.639.07-Aug-2020 5157.51 3490.40 88.85 11.00 158.87 2691.72
   15:41:23.839.07-Aug-2020 5157.51 3490.33 88.85 11.00 159.07 2691.72
   15:41:24.039.07-Aug-2020 5157.51 3490.33 88.85 11.00 159.27 2691.72
   15:41:24.240.07-Aug-2020 5157.51 3490.18 88.85 11.00 159.47 2691.72
   15:41:24.440.07-Aug-2020 5157.51 3490.08 88.85 11.00 159.67 2691.72
   15:41:24.640.07-Aug-2020 5157.51 3490.41 88.84 11.00 159.87 2691.72
   15:41:24.840.07-Aug-2020 5157.51 3490.31 88.84 11.00 160.07 2691.72
   15:41:25.040.07-Aug-2020 5157.51 3490.31 88.84 11.00 160.27 2691.72
   15:41:25.240.07-Aug-2020 5157.51 3490.30 88.84 11.00 160.47 2691.72
   15:41:25.440.07-Aug-2020 5157.51 3490.31 88.84 11.00 160.67 2691.72
   15:41:25.640.07-Aug-2020 5157.51 3490.22 88.84 11.00 160.87 2691.72
   15:41:25.840.07-Aug-2020 5157.51 3490.26 88.84 11.00 161.07 2691.72
   15:41:26.040.07-Aug-2020 5157.51 3490.25 88.84 11.00 161.27 2691.72
   15:41:26.240.07-Aug-2020 5157.51 3490.28 88.84 11.00 161.47 2691.72
   15:41:26.440.07-Aug-2020 5157.51 3490.21 88.84 11.00 161.67 2691.72
   15:41:26.641.07-Aug-2020 5157.51 3490.26 88.84 11.00 161.87 2691.72
   15:41:26.841.07-Aug-2020 5157.51 3490.23 88.84 11.00 162.07 2691.72
   15:41:27.041.07-Aug-2020 5157.51 3490.23 88.84 11.00 162.27 2691.72
   15:41:27.241.07-Aug-2020 5157.51 3490.35 88.84 11.00 162.47 2691.72
   15:41:27.441.07-Aug-2020 5157.51 3490.32 88.84 11.00 162.67 2691.72
   15:41:27.641.07-Aug-2020 5157.51 3490.22 88.84 11.00 162.87 2691.72
   15:41:27.841.07-Aug-2020 5157.51 3477.41 88.84 11.00 163.07 2691.72
   15:41:28.041.07-Aug-2020 5157.51 3477.41 88.84 11.00 163.27 2691.72
   15:41:28.241.07-Aug-2020 5157.51 3300.06 88.84 11.00 163.47 2691.72
   15:41:28.441.07-Aug-2020 5157.51 3293.15 88.83 11.00 163.67 2691.72
   15:41:28.641.07-Aug-2020 5157.51 3293.66 88.83 11.00 163.87 2691.72
   15:41:28.841.07-Aug-2020 5157.51 3282.36 88.83 11.00 164.07 2691.72
   15:41:29.042.07-Aug-2020 5157.51 3282.36 88.83 11.00 164.27 2691.72
   15:41:29.242.07-Aug-2020 5157.51 3284.35 88.83 11.00 164.47 2691.72
   15:41:29.442.07-Aug-2020 5157.51 3285.29 88.83 11.00 164.67 2691.72
   15:41:29.642.07-Aug-2020 5157.51 3286.71 88.83 11.00 164.87 2691.72
   15:41:29.842.07-Aug-2020 5157.51 3279.93 88.83 11.00 165.07 2691.72
   15:41:30.042.07-Aug-2020 5157.51 3287.68 88.83 11.00 165.27 2691.72
   15:41:30.242.07-Aug-2020 5157.51 3286.27 88.83 11.00 165.47 2691.72
   15:41:30.442.07-Aug-2020 5157.51 3285.06 88.83 11.00 165.67 2691.72
   15:41:30.642.07-Aug-2020 5157.51 3284.63 88.83 11.00 165.87 2691.72
   15:41:30.842.07-Aug-2020 5157.51 3285.03 88.83 11.00 166.07 2691.72
   15:41:31.042.07-Aug-2020 5157.51 3285.03 88.83 11.00 166.27 2691.72
   15:41:31.242.07-Aug-2020 5157.51 3282.87 88.83 11.00 166.47 2691.72
   15:41:31.443.07-Aug-2020 5157.51 3283.44 88.83 11.00 166.67 2691.72
   15:41:31.643.07-Aug-2020 5157.51 3283.02 88.83 11.00 166.87 2691.72
   15:41:31.843.07-Aug-2020 5157.51 3280.69 88.83 11.00 167.07 2691.72
   15:41:32.043.07-Aug-2020 5157.51 3280.69 88.83 11.00 167.27 2691.72
   15:41:32.243.07-Aug-2020 5157.51 3286.50 88.82 11.00 167.47 2691.72
   15:41:32.443.07-Aug-2020 5157.51 3281.38 88.82 11.00 167.67 2691.72
   15:41:32.643.07-Aug-2020 5157.51 3277.19 88.82 11.00 167.87 2691.72
   15:41:32.843.07-Aug-2020 5157.51 3281.86 88.82 11.00 168.07 2691.72
   15:41:33.043.07-Aug-2020 5157.51 3281.86 88.82 11.00 168.27 2691.72
   15:41:33.243.07-Aug-2020 5157.51 3280.58 88.82 11.00 168.47 2691.72
   15:41:33.443.07-Aug-2020 5157.51 3281.08 88.82 11.00 168.67 2691.72
   15:41:33.643.07-Aug-2020 5157.51 3283.26 88.82 11.00 168.87 2691.72
   15:41:33.844.07-Aug-2020 5157.51 3283.97 88.82 11.00 169.07 2691.72
   15:41:34.044.07-Aug-2020 5157.51 3281.61 88.82 11.00 169.27 2691.72
   15:41:34.244.07-Aug-2020 5157.51 3284.01 88.82 11.00 169.47 2691.72
   15:41:34.444.07-Aug-2020 5157.51 3283.41 88.82 11.00 169.67 2691.72
   15:41:34.644.07-Aug-2020 5157.51 3281.60 88.82 11.00 169.87 2691.72
   15:41:34.844.07-Aug-2020 5157.51 3281.55 88.82 11.00 170.07 2691.72
   15:41:35.044.07-Aug-2020 5157.51 3281.55 88.82 11.00 170.27 2691.72
   15:41:35.244.07-Aug-2020 5157.51 3279.99 88.82 11.00 170.47 2691.72
   15:41:35.444.07-Aug-2020 5157.51 3280.28 88.82 11.00 170.67 2691.72
   15:41:35.644.07-Aug-2020 5157.51 3284.56 88.82 11.00 170.87 2691.72
   15:41:35.844.07-Aug-2020 5157.51 3284.02 88.81 11.00 171.07 2691.72
   15:41:36.044.07-Aug-2020 5157.51 3284.02 88.81 11.00 171.27 2691.72
   15:41:36.245.07-Aug-2020 5157.51 3283.43 88.81 11.00 171.47 2691.72
   15:41:36.445.07-Aug-2020 5157.51 3282.25 88.81 11.00 171.67 2691.72
   15:41:36.645.07-Aug-2020 5157.51 3281.53 88.81 11.00 171.87 2691.72
   15:41:36.845.07-Aug-2020 5157.51 3280.14 88.81 11.00 172.07 2691.72
   15:41:37.045.07-Aug-2020 5157.51 3280.14 88.81 11.00 172.27 2691.72
   15:41:37.245.07-Aug-2020 5157.51 3280.88 88.81 11.00 172.47 2691.72
   15:41:37.445.07-Aug-2020 5157.51 3281.72 88.81 11.00 172.67 2691.72
   15:41:37.645.07-Aug-2020 5157.51 3281.32 88.81 11.00 172.87 2691.72
   15:41:37.845.07-Aug-2020 5157.51 3281.91 88.81 11.00 173.07 2691.72
   15:41:38.045.07-Aug-2020 5157.51 3281.91 88.81 11.00 173.27 2691.72
   15:41:38.245.07-Aug-2020 5157.51 3439.26 88.81 11.00 173.47 2691.72
   15:41:38.445.07-Aug-2020 5157.51 3474.23 88.81 11.00 173.67 2691.72
   15:41:38.645.07-Aug-2020 5157.51 3481.70 88.81 11.00 173.87 2691.72
   15:41:38.846.07-Aug-2020 5157.51 3484.13 88.81 11.00 174.07 2691.72
   15:41:39.046.07-Aug-2020 5157.51 3484.13 88.81 11.00 174.27 2691.72
   15:41:39.246.07-Aug-2020 5157.51 3486.07 88.81 11.00 174.47 2691.72
   15:41:39.446.07-Aug-2020 5157.51 3486.78 88.81 11.00 174.67 2691.72
   15:41:39.646.07-Aug-2020 5157.51 3487.22 88.80 11.00 174.87 2691.72
   15:41:39.846.07-Aug-2020 5157.51 3487.48 88.80 11.00 175.07 2691.72
   15:41:40.046.07-Aug-2020 5157.51 3487.48 88.80 11.00 175.27 2691.72
   15:41:40.246.07-Aug-2020 5157.51 3488.15 88.80 11.00 175.47 2691.72
   15:41:40.446.07-Aug-2020 5157.51 3488.36 88.80 11.00 175.67 2691.72
   15:41:40.646.07-Aug-2020 5157.51 3488.14 88.80 11.00 175.87 2691.72
   15:41:40.846.07-Aug-2020 5157.51 3488.35 88.80 11.00 176.07 2691.72
   15:41:41.046.07-Aug-2020 5157.51 3488.35 88.80 11.00 176.27 2691.72
   15:41:41.247.07-Aug-2020 5157.51 3488.85 88.80 11.00 176.47 2691.72
   15:41:41.447.07-Aug-2020 5157.51 3488.84 88.80 11.00 176.67 2691.72
   15:41:41.647.07-Aug-2020 5157.51 3488.83 88.80 11.00 176.87 2691.72
   15:41:41.847.07-Aug-2020 5157.51 3489.02 88.80 11.00 177.07 2691.72
   15:41:42.047.07-Aug-2020 5157.51 3489.08 88.80 11.00 177.27 2691.72
   15:41:42.247.07-Aug-2020 5157.51 3489.01 88.80 11.00 177.47 2691.72
   15:41:42.447.07-Aug-2020 5157.51 3489.16 88.80 11.00 177.67 2691.72
   15:41:42.647.07-Aug-2020 5157.51 3489.18 88.80 11.00 177.87 2691.72
   15:41:42.847.07-Aug-2020 5157.51 3489.20 88.80 11.00 178.07 2691.72
   15:41:43.047.07-Aug-2020 5157.51 3489.20 88.80 11.00 178.27 2691.72
   15:41:43.247.07-Aug-2020 5157.51 3489.27 88.80 11.00 178.47 2691.72
   15:41:43.447.07-Aug-2020 5157.51 3489.29 88.80 11.00 178.67 2691.72
   15:41:43.648.07-Aug-2020 5157.51 3489.21 88.80 11.00 178.87 2691.72
   15:41:43.848.07-Aug-2020 5157.51 3489.63 88.79 11.00 179.07 2691.72
   15:41:44.048.07-Aug-2020 5157.51 3489.60 88.79 11.00 179.27 2691.72
   15:41:44.248.07-Aug-2020 5157.51 3489.41 88.79 11.00 179.47 2691.72
   15:41:44.448.07-Aug-2020 5157.51 3489.59 88.79 11.00 179.67 2691.72
   15:41:44.648.07-Aug-2020 5157.51 3489.62 88.79 11.00 179.87 2691.72
   15:41:44.848.07-Aug-2020 5157.51 3489.56 88.79 11.00 180.07 2691.72
   15:41:45.048.07-Aug-2020 5157.51 3489.56 88.79 11.00 180.27 2691.72
   15:41:45.248.07-Aug-2020 5157.51 3489.61 88.79 11.00 180.47 2691.72
   15:41:45.448.07-Aug-2020 5157.51 3489.67 88.79 11.00 180.67 2691.72
