~Version Information
 VERS.                  2.0:   CWLS log ASCII Standard -VERSION 2.0
 WRAP.                   NO:   One line per depth step
~Well Information Block
#MNEM.UNIT     VALUE/NAME     DESCRIPTION
#---------     -----------    ---------------------------
 STRT.S             00:43:02 07-Aug-20: START TIME 00:43:02 07-Aug-20
 STOP.S             00:50:54 07-Aug-20: STOP TIME  00:50:54 07-Aug-20
 STEP.S                   0.00: STEP TIME
 NULL.                 -999.25: NULL VALUE
 DFWT.                        :  DIST FWL TEXT
 DFST.                        :  DIST FSL TEXT
 DMF .             Drill Floor:  DRILL MEAS FROM
 STIM.      12.00.00 03-Jul-20:  START TIME
 DATE.      00.50.00 09-Aug-20:  END TIME
 SPUD.               03-Jul-20:  SPUD DATE
 NREF.                    Grid:  NORTH REFERENCE
 HPTY.       Minimum Curvature:  HOLE POS TYPE
 DMOD.             Drill Model:  DRILL MOD DESC
 SVYD.                  Survey:  SURVEY DESC
 ILTD.               Lithology:  INTERP LTH DESC
 FTOP.          Formation Tops:  FORM TOPS DESC
 PDAT.          Mean Sea Level:  PERMANENT DATUM
 FLD .                     ACG:  FIELD NAME
 CTRY.              Azerbaijan:  COUNTRY NAME
 WELL.                    E04x:  WELL NAME
 SRVC.          Turan Drilling:  CONTRACTOR
 COMP.     BP Exploration (Caspian Sea) Ltd.:  COMPANY
 SON .        AZ-XX-0906531346:  JOB NUMBER
 WTYP.                Deviated:  WELL TYPE
 MDS .        Operator Entered:  MAG DATA SOURCE
 UWI .                     N/A:  UNIQUE WELL IDENTIFIER
 API .                     N/A:  API NUMBER
 BASE.              Azerbaijan:  LOGGING EQUIPMENT BASE LOCATION
 REGN.                   EESSA:  REGION
 PROV.                    Baku:  PROVINCE
 STAT.                    Baku:  STATE NAME
 MWDS.                    Baku:  MWD SHOP
 JOBN.        AZ-XX-0906531346:  JOB TICKET NUMB
 RIG .                     DWG:  RIG NAME
 DOE .                     N/A:  DOE NUMBER
 DCON.         Sperry Drilling:  DIRECTNL CONTR
 UNIT.                     N/A:  LOGGING EQUIPMENT ID
 CNTY.                        :  COUNTY
 LOC .                        :  LOCATION
 LMF .             Drill Floor:  LOG MEASURED FROM
 TVDS.m                  43.16:  TVDSS CORRECTN
 LATI.deg                40.17:  LATITUDE
 LONG.deg                51.17:  LONGITUDE
 WHNS.m                  -0.12:  WELL HEAD N/S
 WHEW.m                  -5.41:  WELL HEAD E/W
 UTMX.m              514337.95:  UTM X
 UTMY.m             4448627.46:  UTM Y
 DFWL.m                   0.00:  DISTANCE FWL
 DFSL.m                   0.00:  DISTANCE FSL
 SDEP.m                3088.01:  START DEPTH
 TDD .m                5200.01:  TOTAL DEPTH (DRILLER)
 VSDR.deg               244.51:  VERT SEC DIRECT
 GVFD.g                   1.00:  GRAVITY FIELD
 MFLD.nT              50329.80:  MAGNETIC FIELD
 MDIP.deg                59.63:  MAGNETIC DIP
 MDEC.deg                 6.59:  MAGNETIC DECL
 GRDC.deg                 0.09:  GRID CORRECTION
 AZTC.deg                 6.50:  AZM TOTAL CORR
 EPD .m                   0.00:  ELEVATION
 EGL .m                   0.00:  GROUND ELEVATION
 WDMS.m                 176.20:  WD ELEV
 APD .m                  43.16:  DEPTH ABOVE PD
 DEP .m                3084.71:  DEPTH
 AGAP.m                  43.16:  AIR GAP
 VSEW.m                  -5.41:  VERT SEC E/W
 VSNS.m                  -0.12:  VERT SEC N/S
 EKB .m                   0.00:  KB ELEVATION
 EDF .m                  43.16:  DF ELEVATION
 TDL .m                 243.00:  TOTAL DEPTH (LOGGER)
 VSC .                       0:  VS TO CLOSURE
 MAGU.                 1853542:  MAGUTM CHECKSUM
~Parameter Information Block
#MNEM.UNIT       Value        Description
#---------     -----------    ---------------------------
 AV  .mps                 1.91:  Ann Velocity 
 AVMX.mps                 2.52:  Max Ann Veloc 
 AZIF.deg               308.97:  Azm, Final 
 BHAT.        Rotary Steerable:  BHA Type 
 BROT.°/30m               1.00:  Build Rotating 
 BS  .in                  6.50:  Bit Size 
 BSZ .in                  6.50:  Bit Size 
 BTPL.psig              350.00:  Bit Press Loss 
 CABU.                      No:  Customer Abuse 
 CGEO.           Asif Pashayev:  Customer Geo 
 COMM.                     ´è„:  Run Comments 1 
 TCS .hr                 35.86:  Time Ciculation Ended 
 CV  .mps                 2.31:  Crit Velocity 
 CVMX.mps                 2.31:  Max Crit Veloc 
 DD1 .         Intigam Rahimov:  Direct Drillr 1 
 DDSV.               Geo-Pilot:  DD Service 
 DEFF.%                  92.00:  % Det Eff 
 DLRX.°/30m               1.00:  Dogleg Rot Max 
 DLSO.°/30m               1.00:  Dogleg Oriented 
 DLSX.°/30m               1.42:  Dogleg Str Max 
 DRET.      15.50.00 07-Aug-20:  Drill End Time 
 DRST.      10.40.00 06-Aug-20:  Drill Start Tim 
 DTIM.hr                 21.30:  Time Drilling 
 EDEP.m                5200.01:  End Depth 
 ENG1.            Alan Tuganov:  Engineer 1 
 ENG2.         Almaz Almadatov:  Engineer 2 
 ENG3.     Zammelal Abdullah Sani:  Engineer 3 
 ETIM.      22.42.00 08-Aug-20:  End Time 
 FLOI.gpm               395.00:  Flow In 
 FLON.gpm               350.00:  Flow In Min 
 FLOS.cptm                0.00:  Fluid Loss 
 FLOX.gpm               404.00:  Flow In Max 
 FTRO.       Formation Presure:  FTWD Run Obj 
 HFLO.                      No:  High Flow 
 HPRE.                      No:  High Pressure 
 HTEM.                      No:  High Temp 
 HYDO.m                   1.80:  Hydro Offset 
 IFIN.deg                72.64:  Inc, Final 
 IMAX.deg                73.68:  Inc Max 
 IMIN.deg                72.64:  Inc Min 
 IMND.m                5189.69:  Inc Min Depth 
 IMXD.m                5067.88:  Inc Max Depth 
 JARR.                      No:  Jarring 
 LETM.      15.50.00 07-Aug-20:  Log End Time 
 LOST.hr                     0:  Lost Rig Time 
 LSTM.      10.40.00 06-Aug-20:  Log Start Time 
 MDCL.ppm             36000.00:  Mud Chlorides 
 MDES.     Inversion Oil/Synthetic:  Mud Desc 
 DFD .sg                  1.36:  Mud Density 
 MDMN.sg                  1.36:  Dens Mud Min 
 MDMX.sg                  1.36:  Dens Mud Max 
 MOIL.                      70:  Run Mud Oil % 
 MOWR.                   70:30:  Run Mud OWR 
 MSND.                    0.00:  Run Mud Sand % 
 MSOL.                   17.60:  Run Mud Solids% 
 DFV .spqt               73.00:  Mud Viscosity 
 MWOD.in                  4.75:  MWD Tool OD 
 MWSI.                      No:  Serv Intrp, MWD 
 OTIM.hr                 85.66:  Time Operating 
 PCON.           Look Like New:  Pad Condition 
 PMAX.psia             6250.00:  Press Op, Max 
 PV  .cP                 65.00:  Mud PV 
 RUN .                     900:  Run Number 
 ROPA.m/hr               11.40:  ROP Avg 
 ROPN.m/hr                5.00:  ROP Min 
 ROPX.m/hr               20.00:  ROP Max 
 RPMA.rpm               130.00:  RPM Surface Avg 
 RPMN.rpm                40.00:  RPM Surface Min 
 RPMX.rpm               140.00:  RPM Surface Max 
 RRUN.                    L205:  Rig Run Number 
 RTIM.hr                  1.00:  Time Reaming 
 SAZI.deg               313.52:  Azm, Start 
 SDEP.m                4957.01:  Start Depth 
 SIDD.                      No:  Serv Intrp, DD 
 SINC.deg                73.16:  Inc, Start 
 SPPA.psig             5657.00:  SPP Avg 
 SPPN.psig             2500.00:  SPP Min 
 SPPX.psig             5806.00:  SPP Max 
 STIM.      07.12.00 05-Aug-20:  Start Time 
 SVCS.                 DD, MWD:  Services 
 SVER.                    9.20:  Sperry Version 
 TDAT.m                 243.00:  Tot Depth Attmp 
 TDDF.                      No:  Trip for DD 
 TDLG.m                 243.00:  Tot Depth Loggd 
 TFF .                      No:  Trip for Fail 
 TQAA.f-kp               13.00:  Torque Abs Avg 
 TQAN.f-kp               11.00:  Torque Abs Min 
 TQAX.f-kp               16.00:  Torque Abs Max 
 TRRT.°/30m               1.00:  Turn Rotating 
 MRT .                    HCIM:  Maximum Recorded Temperature 
 TTMX.degC               96.08:  Max Tool Temp 
 VS01.                90515411:  Virtual Str1 SN 
 VS02.                90512716:  Virtual Str2 SN 
 VS03.                90522362:  Virtual Str3 SN 
 VS04.                90619415:  Virtual Str4 SN 
 VS05.                90619414:  Virtual Str5 SN 
 VS06.                90597748:  Virtual Str6 SN 
 WBMN.klb                 2.00:  WOB Min 
 WITN.           Adil Mammadov:  Customer Rep 
 WITN.     Alexander Yadullayev:  Customer Rep 2 
 WOBA.klb                 7.00:  WOB Avg 
 WOBX.klb                23.00:  WOB Max 
 YP  .lhf2               37.00:  Yield Point 
~Curve Information Block
#MNEM.UNIT                 API CODE     Curve Description
#---------               -----------    ---------------------------
 TIME.HHMMSS            00 000 000 000:  GT Time & Date
 GTDEPTH.m              00 000 000 000:  GT Depth
 GTPQH.psia             00 000 000 000:  GT HR Quartz Pressure
 GTTQ.degC              00 000 000 000:  GT Quartz Temperature
 GTTN.NONE              00 000 000 000:  GT Test Number
 GTET.sec               00 000 000 000:  GT Elapsed Test Time
 GTTVD.m                00 000 000 000:  GT True Vertical Depth
#Other Information
#
#WARRANTY: Halliburton will use its best efforts to furnish customers with 
#accurate information and interpretations that are part of, and incident to, the services 
#provided.  However, Halliburton cannot and does not warrant the accuracy 
#or correctness of such information and interpretations.  Under no circumstances should any 
#such information or interpretation be relied upon as the sole basis for any drilling, 
#completion, production, or financial decision or any procedure involving any risk to the 
#safety of any drilling venture, drilling rig or its crew or any other third party.  The 
#Customer has full responsibility for all drilling, completion and production operation.  
#Halliburton makes no representations or warranties, either expressed or 
#implied, including, but not limited to, the implied warranties of merchantability or fitness 
#for a particular purpose, with respect to the services rendered.  In no event will 
#Halliburton be liable for failure to obtain any particular results or for 
#any damages, including, but not limited to, indirect, special or consequential damages, 
#resulting from the use of any information or interpretation provided by Halliburton.
#
~A           TIME           GTDEPTH  GTPQH  GTTQ  GTTN  GTET   GTTVD  
# ...
   00:44:11.533.07-Aug-2020 5032.01 3674.07 86.71 5.00  69.02 2655.40
   00:44:11.733.07-Aug-2020 5032.01 3674.07 86.71 5.00  69.22 2655.40
   00:44:11.933.07-Aug-2020 5032.01 3674.08 86.71 5.00  69.42 2655.40
   00:44:12.133.07-Aug-2020 5032.01 3674.08 86.71 5.00  69.62 2655.40
   00:44:12.333.07-Aug-2020 5032.01 3674.08 86.71 5.00  69.82 2655.40
   00:44:12.533.07-Aug-2020 5032.01 3674.08 86.71 5.00  70.02 2655.40
   00:44:12.733.07-Aug-2020 5032.01 3674.08 86.71 5.00  70.22 2655.40
   00:44:12.933.07-Aug-2020 5032.01 3674.07 86.70 5.00  70.42 2655.40
   00:44:13.133.07-Aug-2020 5032.01 3674.07 86.70 5.00  70.62 2655.40
   00:44:13.333.07-Aug-2020 5032.01 3673.94 86.70 5.00  70.82 2655.40
   00:44:13.533.07-Aug-2020 5032.01 3674.20 86.70 5.00  71.02 2655.40
   00:44:13.733.07-Aug-2020 5032.01 3674.20 86.70 5.00  71.22 2655.40
   00:44:13.933.07-Aug-2020 5032.01 3674.11 86.70 5.00  71.42 2655.40
   00:44:14.133.07-Aug-2020 5032.01 3673.94 86.70 5.00  71.62 2655.40
   00:44:14.333.07-Aug-2020 5032.01 3674.18 86.70 5.00  71.82 2655.40
   00:44:14.534.07-Aug-2020 5032.01 3674.01 86.70 5.00  72.02 2655.40
   00:44:14.734.07-Aug-2020 5032.01 3674.12 86.70 5.00  72.22 2655.40
   00:44:14.934.07-Aug-2020 5032.01 3674.06 86.70 5.00  72.42 2655.40
   00:44:15.134.07-Aug-2020 5032.01 3674.10 86.70 5.00  72.62 2655.40
   00:44:15.334.07-Aug-2020 5032.01 3673.93 86.70 5.00  72.82 2655.40
   00:44:15.534.07-Aug-2020 5032.01 3674.18 86.70 5.00  73.02 2655.40
   00:44:15.734.07-Aug-2020 5032.01 3674.18 86.70 5.00  73.22 2655.40
   00:44:15.934.07-Aug-2020 5032.01 3674.09 86.69 5.00  73.42 2655.40
   00:44:16.134.07-Aug-2020 5032.01 3674.05 86.69 5.00  73.62 2655.40
   00:44:16.334.07-Aug-2020 5032.01 3674.07 86.69 5.00  73.82 2655.40
   00:44:16.534.07-Aug-2020 5032.01 3673.99 86.69 5.00  74.02 2655.40
   00:44:16.734.07-Aug-2020 5032.01 3673.99 86.69 5.00  74.22 2655.40
   00:44:16.934.07-Aug-2020 5032.01 3674.00 86.69 5.00  74.42 2655.40
   00:44:17.134.07-Aug-2020 5032.01 3674.11 86.69 5.00  74.62 2655.40
   00:44:17.334.07-Aug-2020 5032.01 3674.03 86.69 5.00  74.82 2655.40
   00:44:17.534.07-Aug-2020 5032.01 3674.09 86.69 5.00  75.02 2655.40
   00:44:17.734.07-Aug-2020 5032.01 3674.09 86.69 5.00  75.22 2655.40
   00:44:17.934.07-Aug-2020 5032.01 3674.06 86.69 5.00  75.42 2655.40
   00:44:18.134.07-Aug-2020 5032.01 3674.06 86.69 5.00  75.62 2655.40
   00:44:18.334.07-Aug-2020 5032.01 3674.06 86.69 5.00  75.82 2655.40
   00:44:18.534.07-Aug-2020 5032.01 3674.07 86.69 5.00  76.02 2655.40
   00:44:18.735.07-Aug-2020 5032.01 3674.05 86.69 5.00  76.22 2655.40
   00:44:18.935.07-Aug-2020 5032.01 3674.06 86.68 5.00  76.42 2655.40
   00:44:19.135.07-Aug-2020 5032.01 3674.06 86.68 5.00  76.62 2655.40
   00:44:19.335.07-Aug-2020 5032.01 3673.93 86.68 5.00  76.82 2655.40
   00:44:19.535.07-Aug-2020 5032.01 3674.15 86.68 5.00  77.02 2655.40
   00:44:19.735.07-Aug-2020 5032.01 3674.15 86.68 5.00  77.22 2655.40
   00:44:19.935.07-Aug-2020 5032.01 3674.08 86.68 5.00  77.42 2655.40
   00:44:20.135.07-Aug-2020 5032.01 3674.04 86.68 5.00  77.62 2655.40
   00:44:20.335.07-Aug-2020 5032.01 3674.05 86.68 5.00  77.82 2655.40
   00:44:20.535.07-Aug-2020 5032.01 3674.06 86.68 5.00  78.02 2655.40
   00:44:20.735.07-Aug-2020 5032.01 3674.06 86.68 5.00  78.22 2655.40
   00:44:20.935.07-Aug-2020 5032.01 3674.06 86.68 5.00  78.42 2655.40
   00:44:21.135.07-Aug-2020 5032.01 3674.06 86.68 5.00  78.62 2655.40
   00:44:21.335.07-Aug-2020 5032.01 3674.06 86.68 5.00  78.82 2655.40
   00:44:21.535.07-Aug-2020 5032.01 3674.04 86.68 5.00  79.02 2655.40
   00:44:21.735.07-Aug-2020 5032.01 3674.04 86.68 5.00  79.22 2655.40
   00:44:21.935.07-Aug-2020 5032.01 3674.03 86.68 5.00  79.42 2655.40
   00:44:22.135.07-Aug-2020 5032.01 3674.04 86.67 5.00  79.62 2655.40
   00:44:22.335.07-Aug-2020 5032.01 3674.01 86.67 5.00  79.82 2655.40
   00:44:22.535.07-Aug-2020 5032.01 3674.08 86.67 5.00  80.02 2655.40
   00:44:22.735.07-Aug-2020 5032.01 3674.03 86.67 5.00  80.22 2655.40
   00:44:22.936.07-Aug-2020 5032.01 3674.02 86.67 5.00  80.42 2655.40
   00:44:23.136.07-Aug-2020 5032.01 3674.03 86.67 5.00  80.62 2655.40
   00:44:23.336.07-Aug-2020 5032.01 3674.07 86.67 5.00  80.82 2655.40
   00:44:23.536.07-Aug-2020 5032.01 3674.05 86.67 5.00  81.02 2655.40
   00:44:23.736.07-Aug-2020 5032.01 3674.05 86.67 5.00  81.22 2655.40
   00:44:23.936.07-Aug-2020 5032.01 3674.04 86.67 5.00  81.42 2655.40
   00:44:24.136.07-Aug-2020 5032.01 3674.03 86.67 5.00  81.62 2655.40
   00:44:24.336.07-Aug-2020 5032.01 3674.01 86.67 5.00  81.82 2655.40
   00:44:24.536.07-Aug-2020 5032.01 3674.06 86.67 5.00  82.02 2655.40
   00:44:24.736.07-Aug-2020 5032.01 3674.06 86.67 5.00  82.22 2655.40
   00:44:24.936.07-Aug-2020 5032.01 3674.04 86.67 5.00  82.42 2655.40
   00:44:25.136.07-Aug-2020 5032.01 3674.06 86.66 5.00  82.62 2655.40
   00:44:25.336.07-Aug-2020 5032.01 3673.98 86.66 5.00  82.82 2655.40
   00:44:25.536.07-Aug-2020 5032.01 3674.06 86.66 5.00  83.02 2655.40
   00:44:25.736.07-Aug-2020 5032.01 3674.06 86.66 5.00  83.22 2655.40
   00:44:25.936.07-Aug-2020 5032.01 3674.07 86.66 5.00  83.42 2655.40
   00:44:26.136.07-Aug-2020 5032.01 3674.03 86.66 5.00  83.62 2655.40
   00:44:26.336.07-Aug-2020 5032.01 3674.06 86.66 5.00  83.82 2655.40
   00:44:26.536.07-Aug-2020 5032.01 3674.02 86.66 5.00  84.02 2655.40
   00:44:26.736.07-Aug-2020 5032.01 3674.03 86.66 5.00  84.22 2655.40
   00:44:26.936.07-Aug-2020 5032.01 3674.04 86.66 5.00  84.42 2655.40
   00:44:27.136.07-Aug-2020 5032.01 3674.05 86.66 5.00  84.62 2655.40
   00:44:27.337.07-Aug-2020 5032.01 3674.05 86.66 5.00  84.82 2655.40
   00:44:27.537.07-Aug-2020 5032.01 3674.03 86.66 5.00  85.02 2655.40
   00:44:27.737.07-Aug-2020 5032.01 3674.03 86.66 5.00  85.22 2655.40
   00:44:27.937.07-Aug-2020 5032.01 3674.00 86.66 5.00  85.42 2655.40
   00:44:28.137.07-Aug-2020 5032.01 3674.03 86.66 5.00  85.62 2655.40
   00:44:28.337.07-Aug-2020 5032.01 3673.98 86.65 5.00  85.82 2655.40
   00:44:28.537.07-Aug-2020 5032.01 3674.08 86.65 5.00  86.02 2655.40
   00:44:28.737.07-Aug-2020 5032.01 3674.08 86.65 5.00  86.22 2655.40
   00:44:28.937.07-Aug-2020 5032.01 3674.04 86.65 5.00  86.42 2655.40
   00:44:29.137.07-Aug-2020 5032.01 3674.01 86.65 5.00  86.62 2655.40
   00:44:29.337.07-Aug-2020 5032.01 3674.03 86.65 5.00  86.82 2655.40
   00:44:29.537.07-Aug-2020 5032.01 3674.02 86.65 5.00  87.02 2655.40
   00:44:29.737.07-Aug-2020 5032.01 3674.02 86.65 5.00  87.22 2655.40
   00:44:29.937.07-Aug-2020 5032.01 3674.02 86.65 5.00  87.42 2655.40
   00:44:30.137.07-Aug-2020 5032.01 3674.03 86.65 5.00  87.62 2655.40
   00:44:30.337.07-Aug-2020 5032.01 3674.01 86.65 5.00  87.82 2655.40
   00:44:30.537.07-Aug-2020 5032.01 3674.02 86.65 5.00  88.02 2655.40
   00:44:30.737.07-Aug-2020 5032.01 3673.88 86.65 5.00  88.22 2655.40
   00:44:30.937.07-Aug-2020 5032.01 3674.13 86.65 5.00  88.42 2655.40
   00:44:31.137.07-Aug-2020 5032.01 3673.98 86.65 5.00  88.62 2655.40
   00:44:31.337.07-Aug-2020 5032.01 3674.05 86.65 5.00  88.82 2655.40
   00:44:31.538.07-Aug-2020 5032.01 3673.87 86.65 5.00  89.02 2655.40
   00:44:31.738.07-Aug-2020 5032.01 3674.14 86.64 5.00  89.22 2655.40
   00:44:31.938.07-Aug-2020 5032.01 3673.96 86.64 5.00  89.42 2655.40
   00:44:32.138.07-Aug-2020 5032.01 3674.04 86.64 5.00  89.62 2655.40
   00:44:32.338.07-Aug-2020 5032.01 3674.00 86.64 5.00  89.82 2655.40
   00:44:32.538.07-Aug-2020 5032.01 3674.03 86.64 5.00  90.02 2655.40
   00:44:32.738.07-Aug-2020 5032.01 3674.03 86.64 5.00  90.22 2655.40
   00:44:32.938.07-Aug-2020 5032.01 3674.11 86.64 5.00  90.42 2655.40
   00:44:33.138.07-Aug-2020 5032.01 3673.97 86.64 5.00  90.62 2655.40
   00:44:33.338.07-Aug-2020 5032.01 3674.04 86.64 5.00  90.82 2655.40
   00:44:33.538.07-Aug-2020 5032.01 3674.00 86.64 5.00  91.02 2655.40
   00:44:33.738.07-Aug-2020 5032.01 3674.00 86.64 5.00  91.22 2655.40
   00:44:33.938.07-Aug-2020 5032.01 3673.94 86.64 5.00  91.42 2655.40
   00:44:34.138.07-Aug-2020 5032.01 3674.05 86.64 5.00  91.62 2655.40
   00:44:34.338.07-Aug-2020 5032.01 3673.96 86.64 5.00  91.82 2655.40
