~Version Information
 VERS.                  2.0:   CWLS log ASCII Standard -VERSION 2.0
 WRAP.                   NO:   One line per depth step
~Well Information Block
#MNEM.UNIT     VALUE/NAME     DESCRIPTION
#---------     -----------    ---------------------------
 STRT.S             06:40:56 07-Aug-20: START TIME 06:40:56 07-Aug-20
 STOP.S             06:48:48 07-Aug-20: STOP TIME  06:48:48 07-Aug-20
 STEP.S                   0.00: STEP TIME
 NULL.                 -999.25: NULL VALUE
 DFWT.                        :  DIST FWL TEXT
 DFST.                        :  DIST FSL TEXT
 DMF .             Drill Floor:  DRILL MEAS FROM
 STIM.      12.00.00 03-Jul-20:  START TIME
 DATE.      00.50.00 09-Aug-20:  END TIME
 SPUD.               03-Jul-20:  SPUD DATE
 NREF.                    Grid:  NORTH REFERENCE
 HPTY.       Minimum Curvature:  HOLE POS TYPE
 DMOD.             Drill Model:  DRILL MOD DESC
 SVYD.                  Survey:  SURVEY DESC
 ILTD.               Lithology:  INTERP LTH DESC
 FTOP.          Formation Tops:  FORM TOPS DESC
 PDAT.          Mean Sea Level:  PERMANENT DATUM
 FLD .                     ACG:  FIELD NAME
 CTRY.              Azerbaijan:  COUNTRY NAME
 WELL.                    E04x:  WELL NAME
 SRVC.          Turan Drilling:  CONTRACTOR
 COMP.     BP Exploration (Caspian Sea) Ltd.:  COMPANY
 SON .        AZ-XX-0906531346:  JOB NUMBER
 WTYP.                Deviated:  WELL TYPE
 MDS .        Operator Entered:  MAG DATA SOURCE
 UWI .                     N/A:  UNIQUE WELL IDENTIFIER
 API .                     N/A:  API NUMBER
 BASE.              Azerbaijan:  LOGGING EQUIPMENT BASE LOCATION
 REGN.                   EESSA:  REGION
 PROV.                    Baku:  PROVINCE
 STAT.                    Baku:  STATE NAME
 MWDS.                    Baku:  MWD SHOP
 JOBN.        AZ-XX-0906531346:  JOB TICKET NUMB
 RIG .                     DWG:  RIG NAME
 DOE .                     N/A:  DOE NUMBER
 DCON.         Sperry Drilling:  DIRECTNL CONTR
 UNIT.                     N/A:  LOGGING EQUIPMENT ID
 CNTY.                        :  COUNTY
 LOC .                        :  LOCATION
 LMF .             Drill Floor:  LOG MEASURED FROM
 TVDS.m                  43.16:  TVDSS CORRECTN
 LATI.deg                40.17:  LATITUDE
 LONG.deg                51.17:  LONGITUDE
 WHNS.m                  -0.12:  WELL HEAD N/S
 WHEW.m                  -5.41:  WELL HEAD E/W
 UTMX.m              514337.95:  UTM X
 UTMY.m             4448627.46:  UTM Y
 DFWL.m                   0.00:  DISTANCE FWL
 DFSL.m                   0.00:  DISTANCE FSL
 SDEP.m                3088.01:  START DEPTH
 TDD .m                5200.01:  TOTAL DEPTH (DRILLER)
 VSDR.deg               244.51:  VERT SEC DIRECT
 GVFD.g                   1.00:  GRAVITY FIELD
 MFLD.nT              50329.80:  MAGNETIC FIELD
 MDIP.deg                59.63:  MAGNETIC DIP
 MDEC.deg                 6.59:  MAGNETIC DECL
 GRDC.deg                 0.09:  GRID CORRECTION
 AZTC.deg                 6.50:  AZM TOTAL CORR
 EPD .m                   0.00:  ELEVATION
 EGL .m                   0.00:  GROUND ELEVATION
 WDMS.m                 176.20:  WD ELEV
 APD .m                  43.16:  DEPTH ABOVE PD
 DEP .m                3084.71:  DEPTH
 AGAP.m                  43.16:  AIR GAP
 VSEW.m                  -5.41:  VERT SEC E/W
 VSNS.m                  -0.12:  VERT SEC N/S
 EKB .m                   0.00:  KB ELEVATION
 EDF .m                  43.16:  DF ELEVATION
 TDL .m                 243.00:  TOTAL DEPTH (LOGGER)
 VSC .                       0:  VS TO CLOSURE
 MAGU.                 1853542:  MAGUTM CHECKSUM
~Parameter Information Block
#MNEM.UNIT       Value        Description
#---------     -----------    ---------------------------
 AV  .mps                 1.91:  Ann Velocity 
 AVMX.mps                 2.52:  Max Ann Veloc 
 AZIF.deg               308.97:  Azm, Final 
 BHAT.        Rotary Steerable:  BHA Type 
 BROT.°/30m               1.00:  Build Rotating 
 BS  .in                  6.50:  Bit Size 
 BSZ .in                  6.50:  Bit Size 
 BTPL.psig              350.00:  Bit Press Loss 
 CABU.                      No:  Customer Abuse 
 CGEO.           Asif Pashayev:  Customer Geo 
 TCS .hr                 35.86:  Time Ciculation Ended 
 CV  .mps                 2.31:  Crit Velocity 
 CVMX.mps                 2.31:  Max Crit Veloc 
 DD1 .         Intigam Rahimov:  Direct Drillr 1 
 DDSV.               Geo-Pilot:  DD Service 
 DEFF.%                  92.00:  % Det Eff 
 DLRX.°/30m               1.00:  Dogleg Rot Max 
 DLSO.°/30m               1.00:  Dogleg Oriented 
 DLSX.°/30m               1.42:  Dogleg Str Max 
 DRET.      15.50.00 07-Aug-20:  Drill End Time 
 DRST.      10.40.00 06-Aug-20:  Drill Start Tim 
 DTIM.hr                 21.30:  Time Drilling 
 EDEP.m                5200.01:  End Depth 
 ENG1.            Alan Tuganov:  Engineer 1 
 ENG2.         Almaz Almadatov:  Engineer 2 
 ENG3.     Zammelal Abdullah Sani:  Engineer 3 
 ETIM.      22.42.00 08-Aug-20:  End Time 
 FLOI.gpm               395.00:  Flow In 
 FLON.gpm               350.00:  Flow In Min 
 FLOS.cptm                0.00:  Fluid Loss 
 FLOX.gpm               404.00:  Flow In Max 
 FTRO.       Formation Presure:  FTWD Run Obj 
 HFLO.                      No:  High Flow 
 HPRE.                      No:  High Pressure 
 HTEM.                      No:  High Temp 
 HYDO.m                   1.80:  Hydro Offset 
 IFIN.deg                72.64:  Inc, Final 
 IMAX.deg                73.68:  Inc Max 
 IMIN.deg                72.64:  Inc Min 
 IMND.m                5189.69:  Inc Min Depth 
 IMXD.m                5067.88:  Inc Max Depth 
 JARR.                      No:  Jarring 
 LETM.      15.50.00 07-Aug-20:  Log End Time 
 LOST.hr                     0:  Lost Rig Time 
 LSTM.      10.40.00 06-Aug-20:  Log Start Time 
 MDCL.ppm             36000.00:  Mud Chlorides 
 MDES.     Inversion Oil/Synthetic:  Mud Desc 
 DFD .sg                  1.36:  Mud Density 
 MDMN.sg                  1.36:  Dens Mud Min 
 MDMX.sg                  1.36:  Dens Mud Max 
 MOIL.                      70:  Run Mud Oil % 
 MOWR.                   70:30:  Run Mud OWR 
 MSND.                    0.00:  Run Mud Sand % 
 MSOL.                   17.60:  Run Mud Solids% 
 DFV .spqt               73.00:  Mud Viscosity 
 MWOD.in                  4.75:  MWD Tool OD 
 MWSI.                      No:  Serv Intrp, MWD 
 OTIM.hr                 85.66:  Time Operating 
 PCON.           Look Like New:  Pad Condition 
 PMAX.psia             6250.00:  Press Op, Max 
 PV  .cP                 65.00:  Mud PV 
 RUN .                     900:  Run Number 
 ROPA.m/hr               11.40:  ROP Avg 
 ROPN.m/hr                5.00:  ROP Min 
 ROPX.m/hr               20.00:  ROP Max 
 RPMA.rpm               130.00:  RPM Surface Avg 
 RPMN.rpm                40.00:  RPM Surface Min 
 RPMX.rpm               140.00:  RPM Surface Max 
 RRUN.                    L205:  Rig Run Number 
 RTIM.hr                  1.00:  Time Reaming 
 SAZI.deg               313.52:  Azm, Start 
 SDEP.m                4957.01:  Start Depth 
 SIDD.                      No:  Serv Intrp, DD 
 SINC.deg                73.16:  Inc, Start 
 SPPA.psig             5657.00:  SPP Avg 
 SPPN.psig             2500.00:  SPP Min 
 SPPX.psig             5806.00:  SPP Max 
 STIM.      07.12.00 05-Aug-20:  Start Time 
 SVCS.                 DD, MWD:  Services 
 SVER.                    9.20:  Sperry Version 
 TDAT.m                 243.00:  Tot Depth Attmp 
 TDDF.                      No:  Trip for DD 
 TDLG.m                 243.00:  Tot Depth Loggd 
 TFF .                      No:  Trip for Fail 
 TQAA.f-kp               13.00:  Torque Abs Avg 
 TQAN.f-kp               11.00:  Torque Abs Min 
 TQAX.f-kp               16.00:  Torque Abs Max 
 TRRT.°/30m               1.00:  Turn Rotating 
 MRT .                    HCIM:  Maximum Recorded Temperature 
 TTMX.degC               96.08:  Max Tool Temp 
 VS01.                90515411:  Virtual Str1 SN 
 VS02.                90512716:  Virtual Str2 SN 
 VS03.                90522362:  Virtual Str3 SN 
 VS04.                90619415:  Virtual Str4 SN 
 VS05.                90619414:  Virtual Str5 SN 
 VS06.                90597748:  Virtual Str6 SN 
 WBMN.klb                 2.00:  WOB Min 
 WITN.           Adil Mammadov:  Customer Rep 
 WITN.     Alexander Yadullayev:  Customer Rep 2 
 WOBA.klb                 7.00:  WOB Avg 
 WOBX.klb                23.00:  WOB Max 
 YP  .lhf2               37.00:  Yield Point 
~Curve Information Block
#MNEM.UNIT                 API CODE     Curve Description
#---------               -----------    ---------------------------
 TIME.HHMMSS            00 000 000 000:  GT Time & Date
 GTDEPTH.m              00 000 000 000:  GT Depth
 GTPQH.psia             00 000 000 000:  GT HR Quartz Pressure
 GTTQ.degC              00 000 000 000:  GT Quartz Temperature
 GTTN.NONE              00 000 000 000:  GT Test Number
 GTET.sec               00 000 000 000:  GT Elapsed Test Time
 GTTVD.m                00 000 000 000:  GT True Vertical Depth
#Other Information
#
#WARRANTY: Halliburton will use its best efforts to furnish customers with 
#accurate information and interpretations that are part of, and incident to, the services 
#provided.  However, Halliburton cannot and does not warrant the accuracy 
#or correctness of such information and interpretations.  Under no circumstances should any 
#such information or interpretation be relied upon as the sole basis for any drilling, 
#completion, production, or financial decision or any procedure involving any risk to the 
#safety of any drilling venture, drilling rig or its crew or any other third party.  The 
#Customer has full responsibility for all drilling, completion and production operation.  
#Halliburton makes no representations or warranties, either expressed or 
#implied, including, but not limited to, the implied warranties of merchantability or fitness 
#for a particular purpose, with respect to the services rendered.  In no event will 
#Halliburton be liable for failure to obtain any particular results or for 
#any damages, including, but not limited to, indirect, special or consequential damages, 
#resulting from the use of any information or interpretation provided by Halliburton.
#
~A           TIME           GTDEPTH  GTPQH  GTTQ  GTTN  GTET   GTTVD  
# ...
   06:48:37.073.07-Aug-2020 5088.01 5859.61 87.93 8.00 460.13 2671.45
   06:48:37.273.07-Aug-2020 5088.01 5859.48 87.93 8.00 460.33 2671.45
   06:48:37.473.07-Aug-2020 5088.01 5864.68 87.93 8.00 460.53 2671.45
   06:48:37.673.07-Aug-2020 5088.01 5857.51 87.92 8.00 460.73 2671.45
   06:48:37.873.07-Aug-2020 5088.01 5863.61 87.92 8.00 460.93 2671.45
   06:48:38.073.07-Aug-2020 5088.01 5864.42 87.92 8.00 461.13 2671.45
   06:48:38.273.07-Aug-2020 5088.01 5864.42 87.92 8.00 461.33 2671.45
   06:48:38.473.07-Aug-2020 5088.01 5864.47 87.92 8.00 461.53 2671.45
   06:48:38.673.07-Aug-2020 5088.01 5864.19 87.92 8.00 461.73 2671.45
   06:48:38.873.07-Aug-2020 5088.01 5864.33 87.92 8.00 461.93 2671.45
   06:48:39.073.07-Aug-2020 5088.01 5863.94 87.92 8.00 462.13 2671.45
   06:48:39.273.07-Aug-2020 5088.01 5863.94 87.92 8.00 462.33 2671.45
   06:48:39.473.07-Aug-2020 5088.01 5863.82 87.92 8.00 462.53 2671.45
   06:48:39.673.07-Aug-2020 5088.01 5864.22 87.92 8.00 462.73 2671.45
   06:48:39.873.07-Aug-2020 5088.01 5854.95 87.92 8.00 462.93 2671.45
   06:48:40.073.07-Aug-2020 5088.01 5865.15 87.92 8.00 463.13 2671.45
   06:48:40.274.07-Aug-2020 5088.01 5865.15 87.92 8.00 463.33 2671.45
   06:48:40.474.07-Aug-2020 5088.01 5861.12 87.92 8.00 463.53 2671.45
   06:48:40.674.07-Aug-2020 5088.01 5863.41 87.92 8.00 463.73 2671.45
   06:48:40.874.07-Aug-2020 5088.01 5861.20 87.92 8.00 463.93 2671.45
   06:48:41.074.07-Aug-2020 5088.01 5861.51 87.92 8.00 464.13 2671.45
   06:48:41.274.07-Aug-2020 5088.01 5863.20 87.92 8.00 464.33 2671.45
   06:48:41.474.07-Aug-2020 5088.01 5862.30 87.92 8.00 464.53 2671.45
   06:48:41.674.07-Aug-2020 5088.01 5863.30 87.92 8.00 464.73 2671.45
   06:48:41.874.07-Aug-2020 5088.01 5862.74 87.92 8.00 464.94 2671.45
   06:48:42.074.07-Aug-2020 5088.01 5863.12 87.92 8.00 465.14 2671.45
   06:48:42.274.07-Aug-2020 5088.01 5863.12 87.92 8.00 465.34 2671.45
   06:48:42.474.07-Aug-2020 5088.01 5862.34 87.91 8.00 465.54 2671.45
   06:48:42.674.07-Aug-2020 5088.01 5853.34 87.91 8.00 465.74 2671.45
   06:48:42.874.07-Aug-2020 5088.01 5863.48 87.91 8.00 465.94 2671.45
   06:48:43.074.07-Aug-2020 5088.01 5861.88 87.91 8.00 466.14 2671.45
   06:48:43.274.07-Aug-2020 5088.01 5861.88 87.91 8.00 466.34 2671.45
   06:48:43.474.07-Aug-2020 5088.01 5862.36 87.91 8.00 466.54 2671.45
   06:48:43.675.07-Aug-2020 5088.01 5860.92 87.91 8.00 466.74 2671.45
   06:48:43.875.07-Aug-2020 5088.01 5852.24 87.91 8.00 466.94 2671.45
   06:48:44.075.07-Aug-2020 5088.01 5864.18 87.91 8.00 467.14 2671.45
   06:48:44.275.07-Aug-2020 5088.01 5864.18 87.91 8.00 467.34 2671.45
   06:48:44.475.07-Aug-2020 5088.01 5859.62 87.91 8.00 467.54 2671.45
   06:48:44.675.07-Aug-2020 5088.01 5863.63 87.91 8.00 467.74 2671.45
   06:48:44.875.07-Aug-2020 5088.01 5860.46 87.91 8.00 467.94 2671.45
   06:48:45.075.07-Aug-2020 5088.01 5855.42 87.91 8.00 468.14 2671.45
   06:48:45.275.07-Aug-2020 5088.01 5863.64 87.91 8.00 468.34 2671.45
   06:48:45.475.07-Aug-2020 5088.01 5856.80 87.91 8.00 468.54 2671.45
   06:48:45.675.07-Aug-2020 5088.01 5861.39 87.91 8.00 468.74 2671.45
   06:48:45.875.07-Aug-2020 5088.01 5863.32 87.91 8.00 468.94 2671.45
   06:48:46.075.07-Aug-2020 5088.01 5860.05 87.91 8.00 469.14 2671.45
   06:48:46.275.07-Aug-2020 5088.01 5860.05 87.91 8.00 469.34 2671.45
   06:48:46.475.07-Aug-2020 5088.01 5863.88 87.91 8.00 469.54 2671.45
   06:48:46.675.07-Aug-2020 5088.01 5863.33 87.90 8.00 469.74 2671.45
   06:48:46.875.07-Aug-2020 5088.01 5858.71 87.90 8.00 469.94 2671.45
   06:48:47.076.07-Aug-2020 5088.01 5863.71 87.90 8.00 470.14 2671.45
   06:48:47.276.07-Aug-2020 5088.01 5863.71 87.90 8.00 470.34 2671.45
   06:48:47.476.07-Aug-2020 5088.01 5863.14 87.90 8.00 470.54 2671.45
   06:48:47.676.07-Aug-2020 5088.01 5863.33 87.90 8.00 470.74 2671.45
   06:48:47.876.07-Aug-2020 5088.01 5863.10 87.90 8.00 470.94 2671.45
   06:48:48.076.07-Aug-2020 5088.01 5863.78 87.90 8.00 471.14 2671.45
   06:48:48.276.07-Aug-2020 5088.01 5863.78 87.90 8.00 471.34 2671.45
   06:48:48.476.07-Aug-2020 5088.01 5863.18 87.90 8.00 471.54 2671.45
   06:48:48.676.07-Aug-2020 5088.01 5863.04 87.90 8.00 471.74 2671.45
   06:48:48.876.07-Aug-2020 5088.01 5858.74 87.90 8.00 471.94 2671.45
