~Version Information
 VERS.                  2.0:   CWLS log ASCII Standard -VERSION 2.0
 WRAP.                   NO:   One line per depth step
~Well Information Block
#MNEM.UNIT     VALUE/NAME     DESCRIPTION
#---------     -----------    ---------------------------
 STRT.S             20:19:41 06-Aug-20: START TIME 20:19:41 06-Aug-20
 STOP.S             20:27:33 06-Aug-20: STOP TIME  20:27:33 06-Aug-20
 STEP.S                   0.00: STEP TIME
 NULL.                 -999.25: NULL VALUE
 DFWT.                        :  DIST FWL TEXT
 DFST.                        :  DIST FSL TEXT
 DMF .             Drill Floor:  DRILL MEAS FROM
 STIM.      12.00.00 03-Jul-20:  START TIME
 DATE.      00.50.00 09-Aug-20:  END TIME
 SPUD.               03-Jul-20:  SPUD DATE
 NREF.                    Grid:  NORTH REFERENCE
 HPTY.       Minimum Curvature:  HOLE POS TYPE
 DMOD.             Drill Model:  DRILL MOD DESC
 SVYD.                  Survey:  SURVEY DESC
 ILTD.               Lithology:  INTERP LTH DESC
 FTOP.          Formation Tops:  FORM TOPS DESC
 PDAT.          Mean Sea Level:  PERMANENT DATUM
 FLD .                     ACG:  FIELD NAME
 CTRY.              Azerbaijan:  COUNTRY NAME
 WELL.                    E04x:  WELL NAME
 SRVC.          Turan Drilling:  CONTRACTOR
 COMP.     BP Exploration (Caspian Sea) Ltd.:  COMPANY
 SON .        AZ-XX-0906531346:  JOB NUMBER
 WTYP.                Deviated:  WELL TYPE
 MDS .        Operator Entered:  MAG DATA SOURCE
 UWI .                     N/A:  UNIQUE WELL IDENTIFIER
 API .                     N/A:  API NUMBER
 BASE.              Azerbaijan:  LOGGING EQUIPMENT BASE LOCATION
 REGN.                   EESSA:  REGION
 PROV.                    Baku:  PROVINCE
 STAT.                    Baku:  STATE NAME
 MWDS.                    Baku:  MWD SHOP
 JOBN.        AZ-XX-0906531346:  JOB TICKET NUMB
 RIG .                     DWG:  RIG NAME
 DOE .                     N/A:  DOE NUMBER
 DCON.         Sperry Drilling:  DIRECTNL CONTR
 UNIT.                     N/A:  LOGGING EQUIPMENT ID
 CNTY.                        :  COUNTY
 LOC .                        :  LOCATION
 LMF .             Drill Floor:  LOG MEASURED FROM
 TVDS.m                  43.16:  TVDSS CORRECTN
 LATI.deg                40.17:  LATITUDE
 LONG.deg                51.17:  LONGITUDE
 WHNS.m                  -0.12:  WELL HEAD N/S
 WHEW.m                  -5.41:  WELL HEAD E/W
 UTMX.m              514337.95:  UTM X
 UTMY.m             4448627.46:  UTM Y
 DFWL.m                   0.00:  DISTANCE FWL
 DFSL.m                   0.00:  DISTANCE FSL
 SDEP.m                3088.01:  START DEPTH
 TDD .m                5200.01:  TOTAL DEPTH (DRILLER)
 VSDR.deg               244.51:  VERT SEC DIRECT
 GVFD.g                   1.00:  GRAVITY FIELD
 MFLD.nT              50329.80:  MAGNETIC FIELD
 MDIP.deg                59.63:  MAGNETIC DIP
 MDEC.deg                 6.59:  MAGNETIC DECL
 GRDC.deg                 0.09:  GRID CORRECTION
 AZTC.deg                 6.50:  AZM TOTAL CORR
 EPD .m                   0.00:  ELEVATION
 EGL .m                   0.00:  GROUND ELEVATION
 WDMS.m                 176.20:  WD ELEV
 APD .m                  43.16:  DEPTH ABOVE PD
 DEP .m                3084.71:  DEPTH
 AGAP.m                  43.16:  AIR GAP
 VSEW.m                  -5.41:  VERT SEC E/W
 VSNS.m                  -0.12:  VERT SEC N/S
 EKB .m                   0.00:  KB ELEVATION
 EDF .m                  43.16:  DF ELEVATION
 TDL .m                 243.00:  TOTAL DEPTH (LOGGER)
 VSC .                       0:  VS TO CLOSURE
 MAGU.                 1853542:  MAGUTM CHECKSUM
~Parameter Information Block
#MNEM.UNIT       Value        Description
#---------     -----------    ---------------------------
 AV  .mps                 1.91:  Ann Velocity 
 AVMX.mps                 2.52:  Max Ann Veloc 
 AZIF.deg               308.97:  Azm, Final 
 BHAT.        Rotary Steerable:  BHA Type 
 BROT.°/30m               1.00:  Build Rotating 
 BS  .in                  6.50:  Bit Size 
 BSZ .in                  6.50:  Bit Size 
 BTPL.psig              350.00:  Bit Press Loss 
 CABU.                      No:  Customer Abuse 
 CGEO.           Asif Pashayev:  Customer Geo 
 COMM.                     4è‹:  Run Comments 1 
 TCS .hr                 35.86:  Time Ciculation Ended 
 CV  .mps                 2.31:  Crit Velocity 
 CVMX.mps                 2.31:  Max Crit Veloc 
 DD1 .         Intigam Rahimov:  Direct Drillr 1 
 DDSV.               Geo-Pilot:  DD Service 
 DEFF.%                  92.00:  % Det Eff 
 DLRX.°/30m               1.00:  Dogleg Rot Max 
 DLSO.°/30m               1.00:  Dogleg Oriented 
 DLSX.°/30m               1.42:  Dogleg Str Max 
 DRET.      15.50.00 07-Aug-20:  Drill End Time 
 DRST.      10.40.00 06-Aug-20:  Drill Start Tim 
 DTIM.hr                 21.30:  Time Drilling 
 EDEP.m                5200.01:  End Depth 
 ENG1.            Alan Tuganov:  Engineer 1 
 ENG2.         Almaz Almadatov:  Engineer 2 
 ENG3.     Zammelal Abdullah Sani:  Engineer 3 
 ETIM.      22.42.00 08-Aug-20:  End Time 
 FLOI.gpm               395.00:  Flow In 
 FLON.gpm               350.00:  Flow In Min 
 FLOS.cptm                0.00:  Fluid Loss 
 FLOX.gpm               404.00:  Flow In Max 
 FTRO.       Formation Presure:  FTWD Run Obj 
 HFLO.                      No:  High Flow 
 HPRE.                      No:  High Pressure 
 HTEM.                      No:  High Temp 
 HYDO.m                   1.80:  Hydro Offset 
 IFIN.deg                72.64:  Inc, Final 
 IMAX.deg                73.68:  Inc Max 
 IMIN.deg                72.64:  Inc Min 
 IMND.m                5189.69:  Inc Min Depth 
 IMXD.m                5067.88:  Inc Max Depth 
 JARR.                      No:  Jarring 
 LETM.      15.50.00 07-Aug-20:  Log End Time 
 LOST.hr                     0:  Lost Rig Time 
 LSTM.      10.40.00 06-Aug-20:  Log Start Time 
 MDCL.ppm             36000.00:  Mud Chlorides 
 MDES.     Inversion Oil/Synthetic:  Mud Desc 
 DFD .sg                  1.36:  Mud Density 
 MDMN.sg                  1.36:  Dens Mud Min 
 MDMX.sg                  1.36:  Dens Mud Max 
 MOIL.                      70:  Run Mud Oil % 
 MOWR.                   70:30:  Run Mud OWR 
 MSND.                    0.00:  Run Mud Sand % 
 MSOL.                   17.60:  Run Mud Solids% 
 DFV .spqt               73.00:  Mud Viscosity 
 MWOD.in                  4.75:  MWD Tool OD 
 MWSI.                      No:  Serv Intrp, MWD 
 OTIM.hr                 85.66:  Time Operating 
 PCON.           Look Like New:  Pad Condition 
 PMAX.psia             6250.00:  Press Op, Max 
 PV  .cP                 65.00:  Mud PV 
 RUN .                     900:  Run Number 
 ROPA.m/hr               11.40:  ROP Avg 
 ROPN.m/hr                5.00:  ROP Min 
 ROPX.m/hr               20.00:  ROP Max 
 RPMA.rpm               130.00:  RPM Surface Avg 
 RPMN.rpm                40.00:  RPM Surface Min 
 RPMX.rpm               140.00:  RPM Surface Max 
 RRUN.                    L205:  Rig Run Number 
 RTIM.hr                  1.00:  Time Reaming 
 SAZI.deg               313.52:  Azm, Start 
 SDEP.m                4957.01:  Start Depth 
 SIDD.                      No:  Serv Intrp, DD 
 SINC.deg                73.16:  Inc, Start 
 SPPA.psig             5657.00:  SPP Avg 
 SPPN.psig             2500.00:  SPP Min 
 SPPX.psig             5806.00:  SPP Max 
 STIM.      07.12.00 05-Aug-20:  Start Time 
 SVCS.                 DD, MWD:  Services 
 SVER.                    9.20:  Sperry Version 
 TDAT.m                 243.00:  Tot Depth Attmp 
 TDDF.                      No:  Trip for DD 
 TDLG.m                 243.00:  Tot Depth Loggd 
 TFF .                      No:  Trip for Fail 
 TQAA.f-kp               13.00:  Torque Abs Avg 
 TQAN.f-kp               11.00:  Torque Abs Min 
 TQAX.f-kp               16.00:  Torque Abs Max 
 TRRT.°/30m               1.00:  Turn Rotating 
 MRT .                    HCIM:  Maximum Recorded Temperature 
 TTMX.degC               96.08:  Max Tool Temp 
 VS01.                90515411:  Virtual Str1 SN 
 VS02.                90512716:  Virtual Str2 SN 
 VS03.                90522362:  Virtual Str3 SN 
 VS04.                90619415:  Virtual Str4 SN 
 VS05.                90619414:  Virtual Str5 SN 
 VS06.                90597748:  Virtual Str6 SN 
 WBMN.klb                 2.00:  WOB Min 
 WITN.           Adil Mammadov:  Customer Rep 
 WITN.     Alexander Yadullayev:  Customer Rep 2 
 WOBA.klb                 7.00:  WOB Avg 
 WOBX.klb                23.00:  WOB Max 
 YP  .lhf2               37.00:  Yield Point 
~Curve Information Block
#MNEM.UNIT                 API CODE     Curve Description
#---------               -----------    ---------------------------
 TIME.HHMMSS            00 000 000 000:  GT Time & Date
 GTDEPTH.m              00 000 000 000:  GT Depth
 GTPQH.psia             00 000 000 000:  GT HR Quartz Pressure
 GTTQ.degC              00 000 000 000:  GT Quartz Temperature
 GTTN.NONE              00 000 000 000:  GT Test Number
 GTET.sec               00 000 000 000:  GT Elapsed Test Time
 GTTVD.m                00 000 000 000:  GT True Vertical Depth
#Other Information
#
#WARRANTY: Halliburton will use its best efforts to furnish customers with 
#accurate information and interpretations that are part of, and incident to, the services 
#provided.  However, Halliburton cannot and does not warrant the accuracy 
#or correctness of such information and interpretations.  Under no circumstances should any 
#such information or interpretation be relied upon as the sole basis for any drilling, 
#completion, production, or financial decision or any procedure involving any risk to the 
#safety of any drilling venture, drilling rig or its crew or any other third party.  The 
#Customer has full responsibility for all drilling, completion and production operation.  
#Halliburton makes no representations or warranties, either expressed or 
#implied, including, but not limited to, the implied warranties of merchantability or fitness 
#for a particular purpose, with respect to the services rendered.  In no event will 
#Halliburton be liable for failure to obtain any particular results or for 
#any damages, including, but not limited to, indirect, special or consequential damages, 
#resulting from the use of any information or interpretation provided by Halliburton.
#
~A           TIME           GTDEPTH  GTPQH  GTTQ  GTTN  GTET   GTTVD  
# ...
   20:25:26.478.06-Aug-2020 4993.01 3486.90 82.49 3.00 345.13 2644.18
   20:25:26.678.06-Aug-2020 4993.01 3486.77 82.49 3.00 345.33 2644.18
   20:25:26.878.06-Aug-2020 4993.01 3486.94 82.49 3.00 345.53 2644.18
   20:25:27.078.06-Aug-2020 4993.01 3486.80 82.49 3.00 345.73 2644.18
   20:25:27.279.06-Aug-2020 4993.01 3486.96 82.49 3.00 345.93 2644.18
   20:25:27.479.06-Aug-2020 4993.01 3486.88 82.49 3.00 346.13 2644.18
   20:25:27.679.06-Aug-2020 4993.01 3486.88 82.49 3.00 346.33 2644.18
   20:25:27.879.06-Aug-2020 4993.01 3486.76 82.49 3.00 346.53 2644.18
   20:25:28.079.06-Aug-2020 4993.01 3487.06 82.49 3.00 346.73 2644.18
   20:25:28.279.06-Aug-2020 4993.01 3486.82 82.49 3.00 346.93 2644.18
   20:25:28.479.06-Aug-2020 4993.01 3486.90 82.49 3.00 347.13 2644.18
   20:25:28.679.06-Aug-2020 4993.01 3486.90 82.49 3.00 347.33 2644.18
   20:25:28.879.06-Aug-2020 4993.01 3486.69 82.49 3.00 347.53 2644.18
   20:25:29.079.06-Aug-2020 4993.01 3486.98 82.49 3.00 347.73 2644.18
   20:25:29.279.06-Aug-2020 4993.01 3487.00 82.49 3.00 347.93 2644.18
   20:25:29.479.06-Aug-2020 4993.01 3486.77 82.49 3.00 348.13 2644.18
   20:25:29.679.06-Aug-2020 4993.01 3486.77 82.49 3.00 348.33 2644.18
   20:25:29.880.06-Aug-2020 4993.01 3486.82 82.49 3.00 348.53 2644.18
   20:25:30.080.06-Aug-2020 4993.01 3486.96 82.49 3.00 348.73 2644.18
   20:25:30.280.06-Aug-2020 4993.01 3486.93 82.49 3.00 348.93 2644.18
   20:25:30.480.06-Aug-2020 4993.01 3486.89 82.48 3.00 349.13 2644.18
   20:25:30.680.06-Aug-2020 4993.01 3486.89 82.48 3.00 349.33 2644.18
   20:25:30.880.06-Aug-2020 4993.01 3486.90 82.48 3.00 349.53 2644.18
   20:25:31.080.06-Aug-2020 4993.01 3486.91 82.48 3.00 349.73 2644.18
   20:25:31.280.06-Aug-2020 4993.01 3486.88 82.48 3.00 349.93 2644.18
   20:25:31.480.06-Aug-2020 4993.01 3486.91 82.48 3.00 350.13 2644.18
   20:25:31.680.06-Aug-2020 4993.01 3486.91 82.48 3.00 350.33 2644.18
   20:25:31.880.06-Aug-2020 4993.01 3486.91 82.48 3.00 350.53 2644.18
   20:25:32.080.06-Aug-2020 4993.01 3486.85 82.48 3.00 350.73 2644.18
   20:25:32.280.06-Aug-2020 4993.01 3486.71 82.48 3.00 350.93 2644.18
   20:25:32.481.06-Aug-2020 4993.01 3486.95 82.48 3.00 351.13 2644.18
   20:25:32.681.06-Aug-2020 4993.01 3486.95 82.48 3.00 351.33 2644.18
   20:25:32.881.06-Aug-2020 4993.01 3486.87 82.48 3.00 351.53 2644.18
   20:25:33.081.06-Aug-2020 4993.01 3486.94 82.48 3.00 351.73 2644.18
   20:25:33.281.06-Aug-2020 4993.01 3486.88 82.48 3.00 351.93 2644.18
   20:25:33.481.06-Aug-2020 4993.01 3486.91 82.48 3.00 352.13 2644.18
   20:25:33.681.06-Aug-2020 4993.01 3486.91 82.48 3.00 352.33 2644.18
   20:25:33.881.06-Aug-2020 4993.01 3486.90 82.48 3.00 352.53 2644.18
   20:25:34.081.06-Aug-2020 4993.01 3486.87 82.48 3.00 352.73 2644.18
   20:25:34.281.06-Aug-2020 4993.01 3486.89 82.48 3.00 352.94 2644.18
   20:25:34.481.06-Aug-2020 4993.01 3486.88 82.48 3.00 353.14 2644.18
   20:25:34.681.06-Aug-2020 4993.01 3486.88 82.48 3.00 353.34 2644.18
   20:25:34.881.06-Aug-2020 4993.01 3486.83 82.48 3.00 353.54 2644.18
   20:25:35.082.06-Aug-2020 4993.01 3486.88 82.48 3.00 353.74 2644.18
   20:25:35.282.06-Aug-2020 4993.01 3486.83 82.48 3.00 353.94 2644.18
   20:25:35.482.06-Aug-2020 4993.01 3486.94 82.47 3.00 354.14 2644.18
   20:25:35.682.06-Aug-2020 4993.01 3486.94 82.47 3.00 354.34 2644.18
   20:25:35.882.06-Aug-2020 4993.01 3486.87 82.47 3.00 354.54 2644.18
   20:25:36.082.06-Aug-2020 4993.01 3486.77 82.47 3.00 354.74 2644.18
   20:25:36.282.06-Aug-2020 4993.01 3487.03 82.47 3.00 354.94 2644.18
   20:25:36.482.06-Aug-2020 4993.01 3486.82 82.47 3.00 355.14 2644.18
   20:25:36.682.06-Aug-2020 4993.01 3486.82 82.47 3.00 355.34 2644.18
   20:25:36.882.06-Aug-2020 4993.01 3486.95 82.47 3.00 355.54 2644.18
   20:25:37.082.06-Aug-2020 4993.01 3486.64 82.47 3.00 355.74 2644.18
   20:25:37.282.06-Aug-2020 4993.01 3487.05 82.47 3.00 355.94 2644.18
   20:25:37.482.06-Aug-2020 4993.01 3486.93 82.47 3.00 356.14 2644.18
   20:25:37.683.06-Aug-2020 4993.01 3486.93 82.47 3.00 356.34 2644.18
   20:25:37.883.06-Aug-2020 4993.01 3486.96 82.47 3.00 356.54 2644.18
   20:25:38.083.06-Aug-2020 4993.01 3486.86 82.47 3.00 356.74 2644.18
   20:25:38.283.06-Aug-2020 4993.01 3486.93 82.47 3.00 356.94 2644.18
   20:25:38.483.06-Aug-2020 4993.01 3486.93 82.47 3.00 357.14 2644.18
   20:25:38.683.06-Aug-2020 4993.01 3486.88 82.47 3.00 357.34 2644.18
   20:25:38.883.06-Aug-2020 4993.01 3486.91 82.47 3.00 357.54 2644.18
   20:25:39.083.06-Aug-2020 4993.01 3486.90 82.47 3.00 357.74 2644.18
   20:25:39.283.06-Aug-2020 4993.01 3486.91 82.47 3.00 357.94 2644.18
   20:25:39.483.06-Aug-2020 4993.01 3486.90 82.47 3.00 358.14 2644.18
   20:25:39.683.06-Aug-2020 4993.01 3486.90 82.47 3.00 358.34 2644.18
   20:25:39.883.06-Aug-2020 4993.01 3486.89 82.47 3.00 358.54 2644.18
   20:25:40.083.06-Aug-2020 4993.01 3486.88 82.47 3.00 358.74 2644.18
   20:25:40.284.06-Aug-2020 4993.01 3486.89 82.46 3.00 358.94 2644.18
   20:25:40.484.06-Aug-2020 4993.01 3486.63 82.46 3.00 359.14 2644.18
   20:25:40.684.06-Aug-2020 4993.01 3486.63 82.46 3.00 359.34 2644.18
   20:25:40.884.06-Aug-2020 4993.01 3486.93 82.46 3.00 359.54 2644.18
   20:25:41.084.06-Aug-2020 4993.01 3486.90 82.46 3.00 359.74 2644.18
   20:25:41.284.06-Aug-2020 4993.01 3486.92 82.46 3.00 359.94 2644.18
   20:25:41.484.06-Aug-2020 4993.01 3486.91 82.46 3.00 360.14 2644.18
   20:25:41.684.06-Aug-2020 4993.01 3486.91 82.46 3.00 360.34 2644.18
   20:25:41.884.06-Aug-2020 4993.01 3486.91 82.46 3.00 360.54 2644.18
   20:25:42.084.06-Aug-2020 4993.01 3486.86 82.46 3.00 360.74 2644.18
   20:25:42.284.06-Aug-2020 4993.01 3486.90 82.46 3.00 360.94 2644.18
   20:25:42.484.06-Aug-2020 4993.01 3486.85 82.46 3.00 361.14 2644.18
   20:25:42.684.06-Aug-2020 4993.01 3486.89 82.46 3.00 361.34 2644.18
   20:25:42.885.06-Aug-2020 4993.01 3486.83 82.46 3.00 361.54 2644.18
   20:25:43.085.06-Aug-2020 4993.01 3486.88 82.46 3.00 361.74 2644.18
   20:25:43.285.06-Aug-2020 4993.01 3486.81 82.46 3.00 361.94 2644.18
   20:25:43.485.06-Aug-2020 4993.01 3486.85 82.46 3.00 362.14 2644.18
   20:25:43.685.06-Aug-2020 4993.01 3486.85 82.46 3.00 362.34 2644.18
   20:25:43.885.06-Aug-2020 4993.01 3486.86 82.46 3.00 362.54 2644.18
   20:25:44.085.06-Aug-2020 4993.01 3486.88 82.46 3.00 362.74 2644.18
   20:25:44.285.06-Aug-2020 4993.01 3486.77 82.46 3.00 362.94 2644.18
   20:25:44.485.06-Aug-2020 4993.01 3486.99 82.46 3.00 363.14 2644.18
   20:25:44.685.06-Aug-2020 4993.01 3486.99 82.46 3.00 363.34 2644.18
   20:25:44.885.06-Aug-2020 4993.01 3486.94 82.46 3.00 363.54 2644.18
   20:25:45.085.06-Aug-2020 4993.01 3486.90 82.45 3.00 363.74 2644.18
   20:25:45.285.06-Aug-2020 4993.01 3486.69 82.45 3.00 363.94 2644.18
   20:25:45.486.06-Aug-2020 4993.01 3487.02 82.45 3.00 364.14 2644.18
   20:25:45.686.06-Aug-2020 4993.01 3487.02 82.45 3.00 364.34 2644.18
   20:25:45.886.06-Aug-2020 4993.01 3486.81 82.45 3.00 364.54 2644.18
   20:25:46.086.06-Aug-2020 4993.01 3486.95 82.45 3.00 364.74 2644.18
   20:25:46.286.06-Aug-2020 4993.01 3486.82 82.45 3.00 364.94 2644.18
   20:25:46.486.06-Aug-2020 4993.01 3486.98 82.45 3.00 365.14 2644.18
   20:25:46.686.06-Aug-2020 4993.01 3486.87 82.45 3.00 365.34 2644.18
   20:25:46.886.06-Aug-2020 4993.01 3486.91 82.45 3.00 365.54 2644.18
   20:25:47.086.06-Aug-2020 4993.01 3486.88 82.45 3.00 365.74 2644.18
   20:25:47.286.06-Aug-2020 4993.01 3486.91 82.45 3.00 365.94 2644.18
   20:25:47.486.06-Aug-2020 4993.01 3486.86 82.45 3.00 366.14 2644.18
   20:25:47.686.06-Aug-2020 4993.01 3486.86 82.45 3.00 366.34 2644.18
   20:25:47.886.06-Aug-2020 4993.01 3486.84 82.45 3.00 366.54 2644.18
   20:25:48.087.06-Aug-2020 4993.01 3486.90 82.45 3.00 366.74 2644.18
   20:25:48.287.06-Aug-2020 4993.01 3486.86 82.45 3.00 366.94 2644.18
   20:25:48.487.06-Aug-2020 4993.01 3486.89 82.45 3.00 367.14 2644.18
   20:25:48.687.06-Aug-2020 4993.01 3486.89 82.45 3.00 367.34 2644.18
   20:25:48.887.06-Aug-2020 4993.01 3487.02 82.45 3.00 367.54 2644.18
   20:25:49.087.06-Aug-2020 4993.01 3486.88 82.45 3.00 367.74 2644.18
   20:25:49.287.06-Aug-2020 4993.01 3486.86 82.45 3.00 367.94 2644.18
