~Version Information
 VERS.                  2.0:   CWLS log ASCII Standard -VERSION 2.0
 WRAP.                   NO:   One line per depth step
~Well Information Block
#MNEM.UNIT     VALUE/NAME     DESCRIPTION
#---------     -----------    ---------------------------
 STRT.S             14:58:59 06-Aug-20: START TIME 14:58:59 06-Aug-20
 STOP.S             15:06:43 06-Aug-20: STOP TIME  15:06:43 06-Aug-20
 STEP.S                   0.00: STEP TIME
 NULL.                 -999.25: NULL VALUE
 DFWT.                        :  DIST FWL TEXT
 DFST.                        :  DIST FSL TEXT
 DMF .             Drill Floor:  DRILL MEAS FROM
 STIM.      12.00.00 03-Jul-20:  START TIME
 DATE.      00.50.00 09-Aug-20:  END TIME
 SPUD.               03-Jul-20:  SPUD DATE
 NREF.                    Grid:  NORTH REFERENCE
 HPTY.       Minimum Curvature:  HOLE POS TYPE
 DMOD.             Drill Model:  DRILL MOD DESC
 SVYD.                  Survey:  SURVEY DESC
 ILTD.               Lithology:  INTERP LTH DESC
 FTOP.          Formation Tops:  FORM TOPS DESC
 PDAT.          Mean Sea Level:  PERMANENT DATUM
 FLD .                     ACG:  FIELD NAME
 CTRY.              Azerbaijan:  COUNTRY NAME
 WELL.                    E04x:  WELL NAME
 SRVC.          Turan Drilling:  CONTRACTOR
 COMP.     BP Exploration (Caspian Sea) Ltd.:  COMPANY
 SON .        AZ-XX-0906531346:  JOB NUMBER
 WTYP.                Deviated:  WELL TYPE
 MDS .        Operator Entered:  MAG DATA SOURCE
 UWI .                     N/A:  UNIQUE WELL IDENTIFIER
 API .                     N/A:  API NUMBER
 BASE.              Azerbaijan:  LOGGING EQUIPMENT BASE LOCATION
 REGN.                   EESSA:  REGION
 PROV.                    Baku:  PROVINCE
 STAT.                    Baku:  STATE NAME
 MWDS.                    Baku:  MWD SHOP
 JOBN.        AZ-XX-0906531346:  JOB TICKET NUMB
 RIG .                     DWG:  RIG NAME
 DOE .                     N/A:  DOE NUMBER
 DCON.         Sperry Drilling:  DIRECTNL CONTR
 UNIT.                     N/A:  LOGGING EQUIPMENT ID
 CNTY.                        :  COUNTY
 LOC .                        :  LOCATION
 LMF .             Drill Floor:  LOG MEASURED FROM
 TVDS.m                  43.16:  TVDSS CORRECTN
 LATI.deg                40.17:  LATITUDE
 LONG.deg                51.17:  LONGITUDE
 WHNS.m                  -0.12:  WELL HEAD N/S
 WHEW.m                  -5.41:  WELL HEAD E/W
 UTMX.m              514337.95:  UTM X
 UTMY.m             4448627.46:  UTM Y
 DFWL.m                   0.00:  DISTANCE FWL
 DFSL.m                   0.00:  DISTANCE FSL
 SDEP.m                3088.01:  START DEPTH
 TDD .m                5200.01:  TOTAL DEPTH (DRILLER)
 VSDR.deg               244.51:  VERT SEC DIRECT
 GVFD.g                   1.00:  GRAVITY FIELD
 MFLD.nT              50329.80:  MAGNETIC FIELD
 MDIP.deg                59.63:  MAGNETIC DIP
 MDEC.deg                 6.59:  MAGNETIC DECL
 GRDC.deg                 0.09:  GRID CORRECTION
 AZTC.deg                 6.50:  AZM TOTAL CORR
 EPD .m                   0.00:  ELEVATION
 EGL .m                   0.00:  GROUND ELEVATION
 WDMS.m                 176.20:  WD ELEV
 APD .m                  43.16:  DEPTH ABOVE PD
 DEP .m                3084.71:  DEPTH
 AGAP.m                  43.16:  AIR GAP
 VSEW.m                  -5.41:  VERT SEC E/W
 VSNS.m                  -0.12:  VERT SEC N/S
 EKB .m                   0.00:  KB ELEVATION
 EDF .m                  43.16:  DF ELEVATION
 TDL .m                 243.00:  TOTAL DEPTH (LOGGER)
 VSC .                       0:  VS TO CLOSURE
 MAGU.                 1853542:  MAGUTM CHECKSUM
~Parameter Information Block
#MNEM.UNIT       Value        Description
#---------     -----------    ---------------------------
 AV  .mps                 1.91:  Ann Velocity 
 AVMX.mps                 2.52:  Max Ann Veloc 
 AZIF.deg               308.97:  Azm, Final 
 BHAT.        Rotary Steerable:  BHA Type 
 BROT.°/30m               1.00:  Build Rotating 
 BS  .in                  6.50:  Bit Size 
 BSZ .in                  6.50:  Bit Size 
 BTPL.psig              350.00:  Bit Press Loss 
 CABU.                      No:  Customer Abuse 
 CGEO.           Asif Pashayev:  Customer Geo 
 COMM.                     ”›T:  Run Comments 1 
 TCS .hr                 35.86:  Time Ciculation Ended 
 CV  .mps                 2.31:  Crit Velocity 
 CVMX.mps                 2.31:  Max Crit Veloc 
 DD1 .         Intigam Rahimov:  Direct Drillr 1 
 DDSV.               Geo-Pilot:  DD Service 
 DEFF.%                  92.00:  % Det Eff 
 DLRX.°/30m               1.00:  Dogleg Rot Max 
 DLSO.°/30m               1.00:  Dogleg Oriented 
 DLSX.°/30m               1.42:  Dogleg Str Max 
 DRET.      15.50.00 07-Aug-20:  Drill End Time 
 DRST.      10.40.00 06-Aug-20:  Drill Start Tim 
 DTIM.hr                 21.30:  Time Drilling 
 EDEP.m                5200.01:  End Depth 
 ENG1.            Alan Tuganov:  Engineer 1 
 ENG2.         Almaz Almadatov:  Engineer 2 
 ENG3.     Zammelal Abdullah Sani:  Engineer 3 
 ETIM.      22.42.00 08-Aug-20:  End Time 
 FLOI.gpm               395.00:  Flow In 
 FLON.gpm               350.00:  Flow In Min 
 FLOS.cptm                0.00:  Fluid Loss 
 FLOX.gpm               404.00:  Flow In Max 
 FTRO.       Formation Presure:  FTWD Run Obj 
 HFLO.                      No:  High Flow 
 HPRE.                      No:  High Pressure 
 HTEM.                      No:  High Temp 
 HYDO.m                   1.80:  Hydro Offset 
 IFIN.deg                72.64:  Inc, Final 
 IMAX.deg                73.68:  Inc Max 
 IMIN.deg                72.64:  Inc Min 
 IMND.m                5189.69:  Inc Min Depth 
 IMXD.m                5067.88:  Inc Max Depth 
 JARR.                      No:  Jarring 
 LETM.      15.50.00 07-Aug-20:  Log End Time 
 LOST.hr                     0:  Lost Rig Time 
 LSTM.      10.40.00 06-Aug-20:  Log Start Time 
 MDCL.ppm             36000.00:  Mud Chlorides 
 MDES.     Inversion Oil/Synthetic:  Mud Desc 
 DFD .sg                  1.36:  Mud Density 
 MDMN.sg                  1.36:  Dens Mud Min 
 MDMX.sg                  1.36:  Dens Mud Max 
 MOIL.                      70:  Run Mud Oil % 
 MOWR.                   70:30:  Run Mud OWR 
 MSND.                    0.00:  Run Mud Sand % 
 MSOL.                   17.60:  Run Mud Solids% 
 DFV .spqt               73.00:  Mud Viscosity 
 MWOD.in                  4.75:  MWD Tool OD 
 MWSI.                      No:  Serv Intrp, MWD 
 OTIM.hr                 85.66:  Time Operating 
 PCON.           Look Like New:  Pad Condition 
 PMAX.psia             6250.00:  Press Op, Max 
 PV  .cP                 65.00:  Mud PV 
 RUN .                     900:  Run Number 
 ROPA.m/hr               11.40:  ROP Avg 
 ROPN.m/hr                5.00:  ROP Min 
 ROPX.m/hr               20.00:  ROP Max 
 RPMA.rpm               130.00:  RPM Surface Avg 
 RPMN.rpm                40.00:  RPM Surface Min 
 RPMX.rpm               140.00:  RPM Surface Max 
 RRUN.                    L205:  Rig Run Number 
 RTIM.hr                  1.00:  Time Reaming 
 SAZI.deg               313.52:  Azm, Start 
 SDEP.m                4957.01:  Start Depth 
 SIDD.                      No:  Serv Intrp, DD 
 SINC.deg                73.16:  Inc, Start 
 SPPA.psig             5657.00:  SPP Avg 
 SPPN.psig             2500.00:  SPP Min 
 SPPX.psig             5806.00:  SPP Max 
 STIM.      07.12.00 05-Aug-20:  Start Time 
 SVCS.                 DD, MWD:  Services 
 SVER.                    9.20:  Sperry Version 
 TDAT.m                 243.00:  Tot Depth Attmp 
 TDDF.                      No:  Trip for DD 
 TDLG.m                 243.00:  Tot Depth Loggd 
 TFF .                      No:  Trip for Fail 
 TQAA.f-kp               13.00:  Torque Abs Avg 
 TQAN.f-kp               11.00:  Torque Abs Min 
 TQAX.f-kp               16.00:  Torque Abs Max 
 TRRT.°/30m               1.00:  Turn Rotating 
 MRT .                    HCIM:  Maximum Recorded Temperature 
 TTMX.degC               96.08:  Max Tool Temp 
 VS01.                90515411:  Virtual Str1 SN 
 VS02.                90512716:  Virtual Str2 SN 
 VS03.                90522362:  Virtual Str3 SN 
 VS04.                90619415:  Virtual Str4 SN 
 VS05.                90619414:  Virtual Str5 SN 
 VS06.                90597748:  Virtual Str6 SN 
 WBMN.klb                 2.00:  WOB Min 
 WITN.           Adil Mammadov:  Customer Rep 
 WITN.     Alexander Yadullayev:  Customer Rep 2 
 WOBA.klb                 7.00:  WOB Avg 
 WOBX.klb                23.00:  WOB Max 
 YP  .lhf2               37.00:  Yield Point 
~Curve Information Block
#MNEM.UNIT                 API CODE     Curve Description
#---------               -----------    ---------------------------
 TIME.HHMMSS            00 000 000 000:  GT Time & Date
 GTDEPTH.m              00 000 000 000:  GT Depth
 GTPQH.psia             00 000 000 000:  GT HR Quartz Pressure
 GTTQ.degC              00 000 000 000:  GT Quartz Temperature
 GTTN.NONE              00 000 000 000:  GT Test Number
 GTET.sec               00 000 000 000:  GT Elapsed Test Time
 GTTVD.m                00 000 000 000:  GT True Vertical Depth
#Other Information
#
#WARRANTY: Halliburton will use its best efforts to furnish customers with 
#accurate information and interpretations that are part of, and incident to, the services 
#provided.  However, Halliburton cannot and does not warrant the accuracy 
#or correctness of such information and interpretations.  Under no circumstances should any 
#such information or interpretation be relied upon as the sole basis for any drilling, 
#completion, production, or financial decision or any procedure involving any risk to the 
#safety of any drilling venture, drilling rig or its crew or any other third party.  The 
#Customer has full responsibility for all drilling, completion and production operation.  
#Halliburton makes no representations or warranties, either expressed or 
#implied, including, but not limited to, the implied warranties of merchantability or fitness 
#for a particular purpose, with respect to the services rendered.  In no event will 
#Halliburton be liable for failure to obtain any particular results or for 
#any damages, including, but not limited to, indirect, special or consequential damages, 
#resulting from the use of any information or interpretation provided by Halliburton.
#
~A           TIME           GTDEPTH  GTPQH  GTTQ  GTTN  GTET   GTTVD  
# ...
   15:04:21.615.06-Aug-2020 4947.01 5733.15 78.33 1.00 322.07 2630.94
   15:04:21.815.06-Aug-2020 4947.01 5733.15 78.33 1.00 322.27 2630.94
   15:04:22.015.06-Aug-2020 4947.01 5734.51 78.33 1.00 322.47 2630.94
   15:04:22.215.06-Aug-2020 4947.01 5734.59 78.33 1.00 322.67 2630.94
   15:04:22.415.06-Aug-2020 4947.01 5734.50 78.33 1.00 322.87 2630.94
   15:04:22.615.06-Aug-2020 4947.01 5733.94 78.33 1.00 323.07 2630.94
   15:04:22.815.06-Aug-2020 4947.01 5733.94 78.33 1.00 323.27 2630.94
   15:04:23.015.06-Aug-2020 4947.01 5732.82 78.33 1.00 323.47 2630.94
   15:04:23.215.06-Aug-2020 4947.01 5733.22 78.33 1.00 323.67 2630.94
   15:04:23.415.06-Aug-2020 4947.01 5732.15 78.33 1.00 323.87 2630.94
   15:04:23.615.06-Aug-2020 4947.01 5725.25 78.33 1.00 324.07 2630.94
   15:04:23.815.06-Aug-2020 4947.01 5725.25 78.33 1.00 324.27 2630.94
   15:04:24.015.06-Aug-2020 4947.01 5731.93 78.33 1.00 324.47 2630.94
   15:04:24.215.06-Aug-2020 4947.01 5731.68 78.33 1.00 324.67 2630.94
   15:04:24.416.06-Aug-2020 4947.01 5727.43 78.33 1.00 324.87 2630.94
   15:04:24.616.06-Aug-2020 4947.01 5728.36 78.33 1.00 325.07 2630.94
   15:04:24.816.06-Aug-2020 4947.01 5728.36 78.33 1.00 325.27 2630.94
   15:04:25.016.06-Aug-2020 4947.01 5733.57 78.33 1.00 325.47 2630.94
   15:04:25.216.06-Aug-2020 4947.01 5734.99 78.33 1.00 325.67 2630.94
   15:04:25.416.06-Aug-2020 4947.01 5733.65 78.33 1.00 325.87 2630.94
   15:04:25.616.06-Aug-2020 4947.01 5727.30 78.33 1.00 326.07 2630.94
   15:04:25.816.06-Aug-2020 4947.01 5727.30 78.33 1.00 326.27 2630.94
   15:04:26.016.06-Aug-2020 4947.01 5733.54 78.33 1.00 326.47 2630.94
   15:04:26.216.06-Aug-2020 4947.01 5733.29 78.33 1.00 326.67 2630.94
   15:04:26.416.06-Aug-2020 4947.01 5733.96 78.33 1.00 326.87 2630.94
   15:04:26.616.06-Aug-2020 4947.01 5733.48 78.33 1.00 327.07 2630.94
   15:04:26.816.06-Aug-2020 4947.01 5733.48 78.33 1.00 327.27 2630.94
   15:04:27.016.06-Aug-2020 4947.01 5730.09 78.33 1.00 327.47 2630.94
   15:04:27.216.06-Aug-2020 4947.01 5732.90 78.33 1.00 327.67 2630.94
   15:04:27.416.06-Aug-2020 4947.01 5734.40 78.33 1.00 327.87 2630.94
   15:04:27.616.06-Aug-2020 4947.01 5734.48 78.33 1.00 328.07 2630.94
   15:04:27.816.06-Aug-2020 4947.01 5734.48 78.33 1.00 328.27 2630.94
   15:04:28.016.06-Aug-2020 4947.01 5734.60 78.33 1.00 328.47 2630.94
   15:04:28.216.06-Aug-2020 4947.01 5736.04 78.33 1.00 328.67 2630.94
   15:04:28.416.06-Aug-2020 4947.01 5735.35 78.33 1.00 328.87 2630.94
   15:04:28.616.06-Aug-2020 4947.01 5735.84 78.33 1.00 329.07 2630.94
   15:04:28.816.06-Aug-2020 4947.01 5734.30 78.33 1.00 329.27 2630.94
   15:04:29.017.06-Aug-2020 4947.01 5734.42 78.33 1.00 329.47 2630.94
   15:04:29.217.06-Aug-2020 4947.01 5733.26 78.33 1.00 329.67 2630.94
   15:04:29.417.06-Aug-2020 4947.01 5729.28 78.33 1.00 329.87 2630.94
   15:04:29.617.06-Aug-2020 4947.01 5727.82 78.33 1.00 330.07 2630.94
   15:04:29.817.06-Aug-2020 4947.01 5727.82 78.33 1.00 330.27 2630.94
   15:04:30.017.06-Aug-2020 4947.01 5732.97 78.33 1.00 330.47 2630.94
   15:04:30.217.06-Aug-2020 4947.01 5733.87 78.33 1.00 330.67 2630.94
   15:04:30.417.06-Aug-2020 4947.01 5732.67 78.33 1.00 330.87 2630.94
   15:04:30.617.06-Aug-2020 4947.01 5734.44 78.33 1.00 331.07 2630.94
   15:04:30.817.06-Aug-2020 4947.01 5734.44 78.33 1.00 331.27 2630.94
   15:04:31.017.06-Aug-2020 4947.01 5734.61 78.33 1.00 331.47 2630.94
   15:04:31.217.06-Aug-2020 4947.01 5733.66 78.33 1.00 331.67 2630.94
   15:04:31.417.06-Aug-2020 4947.01 5733.58 78.33 1.00 331.87 2630.94
   15:04:31.617.06-Aug-2020 4947.01 5732.66 78.33 1.00 332.07 2630.94
   15:04:31.817.06-Aug-2020 4947.01 5732.66 78.33 1.00 332.27 2630.94
   15:04:32.017.06-Aug-2020 4947.01 5732.17 78.33 1.00 332.47 2630.94
   15:04:32.217.06-Aug-2020 4947.01 5725.42 78.33 1.00 332.67 2630.94
   15:04:32.417.06-Aug-2020 4947.01 5727.69 78.33 1.00 332.87 2630.94
   15:04:32.617.06-Aug-2020 4947.01 5730.23 78.33 1.00 333.07 2630.94
   15:04:32.817.06-Aug-2020 4947.01 5730.23 78.33 1.00 333.27 2630.94
   15:04:33.017.06-Aug-2020 4947.01 5731.02 78.33 1.00 333.47 2630.94
   15:04:33.217.06-Aug-2020 4947.01 5725.47 78.33 1.00 333.67 2630.94
   15:04:33.417.06-Aug-2020 4947.01 5729.55 78.33 1.00 333.87 2630.94
   15:04:33.618.06-Aug-2020 4947.01 5732.98 78.33 1.00 334.07 2630.94
   15:04:33.818.06-Aug-2020 4947.01 5732.98 78.33 1.00 334.27 2630.94
   15:04:34.018.06-Aug-2020 4947.01 5733.94 78.33 1.00 334.47 2630.94
   15:04:34.218.06-Aug-2020 4947.01 5726.16 78.32 1.00 334.67 2630.94
   15:04:34.418.06-Aug-2020 4947.01 5728.89 78.32 1.00 334.87 2630.94
   15:04:34.618.06-Aug-2020 4947.01 5730.53 78.32 1.00 335.07 2630.94
   15:04:34.818.06-Aug-2020 4947.01 5730.53 78.32 1.00 335.27 2630.94
   15:04:35.018.06-Aug-2020 4947.01 5731.63 78.32 1.00 335.47 2630.94
   15:04:35.218.06-Aug-2020 4947.01 5732.97 78.32 1.00 335.67 2630.94
   15:04:35.418.06-Aug-2020 4947.01 5728.41 78.32 1.00 335.87 2630.94
   15:04:35.618.06-Aug-2020 4947.01 5726.86 78.32 1.00 336.07 2630.94
   15:04:35.818.06-Aug-2020 4947.01 5726.86 78.32 1.00 336.27 2630.94
   15:04:36.018.06-Aug-2020 4947.01 5732.36 78.32 1.00 336.47 2630.94
   15:04:36.218.06-Aug-2020 4947.01 5732.67 78.32 1.00 336.67 2630.94
   15:04:36.418.06-Aug-2020 4947.01 5733.29 78.32 1.00 336.87 2630.94
   15:04:36.618.06-Aug-2020 4947.01 5732.92 78.32 1.00 337.07 2630.94
   15:04:36.818.06-Aug-2020 4947.01 5732.92 78.32 1.00 337.27 2630.94
   15:04:37.018.06-Aug-2020 4947.01 5734.19 78.32 1.00 337.47 2630.94
   15:04:37.218.06-Aug-2020 4947.01 5734.18 78.32 1.00 337.67 2630.94
   15:04:37.418.06-Aug-2020 4947.01 5733.98 78.32 1.00 337.87 2630.94
   15:04:37.618.06-Aug-2020 4947.01 5732.87 78.32 1.00 338.07 2630.94
   15:04:37.818.06-Aug-2020 4947.01 5732.87 78.32 1.00 338.27 2630.94
   15:04:38.018.06-Aug-2020 4947.01 5732.03 78.32 1.00 338.47 2630.94
   15:04:38.218.06-Aug-2020 4947.01 5725.74 78.32 1.00 338.67 2630.94
   15:04:38.419.06-Aug-2020 4947.01 5728.52 78.32 1.00 338.87 2630.94
   15:04:38.619.06-Aug-2020 4947.01 5731.90 78.32 1.00 339.07 2630.94
   15:04:38.819.06-Aug-2020 4947.01 5731.90 78.32 1.00 339.27 2630.94
   15:04:39.019.06-Aug-2020 4947.01 5732.49 78.32 1.00 339.47 2630.94
   15:04:39.219.06-Aug-2020 4947.01 5731.87 78.32 1.00 339.67 2630.94
   15:04:39.419.06-Aug-2020 4947.01 5733.95 78.32 1.00 339.87 2630.94
   15:04:39.619.06-Aug-2020 4947.01 5733.25 78.32 1.00 340.07 2630.94
   15:04:39.819.06-Aug-2020 4947.01 5733.25 78.32 1.00 340.27 2630.94
   15:04:40.019.06-Aug-2020 4947.01 5733.48 78.32 1.00 340.47 2630.94
   15:04:40.219.06-Aug-2020 4947.01 5733.82 78.32 1.00 340.67 2630.94
   15:04:40.419.06-Aug-2020 4947.01 5732.27 78.32 1.00 340.87 2630.94
   15:04:40.619.06-Aug-2020 4947.01 5732.56 78.32 1.00 341.07 2630.94
   15:04:40.819.06-Aug-2020 4947.01 5732.56 78.32 1.00 341.27 2630.94
   15:04:41.019.06-Aug-2020 4947.01 5726.54 78.32 1.00 341.47 2630.94
   15:04:41.219.06-Aug-2020 4947.01 5725.34 78.32 1.00 341.67 2630.94
   15:04:41.419.06-Aug-2020 4947.01 5729.51 78.32 1.00 341.87 2630.94
   15:04:41.619.06-Aug-2020 4947.01 5730.63 78.32 1.00 342.07 2630.94
   15:04:41.819.06-Aug-2020 4947.01 5730.63 78.32 1.00 342.27 2630.94
   15:04:42.019.06-Aug-2020 4947.01 5728.18 78.32 1.00 342.47 2630.94
   15:04:42.219.06-Aug-2020 4947.01 5731.26 78.32 1.00 342.67 2630.94
   15:04:42.419.06-Aug-2020 4947.01 5733.01 78.32 1.00 342.87 2630.94
   15:04:42.619.06-Aug-2020 4947.01 5733.20 78.32 1.00 343.07 2630.94
   15:04:42.819.06-Aug-2020 4947.01 5733.20 78.32 1.00 343.27 2630.94
   15:04:43.020.06-Aug-2020 4947.01 5726.63 78.32 1.00 343.47 2630.94
   15:04:43.220.06-Aug-2020 4947.01 5729.73 78.32 1.00 343.67 2630.94
   15:04:43.420.06-Aug-2020 4947.01 5731.23 78.32 1.00 343.87 2630.94
   15:04:43.620.06-Aug-2020 4947.01 5733.06 78.32 1.00 344.07 2630.94
   15:04:43.820.06-Aug-2020 4947.01 5733.06 78.32 1.00 344.27 2630.94
   15:04:44.020.06-Aug-2020 4947.01 5733.66 78.32 1.00 344.47 2630.94
   15:04:44.220.06-Aug-2020 4947.01 5726.05 78.32 1.00 344.67 2630.94
   15:04:44.420.06-Aug-2020 4947.01 5729.30 78.32 1.00 344.87 2630.94
