~Version Information
 VERS.                  2.0:   CWLS log ASCII Standard -VERSION 2.0
 WRAP.                   NO:   One line per depth step
~Well Information Block
#MNEM.UNIT     VALUE/NAME     DESCRIPTION
#---------     -----------    ---------------------------
 STRT.S             01:47:02 07-Aug-20: START TIME 01:47:02 07-Aug-20
 STOP.S             01:54:54 07-Aug-20: STOP TIME  01:54:54 07-Aug-20
 STEP.S                   0.00: STEP TIME
 NULL.                 -999.25: NULL VALUE
 DFWT.                        :  DIST FWL TEXT
 DFST.                        :  DIST FSL TEXT
 DMF .             Drill Floor:  DRILL MEAS FROM
 STIM.      12.00.00 03-Jul-20:  START TIME
 DATE.      00.50.00 09-Aug-20:  END TIME
 SPUD.               03-Jul-20:  SPUD DATE
 NREF.                    Grid:  NORTH REFERENCE
 HPTY.       Minimum Curvature:  HOLE POS TYPE
 DMOD.             Drill Model:  DRILL MOD DESC
 SVYD.                  Survey:  SURVEY DESC
 ILTD.               Lithology:  INTERP LTH DESC
 FTOP.          Formation Tops:  FORM TOPS DESC
 PDAT.          Mean Sea Level:  PERMANENT DATUM
 FLD .                     ACG:  FIELD NAME
 CTRY.              Azerbaijan:  COUNTRY NAME
 WELL.                    E04x:  WELL NAME
 SRVC.          Turan Drilling:  CONTRACTOR
 COMP.     BP Exploration (Caspian Sea) Ltd.:  COMPANY
 SON .        AZ-XX-0906531346:  JOB NUMBER
 WTYP.                Deviated:  WELL TYPE
 MDS .        Operator Entered:  MAG DATA SOURCE
 UWI .                     N/A:  UNIQUE WELL IDENTIFIER
 API .                     N/A:  API NUMBER
 BASE.              Azerbaijan:  LOGGING EQUIPMENT BASE LOCATION
 REGN.                   EESSA:  REGION
 PROV.                    Baku:  PROVINCE
 STAT.                    Baku:  STATE NAME
 MWDS.                    Baku:  MWD SHOP
 JOBN.        AZ-XX-0906531346:  JOB TICKET NUMB
 RIG .                     DWG:  RIG NAME
 DOE .                     N/A:  DOE NUMBER
 DCON.         Sperry Drilling:  DIRECTNL CONTR
 UNIT.                     N/A:  LOGGING EQUIPMENT ID
 CNTY.                        :  COUNTY
 LOC .                        :  LOCATION
 LMF .             Drill Floor:  LOG MEASURED FROM
 TVDS.m                  43.16:  TVDSS CORRECTN
 LATI.deg                40.17:  LATITUDE
 LONG.deg                51.17:  LONGITUDE
 WHNS.m                  -0.12:  WELL HEAD N/S
 WHEW.m                  -5.41:  WELL HEAD E/W
 UTMX.m              514337.95:  UTM X
 UTMY.m             4448627.46:  UTM Y
 DFWL.m                   0.00:  DISTANCE FWL
 DFSL.m                   0.00:  DISTANCE FSL
 SDEP.m                3088.01:  START DEPTH
 TDD .m                5200.01:  TOTAL DEPTH (DRILLER)
 VSDR.deg               244.51:  VERT SEC DIRECT
 GVFD.g                   1.00:  GRAVITY FIELD
 MFLD.nT              50329.80:  MAGNETIC FIELD
 MDIP.deg                59.63:  MAGNETIC DIP
 MDEC.deg                 6.59:  MAGNETIC DECL
 GRDC.deg                 0.09:  GRID CORRECTION
 AZTC.deg                 6.50:  AZM TOTAL CORR
 EPD .m                   0.00:  ELEVATION
 EGL .m                   0.00:  GROUND ELEVATION
 WDMS.m                 176.20:  WD ELEV
 APD .m                  43.16:  DEPTH ABOVE PD
 DEP .m                3084.71:  DEPTH
 AGAP.m                  43.16:  AIR GAP
 VSEW.m                  -5.41:  VERT SEC E/W
 VSNS.m                  -0.12:  VERT SEC N/S
 EKB .m                   0.00:  KB ELEVATION
 EDF .m                  43.16:  DF ELEVATION
 TDL .m                 243.00:  TOTAL DEPTH (LOGGER)
 VSC .                       0:  VS TO CLOSURE
 MAGU.                 1853542:  MAGUTM CHECKSUM
~Parameter Information Block
#MNEM.UNIT       Value        Description
#---------     -----------    ---------------------------
 AV  .mps                 1.91:  Ann Velocity 
 AVMX.mps                 2.52:  Max Ann Veloc 
 AZIF.deg               308.97:  Azm, Final 
 BHAT.        Rotary Steerable:  BHA Type 
 BROT.°/30m               1.00:  Build Rotating 
 BS  .in                  6.50:  Bit Size 
 BSZ .in                  6.50:  Bit Size 
 BTPL.psig              350.00:  Bit Press Loss 
 CABU.                      No:  Customer Abuse 
 CGEO.           Asif Pashayev:  Customer Geo 
 COMM.                     Ô¿r:  Run Comments 1 
 TCS .hr                 35.86:  Time Ciculation Ended 
 CV  .mps                 2.31:  Crit Velocity 
 CVMX.mps                 2.31:  Max Crit Veloc 
 DD1 .         Intigam Rahimov:  Direct Drillr 1 
 DDSV.               Geo-Pilot:  DD Service 
 DEFF.%                  92.00:  % Det Eff 
 DLRX.°/30m               1.00:  Dogleg Rot Max 
 DLSO.°/30m               1.00:  Dogleg Oriented 
 DLSX.°/30m               1.42:  Dogleg Str Max 
 DRET.      15.50.00 07-Aug-20:  Drill End Time 
 DRST.      10.40.00 06-Aug-20:  Drill Start Tim 
 DTIM.hr                 21.30:  Time Drilling 
 EDEP.m                5200.01:  End Depth 
 ENG1.            Alan Tuganov:  Engineer 1 
 ENG2.         Almaz Almadatov:  Engineer 2 
 ENG3.     Zammelal Abdullah Sani:  Engineer 3 
 ETIM.      22.42.00 08-Aug-20:  End Time 
 FLOI.gpm               395.00:  Flow In 
 FLON.gpm               350.00:  Flow In Min 
 FLOS.cptm                0.00:  Fluid Loss 
 FLOX.gpm               404.00:  Flow In Max 
 FTRO.       Formation Presure:  FTWD Run Obj 
 HFLO.                      No:  High Flow 
 HPRE.                      No:  High Pressure 
 HTEM.                      No:  High Temp 
 HYDO.m                   1.80:  Hydro Offset 
 IFIN.deg                72.64:  Inc, Final 
 IMAX.deg                73.68:  Inc Max 
 IMIN.deg                72.64:  Inc Min 
 IMND.m                5189.69:  Inc Min Depth 
 IMXD.m                5067.88:  Inc Max Depth 
 JARR.                      No:  Jarring 
 LETM.      15.50.00 07-Aug-20:  Log End Time 
 LOST.hr                     0:  Lost Rig Time 
 LSTM.      10.40.00 06-Aug-20:  Log Start Time 
 MDCL.ppm             36000.00:  Mud Chlorides 
 MDES.     Inversion Oil/Synthetic:  Mud Desc 
 DFD .sg                  1.36:  Mud Density 
 MDMN.sg                  1.36:  Dens Mud Min 
 MDMX.sg                  1.36:  Dens Mud Max 
 MOIL.                      70:  Run Mud Oil % 
 MOWR.                   70:30:  Run Mud OWR 
 MSND.                    0.00:  Run Mud Sand % 
 MSOL.                   17.60:  Run Mud Solids% 
 DFV .spqt               73.00:  Mud Viscosity 
 MWOD.in                  4.75:  MWD Tool OD 
 MWSI.                      No:  Serv Intrp, MWD 
 OTIM.hr                 85.66:  Time Operating 
 PCON.           Look Like New:  Pad Condition 
 PMAX.psia             6250.00:  Press Op, Max 
 PV  .cP                 65.00:  Mud PV 
 RUN .                     900:  Run Number 
 ROPA.m/hr               11.40:  ROP Avg 
 ROPN.m/hr                5.00:  ROP Min 
 ROPX.m/hr               20.00:  ROP Max 
 RPMA.rpm               130.00:  RPM Surface Avg 
 RPMN.rpm                40.00:  RPM Surface Min 
 RPMX.rpm               140.00:  RPM Surface Max 
 RRUN.                    L205:  Rig Run Number 
 RTIM.hr                  1.00:  Time Reaming 
 SAZI.deg               313.52:  Azm, Start 
 SDEP.m                4957.01:  Start Depth 
 SIDD.                      No:  Serv Intrp, DD 
 SINC.deg                73.16:  Inc, Start 
 SPPA.psig             5657.00:  SPP Avg 
 SPPN.psig             2500.00:  SPP Min 
 SPPX.psig             5806.00:  SPP Max 
 STIM.      07.12.00 05-Aug-20:  Start Time 
 SVCS.                 DD, MWD:  Services 
 SVER.                    9.20:  Sperry Version 
 TDAT.m                 243.00:  Tot Depth Attmp 
 TDDF.                      No:  Trip for DD 
 TDLG.m                 243.00:  Tot Depth Loggd 
 TFF .                      No:  Trip for Fail 
 TQAA.f-kp               13.00:  Torque Abs Avg 
 TQAN.f-kp               11.00:  Torque Abs Min 
 TQAX.f-kp               16.00:  Torque Abs Max 
 TRRT.°/30m               1.00:  Turn Rotating 
 MRT .                    HCIM:  Maximum Recorded Temperature 
 TTMX.degC               96.08:  Max Tool Temp 
 VS01.                90515411:  Virtual Str1 SN 
 VS02.                90512716:  Virtual Str2 SN 
 VS03.                90522362:  Virtual Str3 SN 
 VS04.                90619415:  Virtual Str4 SN 
 VS05.                90619414:  Virtual Str5 SN 
 VS06.                90597748:  Virtual Str6 SN 
 WBMN.klb                 2.00:  WOB Min 
 WITN.           Adil Mammadov:  Customer Rep 
 WITN.     Alexander Yadullayev:  Customer Rep 2 
 WOBA.klb                 7.00:  WOB Avg 
 WOBX.klb                23.00:  WOB Max 
 YP  .lhf2               37.00:  Yield Point 
~Curve Information Block
#MNEM.UNIT                 API CODE     Curve Description
#---------               -----------    ---------------------------
 TIME.HHMMSS            00 000 000 000:  GT Time & Date
 GTDEPTH.m              00 000 000 000:  GT Depth
 GTPQH.psia             00 000 000 000:  GT HR Quartz Pressure
 GTTQ.degC              00 000 000 000:  GT Quartz Temperature
 GTTN.NONE              00 000 000 000:  GT Test Number
 GTET.sec               00 000 000 000:  GT Elapsed Test Time
 GTTVD.m                00 000 000 000:  GT True Vertical Depth
#Other Information
#
#WARRANTY: Halliburton will use its best efforts to furnish customers with 
#accurate information and interpretations that are part of, and incident to, the services 
#provided.  However, Halliburton cannot and does not warrant the accuracy 
#or correctness of such information and interpretations.  Under no circumstances should any 
#such information or interpretation be relied upon as the sole basis for any drilling, 
#completion, production, or financial decision or any procedure involving any risk to the 
#safety of any drilling venture, drilling rig or its crew or any other third party.  The 
#Customer has full responsibility for all drilling, completion and production operation.  
#Halliburton makes no representations or warranties, either expressed or 
#implied, including, but not limited to, the implied warranties of merchantability or fitness 
#for a particular purpose, with respect to the services rendered.  In no event will 
#Halliburton be liable for failure to obtain any particular results or for 
#any damages, including, but not limited to, indirect, special or consequential damages, 
#resulting from the use of any information or interpretation provided by Halliburton.
#
~A           TIME           GTDEPTH  GTPQH  GTTQ  GTTN  GTET   GTTVD  
# ...
   01:52:01.491.07-Aug-2020 5042.01 3681.12 85.26 6.00 299.07 2658.32
   01:52:01.691.07-Aug-2020 5042.01 3681.12 85.26 6.00 299.27 2658.32
   01:52:01.891.07-Aug-2020 5042.01 3681.07 85.26 6.00 299.47 2658.32
   01:52:02.091.07-Aug-2020 5042.01 3681.11 85.26 6.00 299.67 2658.32
   01:52:02.291.07-Aug-2020 5042.01 3681.05 85.26 6.00 299.87 2658.32
   01:52:02.491.07-Aug-2020 5042.01 3681.09 85.26 6.00 300.07 2658.32
   01:52:02.691.07-Aug-2020 5042.01 3681.09 85.26 6.00 300.27 2658.32
   01:52:02.891.07-Aug-2020 5042.01 3681.10 85.26 6.00 300.47 2658.32
   01:52:03.091.07-Aug-2020 5042.01 3681.02 85.26 6.00 300.67 2658.32
   01:52:03.291.07-Aug-2020 5042.01 3681.12 85.26 6.00 300.87 2658.32
   01:52:03.491.07-Aug-2020 5042.01 3676.39 85.26 6.00 301.07 2658.32
   01:52:03.691.07-Aug-2020 5042.01 3676.39 85.26 6.00 301.27 2658.32
   01:52:03.891.07-Aug-2020 5042.01 3658.28 85.26 6.00 301.47 2658.32
   01:52:04.092.07-Aug-2020 5042.01 3658.86 85.26 6.00 301.67 2658.32
   01:52:04.292.07-Aug-2020 5042.01 3658.72 85.26 6.00 301.87 2658.32
   01:52:04.492.07-Aug-2020 5042.01 3658.65 85.26 6.00 302.07 2658.32
   01:52:04.692.07-Aug-2020 5042.01 3658.65 85.26 6.00 302.27 2658.32
   01:52:04.892.07-Aug-2020 5042.01 3658.85 85.26 6.00 302.47 2658.32
   01:52:05.092.07-Aug-2020 5042.01 3658.00 85.26 6.00 302.67 2658.32
   01:52:05.292.07-Aug-2020 5042.01 3658.55 85.26 6.00 302.87 2658.32
   01:52:05.492.07-Aug-2020 5042.01 3658.56 85.25 6.00 303.07 2658.32
   01:52:05.692.07-Aug-2020 5042.01 3658.56 85.25 6.00 303.27 2658.32
   01:52:05.892.07-Aug-2020 5042.01 3658.59 85.25 6.00 303.47 2658.32
   01:52:06.092.07-Aug-2020 5042.01 3658.30 85.25 6.00 303.67 2658.32
   01:52:06.292.07-Aug-2020 5042.01 3657.33 85.25 6.00 303.87 2658.32
   01:52:06.492.07-Aug-2020 5042.01 3659.43 85.25 6.00 304.07 2658.32
   01:52:06.692.07-Aug-2020 5042.01 3659.43 85.25 6.00 304.27 2658.32
   01:52:06.892.07-Aug-2020 5042.01 3658.89 85.25 6.00 304.47 2658.32
   01:52:07.092.07-Aug-2020 5042.01 3657.73 85.25 6.00 304.67 2658.32
   01:52:07.292.07-Aug-2020 5042.01 3658.94 85.25 6.00 304.87 2658.32
   01:52:07.492.07-Aug-2020 5042.01 3658.23 85.25 6.00 305.07 2658.32
   01:52:07.692.07-Aug-2020 5042.01 3658.23 85.25 6.00 305.27 2658.32
   01:52:07.892.07-Aug-2020 5042.01 3658.44 85.25 6.00 305.47 2658.32
   01:52:08.092.07-Aug-2020 5042.01 3657.89 85.25 6.00 305.67 2658.32
   01:52:08.293.07-Aug-2020 5042.01 3658.15 85.25 6.00 305.87 2658.32
   01:52:08.493.07-Aug-2020 5042.01 3658.34 85.25 6.00 306.07 2658.32
   01:52:08.693.07-Aug-2020 5042.01 3658.34 85.25 6.00 306.27 2658.32
   01:52:08.893.07-Aug-2020 5042.01 3658.55 85.25 6.00 306.47 2658.32
   01:52:09.093.07-Aug-2020 5042.01 3658.37 85.25 6.00 306.67 2658.32
   01:52:09.293.07-Aug-2020 5042.01 3657.13 85.25 6.00 306.87 2658.32
   01:52:09.493.07-Aug-2020 5042.01 3659.52 85.25 6.00 307.07 2658.32
   01:52:09.693.07-Aug-2020 5042.01 3659.52 85.25 6.00 307.27 2658.32
   01:52:09.893.07-Aug-2020 5042.01 3658.95 85.25 6.00 307.47 2658.32
   01:52:10.093.07-Aug-2020 5042.01 3658.17 85.25 6.00 307.67 2658.32
   01:52:10.293.07-Aug-2020 5042.01 3658.46 85.25 6.00 307.87 2658.32
   01:52:10.493.07-Aug-2020 5042.01 3658.39 85.25 6.00 308.07 2658.32
   01:52:10.693.07-Aug-2020 5042.01 3658.39 85.25 6.00 308.27 2658.32
   01:52:10.893.07-Aug-2020 5042.01 3658.28 85.25 6.00 308.47 2658.32
   01:52:11.093.07-Aug-2020 5042.01 3658.33 85.25 6.00 308.67 2658.32
   01:52:11.293.07-Aug-2020 5042.01 3658.70 85.25 6.00 308.87 2658.32
   01:52:11.493.07-Aug-2020 5042.01 3658.38 85.25 6.00 309.07 2658.32
   01:52:11.693.07-Aug-2020 5042.01 3658.38 85.24 6.00 309.27 2658.32
   01:52:11.893.07-Aug-2020 5042.01 3658.02 85.24 6.00 309.47 2658.32
   01:52:12.093.07-Aug-2020 5042.01 3659.19 85.24 6.00 309.67 2658.32
   01:52:12.293.07-Aug-2020 5042.01 3658.48 85.24 6.00 309.87 2658.32
   01:52:12.493.07-Aug-2020 5042.01 3658.56 85.24 6.00 310.07 2658.32
   01:52:12.694.07-Aug-2020 5042.01 3658.56 85.24 6.00 310.27 2658.32
   01:52:12.894.07-Aug-2020 5042.01 3658.58 85.24 6.00 310.47 2658.32
   01:52:13.094.07-Aug-2020 5042.01 3658.42 85.24 6.00 310.67 2658.32
   01:52:13.294.07-Aug-2020 5042.01 3658.68 85.24 6.00 310.87 2658.32
   01:52:13.494.07-Aug-2020 5042.01 3658.42 85.24 6.00 311.07 2658.32
   01:52:13.694.07-Aug-2020 5042.01 3658.42 85.24 6.00 311.27 2658.32
   01:52:13.894.07-Aug-2020 5042.01 3680.61 85.24 6.00 311.47 2658.32
   01:52:14.094.07-Aug-2020 5042.01 3680.78 85.24 6.00 311.67 2658.32
   01:52:14.294.07-Aug-2020 5042.01 3680.78 85.24 6.00 311.87 2658.32
   01:52:14.494.07-Aug-2020 5042.01 3680.85 85.24 6.00 312.07 2658.32
   01:52:14.694.07-Aug-2020 5042.01 3680.85 85.24 6.00 312.27 2658.32
   01:52:14.894.07-Aug-2020 5042.01 3681.26 85.24 6.00 312.47 2658.32
   01:52:15.094.07-Aug-2020 5042.01 3680.84 85.24 6.00 312.67 2658.32
   01:52:15.294.07-Aug-2020 5042.01 3681.06 85.24 6.00 312.87 2658.32
   01:52:15.494.07-Aug-2020 5042.01 3680.70 85.24 6.00 313.07 2658.32
   01:52:15.694.07-Aug-2020 5042.01 3681.22 85.24 6.00 313.27 2658.32
   01:52:15.894.07-Aug-2020 5042.01 3680.92 85.24 6.00 313.47 2658.32
   01:52:16.094.07-Aug-2020 5042.01 3681.09 85.24 6.00 313.67 2658.32
   01:52:16.294.07-Aug-2020 5042.01 3680.98 85.24 6.00 313.87 2658.32
   01:52:16.494.07-Aug-2020 5042.01 3680.95 85.24 6.00 314.07 2658.32
   01:52:16.694.07-Aug-2020 5042.01 3681.14 85.24 6.00 314.27 2658.32
   01:52:16.895.07-Aug-2020 5042.01 3680.91 85.24 6.00 314.47 2658.32
   01:52:17.095.07-Aug-2020 5042.01 3681.14 85.24 6.00 314.67 2658.32
   01:52:17.295.07-Aug-2020 5042.01 3680.95 85.24 6.00 314.87 2658.32
   01:52:17.495.07-Aug-2020 5042.01 3680.80 85.24 6.00 315.07 2658.32
   01:52:17.695.07-Aug-2020 5042.01 3680.80 85.24 6.00 315.27 2658.32
   01:52:17.895.07-Aug-2020 5042.01 3680.97 85.23 6.00 315.47 2658.32
   01:52:18.095.07-Aug-2020 5042.01 3681.11 85.23 6.00 315.67 2658.32
   01:52:18.295.07-Aug-2020 5042.01 3681.06 85.23 6.00 315.87 2658.32
   01:52:18.495.07-Aug-2020 5042.01 3681.03 85.23 6.00 316.07 2658.32
   01:52:18.695.07-Aug-2020 5042.01 3681.07 85.23 6.00 316.27 2658.32
   01:52:18.895.07-Aug-2020 5042.01 3681.03 85.23 6.00 316.47 2658.32
   01:52:19.095.07-Aug-2020 5042.01 3681.06 85.23 6.00 316.67 2658.32
   01:52:19.295.07-Aug-2020 5042.01 3681.02 85.23 6.00 316.87 2658.32
   01:52:19.495.07-Aug-2020 5042.01 3681.05 85.23 6.00 317.07 2658.32
   01:52:19.695.07-Aug-2020 5042.01 3681.05 85.23 6.00 317.27 2658.32
   01:52:19.895.07-Aug-2020 5042.01 3681.04 85.23 6.00 317.47 2658.32
   01:52:20.095.07-Aug-2020 5042.01 3681.04 85.23 6.00 317.67 2658.32
   01:52:20.295.07-Aug-2020 5042.01 3680.97 85.23 6.00 317.87 2658.32
   01:52:20.495.07-Aug-2020 5042.01 3681.12 85.23 6.00 318.07 2658.32
   01:52:20.695.07-Aug-2020 5042.01 3681.12 85.23 6.00 318.27 2658.32
   01:52:20.895.07-Aug-2020 5042.01 3681.07 85.23 6.00 318.47 2658.32
   01:52:21.096.07-Aug-2020 5042.01 3681.03 85.23 6.00 318.68 2658.32
   01:52:21.296.07-Aug-2020 5042.01 3681.06 85.23 6.00 318.88 2658.32
   01:52:21.496.07-Aug-2020 5042.01 3681.03 85.23 6.00 319.08 2658.32
   01:52:21.696.07-Aug-2020 5042.01 3681.03 85.23 6.00 319.28 2658.32
   01:52:21.896.07-Aug-2020 5042.01 3681.03 85.23 6.00 319.48 2658.32
   01:52:22.096.07-Aug-2020 5042.01 3681.07 85.23 6.00 319.68 2658.32
   01:52:22.296.07-Aug-2020 5042.01 3681.00 85.23 6.00 319.88 2658.32
   01:52:22.496.07-Aug-2020 5042.01 3681.08 85.23 6.00 320.08 2658.32
   01:52:22.696.07-Aug-2020 5042.01 3681.08 85.23 6.00 320.28 2658.32
   01:52:22.896.07-Aug-2020 5042.01 3680.87 85.23 6.00 320.48 2658.32
   01:52:23.096.07-Aug-2020 5042.01 3681.20 85.23 6.00 320.68 2658.32
   01:52:23.296.07-Aug-2020 5042.01 3681.02 85.23 6.00 320.88 2658.32
   01:52:23.496.07-Aug-2020 5042.01 3681.10 85.23 6.00 321.08 2658.32
   01:52:23.696.07-Aug-2020 5042.01 3681.10 85.23 6.00 321.28 2658.32
   01:52:23.896.07-Aug-2020 5042.01 3681.14 85.23 6.00 321.48 2658.32
   01:52:24.096.07-Aug-2020 5042.01 3680.98 85.23 6.00 321.68 2658.32
   01:52:24.296.07-Aug-2020 5042.01 3681.14 85.23 6.00 321.88 2658.32
