~Version Information
 VERS.                  2.0:   CWLS log ASCII Standard -VERSION 2.0
 WRAP.                   NO:   One line per depth step
~Well Information Block
#MNEM.UNIT     VALUE/NAME     DESCRIPTION
#---------     -----------    ---------------------------
 STRT.S             21:52:26 06-Aug-20: START TIME 21:52:26 06-Aug-20
 STOP.S             22:00:18 06-Aug-20: STOP TIME  22:00:18 06-Aug-20
 STEP.S                   0.00: STEP TIME
 NULL.                 -999.25: NULL VALUE
 DFWT.                        :  DIST FWL TEXT
 DFST.                        :  DIST FSL TEXT
 DMF .             Drill Floor:  DRILL MEAS FROM
 STIM.      12.00.00 03-Jul-20:  START TIME
 DATE.      00.50.00 09-Aug-20:  END TIME
 SPUD.               03-Jul-20:  SPUD DATE
 NREF.                    Grid:  NORTH REFERENCE
 HPTY.       Minimum Curvature:  HOLE POS TYPE
 DMOD.             Drill Model:  DRILL MOD DESC
 SVYD.                  Survey:  SURVEY DESC
 ILTD.               Lithology:  INTERP LTH DESC
 FTOP.          Formation Tops:  FORM TOPS DESC
 PDAT.          Mean Sea Level:  PERMANENT DATUM
 FLD .                     ACG:  FIELD NAME
 CTRY.              Azerbaijan:  COUNTRY NAME
 WELL.                    E04x:  WELL NAME
 SRVC.          Turan Drilling:  CONTRACTOR
 COMP.     BP Exploration (Caspian Sea) Ltd.:  COMPANY
 SON .        AZ-XX-0906531346:  JOB NUMBER
 WTYP.                Deviated:  WELL TYPE
 MDS .        Operator Entered:  MAG DATA SOURCE
 UWI .                     N/A:  UNIQUE WELL IDENTIFIER
 API .                     N/A:  API NUMBER
 BASE.              Azerbaijan:  LOGGING EQUIPMENT BASE LOCATION
 REGN.                   EESSA:  REGION
 PROV.                    Baku:  PROVINCE
 STAT.                    Baku:  STATE NAME
 MWDS.                    Baku:  MWD SHOP
 JOBN.        AZ-XX-0906531346:  JOB TICKET NUMB
 RIG .                     DWG:  RIG NAME
 DOE .                     N/A:  DOE NUMBER
 DCON.         Sperry Drilling:  DIRECTNL CONTR
 UNIT.                     N/A:  LOGGING EQUIPMENT ID
 CNTY.                        :  COUNTY
 LOC .                        :  LOCATION
 LMF .             Drill Floor:  LOG MEASURED FROM
 TVDS.m                  43.16:  TVDSS CORRECTN
 LATI.deg                40.17:  LATITUDE
 LONG.deg                51.17:  LONGITUDE
 WHNS.m                  -0.12:  WELL HEAD N/S
 WHEW.m                  -5.41:  WELL HEAD E/W
 UTMX.m              514337.95:  UTM X
 UTMY.m             4448627.46:  UTM Y
 DFWL.m                   0.00:  DISTANCE FWL
 DFSL.m                   0.00:  DISTANCE FSL
 SDEP.m                3088.01:  START DEPTH
 TDD .m                5200.01:  TOTAL DEPTH (DRILLER)
 VSDR.deg               244.51:  VERT SEC DIRECT
 GVFD.g                   1.00:  GRAVITY FIELD
 MFLD.nT              50329.80:  MAGNETIC FIELD
 MDIP.deg                59.63:  MAGNETIC DIP
 MDEC.deg                 6.59:  MAGNETIC DECL
 GRDC.deg                 0.09:  GRID CORRECTION
 AZTC.deg                 6.50:  AZM TOTAL CORR
 EPD .m                   0.00:  ELEVATION
 EGL .m                   0.00:  GROUND ELEVATION
 WDMS.m                 176.20:  WD ELEV
 APD .m                  43.16:  DEPTH ABOVE PD
 DEP .m                3084.71:  DEPTH
 AGAP.m                  43.16:  AIR GAP
 VSEW.m                  -5.41:  VERT SEC E/W
 VSNS.m                  -0.12:  VERT SEC N/S
 EKB .m                   0.00:  KB ELEVATION
 EDF .m                  43.16:  DF ELEVATION
 TDL .m                 243.00:  TOTAL DEPTH (LOGGER)
 VSC .                       0:  VS TO CLOSURE
 MAGU.                 1853542:  MAGUTM CHECKSUM
~Parameter Information Block
#MNEM.UNIT       Value        Description
#---------     -----------    ---------------------------
 AV  .mps                 1.91:  Ann Velocity 
 AVMX.mps                 2.52:  Max Ann Veloc 
 AZIF.deg               308.97:  Azm, Final 
 BHAT.        Rotary Steerable:  BHA Type 
 BROT.°/30m               1.00:  Build Rotating 
 BS  .in                  6.50:  Bit Size 
 BSZ .in                  6.50:  Bit Size 
 BTPL.psig              350.00:  Bit Press Loss 
 CABU.                      No:  Customer Abuse 
 CGEO.           Asif Pashayev:  Customer Geo 
 COMM.                     #‚:  Run Comments 1 
 TCS .hr                 35.86:  Time Ciculation Ended 
 CV  .mps                 2.31:  Crit Velocity 
 CVMX.mps                 2.31:  Max Crit Veloc 
 DD1 .         Intigam Rahimov:  Direct Drillr 1 
 DDSV.               Geo-Pilot:  DD Service 
 DEFF.%                  92.00:  % Det Eff 
 DLRX.°/30m               1.00:  Dogleg Rot Max 
 DLSO.°/30m               1.00:  Dogleg Oriented 
 DLSX.°/30m               1.42:  Dogleg Str Max 
 DRET.      15.50.00 07-Aug-20:  Drill End Time 
 DRST.      10.40.00 06-Aug-20:  Drill Start Tim 
 DTIM.hr                 21.30:  Time Drilling 
 EDEP.m                5200.01:  End Depth 
 ENG1.            Alan Tuganov:  Engineer 1 
 ENG2.         Almaz Almadatov:  Engineer 2 
 ENG3.     Zammelal Abdullah Sani:  Engineer 3 
 ETIM.      22.42.00 08-Aug-20:  End Time 
 FLOI.gpm               395.00:  Flow In 
 FLON.gpm               350.00:  Flow In Min 
 FLOS.cptm                0.00:  Fluid Loss 
 FLOX.gpm               404.00:  Flow In Max 
 FTRO.       Formation Presure:  FTWD Run Obj 
 HFLO.                      No:  High Flow 
 HPRE.                      No:  High Pressure 
 HTEM.                      No:  High Temp 
 HYDO.m                   1.80:  Hydro Offset 
 IFIN.deg                72.64:  Inc, Final 
 IMAX.deg                73.68:  Inc Max 
 IMIN.deg                72.64:  Inc Min 
 IMND.m                5189.69:  Inc Min Depth 
 IMXD.m                5067.88:  Inc Max Depth 
 JARR.                      No:  Jarring 
 LETM.      15.50.00 07-Aug-20:  Log End Time 
 LOST.hr                     0:  Lost Rig Time 
 LSTM.      10.40.00 06-Aug-20:  Log Start Time 
 MDCL.ppm             36000.00:  Mud Chlorides 
 MDES.     Inversion Oil/Synthetic:  Mud Desc 
 DFD .sg                  1.36:  Mud Density 
 MDMN.sg                  1.36:  Dens Mud Min 
 MDMX.sg                  1.36:  Dens Mud Max 
 MOIL.                      70:  Run Mud Oil % 
 MOWR.                   70:30:  Run Mud OWR 
 MSND.                    0.00:  Run Mud Sand % 
 MSOL.                   17.60:  Run Mud Solids% 
 DFV .spqt               73.00:  Mud Viscosity 
 MWOD.in                  4.75:  MWD Tool OD 
 MWSI.                      No:  Serv Intrp, MWD 
 OTIM.hr                 85.66:  Time Operating 
 PCON.           Look Like New:  Pad Condition 
 PMAX.psia             6250.00:  Press Op, Max 
 PV  .cP                 65.00:  Mud PV 
 RUN .                     900:  Run Number 
 ROPA.m/hr               11.40:  ROP Avg 
 ROPN.m/hr                5.00:  ROP Min 
 ROPX.m/hr               20.00:  ROP Max 
 RPMA.rpm               130.00:  RPM Surface Avg 
 RPMN.rpm                40.00:  RPM Surface Min 
 RPMX.rpm               140.00:  RPM Surface Max 
 RRUN.                    L205:  Rig Run Number 
 RTIM.hr                  1.00:  Time Reaming 
 SAZI.deg               313.52:  Azm, Start 
 SDEP.m                4957.01:  Start Depth 
 SIDD.                      No:  Serv Intrp, DD 
 SINC.deg                73.16:  Inc, Start 
 SPPA.psig             5657.00:  SPP Avg 
 SPPN.psig             2500.00:  SPP Min 
 SPPX.psig             5806.00:  SPP Max 
 STIM.      07.12.00 05-Aug-20:  Start Time 
 SVCS.                 DD, MWD:  Services 
 SVER.                    9.20:  Sperry Version 
 TDAT.m                 243.00:  Tot Depth Attmp 
 TDDF.                      No:  Trip for DD 
 TDLG.m                 243.00:  Tot Depth Loggd 
 TFF .                      No:  Trip for Fail 
 TQAA.f-kp               13.00:  Torque Abs Avg 
 TQAN.f-kp               11.00:  Torque Abs Min 
 TQAX.f-kp               16.00:  Torque Abs Max 
 TRRT.°/30m               1.00:  Turn Rotating 
 MRT .                    HCIM:  Maximum Recorded Temperature 
 TTMX.degC               96.08:  Max Tool Temp 
 VS01.                90515411:  Virtual Str1 SN 
 VS02.                90512716:  Virtual Str2 SN 
 VS03.                90522362:  Virtual Str3 SN 
 VS04.                90619415:  Virtual Str4 SN 
 VS05.                90619414:  Virtual Str5 SN 
 VS06.                90597748:  Virtual Str6 SN 
 WBMN.klb                 2.00:  WOB Min 
 WITN.           Adil Mammadov:  Customer Rep 
 WITN.     Alexander Yadullayev:  Customer Rep 2 
 WOBA.klb                 7.00:  WOB Avg 
 WOBX.klb                23.00:  WOB Max 
 YP  .lhf2               37.00:  Yield Point 
~Curve Information Block
#MNEM.UNIT                 API CODE     Curve Description
#---------               -----------    ---------------------------
 TIME.HHMMSS            00 000 000 000:  GT Time & Date
 GTDEPTH.m              00 000 000 000:  GT Depth
 GTPQH.psia             00 000 000 000:  GT HR Quartz Pressure
 GTTQ.degC              00 000 000 000:  GT Quartz Temperature
 GTTN.NONE              00 000 000 000:  GT Test Number
 GTET.sec               00 000 000 000:  GT Elapsed Test Time
 GTTVD.m                00 000 000 000:  GT True Vertical Depth
#Other Information
#
#WARRANTY: Halliburton will use its best efforts to furnish customers with 
#accurate information and interpretations that are part of, and incident to, the services 
#provided.  However, Halliburton cannot and does not warrant the accuracy 
#or correctness of such information and interpretations.  Under no circumstances should any 
#such information or interpretation be relied upon as the sole basis for any drilling, 
#completion, production, or financial decision or any procedure involving any risk to the 
#safety of any drilling venture, drilling rig or its crew or any other third party.  The 
#Customer has full responsibility for all drilling, completion and production operation.  
#Halliburton makes no representations or warranties, either expressed or 
#implied, including, but not limited to, the implied warranties of merchantability or fitness 
#for a particular purpose, with respect to the services rendered.  In no event will 
#Halliburton be liable for failure to obtain any particular results or for 
#any damages, including, but not limited to, indirect, special or consequential damages, 
#resulting from the use of any information or interpretation provided by Halliburton.
#
~A           TIME           GTDEPTH  GTPQH  GTTQ  GTTN  GTET   GTTVD  
# ...
   21:59:43.000.06-Aug-2020 5001.01 3489.27 83.30 4.00 437.00 2646.47
   21:59:43.200.06-Aug-2020 5001.01 3489.27 83.30 4.00 437.20 2646.47
   21:59:43.400.06-Aug-2020 5001.01 3489.23 83.30 4.00 437.40 2646.47
   21:59:43.600.06-Aug-2020 5001.01 3489.26 83.29 4.00 437.60 2646.47
   21:59:43.800.06-Aug-2020 5001.01 3489.34 83.29 4.00 437.80 2646.47
   21:59:44.000.06-Aug-2020 5001.01 3489.26 83.29 4.00 438.00 2646.47
   21:59:44.200.06-Aug-2020 5001.01 3489.26 83.29 4.00 438.20 2646.47
   21:59:44.400.06-Aug-2020 5001.01 3489.28 83.29 4.00 438.40 2646.47
   21:59:44.600.06-Aug-2020 5001.01 3489.27 83.29 4.00 438.60 2646.47
   21:59:44.800.06-Aug-2020 5001.01 3489.27 83.29 4.00 438.80 2646.47
   21:59:45.000.06-Aug-2020 5001.01 3489.27 83.29 4.00 439.00 2646.47
   21:59:45.200.06-Aug-2020 5001.01 3489.27 83.29 4.00 439.20 2646.47
   21:59:45.400.06-Aug-2020 5001.01 3490.69 83.29 4.00 439.40 2646.47
   21:59:45.600.06-Aug-2020 5001.01 3497.93 83.29 4.00 439.60 2646.47
   21:59:45.800.06-Aug-2020 5001.01 4608.65 83.29 4.00 439.80 2646.47
   21:59:46.000.06-Aug-2020 5001.01 5802.55 83.29 4.00 440.00 2646.47
   21:59:46.200.06-Aug-2020 5001.01 5802.55 83.29 4.00 440.20 2646.47
   21:59:46.400.06-Aug-2020 5001.01 5795.93 83.29 4.00 440.40 2646.47
   21:59:46.600.06-Aug-2020 5001.01 5803.71 83.29 4.00 440.60 2646.47
   21:59:46.800.06-Aug-2020 5001.01 5801.15 83.29 4.00 440.80 2646.47
   21:59:47.000.06-Aug-2020 5001.01 5803.32 83.29 4.00 441.00 2646.47
   21:59:47.200.06-Aug-2020 5001.01 5803.32 83.29 4.00 441.20 2646.47
   21:59:47.400.06-Aug-2020 5001.01 5802.66 83.29 4.00 441.40 2646.47
   21:59:47.600.06-Aug-2020 5001.01 5799.46 83.29 4.00 441.60 2646.47
   21:59:47.800.06-Aug-2020 5001.01 5807.50 83.29 4.00 441.80 2646.47
   21:59:48.000.06-Aug-2020 5001.01 5784.12 83.29 4.00 442.00 2646.47
   21:59:48.200.06-Aug-2020 5001.01 5784.12 83.29 4.00 442.20 2646.47
   21:59:48.400.06-Aug-2020 5001.01 5803.84 83.29 4.00 442.40 2646.47
   21:59:48.600.06-Aug-2020 5001.01 5807.96 83.29 4.00 442.60 2646.47
   21:59:48.800.06-Aug-2020 5001.01 5801.44 83.29 4.00 442.80 2646.47
   21:59:49.000.06-Aug-2020 5001.01 5810.38 83.29 4.00 443.00 2646.47
   21:59:49.200.06-Aug-2020 5001.01 5810.38 83.29 4.00 443.20 2646.47
   21:59:49.400.06-Aug-2020 5001.01 5808.89 83.29 4.00 443.40 2646.47
   21:59:49.600.06-Aug-2020 5001.01 5809.47 83.29 4.00 443.60 2646.47
   21:59:49.800.06-Aug-2020 5001.01 5809.42 83.29 4.00 443.80 2646.47
   21:59:50.000.06-Aug-2020 5001.01 5810.82 83.29 4.00 444.00 2646.47
   21:59:50.200.06-Aug-2020 5001.01 5810.82 83.29 4.00 444.20 2646.47
   21:59:50.400.06-Aug-2020 5001.01 5811.79 83.29 4.00 444.40 2646.47
   21:59:50.600.06-Aug-2020 5001.01 5811.73 83.29 4.00 444.60 2646.47
   21:59:50.800.06-Aug-2020 5001.01 5811.84 83.29 4.00 444.80 2646.47
   21:59:51.000.06-Aug-2020 5001.01 5811.58 83.29 4.00 445.00 2646.47
   21:59:51.200.06-Aug-2020 5001.01 5811.58 83.29 4.00 445.20 2646.47
   21:59:51.400.06-Aug-2020 5001.01 5811.96 83.29 4.00 445.40 2646.47
   21:59:51.600.06-Aug-2020 5001.01 5804.64 83.29 4.00 445.60 2646.47
   21:59:51.800.06-Aug-2020 5001.01 5809.04 83.29 4.00 445.80 2646.47
   21:59:52.000.06-Aug-2020 5001.01 5811.50 83.29 4.00 446.00 2646.47
   21:59:52.200.06-Aug-2020 5001.01 5811.50 83.29 4.00 446.20 2646.47
   21:59:52.400.06-Aug-2020 5001.01 5811.09 83.29 4.00 446.40 2646.47
   21:59:52.600.06-Aug-2020 5001.01 5809.87 83.30 4.00 446.60 2646.47
   21:59:52.800.06-Aug-2020 5001.01 5810.69 83.30 4.00 446.80 2646.47
   21:59:53.000.06-Aug-2020 5001.01 5810.39 83.30 4.00 447.00 2646.47
   21:59:53.200.06-Aug-2020 5001.01 5810.39 83.30 4.00 447.20 2646.47
   21:59:53.400.06-Aug-2020 5001.01 5810.19 83.30 4.00 447.40 2646.47
   21:59:53.600.06-Aug-2020 5001.01 5810.05 83.30 4.00 447.60 2646.47
   21:59:53.800.06-Aug-2020 5001.01 5810.12 83.30 4.00 447.80 2646.47
   21:59:54.000.06-Aug-2020 5001.01 5810.01 83.30 4.00 448.00 2646.47
   21:59:54.200.06-Aug-2020 5001.01 5810.01 83.30 4.00 448.20 2646.47
   21:59:54.400.06-Aug-2020 5001.01 5807.07 83.30 4.00 448.40 2646.47
   21:59:54.600.06-Aug-2020 5001.01 5803.04 83.30 4.00 448.60 2646.47
   21:59:54.800.06-Aug-2020 5001.01 5810.59 83.30 4.00 448.80 2646.47
   21:59:55.000.06-Aug-2020 5001.01 5808.49 83.30 4.00 449.00 2646.47
   21:59:55.200.06-Aug-2020 5001.01 5808.49 83.30 4.00 449.20 2646.47
   21:59:55.400.06-Aug-2020 5001.01 5805.46 83.30 4.00 449.40 2646.47
   21:59:55.600.06-Aug-2020 5001.01 5809.64 83.30 4.00 449.60 2646.47
   21:59:55.800.06-Aug-2020 5001.01 5803.81 83.30 4.00 449.80 2646.47
   21:59:56.000.06-Aug-2020 5001.01 5810.17 83.30 4.00 450.00 2646.47
   21:59:56.200.06-Aug-2020 5001.01 5810.17 83.30 4.00 450.20 2646.47
   21:59:56.400.06-Aug-2020 5001.01 5810.46 83.30 4.00 450.40 2646.47
   21:59:56.600.06-Aug-2020 5001.01 5807.23 83.30 4.00 450.60 2646.47
   21:59:56.800.06-Aug-2020 5001.01 5808.94 83.30 4.00 450.80 2646.47
   21:59:57.000.06-Aug-2020 5001.01 5801.33 83.30 4.00 451.00 2646.47
   21:59:57.200.06-Aug-2020 5001.01 5801.33 83.30 4.00 451.20 2646.47
   21:59:57.400.06-Aug-2020 5001.01 5806.00 83.30 4.00 451.40 2646.47
   21:59:57.600.06-Aug-2020 5001.01 5809.75 83.30 4.00 451.60 2646.47
   21:59:57.800.06-Aug-2020 5001.01 5810.77 83.30 4.00 451.80 2646.47
   21:59:58.000.06-Aug-2020 5001.01 5810.29 83.30 4.00 452.00 2646.47
   21:59:58.200.06-Aug-2020 5001.01 5810.29 83.30 4.00 452.20 2646.47
   21:59:58.400.06-Aug-2020 5001.01 5811.62 83.30 4.00 452.40 2646.47
   21:59:58.600.06-Aug-2020 5001.01 5811.81 83.30 4.00 452.60 2646.47
   21:59:58.800.06-Aug-2020 5001.01 5811.76 83.30 4.00 452.80 2646.47
   21:59:59.000.06-Aug-2020 5001.01 5811.31 83.30 4.00 453.00 2646.47
   21:59:59.200.06-Aug-2020 5001.01 5811.01 83.30 4.00 453.20 2646.47
   21:59:59.400.06-Aug-2020 5001.01 5811.09 83.30 4.00 453.40 2646.47
   21:59:59.600.06-Aug-2020 5001.01 5809.66 83.30 4.00 453.60 2646.47
   21:59:59.800.06-Aug-2020 5001.01 5808.12 83.30 4.00 453.80 2646.47
   22:00:00.000.06-Aug-2020 5001.01 5804.03 83.30 4.00 454.00 2646.47
   22:00:00.200.06-Aug-2020 5001.01 5811.83 83.30 4.00 454.20 2646.47
   22:00:00.400.06-Aug-2020 5001.01 5809.64 83.30 4.00 454.40 2646.47
   22:00:00.600.06-Aug-2020 5001.01 5810.27 83.30 4.00 454.60 2646.47
   22:00:00.800.06-Aug-2020 5001.01 5810.81 83.30 4.00 454.80 2646.47
   22:00:01.000.06-Aug-2020 5001.01 5810.79 83.30 4.00 455.00 2646.47
   22:00:01.200.06-Aug-2020 5001.01 5810.79 83.30 4.00 455.20 2646.47
   22:00:01.400.06-Aug-2020 5001.01 5810.81 83.30 4.00 455.40 2646.47
   22:00:01.600.06-Aug-2020 5001.01 5811.20 83.30 4.00 455.60 2646.47
   22:00:01.800.06-Aug-2020 5001.01 5810.71 83.30 4.00 455.80 2646.47
   22:00:02.000.06-Aug-2020 5001.01 5811.09 83.30 4.00 456.00 2646.47
   22:00:02.200.06-Aug-2020 5001.01 5811.09 83.30 4.00 456.20 2646.47
   22:00:02.400.06-Aug-2020 5001.01 5810.84 83.30 4.00 456.40 2646.47
   22:00:02.600.06-Aug-2020 5001.01 5803.27 83.30 4.00 456.60 2646.47
   22:00:02.800.06-Aug-2020 5001.01 5808.14 83.30 4.00 456.80 2646.47
   22:00:03.000.06-Aug-2020 5001.01 5810.09 83.29 4.00 457.00 2646.47
   22:00:03.200.06-Aug-2020 5001.01 5808.02 83.29 4.00 457.20 2646.47
   22:00:03.400.06-Aug-2020 5001.01 5810.31 83.29 4.00 457.40 2646.47
   22:00:03.600.06-Aug-2020 5001.01 5809.90 83.29 4.00 457.60 2646.47
   22:00:03.800.06-Aug-2020 5001.01 5802.30 83.29 4.00 457.80 2646.47
   22:00:04.000.06-Aug-2020 5001.01 5809.10 83.29 4.00 458.00 2646.47
   22:00:04.200.06-Aug-2020 5001.01 5809.63 83.29 4.00 458.20 2646.47
   22:00:04.400.06-Aug-2020 5001.01 5808.05 83.29 4.00 458.40 2646.47
   22:00:04.600.06-Aug-2020 5001.01 5805.99 83.29 4.00 458.60 2646.47
   22:00:04.800.06-Aug-2020 5001.01 5809.73 83.29 4.00 458.80 2646.47
   22:00:05.000.06-Aug-2020 5001.01 5803.41 83.29 4.00 459.00 2646.47
   22:00:05.200.06-Aug-2020 5001.01 5803.41 83.29 4.00 459.20 2646.47
   22:00:05.400.06-Aug-2020 5001.01 5808.82 83.29 4.00 459.40 2646.47
   22:00:05.600.06-Aug-2020 5001.01 5801.22 83.29 4.00 459.60 2646.47
   22:00:05.800.06-Aug-2020 5001.01 5811.03 83.29 4.00 459.80 2646.47
