~Version Information
 VERS.                  2.0:   CWLS log ASCII Standard -VERSION 2.0
 WRAP.                   NO:   One line per depth step
~Well Information Block
#MNEM.UNIT     VALUE/NAME     DESCRIPTION
#---------     -----------    ---------------------------
 STRT.S             14:58:59 06-Aug-20: START TIME 14:58:59 06-Aug-20
 STOP.S             15:06:43 06-Aug-20: STOP TIME  15:06:43 06-Aug-20
 STEP.S                   0.00: STEP TIME
 NULL.                 -999.25: NULL VALUE
 DFWT.                        :  DIST FWL TEXT
 DFST.                        :  DIST FSL TEXT
 DMF .             Drill Floor:  DRILL MEAS FROM
 STIM.      12.00.00 03-Jul-20:  START TIME
 DATE.      00.50.00 09-Aug-20:  END TIME
 SPUD.               03-Jul-20:  SPUD DATE
 NREF.                    Grid:  NORTH REFERENCE
 HPTY.       Minimum Curvature:  HOLE POS TYPE
 DMOD.             Drill Model:  DRILL MOD DESC
 SVYD.                  Survey:  SURVEY DESC
 ILTD.               Lithology:  INTERP LTH DESC
 FTOP.          Formation Tops:  FORM TOPS DESC
 PDAT.          Mean Sea Level:  PERMANENT DATUM
 FLD .                     ACG:  FIELD NAME
 CTRY.              Azerbaijan:  COUNTRY NAME
 WELL.                    E04x:  WELL NAME
 SRVC.          Turan Drilling:  CONTRACTOR
 COMP.     BP Exploration (Caspian Sea) Ltd.:  COMPANY
 SON .        AZ-XX-0906531346:  JOB NUMBER
 WTYP.                Deviated:  WELL TYPE
 MDS .        Operator Entered:  MAG DATA SOURCE
 UWI .                     N/A:  UNIQUE WELL IDENTIFIER
 API .                     N/A:  API NUMBER
 BASE.              Azerbaijan:  LOGGING EQUIPMENT BASE LOCATION
 REGN.                   EESSA:  REGION
 PROV.                    Baku:  PROVINCE
 STAT.                    Baku:  STATE NAME
 MWDS.                    Baku:  MWD SHOP
 JOBN.        AZ-XX-0906531346:  JOB TICKET NUMB
 RIG .                     DWG:  RIG NAME
 DOE .                     N/A:  DOE NUMBER
 DCON.         Sperry Drilling:  DIRECTNL CONTR
 UNIT.                     N/A:  LOGGING EQUIPMENT ID
 CNTY.                        :  COUNTY
 LOC .                        :  LOCATION
 LMF .             Drill Floor:  LOG MEASURED FROM
 TVDS.m                  43.16:  TVDSS CORRECTN
 LATI.deg                40.17:  LATITUDE
 LONG.deg                51.17:  LONGITUDE
 WHNS.m                  -0.12:  WELL HEAD N/S
 WHEW.m                  -5.41:  WELL HEAD E/W
 UTMX.m              514337.95:  UTM X
 UTMY.m             4448627.46:  UTM Y
 DFWL.m                   0.00:  DISTANCE FWL
 DFSL.m                   0.00:  DISTANCE FSL
 SDEP.m                3088.01:  START DEPTH
 TDD .m                5200.01:  TOTAL DEPTH (DRILLER)
 VSDR.deg               244.51:  VERT SEC DIRECT
 GVFD.g                   1.00:  GRAVITY FIELD
 MFLD.nT              50329.80:  MAGNETIC FIELD
 MDIP.deg                59.63:  MAGNETIC DIP
 MDEC.deg                 6.59:  MAGNETIC DECL
 GRDC.deg                 0.09:  GRID CORRECTION
 AZTC.deg                 6.50:  AZM TOTAL CORR
 EPD .m                   0.00:  ELEVATION
 EGL .m                   0.00:  GROUND ELEVATION
 WDMS.m                 176.20:  WD ELEV
 APD .m                  43.16:  DEPTH ABOVE PD
 DEP .m                3084.71:  DEPTH
 AGAP.m                  43.16:  AIR GAP
 VSEW.m                  -5.41:  VERT SEC E/W
 VSNS.m                  -0.12:  VERT SEC N/S
 EKB .m                   0.00:  KB ELEVATION
 EDF .m                  43.16:  DF ELEVATION
 TDL .m                 243.00:  TOTAL DEPTH (LOGGER)
 VSC .                       0:  VS TO CLOSURE
 MAGU.                 1853542:  MAGUTM CHECKSUM
~Parameter Information Block
#MNEM.UNIT       Value        Description
#---------     -----------    ---------------------------
 AV  .mps                 1.91:  Ann Velocity 
 AVMX.mps                 2.52:  Max Ann Veloc 
 AZIF.deg               308.97:  Azm, Final 
 BHAT.        Rotary Steerable:  BHA Type 
 BROT.°/30m               1.00:  Build Rotating 
 BS  .in                  6.50:  Bit Size 
 BSZ .in                  6.50:  Bit Size 
 BTPL.psig              350.00:  Bit Press Loss 
 CABU.                      No:  Customer Abuse 
 CGEO.           Asif Pashayev:  Customer Geo 
 COMM.                     ”›T:  Run Comments 1 
 TCS .hr                 35.86:  Time Ciculation Ended 
 CV  .mps                 2.31:  Crit Velocity 
 CVMX.mps                 2.31:  Max Crit Veloc 
 DD1 .         Intigam Rahimov:  Direct Drillr 1 
 DDSV.               Geo-Pilot:  DD Service 
 DEFF.%                  92.00:  % Det Eff 
 DLRX.°/30m               1.00:  Dogleg Rot Max 
 DLSO.°/30m               1.00:  Dogleg Oriented 
 DLSX.°/30m               1.42:  Dogleg Str Max 
 DRET.      15.50.00 07-Aug-20:  Drill End Time 
 DRST.      10.40.00 06-Aug-20:  Drill Start Tim 
 DTIM.hr                 21.30:  Time Drilling 
 EDEP.m                5200.01:  End Depth 
 ENG1.            Alan Tuganov:  Engineer 1 
 ENG2.         Almaz Almadatov:  Engineer 2 
 ENG3.     Zammelal Abdullah Sani:  Engineer 3 
 ETIM.      22.42.00 08-Aug-20:  End Time 
 FLOI.gpm               395.00:  Flow In 
 FLON.gpm               350.00:  Flow In Min 
 FLOS.cptm                0.00:  Fluid Loss 
 FLOX.gpm               404.00:  Flow In Max 
 FTRO.       Formation Presure:  FTWD Run Obj 
 HFLO.                      No:  High Flow 
 HPRE.                      No:  High Pressure 
 HTEM.                      No:  High Temp 
 HYDO.m                   1.80:  Hydro Offset 
 IFIN.deg                72.64:  Inc, Final 
 IMAX.deg                73.68:  Inc Max 
 IMIN.deg                72.64:  Inc Min 
 IMND.m                5189.69:  Inc Min Depth 
 IMXD.m                5067.88:  Inc Max Depth 
 JARR.                      No:  Jarring 
 LETM.      15.50.00 07-Aug-20:  Log End Time 
 LOST.hr                     0:  Lost Rig Time 
 LSTM.      10.40.00 06-Aug-20:  Log Start Time 
 MDCL.ppm             36000.00:  Mud Chlorides 
 MDES.     Inversion Oil/Synthetic:  Mud Desc 
 DFD .sg                  1.36:  Mud Density 
 MDMN.sg                  1.36:  Dens Mud Min 
 MDMX.sg                  1.36:  Dens Mud Max 
 MOIL.                      70:  Run Mud Oil % 
 MOWR.                   70:30:  Run Mud OWR 
 MSND.                    0.00:  Run Mud Sand % 
 MSOL.                   17.60:  Run Mud Solids% 
 DFV .spqt               73.00:  Mud Viscosity 
 MWOD.in                  4.75:  MWD Tool OD 
 MWSI.                      No:  Serv Intrp, MWD 
 OTIM.hr                 85.66:  Time Operating 
 PCON.           Look Like New:  Pad Condition 
 PMAX.psia             6250.00:  Press Op, Max 
 PV  .cP                 65.00:  Mud PV 
 RUN .                     900:  Run Number 
 ROPA.m/hr               11.40:  ROP Avg 
 ROPN.m/hr                5.00:  ROP Min 
 ROPX.m/hr               20.00:  ROP Max 
 RPMA.rpm               130.00:  RPM Surface Avg 
 RPMN.rpm                40.00:  RPM Surface Min 
 RPMX.rpm               140.00:  RPM Surface Max 
 RRUN.                    L205:  Rig Run Number 
 RTIM.hr                  1.00:  Time Reaming 
 SAZI.deg               313.52:  Azm, Start 
 SDEP.m                4957.01:  Start Depth 
 SIDD.                      No:  Serv Intrp, DD 
 SINC.deg                73.16:  Inc, Start 
 SPPA.psig             5657.00:  SPP Avg 
 SPPN.psig             2500.00:  SPP Min 
 SPPX.psig             5806.00:  SPP Max 
 STIM.      07.12.00 05-Aug-20:  Start Time 
 SVCS.                 DD, MWD:  Services 
 SVER.                    9.20:  Sperry Version 
 TDAT.m                 243.00:  Tot Depth Attmp 
 TDDF.                      No:  Trip for DD 
 TDLG.m                 243.00:  Tot Depth Loggd 
 TFF .                      No:  Trip for Fail 
 TQAA.f-kp               13.00:  Torque Abs Avg 
 TQAN.f-kp               11.00:  Torque Abs Min 
 TQAX.f-kp               16.00:  Torque Abs Max 
 TRRT.°/30m               1.00:  Turn Rotating 
 MRT .                    HCIM:  Maximum Recorded Temperature 
 TTMX.degC               96.08:  Max Tool Temp 
 VS01.                90515411:  Virtual Str1 SN 
 VS02.                90512716:  Virtual Str2 SN 
 VS03.                90522362:  Virtual Str3 SN 
 VS04.                90619415:  Virtual Str4 SN 
 VS05.                90619414:  Virtual Str5 SN 
 VS06.                90597748:  Virtual Str6 SN 
 WBMN.klb                 2.00:  WOB Min 
 WITN.           Adil Mammadov:  Customer Rep 
 WITN.     Alexander Yadullayev:  Customer Rep 2 
 WOBA.klb                 7.00:  WOB Avg 
 WOBX.klb                23.00:  WOB Max 
 YP  .lhf2               37.00:  Yield Point 
~Curve Information Block
#MNEM.UNIT                 API CODE     Curve Description
#---------               -----------    ---------------------------
 TIME.HHMMSS            00 000 000 000:  GT Time & Date
 GTDEPTH.m              00 000 000 000:  GT Depth
 GTPQH.psia             00 000 000 000:  GT HR Quartz Pressure
 GTTQ.degC              00 000 000 000:  GT Quartz Temperature
 GTTN.NONE              00 000 000 000:  GT Test Number
 GTET.sec               00 000 000 000:  GT Elapsed Test Time
 GTTVD.m                00 000 000 000:  GT True Vertical Depth
#Other Information
#
#WARRANTY: Halliburton will use its best efforts to furnish customers with 
#accurate information and interpretations that are part of, and incident to, the services 
#provided.  However, Halliburton cannot and does not warrant the accuracy 
#or correctness of such information and interpretations.  Under no circumstances should any 
#such information or interpretation be relied upon as the sole basis for any drilling, 
#completion, production, or financial decision or any procedure involving any risk to the 
#safety of any drilling venture, drilling rig or its crew or any other third party.  The 
#Customer has full responsibility for all drilling, completion and production operation.  
#Halliburton makes no representations or warranties, either expressed or 
#implied, including, but not limited to, the implied warranties of merchantability or fitness 
#for a particular purpose, with respect to the services rendered.  In no event will 
#Halliburton be liable for failure to obtain any particular results or for 
#any damages, including, but not limited to, indirect, special or consequential damages, 
#resulting from the use of any information or interpretation provided by Halliburton.
#
~A           TIME           GTDEPTH  GTPQH  GTTQ  GTTN  GTET   GTTVD  
   14:58:59.546.06-Aug-2020 4947.01 4103.10 78.71 1.00   0.00 2630.94
   14:58:59.746.06-Aug-2020 4947.01 4103.10 78.71 1.00   0.20 2630.94
   14:58:59.946.06-Aug-2020 4947.01 3975.12 78.71 1.00   0.40 2630.94
   14:59:00.146.06-Aug-2020 4947.01 3903.68 78.71 1.00   0.60 2630.94
   14:59:00.346.06-Aug-2020 4947.01 3836.43 78.71 1.00   0.80 2630.94
   14:59:00.546.06-Aug-2020 4947.01 3767.92 78.71 1.00   1.00 2630.94
   14:59:00.746.06-Aug-2020 4947.01 3767.92 78.71 1.00   1.20 2630.94
   14:59:00.946.06-Aug-2020 4947.01 3705.91 78.71 1.00   1.40 2630.94
   14:59:01.146.06-Aug-2020 4947.01 3679.04 78.71 1.00   1.60 2630.94
   14:59:01.347.06-Aug-2020 4947.01 3750.78 78.71 1.00   1.80 2630.94
   14:59:01.547.06-Aug-2020 4947.01 3742.93 78.70 1.00   2.00 2630.94
   14:59:01.747.06-Aug-2020 4947.01 3742.93 78.70 1.00   2.20 2630.94
   14:59:01.947.06-Aug-2020 4947.01 4652.58 78.70 1.00   2.40 2630.94
   14:59:02.147.06-Aug-2020 4947.01 4709.58 78.70 1.00   2.60 2630.94
   14:59:02.347.06-Aug-2020 4947.01 4751.14 78.70 1.00   2.80 2630.94
   14:59:02.547.06-Aug-2020 4947.01 4712.20 78.70 1.00   3.00 2630.94
   14:59:02.747.06-Aug-2020 4947.01 4712.20 78.70 1.00   3.20 2630.94
   14:59:02.947.06-Aug-2020 4947.01 4821.94 78.70 1.00   3.40 2630.94
   14:59:03.147.06-Aug-2020 4947.01 4913.23 78.70 1.00   3.60 2630.94
   14:59:03.347.06-Aug-2020 4947.01 4846.67 78.70 1.00   3.80 2630.94
   14:59:03.547.06-Aug-2020 4947.01 4818.05 78.70 1.00   4.00 2630.94
   14:59:03.747.06-Aug-2020 4947.01 4818.05 78.70 1.00   4.20 2630.94
   14:59:03.947.06-Aug-2020 4947.01 4820.99 78.70 1.00   4.40 2630.94
   14:59:04.147.06-Aug-2020 4947.01 4811.22 78.70 1.00   4.60 2630.94
   14:59:04.347.06-Aug-2020 4947.01 4836.46 78.69 1.00   4.80 2630.94
   14:59:04.547.06-Aug-2020 4947.01 4839.65 78.69 1.00   5.00 2630.94
   14:59:04.747.06-Aug-2020 4947.01 4839.65 78.69 1.00   5.20 2630.94
   14:59:04.947.06-Aug-2020 4947.01 4875.67 78.69 1.00   5.40 2630.94
   14:59:05.147.06-Aug-2020 4947.01 4908.17 78.69 1.00   5.60 2630.94
   14:59:05.347.06-Aug-2020 4947.01 4889.69 78.69 1.00   5.80 2630.94
   14:59:05.547.06-Aug-2020 4947.01 4916.97 78.69 1.00   6.00 2630.94
   14:59:05.747.06-Aug-2020 4947.01 4916.97 78.69 1.00   6.20 2630.94
   14:59:05.947.06-Aug-2020 4947.01 4948.87 78.69 1.00   6.40 2630.94
   14:59:06.148.06-Aug-2020 4947.01 4958.72 78.69 1.00   6.60 2630.94
   14:59:06.348.06-Aug-2020 4947.01 4990.80 78.69 1.00   6.80 2630.94
   14:59:06.548.06-Aug-2020 4947.01 5057.44 78.69 1.00   7.00 2630.94
   14:59:06.748.06-Aug-2020 4947.01 5057.44 78.69 1.00   7.20 2630.94
   14:59:06.948.06-Aug-2020 4947.01 5087.04 78.69 1.00   7.40 2630.94
   14:59:07.148.06-Aug-2020 4947.01 5038.08 78.69 1.00   7.60 2630.94
   14:59:07.348.06-Aug-2020 4947.01 4961.67 78.69 1.00   7.80 2630.94
   14:59:07.548.06-Aug-2020 4947.01 4954.34 78.69 1.00   8.00 2630.94
   14:59:07.748.06-Aug-2020 4947.01 4954.34 78.69 1.00   8.20 2630.94
   14:59:07.948.06-Aug-2020 4947.01 5346.56 78.68 1.00   8.40 2630.94
   14:59:08.148.06-Aug-2020 4947.01 5377.20 78.68 1.00   8.60 2630.94
   14:59:08.348.06-Aug-2020 4947.01 5445.30 78.68 1.00   8.80 2630.94
   14:59:08.548.06-Aug-2020 4947.01 5471.81 78.68 1.00   9.00 2630.94
   14:59:08.748.06-Aug-2020 4947.01 5471.81 78.68 1.00   9.20 2630.94
   14:59:08.948.06-Aug-2020 4947.01 5551.08 78.68 1.00   9.40 2630.94
   14:59:09.148.06-Aug-2020 4947.01 5573.02 78.68 1.00   9.60 2630.94
   14:59:09.348.06-Aug-2020 4947.01 5598.08 78.68 1.00   9.80 2630.94
   14:59:09.548.06-Aug-2020 4947.01 5642.12 78.68 1.00  10.00 2630.94
   14:59:09.748.06-Aug-2020 4947.01 5642.12 78.68 1.00  10.20 2630.94
   14:59:09.948.06-Aug-2020 4947.01 5695.90 78.68 1.00  10.40 2630.94
   14:59:10.148.06-Aug-2020 4947.01 5697.14 78.68 1.00  10.60 2630.94
   14:59:10.348.06-Aug-2020 4947.01 5696.55 78.68 1.00  10.80 2630.94
   14:59:10.548.06-Aug-2020 4947.01 5697.79 78.68 1.00  11.00 2630.94
   14:59:10.749.06-Aug-2020 4947.01 5697.79 78.68 1.00  11.20 2630.94
   14:59:10.949.06-Aug-2020 4947.01 5698.44 78.68 1.00  11.40 2630.94
   14:59:11.149.06-Aug-2020 4947.01 5690.74 78.68 1.00  11.60 2630.94
   14:59:11.349.06-Aug-2020 4947.01 5694.97 78.68 1.00  11.80 2630.94
   14:59:11.549.06-Aug-2020 4947.01 5695.89 78.68 1.00  12.00 2630.94
   14:59:11.749.06-Aug-2020 4947.01 5695.89 78.68 1.00  12.20 2630.94
   14:59:11.949.06-Aug-2020 4947.01 5697.33 78.68 1.00  12.40 2630.94
   14:59:12.149.06-Aug-2020 4947.01 5698.39 78.68 1.00  12.60 2630.94
   14:59:12.349.06-Aug-2020 4947.01 5697.82 78.68 1.00  12.80 2630.94
   14:59:12.549.06-Aug-2020 4947.01 5692.51 78.68 1.00  13.00 2630.94
   14:59:12.749.06-Aug-2020 4947.01 5692.51 78.68 1.00  13.20 2630.94
   14:59:12.949.06-Aug-2020 4947.01 5698.75 78.68 1.00  13.40 2630.94
   14:59:13.149.06-Aug-2020 4947.01 5699.02 78.68 1.00  13.60 2630.94
   14:59:13.349.06-Aug-2020 4947.01 5699.62 78.68 1.00  13.80 2630.94
   14:59:13.549.06-Aug-2020 4947.01 5699.67 78.68 1.00  14.00 2630.94
   14:59:13.749.06-Aug-2020 4947.01 5699.67 78.68 1.00  14.20 2630.94
   14:59:13.949.06-Aug-2020 4947.01 5695.89 78.68 1.00  14.40 2630.94
   14:59:14.149.06-Aug-2020 4947.01 5698.91 78.68 1.00  14.60 2630.94
   14:59:14.349.06-Aug-2020 4947.01 5701.36 78.68 1.00  14.80 2630.94
   14:59:14.549.06-Aug-2020 4947.01 5701.32 78.68 1.00  15.00 2630.94
   14:59:14.749.06-Aug-2020 4947.01 5701.32 78.68 1.00  15.20 2630.94
   14:59:14.949.06-Aug-2020 4947.01 5696.83 78.68 1.00  15.40 2630.94
   14:59:15.149.06-Aug-2020 4947.01 5698.53 78.68 1.00  15.60 2630.94
   14:59:15.349.06-Aug-2020 4947.01 5700.99 78.67 1.00  15.80 2630.94
   14:59:15.550.06-Aug-2020 4947.01 5703.59 78.67 1.00  16.00 2630.94
   14:59:15.750.06-Aug-2020 4947.01 5703.59 78.67 1.00  16.20 2630.94
   14:59:15.950.06-Aug-2020 4947.01 5703.60 78.67 1.00  16.40 2630.94
   14:59:16.150.06-Aug-2020 4947.01 5701.96 78.67 1.00  16.60 2630.94
   14:59:16.350.06-Aug-2020 4947.01 5703.78 78.67 1.00  16.80 2630.94
   14:59:16.550.06-Aug-2020 4947.01 5702.41 78.67 1.00  17.00 2630.94
   14:59:16.750.06-Aug-2020 4947.01 5702.41 78.67 1.00  17.20 2630.94
   14:59:16.950.06-Aug-2020 4947.01 5702.63 78.67 1.00  17.40 2630.94
   14:59:17.150.06-Aug-2020 4947.01 5703.30 78.67 1.00  17.60 2630.94
   14:59:17.350.06-Aug-2020 4947.01 5702.25 78.67 1.00  17.80 2630.94
   14:59:17.550.06-Aug-2020 4947.01 5703.57 78.67 1.00  18.00 2630.94
   14:59:17.750.06-Aug-2020 4947.01 5703.57 78.67 1.00  18.20 2630.94
   14:59:17.950.06-Aug-2020 4947.01 5696.84 78.67 1.00  18.40 2630.94
   14:59:18.150.06-Aug-2020 4947.01 5700.00 78.67 1.00  18.60 2630.94
   14:59:18.350.06-Aug-2020 4947.01 5702.08 78.67 1.00  18.80 2630.94
   14:59:18.550.06-Aug-2020 4947.01 5703.00 78.67 1.00  19.00 2630.94
   14:59:18.750.06-Aug-2020 4947.01 5703.00 78.67 1.00  19.20 2630.94
   14:59:18.950.06-Aug-2020 4947.01 5704.63 78.67 1.00  19.40 2630.94
   14:59:19.150.06-Aug-2020 4947.01 5704.44 78.67 1.00  19.60 2630.94
   14:59:19.350.06-Aug-2020 4947.01 5705.03 78.67 1.00  19.80 2630.94
   14:59:19.550.06-Aug-2020 4947.01 5704.26 78.67 1.00  20.00 2630.94
   14:59:19.750.06-Aug-2020 4947.01 5704.26 78.67 1.00  20.20 2630.94
   14:59:19.950.06-Aug-2020 4947.01 5704.14 78.67 1.00  20.40 2630.94
   14:59:20.151.06-Aug-2020 4947.01 5704.98 78.67 1.00  20.60 2630.94
   14:59:20.351.06-Aug-2020 4947.01 5704.02 78.67 1.00  20.80 2630.94
   14:59:20.551.06-Aug-2020 4947.01 5699.70 78.67 1.00  21.00 2630.94
   14:59:20.751.06-Aug-2020 4947.01 5699.70 78.67 1.00  21.20 2630.94
   14:59:20.951.06-Aug-2020 4947.01 5703.32 78.67 1.00  21.40 2630.94
   14:59:21.151.06-Aug-2020 4947.01 5703.71 78.67 1.00  21.60 2630.94
   14:59:21.351.06-Aug-2020 4947.01 5705.21 78.67 1.00  21.80 2630.94
   14:59:21.551.06-Aug-2020 4947.01 5698.59 78.67 1.00  22.00 2630.94
   14:59:21.751.06-Aug-2020 4947.01 5698.59 78.67 1.00  22.20 2630.94
   14:59:21.951.06-Aug-2020 4947.01 5703.69 78.67 1.00  22.40 2630.94
   14:59:22.151.06-Aug-2020 4947.01 5705.80 78.67 1.00  22.60 2630.94
   14:59:22.351.06-Aug-2020 4947.01 5700.23 78.67 1.00  22.80 2630.94
