~Version Information
 VERS.                  2.0:   CWLS log ASCII Standard -VERSION 2.0
 WRAP.                   NO:   One line per depth step
~Well Information Block
#MNEM.UNIT     VALUE/NAME     DESCRIPTION
#---------     -----------    ---------------------------
 STRT.S             16:10:03 06-Aug-20: START TIME 16:10:03 06-Aug-20
 STOP.S             16:17:57 06-Aug-20: STOP TIME  16:17:57 06-Aug-20
 STEP.S                   0.00: STEP TIME
 NULL.                 -999.25: NULL VALUE
 DFWT.                        :  DIST FWL TEXT
 DFST.                        :  DIST FSL TEXT
 DMF .             Drill Floor:  DRILL MEAS FROM
 STIM.      12.00.00 03-Jul-20:  START TIME
 DATE.      00.50.00 09-Aug-20:  END TIME
 SPUD.               03-Jul-20:  SPUD DATE
 NREF.                    Grid:  NORTH REFERENCE
 HPTY.       Minimum Curvature:  HOLE POS TYPE
 DMOD.             Drill Model:  DRILL MOD DESC
 SVYD.                  Survey:  SURVEY DESC
 ILTD.               Lithology:  INTERP LTH DESC
 FTOP.          Formation Tops:  FORM TOPS DESC
 PDAT.          Mean Sea Level:  PERMANENT DATUM
 FLD .                     ACG:  FIELD NAME
 CTRY.              Azerbaijan:  COUNTRY NAME
 WELL.                    E04x:  WELL NAME
 SRVC.          Turan Drilling:  CONTRACTOR
 COMP.     BP Exploration (Caspian Sea) Ltd.:  COMPANY
 SON .        AZ-XX-0906531346:  JOB NUMBER
 WTYP.                Deviated:  WELL TYPE
 MDS .        Operator Entered:  MAG DATA SOURCE
 UWI .                     N/A:  UNIQUE WELL IDENTIFIER
 API .                     N/A:  API NUMBER
 BASE.              Azerbaijan:  LOGGING EQUIPMENT BASE LOCATION
 REGN.                   EESSA:  REGION
 PROV.                    Baku:  PROVINCE
 STAT.                    Baku:  STATE NAME
 MWDS.                    Baku:  MWD SHOP
 JOBN.        AZ-XX-0906531346:  JOB TICKET NUMB
 RIG .                     DWG:  RIG NAME
 DOE .                     N/A:  DOE NUMBER
 DCON.         Sperry Drilling:  DIRECTNL CONTR
 UNIT.                     N/A:  LOGGING EQUIPMENT ID
 CNTY.                        :  COUNTY
 LOC .                        :  LOCATION
 LMF .             Drill Floor:  LOG MEASURED FROM
 TVDS.m                  43.16:  TVDSS CORRECTN
 LATI.deg                40.17:  LATITUDE
 LONG.deg                51.17:  LONGITUDE
 WHNS.m                  -0.12:  WELL HEAD N/S
 WHEW.m                  -5.41:  WELL HEAD E/W
 UTMX.m              514337.95:  UTM X
 UTMY.m             4448627.46:  UTM Y
 DFWL.m                   0.00:  DISTANCE FWL
 DFSL.m                   0.00:  DISTANCE FSL
 SDEP.m                3088.01:  START DEPTH
 TDD .m                5200.01:  TOTAL DEPTH (DRILLER)
 VSDR.deg               244.51:  VERT SEC DIRECT
 GVFD.g                   1.00:  GRAVITY FIELD
 MFLD.nT              50329.80:  MAGNETIC FIELD
 MDIP.deg                59.63:  MAGNETIC DIP
 MDEC.deg                 6.59:  MAGNETIC DECL
 GRDC.deg                 0.09:  GRID CORRECTION
 AZTC.deg                 6.50:  AZM TOTAL CORR
 EPD .m                   0.00:  ELEVATION
 EGL .m                   0.00:  GROUND ELEVATION
 WDMS.m                 176.20:  WD ELEV
 APD .m                  43.16:  DEPTH ABOVE PD
 DEP .m                3084.71:  DEPTH
 AGAP.m                  43.16:  AIR GAP
 VSEW.m                  -5.41:  VERT SEC E/W
 VSNS.m                  -0.12:  VERT SEC N/S
 EKB .m                   0.00:  KB ELEVATION
 EDF .m                  43.16:  DF ELEVATION
 TDL .m                 243.00:  TOTAL DEPTH (LOGGER)
 VSC .                       0:  VS TO CLOSURE
 MAGU.                 1853542:  MAGUTM CHECKSUM
~Parameter Information Block
#MNEM.UNIT       Value        Description
#---------     -----------    ---------------------------
 AV  .mps                 1.91:  Ann Velocity 
 AVMX.mps                 2.52:  Max Ann Veloc 
 AZIF.deg               308.97:  Azm, Final 
 BHAT.        Rotary Steerable:  BHA Type 
 BROT.°/30m               1.00:  Build Rotating 
 BS  .in                  6.50:  Bit Size 
 BSZ .in                  6.50:  Bit Size 
 BTPL.psig              350.00:  Bit Press Loss 
 CABU.                      No:  Customer Abuse 
 CGEO.           Asif Pashayev:  Customer Geo 
 COMM.                     Ôöj:  Run Comments 1 
 TCS .hr                 35.86:  Time Ciculation Ended 
 CV  .mps                 2.31:  Crit Velocity 
 CVMX.mps                 2.31:  Max Crit Veloc 
 DD1 .         Intigam Rahimov:  Direct Drillr 1 
 DDSV.               Geo-Pilot:  DD Service 
 DEFF.%                  92.00:  % Det Eff 
 DLRX.°/30m               1.00:  Dogleg Rot Max 
 DLSO.°/30m               1.00:  Dogleg Oriented 
 DLSX.°/30m               1.42:  Dogleg Str Max 
 DRET.      15.50.00 07-Aug-20:  Drill End Time 
 DRST.      10.40.00 06-Aug-20:  Drill Start Tim 
 DTIM.hr                 21.30:  Time Drilling 
 EDEP.m                5200.01:  End Depth 
 ENG1.            Alan Tuganov:  Engineer 1 
 ENG2.         Almaz Almadatov:  Engineer 2 
 ENG3.     Zammelal Abdullah Sani:  Engineer 3 
 ETIM.      22.42.00 08-Aug-20:  End Time 
 FLOI.gpm               395.00:  Flow In 
 FLON.gpm               350.00:  Flow In Min 
 FLOS.cptm                0.00:  Fluid Loss 
 FLOX.gpm               404.00:  Flow In Max 
 FTRO.       Formation Presure:  FTWD Run Obj 
 HFLO.                      No:  High Flow 
 HPRE.                      No:  High Pressure 
 HTEM.                      No:  High Temp 
 HYDO.m                   1.80:  Hydro Offset 
 IFIN.deg                72.64:  Inc, Final 
 IMAX.deg                73.68:  Inc Max 
 IMIN.deg                72.64:  Inc Min 
 IMND.m                5189.69:  Inc Min Depth 
 IMXD.m                5067.88:  Inc Max Depth 
 JARR.                      No:  Jarring 
 LETM.      15.50.00 07-Aug-20:  Log End Time 
 LOST.hr                     0:  Lost Rig Time 
 LSTM.      10.40.00 06-Aug-20:  Log Start Time 
 MDCL.ppm             36000.00:  Mud Chlorides 
 MDES.     Inversion Oil/Synthetic:  Mud Desc 
 DFD .sg                  1.36:  Mud Density 
 MDMN.sg                  1.36:  Dens Mud Min 
 MDMX.sg                  1.36:  Dens Mud Max 
 MOIL.                      70:  Run Mud Oil % 
 MOWR.                   70:30:  Run Mud OWR 
 MSND.                    0.00:  Run Mud Sand % 
 MSOL.                   17.60:  Run Mud Solids% 
 DFV .spqt               73.00:  Mud Viscosity 
 MWOD.in                  4.75:  MWD Tool OD 
 MWSI.                      No:  Serv Intrp, MWD 
 OTIM.hr                 85.66:  Time Operating 
 PCON.           Look Like New:  Pad Condition 
 PMAX.psia             6250.00:  Press Op, Max 
 PV  .cP                 65.00:  Mud PV 
 RUN .                     900:  Run Number 
 ROPA.m/hr               11.40:  ROP Avg 
 ROPN.m/hr                5.00:  ROP Min 
 ROPX.m/hr               20.00:  ROP Max 
 RPMA.rpm               130.00:  RPM Surface Avg 
 RPMN.rpm                40.00:  RPM Surface Min 
 RPMX.rpm               140.00:  RPM Surface Max 
 RRUN.                    L205:  Rig Run Number 
 RTIM.hr                  1.00:  Time Reaming 
 SAZI.deg               313.52:  Azm, Start 
 SDEP.m                4957.01:  Start Depth 
 SIDD.                      No:  Serv Intrp, DD 
 SINC.deg                73.16:  Inc, Start 
 SPPA.psig             5657.00:  SPP Avg 
 SPPN.psig             2500.00:  SPP Min 
 SPPX.psig             5806.00:  SPP Max 
 STIM.      07.12.00 05-Aug-20:  Start Time 
 SVCS.                 DD, MWD:  Services 
 SVER.                    9.20:  Sperry Version 
 TDAT.m                 243.00:  Tot Depth Attmp 
 TDDF.                      No:  Trip for DD 
 TDLG.m                 243.00:  Tot Depth Loggd 
 TFF .                      No:  Trip for Fail 
 TQAA.f-kp               13.00:  Torque Abs Avg 
 TQAN.f-kp               11.00:  Torque Abs Min 
 TQAX.f-kp               16.00:  Torque Abs Max 
 TRRT.°/30m               1.00:  Turn Rotating 
 MRT .                    HCIM:  Maximum Recorded Temperature 
 TTMX.degC               96.08:  Max Tool Temp 
 VS01.                90515411:  Virtual Str1 SN 
 VS02.                90512716:  Virtual Str2 SN 
 VS03.                90522362:  Virtual Str3 SN 
 VS04.                90619415:  Virtual Str4 SN 
 VS05.                90619414:  Virtual Str5 SN 
 VS06.                90597748:  Virtual Str6 SN 
 WBMN.klb                 2.00:  WOB Min 
 WITN.           Adil Mammadov:  Customer Rep 
 WITN.     Alexander Yadullayev:  Customer Rep 2 
 WOBA.klb                 7.00:  WOB Avg 
 WOBX.klb                23.00:  WOB Max 
 YP  .lhf2               37.00:  Yield Point 
~Curve Information Block
#MNEM.UNIT                 API CODE     Curve Description
#---------               -----------    ---------------------------
 TIME.HHMMSS            00 000 000 000:  GT Time & Date
 GTDEPTH.m              00 000 000 000:  GT Depth
 GTPQH.psia             00 000 000 000:  GT HR Quartz Pressure
 GTTQ.degC              00 000 000 000:  GT Quartz Temperature
 GTTN.NONE              00 000 000 000:  GT Test Number
 GTET.sec               00 000 000 000:  GT Elapsed Test Time
 GTTVD.m                00 000 000 000:  GT True Vertical Depth
#Other Information
#
#WARRANTY: Halliburton will use its best efforts to furnish customers with 
#accurate information and interpretations that are part of, and incident to, the services 
#provided.  However, Halliburton cannot and does not warrant the accuracy 
#or correctness of such information and interpretations.  Under no circumstances should any 
#such information or interpretation be relied upon as the sole basis for any drilling, 
#completion, production, or financial decision or any procedure involving any risk to the 
#safety of any drilling venture, drilling rig or its crew or any other third party.  The 
#Customer has full responsibility for all drilling, completion and production operation.  
#Halliburton makes no representations or warranties, either expressed or 
#implied, including, but not limited to, the implied warranties of merchantability or fitness 
#for a particular purpose, with respect to the services rendered.  In no event will 
#Halliburton be liable for failure to obtain any particular results or for 
#any damages, including, but not limited to, indirect, special or consequential damages, 
#resulting from the use of any information or interpretation provided by Halliburton.
#
~A           TIME           GTDEPTH  GTPQH  GTTQ  GTTN  GTET   GTTVD  
# ...
   16:11:58.482.06-Aug-2020 4955.01 4257.00 80.76 2.00 115.02 2633.27
   16:11:58.682.06-Aug-2020 4955.01 4257.00 80.76 2.00 115.22 2633.27
   16:11:58.882.06-Aug-2020 4955.01 4256.91 80.76 2.00 115.42 2633.27
   16:11:59.082.06-Aug-2020 4955.01 4256.95 80.76 2.00 115.62 2633.27
   16:11:59.282.06-Aug-2020 4955.01 4257.07 80.76 2.00 115.82 2633.27
   16:11:59.482.06-Aug-2020 4955.01 4256.75 80.75 2.00 116.02 2633.27
   16:11:59.682.06-Aug-2020 4955.01 4256.75 80.75 2.00 116.22 2633.27
   16:11:59.882.06-Aug-2020 4955.01 4257.09 80.75 2.00 116.42 2633.27
   16:12:00.082.06-Aug-2020 4955.01 4257.10 80.75 2.00 116.62 2633.27
   16:12:00.282.06-Aug-2020 4955.01 4257.12 80.75 2.00 116.82 2633.27
   16:12:00.482.06-Aug-2020 4955.01 4256.81 80.75 2.00 117.03 2633.27
   16:12:00.682.06-Aug-2020 4955.01 4257.10 80.75 2.00 117.23 2633.27
   16:12:00.882.06-Aug-2020 4955.01 4257.19 80.75 2.00 117.43 2633.27
   16:12:01.082.06-Aug-2020 4955.01 4257.19 80.75 2.00 117.63 2633.27
   16:12:01.282.06-Aug-2020 4955.01 4257.23 80.75 2.00 117.83 2633.27
   16:12:01.482.06-Aug-2020 4955.01 4257.24 80.75 2.00 118.03 2633.27
   16:12:01.683.06-Aug-2020 4955.01 4257.24 80.75 2.00 118.23 2633.27
   16:12:01.883.06-Aug-2020 4955.01 4257.29 80.75 2.00 118.43 2633.27
   16:12:02.083.06-Aug-2020 4955.01 4257.28 80.75 2.00 118.63 2633.27
   16:12:02.283.06-Aug-2020 4955.01 4257.27 80.75 2.00 118.83 2633.27
   16:12:02.483.06-Aug-2020 4955.01 4257.28 80.75 2.00 119.03 2633.27
   16:12:02.683.06-Aug-2020 4955.01 4257.28 80.75 2.00 119.23 2633.27
   16:12:02.883.06-Aug-2020 4955.01 4257.28 80.75 2.00 119.43 2633.27
   16:12:03.083.06-Aug-2020 4955.01 4256.92 80.75 2.00 119.63 2633.27
   16:12:03.283.06-Aug-2020 4955.01 4257.18 80.75 2.00 119.83 2633.27
   16:12:03.483.06-Aug-2020 4955.01 4257.23 80.74 2.00 120.03 2633.27
   16:12:03.683.06-Aug-2020 4955.01 4257.23 80.74 2.00 120.23 2633.27
   16:12:03.883.06-Aug-2020 4955.01 4257.26 80.74 2.00 120.43 2633.27
   16:12:04.083.06-Aug-2020 4955.01 4257.24 80.74 2.00 120.63 2633.27
   16:12:04.283.06-Aug-2020 4955.01 4257.30 80.74 2.00 120.83 2633.27
   16:12:04.483.06-Aug-2020 4955.01 4257.33 80.74 2.00 121.03 2633.27
   16:12:04.683.06-Aug-2020 4955.01 4257.33 80.74 2.00 121.23 2633.27
   16:12:04.883.06-Aug-2020 4955.01 4257.33 80.74 2.00 121.43 2633.27
   16:12:05.083.06-Aug-2020 4955.01 4257.33 80.74 2.00 121.63 2633.27
   16:12:05.283.06-Aug-2020 4955.01 4257.33 80.74 2.00 121.83 2633.27
   16:12:05.483.06-Aug-2020 4955.01 4257.31 80.74 2.00 122.03 2633.27
   16:12:05.683.06-Aug-2020 4955.01 4257.31 80.74 2.00 122.23 2633.27
   16:12:05.883.06-Aug-2020 4955.01 4256.95 80.74 2.00 122.43 2633.27
   16:12:06.083.06-Aug-2020 4955.01 4257.24 80.74 2.00 122.63 2633.27
   16:12:06.284.06-Aug-2020 4955.01 4257.31 80.74 2.00 122.83 2633.27
   16:12:06.484.06-Aug-2020 4955.01 4257.32 80.74 2.00 123.03 2633.27
   16:12:06.684.06-Aug-2020 4955.01 4257.32 80.74 2.00 123.23 2633.27
   16:12:06.884.06-Aug-2020 4955.01 4257.37 80.74 2.00 123.43 2633.27
   16:12:07.084.06-Aug-2020 4955.01 4257.10 80.74 2.00 123.63 2633.27
   16:12:07.284.06-Aug-2020 4955.01 4257.28 80.74 2.00 123.83 2633.27
   16:12:07.484.06-Aug-2020 4955.01 4257.44 80.74 2.00 124.03 2633.27
   16:12:07.684.06-Aug-2020 4955.01 4257.44 80.73 2.00 124.23 2633.27
   16:12:07.884.06-Aug-2020 4955.01 4257.29 80.73 2.00 124.43 2633.27
   16:12:08.084.06-Aug-2020 4955.01 4257.38 80.73 2.00 124.63 2633.27
   16:12:08.284.06-Aug-2020 4955.01 4257.42 80.73 2.00 124.83 2633.27
   16:12:08.484.06-Aug-2020 4955.01 4257.43 80.73 2.00 125.03 2633.27
   16:12:08.684.06-Aug-2020 4955.01 4257.43 80.73 2.00 125.23 2633.27
   16:12:08.884.06-Aug-2020 4955.01 4257.31 80.73 2.00 125.43 2633.27
   16:12:09.084.06-Aug-2020 4955.01 4257.40 80.73 2.00 125.63 2633.27
   16:12:09.284.06-Aug-2020 4955.01 4257.49 80.73 2.00 125.83 2633.27
   16:12:09.484.06-Aug-2020 4955.01 4257.54 80.73 2.00 126.03 2633.27
   16:12:09.684.06-Aug-2020 4955.01 4257.54 80.73 2.00 126.23 2633.27
   16:12:09.884.06-Aug-2020 4955.01 4257.61 80.73 2.00 126.43 2633.27
   16:12:10.084.06-Aug-2020 4955.01 4257.64 80.73 2.00 126.63 2633.27
   16:12:10.284.06-Aug-2020 4955.01 4257.63 80.73 2.00 126.83 2633.27
   16:12:10.484.06-Aug-2020 4955.01 4257.63 80.73 2.00 127.03 2633.27
   16:12:10.684.06-Aug-2020 4955.01 4257.63 80.73 2.00 127.23 2633.27
   16:12:10.884.06-Aug-2020 4955.01 4257.64 80.73 2.00 127.43 2633.27
   16:12:11.085.06-Aug-2020 4955.01 4257.64 80.73 2.00 127.63 2633.27
   16:12:11.285.06-Aug-2020 4955.01 4257.56 80.73 2.00 127.83 2633.27
   16:12:11.485.06-Aug-2020 4955.01 4257.34 80.73 2.00 128.03 2633.27
   16:12:11.685.06-Aug-2020 4955.01 4257.34 80.73 2.00 128.23 2633.27
   16:12:11.885.06-Aug-2020 4955.01 4257.59 80.72 2.00 128.43 2633.27
   16:12:12.085.06-Aug-2020 4955.01 4257.60 80.72 2.00 128.63 2633.27
   16:12:12.285.06-Aug-2020 4955.01 4257.60 80.72 2.00 128.83 2633.27
   16:12:12.485.06-Aug-2020 4955.01 4257.62 80.72 2.00 129.03 2633.27
   16:12:12.685.06-Aug-2020 4955.01 4257.62 80.72 2.00 129.23 2633.27
   16:12:12.885.06-Aug-2020 4955.01 4257.62 80.72 2.00 129.43 2633.27
   16:12:13.085.06-Aug-2020 4955.01 4257.66 80.72 2.00 129.63 2633.27
   16:12:13.285.06-Aug-2020 4955.01 4257.61 80.72 2.00 129.83 2633.27
   16:12:13.485.06-Aug-2020 4955.01 4257.64 80.72 2.00 130.03 2633.27
   16:12:13.685.06-Aug-2020 4955.01 4257.59 80.72 2.00 130.23 2633.27
   16:12:13.885.06-Aug-2020 4955.01 4257.61 80.72 2.00 130.43 2633.27
   16:12:14.085.06-Aug-2020 4955.01 4257.47 80.72 2.00 130.63 2633.27
   16:12:14.285.06-Aug-2020 4955.01 4257.40 80.72 2.00 130.83 2633.27
   16:12:14.485.06-Aug-2020 4955.01 4257.46 80.72 2.00 131.03 2633.27
   16:12:14.685.06-Aug-2020 4955.01 4257.46 80.72 2.00 131.23 2633.27
   16:12:14.885.06-Aug-2020 4955.01 4257.58 80.72 2.00 131.43 2633.27
   16:12:15.085.06-Aug-2020 4955.01 4257.63 80.72 2.00 131.63 2633.27
   16:12:15.285.06-Aug-2020 4955.01 4257.45 80.72 2.00 131.83 2633.27
   16:12:15.485.06-Aug-2020 4955.01 4257.50 80.72 2.00 132.03 2633.27
   16:12:15.686.06-Aug-2020 4955.01 4257.58 80.72 2.00 132.23 2633.27
   16:12:15.886.06-Aug-2020 4955.01 4257.67 80.72 2.00 132.43 2633.27
   16:12:16.086.06-Aug-2020 4955.01 4257.35 80.71 2.00 132.63 2633.27
   16:12:16.286.06-Aug-2020 4955.01 4257.64 80.71 2.00 132.83 2633.27
   16:12:16.486.06-Aug-2020 4955.01 4257.73 80.71 2.00 133.03 2633.27
   16:12:16.686.06-Aug-2020 4955.01 4257.73 80.71 2.00 133.23 2633.27
   16:12:16.886.06-Aug-2020 4955.01 4257.78 80.71 2.00 133.43 2633.27
   16:12:17.086.06-Aug-2020 4955.01 4257.75 80.71 2.00 133.63 2633.27
   16:12:17.286.06-Aug-2020 4955.01 4257.54 80.71 2.00 133.83 2633.27
   16:12:17.486.06-Aug-2020 4955.01 4257.68 80.71 2.00 134.03 2633.27
   16:12:17.686.06-Aug-2020 4955.01 4257.77 80.71 2.00 134.23 2633.27
   16:12:17.886.06-Aug-2020 4955.01 4257.81 80.71 2.00 134.43 2633.27
   16:12:18.086.06-Aug-2020 4955.01 4257.85 80.71 2.00 134.63 2633.27
   16:12:18.286.06-Aug-2020 4955.01 4257.88 80.71 2.00 134.83 2633.27
   16:12:18.486.06-Aug-2020 4955.01 4257.92 80.71 2.00 135.03 2633.27
   16:12:18.686.06-Aug-2020 4955.01 4257.89 80.71 2.00 135.23 2633.27
   16:12:18.886.06-Aug-2020 4955.01 4257.92 80.71 2.00 135.43 2633.27
   16:12:19.086.06-Aug-2020 4955.01 4257.87 80.71 2.00 135.63 2633.27
   16:12:19.286.06-Aug-2020 4955.01 4257.88 80.71 2.00 135.83 2633.27
   16:12:19.486.06-Aug-2020 4955.01 4257.89 80.71 2.00 136.03 2633.27
   16:12:19.686.06-Aug-2020 4955.01 4257.89 80.71 2.00 136.23 2633.27
   16:12:19.886.06-Aug-2020 4955.01 4257.58 80.71 2.00 136.43 2633.27
   16:12:20.086.06-Aug-2020 4955.01 4257.76 80.71 2.00 136.63 2633.27
   16:12:20.287.06-Aug-2020 4955.01 4257.86 80.70 2.00 136.83 2633.27
   16:12:20.487.06-Aug-2020 4955.01 4257.91 80.70 2.00 137.03 2633.27
   16:12:20.687.06-Aug-2020 4955.01 4257.88 80.70 2.00 137.23 2633.27
   16:12:20.887.06-Aug-2020 4955.01 4257.87 80.70 2.00 137.43 2633.27
   16:12:21.087.06-Aug-2020 4955.01 4257.89 80.70 2.00 137.63 2633.27
   16:12:21.287.06-Aug-2020 4955.01 4257.91 80.70 2.00 137.83 2633.27
