~Version Information
 VERS.                  2.0:   CWLS log ASCII Standard -VERSION 2.0
 WRAP.                   NO:   One line per depth step
~Well Information Block
#MNEM.UNIT     VALUE/NAME     DESCRIPTION
#---------     -----------    ---------------------------
 STRT.S             11:55:46 07-Aug-20: START TIME 11:55:46 07-Aug-20
 STOP.S             12:03:39 07-Aug-20: STOP TIME  12:03:39 07-Aug-20
 STEP.S                   0.00: STEP TIME
 NULL.                 -999.25: NULL VALUE
 DFWT.                        :  DIST FWL TEXT
 DFST.                        :  DIST FSL TEXT
 DMF .             Drill Floor:  DRILL MEAS FROM
 STIM.      12.00.00 03-Jul-20:  START TIME
 DATE.      00.50.00 09-Aug-20:  END TIME
 SPUD.               03-Jul-20:  SPUD DATE
 NREF.                    Grid:  NORTH REFERENCE
 HPTY.       Minimum Curvature:  HOLE POS TYPE
 DMOD.             Drill Model:  DRILL MOD DESC
 SVYD.                  Survey:  SURVEY DESC
 ILTD.               Lithology:  INTERP LTH DESC
 FTOP.          Formation Tops:  FORM TOPS DESC
 PDAT.          Mean Sea Level:  PERMANENT DATUM
 FLD .                     ACG:  FIELD NAME
 CTRY.              Azerbaijan:  COUNTRY NAME
 WELL.                    E04x:  WELL NAME
 SRVC.          Turan Drilling:  CONTRACTOR
 COMP.     BP Exploration (Caspian Sea) Ltd.:  COMPANY
 SON .        AZ-XX-0906531346:  JOB NUMBER
 WTYP.                Deviated:  WELL TYPE
 MDS .        Operator Entered:  MAG DATA SOURCE
 UWI .                     N/A:  UNIQUE WELL IDENTIFIER
 API .                     N/A:  API NUMBER
 BASE.              Azerbaijan:  LOGGING EQUIPMENT BASE LOCATION
 REGN.                   EESSA:  REGION
 PROV.                    Baku:  PROVINCE
 STAT.                    Baku:  STATE NAME
 MWDS.                    Baku:  MWD SHOP
 JOBN.        AZ-XX-0906531346:  JOB TICKET NUMB
 RIG .                     DWG:  RIG NAME
 DOE .                     N/A:  DOE NUMBER
 DCON.         Sperry Drilling:  DIRECTNL CONTR
 UNIT.                     N/A:  LOGGING EQUIPMENT ID
 CNTY.                        :  COUNTY
 LOC .                        :  LOCATION
 LMF .             Drill Floor:  LOG MEASURED FROM
 TVDS.m                  43.16:  TVDSS CORRECTN
 LATI.deg                40.17:  LATITUDE
 LONG.deg                51.17:  LONGITUDE
 WHNS.m                  -0.12:  WELL HEAD N/S
 WHEW.m                  -5.41:  WELL HEAD E/W
 UTMX.m              514337.95:  UTM X
 UTMY.m             4448627.46:  UTM Y
 DFWL.m                   0.00:  DISTANCE FWL
 DFSL.m                   0.00:  DISTANCE FSL
 SDEP.m                3088.01:  START DEPTH
 TDD .m                5200.01:  TOTAL DEPTH (DRILLER)
 VSDR.deg               244.51:  VERT SEC DIRECT
 GVFD.g                   1.00:  GRAVITY FIELD
 MFLD.nT              50329.80:  MAGNETIC FIELD
 MDIP.deg                59.63:  MAGNETIC DIP
 MDEC.deg                 6.59:  MAGNETIC DECL
 GRDC.deg                 0.09:  GRID CORRECTION
 AZTC.deg                 6.50:  AZM TOTAL CORR
 EPD .m                   0.00:  ELEVATION
 EGL .m                   0.00:  GROUND ELEVATION
 WDMS.m                 176.20:  WD ELEV
 APD .m                  43.16:  DEPTH ABOVE PD
 DEP .m                3084.71:  DEPTH
 AGAP.m                  43.16:  AIR GAP
 VSEW.m                  -5.41:  VERT SEC E/W
 VSNS.m                  -0.12:  VERT SEC N/S
 EKB .m                   0.00:  KB ELEVATION
 EDF .m                  43.16:  DF ELEVATION
 TDL .m                 243.00:  TOTAL DEPTH (LOGGER)
 VSC .                       0:  VS TO CLOSURE
 MAGU.                 1853542:  MAGUTM CHECKSUM
~Parameter Information Block
#MNEM.UNIT       Value        Description
#---------     -----------    ---------------------------
 AV  .mps                 1.91:  Ann Velocity 
 AVMX.mps                 2.52:  Max Ann Veloc 
 AZIF.deg               308.97:  Azm, Final 
 BHAT.        Rotary Steerable:  BHA Type 
 BROT.°/30m               1.00:  Build Rotating 
 BS  .in                  6.50:  Bit Size 
 BSZ .in                  6.50:  Bit Size 
 BTPL.psig              350.00:  Bit Press Loss 
 CABU.                      No:  Customer Abuse 
 CGEO.           Asif Pashayev:  Customer Geo 
 COMM.                     ¤4N:  Run Comments 1 
 TCS .hr                 35.86:  Time Ciculation Ended 
 CV  .mps                 2.31:  Crit Velocity 
 CVMX.mps                 2.31:  Max Crit Veloc 
 DD1 .         Intigam Rahimov:  Direct Drillr 1 
 DDSV.               Geo-Pilot:  DD Service 
 DEFF.%                  92.00:  % Det Eff 
 DLRX.°/30m               1.00:  Dogleg Rot Max 
 DLSO.°/30m               1.00:  Dogleg Oriented 
 DLSX.°/30m               1.42:  Dogleg Str Max 
 DRET.      15.50.00 07-Aug-20:  Drill End Time 
 DRST.      10.40.00 06-Aug-20:  Drill Start Tim 
 DTIM.hr                 21.30:  Time Drilling 
 EDEP.m                5200.01:  End Depth 
 ENG1.            Alan Tuganov:  Engineer 1 
 ENG2.         Almaz Almadatov:  Engineer 2 
 ENG3.     Zammelal Abdullah Sani:  Engineer 3 
 ETIM.      22.42.00 08-Aug-20:  End Time 
 FLOI.gpm               395.00:  Flow In 
 FLON.gpm               350.00:  Flow In Min 
 FLOS.cptm                0.00:  Fluid Loss 
 FLOX.gpm               404.00:  Flow In Max 
 FTRO.       Formation Presure:  FTWD Run Obj 
 HFLO.                      No:  High Flow 
 HPRE.                      No:  High Pressure 
 HTEM.                      No:  High Temp 
 HYDO.m                   1.80:  Hydro Offset 
 IFIN.deg                72.64:  Inc, Final 
 IMAX.deg                73.68:  Inc Max 
 IMIN.deg                72.64:  Inc Min 
 IMND.m                5189.69:  Inc Min Depth 
 IMXD.m                5067.88:  Inc Max Depth 
 JARR.                      No:  Jarring 
 LETM.      15.50.00 07-Aug-20:  Log End Time 
 LOST.hr                     0:  Lost Rig Time 
 LSTM.      10.40.00 06-Aug-20:  Log Start Time 
 MDCL.ppm             36000.00:  Mud Chlorides 
 MDES.     Inversion Oil/Synthetic:  Mud Desc 
 DFD .sg                  1.36:  Mud Density 
 MDMN.sg                  1.36:  Dens Mud Min 
 MDMX.sg                  1.36:  Dens Mud Max 
 MOIL.                      70:  Run Mud Oil % 
 MOWR.                   70:30:  Run Mud OWR 
 MSND.                    0.00:  Run Mud Sand % 
 MSOL.                   17.60:  Run Mud Solids% 
 DFV .spqt               73.00:  Mud Viscosity 
 MWOD.in                  4.75:  MWD Tool OD 
 MWSI.                      No:  Serv Intrp, MWD 
 OTIM.hr                 85.66:  Time Operating 
 PCON.           Look Like New:  Pad Condition 
 PMAX.psia             6250.00:  Press Op, Max 
 PV  .cP                 65.00:  Mud PV 
 RUN .                     900:  Run Number 
 ROPA.m/hr               11.40:  ROP Avg 
 ROPN.m/hr                5.00:  ROP Min 
 ROPX.m/hr               20.00:  ROP Max 
 RPMA.rpm               130.00:  RPM Surface Avg 
 RPMN.rpm                40.00:  RPM Surface Min 
 RPMX.rpm               140.00:  RPM Surface Max 
 RRUN.                    L205:  Rig Run Number 
 RTIM.hr                  1.00:  Time Reaming 
 SAZI.deg               313.52:  Azm, Start 
 SDEP.m                4957.01:  Start Depth 
 SIDD.                      No:  Serv Intrp, DD 
 SINC.deg                73.16:  Inc, Start 
 SPPA.psig             5657.00:  SPP Avg 
 SPPN.psig             2500.00:  SPP Min 
 SPPX.psig             5806.00:  SPP Max 
 STIM.      07.12.00 05-Aug-20:  Start Time 
 SVCS.                 DD, MWD:  Services 
 SVER.                    9.20:  Sperry Version 
 TDAT.m                 243.00:  Tot Depth Attmp 
 TDDF.                      No:  Trip for DD 
 TDLG.m                 243.00:  Tot Depth Loggd 
 TFF .                      No:  Trip for Fail 
 TQAA.f-kp               13.00:  Torque Abs Avg 
 TQAN.f-kp               11.00:  Torque Abs Min 
 TQAX.f-kp               16.00:  Torque Abs Max 
 TRRT.°/30m               1.00:  Turn Rotating 
 MRT .                    HCIM:  Maximum Recorded Temperature 
 TTMX.degC               96.08:  Max Tool Temp 
 VS01.                90515411:  Virtual Str1 SN 
 VS02.                90512716:  Virtual Str2 SN 
 VS03.                90522362:  Virtual Str3 SN 
 VS04.                90619415:  Virtual Str4 SN 
 VS05.                90619414:  Virtual Str5 SN 
 VS06.                90597748:  Virtual Str6 SN 
 WBMN.klb                 2.00:  WOB Min 
 WITN.           Adil Mammadov:  Customer Rep 
 WITN.     Alexander Yadullayev:  Customer Rep 2 
 WOBA.klb                 7.00:  WOB Avg 
 WOBX.klb                23.00:  WOB Max 
 YP  .lhf2               37.00:  Yield Point 
~Curve Information Block
#MNEM.UNIT                 API CODE     Curve Description
#---------               -----------    ---------------------------
 TIME.HHMMSS            00 000 000 000:  GT Time & Date
 GTDEPTH.m              00 000 000 000:  GT Depth
 GTPQH.psia             00 000 000 000:  GT HR Quartz Pressure
 GTTQ.degC              00 000 000 000:  GT Quartz Temperature
 GTTN.NONE              00 000 000 000:  GT Test Number
 GTET.sec               00 000 000 000:  GT Elapsed Test Time
 GTTVD.m                00 000 000 000:  GT True Vertical Depth
#Other Information
#
#WARRANTY: Halliburton will use its best efforts to furnish customers with 
#accurate information and interpretations that are part of, and incident to, the services 
#provided.  However, Halliburton cannot and does not warrant the accuracy 
#or correctness of such information and interpretations.  Under no circumstances should any 
#such information or interpretation be relied upon as the sole basis for any drilling, 
#completion, production, or financial decision or any procedure involving any risk to the 
#safety of any drilling venture, drilling rig or its crew or any other third party.  The 
#Customer has full responsibility for all drilling, completion and production operation.  
#Halliburton makes no representations or warranties, either expressed or 
#implied, including, but not limited to, the implied warranties of merchantability or fitness 
#for a particular purpose, with respect to the services rendered.  In no event will 
#Halliburton be liable for failure to obtain any particular results or for 
#any damages, including, but not limited to, indirect, special or consequential damages, 
#resulting from the use of any information or interpretation provided by Halliburton.
#
~A           TIME           GTDEPTH  GTPQH  GTTQ  GTTN   GTET   GTTVD  
# ...
   12:00:18.188.07-Aug-2020 5127.01 3414.09 87.45 10.00 271.30 2682.86
   12:00:18.388.07-Aug-2020 5127.01 3413.93 87.45 10.00 271.50 2682.86
   12:00:18.588.07-Aug-2020 5127.01 3414.31 87.45 10.00 271.70 2682.86
   12:00:18.788.07-Aug-2020 5127.01 3414.17 87.45 10.00 271.90 2682.86
   12:00:18.988.07-Aug-2020 5127.01 3414.03 87.45 10.00 272.10 2682.86
   12:00:19.188.07-Aug-2020 5127.01 3414.03 87.45 10.00 272.30 2682.86
   12:00:19.388.07-Aug-2020 5127.01 3414.14 87.45 10.00 272.50 2682.86
   12:00:19.588.07-Aug-2020 5127.01 3414.03 87.45 10.00 272.70 2682.86
   12:00:19.789.07-Aug-2020 5127.01 3414.17 87.45 10.00 272.90 2682.86
   12:00:19.989.07-Aug-2020 5127.01 3414.11 87.45 10.00 273.10 2682.86
   12:00:20.189.07-Aug-2020 5127.01 3414.11 87.45 10.00 273.30 2682.86
   12:00:20.389.07-Aug-2020 5127.01 3414.16 87.45 10.00 273.50 2682.86
   12:00:20.589.07-Aug-2020 5127.01 3414.12 87.45 10.00 273.70 2682.86
   12:00:20.789.07-Aug-2020 5127.01 3413.92 87.45 10.00 273.90 2682.86
   12:00:20.989.07-Aug-2020 5127.01 3414.29 87.45 10.00 274.10 2682.86
   12:00:21.189.07-Aug-2020 5127.01 3414.29 87.45 10.00 274.30 2682.86
   12:00:21.389.07-Aug-2020 5127.01 3414.03 87.44 10.00 274.50 2682.86
   12:00:21.589.07-Aug-2020 5127.01 3414.16 87.44 10.00 274.70 2682.86
   12:00:21.789.07-Aug-2020 5127.01 3414.14 87.44 10.00 274.90 2682.86
   12:00:21.989.07-Aug-2020 5127.01 3414.12 87.44 10.00 275.10 2682.86
   12:00:22.189.07-Aug-2020 5127.01 3414.11 87.44 10.00 275.30 2682.86
   12:00:22.390.07-Aug-2020 5127.01 3414.14 87.44 10.00 275.50 2682.86
   12:00:22.590.07-Aug-2020 5127.01 3414.10 87.44 10.00 275.70 2682.86
   12:00:22.790.07-Aug-2020 5127.01 3414.12 87.44 10.00 275.90 2682.86
   12:00:22.990.07-Aug-2020 5127.01 3414.10 87.44 10.00 276.10 2682.86
   12:00:23.190.07-Aug-2020 5127.01 3414.10 87.44 10.00 276.30 2682.86
   12:00:23.390.07-Aug-2020 5127.01 3414.08 87.44 10.00 276.50 2682.86
   12:00:23.590.07-Aug-2020 5127.01 3414.08 87.44 10.00 276.70 2682.86
   12:00:23.790.07-Aug-2020 5127.01 3414.13 87.44 10.00 276.90 2682.86
   12:00:23.990.07-Aug-2020 5127.01 3414.12 87.44 10.00 277.10 2682.86
   12:00:24.190.07-Aug-2020 5127.01 3414.12 87.44 10.00 277.30 2682.86
   12:00:24.390.07-Aug-2020 5127.01 3414.12 87.44 10.00 277.50 2682.86
   12:00:24.590.07-Aug-2020 5127.01 3414.11 87.44 10.00 277.70 2682.86
   12:00:24.790.07-Aug-2020 5127.01 3414.09 87.44 10.00 277.90 2682.86
   12:00:24.990.07-Aug-2020 5127.01 3414.13 87.44 10.00 278.10 2682.86
   12:00:25.191.07-Aug-2020 5127.01 3414.13 87.44 10.00 278.30 2682.86
   12:00:25.391.07-Aug-2020 5127.01 3414.10 87.44 10.00 278.50 2682.86
   12:00:25.591.07-Aug-2020 5127.01 3414.11 87.44 10.00 278.70 2682.86
   12:00:25.791.07-Aug-2020 5127.01 3414.12 87.44 10.00 278.90 2682.86
   12:00:25.991.07-Aug-2020 5127.01 3414.10 87.44 10.00 279.10 2682.86
   12:00:26.191.07-Aug-2020 5127.01 3414.04 87.44 10.00 279.30 2682.86
   12:00:26.391.07-Aug-2020 5127.01 3414.17 87.44 10.00 279.50 2682.86
   12:00:26.591.07-Aug-2020 5127.01 3414.13 87.44 10.00 279.71 2682.86
   12:00:26.791.07-Aug-2020 5127.01 3414.03 87.43 10.00 279.91 2682.86
   12:00:26.991.07-Aug-2020 5127.01 3413.96 87.43 10.00 280.11 2682.86
   12:00:27.191.07-Aug-2020 5127.01 3413.96 87.43 10.00 280.31 2682.86
   12:00:27.391.07-Aug-2020 5127.01 3414.16 87.43 10.00 280.51 2682.86
   12:00:27.591.07-Aug-2020 5127.01 3414.02 87.43 10.00 280.71 2682.86
   12:00:27.792.07-Aug-2020 5127.01 3414.19 87.43 10.00 280.91 2682.86
   12:00:27.992.07-Aug-2020 5127.01 3414.14 87.43 10.00 281.11 2682.86
   12:00:28.192.07-Aug-2020 5127.01 3414.14 87.43 10.00 281.31 2682.86
   12:00:28.392.07-Aug-2020 5127.01 3414.19 87.43 10.00 281.51 2682.86
   12:00:28.592.07-Aug-2020 5127.01 3414.15 87.43 10.00 281.71 2682.86
   12:00:28.792.07-Aug-2020 5127.01 3414.04 87.43 10.00 281.91 2682.86
   12:00:28.992.07-Aug-2020 5127.01 3414.16 87.43 10.00 282.11 2682.86
   12:00:29.192.07-Aug-2020 5127.01 3414.16 87.43 10.00 282.31 2682.86
   12:00:29.392.07-Aug-2020 5127.01 3413.90 87.43 10.00 282.51 2682.86
   12:00:29.592.07-Aug-2020 5127.01 3414.29 87.43 10.00 282.71 2682.86
   12:00:29.792.07-Aug-2020 5127.01 3414.17 87.43 10.00 282.91 2682.86
   12:00:29.992.07-Aug-2020 5127.01 3414.04 87.43 10.00 283.11 2682.86
   12:00:30.192.07-Aug-2020 5127.01 3414.14 87.43 10.00 283.31 2682.86
   12:00:30.393.07-Aug-2020 5127.01 3414.14 87.43 10.00 283.51 2682.86
   12:00:30.593.07-Aug-2020 5127.01 3414.09 87.43 10.00 283.71 2682.86
   12:00:30.793.07-Aug-2020 5127.01 3414.12 87.43 10.00 283.91 2682.86
   12:00:30.993.07-Aug-2020 5127.01 3414.10 87.43 10.00 284.11 2682.86
   12:00:31.193.07-Aug-2020 5127.01 3414.10 87.43 10.00 284.31 2682.86
   12:00:31.393.07-Aug-2020 5127.01 3414.11 87.43 10.00 284.51 2682.86
   12:00:31.593.07-Aug-2020 5127.01 3414.12 87.43 10.00 284.71 2682.86
   12:00:31.793.07-Aug-2020 5127.01 3414.09 87.43 10.00 284.91 2682.86
   12:00:31.993.07-Aug-2020 5127.01 3414.09 87.42 10.00 285.11 2682.86
   12:00:32.193.07-Aug-2020 5127.01 3414.09 87.42 10.00 285.31 2682.86
   12:00:32.393.07-Aug-2020 5127.01 3414.12 87.42 10.00 285.51 2682.86
   12:00:32.593.07-Aug-2020 5127.01 3414.06 87.42 10.00 285.71 2682.86
   12:00:32.793.07-Aug-2020 5127.01 3414.13 87.42 10.00 285.91 2682.86
   12:00:32.993.07-Aug-2020 5127.01 3414.12 87.42 10.00 286.11 2682.86
   12:00:33.194.07-Aug-2020 5127.01 3414.12 87.42 10.00 286.31 2682.86
   12:00:33.394.07-Aug-2020 5127.01 3414.08 87.42 10.00 286.51 2682.86
   12:00:33.594.07-Aug-2020 5127.01 3414.13 87.42 10.00 286.71 2682.86
   12:00:33.794.07-Aug-2020 5127.01 3414.11 87.42 10.00 286.91 2682.86
   12:00:33.994.07-Aug-2020 5127.01 3414.09 87.42 10.00 287.11 2682.86
   12:00:34.194.07-Aug-2020 5127.01 3414.09 87.42 10.00 287.31 2682.86
   12:00:34.394.07-Aug-2020 5127.01 3414.10 87.42 10.00 287.51 2682.86
   12:00:34.594.07-Aug-2020 5127.01 3414.11 87.42 10.00 287.71 2682.86
   12:00:34.794.07-Aug-2020 5127.01 3413.96 87.42 10.00 287.91 2682.86
   12:00:34.994.07-Aug-2020 5127.01 3414.23 87.42 10.00 288.11 2682.86
   12:00:35.194.07-Aug-2020 5127.01 3414.23 87.42 10.00 288.31 2682.86
   12:00:35.394.07-Aug-2020 5127.01 3414.03 87.42 10.00 288.51 2682.86
   12:00:35.594.07-Aug-2020 5127.01 3414.05 87.42 10.00 288.71 2682.86
   12:00:35.795.07-Aug-2020 5127.01 3414.18 87.42 10.00 288.91 2682.86
   12:00:35.995.07-Aug-2020 5127.01 3414.12 87.42 10.00 289.11 2682.86
   12:00:36.195.07-Aug-2020 5127.01 3414.12 87.42 10.00 289.31 2682.86
   12:00:36.395.07-Aug-2020 5127.01 3414.15 87.42 10.00 289.51 2682.86
   12:00:36.595.07-Aug-2020 5127.01 3414.14 87.42 10.00 289.71 2682.86
   12:00:36.795.07-Aug-2020 5127.01 3413.92 87.42 10.00 289.91 2682.86
   12:00:36.995.07-Aug-2020 5127.01 3414.27 87.42 10.00 290.11 2682.86
   12:00:37.195.07-Aug-2020 5127.01 3414.27 87.41 10.00 290.31 2682.86
   12:00:37.395.07-Aug-2020 5127.01 3414.04 87.41 10.00 290.51 2682.86
   12:00:37.595.07-Aug-2020 5127.01 3414.13 87.41 10.00 290.71 2682.86
   12:00:37.795.07-Aug-2020 5127.01 3414.13 87.41 10.00 290.91 2682.86
   12:00:37.995.07-Aug-2020 5127.01 3414.00 87.41 10.00 291.11 2682.86
   12:00:38.195.07-Aug-2020 5127.01 3414.00 87.41 10.00 291.31 2682.86
   12:00:38.396.07-Aug-2020 5127.01 3414.17 87.41 10.00 291.51 2682.86
   12:00:38.596.07-Aug-2020 5127.01 3414.03 87.41 10.00 291.71 2682.86
   12:00:38.796.07-Aug-2020 5127.01 3414.13 87.41 10.00 291.91 2682.86
   12:00:38.996.07-Aug-2020 5127.01 3414.14 87.41 10.00 292.11 2682.86
   12:00:39.196.07-Aug-2020 5127.01 3414.14 87.41 10.00 292.31 2682.86
   12:00:39.396.07-Aug-2020 5127.01 3414.10 87.41 10.00 292.51 2682.86
   12:00:39.596.07-Aug-2020 5127.01 3414.11 87.41 10.00 292.71 2682.86
   12:00:39.796.07-Aug-2020 5127.01 3414.10 87.41 10.00 292.91 2682.86
   12:00:39.996.07-Aug-2020 5127.01 3414.12 87.41 10.00 293.11 2682.86
   12:00:40.196.07-Aug-2020 5127.01 3414.12 87.41 10.00 293.31 2682.86
   12:00:40.396.07-Aug-2020 5127.01 3414.12 87.41 10.00 293.51 2682.86
   12:00:40.596.07-Aug-2020 5127.01 3414.05 87.41 10.00 293.71 2682.86
