~Version Information
 VERS.                  2.0:   CWLS log ASCII Standard -VERSION 2.0
 WRAP.                   NO:   One line per depth step
~Well Information Block
#MNEM.UNIT     VALUE/NAME     DESCRIPTION
#---------     -----------    ---------------------------
 STRT.S             20:19:41 06-Aug-20: START TIME 20:19:41 06-Aug-20
 STOP.S             20:27:33 06-Aug-20: STOP TIME  20:27:33 06-Aug-20
 STEP.S                   0.00: STEP TIME
 NULL.                 -999.25: NULL VALUE
 DFWT.                        :  DIST FWL TEXT
 DFST.                        :  DIST FSL TEXT
 DMF .             Drill Floor:  DRILL MEAS FROM
 STIM.      12.00.00 03-Jul-20:  START TIME
 DATE.      00.50.00 09-Aug-20:  END TIME
 SPUD.               03-Jul-20:  SPUD DATE
 NREF.                    Grid:  NORTH REFERENCE
 HPTY.       Minimum Curvature:  HOLE POS TYPE
 DMOD.             Drill Model:  DRILL MOD DESC
 SVYD.                  Survey:  SURVEY DESC
 ILTD.               Lithology:  INTERP LTH DESC
 FTOP.          Formation Tops:  FORM TOPS DESC
 PDAT.          Mean Sea Level:  PERMANENT DATUM
 FLD .                     ACG:  FIELD NAME
 CTRY.              Azerbaijan:  COUNTRY NAME
 WELL.                    E04x:  WELL NAME
 SRVC.          Turan Drilling:  CONTRACTOR
 COMP.     BP Exploration (Caspian Sea) Ltd.:  COMPANY
 SON .        AZ-XX-0906531346:  JOB NUMBER
 WTYP.                Deviated:  WELL TYPE
 MDS .        Operator Entered:  MAG DATA SOURCE
 UWI .                     N/A:  UNIQUE WELL IDENTIFIER
 API .                     N/A:  API NUMBER
 BASE.              Azerbaijan:  LOGGING EQUIPMENT BASE LOCATION
 REGN.                   EESSA:  REGION
 PROV.                    Baku:  PROVINCE
 STAT.                    Baku:  STATE NAME
 MWDS.                    Baku:  MWD SHOP
 JOBN.        AZ-XX-0906531346:  JOB TICKET NUMB
 RIG .                     DWG:  RIG NAME
 DOE .                     N/A:  DOE NUMBER
 DCON.         Sperry Drilling:  DIRECTNL CONTR
 UNIT.                     N/A:  LOGGING EQUIPMENT ID
 CNTY.                        :  COUNTY
 LOC .                        :  LOCATION
 LMF .             Drill Floor:  LOG MEASURED FROM
 TVDS.m                  43.16:  TVDSS CORRECTN
 LATI.deg                40.17:  LATITUDE
 LONG.deg                51.17:  LONGITUDE
 WHNS.m                  -0.12:  WELL HEAD N/S
 WHEW.m                  -5.41:  WELL HEAD E/W
 UTMX.m              514337.95:  UTM X
 UTMY.m             4448627.46:  UTM Y
 DFWL.m                   0.00:  DISTANCE FWL
 DFSL.m                   0.00:  DISTANCE FSL
 SDEP.m                3088.01:  START DEPTH
 TDD .m                5200.01:  TOTAL DEPTH (DRILLER)
 VSDR.deg               244.51:  VERT SEC DIRECT
 GVFD.g                   1.00:  GRAVITY FIELD
 MFLD.nT              50329.80:  MAGNETIC FIELD
 MDIP.deg                59.63:  MAGNETIC DIP
 MDEC.deg                 6.59:  MAGNETIC DECL
 GRDC.deg                 0.09:  GRID CORRECTION
 AZTC.deg                 6.50:  AZM TOTAL CORR
 EPD .m                   0.00:  ELEVATION
 EGL .m                   0.00:  GROUND ELEVATION
 WDMS.m                 176.20:  WD ELEV
 APD .m                  43.16:  DEPTH ABOVE PD
 DEP .m                3084.71:  DEPTH
 AGAP.m                  43.16:  AIR GAP
 VSEW.m                  -5.41:  VERT SEC E/W
 VSNS.m                  -0.12:  VERT SEC N/S
 EKB .m                   0.00:  KB ELEVATION
 EDF .m                  43.16:  DF ELEVATION
 TDL .m                 243.00:  TOTAL DEPTH (LOGGER)
 VSC .                       0:  VS TO CLOSURE
 MAGU.                 1853542:  MAGUTM CHECKSUM
~Parameter Information Block
#MNEM.UNIT       Value        Description
#---------     -----------    ---------------------------
 AV  .mps                 1.91:  Ann Velocity 
 AVMX.mps                 2.52:  Max Ann Veloc 
 AZIF.deg               308.97:  Azm, Final 
 BHAT.        Rotary Steerable:  BHA Type 
 BROT.°/30m               1.00:  Build Rotating 
 BS  .in                  6.50:  Bit Size 
 BSZ .in                  6.50:  Bit Size 
 BTPL.psig              350.00:  Bit Press Loss 
 CABU.                      No:  Customer Abuse 
 CGEO.           Asif Pashayev:  Customer Geo 
 COMM.                     4è‹:  Run Comments 1 
 TCS .hr                 35.86:  Time Ciculation Ended 
 CV  .mps                 2.31:  Crit Velocity 
 CVMX.mps                 2.31:  Max Crit Veloc 
 DD1 .         Intigam Rahimov:  Direct Drillr 1 
 DDSV.               Geo-Pilot:  DD Service 
 DEFF.%                  92.00:  % Det Eff 
 DLRX.°/30m               1.00:  Dogleg Rot Max 
 DLSO.°/30m               1.00:  Dogleg Oriented 
 DLSX.°/30m               1.42:  Dogleg Str Max 
 DRET.      15.50.00 07-Aug-20:  Drill End Time 
 DRST.      10.40.00 06-Aug-20:  Drill Start Tim 
 DTIM.hr                 21.30:  Time Drilling 
 EDEP.m                5200.01:  End Depth 
 ENG1.            Alan Tuganov:  Engineer 1 
 ENG2.         Almaz Almadatov:  Engineer 2 
 ENG3.     Zammelal Abdullah Sani:  Engineer 3 
 ETIM.      22.42.00 08-Aug-20:  End Time 
 FLOI.gpm               395.00:  Flow In 
 FLON.gpm               350.00:  Flow In Min 
 FLOS.cptm                0.00:  Fluid Loss 
 FLOX.gpm               404.00:  Flow In Max 
 FTRO.       Formation Presure:  FTWD Run Obj 
 HFLO.                      No:  High Flow 
 HPRE.                      No:  High Pressure 
 HTEM.                      No:  High Temp 
 HYDO.m                   1.80:  Hydro Offset 
 IFIN.deg                72.64:  Inc, Final 
 IMAX.deg                73.68:  Inc Max 
 IMIN.deg                72.64:  Inc Min 
 IMND.m                5189.69:  Inc Min Depth 
 IMXD.m                5067.88:  Inc Max Depth 
 JARR.                      No:  Jarring 
 LETM.      15.50.00 07-Aug-20:  Log End Time 
 LOST.hr                     0:  Lost Rig Time 
 LSTM.      10.40.00 06-Aug-20:  Log Start Time 
 MDCL.ppm             36000.00:  Mud Chlorides 
 MDES.     Inversion Oil/Synthetic:  Mud Desc 
 DFD .sg                  1.36:  Mud Density 
 MDMN.sg                  1.36:  Dens Mud Min 
 MDMX.sg                  1.36:  Dens Mud Max 
 MOIL.                      70:  Run Mud Oil % 
 MOWR.                   70:30:  Run Mud OWR 
 MSND.                    0.00:  Run Mud Sand % 
 MSOL.                   17.60:  Run Mud Solids% 
 DFV .spqt               73.00:  Mud Viscosity 
 MWOD.in                  4.75:  MWD Tool OD 
 MWSI.                      No:  Serv Intrp, MWD 
 OTIM.hr                 85.66:  Time Operating 
 PCON.           Look Like New:  Pad Condition 
 PMAX.psia             6250.00:  Press Op, Max 
 PV  .cP                 65.00:  Mud PV 
 RUN .                     900:  Run Number 
 ROPA.m/hr               11.40:  ROP Avg 
 ROPN.m/hr                5.00:  ROP Min 
 ROPX.m/hr               20.00:  ROP Max 
 RPMA.rpm               130.00:  RPM Surface Avg 
 RPMN.rpm                40.00:  RPM Surface Min 
 RPMX.rpm               140.00:  RPM Surface Max 
 RRUN.                    L205:  Rig Run Number 
 RTIM.hr                  1.00:  Time Reaming 
 SAZI.deg               313.52:  Azm, Start 
 SDEP.m                4957.01:  Start Depth 
 SIDD.                      No:  Serv Intrp, DD 
 SINC.deg                73.16:  Inc, Start 
 SPPA.psig             5657.00:  SPP Avg 
 SPPN.psig             2500.00:  SPP Min 
 SPPX.psig             5806.00:  SPP Max 
 STIM.      07.12.00 05-Aug-20:  Start Time 
 SVCS.                 DD, MWD:  Services 
 SVER.                    9.20:  Sperry Version 
 TDAT.m                 243.00:  Tot Depth Attmp 
 TDDF.                      No:  Trip for DD 
 TDLG.m                 243.00:  Tot Depth Loggd 
 TFF .                      No:  Trip for Fail 
 TQAA.f-kp               13.00:  Torque Abs Avg 
 TQAN.f-kp               11.00:  Torque Abs Min 
 TQAX.f-kp               16.00:  Torque Abs Max 
 TRRT.°/30m               1.00:  Turn Rotating 
 MRT .                    HCIM:  Maximum Recorded Temperature 
 TTMX.degC               96.08:  Max Tool Temp 
 VS01.                90515411:  Virtual Str1 SN 
 VS02.                90512716:  Virtual Str2 SN 
 VS03.                90522362:  Virtual Str3 SN 
 VS04.                90619415:  Virtual Str4 SN 
 VS05.                90619414:  Virtual Str5 SN 
 VS06.                90597748:  Virtual Str6 SN 
 WBMN.klb                 2.00:  WOB Min 
 WITN.           Adil Mammadov:  Customer Rep 
 WITN.     Alexander Yadullayev:  Customer Rep 2 
 WOBA.klb                 7.00:  WOB Avg 
 WOBX.klb                23.00:  WOB Max 
 YP  .lhf2               37.00:  Yield Point 
~Curve Information Block
#MNEM.UNIT                 API CODE     Curve Description
#---------               -----------    ---------------------------
 TIME.HHMMSS            00 000 000 000:  GT Time & Date
 GTDEPTH.m              00 000 000 000:  GT Depth
 GTPQH.psia             00 000 000 000:  GT HR Quartz Pressure
 GTTQ.degC              00 000 000 000:  GT Quartz Temperature
 GTTN.NONE              00 000 000 000:  GT Test Number
 GTET.sec               00 000 000 000:  GT Elapsed Test Time
 GTTVD.m                00 000 000 000:  GT True Vertical Depth
#Other Information
#
#WARRANTY: Halliburton will use its best efforts to furnish customers with 
#accurate information and interpretations that are part of, and incident to, the services 
#provided.  However, Halliburton cannot and does not warrant the accuracy 
#or correctness of such information and interpretations.  Under no circumstances should any 
#such information or interpretation be relied upon as the sole basis for any drilling, 
#completion, production, or financial decision or any procedure involving any risk to the 
#safety of any drilling venture, drilling rig or its crew or any other third party.  The 
#Customer has full responsibility for all drilling, completion and production operation.  
#Halliburton makes no representations or warranties, either expressed or 
#implied, including, but not limited to, the implied warranties of merchantability or fitness 
#for a particular purpose, with respect to the services rendered.  In no event will 
#Halliburton be liable for failure to obtain any particular results or for 
#any damages, including, but not limited to, indirect, special or consequential damages, 
#resulting from the use of any information or interpretation provided by Halliburton.
#
~A           TIME           GTDEPTH  GTPQH  GTTQ  GTTN  GTET   GTTVD  
   20:19:41.346.06-Aug-2020 4993.01 5746.65 83.40 3.00   0.00 2644.18
   20:19:41.546.06-Aug-2020 4993.01 5746.65 83.40 3.00   0.20 2644.18
   20:19:41.746.06-Aug-2020 4993.01 5748.21 83.40 3.00   0.40 2644.18
   20:19:41.946.06-Aug-2020 4993.01 5747.58 83.40 3.00   0.60 2644.18
   20:19:42.147.06-Aug-2020 4993.01 5747.51 83.40 3.00   0.80 2644.18
   20:19:42.347.06-Aug-2020 4993.01 5749.76 83.40 3.00   1.00 2644.18
   20:19:42.547.06-Aug-2020 4993.01 5749.76 83.40 3.00   1.20 2644.18
   20:19:42.747.06-Aug-2020 4993.01 5747.84 83.40 3.00   1.40 2644.18
   20:19:42.947.06-Aug-2020 4993.01 5746.91 83.40 3.00   1.60 2644.18
   20:19:43.147.06-Aug-2020 4993.01 5745.56 83.39 3.00   1.80 2644.18
   20:19:43.347.06-Aug-2020 4993.01 5747.20 83.39 3.00   2.00 2644.18
   20:19:43.547.06-Aug-2020 4993.01 5747.20 83.39 3.00   2.20 2644.18
   20:19:43.747.06-Aug-2020 4993.01 5740.15 83.39 3.00   2.40 2644.18
   20:19:43.947.06-Aug-2020 4993.01 5745.25 83.39 3.00   2.60 2644.18
   20:19:44.147.06-Aug-2020 4993.01 5746.41 83.39 3.00   2.80 2644.18
   20:19:44.347.06-Aug-2020 4993.01 5745.16 83.39 3.00   3.00 2644.18
   20:19:44.547.06-Aug-2020 4993.01 5745.16 83.39 3.00   3.20 2644.18
   20:19:44.748.06-Aug-2020 4993.01 5747.27 83.39 3.00   3.40 2644.18
   20:19:44.948.06-Aug-2020 4993.01 5743.65 83.39 3.00   3.60 2644.18
   20:19:45.148.06-Aug-2020 4993.01 5746.40 83.39 3.00   3.80 2644.18
   20:19:45.348.06-Aug-2020 4993.01 5741.85 83.39 3.00   4.00 2644.18
   20:19:45.548.06-Aug-2020 4993.01 5741.85 83.39 3.00   4.20 2644.18
   20:19:45.748.06-Aug-2020 4993.01 5747.28 83.39 3.00   4.40 2644.18
   20:19:45.948.06-Aug-2020 4993.01 5746.63 83.38 3.00   4.60 2644.18
   20:19:46.148.06-Aug-2020 4993.01 5748.12 83.38 3.00   4.80 2644.18
   20:19:46.348.06-Aug-2020 4993.01 5747.16 83.38 3.00   5.00 2644.18
   20:19:46.548.06-Aug-2020 4993.01 5747.16 83.38 3.00   5.20 2644.18
   20:19:46.748.06-Aug-2020 4993.01 5748.27 83.38 3.00   5.40 2644.18
   20:19:46.948.06-Aug-2020 4993.01 5749.61 83.38 3.00   5.60 2644.18
   20:19:47.148.06-Aug-2020 4993.01 5749.15 83.38 3.00   5.80 2644.18
   20:19:47.349.06-Aug-2020 4993.01 5749.92 83.38 3.00   6.00 2644.18
   20:19:47.549.06-Aug-2020 4993.01 5749.92 83.38 3.00   6.20 2644.18
   20:19:47.749.06-Aug-2020 4993.01 5750.76 83.38 3.00   6.40 2644.18
   20:19:47.949.06-Aug-2020 4993.01 5743.24 83.38 3.00   6.60 2644.18
   20:19:48.149.06-Aug-2020 4993.01 5751.04 83.38 3.00   6.80 2644.18
   20:19:48.349.06-Aug-2020 4993.01 5749.26 83.38 3.00   7.00 2644.18
   20:19:48.549.06-Aug-2020 4993.01 5749.26 83.38 3.00   7.20 2644.18
   20:19:48.749.06-Aug-2020 4993.01 5750.97 83.38 3.00   7.40 2644.18
   20:19:48.949.06-Aug-2020 4993.01 5750.92 83.37 3.00   7.60 2644.18
   20:19:49.149.06-Aug-2020 4993.01 5751.39 83.37 3.00   7.80 2644.18
   20:19:49.349.06-Aug-2020 4993.01 5751.85 83.37 3.00   8.00 2644.18
   20:19:49.549.06-Aug-2020 4993.01 5751.85 83.37 3.00   8.20 2644.18
   20:19:49.749.06-Aug-2020 4993.01 5752.14 83.37 3.00   8.40 2644.18
   20:19:49.950.06-Aug-2020 4993.01 5752.31 83.37 3.00   8.60 2644.18
   20:19:50.150.06-Aug-2020 4993.01 5751.98 83.37 3.00   8.80 2644.18
   20:19:50.350.06-Aug-2020 4993.01 5752.55 83.37 3.00   9.00 2644.18
   20:19:50.550.06-Aug-2020 4993.01 5752.55 83.37 3.00   9.20 2644.18
   20:19:50.750.06-Aug-2020 4993.01 5752.33 83.37 3.00   9.40 2644.18
   20:19:50.950.06-Aug-2020 4993.01 5746.19 83.37 3.00   9.60 2644.18
   20:19:51.150.06-Aug-2020 4993.01 5751.55 83.37 3.00   9.80 2644.18
   20:19:51.350.06-Aug-2020 4993.01 5750.96 83.37 3.00  10.00 2644.18
   20:19:51.550.06-Aug-2020 4993.01 5750.96 83.37 3.00  10.20 2644.18
   20:19:51.750.06-Aug-2020 4993.01 5750.96 83.37 3.00  10.40 2644.18
   20:19:51.950.06-Aug-2020 4993.01 5744.91 83.36 3.00  10.60 2644.18
   20:19:52.150.06-Aug-2020 4993.01 5743.17 83.36 3.00  10.80 2644.18
   20:19:52.350.06-Aug-2020 4993.01 5734.94 83.36 3.00  11.00 2644.18
   20:19:52.551.06-Aug-2020 4993.01 5734.94 83.36 3.00  11.20 2644.18
   20:19:52.751.06-Aug-2020 4993.01 5707.61 83.36 3.00  11.40 2644.18
   20:19:52.951.06-Aug-2020 4993.01 5732.84 83.36 3.00  11.60 2644.18
   20:19:53.151.06-Aug-2020 4993.01 5714.01 83.36 3.00  11.80 2644.18
   20:19:53.351.06-Aug-2020 4993.01 5696.81 83.36 3.00  12.00 2644.18
   20:19:53.551.06-Aug-2020 4993.01 5696.81 83.36 3.00  12.20 2644.18
   20:19:53.751.06-Aug-2020 4993.01 5660.44 83.36 3.00  12.40 2644.18
   20:19:53.951.06-Aug-2020 4993.01 5607.92 83.36 3.00  12.60 2644.18
   20:19:54.151.06-Aug-2020 4993.01 5552.57 83.36 3.00  12.80 2644.18
   20:19:54.351.06-Aug-2020 4993.01 5518.81 83.36 3.00  13.00 2644.18
   20:19:54.551.06-Aug-2020 4993.01 5518.81 83.36 3.00  13.21 2644.18
   20:19:54.751.06-Aug-2020 4993.01 5433.93 83.35 3.00  13.41 2644.18
   20:19:54.951.06-Aug-2020 4993.01 5376.28 83.35 3.00  13.61 2644.18
   20:19:55.152.06-Aug-2020 4993.01 5294.17 83.35 3.00  13.81 2644.18
   20:19:55.352.06-Aug-2020 4993.01 5212.80 83.35 3.00  14.01 2644.18
   20:19:55.552.06-Aug-2020 4993.01 5212.80 83.35 3.00  14.21 2644.18
   20:19:55.752.06-Aug-2020 4993.01 5092.39 83.35 3.00  14.41 2644.18
   20:19:55.952.06-Aug-2020 4993.01 4999.91 83.35 3.00  14.61 2644.18
   20:19:56.152.06-Aug-2020 4993.01 4903.26 83.35 3.00  14.81 2644.18
   20:19:56.352.06-Aug-2020 4993.01 4801.46 83.35 3.00  15.01 2644.18
   20:19:56.552.06-Aug-2020 4993.01 4801.46 83.35 3.00  15.21 2644.18
   20:19:56.752.06-Aug-2020 4993.01 4605.08 83.35 3.00  15.41 2644.18
   20:19:56.952.06-Aug-2020 4993.01 4542.74 83.35 3.00  15.61 2644.18
   20:19:57.152.06-Aug-2020 4993.01 4487.97 83.35 3.00  15.81 2644.18
   20:19:57.352.06-Aug-2020 4993.01 4436.24 83.35 3.00  16.01 2644.18
   20:19:57.552.06-Aug-2020 4993.01 4436.24 83.35 3.00  16.21 2644.18
   20:19:57.753.06-Aug-2020 4993.01 4740.44 83.34 3.00  16.41 2644.18
   20:19:57.953.06-Aug-2020 4993.01 4697.02 83.34 3.00  16.61 2644.18
   20:19:58.153.06-Aug-2020 4993.01 4662.57 83.34 3.00  16.81 2644.18
   20:19:58.353.06-Aug-2020 4993.01 4625.53 83.34 3.00  17.01 2644.18
   20:19:58.553.06-Aug-2020 4993.01 4625.53 83.34 3.00  17.21 2644.18
   20:19:58.753.06-Aug-2020 4993.01 4678.35 83.34 3.00  17.41 2644.18
   20:19:58.953.06-Aug-2020 4993.01 4655.96 83.34 3.00  17.61 2644.18
   20:19:59.153.06-Aug-2020 4993.01 4635.54 83.34 3.00  17.81 2644.18
   20:19:59.353.06-Aug-2020 4993.01 4646.62 83.34 3.00  18.01 2644.18
   20:19:59.553.06-Aug-2020 4993.01 4646.62 83.34 3.00  18.21 2644.18
   20:19:59.753.06-Aug-2020 4993.01 5778.91 83.33 3.00  18.41 2644.18
   20:19:59.953.06-Aug-2020 4993.01 6210.92 83.33 3.00  18.61 2644.18
   20:20:00.153.06-Aug-2020 4993.01 6453.63 83.33 3.00  18.81 2644.18
   20:20:00.353.06-Aug-2020 4993.01 6562.20 83.33 3.00  19.01 2644.18
   20:20:00.554.06-Aug-2020 4993.01 6562.20 83.33 3.00  19.21 2644.18
   20:20:00.754.06-Aug-2020 4993.01 6526.66 83.33 3.00  19.41 2644.18
   20:20:00.954.06-Aug-2020 4993.01 6541.84 83.33 3.00  19.61 2644.18
   20:20:01.154.06-Aug-2020 4993.01 6519.27 83.33 3.00  19.81 2644.18
   20:20:01.354.06-Aug-2020 4993.01 6603.59 83.33 3.00  20.01 2644.18
   20:20:01.554.06-Aug-2020 4993.01 6603.59 83.33 3.00  20.21 2644.18
   20:20:01.754.06-Aug-2020 4993.01 6530.72 83.33 3.00  20.41 2644.18
   20:20:01.954.06-Aug-2020 4993.01 6444.07 83.33 3.00  20.61 2644.18
   20:20:02.154.06-Aug-2020 4993.01 6532.60 83.32 3.00  20.81 2644.18
   20:20:02.354.06-Aug-2020 4993.01 6560.13 83.32 3.00  21.01 2644.18
   20:20:02.554.06-Aug-2020 4993.01 6560.13 83.32 3.00  21.21 2644.18
   20:20:02.754.06-Aug-2020 4993.01 6570.48 83.32 3.00  21.41 2644.18
   20:20:02.954.06-Aug-2020 4993.01 6434.41 83.32 3.00  21.61 2644.18
   20:20:03.155.06-Aug-2020 4993.01 6485.74 83.32 3.00  21.81 2644.18
   20:20:03.355.06-Aug-2020 4993.01 6513.10 83.32 3.00  22.01 2644.18
   20:20:03.555.06-Aug-2020 4993.01 6513.10 83.32 3.00  22.21 2644.18
   20:20:03.755.06-Aug-2020 4993.01 6542.15 83.32 3.00  22.41 2644.18
   20:20:03.955.06-Aug-2020 4993.01 6553.92 83.32 3.00  22.61 2644.18
   20:20:04.155.06-Aug-2020 4993.01 6565.47 83.32 3.00  22.81 2644.18
