~Version Information
 VERS.                  2.0:   CWLS log ASCII Standard -VERSION 2.0
 WRAP.                   NO:   One line per depth step
~Well Information Block
#MNEM.UNIT     VALUE/NAME     DESCRIPTION
#---------     -----------    ---------------------------
 STRT.S             03:58:24 07-Aug-20: START TIME 03:58:24 07-Aug-20
 STOP.S             04:06:16 07-Aug-20: STOP TIME  04:06:16 07-Aug-20
 STEP.S                   0.00: STEP TIME
 NULL.                 -999.25: NULL VALUE
 DFWT.                        :  DIST FWL TEXT
 DFST.                        :  DIST FSL TEXT
 DMF .             Drill Floor:  DRILL MEAS FROM
 STIM.      12.00.00 03-Jul-20:  START TIME
 DATE.      00.50.00 09-Aug-20:  END TIME
 SPUD.               03-Jul-20:  SPUD DATE
 NREF.                    Grid:  NORTH REFERENCE
 HPTY.       Minimum Curvature:  HOLE POS TYPE
 DMOD.             Drill Model:  DRILL MOD DESC
 SVYD.                  Survey:  SURVEY DESC
 ILTD.               Lithology:  INTERP LTH DESC
 FTOP.          Formation Tops:  FORM TOPS DESC
 PDAT.          Mean Sea Level:  PERMANENT DATUM
 FLD .                     ACG:  FIELD NAME
 CTRY.              Azerbaijan:  COUNTRY NAME
 WELL.                    E04x:  WELL NAME
 SRVC.          Turan Drilling:  CONTRACTOR
 COMP.     BP Exploration (Caspian Sea) Ltd.:  COMPANY
 SON .        AZ-XX-0906531346:  JOB NUMBER
 WTYP.                Deviated:  WELL TYPE
 MDS .        Operator Entered:  MAG DATA SOURCE
 UWI .                     N/A:  UNIQUE WELL IDENTIFIER
 API .                     N/A:  API NUMBER
 BASE.              Azerbaijan:  LOGGING EQUIPMENT BASE LOCATION
 REGN.                   EESSA:  REGION
 PROV.                    Baku:  PROVINCE
 STAT.                    Baku:  STATE NAME
 MWDS.                    Baku:  MWD SHOP
 JOBN.        AZ-XX-0906531346:  JOB TICKET NUMB
 RIG .                     DWG:  RIG NAME
 DOE .                     N/A:  DOE NUMBER
 DCON.         Sperry Drilling:  DIRECTNL CONTR
 UNIT.                     N/A:  LOGGING EQUIPMENT ID
 CNTY.                        :  COUNTY
 LOC .                        :  LOCATION
 LMF .             Drill Floor:  LOG MEASURED FROM
 TVDS.m                  43.16:  TVDSS CORRECTN
 LATI.deg                40.17:  LATITUDE
 LONG.deg                51.17:  LONGITUDE
 WHNS.m                  -0.12:  WELL HEAD N/S
 WHEW.m                  -5.41:  WELL HEAD E/W
 UTMX.m              514337.95:  UTM X
 UTMY.m             4448627.46:  UTM Y
 DFWL.m                   0.00:  DISTANCE FWL
 DFSL.m                   0.00:  DISTANCE FSL
 SDEP.m                3088.01:  START DEPTH
 TDD .m                5200.01:  TOTAL DEPTH (DRILLER)
 VSDR.deg               244.51:  VERT SEC DIRECT
 GVFD.g                   1.00:  GRAVITY FIELD
 MFLD.nT              50329.80:  MAGNETIC FIELD
 MDIP.deg                59.63:  MAGNETIC DIP
 MDEC.deg                 6.59:  MAGNETIC DECL
 GRDC.deg                 0.09:  GRID CORRECTION
 AZTC.deg                 6.50:  AZM TOTAL CORR
 EPD .m                   0.00:  ELEVATION
 EGL .m                   0.00:  GROUND ELEVATION
 WDMS.m                 176.20:  WD ELEV
 APD .m                  43.16:  DEPTH ABOVE PD
 DEP .m                3084.71:  DEPTH
 AGAP.m                  43.16:  AIR GAP
 VSEW.m                  -5.41:  VERT SEC E/W
 VSNS.m                  -0.12:  VERT SEC N/S
 EKB .m                   0.00:  KB ELEVATION
 EDF .m                  43.16:  DF ELEVATION
 TDL .m                 243.00:  TOTAL DEPTH (LOGGER)
 VSC .                       0:  VS TO CLOSURE
 MAGU.                 1853542:  MAGUTM CHECKSUM
~Parameter Information Block
#MNEM.UNIT       Value        Description
#---------     -----------    ---------------------------
 AV  .mps                 1.91:  Ann Velocity 
 AVMX.mps                 2.52:  Max Ann Veloc 
 AZIF.deg               308.97:  Azm, Final 
 BHAT.        Rotary Steerable:  BHA Type 
 BROT.°/30m               1.00:  Build Rotating 
 BS  .in                  6.50:  Bit Size 
 BSZ .in                  6.50:  Bit Size 
 BTPL.psig              350.00:  Bit Press Loss 
 CABU.                      No:  Customer Abuse 
 CGEO.           Asif Pashayev:  Customer Geo 
 TCS .hr                 35.86:  Time Ciculation Ended 
 CV  .mps                 2.31:  Crit Velocity 
 CVMX.mps                 2.31:  Max Crit Veloc 
 DD1 .         Intigam Rahimov:  Direct Drillr 1 
 DDSV.               Geo-Pilot:  DD Service 
 DEFF.%                  92.00:  % Det Eff 
 DLRX.°/30m               1.00:  Dogleg Rot Max 
 DLSO.°/30m               1.00:  Dogleg Oriented 
 DLSX.°/30m               1.42:  Dogleg Str Max 
 DRET.      15.50.00 07-Aug-20:  Drill End Time 
 DRST.      10.40.00 06-Aug-20:  Drill Start Tim 
 DTIM.hr                 21.30:  Time Drilling 
 EDEP.m                5200.01:  End Depth 
 ENG1.            Alan Tuganov:  Engineer 1 
 ENG2.         Almaz Almadatov:  Engineer 2 
 ENG3.     Zammelal Abdullah Sani:  Engineer 3 
 ETIM.      22.42.00 08-Aug-20:  End Time 
 FLOI.gpm               395.00:  Flow In 
 FLON.gpm               350.00:  Flow In Min 
 FLOS.cptm                0.00:  Fluid Loss 
 FLOX.gpm               404.00:  Flow In Max 
 FTRO.       Formation Presure:  FTWD Run Obj 
 HFLO.                      No:  High Flow 
 HPRE.                      No:  High Pressure 
 HTEM.                      No:  High Temp 
 HYDO.m                   1.80:  Hydro Offset 
 IFIN.deg                72.64:  Inc, Final 
 IMAX.deg                73.68:  Inc Max 
 IMIN.deg                72.64:  Inc Min 
 IMND.m                5189.69:  Inc Min Depth 
 IMXD.m                5067.88:  Inc Max Depth 
 JARR.                      No:  Jarring 
 LETM.      15.50.00 07-Aug-20:  Log End Time 
 LOST.hr                     0:  Lost Rig Time 
 LSTM.      10.40.00 06-Aug-20:  Log Start Time 
 MDCL.ppm             36000.00:  Mud Chlorides 
 MDES.     Inversion Oil/Synthetic:  Mud Desc 
 DFD .sg                  1.36:  Mud Density 
 MDMN.sg                  1.36:  Dens Mud Min 
 MDMX.sg                  1.36:  Dens Mud Max 
 MOIL.                      70:  Run Mud Oil % 
 MOWR.                   70:30:  Run Mud OWR 
 MSND.                    0.00:  Run Mud Sand % 
 MSOL.                   17.60:  Run Mud Solids% 
 DFV .spqt               73.00:  Mud Viscosity 
 MWOD.in                  4.75:  MWD Tool OD 
 MWSI.                      No:  Serv Intrp, MWD 
 OTIM.hr                 85.66:  Time Operating 
 PCON.           Look Like New:  Pad Condition 
 PMAX.psia             6250.00:  Press Op, Max 
 PV  .cP                 65.00:  Mud PV 
 RUN .                     900:  Run Number 
 ROPA.m/hr               11.40:  ROP Avg 
 ROPN.m/hr                5.00:  ROP Min 
 ROPX.m/hr               20.00:  ROP Max 
 RPMA.rpm               130.00:  RPM Surface Avg 
 RPMN.rpm                40.00:  RPM Surface Min 
 RPMX.rpm               140.00:  RPM Surface Max 
 RRUN.                    L205:  Rig Run Number 
 RTIM.hr                  1.00:  Time Reaming 
 SAZI.deg               313.52:  Azm, Start 
 SDEP.m                4957.01:  Start Depth 
 SIDD.                      No:  Serv Intrp, DD 
 SINC.deg                73.16:  Inc, Start 
 SPPA.psig             5657.00:  SPP Avg 
 SPPN.psig             2500.00:  SPP Min 
 SPPX.psig             5806.00:  SPP Max 
 STIM.      07.12.00 05-Aug-20:  Start Time 
 SVCS.                 DD, MWD:  Services 
 SVER.                    9.20:  Sperry Version 
 TDAT.m                 243.00:  Tot Depth Attmp 
 TDDF.                      No:  Trip for DD 
 TDLG.m                 243.00:  Tot Depth Loggd 
 TFF .                      No:  Trip for Fail 
 TQAA.f-kp               13.00:  Torque Abs Avg 
 TQAN.f-kp               11.00:  Torque Abs Min 
 TQAX.f-kp               16.00:  Torque Abs Max 
 TRRT.°/30m               1.00:  Turn Rotating 
 MRT .                    HCIM:  Maximum Recorded Temperature 
 TTMX.degC               96.08:  Max Tool Temp 
 VS01.                90515411:  Virtual Str1 SN 
 VS02.                90512716:  Virtual Str2 SN 
 VS03.                90522362:  Virtual Str3 SN 
 VS04.                90619415:  Virtual Str4 SN 
 VS05.                90619414:  Virtual Str5 SN 
 VS06.                90597748:  Virtual Str6 SN 
 WBMN.klb                 2.00:  WOB Min 
 WITN.           Adil Mammadov:  Customer Rep 
 WITN.     Alexander Yadullayev:  Customer Rep 2 
 WOBA.klb                 7.00:  WOB Avg 
 WOBX.klb                23.00:  WOB Max 
 YP  .lhf2               37.00:  Yield Point 
~Curve Information Block
#MNEM.UNIT                 API CODE     Curve Description
#---------               -----------    ---------------------------
 TIME.HHMMSS            00 000 000 000:  GT Time & Date
 GTDEPTH.m              00 000 000 000:  GT Depth
 GTPQH.psia             00 000 000 000:  GT HR Quartz Pressure
 GTTQ.degC              00 000 000 000:  GT Quartz Temperature
 GTTN.NONE              00 000 000 000:  GT Test Number
 GTET.sec               00 000 000 000:  GT Elapsed Test Time
 GTTVD.m                00 000 000 000:  GT True Vertical Depth
#Other Information
#
#WARRANTY: Halliburton will use its best efforts to furnish customers with 
#accurate information and interpretations that are part of, and incident to, the services 
#provided.  However, Halliburton cannot and does not warrant the accuracy 
#or correctness of such information and interpretations.  Under no circumstances should any 
#such information or interpretation be relied upon as the sole basis for any drilling, 
#completion, production, or financial decision or any procedure involving any risk to the 
#safety of any drilling venture, drilling rig or its crew or any other third party.  The 
#Customer has full responsibility for all drilling, completion and production operation.  
#Halliburton makes no representations or warranties, either expressed or 
#implied, including, but not limited to, the implied warranties of merchantability or fitness 
#for a particular purpose, with respect to the services rendered.  In no event will 
#Halliburton be liable for failure to obtain any particular results or for 
#any damages, including, but not limited to, indirect, special or consequential damages, 
#resulting from the use of any information or interpretation provided by Halliburton.
#
~A           TIME           GTDEPTH  GTPQH  GTTQ  GTTN  GTET   GTTVD  
# ...
   04:03:00.341.07-Aug-2020 5060.51 3684.13 87.32 7.00 276.06 2663.65
   04:03:00.541.07-Aug-2020 5060.51 3684.13 87.32 7.00 276.27 2663.65
   04:03:00.741.07-Aug-2020 5060.51 3684.14 87.31 7.00 276.47 2663.65
   04:03:00.941.07-Aug-2020 5060.51 3684.15 87.31 7.00 276.67 2663.65
   04:03:01.141.07-Aug-2020 5060.51 3684.13 87.31 7.00 276.87 2663.65
   04:03:01.341.07-Aug-2020 5060.51 3684.15 87.31 7.00 277.07 2663.65
   04:03:01.541.07-Aug-2020 5060.51 3684.15 87.31 7.00 277.27 2663.65
   04:03:01.741.07-Aug-2020 5060.51 3684.13 87.31 7.00 277.47 2663.65
   04:03:01.941.07-Aug-2020 5060.51 3684.13 87.31 7.00 277.67 2663.65
   04:03:02.141.07-Aug-2020 5060.51 3684.13 87.31 7.00 277.87 2663.65
   04:03:02.341.07-Aug-2020 5060.51 3684.12 87.31 7.00 278.07 2663.65
   04:03:02.541.07-Aug-2020 5060.51 3684.12 87.31 7.00 278.27 2663.65
   04:03:02.741.07-Aug-2020 5060.51 3684.19 87.31 7.00 278.47 2663.65
   04:03:02.942.07-Aug-2020 5060.51 3684.15 87.31 7.00 278.67 2663.65
   04:03:03.142.07-Aug-2020 5060.51 3684.15 87.31 7.00 278.87 2663.65
   04:03:03.342.07-Aug-2020 5060.51 3684.15 87.31 7.00 279.07 2663.65
   04:03:03.542.07-Aug-2020 5060.51 3684.15 87.31 7.00 279.27 2663.65
   04:03:03.742.07-Aug-2020 5060.51 3684.13 87.31 7.00 279.47 2663.65
   04:03:03.942.07-Aug-2020 5060.51 3684.13 87.31 7.00 279.67 2663.65
   04:03:04.142.07-Aug-2020 5060.51 3684.13 87.31 7.00 279.87 2663.65
   04:03:04.342.07-Aug-2020 5060.51 3684.12 87.31 7.00 280.07 2663.65
   04:03:04.542.07-Aug-2020 5060.51 3684.12 87.31 7.00 280.27 2663.65
   04:03:04.742.07-Aug-2020 5060.51 3684.13 87.30 7.00 280.47 2663.65
   04:03:04.942.07-Aug-2020 5060.51 3684.13 87.30 7.00 280.67 2663.65
   04:03:05.142.07-Aug-2020 5060.51 3684.07 87.30 7.00 280.87 2663.65
   04:03:05.342.07-Aug-2020 5060.51 3684.11 87.30 7.00 281.07 2663.65
   04:03:05.542.07-Aug-2020 5060.51 3684.11 87.30 7.00 281.27 2663.65
   04:03:05.742.07-Aug-2020 5060.51 3684.11 87.30 7.00 281.47 2663.65
   04:03:05.942.07-Aug-2020 5060.51 3684.17 87.30 7.00 281.67 2663.65
   04:03:06.142.07-Aug-2020 5060.51 3684.06 87.30 7.00 281.87 2663.65
   04:03:06.342.07-Aug-2020 5060.51 3684.19 87.30 7.00 282.07 2663.65
   04:03:06.542.07-Aug-2020 5060.51 3684.19 87.30 7.00 282.27 2663.65
   04:03:06.742.07-Aug-2020 5060.51 3684.16 87.30 7.00 282.47 2663.65
   04:03:06.942.07-Aug-2020 5060.51 3684.13 87.30 7.00 282.67 2663.65
   04:03:07.143.07-Aug-2020 5060.51 3684.07 87.30 7.00 282.87 2663.65
   04:03:07.343.07-Aug-2020 5060.51 3684.18 87.30 7.00 283.07 2663.65
   04:03:07.543.07-Aug-2020 5060.51 3684.18 87.30 7.00 283.27 2663.65
   04:03:07.743.07-Aug-2020 5060.51 3684.12 87.30 7.00 283.47 2663.65
   04:03:07.943.07-Aug-2020 5060.51 3684.15 87.30 7.00 283.67 2663.65
   04:03:08.143.07-Aug-2020 5060.51 3684.13 87.30 7.00 283.87 2663.65
   04:03:08.343.07-Aug-2020 5060.51 3684.15 87.30 7.00 284.07 2663.65
   04:03:08.543.07-Aug-2020 5060.51 3684.15 87.30 7.00 284.27 2663.65
   04:03:08.743.07-Aug-2020 5060.51 3684.18 87.29 7.00 284.47 2663.65
   04:03:08.943.07-Aug-2020 5060.51 3684.12 87.29 7.00 284.67 2663.65
   04:03:09.143.07-Aug-2020 5060.51 3684.16 87.29 7.00 284.87 2663.65
   04:03:09.343.07-Aug-2020 5060.51 3684.13 87.29 7.00 285.07 2663.65
   04:03:09.543.07-Aug-2020 5060.51 3684.13 87.29 7.00 285.27 2663.65
   04:03:09.743.07-Aug-2020 5060.51 3684.14 87.29 7.00 285.47 2663.65
   04:03:09.943.07-Aug-2020 5060.51 3684.12 87.29 7.00 285.67 2663.65
   04:03:10.143.07-Aug-2020 5060.51 3684.13 87.29 7.00 285.87 2663.65
   04:03:10.343.07-Aug-2020 5060.51 3684.13 87.29 7.00 286.07 2663.65
   04:03:10.543.07-Aug-2020 5060.51 3684.13 87.29 7.00 286.27 2663.65
   04:03:10.743.07-Aug-2020 5060.51 3684.12 87.29 7.00 286.47 2663.65
   04:03:10.943.07-Aug-2020 5060.51 3684.12 87.29 7.00 286.67 2663.65
   04:03:11.143.07-Aug-2020 5060.51 3684.08 87.29 7.00 286.87 2663.65
   04:03:11.344.07-Aug-2020 5060.51 3684.11 87.29 7.00 287.07 2663.65
   04:03:11.544.07-Aug-2020 5060.51 3684.11 87.29 7.00 287.27 2663.65
   04:03:11.744.07-Aug-2020 5060.51 3684.11 87.29 7.00 287.47 2663.65
   04:03:11.944.07-Aug-2020 5060.51 3684.16 87.29 7.00 287.67 2663.65
   04:03:12.144.07-Aug-2020 5060.51 3684.13 87.29 7.00 287.87 2663.65
   04:03:12.344.07-Aug-2020 5060.51 3684.12 87.29 7.00 288.07 2663.65
   04:03:12.544.07-Aug-2020 5060.51 3684.12 87.29 7.00 288.27 2663.65
   04:03:12.744.07-Aug-2020 5060.51 3684.12 87.28 7.00 288.47 2663.65
   04:03:12.944.07-Aug-2020 5060.51 3684.12 87.28 7.00 288.67 2663.65
   04:03:13.144.07-Aug-2020 5060.51 3684.12 87.28 7.00 288.87 2663.65
   04:03:13.344.07-Aug-2020 5060.51 3684.11 87.28 7.00 289.07 2663.65
   04:03:13.544.07-Aug-2020 5060.51 3684.11 87.28 7.00 289.27 2663.65
   04:03:13.744.07-Aug-2020 5060.51 3684.11 87.28 7.00 289.47 2663.65
   04:03:13.944.07-Aug-2020 5060.51 3683.99 87.28 7.00 289.67 2663.65
   04:03:14.144.07-Aug-2020 5060.51 3684.19 87.28 7.00 289.87 2663.65
   04:03:14.344.07-Aug-2020 5060.51 3684.13 87.28 7.00 290.07 2663.65
   04:03:14.544.07-Aug-2020 5060.51 3684.13 87.28 7.00 290.27 2663.65
   04:03:14.744.07-Aug-2020 5060.51 3684.06 87.28 7.00 290.47 2663.65
   04:03:14.944.07-Aug-2020 5060.51 3684.16 87.28 7.00 290.67 2663.65
   04:03:15.144.07-Aug-2020 5060.51 3684.14 87.28 7.00 290.87 2663.65
   04:03:15.344.07-Aug-2020 5060.51 3684.12 87.28 7.00 291.07 2663.65
   04:03:15.544.07-Aug-2020 5060.51 3684.15 87.28 7.00 291.27 2663.65
   04:03:15.745.07-Aug-2020 5060.51 3684.12 87.28 7.00 291.47 2663.65
   04:03:15.945.07-Aug-2020 5060.51 3684.07 87.28 7.00 291.67 2663.65
   04:03:16.145.07-Aug-2020 5060.51 3684.17 87.28 7.00 291.87 2663.65
   04:03:16.345.07-Aug-2020 5060.51 3684.11 87.28 7.00 292.07 2663.65
   04:03:16.545.07-Aug-2020 5060.51 3684.11 87.28 7.00 292.27 2663.65
   04:03:16.745.07-Aug-2020 5060.51 3684.12 87.28 7.00 292.47 2663.65
   04:03:16.945.07-Aug-2020 5060.51 3684.11 87.27 7.00 292.67 2663.65
   04:03:17.145.07-Aug-2020 5060.51 3684.06 87.27 7.00 292.87 2663.65
   04:03:17.345.07-Aug-2020 5060.51 3684.16 87.27 7.00 293.07 2663.65
   04:03:17.545.07-Aug-2020 5060.51 3684.16 87.27 7.00 293.27 2663.65
   04:03:17.745.07-Aug-2020 5060.51 3684.11 87.27 7.00 293.47 2663.65
   04:03:17.945.07-Aug-2020 5060.51 3684.14 87.27 7.00 293.67 2663.65
   04:03:18.145.07-Aug-2020 5060.51 3684.12 87.27 7.00 293.87 2663.65
   04:03:18.345.07-Aug-2020 5060.51 3684.13 87.27 7.00 294.07 2663.65
   04:03:18.545.07-Aug-2020 5060.51 3684.13 87.27 7.00 294.27 2663.65
   04:03:18.745.07-Aug-2020 5060.51 3684.11 87.27 7.00 294.47 2663.65
   04:03:18.945.07-Aug-2020 5060.51 3684.12 87.27 7.00 294.67 2663.65
   04:03:19.145.07-Aug-2020 5060.51 3684.12 87.27 7.00 294.87 2663.65
   04:03:19.345.07-Aug-2020 5060.51 3684.11 87.27 7.00 295.07 2663.65
   04:03:19.545.07-Aug-2020 5060.51 3684.11 87.27 7.00 295.27 2663.65
   04:03:19.745.07-Aug-2020 5060.51 3684.10 87.27 7.00 295.47 2663.65
   04:03:19.946.07-Aug-2020 5060.51 3683.99 87.27 7.00 295.67 2663.65
   04:03:20.146.07-Aug-2020 5060.51 3684.18 87.27 7.00 295.87 2663.65
   04:03:20.346.07-Aug-2020 5060.51 3684.13 87.27 7.00 296.07 2663.65
   04:03:20.546.07-Aug-2020 5060.51 3684.13 87.27 7.00 296.27 2663.65
   04:03:20.746.07-Aug-2020 5060.51 3684.13 87.27 7.00 296.47 2663.65
   04:03:20.946.07-Aug-2020 5060.51 3684.11 87.27 7.00 296.67 2663.65
   04:03:21.146.07-Aug-2020 5060.51 3684.12 87.26 7.00 296.87 2663.65
   04:03:21.346.07-Aug-2020 5060.51 3684.12 87.26 7.00 297.07 2663.65
   04:03:21.546.07-Aug-2020 5060.51 3684.12 87.26 7.00 297.27 2663.65
   04:03:21.746.07-Aug-2020 5060.51 3684.10 87.26 7.00 297.47 2663.65
   04:03:21.946.07-Aug-2020 5060.51 3684.12 87.26 7.00 297.67 2663.65
   04:03:22.146.07-Aug-2020 5060.51 3684.09 87.26 7.00 297.87 2663.65
   04:03:22.346.07-Aug-2020 5060.51 3684.10 87.26 7.00 298.07 2663.65
   04:03:22.546.07-Aug-2020 5060.51 3684.10 87.26 7.00 298.27 2663.65
   04:03:22.746.07-Aug-2020 5060.51 3684.10 87.26 7.00 298.47 2663.65
   04:03:22.946.07-Aug-2020 5060.51 3684.14 87.26 7.00 298.67 2663.65
   04:03:23.146.07-Aug-2020 5060.51 3684.10 87.26 7.00 298.87 2663.65
