~Version Information
 VERS.                  2.0:   CWLS log ASCII Standard -VERSION 2.0
 WRAP.                   NO:   One line per depth step
~Well Information Block
#MNEM.UNIT     VALUE/NAME     DESCRIPTION
#---------     -----------    ---------------------------
 STRT.S             09:21:48 07-Aug-20: START TIME 09:21:48 07-Aug-20
 STOP.S             09:29:41 07-Aug-20: STOP TIME  09:29:41 07-Aug-20
 STEP.S                   0.00: STEP TIME
 NULL.                 -999.25: NULL VALUE
 DFWT.                        :  DIST FWL TEXT
 DFST.                        :  DIST FSL TEXT
 DMF .             Drill Floor:  DRILL MEAS FROM
 STIM.      12.00.00 03-Jul-20:  START TIME
 DATE.      00.50.00 09-Aug-20:  END TIME
 SPUD.               03-Jul-20:  SPUD DATE
 NREF.                    Grid:  NORTH REFERENCE
 HPTY.       Minimum Curvature:  HOLE POS TYPE
 DMOD.             Drill Model:  DRILL MOD DESC
 SVYD.                  Survey:  SURVEY DESC
 ILTD.               Lithology:  INTERP LTH DESC
 FTOP.          Formation Tops:  FORM TOPS DESC
 PDAT.          Mean Sea Level:  PERMANENT DATUM
 FLD .                     ACG:  FIELD NAME
 CTRY.              Azerbaijan:  COUNTRY NAME
 WELL.                    E04x:  WELL NAME
 SRVC.          Turan Drilling:  CONTRACTOR
 COMP.     BP Exploration (Caspian Sea) Ltd.:  COMPANY
 SON .        AZ-XX-0906531346:  JOB NUMBER
 WTYP.                Deviated:  WELL TYPE
 MDS .        Operator Entered:  MAG DATA SOURCE
 UWI .                     N/A:  UNIQUE WELL IDENTIFIER
 API .                     N/A:  API NUMBER
 BASE.              Azerbaijan:  LOGGING EQUIPMENT BASE LOCATION
 REGN.                   EESSA:  REGION
 PROV.                    Baku:  PROVINCE
 STAT.                    Baku:  STATE NAME
 MWDS.                    Baku:  MWD SHOP
 JOBN.        AZ-XX-0906531346:  JOB TICKET NUMB
 RIG .                     DWG:  RIG NAME
 DOE .                     N/A:  DOE NUMBER
 DCON.         Sperry Drilling:  DIRECTNL CONTR
 UNIT.                     N/A:  LOGGING EQUIPMENT ID
 CNTY.                        :  COUNTY
 LOC .                        :  LOCATION
 LMF .             Drill Floor:  LOG MEASURED FROM
 TVDS.m                  43.16:  TVDSS CORRECTN
 LATI.deg                40.17:  LATITUDE
 LONG.deg                51.17:  LONGITUDE
 WHNS.m                  -0.12:  WELL HEAD N/S
 WHEW.m                  -5.41:  WELL HEAD E/W
 UTMX.m              514337.95:  UTM X
 UTMY.m             4448627.46:  UTM Y
 DFWL.m                   0.00:  DISTANCE FWL
 DFSL.m                   0.00:  DISTANCE FSL
 SDEP.m                3088.01:  START DEPTH
 TDD .m                5200.01:  TOTAL DEPTH (DRILLER)
 VSDR.deg               244.51:  VERT SEC DIRECT
 GVFD.g                   1.00:  GRAVITY FIELD
 MFLD.nT              50329.80:  MAGNETIC FIELD
 MDIP.deg                59.63:  MAGNETIC DIP
 MDEC.deg                 6.59:  MAGNETIC DECL
 GRDC.deg                 0.09:  GRID CORRECTION
 AZTC.deg                 6.50:  AZM TOTAL CORR
 EPD .m                   0.00:  ELEVATION
 EGL .m                   0.00:  GROUND ELEVATION
 WDMS.m                 176.20:  WD ELEV
 APD .m                  43.16:  DEPTH ABOVE PD
 DEP .m                3084.71:  DEPTH
 AGAP.m                  43.16:  AIR GAP
 VSEW.m                  -5.41:  VERT SEC E/W
 VSNS.m                  -0.12:  VERT SEC N/S
 EKB .m                   0.00:  KB ELEVATION
 EDF .m                  43.16:  DF ELEVATION
 TDL .m                 243.00:  TOTAL DEPTH (LOGGER)
 VSC .                       0:  VS TO CLOSURE
 MAGU.                 1853542:  MAGUTM CHECKSUM
~Parameter Information Block
#MNEM.UNIT       Value        Description
#---------     -----------    ---------------------------
 AV  .mps                 1.91:  Ann Velocity 
 AVMX.mps                 2.52:  Max Ann Veloc 
 AZIF.deg               308.97:  Azm, Final 
 BHAT.        Rotary Steerable:  BHA Type 
 BROT.∞/30m               1.00:  Build Rotating 
 BS  .in                  6.50:  Bit Size 
 BSZ .in                  6.50:  Bit Size 
 BTPL.psig              350.00:  Bit Press Loss 
 CABU.                      No:  Customer Abuse 
 CGEO.           Asif Pashayev:  Customer Geo 
 COMM.                     ,[Å:  Run Comments 1 
 TCS .hr                 35.86:  Time Ciculation Ended 
 CV  .mps                 2.31:  Crit Velocity 
 CVMX.mps                 2.31:  Max Crit Veloc 
 DD1 .         Intigam Rahimov:  Direct Drillr 1 
 DDSV.               Geo-Pilot:  DD Service 
 DEFF.%                  92.00:  % Det Eff 
 DLRX.∞/30m               1.00:  Dogleg Rot Max 
 DLSO.∞/30m               1.00:  Dogleg Oriented 
 DLSX.∞/30m               1.42:  Dogleg Str Max 
 DRET.      15.50.00 07-Aug-20:  Drill End Time 
 DRST.      10.40.00 06-Aug-20:  Drill Start Tim 
 DTIM.hr                 21.30:  Time Drilling 
 EDEP.m                5200.01:  End Depth 
 ENG1.            Alan Tuganov:  Engineer 1 
 ENG2.         Almaz Almadatov:  Engineer 2 
 ENG3.     Zammelal Abdullah Sani:  Engineer 3 
 ETIM.      22.42.00 08-Aug-20:  End Time 
 FLOI.gpm               395.00:  Flow In 
 FLON.gpm               350.00:  Flow In Min 
 FLOS.cptm                0.00:  Fluid Loss 
 FLOX.gpm               404.00:  Flow In Max 
 FTRO.       Formation Presure:  FTWD Run Obj 
 HFLO.                      No:  High Flow 
 HPRE.                      No:  High Pressure 
 HTEM.                      No:  High Temp 
 HYDO.m                   1.80:  Hydro Offset 
 IFIN.deg                72.64:  Inc, Final 
 IMAX.deg                73.68:  Inc Max 
 IMIN.deg                72.64:  Inc Min 
 IMND.m                5189.69:  Inc Min Depth 
 IMXD.m                5067.88:  Inc Max Depth 
 JARR.                      No:  Jarring 
 LETM.      15.50.00 07-Aug-20:  Log End Time 
 LOST.hr                     0:  Lost Rig Time 
 LSTM.      10.40.00 06-Aug-20:  Log Start Time 
 MDCL.ppm             36000.00:  Mud Chlorides 
 MDES.     Inversion Oil/Synthetic:  Mud Desc 
 DFD .sg                  1.36:  Mud Density 
 MDMN.sg                  1.36:  Dens Mud Min 
 MDMX.sg                  1.36:  Dens Mud Max 
 MOIL.                      70:  Run Mud Oil % 
 MOWR.                   70:30:  Run Mud OWR 
 MSND.                    0.00:  Run Mud Sand % 
 MSOL.                   17.60:  Run Mud Solids% 
 DFV .spqt               73.00:  Mud Viscosity 
 MWOD.in                  4.75:  MWD Tool OD 
 MWSI.                      No:  Serv Intrp, MWD 
 OTIM.hr                 85.66:  Time Operating 
 PCON.           Look Like New:  Pad Condition 
 PMAX.psia             6250.00:  Press Op, Max 
 PV  .cP                 65.00:  Mud PV 
 RUN .                     900:  Run Number 
 ROPA.m/hr               11.40:  ROP Avg 
 ROPN.m/hr                5.00:  ROP Min 
 ROPX.m/hr               20.00:  ROP Max 
 RPMA.rpm               130.00:  RPM Surface Avg 
 RPMN.rpm                40.00:  RPM Surface Min 
 RPMX.rpm               140.00:  RPM Surface Max 
 RRUN.                    L205:  Rig Run Number 
 RTIM.hr                  1.00:  Time Reaming 
 SAZI.deg               313.52:  Azm, Start 
 SDEP.m                4957.01:  Start Depth 
 SIDD.                      No:  Serv Intrp, DD 
 SINC.deg                73.16:  Inc, Start 
 SPPA.psig             5657.00:  SPP Avg 
 SPPN.psig             2500.00:  SPP Min 
 SPPX.psig             5806.00:  SPP Max 
 STIM.      07.12.00 05-Aug-20:  Start Time 
 SVCS.                 DD, MWD:  Services 
 SVER.                    9.20:  Sperry Version 
 TDAT.m                 243.00:  Tot Depth Attmp 
 TDDF.                      No:  Trip for DD 
 TDLG.m                 243.00:  Tot Depth Loggd 
 TFF .                      No:  Trip for Fail 
 TQAA.f-kp               13.00:  Torque Abs Avg 
 TQAN.f-kp               11.00:  Torque Abs Min 
 TQAX.f-kp               16.00:  Torque Abs Max 
 TRRT.∞/30m               1.00:  Turn Rotating 
 MRT .                    HCIM:  Maximum Recorded Temperature 
 TTMX.degC               96.08:  Max Tool Temp 
 VS01.                90515411:  Virtual Str1 SN 
 VS02.                90512716:  Virtual Str2 SN 
 VS03.                90522362:  Virtual Str3 SN 
 VS04.                90619415:  Virtual Str4 SN 
 VS05.                90619414:  Virtual Str5 SN 
 VS06.                90597748:  Virtual Str6 SN 
 WBMN.klb                 2.00:  WOB Min 
 WITN.           Adil Mammadov:  Customer Rep 
 WITN.     Alexander Yadullayev:  Customer Rep 2 
 WOBA.klb                 7.00:  WOB Avg 
 WOBX.klb                23.00:  WOB Max 
 YP  .lhf2               37.00:  Yield Point 
~Curve Information Block
#MNEM.UNIT                 API CODE     Curve Description
#---------               -----------    ---------------------------
 TIME.HHMMSS            00 000 000 000:  GT Time & Date
 GTDEPTH.m              00 000 000 000:  GT Depth
 GTPQH.psia             00 000 000 000:  GT HR Quartz Pressure
 GTTQ.degC              00 000 000 000:  GT Quartz Temperature
 GTTN.NONE              00 000 000 000:  GT Test Number
 GTET.sec               00 000 000 000:  GT Elapsed Test Time
 GTTVD.m                00 000 000 000:  GT True Vertical Depth
#Other Information
#
#WARRANTY: Halliburton will use its best efforts to furnish customers with 
#accurate information and interpretations that are part of, and incident to, the services 
#provided.  However, Halliburton cannot and does not warrant the accuracy 
#or correctness of such information and interpretations.  Under no circumstances should any 
#such information or interpretation be relied upon as the sole basis for any drilling, 
#completion, production, or financial decision or any procedure involving any risk to the 
#safety of any drilling venture, drilling rig or its crew or any other third party.  The 
#Customer has full responsibility for all drilling, completion and production operation.  
#Halliburton makes no representations or warranties, either expressed or 
#implied, including, but not limited to, the implied warranties of merchantability or fitness 
#for a particular purpose, with respect to the services rendered.  In no event will 
#Halliburton be liable for failure to obtain any particular results or for 
#any damages, including, but not limited to, indirect, special or consequential damages, 
#resulting from the use of any information or interpretation provided by Halliburton.
#
~A           TIME           GTDEPTH  GTPQH  GTTQ  GTTN  GTET   GTTVD  
# ...
   09:28:19.457.07-Aug-2020 5109.01 3406.40 86.18 9.00 390.88 2677.54
   09:28:19.657.07-Aug-2020 5109.01 3406.40 86.18 9.00 391.08 2677.54
   09:28:19.857.07-Aug-2020 5109.01 3406.39 86.18 9.00 391.28 2677.54
   09:28:20.057.07-Aug-2020 5109.01 3406.39 86.18 9.00 391.48 2677.54
   09:28:20.257.07-Aug-2020 5109.01 3406.25 86.18 9.00 391.68 2677.54
   09:28:20.457.07-Aug-2020 5109.01 3406.48 86.18 9.00 391.88 2677.54
   09:28:20.657.07-Aug-2020 5109.01 3406.48 86.18 9.00 392.08 2677.54
   09:28:20.856.07-Aug-2020 5109.01 3406.36 86.18 9.00 392.28 2677.54
   09:28:21.056.07-Aug-2020 5109.01 3406.42 86.18 9.00 392.48 2677.54
   09:28:21.256.07-Aug-2020 5109.01 3406.41 86.18 9.00 392.68 2677.54
   09:28:21.456.07-Aug-2020 5109.01 3406.39 86.18 9.00 392.88 2677.54
   09:28:21.656.07-Aug-2020 5109.01 3406.39 86.18 9.00 393.08 2677.54
   09:28:21.856.07-Aug-2020 5109.01 3406.39 86.18 9.00 393.28 2677.54
   09:28:22.056.07-Aug-2020 5109.01 3406.39 86.18 9.00 393.48 2677.54
   09:28:22.256.07-Aug-2020 5109.01 3406.39 86.18 9.00 393.68 2677.54
   09:28:22.456.07-Aug-2020 5109.01 3406.39 86.18 9.00 393.88 2677.54
   09:28:22.656.07-Aug-2020 5109.01 3406.39 86.18 9.00 394.08 2677.54
   09:28:22.856.07-Aug-2020 5109.01 3406.38 86.18 9.00 394.28 2677.54
   09:28:23.056.07-Aug-2020 5109.01 3406.32 86.18 9.00 394.48 2677.54
   09:28:23.256.07-Aug-2020 5109.01 3406.42 86.18 9.00 394.68 2677.54
   09:28:23.456.07-Aug-2020 5109.01 3406.38 86.18 9.00 394.88 2677.54
   09:28:23.656.07-Aug-2020 5109.01 3406.38 86.18 9.00 395.08 2677.54
   09:28:23.856.07-Aug-2020 5109.01 3406.33 86.17 9.00 395.28 2677.54
   09:28:24.056.07-Aug-2020 5109.01 3406.41 86.17 9.00 395.48 2677.54
   09:28:24.255.07-Aug-2020 5109.01 3406.40 86.17 9.00 395.68 2677.54
   09:28:24.455.07-Aug-2020 5109.01 3406.39 86.17 9.00 395.88 2677.54
   09:28:24.655.07-Aug-2020 5109.01 3406.39 86.17 9.00 396.08 2677.54
   09:28:24.855.07-Aug-2020 5109.01 3406.31 86.17 9.00 396.28 2677.54
   09:28:25.055.07-Aug-2020 5109.01 3406.42 86.17 9.00 396.48 2677.54
   09:28:25.255.07-Aug-2020 5109.01 3406.43 86.17 9.00 396.68 2677.54
   09:28:25.455.07-Aug-2020 5109.01 3406.36 86.17 9.00 396.88 2677.54
   09:28:25.655.07-Aug-2020 5109.01 3406.36 86.17 9.00 397.08 2677.54
   09:28:25.855.07-Aug-2020 5109.01 3406.42 86.17 9.00 397.28 2677.54
   09:28:26.055.07-Aug-2020 5109.01 3406.23 86.17 9.00 397.48 2677.54
   09:28:26.255.07-Aug-2020 5109.01 3406.48 86.17 9.00 397.68 2677.54
   09:28:26.455.07-Aug-2020 5109.01 3406.44 86.17 9.00 397.88 2677.54
   09:28:26.655.07-Aug-2020 5109.01 3406.44 86.17 9.00 398.08 2677.54
   09:28:26.855.07-Aug-2020 5109.01 3406.41 86.17 9.00 398.28 2677.54
   09:28:27.055.07-Aug-2020 5109.01 3406.40 86.17 9.00 398.48 2677.54
   09:28:27.255.07-Aug-2020 5109.01 3406.38 86.17 9.00 398.68 2677.54
   09:28:27.454.07-Aug-2020 5109.01 3406.40 86.17 9.00 398.88 2677.54
   09:28:27.654.07-Aug-2020 5109.01 3406.40 86.17 9.00 399.08 2677.54
   09:28:27.854.07-Aug-2020 5109.01 3406.38 86.17 9.00 399.28 2677.54
   09:28:28.054.07-Aug-2020 5109.01 3406.40 86.17 9.00 399.48 2677.54
   09:28:28.254.07-Aug-2020 5109.01 3406.40 86.17 9.00 399.68 2677.54
   09:28:28.454.07-Aug-2020 5109.01 3406.38 86.17 9.00 399.88 2677.54
   09:28:28.654.07-Aug-2020 5109.01 3406.38 86.17 9.00 400.08 2677.54
   09:28:28.854.07-Aug-2020 5109.01 3406.40 86.17 9.00 400.28 2677.54
   09:28:29.054.07-Aug-2020 5109.01 3406.39 86.17 9.00 400.48 2677.54
   09:28:29.254.07-Aug-2020 5109.01 3406.37 86.17 9.00 400.68 2677.54
   09:28:29.454.07-Aug-2020 5109.01 3406.41 86.17 9.00 400.88 2677.54
   09:28:29.654.07-Aug-2020 5109.01 3406.40 86.17 9.00 401.08 2677.54
   09:28:29.854.07-Aug-2020 5109.01 3406.39 86.17 9.00 401.28 2677.54
   09:28:30.054.07-Aug-2020 5109.01 3406.38 86.17 9.00 401.48 2677.54
   09:28:30.254.07-Aug-2020 5109.01 3406.41 86.17 9.00 401.68 2677.54
   09:28:30.454.07-Aug-2020 5109.01 3406.39 86.17 9.00 401.88 2677.54
   09:28:30.654.07-Aug-2020 5109.01 3406.39 86.17 9.00 402.08 2677.54
   09:28:30.853.07-Aug-2020 5109.01 3406.39 86.17 9.00 402.28 2677.54
   09:28:31.053.07-Aug-2020 5109.01 3406.40 86.16 9.00 402.48 2677.54
   09:28:31.253.07-Aug-2020 5109.01 3406.39 86.16 9.00 402.68 2677.54
   09:28:31.453.07-Aug-2020 5109.01 3406.26 86.16 9.00 402.88 2677.54
   09:28:31.653.07-Aug-2020 5109.01 3406.26 86.16 9.00 403.08 2677.54
   09:28:31.853.07-Aug-2020 5109.01 3406.43 86.16 9.00 403.28 2677.54
   09:28:32.053.07-Aug-2020 5109.01 3406.34 86.16 9.00 403.48 2677.54
   09:28:32.253.07-Aug-2020 5109.01 3406.33 86.16 9.00 403.68 2677.54
   09:28:32.453.07-Aug-2020 5109.01 3406.43 86.16 9.00 403.88 2677.54
   09:28:32.653.07-Aug-2020 5109.01 3406.43 86.16 9.00 404.08 2677.54
   09:28:32.853.07-Aug-2020 5109.01 3406.35 86.16 9.00 404.28 2677.54
   09:28:33.053.07-Aug-2020 5109.01 3406.43 86.16 9.00 404.48 2677.54
   09:28:33.253.07-Aug-2020 5109.01 3406.40 86.16 9.00 404.68 2677.54
   09:28:33.453.07-Aug-2020 5109.01 3406.31 86.16 9.00 404.88 2677.54
   09:28:33.653.07-Aug-2020 5109.01 3406.43 86.16 9.00 405.08 2677.54
   09:28:33.853.07-Aug-2020 5109.01 3406.40 86.16 9.00 405.28 2677.54
   09:28:34.052.07-Aug-2020 5109.01 3406.39 86.16 9.00 405.48 2677.54
   09:28:34.252.07-Aug-2020 5109.01 3406.41 86.16 9.00 405.68 2677.54
   09:28:34.452.07-Aug-2020 5109.01 3406.34 86.16 9.00 405.88 2677.54
   09:28:34.652.07-Aug-2020 5109.01 3406.34 86.16 9.00 406.08 2677.54
   09:28:34.852.07-Aug-2020 5109.01 3406.41 86.16 9.00 406.28 2677.54
   09:28:35.052.07-Aug-2020 5109.01 3406.36 86.16 9.00 406.48 2677.54
   09:28:35.252.07-Aug-2020 5109.01 3406.40 86.16 9.00 406.68 2677.54
   09:28:35.452.07-Aug-2020 5109.01 3406.41 86.16 9.00 406.88 2677.54
   09:28:35.652.07-Aug-2020 5109.01 3406.41 86.16 9.00 407.08 2677.54
   09:28:35.852.07-Aug-2020 5109.01 3406.39 86.16 9.00 407.28 2677.54
   09:28:36.052.07-Aug-2020 5109.01 3406.40 86.16 9.00 407.48 2677.54
   09:28:36.252.07-Aug-2020 5109.01 3406.38 86.16 9.00 407.68 2677.54
   09:28:36.452.07-Aug-2020 5109.01 3406.38 86.16 9.00 407.88 2677.54
   09:28:36.652.07-Aug-2020 5109.01 3406.38 86.16 9.00 408.08 2677.54
   09:28:36.852.07-Aug-2020 5109.01 3406.38 86.16 9.00 408.28 2677.54
   09:28:37.052.07-Aug-2020 5109.01 3406.38 86.16 9.00 408.48 2677.54
   09:28:37.252.07-Aug-2020 5109.01 3406.22 86.16 9.00 408.68 2677.54
   09:28:37.451.07-Aug-2020 5109.01 3406.47 86.16 9.00 408.88 2677.54
   09:28:37.651.07-Aug-2020 5109.01 3406.43 86.16 9.00 409.08 2677.54
   09:28:37.851.07-Aug-2020 5109.01 3406.35 86.16 9.00 409.28 2677.54
   09:28:38.051.07-Aug-2020 5109.01 3406.38 86.16 9.00 409.48 2677.54
   09:28:38.251.07-Aug-2020 5109.01 3406.40 86.16 9.00 409.68 2677.54
   09:28:38.451.07-Aug-2020 5109.01 3406.37 86.15 9.00 409.88 2677.54
   09:28:38.651.07-Aug-2020 5109.01 3406.37 86.15 9.00 410.08 2677.54
   09:28:38.851.07-Aug-2020 5109.01 3406.39 86.15 9.00 410.28 2677.54
   09:28:39.051.07-Aug-2020 5109.01 3406.38 86.15 9.00 410.48 2677.54
   09:28:39.251.07-Aug-2020 5109.01 3406.38 86.15 9.00 410.68 2677.54
   09:28:39.451.07-Aug-2020 5109.01 3406.38 86.15 9.00 410.88 2677.54
   09:28:39.651.07-Aug-2020 5109.01 3406.38 86.15 9.00 411.08 2677.54
   09:28:39.851.07-Aug-2020 5109.01 3406.37 86.15 9.00 411.28 2677.54
   09:28:40.051.07-Aug-2020 5109.01 3406.29 86.15 9.00 411.48 2677.54
   09:28:40.251.07-Aug-2020 5109.01 3406.40 86.15 9.00 411.68 2677.54
   09:28:40.451.07-Aug-2020 5109.01 3406.37 86.15 9.00 411.88 2677.54
   09:28:40.651.07-Aug-2020 5109.01 3406.37 86.15 9.00 412.08 2677.54
   09:28:40.850.07-Aug-2020 5109.01 3406.32 86.15 9.00 412.28 2677.54
   09:28:41.050.07-Aug-2020 5109.01 3406.39 86.15 9.00 412.48 2677.54
   09:28:41.250.07-Aug-2020 5109.01 3406.38 86.15 9.00 412.68 2677.54
   09:28:41.450.07-Aug-2020 5109.01 3406.38 86.15 9.00 412.88 2677.54
   09:28:41.650.07-Aug-2020 5109.01 3406.39 86.15 9.00 413.08 2677.54
   09:28:41.850.07-Aug-2020 5109.01 3406.29 86.15 9.00 413.28 2677.54
   09:28:42.050.07-Aug-2020 5109.01 3406.42 86.15 9.00 413.48 2677.54
   09:28:42.250.07-Aug-2020 5109.01 3406.41 86.15 9.00 413.68 2677.54
