~Version Information
 VERS.                  2.0:   CWLS log ASCII Standard -VERSION 2.0
 WRAP.                   NO:   One line per depth step
~Well Information Block
#MNEM.UNIT     VALUE/NAME     DESCRIPTION
#---------     -----------    ---------------------------
 STRT.S             03:58:24 07-Aug-20: START TIME 03:58:24 07-Aug-20
 STOP.S             04:06:16 07-Aug-20: STOP TIME  04:06:16 07-Aug-20
 STEP.S                   0.00: STEP TIME
 NULL.                 -999.25: NULL VALUE
 DFWT.                        :  DIST FWL TEXT
 DFST.                        :  DIST FSL TEXT
 DMF .             Drill Floor:  DRILL MEAS FROM
 STIM.      12.00.00 03-Jul-20:  START TIME
 DATE.      00.50.00 09-Aug-20:  END TIME
 SPUD.               03-Jul-20:  SPUD DATE
 NREF.                    Grid:  NORTH REFERENCE
 HPTY.       Minimum Curvature:  HOLE POS TYPE
 DMOD.             Drill Model:  DRILL MOD DESC
 SVYD.                  Survey:  SURVEY DESC
 ILTD.               Lithology:  INTERP LTH DESC
 FTOP.          Formation Tops:  FORM TOPS DESC
 PDAT.          Mean Sea Level:  PERMANENT DATUM
 FLD .                     ACG:  FIELD NAME
 CTRY.              Azerbaijan:  COUNTRY NAME
 WELL.                    E04x:  WELL NAME
 SRVC.          Turan Drilling:  CONTRACTOR
 COMP.     BP Exploration (Caspian Sea) Ltd.:  COMPANY
 SON .        AZ-XX-0906531346:  JOB NUMBER
 WTYP.                Deviated:  WELL TYPE
 MDS .        Operator Entered:  MAG DATA SOURCE
 UWI .                     N/A:  UNIQUE WELL IDENTIFIER
 API .                     N/A:  API NUMBER
 BASE.              Azerbaijan:  LOGGING EQUIPMENT BASE LOCATION
 REGN.                   EESSA:  REGION
 PROV.                    Baku:  PROVINCE
 STAT.                    Baku:  STATE NAME
 MWDS.                    Baku:  MWD SHOP
 JOBN.        AZ-XX-0906531346:  JOB TICKET NUMB
 RIG .                     DWG:  RIG NAME
 DOE .                     N/A:  DOE NUMBER
 DCON.         Sperry Drilling:  DIRECTNL CONTR
 UNIT.                     N/A:  LOGGING EQUIPMENT ID
 CNTY.                        :  COUNTY
 LOC .                        :  LOCATION
 LMF .             Drill Floor:  LOG MEASURED FROM
 TVDS.m                  43.16:  TVDSS CORRECTN
 LATI.deg                40.17:  LATITUDE
 LONG.deg                51.17:  LONGITUDE
 WHNS.m                  -0.12:  WELL HEAD N/S
 WHEW.m                  -5.41:  WELL HEAD E/W
 UTMX.m              514337.95:  UTM X
 UTMY.m             4448627.46:  UTM Y
 DFWL.m                   0.00:  DISTANCE FWL
 DFSL.m                   0.00:  DISTANCE FSL
 SDEP.m                3088.01:  START DEPTH
 TDD .m                5200.01:  TOTAL DEPTH (DRILLER)
 VSDR.deg               244.51:  VERT SEC DIRECT
 GVFD.g                   1.00:  GRAVITY FIELD
 MFLD.nT              50329.80:  MAGNETIC FIELD
 MDIP.deg                59.63:  MAGNETIC DIP
 MDEC.deg                 6.59:  MAGNETIC DECL
 GRDC.deg                 0.09:  GRID CORRECTION
 AZTC.deg                 6.50:  AZM TOTAL CORR
 EPD .m                   0.00:  ELEVATION
 EGL .m                   0.00:  GROUND ELEVATION
 WDMS.m                 176.20:  WD ELEV
 APD .m                  43.16:  DEPTH ABOVE PD
 DEP .m                3084.71:  DEPTH
 AGAP.m                  43.16:  AIR GAP
 VSEW.m                  -5.41:  VERT SEC E/W
 VSNS.m                  -0.12:  VERT SEC N/S
 EKB .m                   0.00:  KB ELEVATION
 EDF .m                  43.16:  DF ELEVATION
 TDL .m                 243.00:  TOTAL DEPTH (LOGGER)
 VSC .                       0:  VS TO CLOSURE
 MAGU.                 1853542:  MAGUTM CHECKSUM
~Parameter Information Block
#MNEM.UNIT       Value        Description
#---------     -----------    ---------------------------
 AV  .mps                 1.91:  Ann Velocity 
 AVMX.mps                 2.52:  Max Ann Veloc 
 AZIF.deg               308.97:  Azm, Final 
 BHAT.        Rotary Steerable:  BHA Type 
 BROT.°/30m               1.00:  Build Rotating 
 BS  .in                  6.50:  Bit Size 
 BSZ .in                  6.50:  Bit Size 
 BTPL.psig              350.00:  Bit Press Loss 
 CABU.                      No:  Customer Abuse 
 CGEO.           Asif Pashayev:  Customer Geo 
 TCS .hr                 35.86:  Time Ciculation Ended 
 CV  .mps                 2.31:  Crit Velocity 
 CVMX.mps                 2.31:  Max Crit Veloc 
 DD1 .         Intigam Rahimov:  Direct Drillr 1 
 DDSV.               Geo-Pilot:  DD Service 
 DEFF.%                  92.00:  % Det Eff 
 DLRX.°/30m               1.00:  Dogleg Rot Max 
 DLSO.°/30m               1.00:  Dogleg Oriented 
 DLSX.°/30m               1.42:  Dogleg Str Max 
 DRET.      15.50.00 07-Aug-20:  Drill End Time 
 DRST.      10.40.00 06-Aug-20:  Drill Start Tim 
 DTIM.hr                 21.30:  Time Drilling 
 EDEP.m                5200.01:  End Depth 
 ENG1.            Alan Tuganov:  Engineer 1 
 ENG2.         Almaz Almadatov:  Engineer 2 
 ENG3.     Zammelal Abdullah Sani:  Engineer 3 
 ETIM.      22.42.00 08-Aug-20:  End Time 
 FLOI.gpm               395.00:  Flow In 
 FLON.gpm               350.00:  Flow In Min 
 FLOS.cptm                0.00:  Fluid Loss 
 FLOX.gpm               404.00:  Flow In Max 
 FTRO.       Formation Presure:  FTWD Run Obj 
 HFLO.                      No:  High Flow 
 HPRE.                      No:  High Pressure 
 HTEM.                      No:  High Temp 
 HYDO.m                   1.80:  Hydro Offset 
 IFIN.deg                72.64:  Inc, Final 
 IMAX.deg                73.68:  Inc Max 
 IMIN.deg                72.64:  Inc Min 
 IMND.m                5189.69:  Inc Min Depth 
 IMXD.m                5067.88:  Inc Max Depth 
 JARR.                      No:  Jarring 
 LETM.      15.50.00 07-Aug-20:  Log End Time 
 LOST.hr                     0:  Lost Rig Time 
 LSTM.      10.40.00 06-Aug-20:  Log Start Time 
 MDCL.ppm             36000.00:  Mud Chlorides 
 MDES.     Inversion Oil/Synthetic:  Mud Desc 
 DFD .sg                  1.36:  Mud Density 
 MDMN.sg                  1.36:  Dens Mud Min 
 MDMX.sg                  1.36:  Dens Mud Max 
 MOIL.                      70:  Run Mud Oil % 
 MOWR.                   70:30:  Run Mud OWR 
 MSND.                    0.00:  Run Mud Sand % 
 MSOL.                   17.60:  Run Mud Solids% 
 DFV .spqt               73.00:  Mud Viscosity 
 MWOD.in                  4.75:  MWD Tool OD 
 MWSI.                      No:  Serv Intrp, MWD 
 OTIM.hr                 85.66:  Time Operating 
 PCON.           Look Like New:  Pad Condition 
 PMAX.psia             6250.00:  Press Op, Max 
 PV  .cP                 65.00:  Mud PV 
 RUN .                     900:  Run Number 
 ROPA.m/hr               11.40:  ROP Avg 
 ROPN.m/hr                5.00:  ROP Min 
 ROPX.m/hr               20.00:  ROP Max 
 RPMA.rpm               130.00:  RPM Surface Avg 
 RPMN.rpm                40.00:  RPM Surface Min 
 RPMX.rpm               140.00:  RPM Surface Max 
 RRUN.                    L205:  Rig Run Number 
 RTIM.hr                  1.00:  Time Reaming 
 SAZI.deg               313.52:  Azm, Start 
 SDEP.m                4957.01:  Start Depth 
 SIDD.                      No:  Serv Intrp, DD 
 SINC.deg                73.16:  Inc, Start 
 SPPA.psig             5657.00:  SPP Avg 
 SPPN.psig             2500.00:  SPP Min 
 SPPX.psig             5806.00:  SPP Max 
 STIM.      07.12.00 05-Aug-20:  Start Time 
 SVCS.                 DD, MWD:  Services 
 SVER.                    9.20:  Sperry Version 
 TDAT.m                 243.00:  Tot Depth Attmp 
 TDDF.                      No:  Trip for DD 
 TDLG.m                 243.00:  Tot Depth Loggd 
 TFF .                      No:  Trip for Fail 
 TQAA.f-kp               13.00:  Torque Abs Avg 
 TQAN.f-kp               11.00:  Torque Abs Min 
 TQAX.f-kp               16.00:  Torque Abs Max 
 TRRT.°/30m               1.00:  Turn Rotating 
 MRT .                    HCIM:  Maximum Recorded Temperature 
 TTMX.degC               96.08:  Max Tool Temp 
 VS01.                90515411:  Virtual Str1 SN 
 VS02.                90512716:  Virtual Str2 SN 
 VS03.                90522362:  Virtual Str3 SN 
 VS04.                90619415:  Virtual Str4 SN 
 VS05.                90619414:  Virtual Str5 SN 
 VS06.                90597748:  Virtual Str6 SN 
 WBMN.klb                 2.00:  WOB Min 
 WITN.           Adil Mammadov:  Customer Rep 
 WITN.     Alexander Yadullayev:  Customer Rep 2 
 WOBA.klb                 7.00:  WOB Avg 
 WOBX.klb                23.00:  WOB Max 
 YP  .lhf2               37.00:  Yield Point 
~Curve Information Block
#MNEM.UNIT                 API CODE     Curve Description
#---------               -----------    ---------------------------
 TIME.HHMMSS            00 000 000 000:  GT Time & Date
 GTDEPTH.m              00 000 000 000:  GT Depth
 GTPQH.psia             00 000 000 000:  GT HR Quartz Pressure
 GTTQ.degC              00 000 000 000:  GT Quartz Temperature
 GTTN.NONE              00 000 000 000:  GT Test Number
 GTET.sec               00 000 000 000:  GT Elapsed Test Time
 GTTVD.m                00 000 000 000:  GT True Vertical Depth
#Other Information
#
#WARRANTY: Halliburton will use its best efforts to furnish customers with 
#accurate information and interpretations that are part of, and incident to, the services 
#provided.  However, Halliburton cannot and does not warrant the accuracy 
#or correctness of such information and interpretations.  Under no circumstances should any 
#such information or interpretation be relied upon as the sole basis for any drilling, 
#completion, production, or financial decision or any procedure involving any risk to the 
#safety of any drilling venture, drilling rig or its crew or any other third party.  The 
#Customer has full responsibility for all drilling, completion and production operation.  
#Halliburton makes no representations or warranties, either expressed or 
#implied, including, but not limited to, the implied warranties of merchantability or fitness 
#for a particular purpose, with respect to the services rendered.  In no event will 
#Halliburton be liable for failure to obtain any particular results or for 
#any damages, including, but not limited to, indirect, special or consequential damages, 
#resulting from the use of any information or interpretation provided by Halliburton.
#
~A           TIME           GTDEPTH  GTPQH  GTTQ  GTTN  GTET   GTTVD  
# ...
   04:04:55.368.07-Aug-2020 5060.51 3684.02 87.05 7.00 391.09 2663.65
   04:04:55.568.07-Aug-2020 5060.51 3684.02 87.05 7.00 391.29 2663.65
   04:04:55.768.07-Aug-2020 5060.51 3684.08 87.05 7.00 391.49 2663.65
   04:04:55.968.07-Aug-2020 5060.51 3684.01 87.05 7.00 391.69 2663.65
   04:04:56.168.07-Aug-2020 5060.51 3684.04 87.05 7.00 391.89 2663.65
   04:04:56.368.07-Aug-2020 5060.51 3684.04 87.04 7.00 392.09 2663.65
   04:04:56.568.07-Aug-2020 5060.51 3684.04 87.04 7.00 392.29 2663.65
   04:04:56.768.07-Aug-2020 5060.51 3684.03 87.04 7.00 392.49 2663.65
   04:04:56.968.07-Aug-2020 5060.51 3684.02 87.04 7.00 392.69 2663.65
   04:04:57.168.07-Aug-2020 5060.51 3684.02 87.04 7.00 392.89 2663.65
   04:04:57.368.07-Aug-2020 5060.51 3684.01 87.04 7.00 393.09 2663.65
   04:04:57.569.07-Aug-2020 5060.51 3684.01 87.04 7.00 393.29 2663.65
   04:04:57.769.07-Aug-2020 5060.51 3684.01 87.04 7.00 393.49 2663.65
   04:04:57.969.07-Aug-2020 5060.51 3684.00 87.04 7.00 393.69 2663.65
   04:04:58.169.07-Aug-2020 5060.51 3683.99 87.04 7.00 393.89 2663.65
   04:04:58.369.07-Aug-2020 5060.51 3683.97 87.04 7.00 394.09 2663.65
   04:04:58.569.07-Aug-2020 5060.51 3683.97 87.04 7.00 394.29 2663.65
   04:04:58.769.07-Aug-2020 5060.51 3684.00 87.04 7.00 394.49 2663.65
   04:04:58.969.07-Aug-2020 5060.51 3684.04 87.04 7.00 394.69 2663.65
   04:04:59.169.07-Aug-2020 5060.51 3683.92 87.04 7.00 394.89 2663.65
   04:04:59.369.07-Aug-2020 5060.51 3684.09 87.04 7.00 395.09 2663.65
   04:04:59.569.07-Aug-2020 5060.51 3684.09 87.04 7.00 395.29 2663.65
   04:04:59.769.07-Aug-2020 5060.51 3684.04 87.04 7.00 395.49 2663.65
   04:04:59.969.07-Aug-2020 5060.51 3684.03 87.04 7.00 395.69 2663.65
   04:05:00.169.07-Aug-2020 5060.51 3683.97 87.04 7.00 395.89 2663.65
   04:05:00.369.07-Aug-2020 5060.51 3684.05 87.04 7.00 396.09 2663.65
   04:05:00.569.07-Aug-2020 5060.51 3684.05 87.04 7.00 396.29 2663.65
   04:05:00.769.07-Aug-2020 5060.51 3684.03 87.04 7.00 396.49 2663.65
   04:05:00.969.07-Aug-2020 5060.51 3684.05 87.03 7.00 396.69 2663.65
   04:05:01.169.07-Aug-2020 5060.51 3684.01 87.03 7.00 396.89 2663.65
   04:05:01.369.07-Aug-2020 5060.51 3684.03 87.03 7.00 397.09 2663.65
   04:05:01.569.07-Aug-2020 5060.51 3684.03 87.03 7.00 397.29 2663.65
   04:05:01.770.07-Aug-2020 5060.51 3684.11 87.03 7.00 397.49 2663.65
   04:05:01.970.07-Aug-2020 5060.51 3684.02 87.03 7.00 397.69 2663.65
   04:05:02.170.07-Aug-2020 5060.51 3684.05 87.03 7.00 397.89 2663.65
   04:05:02.370.07-Aug-2020 5060.51 3684.03 87.03 7.00 398.09 2663.65
   04:05:02.570.07-Aug-2020 5060.51 3684.03 87.03 7.00 398.29 2663.65
   04:05:02.770.07-Aug-2020 5060.51 3684.01 87.03 7.00 398.49 2663.65
   04:05:02.970.07-Aug-2020 5060.51 3684.02 87.03 7.00 398.69 2663.65
   04:05:03.170.07-Aug-2020 5060.51 3684.02 87.03 7.00 398.89 2663.65
   04:05:03.370.07-Aug-2020 5060.51 3684.02 87.03 7.00 399.09 2663.65
   04:05:03.570.07-Aug-2020 5060.51 3684.02 87.03 7.00 399.29 2663.65
   04:05:03.770.07-Aug-2020 5060.51 3684.01 87.03 7.00 399.49 2663.65
   04:05:03.970.07-Aug-2020 5060.51 3683.99 87.03 7.00 399.69 2663.65
   04:05:04.170.07-Aug-2020 5060.51 3684.00 87.03 7.00 399.89 2663.65
   04:05:04.370.07-Aug-2020 5060.51 3683.96 87.03 7.00 400.09 2663.65
   04:05:04.570.07-Aug-2020 5060.51 3683.96 87.03 7.00 400.29 2663.65
   04:05:04.770.07-Aug-2020 5060.51 3683.98 87.03 7.00 400.49 2663.65
   04:05:04.970.07-Aug-2020 5060.51 3684.04 87.03 7.00 400.69 2663.65
   04:05:05.170.07-Aug-2020 5060.51 3684.02 87.03 7.00 400.89 2663.65
   04:05:05.370.07-Aug-2020 5060.51 3684.02 87.03 7.00 401.09 2663.65
   04:05:05.570.07-Aug-2020 5060.51 3684.02 87.03 7.00 401.29 2663.65
   04:05:05.770.07-Aug-2020 5060.51 3684.01 87.02 7.00 401.49 2663.65
   04:05:05.970.07-Aug-2020 5060.51 3684.01 87.02 7.00 401.69 2663.65
   04:05:06.171.07-Aug-2020 5060.51 3684.01 87.02 7.00 401.89 2663.65
   04:05:06.371.07-Aug-2020 5060.51 3684.00 87.02 7.00 402.09 2663.65
   04:05:06.571.07-Aug-2020 5060.51 3684.00 87.02 7.00 402.29 2663.65
   04:05:06.771.07-Aug-2020 5060.51 3684.00 87.02 7.00 402.49 2663.65
   04:05:06.971.07-Aug-2020 5060.51 3683.89 87.02 7.00 402.69 2663.65
   04:05:07.171.07-Aug-2020 5060.51 3684.08 87.02 7.00 402.89 2663.65
   04:05:07.371.07-Aug-2020 5060.51 3684.01 87.02 7.00 403.09 2663.65
   04:05:07.571.07-Aug-2020 5060.51 3684.01 87.02 7.00 403.29 2663.65
   04:05:07.771.07-Aug-2020 5060.51 3683.97 87.02 7.00 403.49 2663.65
   04:05:07.971.07-Aug-2020 5060.51 3684.03 87.02 7.00 403.70 2663.65
   04:05:08.171.07-Aug-2020 5060.51 3684.04 87.02 7.00 403.90 2663.65
   04:05:08.371.07-Aug-2020 5060.51 3684.00 87.02 7.00 404.10 2663.65
   04:05:08.571.07-Aug-2020 5060.51 3684.00 87.02 7.00 404.30 2663.65
   04:05:08.771.07-Aug-2020 5060.51 3684.02 87.02 7.00 404.50 2663.65
   04:05:08.971.07-Aug-2020 5060.51 3683.91 87.02 7.00 404.70 2663.65
   04:05:09.171.07-Aug-2020 5060.51 3684.11 87.02 7.00 404.90 2663.65
   04:05:09.371.07-Aug-2020 5060.51 3684.01 87.02 7.00 405.10 2663.65
   04:05:09.571.07-Aug-2020 5060.51 3684.01 87.02 7.00 405.30 2663.65
   04:05:09.771.07-Aug-2020 5060.51 3684.01 87.02 7.00 405.50 2663.65
   04:05:09.971.07-Aug-2020 5060.51 3684.02 87.01 7.00 405.70 2663.65
   04:05:10.171.07-Aug-2020 5060.51 3683.96 87.01 7.00 405.90 2663.65
   04:05:10.372.07-Aug-2020 5060.51 3684.03 87.01 7.00 406.10 2663.65
   04:05:10.572.07-Aug-2020 5060.51 3684.03 87.01 7.00 406.30 2663.65
   04:05:10.772.07-Aug-2020 5060.51 3684.01 87.01 7.00 406.50 2663.65
   04:05:10.972.07-Aug-2020 5060.51 3684.04 87.01 7.00 406.70 2663.65
   04:05:11.172.07-Aug-2020 5060.51 3684.02 87.01 7.00 406.90 2663.65
   04:05:11.372.07-Aug-2020 5060.51 3684.03 87.01 7.00 407.10 2663.65
   04:05:11.572.07-Aug-2020 5060.51 3684.03 87.01 7.00 407.30 2663.65
   04:05:11.772.07-Aug-2020 5060.51 3684.02 87.01 7.00 407.50 2663.65
   04:05:11.972.07-Aug-2020 5060.51 3684.00 87.01 7.00 407.70 2663.65
   04:05:12.172.07-Aug-2020 5060.51 3684.01 87.01 7.00 407.90 2663.65
   04:05:12.372.07-Aug-2020 5060.51 3684.00 87.01 7.00 408.10 2663.65
   04:05:12.572.07-Aug-2020 5060.51 3684.00 87.01 7.00 408.30 2663.65
   04:05:12.772.07-Aug-2020 5060.51 3683.99 87.01 7.00 408.50 2663.65
   04:05:12.972.07-Aug-2020 5060.51 3683.94 87.01 7.00 408.70 2663.65
   04:05:13.172.07-Aug-2020 5060.51 3684.05 87.01 7.00 408.90 2663.65
   04:05:13.372.07-Aug-2020 5060.51 3684.01 87.01 7.00 409.10 2663.65
   04:05:13.572.07-Aug-2020 5060.51 3684.01 87.01 7.00 409.30 2663.65
   04:05:13.772.07-Aug-2020 5060.51 3684.03 87.01 7.00 409.50 2663.65
   04:05:13.972.07-Aug-2020 5060.51 3684.00 87.01 7.00 409.70 2663.65
   04:05:14.172.07-Aug-2020 5060.51 3684.01 87.01 7.00 409.90 2663.65
   04:05:14.372.07-Aug-2020 5060.51 3684.01 87.01 7.00 410.10 2663.65
   04:05:14.573.07-Aug-2020 5060.51 3684.01 87.01 7.00 410.30 2663.65
   04:05:14.773.07-Aug-2020 5060.51 3683.99 87.00 7.00 410.50 2663.65
   04:05:14.973.07-Aug-2020 5060.51 3684.01 87.00 7.00 410.70 2663.65
   04:05:15.173.07-Aug-2020 5060.51 3684.00 87.00 7.00 410.90 2663.65
   04:05:15.373.07-Aug-2020 5060.51 3683.99 87.00 7.00 411.10 2663.65
   04:05:15.573.07-Aug-2020 5060.51 3683.99 87.00 7.00 411.30 2663.65
   04:05:15.773.07-Aug-2020 5060.51 3683.94 87.00 7.00 411.50 2663.65
   04:05:15.973.07-Aug-2020 5060.51 3684.03 87.00 7.00 411.70 2663.65
   04:05:16.173.07-Aug-2020 5060.51 3683.98 87.00 7.00 411.90 2663.65
   04:05:16.373.07-Aug-2020 5060.51 3684.03 87.00 7.00 412.10 2663.65
   04:05:16.573.07-Aug-2020 5060.51 3684.03 87.00 7.00 412.30 2663.65
   04:05:16.773.07-Aug-2020 5060.51 3684.09 87.00 7.00 412.50 2663.65
   04:05:16.973.07-Aug-2020 5060.51 3684.01 87.00 7.00 412.70 2663.65
   04:05:17.173.07-Aug-2020 5060.51 3684.03 87.00 7.00 412.90 2663.65
   04:05:17.373.07-Aug-2020 5060.51 3684.01 87.00 7.00 413.10 2663.65
   04:05:17.573.07-Aug-2020 5060.51 3684.01 87.00 7.00 413.30 2663.65
   04:05:17.773.07-Aug-2020 5060.51 3683.98 87.00 7.00 413.50 2663.65
   04:05:17.973.07-Aug-2020 5060.51 3684.06 87.00 7.00 413.70 2663.65
   04:05:18.173.07-Aug-2020 5060.51 3683.99 87.00 7.00 413.90 2663.65
