~Version Information
 VERS.                  2.0:   CWLS log ASCII Standard -VERSION 2.0
 WRAP.                   NO:   One line per depth step
~Well Information Block
#MNEM.UNIT     VALUE/NAME     DESCRIPTION
#---------     -----------    ---------------------------
 STRT.S             11:55:46 07-Aug-20: START TIME 11:55:46 07-Aug-20
 STOP.S             12:03:39 07-Aug-20: STOP TIME  12:03:39 07-Aug-20
 STEP.S                   0.00: STEP TIME
 NULL.                 -999.25: NULL VALUE
 DFWT.                        :  DIST FWL TEXT
 DFST.                        :  DIST FSL TEXT
 DMF .             Drill Floor:  DRILL MEAS FROM
 STIM.      12.00.00 03-Jul-20:  START TIME
 DATE.      00.50.00 09-Aug-20:  END TIME
 SPUD.               03-Jul-20:  SPUD DATE
 NREF.                    Grid:  NORTH REFERENCE
 HPTY.       Minimum Curvature:  HOLE POS TYPE
 DMOD.             Drill Model:  DRILL MOD DESC
 SVYD.                  Survey:  SURVEY DESC
 ILTD.               Lithology:  INTERP LTH DESC
 FTOP.          Formation Tops:  FORM TOPS DESC
 PDAT.          Mean Sea Level:  PERMANENT DATUM
 FLD .                     ACG:  FIELD NAME
 CTRY.              Azerbaijan:  COUNTRY NAME
 WELL.                    E04x:  WELL NAME
 SRVC.          Turan Drilling:  CONTRACTOR
 COMP.     BP Exploration (Caspian Sea) Ltd.:  COMPANY
 SON .        AZ-XX-0906531346:  JOB NUMBER
 WTYP.                Deviated:  WELL TYPE
 MDS .        Operator Entered:  MAG DATA SOURCE
 UWI .                     N/A:  UNIQUE WELL IDENTIFIER
 API .                     N/A:  API NUMBER
 BASE.              Azerbaijan:  LOGGING EQUIPMENT BASE LOCATION
 REGN.                   EESSA:  REGION
 PROV.                    Baku:  PROVINCE
 STAT.                    Baku:  STATE NAME
 MWDS.                    Baku:  MWD SHOP
 JOBN.        AZ-XX-0906531346:  JOB TICKET NUMB
 RIG .                     DWG:  RIG NAME
 DOE .                     N/A:  DOE NUMBER
 DCON.         Sperry Drilling:  DIRECTNL CONTR
 UNIT.                     N/A:  LOGGING EQUIPMENT ID
 CNTY.                        :  COUNTY
 LOC .                        :  LOCATION
 LMF .             Drill Floor:  LOG MEASURED FROM
 TVDS.m                  43.16:  TVDSS CORRECTN
 LATI.deg                40.17:  LATITUDE
 LONG.deg                51.17:  LONGITUDE
 WHNS.m                  -0.12:  WELL HEAD N/S
 WHEW.m                  -5.41:  WELL HEAD E/W
 UTMX.m              514337.95:  UTM X
 UTMY.m             4448627.46:  UTM Y
 DFWL.m                   0.00:  DISTANCE FWL
 DFSL.m                   0.00:  DISTANCE FSL
 SDEP.m                3088.01:  START DEPTH
 TDD .m                5200.01:  TOTAL DEPTH (DRILLER)
 VSDR.deg               244.51:  VERT SEC DIRECT
 GVFD.g                   1.00:  GRAVITY FIELD
 MFLD.nT              50329.80:  MAGNETIC FIELD
 MDIP.deg                59.63:  MAGNETIC DIP
 MDEC.deg                 6.59:  MAGNETIC DECL
 GRDC.deg                 0.09:  GRID CORRECTION
 AZTC.deg                 6.50:  AZM TOTAL CORR
 EPD .m                   0.00:  ELEVATION
 EGL .m                   0.00:  GROUND ELEVATION
 WDMS.m                 176.20:  WD ELEV
 APD .m                  43.16:  DEPTH ABOVE PD
 DEP .m                3084.71:  DEPTH
 AGAP.m                  43.16:  AIR GAP
 VSEW.m                  -5.41:  VERT SEC E/W
 VSNS.m                  -0.12:  VERT SEC N/S
 EKB .m                   0.00:  KB ELEVATION
 EDF .m                  43.16:  DF ELEVATION
 TDL .m                 243.00:  TOTAL DEPTH (LOGGER)
 VSC .                       0:  VS TO CLOSURE
 MAGU.                 1853542:  MAGUTM CHECKSUM
~Parameter Information Block
#MNEM.UNIT       Value        Description
#---------     -----------    ---------------------------
 AV  .mps                 1.91:  Ann Velocity 
 AVMX.mps                 2.52:  Max Ann Veloc 
 AZIF.deg               308.97:  Azm, Final 
 BHAT.        Rotary Steerable:  BHA Type 
 BROT.°/30m               1.00:  Build Rotating 
 BS  .in                  6.50:  Bit Size 
 BSZ .in                  6.50:  Bit Size 
 BTPL.psig              350.00:  Bit Press Loss 
 CABU.                      No:  Customer Abuse 
 CGEO.           Asif Pashayev:  Customer Geo 
 COMM.                     ¤4N:  Run Comments 1 
 TCS .hr                 35.86:  Time Ciculation Ended 
 CV  .mps                 2.31:  Crit Velocity 
 CVMX.mps                 2.31:  Max Crit Veloc 
 DD1 .         Intigam Rahimov:  Direct Drillr 1 
 DDSV.               Geo-Pilot:  DD Service 
 DEFF.%                  92.00:  % Det Eff 
 DLRX.°/30m               1.00:  Dogleg Rot Max 
 DLSO.°/30m               1.00:  Dogleg Oriented 
 DLSX.°/30m               1.42:  Dogleg Str Max 
 DRET.      15.50.00 07-Aug-20:  Drill End Time 
 DRST.      10.40.00 06-Aug-20:  Drill Start Tim 
 DTIM.hr                 21.30:  Time Drilling 
 EDEP.m                5200.01:  End Depth 
 ENG1.            Alan Tuganov:  Engineer 1 
 ENG2.         Almaz Almadatov:  Engineer 2 
 ENG3.     Zammelal Abdullah Sani:  Engineer 3 
 ETIM.      22.42.00 08-Aug-20:  End Time 
 FLOI.gpm               395.00:  Flow In 
 FLON.gpm               350.00:  Flow In Min 
 FLOS.cptm                0.00:  Fluid Loss 
 FLOX.gpm               404.00:  Flow In Max 
 FTRO.       Formation Presure:  FTWD Run Obj 
 HFLO.                      No:  High Flow 
 HPRE.                      No:  High Pressure 
 HTEM.                      No:  High Temp 
 HYDO.m                   1.80:  Hydro Offset 
 IFIN.deg                72.64:  Inc, Final 
 IMAX.deg                73.68:  Inc Max 
 IMIN.deg                72.64:  Inc Min 
 IMND.m                5189.69:  Inc Min Depth 
 IMXD.m                5067.88:  Inc Max Depth 
 JARR.                      No:  Jarring 
 LETM.      15.50.00 07-Aug-20:  Log End Time 
 LOST.hr                     0:  Lost Rig Time 
 LSTM.      10.40.00 06-Aug-20:  Log Start Time 
 MDCL.ppm             36000.00:  Mud Chlorides 
 MDES.     Inversion Oil/Synthetic:  Mud Desc 
 DFD .sg                  1.36:  Mud Density 
 MDMN.sg                  1.36:  Dens Mud Min 
 MDMX.sg                  1.36:  Dens Mud Max 
 MOIL.                      70:  Run Mud Oil % 
 MOWR.                   70:30:  Run Mud OWR 
 MSND.                    0.00:  Run Mud Sand % 
 MSOL.                   17.60:  Run Mud Solids% 
 DFV .spqt               73.00:  Mud Viscosity 
 MWOD.in                  4.75:  MWD Tool OD 
 MWSI.                      No:  Serv Intrp, MWD 
 OTIM.hr                 85.66:  Time Operating 
 PCON.           Look Like New:  Pad Condition 
 PMAX.psia             6250.00:  Press Op, Max 
 PV  .cP                 65.00:  Mud PV 
 RUN .                     900:  Run Number 
 ROPA.m/hr               11.40:  ROP Avg 
 ROPN.m/hr                5.00:  ROP Min 
 ROPX.m/hr               20.00:  ROP Max 
 RPMA.rpm               130.00:  RPM Surface Avg 
 RPMN.rpm                40.00:  RPM Surface Min 
 RPMX.rpm               140.00:  RPM Surface Max 
 RRUN.                    L205:  Rig Run Number 
 RTIM.hr                  1.00:  Time Reaming 
 SAZI.deg               313.52:  Azm, Start 
 SDEP.m                4957.01:  Start Depth 
 SIDD.                      No:  Serv Intrp, DD 
 SINC.deg                73.16:  Inc, Start 
 SPPA.psig             5657.00:  SPP Avg 
 SPPN.psig             2500.00:  SPP Min 
 SPPX.psig             5806.00:  SPP Max 
 STIM.      07.12.00 05-Aug-20:  Start Time 
 SVCS.                 DD, MWD:  Services 
 SVER.                    9.20:  Sperry Version 
 TDAT.m                 243.00:  Tot Depth Attmp 
 TDDF.                      No:  Trip for DD 
 TDLG.m                 243.00:  Tot Depth Loggd 
 TFF .                      No:  Trip for Fail 
 TQAA.f-kp               13.00:  Torque Abs Avg 
 TQAN.f-kp               11.00:  Torque Abs Min 
 TQAX.f-kp               16.00:  Torque Abs Max 
 TRRT.°/30m               1.00:  Turn Rotating 
 MRT .                    HCIM:  Maximum Recorded Temperature 
 TTMX.degC               96.08:  Max Tool Temp 
 VS01.                90515411:  Virtual Str1 SN 
 VS02.                90512716:  Virtual Str2 SN 
 VS03.                90522362:  Virtual Str3 SN 
 VS04.                90619415:  Virtual Str4 SN 
 VS05.                90619414:  Virtual Str5 SN 
 VS06.                90597748:  Virtual Str6 SN 
 WBMN.klb                 2.00:  WOB Min 
 WITN.           Adil Mammadov:  Customer Rep 
 WITN.     Alexander Yadullayev:  Customer Rep 2 
 WOBA.klb                 7.00:  WOB Avg 
 WOBX.klb                23.00:  WOB Max 
 YP  .lhf2               37.00:  Yield Point 
~Curve Information Block
#MNEM.UNIT                 API CODE     Curve Description
#---------               -----------    ---------------------------
 TIME.HHMMSS            00 000 000 000:  GT Time & Date
 GTDEPTH.m              00 000 000 000:  GT Depth
 GTPQH.psia             00 000 000 000:  GT HR Quartz Pressure
 GTTQ.degC              00 000 000 000:  GT Quartz Temperature
 GTTN.NONE              00 000 000 000:  GT Test Number
 GTET.sec               00 000 000 000:  GT Elapsed Test Time
 GTTVD.m                00 000 000 000:  GT True Vertical Depth
#Other Information
#
#WARRANTY: Halliburton will use its best efforts to furnish customers with 
#accurate information and interpretations that are part of, and incident to, the services 
#provided.  However, Halliburton cannot and does not warrant the accuracy 
#or correctness of such information and interpretations.  Under no circumstances should any 
#such information or interpretation be relied upon as the sole basis for any drilling, 
#completion, production, or financial decision or any procedure involving any risk to the 
#safety of any drilling venture, drilling rig or its crew or any other third party.  The 
#Customer has full responsibility for all drilling, completion and production operation.  
#Halliburton makes no representations or warranties, either expressed or 
#implied, including, but not limited to, the implied warranties of merchantability or fitness 
#for a particular purpose, with respect to the services rendered.  In no event will 
#Halliburton be liable for failure to obtain any particular results or for 
#any damages, including, but not limited to, indirect, special or consequential damages, 
#resulting from the use of any information or interpretation provided by Halliburton.
#
~A           TIME           GTDEPTH  GTPQH  GTTQ  GTTN   GTET   GTTVD  
# ...
   12:00:40.796.07-Aug-2020 5127.01 3414.18 87.41 10.00 293.91 2682.86
   12:00:40.996.07-Aug-2020 5127.01 3414.09 87.41 10.00 294.11 2682.86
   12:00:41.197.07-Aug-2020 5127.01 3414.09 87.41 10.00 294.31 2682.86
   12:00:41.397.07-Aug-2020 5127.01 3414.13 87.41 10.00 294.51 2682.86
   12:00:41.597.07-Aug-2020 5127.01 3414.12 87.41 10.00 294.71 2682.86
   12:00:41.797.07-Aug-2020 5127.01 3414.08 87.41 10.00 294.91 2682.86
   12:00:41.997.07-Aug-2020 5127.01 3414.11 87.41 10.00 295.11 2682.86
   12:00:42.197.07-Aug-2020 5127.01 3414.11 87.41 10.00 295.31 2682.86
   12:00:42.397.07-Aug-2020 5127.01 3414.12 87.40 10.00 295.51 2682.86
   12:00:42.597.07-Aug-2020 5127.01 3414.08 87.40 10.00 295.71 2682.86
   12:00:42.797.07-Aug-2020 5127.01 3414.10 87.40 10.00 295.91 2682.86
   12:00:42.997.07-Aug-2020 5127.01 3414.10 87.40 10.00 296.11 2682.86
   12:00:43.197.07-Aug-2020 5127.01 3414.10 87.40 10.00 296.31 2682.86
   12:00:43.397.07-Aug-2020 5127.01 3413.87 87.40 10.00 296.51 2682.86
   12:00:43.597.07-Aug-2020 5127.01 3414.29 87.40 10.00 296.71 2682.86
   12:00:43.798.07-Aug-2020 5127.01 3414.16 87.40 10.00 296.91 2682.86
   12:00:43.998.07-Aug-2020 5127.01 3414.03 87.40 10.00 297.11 2682.86
   12:00:44.198.07-Aug-2020 5127.01 3414.03 87.40 10.00 297.31 2682.86
   12:00:44.398.07-Aug-2020 5127.01 3414.13 87.40 10.00 297.51 2682.86
   12:00:44.598.07-Aug-2020 5127.01 3414.14 87.40 10.00 297.71 2682.86
   12:00:44.798.07-Aug-2020 5127.01 3414.04 87.40 10.00 297.91 2682.86
   12:00:44.998.07-Aug-2020 5127.01 3414.13 87.40 10.00 298.11 2682.86
   12:00:45.198.07-Aug-2020 5127.01 3414.13 87.40 10.00 298.31 2682.86
   12:00:45.398.07-Aug-2020 5127.01 3413.88 87.40 10.00 298.51 2682.86
   12:00:45.598.07-Aug-2020 5127.01 3414.28 87.40 10.00 298.71 2682.86
   12:00:45.798.07-Aug-2020 5127.01 3414.18 87.40 10.00 298.91 2682.86
   12:00:45.998.07-Aug-2020 5127.01 3414.01 87.40 10.00 299.11 2682.86
   12:00:46.198.07-Aug-2020 5127.01 3414.16 87.40 10.00 299.31 2682.86
   12:00:46.399.07-Aug-2020 5127.01 3414.11 87.40 10.00 299.51 2682.86
   12:00:46.599.07-Aug-2020 5127.01 3414.05 87.40 10.00 299.71 2682.86
   12:00:46.799.07-Aug-2020 5127.01 3414.09 87.40 10.00 299.91 2682.86
   12:00:46.999.07-Aug-2020 5127.01 3414.17 87.40 10.00 300.11 2682.86
   12:00:47.199.07-Aug-2020 5127.01 3414.17 87.40 10.00 300.31 2682.86
   12:00:47.399.07-Aug-2020 5127.01 3414.11 87.40 10.00 300.51 2682.86
   12:00:47.599.07-Aug-2020 5127.01 3414.12 87.40 10.00 300.71 2682.86
   12:00:47.799.07-Aug-2020 5127.01 3414.11 87.39 10.00 300.91 2682.86
   12:00:47.999.07-Aug-2020 5127.01 3414.08 87.39 10.00 301.11 2682.86
   12:00:48.199.07-Aug-2020 5127.01 3414.08 87.39 10.00 301.31 2682.86
   12:00:48.399.07-Aug-2020 5127.01 3414.10 87.39 10.00 301.51 2682.86
   12:00:48.599.07-Aug-2020 5127.01 3414.16 87.39 10.00 301.71 2682.86
   12:00:48.799.07-Aug-2020 5127.01 3394.80 87.39 10.00 301.91 2682.86
   12:00:49.000.07-Aug-2020 5127.01 3388.26 87.39 10.00 302.11 2682.86
   12:00:49.200.07-Aug-2020 5127.01 3388.26 87.39 10.00 302.31 2682.86
   12:00:49.400.07-Aug-2020 5127.01 3389.51 87.39 10.00 302.51 2682.86
   12:00:49.600.07-Aug-2020 5127.01 3389.27 87.39 10.00 302.71 2682.86
   12:00:49.800.07-Aug-2020 5127.01 3388.82 87.39 10.00 302.91 2682.86
   12:00:50.000.07-Aug-2020 5127.01 3389.10 87.39 10.00 303.11 2682.86
   12:00:50.200.07-Aug-2020 5127.01 3389.10 87.39 10.00 303.31 2682.86
   12:00:50.400.07-Aug-2020 5127.01 3388.81 87.39 10.00 303.51 2682.86
   12:00:50.600.07-Aug-2020 5127.01 3389.14 87.39 10.00 303.71 2682.86
   12:00:50.800.07-Aug-2020 5127.01 3388.97 87.39 10.00 303.91 2682.86
   12:00:51.000.07-Aug-2020 5127.01 3388.82 87.39 10.00 304.11 2682.86
   12:00:51.200.07-Aug-2020 5127.01 3388.82 87.39 10.00 304.31 2682.86
   12:00:51.400.07-Aug-2020 5127.01 3388.78 87.39 10.00 304.51 2682.86
   12:00:51.600.07-Aug-2020 5127.01 3388.93 87.39 10.00 304.71 2682.86
   12:00:51.801.07-Aug-2020 5127.01 3388.64 87.39 10.00 304.91 2682.86
   12:00:52.001.07-Aug-2020 5127.01 3387.54 87.39 10.00 305.11 2682.86
   12:00:52.201.07-Aug-2020 5127.01 3387.54 87.39 10.00 305.31 2682.86
   12:00:52.401.07-Aug-2020 5127.01 3389.46 87.39 10.00 305.51 2682.86
   12:00:52.601.07-Aug-2020 5127.01 3388.14 87.39 10.00 305.71 2682.86
   12:00:52.801.07-Aug-2020 5127.01 3388.40 87.39 10.00 305.91 2682.86
   12:00:53.001.07-Aug-2020 5127.01 3389.38 87.39 10.00 306.11 2682.86
   12:00:53.201.07-Aug-2020 5127.01 3389.38 87.39 10.00 306.32 2682.86
   12:00:53.401.07-Aug-2020 5127.01 3387.98 87.38 10.00 306.52 2682.86
   12:00:53.601.07-Aug-2020 5127.01 3388.55 87.38 10.00 306.72 2682.86
   12:00:53.801.07-Aug-2020 5127.01 3388.75 87.38 10.00 306.92 2682.86
   12:00:54.001.07-Aug-2020 5127.01 3387.31 87.38 10.00 307.12 2682.86
   12:00:54.201.07-Aug-2020 5127.01 3390.00 87.38 10.00 307.32 2682.86
   12:00:54.402.07-Aug-2020 5127.01 3389.52 87.38 10.00 307.52 2682.86
   12:00:54.602.07-Aug-2020 5127.01 3388.43 87.38 10.00 307.72 2682.86
   12:00:54.802.07-Aug-2020 5127.01 3388.75 87.38 10.00 307.92 2682.86
   12:00:55.002.07-Aug-2020 5127.01 3389.06 87.38 10.00 308.12 2682.86
   12:00:55.202.07-Aug-2020 5127.01 3389.06 87.38 10.00 308.32 2682.86
   12:00:55.402.07-Aug-2020 5127.01 3389.73 87.38 10.00 308.52 2682.86
   12:00:55.602.07-Aug-2020 5127.01 3389.50 87.38 10.00 308.72 2682.86
   12:00:55.802.07-Aug-2020 5127.01 3388.55 87.38 10.00 308.92 2682.86
   12:00:56.002.07-Aug-2020 5127.01 3389.02 87.38 10.00 309.12 2682.86
   12:00:56.202.07-Aug-2020 5127.01 3389.02 87.38 10.00 309.32 2682.86
   12:00:56.402.07-Aug-2020 5127.01 3388.94 87.38 10.00 309.52 2682.86
   12:00:56.602.07-Aug-2020 5127.01 3388.93 87.38 10.00 309.72 2682.86
   12:00:56.802.07-Aug-2020 5127.01 3389.17 87.38 10.00 309.92 2682.86
   12:00:57.003.07-Aug-2020 5127.01 3389.28 87.38 10.00 310.12 2682.86
   12:00:57.203.07-Aug-2020 5127.01 3389.28 87.38 10.00 310.32 2682.86
   12:00:57.403.07-Aug-2020 5127.01 3389.02 87.38 10.00 310.52 2682.86
   12:00:57.603.07-Aug-2020 5127.01 3388.94 87.38 10.00 310.72 2682.86
   12:00:57.803.07-Aug-2020 5127.01 3388.45 87.38 10.00 310.92 2682.86
   12:00:58.003.07-Aug-2020 5127.01 3389.32 87.38 10.00 311.12 2682.86
   12:00:58.203.07-Aug-2020 5127.01 3389.32 87.38 10.00 311.32 2682.86
   12:00:58.403.07-Aug-2020 5127.01 3388.98 87.37 10.00 311.52 2682.86
   12:00:58.603.07-Aug-2020 5127.01 3389.71 87.37 10.00 311.72 2682.86
   12:00:58.803.07-Aug-2020 5127.01 3393.97 87.37 10.00 311.92 2682.86
   12:00:59.003.07-Aug-2020 5127.01 3413.68 87.37 10.00 312.12 2682.86
   12:00:59.203.07-Aug-2020 5127.01 3413.68 87.37 10.00 312.32 2682.86
   12:00:59.403.07-Aug-2020 5127.01 3414.03 87.37 10.00 312.52 2682.86
   12:00:59.603.07-Aug-2020 5127.01 3414.07 87.37 10.00 312.72 2682.86
   12:00:59.804.07-Aug-2020 5127.01 3414.07 87.37 10.00 312.92 2682.86
   12:01:00.004.07-Aug-2020 5127.01 3414.13 87.37 10.00 313.12 2682.86
   12:01:00.204.07-Aug-2020 5127.01 3414.13 87.37 10.00 313.32 2682.86
   12:01:00.404.07-Aug-2020 5127.01 3414.16 87.37 10.00 313.52 2682.86
   12:01:00.604.07-Aug-2020 5127.01 3414.13 87.37 10.00 313.72 2682.86
   12:01:00.804.07-Aug-2020 5127.01 3414.29 87.37 10.00 313.92 2682.86
   12:01:01.004.07-Aug-2020 5127.01 3414.29 87.37 10.00 314.12 2682.86
   12:01:01.204.07-Aug-2020 5127.01 3414.29 87.37 10.00 314.32 2682.86
   12:01:01.404.07-Aug-2020 5127.01 3414.29 87.37 10.00 314.52 2682.86
   12:01:01.604.07-Aug-2020 5127.01 3414.38 87.37 10.00 314.72 2682.86
   12:01:01.804.07-Aug-2020 5127.01 3414.36 87.37 10.00 314.92 2682.86
   12:01:02.004.07-Aug-2020 5127.01 3414.41 87.37 10.00 315.12 2682.86
   12:01:02.204.07-Aug-2020 5127.01 3414.41 87.37 10.00 315.32 2682.86
   12:01:02.405.07-Aug-2020 5127.01 3414.39 87.37 10.00 315.52 2682.86
   12:01:02.605.07-Aug-2020 5127.01 3414.53 87.37 10.00 315.72 2682.86
   12:01:02.805.07-Aug-2020 5127.01 3414.42 87.37 10.00 315.92 2682.86
   12:01:03.005.07-Aug-2020 5127.01 3414.34 87.37 10.00 316.12 2682.86
   12:01:03.205.07-Aug-2020 5127.01 3414.34 87.37 10.00 316.32 2682.86
