~Version Information
 VERS.                  2.0:   CWLS log ASCII Standard -VERSION 2.0
 WRAP.                   NO:   One line per depth step
~Well Information Block
#MNEM.UNIT     VALUE/NAME     DESCRIPTION
#---------     -----------    ---------------------------
 STRT.S             20:19:41 06-Aug-20: START TIME 20:19:41 06-Aug-20
 STOP.S             20:27:33 06-Aug-20: STOP TIME  20:27:33 06-Aug-20
 STEP.S                   0.00: STEP TIME
 NULL.                 -999.25: NULL VALUE
 DFWT.                        :  DIST FWL TEXT
 DFST.                        :  DIST FSL TEXT
 DMF .             Drill Floor:  DRILL MEAS FROM
 STIM.      12.00.00 03-Jul-20:  START TIME
 DATE.      00.50.00 09-Aug-20:  END TIME
 SPUD.               03-Jul-20:  SPUD DATE
 NREF.                    Grid:  NORTH REFERENCE
 HPTY.       Minimum Curvature:  HOLE POS TYPE
 DMOD.             Drill Model:  DRILL MOD DESC
 SVYD.                  Survey:  SURVEY DESC
 ILTD.               Lithology:  INTERP LTH DESC
 FTOP.          Formation Tops:  FORM TOPS DESC
 PDAT.          Mean Sea Level:  PERMANENT DATUM
 FLD .                     ACG:  FIELD NAME
 CTRY.              Azerbaijan:  COUNTRY NAME
 WELL.                    E04x:  WELL NAME
 SRVC.          Turan Drilling:  CONTRACTOR
 COMP.     BP Exploration (Caspian Sea) Ltd.:  COMPANY
 SON .        AZ-XX-0906531346:  JOB NUMBER
 WTYP.                Deviated:  WELL TYPE
 MDS .        Operator Entered:  MAG DATA SOURCE
 UWI .                     N/A:  UNIQUE WELL IDENTIFIER
 API .                     N/A:  API NUMBER
 BASE.              Azerbaijan:  LOGGING EQUIPMENT BASE LOCATION
 REGN.                   EESSA:  REGION
 PROV.                    Baku:  PROVINCE
 STAT.                    Baku:  STATE NAME
 MWDS.                    Baku:  MWD SHOP
 JOBN.        AZ-XX-0906531346:  JOB TICKET NUMB
 RIG .                     DWG:  RIG NAME
 DOE .                     N/A:  DOE NUMBER
 DCON.         Sperry Drilling:  DIRECTNL CONTR
 UNIT.                     N/A:  LOGGING EQUIPMENT ID
 CNTY.                        :  COUNTY
 LOC .                        :  LOCATION
 LMF .             Drill Floor:  LOG MEASURED FROM
 TVDS.m                  43.16:  TVDSS CORRECTN
 LATI.deg                40.17:  LATITUDE
 LONG.deg                51.17:  LONGITUDE
 WHNS.m                  -0.12:  WELL HEAD N/S
 WHEW.m                  -5.41:  WELL HEAD E/W
 UTMX.m              514337.95:  UTM X
 UTMY.m             4448627.46:  UTM Y
 DFWL.m                   0.00:  DISTANCE FWL
 DFSL.m                   0.00:  DISTANCE FSL
 SDEP.m                3088.01:  START DEPTH
 TDD .m                5200.01:  TOTAL DEPTH (DRILLER)
 VSDR.deg               244.51:  VERT SEC DIRECT
 GVFD.g                   1.00:  GRAVITY FIELD
 MFLD.nT              50329.80:  MAGNETIC FIELD
 MDIP.deg                59.63:  MAGNETIC DIP
 MDEC.deg                 6.59:  MAGNETIC DECL
 GRDC.deg                 0.09:  GRID CORRECTION
 AZTC.deg                 6.50:  AZM TOTAL CORR
 EPD .m                   0.00:  ELEVATION
 EGL .m                   0.00:  GROUND ELEVATION
 WDMS.m                 176.20:  WD ELEV
 APD .m                  43.16:  DEPTH ABOVE PD
 DEP .m                3084.71:  DEPTH
 AGAP.m                  43.16:  AIR GAP
 VSEW.m                  -5.41:  VERT SEC E/W
 VSNS.m                  -0.12:  VERT SEC N/S
 EKB .m                   0.00:  KB ELEVATION
 EDF .m                  43.16:  DF ELEVATION
 TDL .m                 243.00:  TOTAL DEPTH (LOGGER)
 VSC .                       0:  VS TO CLOSURE
 MAGU.                 1853542:  MAGUTM CHECKSUM
~Parameter Information Block
#MNEM.UNIT       Value        Description
#---------     -----------    ---------------------------
 AV  .mps                 1.91:  Ann Velocity 
 AVMX.mps                 2.52:  Max Ann Veloc 
 AZIF.deg               308.97:  Azm, Final 
 BHAT.        Rotary Steerable:  BHA Type 
 BROT.°/30m               1.00:  Build Rotating 
 BS  .in                  6.50:  Bit Size 
 BSZ .in                  6.50:  Bit Size 
 BTPL.psig              350.00:  Bit Press Loss 
 CABU.                      No:  Customer Abuse 
 CGEO.           Asif Pashayev:  Customer Geo 
 COMM.                     4è‹:  Run Comments 1 
 TCS .hr                 35.86:  Time Ciculation Ended 
 CV  .mps                 2.31:  Crit Velocity 
 CVMX.mps                 2.31:  Max Crit Veloc 
 DD1 .         Intigam Rahimov:  Direct Drillr 1 
 DDSV.               Geo-Pilot:  DD Service 
 DEFF.%                  92.00:  % Det Eff 
 DLRX.°/30m               1.00:  Dogleg Rot Max 
 DLSO.°/30m               1.00:  Dogleg Oriented 
 DLSX.°/30m               1.42:  Dogleg Str Max 
 DRET.      15.50.00 07-Aug-20:  Drill End Time 
 DRST.      10.40.00 06-Aug-20:  Drill Start Tim 
 DTIM.hr                 21.30:  Time Drilling 
 EDEP.m                5200.01:  End Depth 
 ENG1.            Alan Tuganov:  Engineer 1 
 ENG2.         Almaz Almadatov:  Engineer 2 
 ENG3.     Zammelal Abdullah Sani:  Engineer 3 
 ETIM.      22.42.00 08-Aug-20:  End Time 
 FLOI.gpm               395.00:  Flow In 
 FLON.gpm               350.00:  Flow In Min 
 FLOS.cptm                0.00:  Fluid Loss 
 FLOX.gpm               404.00:  Flow In Max 
 FTRO.       Formation Presure:  FTWD Run Obj 
 HFLO.                      No:  High Flow 
 HPRE.                      No:  High Pressure 
 HTEM.                      No:  High Temp 
 HYDO.m                   1.80:  Hydro Offset 
 IFIN.deg                72.64:  Inc, Final 
 IMAX.deg                73.68:  Inc Max 
 IMIN.deg                72.64:  Inc Min 
 IMND.m                5189.69:  Inc Min Depth 
 IMXD.m                5067.88:  Inc Max Depth 
 JARR.                      No:  Jarring 
 LETM.      15.50.00 07-Aug-20:  Log End Time 
 LOST.hr                     0:  Lost Rig Time 
 LSTM.      10.40.00 06-Aug-20:  Log Start Time 
 MDCL.ppm             36000.00:  Mud Chlorides 
 MDES.     Inversion Oil/Synthetic:  Mud Desc 
 DFD .sg                  1.36:  Mud Density 
 MDMN.sg                  1.36:  Dens Mud Min 
 MDMX.sg                  1.36:  Dens Mud Max 
 MOIL.                      70:  Run Mud Oil % 
 MOWR.                   70:30:  Run Mud OWR 
 MSND.                    0.00:  Run Mud Sand % 
 MSOL.                   17.60:  Run Mud Solids% 
 DFV .spqt               73.00:  Mud Viscosity 
 MWOD.in                  4.75:  MWD Tool OD 
 MWSI.                      No:  Serv Intrp, MWD 
 OTIM.hr                 85.66:  Time Operating 
 PCON.           Look Like New:  Pad Condition 
 PMAX.psia             6250.00:  Press Op, Max 
 PV  .cP                 65.00:  Mud PV 
 RUN .                     900:  Run Number 
 ROPA.m/hr               11.40:  ROP Avg 
 ROPN.m/hr                5.00:  ROP Min 
 ROPX.m/hr               20.00:  ROP Max 
 RPMA.rpm               130.00:  RPM Surface Avg 
 RPMN.rpm                40.00:  RPM Surface Min 
 RPMX.rpm               140.00:  RPM Surface Max 
 RRUN.                    L205:  Rig Run Number 
 RTIM.hr                  1.00:  Time Reaming 
 SAZI.deg               313.52:  Azm, Start 
 SDEP.m                4957.01:  Start Depth 
 SIDD.                      No:  Serv Intrp, DD 
 SINC.deg                73.16:  Inc, Start 
 SPPA.psig             5657.00:  SPP Avg 
 SPPN.psig             2500.00:  SPP Min 
 SPPX.psig             5806.00:  SPP Max 
 STIM.      07.12.00 05-Aug-20:  Start Time 
 SVCS.                 DD, MWD:  Services 
 SVER.                    9.20:  Sperry Version 
 TDAT.m                 243.00:  Tot Depth Attmp 
 TDDF.                      No:  Trip for DD 
 TDLG.m                 243.00:  Tot Depth Loggd 
 TFF .                      No:  Trip for Fail 
 TQAA.f-kp               13.00:  Torque Abs Avg 
 TQAN.f-kp               11.00:  Torque Abs Min 
 TQAX.f-kp               16.00:  Torque Abs Max 
 TRRT.°/30m               1.00:  Turn Rotating 
 MRT .                    HCIM:  Maximum Recorded Temperature 
 TTMX.degC               96.08:  Max Tool Temp 
 VS01.                90515411:  Virtual Str1 SN 
 VS02.                90512716:  Virtual Str2 SN 
 VS03.                90522362:  Virtual Str3 SN 
 VS04.                90619415:  Virtual Str4 SN 
 VS05.                90619414:  Virtual Str5 SN 
 VS06.                90597748:  Virtual Str6 SN 
 WBMN.klb                 2.00:  WOB Min 
 WITN.           Adil Mammadov:  Customer Rep 
 WITN.     Alexander Yadullayev:  Customer Rep 2 
 WOBA.klb                 7.00:  WOB Avg 
 WOBX.klb                23.00:  WOB Max 
 YP  .lhf2               37.00:  Yield Point 
~Curve Information Block
#MNEM.UNIT                 API CODE     Curve Description
#---------               -----------    ---------------------------
 TIME.HHMMSS            00 000 000 000:  GT Time & Date
 GTDEPTH.m              00 000 000 000:  GT Depth
 GTPQH.psia             00 000 000 000:  GT HR Quartz Pressure
 GTTQ.degC              00 000 000 000:  GT Quartz Temperature
 GTTN.NONE              00 000 000 000:  GT Test Number
 GTET.sec               00 000 000 000:  GT Elapsed Test Time
 GTTVD.m                00 000 000 000:  GT True Vertical Depth
#Other Information
#
#WARRANTY: Halliburton will use its best efforts to furnish customers with 
#accurate information and interpretations that are part of, and incident to, the services 
#provided.  However, Halliburton cannot and does not warrant the accuracy 
#or correctness of such information and interpretations.  Under no circumstances should any 
#such information or interpretation be relied upon as the sole basis for any drilling, 
#completion, production, or financial decision or any procedure involving any risk to the 
#safety of any drilling venture, drilling rig or its crew or any other third party.  The 
#Customer has full responsibility for all drilling, completion and production operation.  
#Halliburton makes no representations or warranties, either expressed or 
#implied, including, but not limited to, the implied warranties of merchantability or fitness 
#for a particular purpose, with respect to the services rendered.  In no event will 
#Halliburton be liable for failure to obtain any particular results or for 
#any damages, including, but not limited to, indirect, special or consequential damages, 
#resulting from the use of any information or interpretation provided by Halliburton.
#
~A           TIME           GTDEPTH  GTPQH  GTTQ  GTTN  GTET   GTTVD  
# ...
   20:23:54.443.06-Aug-2020 4993.01 3486.93 82.69 3.00 253.10 2644.18
   20:23:54.643.06-Aug-2020 4993.01 3486.93 82.69 3.00 253.30 2644.18
   20:23:54.843.06-Aug-2020 4993.01 3486.91 82.69 3.00 253.50 2644.18
   20:23:55.043.06-Aug-2020 4993.01 3486.96 82.69 3.00 253.70 2644.18
   20:23:55.243.06-Aug-2020 4993.01 3486.92 82.69 3.00 253.90 2644.18
   20:23:55.443.06-Aug-2020 4993.01 3486.95 82.69 3.00 254.10 2644.18
   20:23:55.644.06-Aug-2020 4993.01 3486.95 82.69 3.00 254.30 2644.18
   20:23:55.844.06-Aug-2020 4993.01 3487.08 82.68 3.00 254.50 2644.18
   20:23:56.044.06-Aug-2020 4993.01 3486.90 82.68 3.00 254.70 2644.18
   20:23:56.244.06-Aug-2020 4993.01 3486.93 82.68 3.00 254.90 2644.18
   20:23:56.444.06-Aug-2020 4993.01 3486.97 82.68 3.00 255.10 2644.18
   20:23:56.644.06-Aug-2020 4993.01 3486.97 82.68 3.00 255.30 2644.18
   20:23:56.844.06-Aug-2020 4993.01 3486.77 82.68 3.00 255.50 2644.18
   20:23:57.044.06-Aug-2020 4993.01 3487.02 82.68 3.00 255.70 2644.18
   20:23:57.244.06-Aug-2020 4993.01 3487.03 82.68 3.00 255.90 2644.18
   20:23:57.444.06-Aug-2020 4993.01 3486.94 82.68 3.00 256.10 2644.18
   20:23:57.644.06-Aug-2020 4993.01 3486.94 82.68 3.00 256.30 2644.18
   20:23:57.844.06-Aug-2020 4993.01 3486.99 82.68 3.00 256.50 2644.18
   20:23:58.044.06-Aug-2020 4993.01 3486.90 82.68 3.00 256.70 2644.18
   20:23:58.245.06-Aug-2020 4993.01 3487.00 82.68 3.00 256.90 2644.18
   20:23:58.445.06-Aug-2020 4993.01 3486.80 82.68 3.00 257.10 2644.18
   20:23:58.645.06-Aug-2020 4993.01 3486.80 82.68 3.00 257.30 2644.18
   20:23:58.845.06-Aug-2020 4993.01 3487.03 82.68 3.00 257.50 2644.18
   20:23:59.045.06-Aug-2020 4993.01 3486.92 82.68 3.00 257.70 2644.18
   20:23:59.245.06-Aug-2020 4993.01 3487.02 82.68 3.00 257.90 2644.18
   20:23:59.445.06-Aug-2020 4993.01 3486.93 82.68 3.00 258.10 2644.18
   20:23:59.645.06-Aug-2020 4993.01 3486.93 82.68 3.00 258.30 2644.18
   20:23:59.845.06-Aug-2020 4993.01 3486.93 82.68 3.00 258.50 2644.18
   20:24:00.045.06-Aug-2020 4993.01 3486.97 82.68 3.00 258.70 2644.18
   20:24:00.245.06-Aug-2020 4993.01 3486.94 82.68 3.00 258.90 2644.18
   20:24:00.445.06-Aug-2020 4993.01 3486.97 82.67 3.00 259.10 2644.18
   20:24:00.645.06-Aug-2020 4993.01 3486.97 82.67 3.00 259.30 2644.18
   20:24:00.846.06-Aug-2020 4993.01 3486.96 82.67 3.00 259.50 2644.18
   20:24:01.046.06-Aug-2020 4993.01 3486.88 82.67 3.00 259.70 2644.18
   20:24:01.246.06-Aug-2020 4993.01 3486.98 82.67 3.00 259.90 2644.18
   20:24:01.446.06-Aug-2020 4993.01 3486.87 82.67 3.00 260.10 2644.18
   20:24:01.646.06-Aug-2020 4993.01 3486.87 82.67 3.00 260.30 2644.18
   20:24:01.846.06-Aug-2020 4993.01 3486.94 82.67 3.00 260.50 2644.18
   20:24:02.046.06-Aug-2020 4993.01 3486.94 82.67 3.00 260.70 2644.18
   20:24:02.246.06-Aug-2020 4993.01 3486.97 82.67 3.00 260.90 2644.18
   20:24:02.446.06-Aug-2020 4993.01 3486.95 82.67 3.00 261.10 2644.18
   20:24:02.646.06-Aug-2020 4993.01 3486.95 82.67 3.00 261.30 2644.18
   20:24:02.846.06-Aug-2020 4993.01 3486.92 82.67 3.00 261.50 2644.18
   20:24:03.046.06-Aug-2020 4993.01 3486.96 82.67 3.00 261.70 2644.18
   20:24:03.246.06-Aug-2020 4993.01 3486.92 82.67 3.00 261.90 2644.18
   20:24:03.446.06-Aug-2020 4993.01 3486.94 82.67 3.00 262.10 2644.18
   20:24:03.647.06-Aug-2020 4993.01 3486.94 82.67 3.00 262.30 2644.18
   20:24:03.847.06-Aug-2020 4993.01 3486.81 82.67 3.00 262.50 2644.18
   20:24:04.047.06-Aug-2020 4993.01 3487.08 82.67 3.00 262.70 2644.18
   20:24:04.247.06-Aug-2020 4993.01 3486.90 82.67 3.00 262.90 2644.18
   20:24:04.447.06-Aug-2020 4993.01 3486.94 82.67 3.00 263.10 2644.18
   20:24:04.647.06-Aug-2020 4993.01 3486.94 82.67 3.00 263.30 2644.18
   20:24:04.847.06-Aug-2020 4993.01 3486.92 82.67 3.00 263.50 2644.18
   20:24:05.047.06-Aug-2020 4993.01 3486.74 82.66 3.00 263.70 2644.18
   20:24:05.247.06-Aug-2020 4993.01 3487.05 82.66 3.00 263.90 2644.18
   20:24:05.447.06-Aug-2020 4993.01 3487.06 82.66 3.00 264.10 2644.18
   20:24:05.647.06-Aug-2020 4993.01 3487.06 82.66 3.00 264.30 2644.18
   20:24:05.847.06-Aug-2020 4993.01 3486.98 82.66 3.00 264.50 2644.18
   20:24:06.047.06-Aug-2020 4993.01 3486.91 82.66 3.00 264.70 2644.18
   20:24:06.248.06-Aug-2020 4993.01 3486.92 82.66 3.00 264.90 2644.18
   20:24:06.448.06-Aug-2020 4993.01 3487.02 82.66 3.00 265.10 2644.18
   20:24:06.648.06-Aug-2020 4993.01 3487.02 82.66 3.00 265.30 2644.18
   20:24:06.848.06-Aug-2020 4993.01 3487.09 82.66 3.00 265.50 2644.18
   20:24:07.048.06-Aug-2020 4993.01 3486.94 82.66 3.00 265.70 2644.18
   20:24:07.248.06-Aug-2020 4993.01 3486.94 82.66 3.00 265.90 2644.18
   20:24:07.448.06-Aug-2020 4993.01 3486.98 82.66 3.00 266.10 2644.18
   20:24:07.648.06-Aug-2020 4993.01 3486.98 82.66 3.00 266.30 2644.18
   20:24:07.848.06-Aug-2020 4993.01 3486.95 82.66 3.00 266.50 2644.18
   20:24:08.048.06-Aug-2020 4993.01 3486.97 82.66 3.00 266.70 2644.18
   20:24:08.248.06-Aug-2020 4993.01 3486.93 82.66 3.00 266.90 2644.18
   20:24:08.448.06-Aug-2020 4993.01 3486.97 82.66 3.00 267.10 2644.18
   20:24:08.648.06-Aug-2020 4993.01 3486.97 82.66 3.00 267.30 2644.18
   20:24:08.849.06-Aug-2020 4993.01 3486.96 82.66 3.00 267.50 2644.18
   20:24:09.049.06-Aug-2020 4993.01 3486.92 82.66 3.00 267.70 2644.18
   20:24:09.249.06-Aug-2020 4993.01 3486.95 82.66 3.00 267.90 2644.18
   20:24:09.449.06-Aug-2020 4993.01 3486.89 82.66 3.00 268.10 2644.18
   20:24:09.649.06-Aug-2020 4993.01 3486.89 82.66 3.00 268.30 2644.18
   20:24:09.849.06-Aug-2020 4993.01 3486.99 82.65 3.00 268.50 2644.18
   20:24:10.049.06-Aug-2020 4993.01 3486.93 82.65 3.00 268.70 2644.18
   20:24:10.249.06-Aug-2020 4993.01 3486.93 82.65 3.00 268.90 2644.18
   20:24:10.449.06-Aug-2020 4993.01 3486.97 82.65 3.00 269.10 2644.18
   20:24:10.649.06-Aug-2020 4993.01 3486.97 82.65 3.00 269.30 2644.18
   20:24:10.849.06-Aug-2020 4993.01 3486.95 82.65 3.00 269.50 2644.18
   20:24:11.049.06-Aug-2020 4993.01 3486.93 82.65 3.00 269.70 2644.18
   20:24:11.249.06-Aug-2020 4993.01 3486.94 82.65 3.00 269.90 2644.18
   20:24:11.450.06-Aug-2020 4993.01 3486.93 82.65 3.00 270.10 2644.18
   20:24:11.650.06-Aug-2020 4993.01 3486.93 82.65 3.00 270.30 2644.18
   20:24:11.850.06-Aug-2020 4993.01 3486.93 82.65 3.00 270.50 2644.18
   20:24:12.050.06-Aug-2020 4993.01 3486.79 82.65 3.00 270.70 2644.18
   20:24:12.250.06-Aug-2020 4993.01 3487.06 82.65 3.00 270.90 2644.18
   20:24:12.450.06-Aug-2020 4993.01 3486.85 82.65 3.00 271.10 2644.18
   20:24:12.650.06-Aug-2020 4993.01 3486.85 82.65 3.00 271.30 2644.18
   20:24:12.850.06-Aug-2020 4993.01 3486.95 82.65 3.00 271.50 2644.18
   20:24:13.050.06-Aug-2020 4993.01 3486.96 82.65 3.00 271.70 2644.18
   20:24:13.250.06-Aug-2020 4993.01 3486.73 82.65 3.00 271.90 2644.18
   20:24:13.450.06-Aug-2020 4993.01 3487.09 82.65 3.00 272.10 2644.18
   20:24:13.650.06-Aug-2020 4993.01 3487.09 82.65 3.00 272.30 2644.18
   20:24:13.850.06-Aug-2020 4993.01 3486.95 82.65 3.00 272.50 2644.18
   20:24:14.051.06-Aug-2020 4993.01 3486.96 82.65 3.00 272.70 2644.18
   20:24:14.251.06-Aug-2020 4993.01 3486.89 82.64 3.00 272.90 2644.18
   20:24:14.451.06-Aug-2020 4993.01 3486.91 82.64 3.00 273.10 2644.18
   20:24:14.651.06-Aug-2020 4993.01 3486.91 82.64 3.00 273.30 2644.18
   20:24:14.851.06-Aug-2020 4993.01 3486.76 82.64 3.00 273.50 2644.18
   20:24:15.051.06-Aug-2020 4993.01 3487.13 82.64 3.00 273.70 2644.18
   20:24:15.251.06-Aug-2020 4993.01 3486.87 82.64 3.00 273.90 2644.18
   20:24:15.451.06-Aug-2020 4993.01 3486.96 82.64 3.00 274.10 2644.18
   20:24:15.651.06-Aug-2020 4993.01 3486.96 82.64 3.00 274.30 2644.18
   20:24:15.851.06-Aug-2020 4993.01 3486.96 82.64 3.00 274.51 2644.18
   20:24:16.051.06-Aug-2020 4993.01 3486.95 82.64 3.00 274.71 2644.18
   20:24:16.251.06-Aug-2020 4993.01 3486.94 82.64 3.00 274.91 2644.18
   20:24:16.451.06-Aug-2020 4993.01 3486.94 82.64 3.00 275.11 2644.18
   20:24:16.652.06-Aug-2020 4993.01 3486.94 82.64 3.00 275.31 2644.18
   20:24:16.852.06-Aug-2020 4993.01 3486.95 82.64 3.00 275.51 2644.18
   20:24:17.052.06-Aug-2020 4993.01 3486.92 82.64 3.00 275.71 2644.18
   20:24:17.252.06-Aug-2020 4993.01 3486.95 82.64 3.00 275.91 2644.18
