~Version Information
 VERS.                  2.0:   CWLS log ASCII Standard -VERSION 2.0
 WRAP.                   NO:   One line per depth step
~Well Information Block
#MNEM.UNIT     VALUE/NAME     DESCRIPTION
#---------     -----------    ---------------------------
 STRT.S             20:19:41 06-Aug-20: START TIME 20:19:41 06-Aug-20
 STOP.S             20:27:33 06-Aug-20: STOP TIME  20:27:33 06-Aug-20
 STEP.S                   0.00: STEP TIME
 NULL.                 -999.25: NULL VALUE
 DFWT.                        :  DIST FWL TEXT
 DFST.                        :  DIST FSL TEXT
 DMF .             Drill Floor:  DRILL MEAS FROM
 STIM.      12.00.00 03-Jul-20:  START TIME
 DATE.      00.50.00 09-Aug-20:  END TIME
 SPUD.               03-Jul-20:  SPUD DATE
 NREF.                    Grid:  NORTH REFERENCE
 HPTY.       Minimum Curvature:  HOLE POS TYPE
 DMOD.             Drill Model:  DRILL MOD DESC
 SVYD.                  Survey:  SURVEY DESC
 ILTD.               Lithology:  INTERP LTH DESC
 FTOP.          Formation Tops:  FORM TOPS DESC
 PDAT.          Mean Sea Level:  PERMANENT DATUM
 FLD .                     ACG:  FIELD NAME
 CTRY.              Azerbaijan:  COUNTRY NAME
 WELL.                    E04x:  WELL NAME
 SRVC.          Turan Drilling:  CONTRACTOR
 COMP.     BP Exploration (Caspian Sea) Ltd.:  COMPANY
 SON .        AZ-XX-0906531346:  JOB NUMBER
 WTYP.                Deviated:  WELL TYPE
 MDS .        Operator Entered:  MAG DATA SOURCE
 UWI .                     N/A:  UNIQUE WELL IDENTIFIER
 API .                     N/A:  API NUMBER
 BASE.              Azerbaijan:  LOGGING EQUIPMENT BASE LOCATION
 REGN.                   EESSA:  REGION
 PROV.                    Baku:  PROVINCE
 STAT.                    Baku:  STATE NAME
 MWDS.                    Baku:  MWD SHOP
 JOBN.        AZ-XX-0906531346:  JOB TICKET NUMB
 RIG .                     DWG:  RIG NAME
 DOE .                     N/A:  DOE NUMBER
 DCON.         Sperry Drilling:  DIRECTNL CONTR
 UNIT.                     N/A:  LOGGING EQUIPMENT ID
 CNTY.                        :  COUNTY
 LOC .                        :  LOCATION
 LMF .             Drill Floor:  LOG MEASURED FROM
 TVDS.m                  43.16:  TVDSS CORRECTN
 LATI.deg                40.17:  LATITUDE
 LONG.deg                51.17:  LONGITUDE
 WHNS.m                  -0.12:  WELL HEAD N/S
 WHEW.m                  -5.41:  WELL HEAD E/W
 UTMX.m              514337.95:  UTM X
 UTMY.m             4448627.46:  UTM Y
 DFWL.m                   0.00:  DISTANCE FWL
 DFSL.m                   0.00:  DISTANCE FSL
 SDEP.m                3088.01:  START DEPTH
 TDD .m                5200.01:  TOTAL DEPTH (DRILLER)
 VSDR.deg               244.51:  VERT SEC DIRECT
 GVFD.g                   1.00:  GRAVITY FIELD
 MFLD.nT              50329.80:  MAGNETIC FIELD
 MDIP.deg                59.63:  MAGNETIC DIP
 MDEC.deg                 6.59:  MAGNETIC DECL
 GRDC.deg                 0.09:  GRID CORRECTION
 AZTC.deg                 6.50:  AZM TOTAL CORR
 EPD .m                   0.00:  ELEVATION
 EGL .m                   0.00:  GROUND ELEVATION
 WDMS.m                 176.20:  WD ELEV
 APD .m                  43.16:  DEPTH ABOVE PD
 DEP .m                3084.71:  DEPTH
 AGAP.m                  43.16:  AIR GAP
 VSEW.m                  -5.41:  VERT SEC E/W
 VSNS.m                  -0.12:  VERT SEC N/S
 EKB .m                   0.00:  KB ELEVATION
 EDF .m                  43.16:  DF ELEVATION
 TDL .m                 243.00:  TOTAL DEPTH (LOGGER)
 VSC .                       0:  VS TO CLOSURE
 MAGU.                 1853542:  MAGUTM CHECKSUM
~Parameter Information Block
#MNEM.UNIT       Value        Description
#---------     -----------    ---------------------------
 AV  .mps                 1.91:  Ann Velocity 
 AVMX.mps                 2.52:  Max Ann Veloc 
 AZIF.deg               308.97:  Azm, Final 
 BHAT.        Rotary Steerable:  BHA Type 
 BROT.°/30m               1.00:  Build Rotating 
 BS  .in                  6.50:  Bit Size 
 BSZ .in                  6.50:  Bit Size 
 BTPL.psig              350.00:  Bit Press Loss 
 CABU.                      No:  Customer Abuse 
 CGEO.           Asif Pashayev:  Customer Geo 
 COMM.                     4è‹:  Run Comments 1 
 TCS .hr                 35.86:  Time Ciculation Ended 
 CV  .mps                 2.31:  Crit Velocity 
 CVMX.mps                 2.31:  Max Crit Veloc 
 DD1 .         Intigam Rahimov:  Direct Drillr 1 
 DDSV.               Geo-Pilot:  DD Service 
 DEFF.%                  92.00:  % Det Eff 
 DLRX.°/30m               1.00:  Dogleg Rot Max 
 DLSO.°/30m               1.00:  Dogleg Oriented 
 DLSX.°/30m               1.42:  Dogleg Str Max 
 DRET.      15.50.00 07-Aug-20:  Drill End Time 
 DRST.      10.40.00 06-Aug-20:  Drill Start Tim 
 DTIM.hr                 21.30:  Time Drilling 
 EDEP.m                5200.01:  End Depth 
 ENG1.            Alan Tuganov:  Engineer 1 
 ENG2.         Almaz Almadatov:  Engineer 2 
 ENG3.     Zammelal Abdullah Sani:  Engineer 3 
 ETIM.      22.42.00 08-Aug-20:  End Time 
 FLOI.gpm               395.00:  Flow In 
 FLON.gpm               350.00:  Flow In Min 
 FLOS.cptm                0.00:  Fluid Loss 
 FLOX.gpm               404.00:  Flow In Max 
 FTRO.       Formation Presure:  FTWD Run Obj 
 HFLO.                      No:  High Flow 
 HPRE.                      No:  High Pressure 
 HTEM.                      No:  High Temp 
 HYDO.m                   1.80:  Hydro Offset 
 IFIN.deg                72.64:  Inc, Final 
 IMAX.deg                73.68:  Inc Max 
 IMIN.deg                72.64:  Inc Min 
 IMND.m                5189.69:  Inc Min Depth 
 IMXD.m                5067.88:  Inc Max Depth 
 JARR.                      No:  Jarring 
 LETM.      15.50.00 07-Aug-20:  Log End Time 
 LOST.hr                     0:  Lost Rig Time 
 LSTM.      10.40.00 06-Aug-20:  Log Start Time 
 MDCL.ppm             36000.00:  Mud Chlorides 
 MDES.     Inversion Oil/Synthetic:  Mud Desc 
 DFD .sg                  1.36:  Mud Density 
 MDMN.sg                  1.36:  Dens Mud Min 
 MDMX.sg                  1.36:  Dens Mud Max 
 MOIL.                      70:  Run Mud Oil % 
 MOWR.                   70:30:  Run Mud OWR 
 MSND.                    0.00:  Run Mud Sand % 
 MSOL.                   17.60:  Run Mud Solids% 
 DFV .spqt               73.00:  Mud Viscosity 
 MWOD.in                  4.75:  MWD Tool OD 
 MWSI.                      No:  Serv Intrp, MWD 
 OTIM.hr                 85.66:  Time Operating 
 PCON.           Look Like New:  Pad Condition 
 PMAX.psia             6250.00:  Press Op, Max 
 PV  .cP                 65.00:  Mud PV 
 RUN .                     900:  Run Number 
 ROPA.m/hr               11.40:  ROP Avg 
 ROPN.m/hr                5.00:  ROP Min 
 ROPX.m/hr               20.00:  ROP Max 
 RPMA.rpm               130.00:  RPM Surface Avg 
 RPMN.rpm                40.00:  RPM Surface Min 
 RPMX.rpm               140.00:  RPM Surface Max 
 RRUN.                    L205:  Rig Run Number 
 RTIM.hr                  1.00:  Time Reaming 
 SAZI.deg               313.52:  Azm, Start 
 SDEP.m                4957.01:  Start Depth 
 SIDD.                      No:  Serv Intrp, DD 
 SINC.deg                73.16:  Inc, Start 
 SPPA.psig             5657.00:  SPP Avg 
 SPPN.psig             2500.00:  SPP Min 
 SPPX.psig             5806.00:  SPP Max 
 STIM.      07.12.00 05-Aug-20:  Start Time 
 SVCS.                 DD, MWD:  Services 
 SVER.                    9.20:  Sperry Version 
 TDAT.m                 243.00:  Tot Depth Attmp 
 TDDF.                      No:  Trip for DD 
 TDLG.m                 243.00:  Tot Depth Loggd 
 TFF .                      No:  Trip for Fail 
 TQAA.f-kp               13.00:  Torque Abs Avg 
 TQAN.f-kp               11.00:  Torque Abs Min 
 TQAX.f-kp               16.00:  Torque Abs Max 
 TRRT.°/30m               1.00:  Turn Rotating 
 MRT .                    HCIM:  Maximum Recorded Temperature 
 TTMX.degC               96.08:  Max Tool Temp 
 VS01.                90515411:  Virtual Str1 SN 
 VS02.                90512716:  Virtual Str2 SN 
 VS03.                90522362:  Virtual Str3 SN 
 VS04.                90619415:  Virtual Str4 SN 
 VS05.                90619414:  Virtual Str5 SN 
 VS06.                90597748:  Virtual Str6 SN 
 WBMN.klb                 2.00:  WOB Min 
 WITN.           Adil Mammadov:  Customer Rep 
 WITN.     Alexander Yadullayev:  Customer Rep 2 
 WOBA.klb                 7.00:  WOB Avg 
 WOBX.klb                23.00:  WOB Max 
 YP  .lhf2               37.00:  Yield Point 
~Curve Information Block
#MNEM.UNIT                 API CODE     Curve Description
#---------               -----------    ---------------------------
 TIME.HHMMSS            00 000 000 000:  GT Time & Date
 GTDEPTH.m              00 000 000 000:  GT Depth
 GTPQH.psia             00 000 000 000:  GT HR Quartz Pressure
 GTTQ.degC              00 000 000 000:  GT Quartz Temperature
 GTTN.NONE              00 000 000 000:  GT Test Number
 GTET.sec               00 000 000 000:  GT Elapsed Test Time
 GTTVD.m                00 000 000 000:  GT True Vertical Depth
#Other Information
#
#WARRANTY: Halliburton will use its best efforts to furnish customers with 
#accurate information and interpretations that are part of, and incident to, the services 
#provided.  However, Halliburton cannot and does not warrant the accuracy 
#or correctness of such information and interpretations.  Under no circumstances should any 
#such information or interpretation be relied upon as the sole basis for any drilling, 
#completion, production, or financial decision or any procedure involving any risk to the 
#safety of any drilling venture, drilling rig or its crew or any other third party.  The 
#Customer has full responsibility for all drilling, completion and production operation.  
#Halliburton makes no representations or warranties, either expressed or 
#implied, including, but not limited to, the implied warranties of merchantability or fitness 
#for a particular purpose, with respect to the services rendered.  In no event will 
#Halliburton be liable for failure to obtain any particular results or for 
#any damages, including, but not limited to, indirect, special or consequential damages, 
#resulting from the use of any information or interpretation provided by Halliburton.
#
~A           TIME           GTDEPTH  GTPQH  GTTQ  GTTN  GTET   GTTVD  
# ...
   20:20:04.355.06-Aug-2020 4993.01 6574.20 83.32 3.00  23.01 2644.18
   20:20:04.555.06-Aug-2020 4993.01 6574.20 83.32 3.00  23.21 2644.18
   20:20:04.755.06-Aug-2020 4993.01 6588.71 83.32 3.00  23.41 2644.18
   20:20:04.955.06-Aug-2020 4993.01 6594.70 83.32 3.00  23.61 2644.18
   20:20:05.155.06-Aug-2020 4993.01 6599.16 83.32 3.00  23.81 2644.18
   20:20:05.355.06-Aug-2020 4993.01 6603.01 83.32 3.00  24.01 2644.18
   20:20:05.555.06-Aug-2020 4993.01 6603.01 83.32 3.00  24.21 2644.18
   20:20:05.756.06-Aug-2020 4993.01 6610.25 83.32 3.00  24.41 2644.18
   20:20:05.956.06-Aug-2020 4993.01 6613.72 83.32 3.00  24.61 2644.18
   20:20:06.156.06-Aug-2020 4993.01 6615.01 83.32 3.00  24.81 2644.18
   20:20:06.356.06-Aug-2020 4993.01 6081.46 83.32 3.00  25.01 2644.18
   20:20:06.556.06-Aug-2020 4993.01 6081.46 83.32 3.00  25.21 2644.18
   20:20:06.756.06-Aug-2020 4993.01 5291.57 83.31 3.00  25.41 2644.18
   20:20:06.956.06-Aug-2020 4993.01 5014.51 83.31 3.00  25.61 2644.18
   20:20:07.156.06-Aug-2020 4993.01 4571.14 83.31 3.00  25.81 2644.18
   20:20:07.356.06-Aug-2020 4993.01 4152.64 83.31 3.00  26.01 2644.18
   20:20:07.556.06-Aug-2020 4993.01 4152.64 83.31 3.00  26.21 2644.18
   20:20:07.756.06-Aug-2020 4993.01 3437.29 83.31 3.00  26.41 2644.18
   20:20:07.956.06-Aug-2020 4993.01 3443.85 83.31 3.00  26.61 2644.18
   20:20:08.156.06-Aug-2020 4993.01 3444.31 83.31 3.00  26.81 2644.18
   20:20:08.357.06-Aug-2020 4993.01 3443.83 83.31 3.00  27.01 2644.18
   20:20:08.557.06-Aug-2020 4993.01 3443.83 83.31 3.00  27.21 2644.18
   20:20:08.757.06-Aug-2020 4993.01 3443.42 83.31 3.00  27.41 2644.18
   20:20:08.957.06-Aug-2020 4993.01 3442.65 83.31 3.00  27.61 2644.18
   20:20:09.157.06-Aug-2020 4993.01 3440.36 83.31 3.00  27.81 2644.18
   20:20:09.357.06-Aug-2020 4993.01 3442.17 83.31 3.00  28.01 2644.18
   20:20:09.557.06-Aug-2020 4993.01 3442.17 83.31 3.00  28.21 2644.18
   20:20:09.757.06-Aug-2020 4993.01 3440.62 83.30 3.00  28.41 2644.18
   20:20:09.957.06-Aug-2020 4993.01 3440.45 83.30 3.00  28.61 2644.18
   20:20:10.157.06-Aug-2020 4993.01 3439.32 83.30 3.00  28.81 2644.18
   20:20:10.357.06-Aug-2020 4993.01 3441.57 83.30 3.00  29.01 2644.18
   20:20:10.557.06-Aug-2020 4993.01 3441.57 83.30 3.00  29.21 2644.18
   20:20:10.757.06-Aug-2020 4993.01 3441.04 83.30 3.00  29.41 2644.18
   20:20:10.958.06-Aug-2020 4993.01 3438.00 83.30 3.00  29.61 2644.18
   20:20:11.158.06-Aug-2020 4993.01 3441.35 83.30 3.00  29.81 2644.18
   20:20:11.358.06-Aug-2020 4993.01 3440.70 83.29 3.00  30.01 2644.18
   20:20:11.558.06-Aug-2020 4993.01 3440.70 83.29 3.00  30.21 2644.18
   20:20:11.758.06-Aug-2020 4993.01 3438.87 83.29 3.00  30.41 2644.18
   20:20:11.958.06-Aug-2020 4993.01 3440.82 83.29 3.00  30.61 2644.18
   20:20:12.158.06-Aug-2020 4993.01 3440.91 83.29 3.00  30.81 2644.18
   20:20:12.358.06-Aug-2020 4993.01 3439.82 83.29 3.00  31.01 2644.18
   20:20:12.558.06-Aug-2020 4993.01 3439.82 83.29 3.00  31.21 2644.18
   20:20:12.758.06-Aug-2020 4993.01 3440.58 83.29 3.00  31.41 2644.18
   20:20:12.958.06-Aug-2020 4993.01 3439.60 83.29 3.00  31.61 2644.18
   20:20:13.158.06-Aug-2020 4993.01 3440.23 83.28 3.00  31.81 2644.18
   20:20:13.358.06-Aug-2020 4993.01 3440.16 83.28 3.00  32.01 2644.18
   20:20:13.559.06-Aug-2020 4993.01 3440.16 83.28 3.00  32.21 2644.18
   20:20:13.759.06-Aug-2020 4993.01 3439.97 83.28 3.00  32.41 2644.18
   20:20:13.959.06-Aug-2020 4993.01 3440.16 83.28 3.00  32.61 2644.18
   20:20:14.159.06-Aug-2020 4993.01 3439.88 83.28 3.00  32.81 2644.18
   20:20:14.359.06-Aug-2020 4993.01 3438.82 83.28 3.00  33.01 2644.18
   20:20:14.559.06-Aug-2020 4993.01 3438.82 83.28 3.00  33.21 2644.18
   20:20:14.759.06-Aug-2020 4993.01 3440.26 83.27 3.00  33.41 2644.18
   20:20:14.959.06-Aug-2020 4993.01 3439.98 83.27 3.00  33.61 2644.18
   20:20:15.159.06-Aug-2020 4993.01 3440.16 83.27 3.00  33.81 2644.18
   20:20:15.359.06-Aug-2020 4993.01 3439.43 83.27 3.00  34.01 2644.18
   20:20:15.559.06-Aug-2020 4993.01 3439.43 83.27 3.00  34.21 2644.18
   20:20:15.759.06-Aug-2020 4993.01 3440.18 83.27 3.00  34.41 2644.18
   20:20:15.959.06-Aug-2020 4993.01 3482.00 83.27 3.00  34.61 2644.18
   20:20:16.160.06-Aug-2020 4993.01 3486.83 83.27 3.00  34.81 2644.18
   20:20:16.360.06-Aug-2020 4993.01 3486.88 83.26 3.00  35.01 2644.18
   20:20:16.560.06-Aug-2020 4993.01 3486.88 83.26 3.00  35.21 2644.18
   20:20:16.760.06-Aug-2020 4993.01 3486.97 83.26 3.00  35.41 2644.18
   20:20:16.960.06-Aug-2020 4993.01 3487.00 83.26 3.00  35.61 2644.18
   20:20:17.160.06-Aug-2020 4993.01 3486.77 83.26 3.00  35.81 2644.18
   20:20:17.360.06-Aug-2020 4993.01 3487.11 83.26 3.00  36.01 2644.18
   20:20:17.560.06-Aug-2020 4993.01 3487.11 83.26 3.00  36.21 2644.18
   20:20:17.760.06-Aug-2020 4993.01 3487.07 83.26 3.00  36.41 2644.18
   20:20:17.960.06-Aug-2020 4993.01 3487.12 83.26 3.00  36.61 2644.18
   20:20:18.160.06-Aug-2020 4993.01 3487.04 83.25 3.00  36.81 2644.18
   20:20:18.360.06-Aug-2020 4993.01 3487.16 83.25 3.00  37.01 2644.18
   20:20:18.560.06-Aug-2020 4993.01 3487.16 83.25 3.00  37.21 2644.18
   20:20:18.761.06-Aug-2020 4993.01 3487.14 83.25 3.00  37.41 2644.18
   20:20:18.961.06-Aug-2020 4993.01 3487.19 83.25 3.00  37.61 2644.18
   20:20:19.161.06-Aug-2020 4993.01 3486.98 83.25 3.00  37.81 2644.18
   20:20:19.361.06-Aug-2020 4993.01 3487.23 83.25 3.00  38.01 2644.18
   20:20:19.561.06-Aug-2020 4993.01 3487.23 83.25 3.00  38.21 2644.18
   20:20:19.761.06-Aug-2020 4993.01 3487.17 83.25 3.00  38.41 2644.18
   20:20:19.961.06-Aug-2020 4993.01 3487.21 83.25 3.00  38.61 2644.18
   20:20:20.161.06-Aug-2020 4993.01 3487.09 83.25 3.00  38.81 2644.18
   20:20:20.361.06-Aug-2020 4993.01 3487.26 83.24 3.00  39.01 2644.18
   20:20:20.561.06-Aug-2020 4993.01 3487.26 83.24 3.00  39.22 2644.18
   20:20:20.761.06-Aug-2020 4993.01 3487.18 83.24 3.00  39.42 2644.18
   20:20:20.961.06-Aug-2020 4993.01 3487.24 83.24 3.00  39.62 2644.18
   20:20:21.161.06-Aug-2020 4993.01 3487.24 83.24 3.00  39.82 2644.18
   20:20:21.362.06-Aug-2020 4993.01 3487.25 83.24 3.00  40.02 2644.18
   20:20:21.562.06-Aug-2020 4993.01 3487.25 83.24 3.00  40.22 2644.18
   20:20:21.762.06-Aug-2020 4993.01 3487.26 83.24 3.00  40.42 2644.18
   20:20:21.962.06-Aug-2020 4993.01 3487.29 83.24 3.00  40.62 2644.18
   20:20:22.162.06-Aug-2020 4993.01 3487.27 83.24 3.00  40.82 2644.18
   20:20:22.362.06-Aug-2020 4993.01 3487.30 83.24 3.00  41.02 2644.18
   20:20:22.562.06-Aug-2020 4993.01 3487.30 83.24 3.00  41.22 2644.18
   20:20:22.762.06-Aug-2020 4993.01 3487.30 83.23 3.00  41.42 2644.18
   20:20:22.962.06-Aug-2020 4993.01 3487.27 83.23 3.00  41.62 2644.18
   20:20:23.162.06-Aug-2020 4993.01 3487.11 83.23 3.00  41.82 2644.18
   20:20:23.362.06-Aug-2020 4993.01 3487.24 83.23 3.00  42.02 2644.18
   20:20:23.562.06-Aug-2020 4993.01 3487.24 83.23 3.00  42.22 2644.18
   20:20:23.762.06-Aug-2020 4993.01 3487.22 83.23 3.00  42.42 2644.18
   20:20:23.963.06-Aug-2020 4993.01 3487.29 83.23 3.00  42.62 2644.18
   20:20:24.163.06-Aug-2020 4993.01 3487.29 83.23 3.00  42.82 2644.18
   20:20:24.363.06-Aug-2020 4993.01 3487.31 83.23 3.00  43.02 2644.18
   20:20:24.563.06-Aug-2020 4993.01 3487.31 83.23 3.00  43.22 2644.18
   20:20:24.763.06-Aug-2020 4993.01 3487.32 83.23 3.00  43.42 2644.18
   20:20:24.963.06-Aug-2020 4993.01 3487.31 83.23 3.00  43.62 2644.18
   20:20:25.163.06-Aug-2020 4993.01 3487.32 83.22 3.00  43.82 2644.18
   20:20:25.363.06-Aug-2020 4993.01 3487.33 83.22 3.00  44.02 2644.18
   20:20:25.563.06-Aug-2020 4993.01 3487.33 83.22 3.00  44.22 2644.18
   20:20:25.763.06-Aug-2020 4993.01 3487.19 83.22 3.00  44.42 2644.18
   20:20:25.963.06-Aug-2020 4993.01 3487.35 83.22 3.00  44.62 2644.18
   20:20:26.163.06-Aug-2020 4993.01 3487.25 83.22 3.00  44.82 2644.18
   20:20:26.363.06-Aug-2020 4993.01 3487.26 83.22 3.00  45.02 2644.18
   20:20:26.564.06-Aug-2020 4993.01 3487.26 83.22 3.00  45.22 2644.18
   20:20:26.764.06-Aug-2020 4993.01 3487.12 83.22 3.00  45.42 2644.18
   20:20:26.964.06-Aug-2020 4993.01 3487.38 83.22 3.00  45.62 2644.18
   20:20:27.164.06-Aug-2020 4993.01 3487.30 83.22 3.00  45.82 2644.18
