~Version Information
 VERS.                  2.0:   CWLS log ASCII Standard -VERSION 2.0
 WRAP.                   NO:   One line per depth step
~Well Information Block
#MNEM.UNIT     VALUE/NAME     DESCRIPTION
#---------     -----------    ---------------------------
 STRT.S             03:58:24 07-Aug-20: START TIME 03:58:24 07-Aug-20
 STOP.S             04:06:16 07-Aug-20: STOP TIME  04:06:16 07-Aug-20
 STEP.S                   0.00: STEP TIME
 NULL.                 -999.25: NULL VALUE
 DFWT.                        :  DIST FWL TEXT
 DFST.                        :  DIST FSL TEXT
 DMF .             Drill Floor:  DRILL MEAS FROM
 STIM.      12.00.00 03-Jul-20:  START TIME
 DATE.      00.50.00 09-Aug-20:  END TIME
 SPUD.               03-Jul-20:  SPUD DATE
 NREF.                    Grid:  NORTH REFERENCE
 HPTY.       Minimum Curvature:  HOLE POS TYPE
 DMOD.             Drill Model:  DRILL MOD DESC
 SVYD.                  Survey:  SURVEY DESC
 ILTD.               Lithology:  INTERP LTH DESC
 FTOP.          Formation Tops:  FORM TOPS DESC
 PDAT.          Mean Sea Level:  PERMANENT DATUM
 FLD .                     ACG:  FIELD NAME
 CTRY.              Azerbaijan:  COUNTRY NAME
 WELL.                    E04x:  WELL NAME
 SRVC.          Turan Drilling:  CONTRACTOR
 COMP.     BP Exploration (Caspian Sea) Ltd.:  COMPANY
 SON .        AZ-XX-0906531346:  JOB NUMBER
 WTYP.                Deviated:  WELL TYPE
 MDS .        Operator Entered:  MAG DATA SOURCE
 UWI .                     N/A:  UNIQUE WELL IDENTIFIER
 API .                     N/A:  API NUMBER
 BASE.              Azerbaijan:  LOGGING EQUIPMENT BASE LOCATION
 REGN.                   EESSA:  REGION
 PROV.                    Baku:  PROVINCE
 STAT.                    Baku:  STATE NAME
 MWDS.                    Baku:  MWD SHOP
 JOBN.        AZ-XX-0906531346:  JOB TICKET NUMB
 RIG .                     DWG:  RIG NAME
 DOE .                     N/A:  DOE NUMBER
 DCON.         Sperry Drilling:  DIRECTNL CONTR
 UNIT.                     N/A:  LOGGING EQUIPMENT ID
 CNTY.                        :  COUNTY
 LOC .                        :  LOCATION
 LMF .             Drill Floor:  LOG MEASURED FROM
 TVDS.m                  43.16:  TVDSS CORRECTN
 LATI.deg                40.17:  LATITUDE
 LONG.deg                51.17:  LONGITUDE
 WHNS.m                  -0.12:  WELL HEAD N/S
 WHEW.m                  -5.41:  WELL HEAD E/W
 UTMX.m              514337.95:  UTM X
 UTMY.m             4448627.46:  UTM Y
 DFWL.m                   0.00:  DISTANCE FWL
 DFSL.m                   0.00:  DISTANCE FSL
 SDEP.m                3088.01:  START DEPTH
 TDD .m                5200.01:  TOTAL DEPTH (DRILLER)
 VSDR.deg               244.51:  VERT SEC DIRECT
 GVFD.g                   1.00:  GRAVITY FIELD
 MFLD.nT              50329.80:  MAGNETIC FIELD
 MDIP.deg                59.63:  MAGNETIC DIP
 MDEC.deg                 6.59:  MAGNETIC DECL
 GRDC.deg                 0.09:  GRID CORRECTION
 AZTC.deg                 6.50:  AZM TOTAL CORR
 EPD .m                   0.00:  ELEVATION
 EGL .m                   0.00:  GROUND ELEVATION
 WDMS.m                 176.20:  WD ELEV
 APD .m                  43.16:  DEPTH ABOVE PD
 DEP .m                3084.71:  DEPTH
 AGAP.m                  43.16:  AIR GAP
 VSEW.m                  -5.41:  VERT SEC E/W
 VSNS.m                  -0.12:  VERT SEC N/S
 EKB .m                   0.00:  KB ELEVATION
 EDF .m                  43.16:  DF ELEVATION
 TDL .m                 243.00:  TOTAL DEPTH (LOGGER)
 VSC .                       0:  VS TO CLOSURE
 MAGU.                 1853542:  MAGUTM CHECKSUM
~Parameter Information Block
#MNEM.UNIT       Value        Description
#---------     -----------    ---------------------------
 AV  .mps                 1.91:  Ann Velocity 
 AVMX.mps                 2.52:  Max Ann Veloc 
 AZIF.deg               308.97:  Azm, Final 
 BHAT.        Rotary Steerable:  BHA Type 
 BROT.°/30m               1.00:  Build Rotating 
 BS  .in                  6.50:  Bit Size 
 BSZ .in                  6.50:  Bit Size 
 BTPL.psig              350.00:  Bit Press Loss 
 CABU.                      No:  Customer Abuse 
 CGEO.           Asif Pashayev:  Customer Geo 
 TCS .hr                 35.86:  Time Ciculation Ended 
 CV  .mps                 2.31:  Crit Velocity 
 CVMX.mps                 2.31:  Max Crit Veloc 
 DD1 .         Intigam Rahimov:  Direct Drillr 1 
 DDSV.               Geo-Pilot:  DD Service 
 DEFF.%                  92.00:  % Det Eff 
 DLRX.°/30m               1.00:  Dogleg Rot Max 
 DLSO.°/30m               1.00:  Dogleg Oriented 
 DLSX.°/30m               1.42:  Dogleg Str Max 
 DRET.      15.50.00 07-Aug-20:  Drill End Time 
 DRST.      10.40.00 06-Aug-20:  Drill Start Tim 
 DTIM.hr                 21.30:  Time Drilling 
 EDEP.m                5200.01:  End Depth 
 ENG1.            Alan Tuganov:  Engineer 1 
 ENG2.         Almaz Almadatov:  Engineer 2 
 ENG3.     Zammelal Abdullah Sani:  Engineer 3 
 ETIM.      22.42.00 08-Aug-20:  End Time 
 FLOI.gpm               395.00:  Flow In 
 FLON.gpm               350.00:  Flow In Min 
 FLOS.cptm                0.00:  Fluid Loss 
 FLOX.gpm               404.00:  Flow In Max 
 FTRO.       Formation Presure:  FTWD Run Obj 
 HFLO.                      No:  High Flow 
 HPRE.                      No:  High Pressure 
 HTEM.                      No:  High Temp 
 HYDO.m                   1.80:  Hydro Offset 
 IFIN.deg                72.64:  Inc, Final 
 IMAX.deg                73.68:  Inc Max 
 IMIN.deg                72.64:  Inc Min 
 IMND.m                5189.69:  Inc Min Depth 
 IMXD.m                5067.88:  Inc Max Depth 
 JARR.                      No:  Jarring 
 LETM.      15.50.00 07-Aug-20:  Log End Time 
 LOST.hr                     0:  Lost Rig Time 
 LSTM.      10.40.00 06-Aug-20:  Log Start Time 
 MDCL.ppm             36000.00:  Mud Chlorides 
 MDES.     Inversion Oil/Synthetic:  Mud Desc 
 DFD .sg                  1.36:  Mud Density 
 MDMN.sg                  1.36:  Dens Mud Min 
 MDMX.sg                  1.36:  Dens Mud Max 
 MOIL.                      70:  Run Mud Oil % 
 MOWR.                   70:30:  Run Mud OWR 
 MSND.                    0.00:  Run Mud Sand % 
 MSOL.                   17.60:  Run Mud Solids% 
 DFV .spqt               73.00:  Mud Viscosity 
 MWOD.in                  4.75:  MWD Tool OD 
 MWSI.                      No:  Serv Intrp, MWD 
 OTIM.hr                 85.66:  Time Operating 
 PCON.           Look Like New:  Pad Condition 
 PMAX.psia             6250.00:  Press Op, Max 
 PV  .cP                 65.00:  Mud PV 
 RUN .                     900:  Run Number 
 ROPA.m/hr               11.40:  ROP Avg 
 ROPN.m/hr                5.00:  ROP Min 
 ROPX.m/hr               20.00:  ROP Max 
 RPMA.rpm               130.00:  RPM Surface Avg 
 RPMN.rpm                40.00:  RPM Surface Min 
 RPMX.rpm               140.00:  RPM Surface Max 
 RRUN.                    L205:  Rig Run Number 
 RTIM.hr                  1.00:  Time Reaming 
 SAZI.deg               313.52:  Azm, Start 
 SDEP.m                4957.01:  Start Depth 
 SIDD.                      No:  Serv Intrp, DD 
 SINC.deg                73.16:  Inc, Start 
 SPPA.psig             5657.00:  SPP Avg 
 SPPN.psig             2500.00:  SPP Min 
 SPPX.psig             5806.00:  SPP Max 
 STIM.      07.12.00 05-Aug-20:  Start Time 
 SVCS.                 DD, MWD:  Services 
 SVER.                    9.20:  Sperry Version 
 TDAT.m                 243.00:  Tot Depth Attmp 
 TDDF.                      No:  Trip for DD 
 TDLG.m                 243.00:  Tot Depth Loggd 
 TFF .                      No:  Trip for Fail 
 TQAA.f-kp               13.00:  Torque Abs Avg 
 TQAN.f-kp               11.00:  Torque Abs Min 
 TQAX.f-kp               16.00:  Torque Abs Max 
 TRRT.°/30m               1.00:  Turn Rotating 
 MRT .                    HCIM:  Maximum Recorded Temperature 
 TTMX.degC               96.08:  Max Tool Temp 
 VS01.                90515411:  Virtual Str1 SN 
 VS02.                90512716:  Virtual Str2 SN 
 VS03.                90522362:  Virtual Str3 SN 
 VS04.                90619415:  Virtual Str4 SN 
 VS05.                90619414:  Virtual Str5 SN 
 VS06.                90597748:  Virtual Str6 SN 
 WBMN.klb                 2.00:  WOB Min 
 WITN.           Adil Mammadov:  Customer Rep 
 WITN.     Alexander Yadullayev:  Customer Rep 2 
 WOBA.klb                 7.00:  WOB Avg 
 WOBX.klb                23.00:  WOB Max 
 YP  .lhf2               37.00:  Yield Point 
~Curve Information Block
#MNEM.UNIT                 API CODE     Curve Description
#---------               -----------    ---------------------------
 TIME.HHMMSS            00 000 000 000:  GT Time & Date
 GTDEPTH.m              00 000 000 000:  GT Depth
 GTPQH.psia             00 000 000 000:  GT HR Quartz Pressure
 GTTQ.degC              00 000 000 000:  GT Quartz Temperature
 GTTN.NONE              00 000 000 000:  GT Test Number
 GTET.sec               00 000 000 000:  GT Elapsed Test Time
 GTTVD.m                00 000 000 000:  GT True Vertical Depth
#Other Information
#
#WARRANTY: Halliburton will use its best efforts to furnish customers with 
#accurate information and interpretations that are part of, and incident to, the services 
#provided.  However, Halliburton cannot and does not warrant the accuracy 
#or correctness of such information and interpretations.  Under no circumstances should any 
#such information or interpretation be relied upon as the sole basis for any drilling, 
#completion, production, or financial decision or any procedure involving any risk to the 
#safety of any drilling venture, drilling rig or its crew or any other third party.  The 
#Customer has full responsibility for all drilling, completion and production operation.  
#Halliburton makes no representations or warranties, either expressed or 
#implied, including, but not limited to, the implied warranties of merchantability or fitness 
#for a particular purpose, with respect to the services rendered.  In no event will 
#Halliburton be liable for failure to obtain any particular results or for 
#any damages, including, but not limited to, indirect, special or consequential damages, 
#resulting from the use of any information or interpretation provided by Halliburton.
#
~A           TIME           GTDEPTH  GTPQH  GTTQ  GTTN  GTET   GTTVD  
# ...
   04:04:09.357.07-Aug-2020 5060.51 3683.97 87.15 7.00 345.08 2663.65
   04:04:09.557.07-Aug-2020 5060.51 3683.97 87.15 7.00 345.28 2663.65
   04:04:09.757.07-Aug-2020 5060.51 3684.06 87.15 7.00 345.48 2663.65
   04:04:09.957.07-Aug-2020 5060.51 3684.09 87.15 7.00 345.68 2663.65
   04:04:10.157.07-Aug-2020 5060.51 3684.06 87.15 7.00 345.88 2663.65
   04:04:10.357.07-Aug-2020 5060.51 3684.08 87.15 7.00 346.08 2663.65
   04:04:10.557.07-Aug-2020 5060.51 3684.08 87.15 7.00 346.28 2663.65
   04:04:10.757.07-Aug-2020 5060.51 3684.07 87.15 7.00 346.48 2663.65
   04:04:10.958.07-Aug-2020 5060.51 3684.07 87.15 7.00 346.68 2663.65
   04:04:11.158.07-Aug-2020 5060.51 3684.07 87.15 7.00 346.88 2663.65
   04:04:11.358.07-Aug-2020 5060.51 3684.05 87.15 7.00 347.08 2663.65
   04:04:11.558.07-Aug-2020 5060.51 3684.05 87.15 7.00 347.28 2663.65
   04:04:11.758.07-Aug-2020 5060.51 3684.05 87.15 7.00 347.48 2663.65
   04:04:11.958.07-Aug-2020 5060.51 3684.03 87.14 7.00 347.68 2663.65
   04:04:12.158.07-Aug-2020 5060.51 3684.02 87.14 7.00 347.88 2663.65
   04:04:12.358.07-Aug-2020 5060.51 3684.10 87.14 7.00 348.08 2663.65
   04:04:12.558.07-Aug-2020 5060.51 3684.10 87.14 7.00 348.28 2663.65
   04:04:12.758.07-Aug-2020 5060.51 3684.10 87.14 7.00 348.48 2663.65
   04:04:12.958.07-Aug-2020 5060.51 3684.07 87.14 7.00 348.68 2663.65
   04:04:13.158.07-Aug-2020 5060.51 3684.06 87.14 7.00 348.88 2663.65
   04:04:13.358.07-Aug-2020 5060.51 3684.06 87.14 7.00 349.08 2663.65
   04:04:13.558.07-Aug-2020 5060.51 3684.06 87.14 7.00 349.28 2663.65
   04:04:13.758.07-Aug-2020 5060.51 3684.05 87.14 7.00 349.48 2663.65
   04:04:13.958.07-Aug-2020 5060.51 3684.05 87.14 7.00 349.68 2663.65
   04:04:14.158.07-Aug-2020 5060.51 3684.05 87.14 7.00 349.88 2663.65
   04:04:14.358.07-Aug-2020 5060.51 3684.05 87.14 7.00 350.08 2663.65
   04:04:14.558.07-Aug-2020 5060.51 3684.05 87.14 7.00 350.28 2663.65
   04:04:14.758.07-Aug-2020 5060.51 3683.94 87.14 7.00 350.48 2663.65
   04:04:14.958.07-Aug-2020 5060.51 3684.12 87.14 7.00 350.68 2663.65
   04:04:15.159.07-Aug-2020 5060.51 3684.05 87.14 7.00 350.88 2663.65
   04:04:15.359.07-Aug-2020 5060.51 3684.08 87.14 7.00 351.08 2663.65
   04:04:15.559.07-Aug-2020 5060.51 3684.08 87.14 7.00 351.28 2663.65
   04:04:15.759.07-Aug-2020 5060.51 3684.09 87.14 7.00 351.48 2663.65
   04:04:15.959.07-Aug-2020 5060.51 3684.08 87.14 7.00 351.68 2663.65
   04:04:16.159.07-Aug-2020 5060.51 3684.06 87.14 7.00 351.88 2663.65
   04:04:16.359.07-Aug-2020 5060.51 3684.08 87.14 7.00 352.08 2663.65
   04:04:16.559.07-Aug-2020 5060.51 3684.08 87.14 7.00 352.28 2663.65
   04:04:16.759.07-Aug-2020 5060.51 3683.97 87.13 7.00 352.48 2663.65
   04:04:16.959.07-Aug-2020 5060.51 3684.12 87.13 7.00 352.68 2663.65
   04:04:17.159.07-Aug-2020 5060.51 3684.05 87.13 7.00 352.88 2663.65
   04:04:17.359.07-Aug-2020 5060.51 3684.09 87.13 7.00 353.08 2663.65
   04:04:17.559.07-Aug-2020 5060.51 3684.09 87.13 7.00 353.28 2663.65
   04:04:17.759.07-Aug-2020 5060.51 3684.06 87.13 7.00 353.48 2663.65
   04:04:17.959.07-Aug-2020 5060.51 3684.00 87.13 7.00 353.68 2663.65
   04:04:18.159.07-Aug-2020 5060.51 3684.09 87.13 7.00 353.88 2663.65
   04:04:18.359.07-Aug-2020 5060.51 3684.08 87.13 7.00 354.08 2663.65
   04:04:18.559.07-Aug-2020 5060.51 3684.08 87.13 7.00 354.28 2663.65
   04:04:18.759.07-Aug-2020 5060.51 3684.08 87.13 7.00 354.48 2663.65
   04:04:18.959.07-Aug-2020 5060.51 3684.05 87.13 7.00 354.68 2663.65
   04:04:19.159.07-Aug-2020 5060.51 3684.07 87.13 7.00 354.88 2663.65
   04:04:19.360.07-Aug-2020 5060.51 3684.06 87.13 7.00 355.08 2663.65
   04:04:19.560.07-Aug-2020 5060.51 3684.06 87.13 7.00 355.28 2663.65
   04:04:19.760.07-Aug-2020 5060.51 3684.06 87.13 7.00 355.48 2663.65
   04:04:19.960.07-Aug-2020 5060.51 3684.06 87.13 7.00 355.68 2663.65
   04:04:20.160.07-Aug-2020 5060.51 3684.04 87.13 7.00 355.88 2663.65
   04:04:20.360.07-Aug-2020 5060.51 3684.04 87.13 7.00 356.08 2663.65
   04:04:20.560.07-Aug-2020 5060.51 3684.04 87.13 7.00 356.28 2663.65
   04:04:20.760.07-Aug-2020 5060.51 3683.93 87.12 7.00 356.48 2663.65
   04:04:20.960.07-Aug-2020 5060.51 3684.12 87.12 7.00 356.68 2663.65
   04:04:21.160.07-Aug-2020 5060.51 3684.06 87.12 7.00 356.88 2663.65
   04:04:21.360.07-Aug-2020 5060.51 3684.07 87.12 7.00 357.08 2663.65
   04:04:21.560.07-Aug-2020 5060.51 3684.07 87.12 7.00 357.28 2663.65
   04:04:21.760.07-Aug-2020 5060.51 3684.05 87.12 7.00 357.48 2663.65
   04:04:21.960.07-Aug-2020 5060.51 3684.06 87.12 7.00 357.68 2663.65
   04:04:22.160.07-Aug-2020 5060.51 3684.05 87.12 7.00 357.88 2663.65
   04:04:22.360.07-Aug-2020 5060.51 3684.04 87.12 7.00 358.08 2663.65
   04:04:22.560.07-Aug-2020 5060.51 3684.04 87.12 7.00 358.28 2663.65
   04:04:22.760.07-Aug-2020 5060.51 3684.04 87.12 7.00 358.48 2663.65
   04:04:22.960.07-Aug-2020 5060.51 3684.04 87.12 7.00 358.68 2663.65
   04:04:23.160.07-Aug-2020 5060.51 3684.04 87.12 7.00 358.88 2663.65
   04:04:23.360.07-Aug-2020 5060.51 3684.02 87.12 7.00 359.08 2663.65
   04:04:23.561.07-Aug-2020 5060.51 3684.02 87.12 7.00 359.28 2663.65
   04:04:23.761.07-Aug-2020 5060.51 3684.09 87.12 7.00 359.48 2663.65
   04:04:23.961.07-Aug-2020 5060.51 3684.02 87.12 7.00 359.68 2663.65
   04:04:24.161.07-Aug-2020 5060.51 3684.08 87.12 7.00 359.88 2663.65
   04:04:24.361.07-Aug-2020 5060.51 3683.94 87.12 7.00 360.08 2663.65
   04:04:24.561.07-Aug-2020 5060.51 3683.94 87.12 7.00 360.28 2663.65
   04:04:24.761.07-Aug-2020 5060.51 3684.03 87.12 7.00 360.48 2663.65
   04:04:24.961.07-Aug-2020 5060.51 3684.07 87.12 7.00 360.68 2663.65
   04:04:25.161.07-Aug-2020 5060.51 3684.05 87.11 7.00 360.88 2663.65
   04:04:25.361.07-Aug-2020 5060.51 3683.99 87.11 7.00 361.09 2663.65
   04:04:25.561.07-Aug-2020 5060.51 3683.99 87.11 7.00 361.29 2663.65
   04:04:25.761.07-Aug-2020 5060.51 3684.08 87.11 7.00 361.49 2663.65
   04:04:25.961.07-Aug-2020 5060.51 3684.04 87.11 7.00 361.69 2663.65
   04:04:26.161.07-Aug-2020 5060.51 3684.07 87.11 7.00 361.89 2663.65
   04:04:26.361.07-Aug-2020 5060.51 3684.05 87.11 7.00 362.09 2663.65
   04:04:26.561.07-Aug-2020 5060.51 3684.05 87.11 7.00 362.29 2663.65
   04:04:26.761.07-Aug-2020 5060.51 3683.95 87.11 7.00 362.49 2663.65
   04:04:26.961.07-Aug-2020 5060.51 3684.12 87.11 7.00 362.69 2663.65
   04:04:27.161.07-Aug-2020 5060.51 3684.05 87.11 7.00 362.89 2663.65
   04:04:27.361.07-Aug-2020 5060.51 3684.07 87.11 7.00 363.09 2663.65
   04:04:27.561.07-Aug-2020 5060.51 3684.07 87.11 7.00 363.29 2663.65
   04:04:27.761.07-Aug-2020 5060.51 3684.05 87.11 7.00 363.49 2663.65
   04:04:27.962.07-Aug-2020 5060.51 3684.05 87.11 7.00 363.69 2663.65
   04:04:28.162.07-Aug-2020 5060.51 3684.05 87.11 7.00 363.89 2663.65
   04:04:28.362.07-Aug-2020 5060.51 3684.05 87.11 7.00 364.09 2663.65
   04:04:28.562.07-Aug-2020 5060.51 3684.05 87.11 7.00 364.29 2663.65
   04:04:28.762.07-Aug-2020 5060.51 3684.04 87.11 7.00 364.49 2663.65
   04:04:28.962.07-Aug-2020 5060.51 3684.04 87.11 7.00 364.69 2663.65
   04:04:29.162.07-Aug-2020 5060.51 3684.03 87.11 7.00 364.89 2663.65
   04:04:29.362.07-Aug-2020 5060.51 3684.00 87.11 7.00 365.09 2663.65
   04:04:29.562.07-Aug-2020 5060.51 3684.00 87.11 7.00 365.29 2663.65
   04:04:29.762.07-Aug-2020 5060.51 3684.07 87.10 7.00 365.49 2663.65
   04:04:29.962.07-Aug-2020 5060.51 3684.03 87.10 7.00 365.69 2663.65
   04:04:30.162.07-Aug-2020 5060.51 3684.07 87.10 7.00 365.89 2663.65
   04:04:30.362.07-Aug-2020 5060.51 3684.04 87.10 7.00 366.09 2663.65
   04:04:30.562.07-Aug-2020 5060.51 3684.04 87.10 7.00 366.29 2663.65
   04:04:30.762.07-Aug-2020 5060.51 3684.04 87.10 7.00 366.49 2663.65
   04:04:30.962.07-Aug-2020 5060.51 3684.04 87.10 7.00 366.69 2663.65
   04:04:31.162.07-Aug-2020 5060.51 3684.04 87.10 7.00 366.89 2663.65
   04:04:31.362.07-Aug-2020 5060.51 3684.03 87.10 7.00 367.09 2663.65
   04:04:31.562.07-Aug-2020 5060.51 3684.03 87.10 7.00 367.29 2663.65
   04:04:31.762.07-Aug-2020 5060.51 3684.03 87.10 7.00 367.49 2663.65
   04:04:31.962.07-Aug-2020 5060.51 3684.03 87.10 7.00 367.69 2663.65
   04:04:32.163.07-Aug-2020 5060.51 3683.93 87.10 7.00 367.89 2663.65
