~Version Information
 VERS.                  2.0:   CWLS log ASCII Standard -VERSION 2.0
 WRAP.                   NO:   One line per depth step
~Well Information Block
#MNEM.UNIT     VALUE/NAME     DESCRIPTION
#---------     -----------    ---------------------------
 STRT.S             06:40:56 07-Aug-20: START TIME 06:40:56 07-Aug-20
 STOP.S             06:48:48 07-Aug-20: STOP TIME  06:48:48 07-Aug-20
 STEP.S                   0.00: STEP TIME
 NULL.                 -999.25: NULL VALUE
 DFWT.                        :  DIST FWL TEXT
 DFST.                        :  DIST FSL TEXT
 DMF .             Drill Floor:  DRILL MEAS FROM
 STIM.      12.00.00 03-Jul-20:  START TIME
 DATE.      00.50.00 09-Aug-20:  END TIME
 SPUD.               03-Jul-20:  SPUD DATE
 NREF.                    Grid:  NORTH REFERENCE
 HPTY.       Minimum Curvature:  HOLE POS TYPE
 DMOD.             Drill Model:  DRILL MOD DESC
 SVYD.                  Survey:  SURVEY DESC
 ILTD.               Lithology:  INTERP LTH DESC
 FTOP.          Formation Tops:  FORM TOPS DESC
 PDAT.          Mean Sea Level:  PERMANENT DATUM
 FLD .                     ACG:  FIELD NAME
 CTRY.              Azerbaijan:  COUNTRY NAME
 WELL.                    E04x:  WELL NAME
 SRVC.          Turan Drilling:  CONTRACTOR
 COMP.     BP Exploration (Caspian Sea) Ltd.:  COMPANY
 SON .        AZ-XX-0906531346:  JOB NUMBER
 WTYP.                Deviated:  WELL TYPE
 MDS .        Operator Entered:  MAG DATA SOURCE
 UWI .                     N/A:  UNIQUE WELL IDENTIFIER
 API .                     N/A:  API NUMBER
 BASE.              Azerbaijan:  LOGGING EQUIPMENT BASE LOCATION
 REGN.                   EESSA:  REGION
 PROV.                    Baku:  PROVINCE
 STAT.                    Baku:  STATE NAME
 MWDS.                    Baku:  MWD SHOP
 JOBN.        AZ-XX-0906531346:  JOB TICKET NUMB
 RIG .                     DWG:  RIG NAME
 DOE .                     N/A:  DOE NUMBER
 DCON.         Sperry Drilling:  DIRECTNL CONTR
 UNIT.                     N/A:  LOGGING EQUIPMENT ID
 CNTY.                        :  COUNTY
 LOC .                        :  LOCATION
 LMF .             Drill Floor:  LOG MEASURED FROM
 TVDS.m                  43.16:  TVDSS CORRECTN
 LATI.deg                40.17:  LATITUDE
 LONG.deg                51.17:  LONGITUDE
 WHNS.m                  -0.12:  WELL HEAD N/S
 WHEW.m                  -5.41:  WELL HEAD E/W
 UTMX.m              514337.95:  UTM X
 UTMY.m             4448627.46:  UTM Y
 DFWL.m                   0.00:  DISTANCE FWL
 DFSL.m                   0.00:  DISTANCE FSL
 SDEP.m                3088.01:  START DEPTH
 TDD .m                5200.01:  TOTAL DEPTH (DRILLER)
 VSDR.deg               244.51:  VERT SEC DIRECT
 GVFD.g                   1.00:  GRAVITY FIELD
 MFLD.nT              50329.80:  MAGNETIC FIELD
 MDIP.deg                59.63:  MAGNETIC DIP
 MDEC.deg                 6.59:  MAGNETIC DECL
 GRDC.deg                 0.09:  GRID CORRECTION
 AZTC.deg                 6.50:  AZM TOTAL CORR
 EPD .m                   0.00:  ELEVATION
 EGL .m                   0.00:  GROUND ELEVATION
 WDMS.m                 176.20:  WD ELEV
 APD .m                  43.16:  DEPTH ABOVE PD
 DEP .m                3084.71:  DEPTH
 AGAP.m                  43.16:  AIR GAP
 VSEW.m                  -5.41:  VERT SEC E/W
 VSNS.m                  -0.12:  VERT SEC N/S
 EKB .m                   0.00:  KB ELEVATION
 EDF .m                  43.16:  DF ELEVATION
 TDL .m                 243.00:  TOTAL DEPTH (LOGGER)
 VSC .                       0:  VS TO CLOSURE
 MAGU.                 1853542:  MAGUTM CHECKSUM
~Parameter Information Block
#MNEM.UNIT       Value        Description
#---------     -----------    ---------------------------
 AV  .mps                 1.91:  Ann Velocity 
 AVMX.mps                 2.52:  Max Ann Veloc 
 AZIF.deg               308.97:  Azm, Final 
 BHAT.        Rotary Steerable:  BHA Type 
 BROT.°/30m               1.00:  Build Rotating 
 BS  .in                  6.50:  Bit Size 
 BSZ .in                  6.50:  Bit Size 
 BTPL.psig              350.00:  Bit Press Loss 
 CABU.                      No:  Customer Abuse 
 CGEO.           Asif Pashayev:  Customer Geo 
 TCS .hr                 35.86:  Time Ciculation Ended 
 CV  .mps                 2.31:  Crit Velocity 
 CVMX.mps                 2.31:  Max Crit Veloc 
 DD1 .         Intigam Rahimov:  Direct Drillr 1 
 DDSV.               Geo-Pilot:  DD Service 
 DEFF.%                  92.00:  % Det Eff 
 DLRX.°/30m               1.00:  Dogleg Rot Max 
 DLSO.°/30m               1.00:  Dogleg Oriented 
 DLSX.°/30m               1.42:  Dogleg Str Max 
 DRET.      15.50.00 07-Aug-20:  Drill End Time 
 DRST.      10.40.00 06-Aug-20:  Drill Start Tim 
 DTIM.hr                 21.30:  Time Drilling 
 EDEP.m                5200.01:  End Depth 
 ENG1.            Alan Tuganov:  Engineer 1 
 ENG2.         Almaz Almadatov:  Engineer 2 
 ENG3.     Zammelal Abdullah Sani:  Engineer 3 
 ETIM.      22.42.00 08-Aug-20:  End Time 
 FLOI.gpm               395.00:  Flow In 
 FLON.gpm               350.00:  Flow In Min 
 FLOS.cptm                0.00:  Fluid Loss 
 FLOX.gpm               404.00:  Flow In Max 
 FTRO.       Formation Presure:  FTWD Run Obj 
 HFLO.                      No:  High Flow 
 HPRE.                      No:  High Pressure 
 HTEM.                      No:  High Temp 
 HYDO.m                   1.80:  Hydro Offset 
 IFIN.deg                72.64:  Inc, Final 
 IMAX.deg                73.68:  Inc Max 
 IMIN.deg                72.64:  Inc Min 
 IMND.m                5189.69:  Inc Min Depth 
 IMXD.m                5067.88:  Inc Max Depth 
 JARR.                      No:  Jarring 
 LETM.      15.50.00 07-Aug-20:  Log End Time 
 LOST.hr                     0:  Lost Rig Time 
 LSTM.      10.40.00 06-Aug-20:  Log Start Time 
 MDCL.ppm             36000.00:  Mud Chlorides 
 MDES.     Inversion Oil/Synthetic:  Mud Desc 
 DFD .sg                  1.36:  Mud Density 
 MDMN.sg                  1.36:  Dens Mud Min 
 MDMX.sg                  1.36:  Dens Mud Max 
 MOIL.                      70:  Run Mud Oil % 
 MOWR.                   70:30:  Run Mud OWR 
 MSND.                    0.00:  Run Mud Sand % 
 MSOL.                   17.60:  Run Mud Solids% 
 DFV .spqt               73.00:  Mud Viscosity 
 MWOD.in                  4.75:  MWD Tool OD 
 MWSI.                      No:  Serv Intrp, MWD 
 OTIM.hr                 85.66:  Time Operating 
 PCON.           Look Like New:  Pad Condition 
 PMAX.psia             6250.00:  Press Op, Max 
 PV  .cP                 65.00:  Mud PV 
 RUN .                     900:  Run Number 
 ROPA.m/hr               11.40:  ROP Avg 
 ROPN.m/hr                5.00:  ROP Min 
 ROPX.m/hr               20.00:  ROP Max 
 RPMA.rpm               130.00:  RPM Surface Avg 
 RPMN.rpm                40.00:  RPM Surface Min 
 RPMX.rpm               140.00:  RPM Surface Max 
 RRUN.                    L205:  Rig Run Number 
 RTIM.hr                  1.00:  Time Reaming 
 SAZI.deg               313.52:  Azm, Start 
 SDEP.m                4957.01:  Start Depth 
 SIDD.                      No:  Serv Intrp, DD 
 SINC.deg                73.16:  Inc, Start 
 SPPA.psig             5657.00:  SPP Avg 
 SPPN.psig             2500.00:  SPP Min 
 SPPX.psig             5806.00:  SPP Max 
 STIM.      07.12.00 05-Aug-20:  Start Time 
 SVCS.                 DD, MWD:  Services 
 SVER.                    9.20:  Sperry Version 
 TDAT.m                 243.00:  Tot Depth Attmp 
 TDDF.                      No:  Trip for DD 
 TDLG.m                 243.00:  Tot Depth Loggd 
 TFF .                      No:  Trip for Fail 
 TQAA.f-kp               13.00:  Torque Abs Avg 
 TQAN.f-kp               11.00:  Torque Abs Min 
 TQAX.f-kp               16.00:  Torque Abs Max 
 TRRT.°/30m               1.00:  Turn Rotating 
 MRT .                    HCIM:  Maximum Recorded Temperature 
 TTMX.degC               96.08:  Max Tool Temp 
 VS01.                90515411:  Virtual Str1 SN 
 VS02.                90512716:  Virtual Str2 SN 
 VS03.                90522362:  Virtual Str3 SN 
 VS04.                90619415:  Virtual Str4 SN 
 VS05.                90619414:  Virtual Str5 SN 
 VS06.                90597748:  Virtual Str6 SN 
 WBMN.klb                 2.00:  WOB Min 
 WITN.           Adil Mammadov:  Customer Rep 
 WITN.     Alexander Yadullayev:  Customer Rep 2 
 WOBA.klb                 7.00:  WOB Avg 
 WOBX.klb                23.00:  WOB Max 
 YP  .lhf2               37.00:  Yield Point 
~Curve Information Block
#MNEM.UNIT                 API CODE     Curve Description
#---------               -----------    ---------------------------
 TIME.HHMMSS            00 000 000 000:  GT Time & Date
 GTDEPTH.m              00 000 000 000:  GT Depth
 GTPQH.psia             00 000 000 000:  GT HR Quartz Pressure
 GTTQ.degC              00 000 000 000:  GT Quartz Temperature
 GTTN.NONE              00 000 000 000:  GT Test Number
 GTET.sec               00 000 000 000:  GT Elapsed Test Time
 GTTVD.m                00 000 000 000:  GT True Vertical Depth
#Other Information
#
#WARRANTY: Halliburton will use its best efforts to furnish customers with 
#accurate information and interpretations that are part of, and incident to, the services 
#provided.  However, Halliburton cannot and does not warrant the accuracy 
#or correctness of such information and interpretations.  Under no circumstances should any 
#such information or interpretation be relied upon as the sole basis for any drilling, 
#completion, production, or financial decision or any procedure involving any risk to the 
#safety of any drilling venture, drilling rig or its crew or any other third party.  The 
#Customer has full responsibility for all drilling, completion and production operation.  
#Halliburton makes no representations or warranties, either expressed or 
#implied, including, but not limited to, the implied warranties of merchantability or fitness 
#for a particular purpose, with respect to the services rendered.  In no event will 
#Halliburton be liable for failure to obtain any particular results or for 
#any damages, including, but not limited to, indirect, special or consequential damages, 
#resulting from the use of any information or interpretation provided by Halliburton.
#
~A           TIME           GTDEPTH  GTPQH  GTTQ  GTTN  GTET   GTTVD  
# ...
   06:43:37.986.07-Aug-2020 5088.01 3691.16 88.68 8.00 161.05 2671.45
   06:43:38.186.07-Aug-2020 5088.01 3691.16 88.68 8.00 161.25 2671.45
   06:43:38.386.07-Aug-2020 5088.01 3691.16 88.68 8.00 161.45 2671.45
   06:43:38.586.07-Aug-2020 5088.01 3691.16 88.68 8.00 161.65 2671.45
   06:43:38.786.07-Aug-2020 5088.01 3691.14 88.68 8.00 161.85 2671.45
   06:43:38.986.07-Aug-2020 5088.01 3691.17 88.68 8.00 162.05 2671.45
   06:43:39.186.07-Aug-2020 5088.01 3691.17 88.68 8.00 162.25 2671.45
   06:43:39.386.07-Aug-2020 5088.01 3691.26 88.68 8.00 162.45 2671.45
   06:43:39.586.07-Aug-2020 5088.01 3691.18 88.68 8.00 162.65 2671.45
   06:43:39.786.07-Aug-2020 5088.01 3691.15 88.68 8.00 162.85 2671.45
   06:43:39.986.07-Aug-2020 5088.01 3689.21 88.68 8.00 163.05 2671.45
   06:43:40.186.07-Aug-2020 5088.01 3689.21 88.68 8.00 163.25 2671.45
   06:43:40.386.07-Aug-2020 5088.01 3684.61 88.67 8.00 163.45 2671.45
   06:43:40.587.07-Aug-2020 5088.01 3684.65 88.67 8.00 163.65 2671.45
   06:43:40.787.07-Aug-2020 5088.01 3684.57 88.67 8.00 163.85 2671.45
   06:43:40.987.07-Aug-2020 5088.01 3684.58 88.67 8.00 164.05 2671.45
   06:43:41.187.07-Aug-2020 5088.01 3684.33 88.67 8.00 164.25 2671.45
   06:43:41.387.07-Aug-2020 5088.01 3684.58 88.67 8.00 164.45 2671.45
   06:43:41.587.07-Aug-2020 5088.01 3684.56 88.67 8.00 164.65 2671.45
   06:43:41.787.07-Aug-2020 5088.01 3684.36 88.67 8.00 164.85 2671.45
   06:43:41.987.07-Aug-2020 5088.01 3684.68 88.67 8.00 165.05 2671.45
   06:43:42.187.07-Aug-2020 5088.01 3684.68 88.67 8.00 165.25 2671.45
   06:43:42.387.07-Aug-2020 5088.01 3684.42 88.67 8.00 165.45 2671.45
   06:43:42.587.07-Aug-2020 5088.01 3684.38 88.67 8.00 165.65 2671.45
   06:43:42.787.07-Aug-2020 5088.01 3684.59 88.67 8.00 165.85 2671.45
   06:43:42.987.07-Aug-2020 5088.01 3684.46 88.67 8.00 166.05 2671.45
   06:43:43.187.07-Aug-2020 5088.01 3684.46 88.67 8.00 166.25 2671.45
   06:43:43.387.07-Aug-2020 5088.01 3684.43 88.67 8.00 166.45 2671.45
   06:43:43.587.07-Aug-2020 5088.01 3684.45 88.66 8.00 166.65 2671.45
   06:43:43.787.07-Aug-2020 5088.01 3684.40 88.66 8.00 166.85 2671.45
   06:43:43.987.07-Aug-2020 5088.01 3684.47 88.66 8.00 167.05 2671.45
   06:43:44.188.07-Aug-2020 5088.01 3684.47 88.66 8.00 167.25 2671.45
   06:43:44.388.07-Aug-2020 5088.01 3684.53 88.66 8.00 167.45 2671.45
   06:43:44.588.07-Aug-2020 5088.01 3684.40 88.66 8.00 167.65 2671.45
   06:43:44.788.07-Aug-2020 5088.01 3684.15 88.66 8.00 167.85 2671.45
   06:43:44.988.07-Aug-2020 5088.01 3684.40 88.66 8.00 168.05 2671.45
   06:43:45.188.07-Aug-2020 5088.01 3684.49 88.66 8.00 168.25 2671.45
   06:43:45.388.07-Aug-2020 5088.01 3684.27 88.66 8.00 168.45 2671.45
   06:43:45.588.07-Aug-2020 5088.01 3684.52 88.66 8.00 168.65 2671.45
   06:43:45.788.07-Aug-2020 5088.01 3684.33 88.66 8.00 168.85 2671.45
   06:43:45.988.07-Aug-2020 5088.01 3684.30 88.66 8.00 169.05 2671.45
   06:43:46.188.07-Aug-2020 5088.01 3684.30 88.66 8.00 169.25 2671.45
   06:43:46.388.07-Aug-2020 5088.01 3684.42 88.66 8.00 169.45 2671.45
   06:43:46.588.07-Aug-2020 5088.01 3684.42 88.66 8.00 169.65 2671.45
   06:43:46.788.07-Aug-2020 5088.01 3684.33 88.66 8.00 169.85 2671.45
   06:43:46.988.07-Aug-2020 5088.01 3684.31 88.66 8.00 170.05 2671.45
   06:43:47.188.07-Aug-2020 5088.01 3684.31 88.66 8.00 170.25 2671.45
   06:43:47.388.07-Aug-2020 5088.01 3684.24 88.65 8.00 170.45 2671.45
   06:43:47.589.07-Aug-2020 5088.01 3683.97 88.65 8.00 170.65 2671.45
   06:43:47.789.07-Aug-2020 5088.01 3684.67 88.65 8.00 170.85 2671.45
   06:43:47.989.07-Aug-2020 5088.01 3684.42 88.65 8.00 171.05 2671.45
   06:43:48.189.07-Aug-2020 5088.01 3684.42 88.65 8.00 171.25 2671.45
   06:43:48.389.07-Aug-2020 5088.01 3684.31 88.65 8.00 171.45 2671.45
   06:43:48.589.07-Aug-2020 5088.01 3684.03 88.65 8.00 171.65 2671.45
   06:43:48.789.07-Aug-2020 5088.01 3684.58 88.65 8.00 171.85 2671.45
   06:43:48.989.07-Aug-2020 5088.01 3684.32 88.65 8.00 172.05 2671.45
   06:43:49.189.07-Aug-2020 5088.01 3684.32 88.65 8.00 172.25 2671.45
   06:43:49.389.07-Aug-2020 5088.01 3684.36 88.65 8.00 172.45 2671.45
   06:43:49.589.07-Aug-2020 5088.01 3684.02 88.65 8.00 172.65 2671.45
   06:43:49.789.07-Aug-2020 5088.01 3684.46 88.65 8.00 172.85 2671.45
   06:43:49.989.07-Aug-2020 5088.01 3684.46 88.65 8.00 173.05 2671.45
   06:43:50.189.07-Aug-2020 5088.01 3684.46 88.65 8.00 173.25 2671.45
   06:43:50.389.07-Aug-2020 5088.01 3691.01 88.64 8.00 173.45 2671.45
   06:43:50.589.07-Aug-2020 5088.01 3691.01 88.64 8.00 173.65 2671.45
   06:43:50.789.07-Aug-2020 5088.01 3691.12 88.64 8.00 173.85 2671.45
   06:43:50.990.07-Aug-2020 5088.01 3691.08 88.64 8.00 174.05 2671.45
   06:43:51.190.07-Aug-2020 5088.01 3691.08 88.64 8.00 174.25 2671.45
   06:43:51.390.07-Aug-2020 5088.01 3691.11 88.64 8.00 174.45 2671.45
   06:43:51.590.07-Aug-2020 5088.01 3691.09 88.64 8.00 174.65 2671.45
   06:43:51.790.07-Aug-2020 5088.01 3691.12 88.64 8.00 174.85 2671.45
   06:43:51.990.07-Aug-2020 5088.01 3691.12 88.64 8.00 175.05 2671.45
   06:43:52.190.07-Aug-2020 5088.01 3691.12 88.64 8.00 175.25 2671.45
   06:43:52.390.07-Aug-2020 5088.01 3691.13 88.64 8.00 175.45 2671.45
   06:43:52.590.07-Aug-2020 5088.01 3691.10 88.64 8.00 175.65 2671.45
   06:43:52.790.07-Aug-2020 5088.01 3691.13 88.64 8.00 175.85 2671.45
   06:43:52.990.07-Aug-2020 5088.01 3691.11 88.64 8.00 176.05 2671.45
   06:43:53.190.07-Aug-2020 5088.01 3691.06 88.64 8.00 176.25 2671.45
   06:43:53.390.07-Aug-2020 5088.01 3691.16 88.64 8.00 176.45 2671.45
   06:43:53.590.07-Aug-2020 5088.01 3691.15 88.64 8.00 176.65 2671.45
   06:43:53.790.07-Aug-2020 5088.01 3691.09 88.63 8.00 176.85 2671.45
   06:43:53.990.07-Aug-2020 5088.01 3691.18 88.63 8.00 177.05 2671.45
   06:43:54.190.07-Aug-2020 5088.01 3691.18 88.63 8.00 177.25 2671.45
   06:43:54.391.07-Aug-2020 5088.01 3691.15 88.63 8.00 177.45 2671.45
   06:43:54.591.07-Aug-2020 5088.01 3691.12 88.63 8.00 177.65 2671.45
   06:43:54.791.07-Aug-2020 5088.01 3691.14 88.63 8.00 177.85 2671.45
   06:43:54.991.07-Aug-2020 5088.01 3691.12 88.63 8.00 178.05 2671.45
   06:43:55.191.07-Aug-2020 5088.01 3691.12 88.63 8.00 178.25 2671.45
   06:43:55.391.07-Aug-2020 5088.01 3691.13 88.63 8.00 178.45 2671.45
   06:43:55.591.07-Aug-2020 5088.01 3691.13 88.63 8.00 178.65 2671.45
   06:43:55.791.07-Aug-2020 5088.01 3691.12 88.63 8.00 178.85 2671.45
   06:43:55.991.07-Aug-2020 5088.01 3691.06 88.63 8.00 179.05 2671.45
   06:43:56.191.07-Aug-2020 5088.01 3691.06 88.63 8.00 179.25 2671.45
   06:43:56.391.07-Aug-2020 5088.01 3691.11 88.63 8.00 179.45 2671.45
   06:43:56.591.07-Aug-2020 5088.01 3691.16 88.63 8.00 179.65 2671.45
   06:43:56.791.07-Aug-2020 5088.01 3691.03 88.63 8.00 179.85 2671.45
   06:43:56.991.07-Aug-2020 5088.01 3691.20 88.63 8.00 180.05 2671.45
   06:43:57.191.07-Aug-2020 5088.01 3691.20 88.63 8.00 180.25 2671.45
   06:43:57.391.07-Aug-2020 5088.01 3691.13 88.62 8.00 180.45 2671.45
   06:43:57.591.07-Aug-2020 5088.01 3691.14 88.62 8.00 180.65 2671.45
   06:43:57.792.07-Aug-2020 5088.01 3691.13 88.62 8.00 180.85 2671.45
   06:43:57.992.07-Aug-2020 5088.01 3691.08 88.62 8.00 181.05 2671.45
   06:43:58.192.07-Aug-2020 5088.01 3691.08 88.62 8.00 181.25 2671.45
   06:43:58.392.07-Aug-2020 5088.01 3691.10 88.62 8.00 181.45 2671.45
   06:43:58.592.07-Aug-2020 5088.01 3691.17 88.62 8.00 181.65 2671.45
   06:43:58.792.07-Aug-2020 5088.01 3691.13 88.62 8.00 181.85 2671.45
   06:43:58.992.07-Aug-2020 5088.01 3691.14 88.62 8.00 182.05 2671.45
   06:43:59.192.07-Aug-2020 5088.01 3691.14 88.62 8.00 182.25 2671.45
   06:43:59.392.07-Aug-2020 5088.01 3691.23 88.62 8.00 182.45 2671.45
   06:43:59.592.07-Aug-2020 5088.01 3691.17 88.62 8.00 182.65 2671.45
   06:43:59.792.07-Aug-2020 5088.01 3691.12 88.62 8.00 182.85 2671.45
   06:43:59.992.07-Aug-2020 5088.01 3691.13 88.62 8.00 183.05 2671.45
   06:44:00.192.07-Aug-2020 5088.01 3691.13 88.62 8.00 183.25 2671.45
   06:44:00.392.07-Aug-2020 5088.01 3691.14 88.62 8.00 183.45 2671.45
   06:44:00.592.07-Aug-2020 5088.01 3691.14 88.62 8.00 183.65 2671.45
   06:44:00.792.07-Aug-2020 5088.01 3691.13 88.61 8.00 183.85 2671.45
