~Version Information
 VERS.                  2.0:   CWLS log ASCII Standard -VERSION 2.0
 WRAP.                   NO:   One line per depth step
~Well Information Block
#MNEM.UNIT     VALUE/NAME     DESCRIPTION
#---------     -----------    ---------------------------
 STRT.S             03:58:24 07-Aug-20: START TIME 03:58:24 07-Aug-20
 STOP.S             04:06:16 07-Aug-20: STOP TIME  04:06:16 07-Aug-20
 STEP.S                   0.00: STEP TIME
 NULL.                 -999.25: NULL VALUE
 DFWT.                        :  DIST FWL TEXT
 DFST.                        :  DIST FSL TEXT
 DMF .             Drill Floor:  DRILL MEAS FROM
 STIM.      12.00.00 03-Jul-20:  START TIME
 DATE.      00.50.00 09-Aug-20:  END TIME
 SPUD.               03-Jul-20:  SPUD DATE
 NREF.                    Grid:  NORTH REFERENCE
 HPTY.       Minimum Curvature:  HOLE POS TYPE
 DMOD.             Drill Model:  DRILL MOD DESC
 SVYD.                  Survey:  SURVEY DESC
 ILTD.               Lithology:  INTERP LTH DESC
 FTOP.          Formation Tops:  FORM TOPS DESC
 PDAT.          Mean Sea Level:  PERMANENT DATUM
 FLD .                     ACG:  FIELD NAME
 CTRY.              Azerbaijan:  COUNTRY NAME
 WELL.                    E04x:  WELL NAME
 SRVC.          Turan Drilling:  CONTRACTOR
 COMP.     BP Exploration (Caspian Sea) Ltd.:  COMPANY
 SON .        AZ-XX-0906531346:  JOB NUMBER
 WTYP.                Deviated:  WELL TYPE
 MDS .        Operator Entered:  MAG DATA SOURCE
 UWI .                     N/A:  UNIQUE WELL IDENTIFIER
 API .                     N/A:  API NUMBER
 BASE.              Azerbaijan:  LOGGING EQUIPMENT BASE LOCATION
 REGN.                   EESSA:  REGION
 PROV.                    Baku:  PROVINCE
 STAT.                    Baku:  STATE NAME
 MWDS.                    Baku:  MWD SHOP
 JOBN.        AZ-XX-0906531346:  JOB TICKET NUMB
 RIG .                     DWG:  RIG NAME
 DOE .                     N/A:  DOE NUMBER
 DCON.         Sperry Drilling:  DIRECTNL CONTR
 UNIT.                     N/A:  LOGGING EQUIPMENT ID
 CNTY.                        :  COUNTY
 LOC .                        :  LOCATION
 LMF .             Drill Floor:  LOG MEASURED FROM
 TVDS.m                  43.16:  TVDSS CORRECTN
 LATI.deg                40.17:  LATITUDE
 LONG.deg                51.17:  LONGITUDE
 WHNS.m                  -0.12:  WELL HEAD N/S
 WHEW.m                  -5.41:  WELL HEAD E/W
 UTMX.m              514337.95:  UTM X
 UTMY.m             4448627.46:  UTM Y
 DFWL.m                   0.00:  DISTANCE FWL
 DFSL.m                   0.00:  DISTANCE FSL
 SDEP.m                3088.01:  START DEPTH
 TDD .m                5200.01:  TOTAL DEPTH (DRILLER)
 VSDR.deg               244.51:  VERT SEC DIRECT
 GVFD.g                   1.00:  GRAVITY FIELD
 MFLD.nT              50329.80:  MAGNETIC FIELD
 MDIP.deg                59.63:  MAGNETIC DIP
 MDEC.deg                 6.59:  MAGNETIC DECL
 GRDC.deg                 0.09:  GRID CORRECTION
 AZTC.deg                 6.50:  AZM TOTAL CORR
 EPD .m                   0.00:  ELEVATION
 EGL .m                   0.00:  GROUND ELEVATION
 WDMS.m                 176.20:  WD ELEV
 APD .m                  43.16:  DEPTH ABOVE PD
 DEP .m                3084.71:  DEPTH
 AGAP.m                  43.16:  AIR GAP
 VSEW.m                  -5.41:  VERT SEC E/W
 VSNS.m                  -0.12:  VERT SEC N/S
 EKB .m                   0.00:  KB ELEVATION
 EDF .m                  43.16:  DF ELEVATION
 TDL .m                 243.00:  TOTAL DEPTH (LOGGER)
 VSC .                       0:  VS TO CLOSURE
 MAGU.                 1853542:  MAGUTM CHECKSUM
~Parameter Information Block
#MNEM.UNIT       Value        Description
#---------     -----------    ---------------------------
 AV  .mps                 1.91:  Ann Velocity 
 AVMX.mps                 2.52:  Max Ann Veloc 
 AZIF.deg               308.97:  Azm, Final 
 BHAT.        Rotary Steerable:  BHA Type 
 BROT.°/30m               1.00:  Build Rotating 
 BS  .in                  6.50:  Bit Size 
 BSZ .in                  6.50:  Bit Size 
 BTPL.psig              350.00:  Bit Press Loss 
 CABU.                      No:  Customer Abuse 
 CGEO.           Asif Pashayev:  Customer Geo 
 TCS .hr                 35.86:  Time Ciculation Ended 
 CV  .mps                 2.31:  Crit Velocity 
 CVMX.mps                 2.31:  Max Crit Veloc 
 DD1 .         Intigam Rahimov:  Direct Drillr 1 
 DDSV.               Geo-Pilot:  DD Service 
 DEFF.%                  92.00:  % Det Eff 
 DLRX.°/30m               1.00:  Dogleg Rot Max 
 DLSO.°/30m               1.00:  Dogleg Oriented 
 DLSX.°/30m               1.42:  Dogleg Str Max 
 DRET.      15.50.00 07-Aug-20:  Drill End Time 
 DRST.      10.40.00 06-Aug-20:  Drill Start Tim 
 DTIM.hr                 21.30:  Time Drilling 
 EDEP.m                5200.01:  End Depth 
 ENG1.            Alan Tuganov:  Engineer 1 
 ENG2.         Almaz Almadatov:  Engineer 2 
 ENG3.     Zammelal Abdullah Sani:  Engineer 3 
 ETIM.      22.42.00 08-Aug-20:  End Time 
 FLOI.gpm               395.00:  Flow In 
 FLON.gpm               350.00:  Flow In Min 
 FLOS.cptm                0.00:  Fluid Loss 
 FLOX.gpm               404.00:  Flow In Max 
 FTRO.       Formation Presure:  FTWD Run Obj 
 HFLO.                      No:  High Flow 
 HPRE.                      No:  High Pressure 
 HTEM.                      No:  High Temp 
 HYDO.m                   1.80:  Hydro Offset 
 IFIN.deg                72.64:  Inc, Final 
 IMAX.deg                73.68:  Inc Max 
 IMIN.deg                72.64:  Inc Min 
 IMND.m                5189.69:  Inc Min Depth 
 IMXD.m                5067.88:  Inc Max Depth 
 JARR.                      No:  Jarring 
 LETM.      15.50.00 07-Aug-20:  Log End Time 
 LOST.hr                     0:  Lost Rig Time 
 LSTM.      10.40.00 06-Aug-20:  Log Start Time 
 MDCL.ppm             36000.00:  Mud Chlorides 
 MDES.     Inversion Oil/Synthetic:  Mud Desc 
 DFD .sg                  1.36:  Mud Density 
 MDMN.sg                  1.36:  Dens Mud Min 
 MDMX.sg                  1.36:  Dens Mud Max 
 MOIL.                      70:  Run Mud Oil % 
 MOWR.                   70:30:  Run Mud OWR 
 MSND.                    0.00:  Run Mud Sand % 
 MSOL.                   17.60:  Run Mud Solids% 
 DFV .spqt               73.00:  Mud Viscosity 
 MWOD.in                  4.75:  MWD Tool OD 
 MWSI.                      No:  Serv Intrp, MWD 
 OTIM.hr                 85.66:  Time Operating 
 PCON.           Look Like New:  Pad Condition 
 PMAX.psia             6250.00:  Press Op, Max 
 PV  .cP                 65.00:  Mud PV 
 RUN .                     900:  Run Number 
 ROPA.m/hr               11.40:  ROP Avg 
 ROPN.m/hr                5.00:  ROP Min 
 ROPX.m/hr               20.00:  ROP Max 
 RPMA.rpm               130.00:  RPM Surface Avg 
 RPMN.rpm                40.00:  RPM Surface Min 
 RPMX.rpm               140.00:  RPM Surface Max 
 RRUN.                    L205:  Rig Run Number 
 RTIM.hr                  1.00:  Time Reaming 
 SAZI.deg               313.52:  Azm, Start 
 SDEP.m                4957.01:  Start Depth 
 SIDD.                      No:  Serv Intrp, DD 
 SINC.deg                73.16:  Inc, Start 
 SPPA.psig             5657.00:  SPP Avg 
 SPPN.psig             2500.00:  SPP Min 
 SPPX.psig             5806.00:  SPP Max 
 STIM.      07.12.00 05-Aug-20:  Start Time 
 SVCS.                 DD, MWD:  Services 
 SVER.                    9.20:  Sperry Version 
 TDAT.m                 243.00:  Tot Depth Attmp 
 TDDF.                      No:  Trip for DD 
 TDLG.m                 243.00:  Tot Depth Loggd 
 TFF .                      No:  Trip for Fail 
 TQAA.f-kp               13.00:  Torque Abs Avg 
 TQAN.f-kp               11.00:  Torque Abs Min 
 TQAX.f-kp               16.00:  Torque Abs Max 
 TRRT.°/30m               1.00:  Turn Rotating 
 MRT .                    HCIM:  Maximum Recorded Temperature 
 TTMX.degC               96.08:  Max Tool Temp 
 VS01.                90515411:  Virtual Str1 SN 
 VS02.                90512716:  Virtual Str2 SN 
 VS03.                90522362:  Virtual Str3 SN 
 VS04.                90619415:  Virtual Str4 SN 
 VS05.                90619414:  Virtual Str5 SN 
 VS06.                90597748:  Virtual Str6 SN 
 WBMN.klb                 2.00:  WOB Min 
 WITN.           Adil Mammadov:  Customer Rep 
 WITN.     Alexander Yadullayev:  Customer Rep 2 
 WOBA.klb                 7.00:  WOB Avg 
 WOBX.klb                23.00:  WOB Max 
 YP  .lhf2               37.00:  Yield Point 
~Curve Information Block
#MNEM.UNIT                 API CODE     Curve Description
#---------               -----------    ---------------------------
 TIME.HHMMSS            00 000 000 000:  GT Time & Date
 GTDEPTH.m              00 000 000 000:  GT Depth
 GTPQH.psia             00 000 000 000:  GT HR Quartz Pressure
 GTTQ.degC              00 000 000 000:  GT Quartz Temperature
 GTTN.NONE              00 000 000 000:  GT Test Number
 GTET.sec               00 000 000 000:  GT Elapsed Test Time
 GTTVD.m                00 000 000 000:  GT True Vertical Depth
#Other Information
#
#WARRANTY: Halliburton will use its best efforts to furnish customers with 
#accurate information and interpretations that are part of, and incident to, the services 
#provided.  However, Halliburton cannot and does not warrant the accuracy 
#or correctness of such information and interpretations.  Under no circumstances should any 
#such information or interpretation be relied upon as the sole basis for any drilling, 
#completion, production, or financial decision or any procedure involving any risk to the 
#safety of any drilling venture, drilling rig or its crew or any other third party.  The 
#Customer has full responsibility for all drilling, completion and production operation.  
#Halliburton makes no representations or warranties, either expressed or 
#implied, including, but not limited to, the implied warranties of merchantability or fitness 
#for a particular purpose, with respect to the services rendered.  In no event will 
#Halliburton be liable for failure to obtain any particular results or for 
#any damages, including, but not limited to, indirect, special or consequential damages, 
#resulting from the use of any information or interpretation provided by Halliburton.
#
~A           TIME           GTDEPTH  GTPQH  GTTQ  GTTN  GTET   GTTVD  
# ...
   04:01:05.314.07-Aug-2020 5060.51 3684.31 87.62 7.00 161.04 2663.65
   04:01:05.514.07-Aug-2020 5060.51 3684.31 87.62 7.00 161.24 2663.65
   04:01:05.714.07-Aug-2020 5060.51 3684.38 87.61 7.00 161.44 2663.65
   04:01:05.914.07-Aug-2020 5060.51 3684.31 87.61 7.00 161.64 2663.65
   04:01:06.114.07-Aug-2020 5060.51 3684.34 87.61 7.00 161.84 2663.65
   04:01:06.314.07-Aug-2020 5060.51 3684.32 87.61 7.00 162.04 2663.65
   04:01:06.514.07-Aug-2020 5060.51 3684.32 87.61 7.00 162.24 2663.65
   04:01:06.714.07-Aug-2020 5060.51 3679.85 87.61 7.00 162.44 2663.65
   04:01:06.914.07-Aug-2020 5060.51 3679.04 87.61 7.00 162.64 2663.65
   04:01:07.114.07-Aug-2020 5060.51 3679.12 87.61 7.00 162.84 2663.65
   04:01:07.314.07-Aug-2020 5060.51 3678.92 87.61 7.00 163.04 2663.65
   04:01:07.514.07-Aug-2020 5060.51 3678.92 87.61 7.00 163.24 2663.65
   04:01:07.714.07-Aug-2020 5060.51 3678.98 87.61 7.00 163.44 2663.65
   04:01:07.914.07-Aug-2020 5060.51 3679.04 87.61 7.00 163.64 2663.65
   04:01:08.114.07-Aug-2020 5060.51 3679.01 87.61 7.00 163.84 2663.65
   04:01:08.315.07-Aug-2020 5060.51 3679.05 87.61 7.00 164.04 2663.65
   04:01:08.515.07-Aug-2020 5060.51 3679.05 87.61 7.00 164.24 2663.65
   04:01:08.715.07-Aug-2020 5060.51 3679.03 87.61 7.00 164.44 2663.65
   04:01:08.915.07-Aug-2020 5060.51 3678.93 87.61 7.00 164.64 2663.65
   04:01:09.115.07-Aug-2020 5060.51 3678.97 87.61 7.00 164.84 2663.65
   04:01:09.315.07-Aug-2020 5060.51 3678.90 87.60 7.00 165.04 2663.65
   04:01:09.515.07-Aug-2020 5060.51 3678.90 87.60 7.00 165.24 2663.65
   04:01:09.715.07-Aug-2020 5060.51 3679.01 87.60 7.00 165.44 2663.65
   04:01:09.915.07-Aug-2020 5060.51 3678.98 87.60 7.00 165.64 2663.65
   04:01:10.115.07-Aug-2020 5060.51 3679.07 87.60 7.00 165.84 2663.65
   04:01:10.315.07-Aug-2020 5060.51 3679.09 87.60 7.00 166.04 2663.65
   04:01:10.515.07-Aug-2020 5060.51 3679.09 87.60 7.00 166.24 2663.65
   04:01:10.715.07-Aug-2020 5060.51 3679.11 87.60 7.00 166.44 2663.65
   04:01:10.915.07-Aug-2020 5060.51 3679.01 87.60 7.00 166.64 2663.65
   04:01:11.115.07-Aug-2020 5060.51 3679.05 87.60 7.00 166.84 2663.65
   04:01:11.315.07-Aug-2020 5060.51 3678.99 87.60 7.00 167.04 2663.65
   04:01:11.515.07-Aug-2020 5060.51 3678.99 87.60 7.00 167.24 2663.65
   04:01:11.715.07-Aug-2020 5060.51 3679.03 87.60 7.00 167.44 2663.65
   04:01:11.915.07-Aug-2020 5060.51 3679.23 87.60 7.00 167.64 2663.65
   04:01:12.115.07-Aug-2020 5060.51 3679.16 87.60 7.00 167.84 2663.65
   04:01:12.315.07-Aug-2020 5060.51 3678.93 87.60 7.00 168.04 2663.65
   04:01:12.516.07-Aug-2020 5060.51 3678.93 87.60 7.00 168.24 2663.65
   04:01:12.716.07-Aug-2020 5060.51 3679.12 87.59 7.00 168.44 2663.65
   04:01:12.916.07-Aug-2020 5060.51 3679.29 87.59 7.00 168.64 2663.65
   04:01:13.116.07-Aug-2020 5060.51 3678.70 87.59 7.00 168.84 2663.65
   04:01:13.316.07-Aug-2020 5060.51 3679.40 87.59 7.00 169.04 2663.65
   04:01:13.516.07-Aug-2020 5060.51 3679.40 87.59 7.00 169.24 2663.65
   04:01:13.716.07-Aug-2020 5060.51 3679.25 87.59 7.00 169.44 2663.65
   04:01:13.916.07-Aug-2020 5060.51 3679.12 87.59 7.00 169.64 2663.65
   04:01:14.116.07-Aug-2020 5060.51 3678.93 87.59 7.00 169.84 2663.65
   04:01:14.316.07-Aug-2020 5060.51 3678.99 87.59 7.00 170.04 2663.65
   04:01:14.516.07-Aug-2020 5060.51 3678.99 87.59 7.00 170.24 2663.65
   04:01:14.716.07-Aug-2020 5060.51 3679.07 87.59 7.00 170.44 2663.65
   04:01:14.916.07-Aug-2020 5060.51 3679.20 87.59 7.00 170.64 2663.65
   04:01:15.116.07-Aug-2020 5060.51 3679.16 87.59 7.00 170.84 2663.65
   04:01:15.316.07-Aug-2020 5060.51 3679.15 87.59 7.00 171.04 2663.65
   04:01:15.516.07-Aug-2020 5060.51 3679.15 87.59 7.00 171.24 2663.65
   04:01:15.716.07-Aug-2020 5060.51 3679.39 87.59 7.00 171.44 2663.65
   04:01:15.916.07-Aug-2020 5060.51 3679.10 87.59 7.00 171.64 2663.65
   04:01:16.116.07-Aug-2020 5060.51 3679.13 87.59 7.00 171.84 2663.65
   04:01:16.316.07-Aug-2020 5060.51 3679.04 87.58 7.00 172.04 2663.65
   04:01:16.516.07-Aug-2020 5060.51 3679.04 87.58 7.00 172.24 2663.65
   04:01:16.717.07-Aug-2020 5060.51 3680.15 87.58 7.00 172.44 2663.65
   04:01:16.917.07-Aug-2020 5060.51 3684.03 87.58 7.00 172.64 2663.65
   04:01:17.117.07-Aug-2020 5060.51 3684.14 87.58 7.00 172.84 2663.65
   04:01:17.317.07-Aug-2020 5060.51 3684.14 87.58 7.00 173.04 2663.65
   04:01:17.517.07-Aug-2020 5060.51 3684.14 87.58 7.00 173.24 2663.65
   04:01:17.717.07-Aug-2020 5060.51 3684.15 87.58 7.00 173.44 2663.65
   04:01:17.917.07-Aug-2020 5060.51 3684.19 87.58 7.00 173.64 2663.65
   04:01:18.117.07-Aug-2020 5060.51 3684.16 87.58 7.00 173.84 2663.65
   04:01:18.317.07-Aug-2020 5060.51 3684.19 87.58 7.00 174.04 2663.65
   04:01:18.517.07-Aug-2020 5060.51 3684.19 87.58 7.00 174.24 2663.65
   04:01:18.717.07-Aug-2020 5060.51 3684.23 87.58 7.00 174.44 2663.65
   04:01:18.917.07-Aug-2020 5060.51 3684.26 87.58 7.00 174.64 2663.65
   04:01:19.117.07-Aug-2020 5060.51 3684.25 87.58 7.00 174.84 2663.65
   04:01:19.317.07-Aug-2020 5060.51 3684.24 87.58 7.00 175.04 2663.65
   04:01:19.517.07-Aug-2020 5060.51 3684.24 87.58 7.00 175.24 2663.65
   04:01:19.717.07-Aug-2020 5060.51 3684.23 87.58 7.00 175.44 2663.65
   04:01:19.917.07-Aug-2020 5060.51 3684.25 87.57 7.00 175.64 2663.65
   04:01:20.117.07-Aug-2020 5060.51 3684.24 87.57 7.00 175.84 2663.65
   04:01:20.317.07-Aug-2020 5060.51 3684.25 87.57 7.00 176.04 2663.65
   04:01:20.517.07-Aug-2020 5060.51 3684.25 87.57 7.00 176.24 2663.65
   04:01:20.717.07-Aug-2020 5060.51 3684.25 87.57 7.00 176.44 2663.65
   04:01:20.918.07-Aug-2020 5060.51 3684.16 87.57 7.00 176.64 2663.65
   04:01:21.118.07-Aug-2020 5060.51 3684.29 87.57 7.00 176.84 2663.65
   04:01:21.318.07-Aug-2020 5060.51 3684.25 87.57 7.00 177.04 2663.65
   04:01:21.518.07-Aug-2020 5060.51 3684.25 87.57 7.00 177.24 2663.65
   04:01:21.718.07-Aug-2020 5060.51 3684.22 87.57 7.00 177.44 2663.65
   04:01:21.918.07-Aug-2020 5060.51 3684.29 87.57 7.00 177.64 2663.65
   04:01:22.118.07-Aug-2020 5060.51 3684.27 87.57 7.00 177.84 2663.65
   04:01:22.318.07-Aug-2020 5060.51 3684.26 87.57 7.00 178.04 2663.65
   04:01:22.518.07-Aug-2020 5060.51 3684.26 87.57 7.00 178.24 2663.65
   04:01:22.718.07-Aug-2020 5060.51 3684.25 87.57 7.00 178.44 2663.65
   04:01:22.918.07-Aug-2020 5060.51 3684.29 87.57 7.00 178.64 2663.65
   04:01:23.118.07-Aug-2020 5060.51 3684.19 87.57 7.00 178.84 2663.65
   04:01:23.318.07-Aug-2020 5060.51 3684.31 87.57 7.00 179.04 2663.65
   04:01:23.518.07-Aug-2020 5060.51 3684.31 87.57 7.00 179.24 2663.65
   04:01:23.718.07-Aug-2020 5060.51 3684.30 87.56 7.00 179.44 2663.65
   04:01:23.918.07-Aug-2020 5060.51 3684.25 87.56 7.00 179.64 2663.65
   04:01:24.118.07-Aug-2020 5060.51 3684.19 87.56 7.00 179.84 2663.65
   04:01:24.318.07-Aug-2020 5060.51 3684.33 87.56 7.00 180.04 2663.65
   04:01:24.518.07-Aug-2020 5060.51 3684.33 87.56 7.00 180.24 2663.65
   04:01:24.718.07-Aug-2020 5060.51 3684.29 87.56 7.00 180.44 2663.65
   04:01:24.918.07-Aug-2020 5060.51 3684.27 87.56 7.00 180.64 2663.65
   04:01:25.119.07-Aug-2020 5060.51 3684.26 87.56 7.00 180.84 2663.65
   04:01:25.319.07-Aug-2020 5060.51 3684.28 87.56 7.00 181.04 2663.65
   04:01:25.519.07-Aug-2020 5060.51 3684.28 87.56 7.00 181.24 2663.65
   04:01:25.719.07-Aug-2020 5060.51 3684.27 87.56 7.00 181.44 2663.65
   04:01:25.919.07-Aug-2020 5060.51 3684.26 87.56 7.00 181.64 2663.65
   04:01:26.119.07-Aug-2020 5060.51 3684.26 87.56 7.00 181.84 2663.65
   04:01:26.319.07-Aug-2020 5060.51 3684.26 87.56 7.00 182.04 2663.65
   04:01:26.519.07-Aug-2020 5060.51 3684.26 87.56 7.00 182.24 2663.65
   04:01:26.719.07-Aug-2020 5060.51 3684.22 87.56 7.00 182.44 2663.65
   04:01:26.919.07-Aug-2020 5060.51 3684.22 87.56 7.00 182.64 2663.65
   04:01:27.119.07-Aug-2020 5060.51 3684.30 87.56 7.00 182.84 2663.65
   04:01:27.319.07-Aug-2020 5060.51 3684.24 87.55 7.00 183.04 2663.65
   04:01:27.519.07-Aug-2020 5060.51 3684.24 87.55 7.00 183.24 2663.65
   04:01:27.719.07-Aug-2020 5060.51 3684.25 87.55 7.00 183.44 2663.65
   04:01:27.919.07-Aug-2020 5060.51 3684.27 87.55 7.00 183.64 2663.65
   04:01:28.119.07-Aug-2020 5060.51 3684.26 87.55 7.00 183.84 2663.65
