~Version Information
 VERS.                  2.0:   CWLS log ASCII Standard -VERSION 2.0
 WRAP.                   NO:   One line per depth step
~Well Information Block
#MNEM.UNIT     VALUE/NAME     DESCRIPTION
#---------     -----------    ---------------------------
 STRT.S             00:43:02 07-Aug-20: START TIME 00:43:02 07-Aug-20
 STOP.S             00:50:54 07-Aug-20: STOP TIME  00:50:54 07-Aug-20
 STEP.S                   0.00: STEP TIME
 NULL.                 -999.25: NULL VALUE
 DFWT.                        :  DIST FWL TEXT
 DFST.                        :  DIST FSL TEXT
 DMF .             Drill Floor:  DRILL MEAS FROM
 STIM.      12.00.00 03-Jul-20:  START TIME
 DATE.      00.50.00 09-Aug-20:  END TIME
 SPUD.               03-Jul-20:  SPUD DATE
 NREF.                    Grid:  NORTH REFERENCE
 HPTY.       Minimum Curvature:  HOLE POS TYPE
 DMOD.             Drill Model:  DRILL MOD DESC
 SVYD.                  Survey:  SURVEY DESC
 ILTD.               Lithology:  INTERP LTH DESC
 FTOP.          Formation Tops:  FORM TOPS DESC
 PDAT.          Mean Sea Level:  PERMANENT DATUM
 FLD .                     ACG:  FIELD NAME
 CTRY.              Azerbaijan:  COUNTRY NAME
 WELL.                    E04x:  WELL NAME
 SRVC.          Turan Drilling:  CONTRACTOR
 COMP.     BP Exploration (Caspian Sea) Ltd.:  COMPANY
 SON .        AZ-XX-0906531346:  JOB NUMBER
 WTYP.                Deviated:  WELL TYPE
 MDS .        Operator Entered:  MAG DATA SOURCE
 UWI .                     N/A:  UNIQUE WELL IDENTIFIER
 API .                     N/A:  API NUMBER
 BASE.              Azerbaijan:  LOGGING EQUIPMENT BASE LOCATION
 REGN.                   EESSA:  REGION
 PROV.                    Baku:  PROVINCE
 STAT.                    Baku:  STATE NAME
 MWDS.                    Baku:  MWD SHOP
 JOBN.        AZ-XX-0906531346:  JOB TICKET NUMB
 RIG .                     DWG:  RIG NAME
 DOE .                     N/A:  DOE NUMBER
 DCON.         Sperry Drilling:  DIRECTNL CONTR
 UNIT.                     N/A:  LOGGING EQUIPMENT ID
 CNTY.                        :  COUNTY
 LOC .                        :  LOCATION
 LMF .             Drill Floor:  LOG MEASURED FROM
 TVDS.m                  43.16:  TVDSS CORRECTN
 LATI.deg                40.17:  LATITUDE
 LONG.deg                51.17:  LONGITUDE
 WHNS.m                  -0.12:  WELL HEAD N/S
 WHEW.m                  -5.41:  WELL HEAD E/W
 UTMX.m              514337.95:  UTM X
 UTMY.m             4448627.46:  UTM Y
 DFWL.m                   0.00:  DISTANCE FWL
 DFSL.m                   0.00:  DISTANCE FSL
 SDEP.m                3088.01:  START DEPTH
 TDD .m                5200.01:  TOTAL DEPTH (DRILLER)
 VSDR.deg               244.51:  VERT SEC DIRECT
 GVFD.g                   1.00:  GRAVITY FIELD
 MFLD.nT              50329.80:  MAGNETIC FIELD
 MDIP.deg                59.63:  MAGNETIC DIP
 MDEC.deg                 6.59:  MAGNETIC DECL
 GRDC.deg                 0.09:  GRID CORRECTION
 AZTC.deg                 6.50:  AZM TOTAL CORR
 EPD .m                   0.00:  ELEVATION
 EGL .m                   0.00:  GROUND ELEVATION
 WDMS.m                 176.20:  WD ELEV
 APD .m                  43.16:  DEPTH ABOVE PD
 DEP .m                3084.71:  DEPTH
 AGAP.m                  43.16:  AIR GAP
 VSEW.m                  -5.41:  VERT SEC E/W
 VSNS.m                  -0.12:  VERT SEC N/S
 EKB .m                   0.00:  KB ELEVATION
 EDF .m                  43.16:  DF ELEVATION
 TDL .m                 243.00:  TOTAL DEPTH (LOGGER)
 VSC .                       0:  VS TO CLOSURE
 MAGU.                 1853542:  MAGUTM CHECKSUM
~Parameter Information Block
#MNEM.UNIT       Value        Description
#---------     -----------    ---------------------------
 AV  .mps                 1.91:  Ann Velocity 
 AVMX.mps                 2.52:  Max Ann Veloc 
 AZIF.deg               308.97:  Azm, Final 
 BHAT.        Rotary Steerable:  BHA Type 
 BROT.°/30m               1.00:  Build Rotating 
 BS  .in                  6.50:  Bit Size 
 BSZ .in                  6.50:  Bit Size 
 BTPL.psig              350.00:  Bit Press Loss 
 CABU.                      No:  Customer Abuse 
 CGEO.           Asif Pashayev:  Customer Geo 
 COMM.                     ´è„:  Run Comments 1 
 TCS .hr                 35.86:  Time Ciculation Ended 
 CV  .mps                 2.31:  Crit Velocity 
 CVMX.mps                 2.31:  Max Crit Veloc 
 DD1 .         Intigam Rahimov:  Direct Drillr 1 
 DDSV.               Geo-Pilot:  DD Service 
 DEFF.%                  92.00:  % Det Eff 
 DLRX.°/30m               1.00:  Dogleg Rot Max 
 DLSO.°/30m               1.00:  Dogleg Oriented 
 DLSX.°/30m               1.42:  Dogleg Str Max 
 DRET.      15.50.00 07-Aug-20:  Drill End Time 
 DRST.      10.40.00 06-Aug-20:  Drill Start Tim 
 DTIM.hr                 21.30:  Time Drilling 
 EDEP.m                5200.01:  End Depth 
 ENG1.            Alan Tuganov:  Engineer 1 
 ENG2.         Almaz Almadatov:  Engineer 2 
 ENG3.     Zammelal Abdullah Sani:  Engineer 3 
 ETIM.      22.42.00 08-Aug-20:  End Time 
 FLOI.gpm               395.00:  Flow In 
 FLON.gpm               350.00:  Flow In Min 
 FLOS.cptm                0.00:  Fluid Loss 
 FLOX.gpm               404.00:  Flow In Max 
 FTRO.       Formation Presure:  FTWD Run Obj 
 HFLO.                      No:  High Flow 
 HPRE.                      No:  High Pressure 
 HTEM.                      No:  High Temp 
 HYDO.m                   1.80:  Hydro Offset 
 IFIN.deg                72.64:  Inc, Final 
 IMAX.deg                73.68:  Inc Max 
 IMIN.deg                72.64:  Inc Min 
 IMND.m                5189.69:  Inc Min Depth 
 IMXD.m                5067.88:  Inc Max Depth 
 JARR.                      No:  Jarring 
 LETM.      15.50.00 07-Aug-20:  Log End Time 
 LOST.hr                     0:  Lost Rig Time 
 LSTM.      10.40.00 06-Aug-20:  Log Start Time 
 MDCL.ppm             36000.00:  Mud Chlorides 
 MDES.     Inversion Oil/Synthetic:  Mud Desc 
 DFD .sg                  1.36:  Mud Density 
 MDMN.sg                  1.36:  Dens Mud Min 
 MDMX.sg                  1.36:  Dens Mud Max 
 MOIL.                      70:  Run Mud Oil % 
 MOWR.                   70:30:  Run Mud OWR 
 MSND.                    0.00:  Run Mud Sand % 
 MSOL.                   17.60:  Run Mud Solids% 
 DFV .spqt               73.00:  Mud Viscosity 
 MWOD.in                  4.75:  MWD Tool OD 
 MWSI.                      No:  Serv Intrp, MWD 
 OTIM.hr                 85.66:  Time Operating 
 PCON.           Look Like New:  Pad Condition 
 PMAX.psia             6250.00:  Press Op, Max 
 PV  .cP                 65.00:  Mud PV 
 RUN .                     900:  Run Number 
 ROPA.m/hr               11.40:  ROP Avg 
 ROPN.m/hr                5.00:  ROP Min 
 ROPX.m/hr               20.00:  ROP Max 
 RPMA.rpm               130.00:  RPM Surface Avg 
 RPMN.rpm                40.00:  RPM Surface Min 
 RPMX.rpm               140.00:  RPM Surface Max 
 RRUN.                    L205:  Rig Run Number 
 RTIM.hr                  1.00:  Time Reaming 
 SAZI.deg               313.52:  Azm, Start 
 SDEP.m                4957.01:  Start Depth 
 SIDD.                      No:  Serv Intrp, DD 
 SINC.deg                73.16:  Inc, Start 
 SPPA.psig             5657.00:  SPP Avg 
 SPPN.psig             2500.00:  SPP Min 
 SPPX.psig             5806.00:  SPP Max 
 STIM.      07.12.00 05-Aug-20:  Start Time 
 SVCS.                 DD, MWD:  Services 
 SVER.                    9.20:  Sperry Version 
 TDAT.m                 243.00:  Tot Depth Attmp 
 TDDF.                      No:  Trip for DD 
 TDLG.m                 243.00:  Tot Depth Loggd 
 TFF .                      No:  Trip for Fail 
 TQAA.f-kp               13.00:  Torque Abs Avg 
 TQAN.f-kp               11.00:  Torque Abs Min 
 TQAX.f-kp               16.00:  Torque Abs Max 
 TRRT.°/30m               1.00:  Turn Rotating 
 MRT .                    HCIM:  Maximum Recorded Temperature 
 TTMX.degC               96.08:  Max Tool Temp 
 VS01.                90515411:  Virtual Str1 SN 
 VS02.                90512716:  Virtual Str2 SN 
 VS03.                90522362:  Virtual Str3 SN 
 VS04.                90619415:  Virtual Str4 SN 
 VS05.                90619414:  Virtual Str5 SN 
 VS06.                90597748:  Virtual Str6 SN 
 WBMN.klb                 2.00:  WOB Min 
 WITN.           Adil Mammadov:  Customer Rep 
 WITN.     Alexander Yadullayev:  Customer Rep 2 
 WOBA.klb                 7.00:  WOB Avg 
 WOBX.klb                23.00:  WOB Max 
 YP  .lhf2               37.00:  Yield Point 
~Curve Information Block
#MNEM.UNIT                 API CODE     Curve Description
#---------               -----------    ---------------------------
 TIME.HHMMSS            00 000 000 000:  GT Time & Date
 GTDEPTH.m              00 000 000 000:  GT Depth
 GTPQH.psia             00 000 000 000:  GT HR Quartz Pressure
 GTTQ.degC              00 000 000 000:  GT Quartz Temperature
 GTTN.NONE              00 000 000 000:  GT Test Number
 GTET.sec               00 000 000 000:  GT Elapsed Test Time
 GTTVD.m                00 000 000 000:  GT True Vertical Depth
#Other Information
#
#WARRANTY: Halliburton will use its best efforts to furnish customers with 
#accurate information and interpretations that are part of, and incident to, the services 
#provided.  However, Halliburton cannot and does not warrant the accuracy 
#or correctness of such information and interpretations.  Under no circumstances should any 
#such information or interpretation be relied upon as the sole basis for any drilling, 
#completion, production, or financial decision or any procedure involving any risk to the 
#safety of any drilling venture, drilling rig or its crew or any other third party.  The 
#Customer has full responsibility for all drilling, completion and production operation.  
#Halliburton makes no representations or warranties, either expressed or 
#implied, including, but not limited to, the implied warranties of merchantability or fitness 
#for a particular purpose, with respect to the services rendered.  In no event will 
#Halliburton be liable for failure to obtain any particular results or for 
#any damages, including, but not limited to, indirect, special or consequential damages, 
#resulting from the use of any information or interpretation provided by Halliburton.
#
~A           TIME           GTDEPTH  GTPQH  GTTQ  GTTN  GTET   GTTVD  
# ...
   00:48:47.598.07-Aug-2020 5032.01 3673.57 85.98 5.00 345.08 2655.40
   00:48:47.798.07-Aug-2020 5032.01 3673.57 85.98 5.00 345.28 2655.40
   00:48:47.998.07-Aug-2020 5032.01 3673.63 85.98 5.00 345.48 2655.40
   00:48:48.198.07-Aug-2020 5032.01 3673.57 85.98 5.00 345.68 2655.40
   00:48:48.398.07-Aug-2020 5032.01 3673.56 85.98 5.00 345.88 2655.40
   00:48:48.598.07-Aug-2020 5032.01 3673.59 85.98 5.00 346.08 2655.40
   00:48:48.798.07-Aug-2020 5032.01 3673.59 85.98 5.00 346.28 2655.40
   00:48:48.998.07-Aug-2020 5032.01 3673.59 85.97 5.00 346.48 2655.40
   00:48:49.198.07-Aug-2020 5032.01 3673.54 85.97 5.00 346.68 2655.40
   00:48:49.398.07-Aug-2020 5032.01 3673.60 85.97 5.00 346.88 2655.40
   00:48:49.598.07-Aug-2020 5032.01 3673.54 85.97 5.00 347.08 2655.40
   00:48:49.798.07-Aug-2020 5032.01 3673.54 85.97 5.00 347.28 2655.40
   00:48:49.998.07-Aug-2020 5032.01 3673.56 85.97 5.00 347.48 2655.40
   00:48:50.198.07-Aug-2020 5032.01 3673.59 85.97 5.00 347.68 2655.40
   00:48:50.398.07-Aug-2020 5032.01 3673.53 85.97 5.00 347.88 2655.40
   00:48:50.599.07-Aug-2020 5032.01 3673.57 85.97 5.00 348.08 2655.40
   00:48:50.799.07-Aug-2020 5032.01 3673.54 85.97 5.00 348.28 2655.40
   00:48:50.999.07-Aug-2020 5032.01 3673.62 85.97 5.00 348.48 2655.40
   00:48:51.199.07-Aug-2020 5032.01 3673.55 85.97 5.00 348.68 2655.40
   00:48:51.399.07-Aug-2020 5032.01 3673.60 85.97 5.00 348.88 2655.40
   00:48:51.599.07-Aug-2020 5032.01 3673.57 85.97 5.00 349.08 2655.40
   00:48:51.799.07-Aug-2020 5032.01 3673.57 85.97 5.00 349.28 2655.40
   00:48:51.999.07-Aug-2020 5032.01 3673.58 85.97 5.00 349.48 2655.40
   00:48:52.199.07-Aug-2020 5032.01 3673.57 85.97 5.00 349.68 2655.40
   00:48:52.399.07-Aug-2020 5032.01 3673.56 85.97 5.00 349.88 2655.40
   00:48:52.599.07-Aug-2020 5032.01 3673.56 85.97 5.00 350.08 2655.40
   00:48:52.799.07-Aug-2020 5032.01 3673.56 85.97 5.00 350.28 2655.40
   00:48:52.999.07-Aug-2020 5032.01 3673.56 85.97 5.00 350.48 2655.40
   00:48:53.199.07-Aug-2020 5032.01 3673.45 85.97 5.00 350.68 2655.40
   00:48:53.399.07-Aug-2020 5032.01 3673.67 85.97 5.00 350.88 2655.40
   00:48:53.599.07-Aug-2020 5032.01 3673.55 85.96 5.00 351.08 2655.40
   00:48:53.799.07-Aug-2020 5032.01 3673.55 85.96 5.00 351.28 2655.40
   00:48:53.999.07-Aug-2020 5032.01 3673.47 85.96 5.00 351.48 2655.40
   00:48:54.199.07-Aug-2020 5032.01 3673.66 85.96 5.00 351.68 2655.40
   00:48:54.399.07-Aug-2020 5032.01 3673.55 85.96 5.00 351.88 2655.40
   00:48:54.599.07-Aug-2020 5032.01 3673.58 85.96 5.00 352.08 2655.40
   00:48:54.800.07-Aug-2020 5032.01 3673.58 85.96 5.00 352.28 2655.40
   00:48:55.000.07-Aug-2020 5032.01 3673.56 85.96 5.00 352.48 2655.40
   00:48:55.200.07-Aug-2020 5032.01 3673.46 85.96 5.00 352.68 2655.40
   00:48:55.400.07-Aug-2020 5032.01 3673.67 85.96 5.00 352.88 2655.40
   00:48:55.600.07-Aug-2020 5032.01 3673.54 85.96 5.00 353.08 2655.40
   00:48:55.800.07-Aug-2020 5032.01 3673.54 85.96 5.00 353.28 2655.40
   00:48:56.000.07-Aug-2020 5032.01 3673.56 85.96 5.00 353.48 2655.40
   00:48:56.200.07-Aug-2020 5032.01 3673.47 85.96 5.00 353.68 2655.40
   00:48:56.400.07-Aug-2020 5032.01 3673.67 85.96 5.00 353.88 2655.40
   00:48:56.600.07-Aug-2020 5032.01 3673.52 85.96 5.00 354.08 2655.40
   00:48:56.800.07-Aug-2020 5032.01 3673.52 85.96 5.00 354.28 2655.40
   00:48:57.000.07-Aug-2020 5032.01 3673.54 85.96 5.00 354.48 2655.40
   00:48:57.200.07-Aug-2020 5032.01 3673.58 85.96 5.00 354.68 2655.40
   00:48:57.400.07-Aug-2020 5032.01 3673.57 85.96 5.00 354.88 2655.40
   00:48:57.600.07-Aug-2020 5032.01 3673.56 85.96 5.00 355.08 2655.40
   00:48:57.800.07-Aug-2020 5032.01 3673.56 85.96 5.00 355.28 2655.40
   00:48:58.000.07-Aug-2020 5032.01 3673.55 85.95 5.00 355.48 2655.40
   00:48:58.200.07-Aug-2020 5032.01 3673.57 85.95 5.00 355.68 2655.40
   00:48:58.400.07-Aug-2020 5032.01 3673.54 85.95 5.00 355.88 2655.40
   00:48:58.600.07-Aug-2020 5032.01 3673.57 85.95 5.00 356.08 2655.40
   00:48:58.800.07-Aug-2020 5032.01 3673.53 85.95 5.00 356.28 2655.40
   00:48:59.000.07-Aug-2020 5032.01 3673.52 85.95 5.00 356.48 2655.40
   00:48:59.201.07-Aug-2020 5032.01 3673.58 85.95 5.00 356.68 2655.40
   00:48:59.401.07-Aug-2020 5032.01 3673.57 85.95 5.00 356.88 2655.40
   00:48:59.601.07-Aug-2020 5032.01 3673.56 85.95 5.00 357.08 2655.40
   00:48:59.801.07-Aug-2020 5032.01 3673.56 85.95 5.00 357.28 2655.40
   00:49:00.001.07-Aug-2020 5032.01 3673.55 85.95 5.00 357.48 2655.40
   00:49:00.201.07-Aug-2020 5032.01 3673.58 85.95 5.00 357.68 2655.40
   00:49:00.401.07-Aug-2020 5032.01 3673.53 85.95 5.00 357.88 2655.40
   00:49:00.601.07-Aug-2020 5032.01 3673.57 85.95 5.00 358.08 2655.40
   00:49:00.801.07-Aug-2020 5032.01 3673.57 85.95 5.00 358.28 2655.40
   00:49:01.001.07-Aug-2020 5032.01 3673.57 85.95 5.00 358.48 2655.40
   00:49:01.201.07-Aug-2020 5032.01 3673.54 85.95 5.00 358.68 2655.40
   00:49:01.401.07-Aug-2020 5032.01 3673.56 85.95 5.00 358.88 2655.40
   00:49:01.601.07-Aug-2020 5032.01 3673.49 85.95 5.00 359.08 2655.40
   00:49:01.801.07-Aug-2020 5032.01 3673.49 85.95 5.00 359.28 2655.40
   00:49:02.001.07-Aug-2020 5032.01 3673.51 85.95 5.00 359.48 2655.40
   00:49:02.201.07-Aug-2020 5032.01 3673.60 85.95 5.00 359.68 2655.40
   00:49:02.401.07-Aug-2020 5032.01 3673.46 85.95 5.00 359.88 2655.40
   00:49:02.601.07-Aug-2020 5032.01 3673.64 85.94 5.00 360.08 2655.40
   00:49:02.801.07-Aug-2020 5032.01 3673.64 85.94 5.00 360.28 2655.40
   00:49:03.001.07-Aug-2020 5032.01 3673.59 85.94 5.00 360.48 2655.40
   00:49:03.201.07-Aug-2020 5032.01 3673.55 85.94 5.00 360.68 2655.40
   00:49:03.402.07-Aug-2020 5032.01 3673.57 85.94 5.00 360.88 2655.40
   00:49:03.602.07-Aug-2020 5032.01 3673.51 85.94 5.00 361.09 2655.40
   00:49:03.802.07-Aug-2020 5032.01 3673.51 85.94 5.00 361.29 2655.40
   00:49:04.002.07-Aug-2020 5032.01 3673.53 85.94 5.00 361.49 2655.40
   00:49:04.202.07-Aug-2020 5032.01 3673.58 85.94 5.00 361.69 2655.40
   00:49:04.402.07-Aug-2020 5032.01 3673.54 85.94 5.00 361.89 2655.40
   00:49:04.602.07-Aug-2020 5032.01 3673.52 85.94 5.00 362.09 2655.40
   00:49:04.802.07-Aug-2020 5032.01 3673.52 85.94 5.00 362.29 2655.40
   00:49:05.002.07-Aug-2020 5032.01 3673.49 85.94 5.00 362.49 2655.40
   00:49:05.202.07-Aug-2020 5032.01 3673.62 85.94 5.00 362.69 2655.40
   00:49:05.402.07-Aug-2020 5032.01 3673.53 85.94 5.00 362.89 2655.40
   00:49:05.602.07-Aug-2020 5032.01 3673.59 85.94 5.00 363.09 2655.40
   00:49:05.802.07-Aug-2020 5032.01 3673.59 85.94 5.00 363.29 2655.40
   00:49:06.002.07-Aug-2020 5032.01 3673.58 85.94 5.00 363.49 2655.40
   00:49:06.202.07-Aug-2020 5032.01 3673.53 85.94 5.00 363.69 2655.40
   00:49:06.402.07-Aug-2020 5032.01 3673.56 85.94 5.00 363.89 2655.40
   00:49:06.602.07-Aug-2020 5032.01 3673.56 85.94 5.00 364.09 2655.40
   00:49:06.802.07-Aug-2020 5032.01 3673.55 85.94 5.00 364.29 2655.40
   00:49:07.002.07-Aug-2020 5032.01 3673.55 85.94 5.00 364.49 2655.40
   00:49:07.202.07-Aug-2020 5032.01 3673.55 85.93 5.00 364.69 2655.40
   00:49:07.402.07-Aug-2020 5032.01 3673.45 85.93 5.00 364.89 2655.40
   00:49:07.603.07-Aug-2020 5032.01 3673.64 85.93 5.00 365.09 2655.40
   00:49:07.803.07-Aug-2020 5032.01 3673.64 85.93 5.00 365.29 2655.40
   00:49:08.003.07-Aug-2020 5032.01 3673.56 85.93 5.00 365.49 2655.40
   00:49:08.203.07-Aug-2020 5032.01 3673.55 85.93 5.00 365.69 2655.40
   00:49:08.403.07-Aug-2020 5032.01 3673.54 85.93 5.00 365.89 2655.40
   00:49:08.603.07-Aug-2020 5032.01 3673.56 85.93 5.00 366.09 2655.40
   00:49:08.803.07-Aug-2020 5032.01 3673.56 85.93 5.00 366.29 2655.40
   00:49:09.003.07-Aug-2020 5032.01 3673.56 85.93 5.00 366.49 2655.40
   00:49:09.203.07-Aug-2020 5032.01 3673.53 85.93 5.00 366.69 2655.40
   00:49:09.403.07-Aug-2020 5032.01 3673.57 85.93 5.00 366.89 2655.40
   00:49:09.603.07-Aug-2020 5032.01 3673.51 85.93 5.00 367.09 2655.40
   00:49:09.803.07-Aug-2020 5032.01 3673.51 85.93 5.00 367.29 2655.40
   00:49:10.003.07-Aug-2020 5032.01 3673.52 85.93 5.00 367.49 2655.40
   00:49:10.203.07-Aug-2020 5032.01 3673.52 85.93 5.00 367.69 2655.40
   00:49:10.403.07-Aug-2020 5032.01 3673.53 85.93 5.00 367.89 2655.40
