~Version Information
 VERS.                  2.0:   CWLS log ASCII Standard -VERSION 2.0
 WRAP.                   NO:   One line per depth step
~Well Information Block
#MNEM.UNIT     VALUE/NAME     DESCRIPTION
#---------     -----------    ---------------------------
 STRT.S             15:38:44 07-Aug-20: START TIME 15:38:44 07-Aug-20
 STOP.S             15:46:36 07-Aug-20: STOP TIME  15:46:36 07-Aug-20
 STEP.S                   0.00: STEP TIME
 NULL.                 -999.25: NULL VALUE
 DFWT.                        :  DIST FWL TEXT
 DFST.                        :  DIST FSL TEXT
 DMF .             Drill Floor:  DRILL MEAS FROM
 STIM.      12.00.00 03-Jul-20:  START TIME
 DATE.      00.50.00 09-Aug-20:  END TIME
 SPUD.               03-Jul-20:  SPUD DATE
 NREF.                    Grid:  NORTH REFERENCE
 HPTY.       Minimum Curvature:  HOLE POS TYPE
 DMOD.             Drill Model:  DRILL MOD DESC
 SVYD.                  Survey:  SURVEY DESC
 ILTD.               Lithology:  INTERP LTH DESC
 FTOP.          Formation Tops:  FORM TOPS DESC
 PDAT.          Mean Sea Level:  PERMANENT DATUM
 FLD .                     ACG:  FIELD NAME
 CTRY.              Azerbaijan:  COUNTRY NAME
 WELL.                    E04x:  WELL NAME
 SRVC.          Turan Drilling:  CONTRACTOR
 COMP.     BP Exploration (Caspian Sea) Ltd.:  COMPANY
 SON .        AZ-XX-0906531346:  JOB NUMBER
 WTYP.                Deviated:  WELL TYPE
 MDS .        Operator Entered:  MAG DATA SOURCE
 UWI .                     N/A:  UNIQUE WELL IDENTIFIER
 API .                     N/A:  API NUMBER
 BASE.              Azerbaijan:  LOGGING EQUIPMENT BASE LOCATION
 REGN.                   EESSA:  REGION
 PROV.                    Baku:  PROVINCE
 STAT.                    Baku:  STATE NAME
 MWDS.                    Baku:  MWD SHOP
 JOBN.        AZ-XX-0906531346:  JOB TICKET NUMB
 RIG .                     DWG:  RIG NAME
 DOE .                     N/A:  DOE NUMBER
 DCON.         Sperry Drilling:  DIRECTNL CONTR
 UNIT.                     N/A:  LOGGING EQUIPMENT ID
 CNTY.                        :  COUNTY
 LOC .                        :  LOCATION
 LMF .             Drill Floor:  LOG MEASURED FROM
 TVDS.m                  43.16:  TVDSS CORRECTN
 LATI.deg                40.17:  LATITUDE
 LONG.deg                51.17:  LONGITUDE
 WHNS.m                  -0.12:  WELL HEAD N/S
 WHEW.m                  -5.41:  WELL HEAD E/W
 UTMX.m              514337.95:  UTM X
 UTMY.m             4448627.46:  UTM Y
 DFWL.m                   0.00:  DISTANCE FWL
 DFSL.m                   0.00:  DISTANCE FSL
 SDEP.m                3088.01:  START DEPTH
 TDD .m                5200.01:  TOTAL DEPTH (DRILLER)
 VSDR.deg               244.51:  VERT SEC DIRECT
 GVFD.g                   1.00:  GRAVITY FIELD
 MFLD.nT              50329.80:  MAGNETIC FIELD
 MDIP.deg                59.63:  MAGNETIC DIP
 MDEC.deg                 6.59:  MAGNETIC DECL
 GRDC.deg                 0.09:  GRID CORRECTION
 AZTC.deg                 6.50:  AZM TOTAL CORR
 EPD .m                   0.00:  ELEVATION
 EGL .m                   0.00:  GROUND ELEVATION
 WDMS.m                 176.20:  WD ELEV
 APD .m                  43.16:  DEPTH ABOVE PD
 DEP .m                3084.71:  DEPTH
 AGAP.m                  43.16:  AIR GAP
 VSEW.m                  -5.41:  VERT SEC E/W
 VSNS.m                  -0.12:  VERT SEC N/S
 EKB .m                   0.00:  KB ELEVATION
 EDF .m                  43.16:  DF ELEVATION
 TDL .m                 243.00:  TOTAL DEPTH (LOGGER)
 VSC .                       0:  VS TO CLOSURE
 MAGU.                 1853542:  MAGUTM CHECKSUM
~Parameter Information Block
#MNEM.UNIT       Value        Description
#---------     -----------    ---------------------------
 AV  .mps                 1.91:  Ann Velocity 
 AVMX.mps                 2.52:  Max Ann Veloc 
 AZIF.deg               308.97:  Azm, Final 
 BHAT.        Rotary Steerable:  BHA Type 
 BROT.°/30m               1.00:  Build Rotating 
 BS  .in                  6.50:  Bit Size 
 BSZ .in                  6.50:  Bit Size 
 BTPL.psig              350.00:  Bit Press Loss 
 CABU.                      No:  Customer Abuse 
 CGEO.           Asif Pashayev:  Customer Geo 
 COMM.                     6…:  Run Comments 1 
 TCS .hr                 35.86:  Time Ciculation Ended 
 CV  .mps                 2.31:  Crit Velocity 
 CVMX.mps                 2.31:  Max Crit Veloc 
 DD1 .         Intigam Rahimov:  Direct Drillr 1 
 DDSV.               Geo-Pilot:  DD Service 
 DEFF.%                  92.00:  % Det Eff 
 DLRX.°/30m               1.00:  Dogleg Rot Max 
 DLSO.°/30m               1.00:  Dogleg Oriented 
 DLSX.°/30m               1.42:  Dogleg Str Max 
 DRET.      15.50.00 07-Aug-20:  Drill End Time 
 DRST.      10.40.00 06-Aug-20:  Drill Start Tim 
 DTIM.hr                 21.30:  Time Drilling 
 EDEP.m                5200.01:  End Depth 
 ENG1.            Alan Tuganov:  Engineer 1 
 ENG2.         Almaz Almadatov:  Engineer 2 
 ENG3.     Zammelal Abdullah Sani:  Engineer 3 
 ETIM.      22.42.00 08-Aug-20:  End Time 
 FLOI.gpm               395.00:  Flow In 
 FLON.gpm               350.00:  Flow In Min 
 FLOS.cptm                0.00:  Fluid Loss 
 FLOX.gpm               404.00:  Flow In Max 
 FTRO.       Formation Presure:  FTWD Run Obj 
 HFLO.                      No:  High Flow 
 HPRE.                      No:  High Pressure 
 HTEM.                      No:  High Temp 
 HYDO.m                   1.80:  Hydro Offset 
 IFIN.deg                72.64:  Inc, Final 
 IMAX.deg                73.68:  Inc Max 
 IMIN.deg                72.64:  Inc Min 
 IMND.m                5189.69:  Inc Min Depth 
 IMXD.m                5067.88:  Inc Max Depth 
 JARR.                      No:  Jarring 
 LETM.      15.50.00 07-Aug-20:  Log End Time 
 LOST.hr                     0:  Lost Rig Time 
 LSTM.      10.40.00 06-Aug-20:  Log Start Time 
 MDCL.ppm             36000.00:  Mud Chlorides 
 MDES.     Inversion Oil/Synthetic:  Mud Desc 
 DFD .sg                  1.36:  Mud Density 
 MDMN.sg                  1.36:  Dens Mud Min 
 MDMX.sg                  1.36:  Dens Mud Max 
 MOIL.                      70:  Run Mud Oil % 
 MOWR.                   70:30:  Run Mud OWR 
 MSND.                    0.00:  Run Mud Sand % 
 MSOL.                   17.60:  Run Mud Solids% 
 DFV .spqt               73.00:  Mud Viscosity 
 MWOD.in                  4.75:  MWD Tool OD 
 MWSI.                      No:  Serv Intrp, MWD 
 OTIM.hr                 85.66:  Time Operating 
 PCON.           Look Like New:  Pad Condition 
 PMAX.psia             6250.00:  Press Op, Max 
 PV  .cP                 65.00:  Mud PV 
 RUN .                     900:  Run Number 
 ROPA.m/hr               11.40:  ROP Avg 
 ROPN.m/hr                5.00:  ROP Min 
 ROPX.m/hr               20.00:  ROP Max 
 RPMA.rpm               130.00:  RPM Surface Avg 
 RPMN.rpm                40.00:  RPM Surface Min 
 RPMX.rpm               140.00:  RPM Surface Max 
 RRUN.                    L205:  Rig Run Number 
 RTIM.hr                  1.00:  Time Reaming 
 SAZI.deg               313.52:  Azm, Start 
 SDEP.m                4957.01:  Start Depth 
 SIDD.                      No:  Serv Intrp, DD 
 SINC.deg                73.16:  Inc, Start 
 SPPA.psig             5657.00:  SPP Avg 
 SPPN.psig             2500.00:  SPP Min 
 SPPX.psig             5806.00:  SPP Max 
 STIM.      07.12.00 05-Aug-20:  Start Time 
 SVCS.                 DD, MWD:  Services 
 SVER.                    9.20:  Sperry Version 
 TDAT.m                 243.00:  Tot Depth Attmp 
 TDDF.                      No:  Trip for DD 
 TDLG.m                 243.00:  Tot Depth Loggd 
 TFF .                      No:  Trip for Fail 
 TQAA.f-kp               13.00:  Torque Abs Avg 
 TQAN.f-kp               11.00:  Torque Abs Min 
 TQAX.f-kp               16.00:  Torque Abs Max 
 TRRT.°/30m               1.00:  Turn Rotating 
 MRT .                    HCIM:  Maximum Recorded Temperature 
 TTMX.degC               96.08:  Max Tool Temp 
 VS01.                90515411:  Virtual Str1 SN 
 VS02.                90512716:  Virtual Str2 SN 
 VS03.                90522362:  Virtual Str3 SN 
 VS04.                90619415:  Virtual Str4 SN 
 VS05.                90619414:  Virtual Str5 SN 
 VS06.                90597748:  Virtual Str6 SN 
 WBMN.klb                 2.00:  WOB Min 
 WITN.           Adil Mammadov:  Customer Rep 
 WITN.     Alexander Yadullayev:  Customer Rep 2 
 WOBA.klb                 7.00:  WOB Avg 
 WOBX.klb                23.00:  WOB Max 
 YP  .lhf2               37.00:  Yield Point 
~Curve Information Block
#MNEM.UNIT                 API CODE     Curve Description
#---------               -----------    ---------------------------
 TIME.HHMMSS            00 000 000 000:  GT Time & Date
 GTDEPTH.m              00 000 000 000:  GT Depth
 GTPQH.psia             00 000 000 000:  GT HR Quartz Pressure
 GTTQ.degC              00 000 000 000:  GT Quartz Temperature
 GTTN.NONE              00 000 000 000:  GT Test Number
 GTET.sec               00 000 000 000:  GT Elapsed Test Time
 GTTVD.m                00 000 000 000:  GT True Vertical Depth
#Other Information
#
#WARRANTY: Halliburton will use its best efforts to furnish customers with 
#accurate information and interpretations that are part of, and incident to, the services 
#provided.  However, Halliburton cannot and does not warrant the accuracy 
#or correctness of such information and interpretations.  Under no circumstances should any 
#such information or interpretation be relied upon as the sole basis for any drilling, 
#completion, production, or financial decision or any procedure involving any risk to the 
#safety of any drilling venture, drilling rig or its crew or any other third party.  The 
#Customer has full responsibility for all drilling, completion and production operation.  
#Halliburton makes no representations or warranties, either expressed or 
#implied, including, but not limited to, the implied warranties of merchantability or fitness 
#for a particular purpose, with respect to the services rendered.  In no event will 
#Halliburton be liable for failure to obtain any particular results or for 
#any damages, including, but not limited to, indirect, special or consequential damages, 
#resulting from the use of any information or interpretation provided by Halliburton.
#
~A           TIME           GTDEPTH  GTPQH  GTTQ  GTTN   GTET   GTTVD  
# ...
   15:44:46.523.07-Aug-2020 5157.51 3490.06 88.38 11.00 361.75 2691.72
   15:44:46.723.07-Aug-2020 5157.51 3490.31 88.38 11.00 361.95 2691.72
   15:44:46.923.07-Aug-2020 5157.51 3490.31 88.38 11.00 362.15 2691.72
   15:44:47.123.07-Aug-2020 5157.51 3490.22 88.38 11.00 362.35 2691.72
   15:44:47.323.07-Aug-2020 5157.51 3490.24 88.38 11.00 362.55 2691.72
   15:44:47.523.07-Aug-2020 5157.51 3490.25 88.38 11.00 362.75 2691.72
   15:44:47.723.07-Aug-2020 5157.51 3490.24 88.38 11.00 362.95 2691.72
   15:44:47.923.07-Aug-2020 5157.51 3490.20 88.38 11.00 363.15 2691.72
   15:44:48.124.07-Aug-2020 5157.51 3490.20 88.38 11.00 363.35 2691.72
   15:44:48.324.07-Aug-2020 5157.51 3490.22 88.38 11.00 363.55 2691.72
   15:44:48.524.07-Aug-2020 5157.51 3489.91 88.38 11.00 363.75 2691.72
   15:44:48.724.07-Aug-2020 5157.51 3490.37 88.37 11.00 363.95 2691.72
   15:44:48.924.07-Aug-2020 5157.51 3490.32 88.37 11.00 364.15 2691.72
   15:44:49.124.07-Aug-2020 5157.51 3490.32 88.37 11.00 364.35 2691.72
   15:44:49.324.07-Aug-2020 5157.51 3490.15 88.37 11.00 364.55 2691.72
   15:44:49.524.07-Aug-2020 5157.51 3490.26 88.37 11.00 364.75 2691.72
   15:44:49.724.07-Aug-2020 5157.51 3490.11 88.37 11.00 364.95 2691.72
   15:44:49.924.07-Aug-2020 5157.51 3490.24 88.37 11.00 365.15 2691.72
   15:44:50.124.07-Aug-2020 5157.51 3490.32 88.37 11.00 365.35 2691.72
   15:44:50.324.07-Aug-2020 5157.51 3490.33 88.37 11.00 365.55 2691.72
   15:44:50.525.07-Aug-2020 5157.51 3489.87 88.37 11.00 365.75 2691.72
   15:44:50.725.07-Aug-2020 5157.51 3490.39 88.37 11.00 365.95 2691.72
   15:44:50.925.07-Aug-2020 5157.51 3490.44 88.37 11.00 366.15 2691.72
   15:44:51.125.07-Aug-2020 5157.51 3490.08 88.37 11.00 366.35 2691.72
   15:44:51.325.07-Aug-2020 5157.51 3490.08 88.37 11.00 366.55 2691.72
   15:44:51.525.07-Aug-2020 5157.51 3490.35 88.37 11.00 366.75 2691.72
   15:44:51.725.07-Aug-2020 5157.51 3490.33 88.37 11.00 366.95 2691.72
   15:44:51.925.07-Aug-2020 5157.51 3490.27 88.37 11.00 367.15 2691.72
   15:44:52.125.07-Aug-2020 5157.51 3490.15 88.37 11.00 367.35 2691.72
   15:44:52.325.07-Aug-2020 5157.51 3490.32 88.37 11.00 367.55 2691.72
   15:44:52.525.07-Aug-2020 5157.51 3490.32 88.37 11.00 367.75 2691.72
   15:44:52.725.07-Aug-2020 5157.51 3490.22 88.37 11.00 367.95 2691.72
   15:44:52.926.07-Aug-2020 5157.51 3490.28 88.37 11.00 368.15 2691.72
   15:44:53.126.07-Aug-2020 5157.51 3490.28 88.37 11.00 368.35 2691.72
   15:44:53.326.07-Aug-2020 5157.51 3490.27 88.36 11.00 368.55 2691.72
   15:44:53.526.07-Aug-2020 5157.51 3490.22 88.36 11.00 368.75 2691.72
   15:44:53.726.07-Aug-2020 5157.51 3490.25 88.36 11.00 368.95 2691.72
   15:44:53.926.07-Aug-2020 5157.51 3490.24 88.36 11.00 369.15 2691.72
   15:44:54.126.07-Aug-2020 5157.51 3489.99 88.36 11.00 369.35 2691.72
   15:44:54.326.07-Aug-2020 5157.51 3490.40 88.36 11.00 369.55 2691.72
   15:44:54.526.07-Aug-2020 5157.51 3490.35 88.36 11.00 369.75 2691.72
   15:44:54.726.07-Aug-2020 5157.51 3490.13 88.36 11.00 369.95 2691.72
   15:44:54.926.07-Aug-2020 5157.51 3490.31 88.36 11.00 370.15 2691.72
   15:44:55.126.07-Aug-2020 5157.51 3490.31 88.36 11.00 370.35 2691.72
   15:44:55.327.07-Aug-2020 5157.51 3490.26 88.36 11.00 370.55 2691.72
   15:44:55.527.07-Aug-2020 5157.51 3490.21 88.36 11.00 370.75 2691.72
   15:44:55.727.07-Aug-2020 5157.51 3490.26 88.36 11.00 370.95 2691.72
   15:44:55.927.07-Aug-2020 5157.51 3490.28 88.36 11.00 371.15 2691.72
   15:44:56.127.07-Aug-2020 5157.51 3490.28 88.36 11.00 371.35 2691.72
   15:44:56.327.07-Aug-2020 5157.51 3490.23 88.36 11.00 371.55 2691.72
   15:44:56.527.07-Aug-2020 5157.51 3490.24 88.36 11.00 371.75 2691.72
   15:44:56.727.07-Aug-2020 5157.51 3490.13 88.36 11.00 371.95 2691.72
   15:44:56.927.07-Aug-2020 5157.51 3490.19 88.36 11.00 372.15 2691.72
   15:44:57.127.07-Aug-2020 5157.51 3490.19 88.36 11.00 372.35 2691.72
   15:44:57.327.07-Aug-2020 5157.51 3490.38 88.36 11.00 372.55 2691.72
   15:44:57.527.07-Aug-2020 5157.51 3490.07 88.36 11.00 372.75 2691.72
   15:44:57.728.07-Aug-2020 5157.51 3490.27 88.36 11.00 372.95 2691.72
   15:44:57.928.07-Aug-2020 5157.51 3490.25 88.35 11.00 373.15 2691.72
   15:44:58.128.07-Aug-2020 5157.51 3490.25 88.35 11.00 373.35 2691.72
   15:44:58.328.07-Aug-2020 5157.51 3490.35 88.35 11.00 373.55 2691.72
   15:44:58.528.07-Aug-2020 5157.51 3490.42 88.35 11.00 373.75 2691.72
   15:44:58.728.07-Aug-2020 5157.51 3489.66 88.35 11.00 373.95 2691.72
   15:44:58.928.07-Aug-2020 5157.51 3490.51 88.35 11.00 374.15 2691.72
   15:44:59.128.07-Aug-2020 5157.51 3490.51 88.35 11.00 374.35 2691.72
   15:44:59.328.07-Aug-2020 5157.51 3490.20 88.35 11.00 374.55 2691.72
   15:44:59.528.07-Aug-2020 5157.51 3490.17 88.35 11.00 374.75 2691.72
   15:44:59.728.07-Aug-2020 5157.51 3490.15 88.35 11.00 374.95 2691.72
   15:44:59.928.07-Aug-2020 5157.51 3490.42 88.35 11.00 375.15 2691.72
   15:45:00.128.07-Aug-2020 5157.51 3490.42 88.35 11.00 375.35 2691.72
   15:45:00.329.07-Aug-2020 5157.51 3490.07 88.35 11.00 375.55 2691.72
   15:45:00.529.07-Aug-2020 5157.51 3490.34 88.35 11.00 375.75 2691.72
   15:45:00.729.07-Aug-2020 5157.51 3490.31 88.35 11.00 375.95 2691.72
   15:45:00.929.07-Aug-2020 5157.51 3490.26 88.35 11.00 376.15 2691.72
   15:45:01.129.07-Aug-2020 5157.51 3490.26 88.35 11.00 376.36 2691.72
   15:45:01.329.07-Aug-2020 5157.51 3490.29 88.35 11.00 376.56 2691.72
   15:45:01.529.07-Aug-2020 5157.51 3490.27 88.35 11.00 376.76 2691.72
   15:45:01.729.07-Aug-2020 5157.51 3490.22 88.35 11.00 376.96 2691.72
   15:45:01.929.07-Aug-2020 5157.51 3490.25 88.35 11.00 377.16 2691.72
   15:45:02.129.07-Aug-2020 5157.51 3490.24 88.35 11.00 377.36 2691.72
   15:45:02.329.07-Aug-2020 5157.51 3489.83 88.35 11.00 377.56 2691.72
   15:45:02.529.07-Aug-2020 5157.51 3490.54 88.34 11.00 377.76 2691.72
   15:45:02.730.07-Aug-2020 5157.51 3490.36 88.34 11.00 377.96 2691.72
   15:45:02.930.07-Aug-2020 5157.51 3490.23 88.34 11.00 378.16 2691.72
   15:45:03.130.07-Aug-2020 5157.51 3490.23 88.34 11.00 378.36 2691.72
   15:45:03.330.07-Aug-2020 5157.51 3490.28 88.34 11.00 378.56 2691.72
   15:45:03.530.07-Aug-2020 5157.51 3490.32 88.34 11.00 378.76 2691.72
   15:45:03.730.07-Aug-2020 5157.51 3490.19 88.34 11.00 378.96 2691.72
   15:45:03.930.07-Aug-2020 5157.51 3490.27 88.34 11.00 379.16 2691.72
   15:45:04.130.07-Aug-2020 5157.51 3490.27 88.34 11.00 379.36 2691.72
   15:45:04.330.07-Aug-2020 5157.51 3490.24 88.34 11.00 379.56 2691.72
   15:45:04.530.07-Aug-2020 5157.51 3490.23 88.34 11.00 379.76 2691.72
   15:45:04.730.07-Aug-2020 5157.51 3490.23 88.34 11.00 379.96 2691.72
   15:45:04.930.07-Aug-2020 5157.51 3490.23 88.34 11.00 380.16 2691.72
   15:45:05.131.07-Aug-2020 5157.51 3490.23 88.34 11.00 380.36 2691.72
   15:45:05.331.07-Aug-2020 5157.51 3490.38 88.34 11.00 380.56 2691.72
   15:45:05.531.07-Aug-2020 5157.51 3490.37 88.34 11.00 380.76 2691.72
   15:45:05.731.07-Aug-2020 5157.51 3490.10 88.34 11.00 380.96 2691.72
   15:45:05.931.07-Aug-2020 5157.51 3490.30 88.34 11.00 381.16 2691.72
   15:45:06.131.07-Aug-2020 5157.51 3490.28 88.34 11.00 381.36 2691.72
   15:45:06.331.07-Aug-2020 5157.51 3489.97 88.34 11.00 381.56 2691.72
   15:45:06.531.07-Aug-2020 5157.51 3490.39 88.34 11.00 381.76 2691.72
   15:45:06.731.07-Aug-2020 5157.51 3490.40 88.34 11.00 381.96 2691.72
   15:45:06.931.07-Aug-2020 5157.51 3490.06 88.34 11.00 382.16 2691.72
   15:45:07.131.07-Aug-2020 5157.51 3490.06 88.34 11.00 382.36 2691.72
   15:45:07.331.07-Aug-2020 5157.51 3490.31 88.33 11.00 382.56 2691.72
   15:45:07.532.07-Aug-2020 5157.51 3490.41 88.33 11.00 382.76 2691.72
   15:45:07.732.07-Aug-2020 5157.51 3490.11 88.33 11.00 382.96 2691.72
   15:45:07.932.07-Aug-2020 5157.51 3490.01 88.33 11.00 383.16 2691.72
   15:45:08.132.07-Aug-2020 5157.51 3490.01 88.33 11.00 383.36 2691.72
   15:45:08.332.07-Aug-2020 5157.51 3490.34 88.33 11.00 383.56 2691.72
   15:45:08.532.07-Aug-2020 5157.51 3490.15 88.33 11.00 383.76 2691.72
   15:45:08.732.07-Aug-2020 5157.51 3490.32 88.33 11.00 383.96 2691.72
   15:45:08.932.07-Aug-2020 5157.51 3490.32 88.33 11.00 384.16 2691.72
