~Version Information
 VERS.                  2.0:   CWLS log ASCII Standard -VERSION 2.0
 WRAP.                   NO:   One line per depth step
~Well Information Block
#MNEM.UNIT     VALUE/NAME     DESCRIPTION
#---------     -----------    ---------------------------
 STRT.S             13:11:20 18-Jul-21: START TIME 13:11:20 18-Jul-21
 STOP.S             13:17:54 18-Jul-21: STOP TIME  13:17:54 18-Jul-21
 STEP.S                   0.00: STEP TIME
 NULL.                 -999.25: NULL VALUE
 MDS .        Operator Entered:  MAG DATA SOURCE
 PDAT.          Mean Sea Level:  PERMANENT DATUM
 UNIT.                     N/A:  LOGGING EQUIPMENT ID
 DCON.         Sperry Drilling:  DIRECTNL CONTR
 DOE .                     N/A:  DOE NUMBER
 RIG .              West Azeri:  RIG NAME
 JOBN.        AZ-XX-0906997913:  JOB TICKET NUMB
 WELL.                     C41:  WELL NAME
 MWDS.                    Baku:  MWD SHOP
 SRVC.          Turan Drilling:  CONTRACTOR
 FLD .                     ACG:  FIELD NAME
 CTRY.              Azerbaijan:  COUNTRY NAME
 PROV.                    Baku:  PROVINCE
 STAT.                    Baku:  STATE NAME
 REGN.                   EESSA:  REGION
 BASE.              Azerbaijan:  LOGGING EQUIPMENT BASE LOCATION
 UWI .                     N/A:  UNIQUE WELL IDENTIFIER
 API .                     N/A:  API NUMBER
 COMP.     BP Exploration (Caspian Sea) Ltd.:  COMPANY
 WTYP.                Deviated:  WELL TYPE
 SON .        AZ-XX-0906997913:  JOB NUMBER
 FTOP.          Formation Tops:  FORM TOPS DESC
 ILTD.               Lithology:  INTERP LTH DESC
 SVYD.                  Survey:  SURVEY DESC
 DMOD.             Drill Model:  DRILL MOD DESC
 HPTY.       Minimum Curvature:  HOLE POS TYPE
 NREF.                    Grid:  NORTH REFERENCE
 SPUD.               16-May-21:  SPUD DATE
 DATE.      21.11.28 17-May-21:  END TIME
 STIM.      21.11.28 17-May-21:  START TIME
 DMF .             Drill Floor:  DRILL MEAS FROM
 DFST.                        :  DIST FSL TEXT
 DFWT.                        :  DIST FWL TEXT
 CNTY.                        :  COUNTY
 LOC .                        :  LOCATION
 LMF .             Drill Floor:  LOG MEASURED FROM
 AGAP.m                  43.42:  AIR GAP
 VSNS.m                  -2.16:  VERT SEC N/S
 VSEW.m                  -6.24:  VERT SEC E/W
 APD .m                  43.42:  DEPTH ABOVE PD
 WDMS.m                 118.27:  WD ELEV
 EGL .m                   0.00:  GROUND ELEVATION
 EPD .m                   0.00:  ELEVATION
 AZTC.deg                 6.29:  AZM TOTAL CORR
 GRDC.deg                 0.18:  GRID CORRECTION
 MDEC.deg                 6.47:  MAGNETIC DECL
 MDIP.deg                59.54:  MAGNETIC DIP
 MFLD.nT              50337.00:  MAGNETIC FIELD
 GVFD.g                   1.00:  GRAVITY FIELD
 VSDR.deg               226.99:  VERT SEC DIRECT
 TDD .m                   0.00:  TOTAL DEPTH (DRILLER)
 SDEP.m                 448.00:  START DEPTH
 DFSL.m                   0.00:  DISTANCE FSL
 DFWL.m                   0.00:  DISTANCE FWL
 UTMY.m             4435799.96:  UTM Y
 UTMX.m              526265.35:  UTM X
 WHEW.m                  -6.24:  WELL HEAD E/W
 WHNS.m                  -2.16:  WELL HEAD N/S
 LONG.deg                51.31:  LONGITUDE
 LATI.deg                40.06:  LATITUDE
 TVDS.m                  43.42:  TVDSS CORRECTN
 EKB .m                  43.42:  KB ELEVATION
 EDF .m                  43.42:  DF ELEVATION
 TDL .m                 288.00:  TOTAL DEPTH (LOGGER)
 MAGU.                 1851863:  MAGUTM CHECKSUM
 VSC .                       0:  VS TO CLOSURE
~Parameter Information Block
#MNEM.UNIT       Value        Description
#---------     -----------    ---------------------------
 AV  .mps                 0.40:  Ann Velocity 
 AVMX.mps                 0.63:  Max Ann Veloc 
 AZIF.deg               158.76:  Azm, Final 
 BHAT.        Rotary Steerable:  BHA Type 
 BROT.∞/30m               0.68:  Build Rotating 
 BS  .in                  8.50:  Bit Size 
 BSZ .in                  8.50:  Bit Size 
 BTPL.psig              712.00:  Bit Press Loss 
 CABU.                      No:  Customer Abuse 
 COMM.                     §ÁL:  Run Comments 1 
 TCS .hr                 90.66:  Time Ciculation Ended 
 CV  .mps                 2.02:  Crit Velocity 
 CVMX.mps                 2.14:  Max Crit Veloc 
 DD1 .            Aziz Aliyevu:  Direct Drillr 1 
 DD2 .             Samir Abbas:  Direct Drillr 2 
 DD3 .           Teymur Aliyev:  Direct Drillr 3 
 DDSV.                 iCruise:  DD Service 
 DEFF.%                  85.10:  % Det Eff 
 DLRX.∞/30m               1.05:  Dogleg Rot Max 
 DLSO.∞/30m               1.01:  Dogleg Oriented 
 DLSX.∞/30m               1.05:  Dogleg Str Max 
 DRET.      07.45.00 18-Jul-21:  Drill End Time 
 DRST.      15.00.00 16-Jul-21:  Drill Start Tim 
 DTIM.hr                 23.46:  Time Drilling 
 EDEP.m                4603.00:  End Depth 
 ENG1.       Seymur Iskandarov:  Engineer 1 
 ENG2.         Yevgeniy Ulikov:  Engineer 2 
 ENG3.         Bahruz Mehdiyev:  Engineer 3 
 ENG4.         Elchin Mammadov:  Engineer 4 
 ETIM.      14.00.00 23-Jul-21:  End Time 
 FLOI.gpm               500.00:  Flow In 
 FLON.gpm               450.00:  Flow In Min 
 FLOS.cptm                0.00:  Fluid Loss 
 FLOX.gpm               560.00:  Flow In Max 
 DFT .        Mineral Oil Base:  Mud Type 
 FTRO.       Formation Presure:  FTWD Run Obj 
 HFLO.                      No:  High Flow 
 HPRE.                      No:  High Pressure 
 HTEM.                      No:  High Temp 
 HYDO.m                   1.80:  Hydro Offset 
 IFIN.deg                40.22:  Inc, Final 
 IMAX.deg                40.54:  Inc Max 
 IMIN.deg                39.44:  Inc Min 
 IMND.m                4361.17:  Inc Min Depth 
 IMXD.m                4417.92:  Inc Max Depth 
 JARR.                      No:  Jarring 
 LETM.      07.45.00 18-Jul-21:  Log End Time 
 LOST.hr                    16:  Lost Rig Time 
 LSTM.      15.00.00 16-Jul-21:  Log Start Time 
 MDCL.ppm             36500.00:  Mud Chlorides 
 MDES.     Inversion Oil/Synthetic:  Mud Desc 
 DFD .sg                  1.42:  Mud Density 
 MDMN.sg                  1.42:  Dens Mud Min 
 MDMX.sg                  1.43:  Dens Mud Max 
 MOIL.                      56:  Run Mud Oil % 
 MOWR.                   71:29:  Run Mud OWR 
 MSND.                     0.5:  Run Mud Sand % 
 MSOL.                      21:  Run Mud Solids% 
 DFV .spqt               78.00:  Mud Viscosity 
 MWOD.in                  6.75:  MWD Tool OD 
 MWSI.                     Yes:  Serv Intrp, MWD 
 OTIM.hr                200.73:  Time Operating 
 PCON.           Look Like New:  Pad Condition 
 PMAX.psia            11069.93:  Press Op, Max 
 PV  .cP                 32.00:  Mud PV 
 RUN .                     700:  Run Number 
 ROPA.m/hr               10.00:  ROP Avg 
 ROPN.m/hr                9.00:  ROP Min 
 ROPX.m/hr               16.00:  ROP Max 
 RPMA.rpm               116.00:  RPM Surface Avg 
 RPMN.rpm                80.00:  RPM Surface Min 
 RPMX.rpm               120.00:  RPM Surface Max 
 RRUN.                    L605:  Rig Run Number 
 RTIM.hr                 45.00:  Time Reaming 
 SAZI.deg               159.86:  Azm, Start 
 SDEP.m                4315.00:  Start Depth 
 SIDD.                      No:  Serv Intrp, DD 
 SINC.deg                39.86:  Inc, Start 
 SPPA.psig             3300.00:  SPP Avg 
 SPPN.psig             3040.00:  SPP Min 
 SPPX.psig             3645.00:  SPP Max 
 STIM.      01.00.00 15-Jul-21:  Start Time 
 SVCS.                 DD, MWD:  Services 
 SVER.                    9.20:  Sperry Version 
 TDAT.m                 288.00:  Tot Depth Attmp 
 TDDF.                      No:  Trip for DD 
 TDLG.m                 288.00:  Tot Depth Loggd 
 TFF .                      No:  Trip for Fail 
 TQAA.f-kp               19.00:  Torque Abs Avg 
 TQAN.f-kp               18.00:  Torque Abs Min 
 TQAX.f-kp               21.00:  Torque Abs Max 
 TRRT.∞/30m               0.45:  Turn Rotating 
 MRT .                    HCIM:  Maximum Recorded Temperature 
 TTMX.degC               88.24:  Max Tool Temp 
 VS01.                90649157:  Virtual Str1 SN 
 VS02.                90652483:  Virtual Str2 SN 
 VS03.                11671987:  Virtual Str3 SN 
 VS04.                90643411:  Virtual Str4 SN 
 VS05.                90652478:  Virtual Str5 SN 
 VS06.                    6111:  Virtual Str6 SN 
 WBMN.klb                 9.50:  WOB Min 
 WITN.        Grigoriy Sarayev:  Customer Rep 
 WITN.          Rufat Huseynov:  Customer Rep 2 
 WOBA.klb                11.00:  WOB Avg 
 WOBX.klb                15.00:  WOB Max 
 YP  .lhf2               28.00:  Yield Point 
~Curve Information Block
#MNEM.UNIT                 API CODE     Curve Description
#---------               -----------    ---------------------------
 TIME.HHMMSS            00 000 000 000:  GT Time & Date
 GTDEPTH.m              00 000 000 000:  GT Depth
 GTPQH.psia             00 000 000 000:  GT HR Quartz Pressure
 GTTQ.degC              00 000 000 000:  GT Quartz Temperature
 GTTN.NONE              00 000 000 000:  GT Test Number
 GTET.sec               00 000 000 000:  GT Elapsed Test Time
 GTTVD.m                00 000 000 000:  GT True Vertical Depth
#Other Information
#
#WARRANTY: Halliburton will use its best efforts to furnish customers with 
#accurate information and interpretations that are part of, and incident to, the services 
#provided.  However, Halliburton cannot and does not warrant the accuracy 
#or correctness of such information and interpretations.  Under no circumstances should any 
#such information or interpretation be relied upon as the sole basis for any drilling, 
#completion, production, or financial decision or any procedure involving any risk to the 
#safety of any drilling venture, drilling rig or its crew or any other third party.  The 
#Customer has full responsibility for all drilling, completion and production operation.  
#Halliburton makes no representations or warranties, either expressed or 
#implied, including, but not limited to, the implied warranties of merchantability or fitness 
#for a particular purpose, with respect to the services rendered.  In no event will 
#Halliburton be liable for failure to obtain any particular results or for 
#any damages, including, but not limited to, indirect, special or consequential damages, 
#resulting from the use of any information or interpretation provided by Halliburton.
#
~A           TIME           GTDEPTH  GTPQH  GTTQ  GTTN  GTET   GTTVD  
# ...
   13:14:47.720.18-Jul-2021 4561.00 6153.87 75.68 2.00 207.08 2746.93
   13:14:47.920.18-Jul-2021 4561.00 6153.87 75.68 2.00 207.28 2746.93
   13:14:48.120.18-Jul-2021 4561.00 6152.64 75.68 2.00 207.48 2746.93
   13:14:48.320.18-Jul-2021 4561.00 6152.99 75.68 2.00 207.68 2746.93
   13:14:48.520.18-Jul-2021 4561.00 6152.61 75.68 2.00 207.88 2746.93
   13:14:48.721.18-Jul-2021 4561.00 6152.09 75.67 2.00 208.08 2746.93
   13:14:48.921.18-Jul-2021 4561.00 6152.09 75.67 2.00 208.28 2746.93
   13:14:49.121.18-Jul-2021 4561.00 6152.62 75.67 2.00 208.48 2746.93
   13:14:49.321.18-Jul-2021 4561.00 6152.41 75.67 2.00 208.68 2746.93
   13:14:49.521.18-Jul-2021 4561.00 6152.71 75.67 2.00 208.88 2746.93
   13:14:49.721.18-Jul-2021 4561.00 6152.54 75.67 2.00 209.08 2746.93
   13:14:49.921.18-Jul-2021 4561.00 6152.54 75.67 2.00 209.28 2746.93
   13:14:50.121.18-Jul-2021 4561.00 6152.60 75.67 2.00 209.48 2746.93
   13:14:50.321.18-Jul-2021 4561.00 6151.93 75.67 2.00 209.68 2746.93
   13:14:50.521.18-Jul-2021 4561.00 6152.88 75.67 2.00 209.88 2746.93
   13:14:50.721.18-Jul-2021 4561.00 6152.36 75.67 2.00 210.08 2746.93
   13:14:50.921.18-Jul-2021 4561.00 6152.36 75.67 2.00 210.28 2746.93
   13:14:51.121.18-Jul-2021 4561.00 6152.82 75.67 2.00 210.48 2746.93
   13:14:51.321.18-Jul-2021 4561.00 6152.28 75.67 2.00 210.68 2746.93
   13:14:51.522.18-Jul-2021 4561.00 6152.39 75.67 2.00 210.88 2746.93
   13:14:51.722.18-Jul-2021 4561.00 6152.11 75.67 2.00 211.08 2746.93
   13:14:51.922.18-Jul-2021 4561.00 6152.11 75.67 2.00 211.28 2746.93
   13:14:52.122.18-Jul-2021 4561.00 6152.52 75.67 2.00 211.48 2746.93
   13:14:52.322.18-Jul-2021 4561.00 6152.22 75.67 2.00 211.68 2746.93
   13:14:52.522.18-Jul-2021 4561.00 6152.27 75.67 2.00 211.88 2746.93
   13:14:52.722.18-Jul-2021 4561.00 6152.48 75.67 2.00 212.08 2746.93
   13:14:52.922.18-Jul-2021 4561.00 6152.48 75.67 2.00 212.28 2746.93
   13:14:53.122.18-Jul-2021 4561.00 6152.75 75.67 2.00 212.48 2746.93
   13:14:53.322.18-Jul-2021 4561.00 6152.30 75.67 2.00 212.68 2746.93
   13:14:53.522.18-Jul-2021 4561.00 6151.26 75.67 2.00 212.88 2746.93
   13:14:53.722.18-Jul-2021 4561.00 6154.19 75.67 2.00 213.08 2746.93
   13:14:53.922.18-Jul-2021 4561.00 6154.19 75.67 2.00 213.28 2746.93
   13:14:54.123.18-Jul-2021 4561.00 6151.63 75.67 2.00 213.48 2746.93
   13:14:54.323.18-Jul-2021 4561.00 6153.77 75.67 2.00 213.68 2746.93
   13:14:54.523.18-Jul-2021 4561.00 6152.43 75.67 2.00 213.88 2746.93
   13:14:54.723.18-Jul-2021 4561.00 6151.55 75.67 2.00 214.08 2746.93
   13:14:54.923.18-Jul-2021 4561.00 6151.55 75.67 2.00 214.28 2746.93
   13:14:55.123.18-Jul-2021 4561.00 6152.40 75.67 2.00 214.48 2746.93
   13:14:55.323.18-Jul-2021 4561.00 6152.35 75.67 2.00 214.68 2746.93
   13:14:55.523.18-Jul-2021 4561.00 6153.42 75.67 2.00 214.88 2746.93
   13:14:55.723.18-Jul-2021 4561.00 6152.22 75.67 2.00 215.08 2746.93
   13:14:55.923.18-Jul-2021 4561.00 6152.22 75.67 2.00 215.28 2746.93
   13:14:56.123.18-Jul-2021 4561.00 6153.05 75.67 2.00 215.48 2746.93
   13:14:56.323.18-Jul-2021 4561.00 6152.08 75.67 2.00 215.68 2746.93
   13:14:56.523.18-Jul-2021 4561.00 6152.17 75.67 2.00 215.88 2746.93
   13:14:56.723.18-Jul-2021 4561.00 6152.89 75.67 2.00 216.08 2746.93
   13:14:56.924.18-Jul-2021 4561.00 6152.89 75.67 2.00 216.28 2746.93
   13:14:57.124.18-Jul-2021 4561.00 6152.24 75.67 2.00 216.48 2746.93
   13:14:57.324.18-Jul-2021 4561.00 6152.50 75.67 2.00 216.68 2746.93
   13:14:57.524.18-Jul-2021 4561.00 6152.35 75.67 2.00 216.88 2746.93
   13:14:57.724.18-Jul-2021 4561.00 6152.13 75.67 2.00 217.08 2746.93
   13:14:57.924.18-Jul-2021 4561.00 6152.13 75.67 2.00 217.28 2746.93
   13:14:58.124.18-Jul-2021 4561.00 6151.14 75.67 2.00 217.48 2746.93
   13:14:58.324.18-Jul-2021 4561.00 6153.76 75.67 2.00 217.68 2746.93
   13:14:58.524.18-Jul-2021 4561.00 6152.59 75.67 2.00 217.88 2746.93
   13:14:58.724.18-Jul-2021 4561.00 6152.76 75.67 2.00 218.08 2746.93
   13:14:58.924.18-Jul-2021 4561.00 6152.76 75.67 2.00 218.28 2746.93
   13:14:59.124.18-Jul-2021 4561.00 6152.37 75.67 2.00 218.48 2746.93
   13:14:59.324.18-Jul-2021 4561.00 6152.43 75.67 2.00 218.68 2746.93
   13:14:59.525.18-Jul-2021 4561.00 6152.46 75.67 2.00 218.88 2746.93
   13:14:59.725.18-Jul-2021 4561.00 6152.12 75.67 2.00 219.08 2746.93
   13:14:59.925.18-Jul-2021 4561.00 6152.12 75.67 2.00 219.28 2746.93
   13:15:00.125.18-Jul-2021 4561.00 6152.59 75.67 2.00 219.48 2746.93
   13:15:00.325.18-Jul-2021 4561.00 6152.26 75.67 2.00 219.68 2746.93
   13:15:00.525.18-Jul-2021 4561.00 6152.33 75.67 2.00 219.88 2746.93
   13:15:00.725.18-Jul-2021 4561.00 6151.11 75.67 2.00 220.08 2746.93
   13:15:00.925.18-Jul-2021 4561.00 6151.11 75.67 2.00 220.28 2746.93
   13:15:01.125.18-Jul-2021 4561.00 6152.06 75.67 2.00 220.48 2746.93
   13:15:01.325.18-Jul-2021 4561.00 6152.27 75.67 2.00 220.68 2746.93
   13:15:01.525.18-Jul-2021 4561.00 6152.76 75.67 2.00 220.88 2746.93
   13:15:01.725.18-Jul-2021 4561.00 6152.07 75.67 2.00 221.08 2746.93
   13:15:01.925.18-Jul-2021 4561.00 6152.07 75.67 2.00 221.28 2746.93
   13:15:02.125.18-Jul-2021 4561.00 6152.64 75.67 2.00 221.48 2746.93
   13:15:02.326.18-Jul-2021 4561.00 6151.37 75.67 2.00 221.68 2746.93
   13:15:02.526.18-Jul-2021 4561.00 6153.52 75.67 2.00 221.88 2746.93
   13:15:02.726.18-Jul-2021 4561.00 6152.05 75.67 2.00 222.08 2746.93
   13:15:02.926.18-Jul-2021 4561.00 6152.05 75.67 2.00 222.28 2746.93
   13:15:03.126.18-Jul-2021 4561.00 6153.66 75.67 2.00 222.48 2746.93
   13:15:03.326.18-Jul-2021 4561.00 6152.31 75.67 2.00 222.68 2746.93
   13:15:03.526.18-Jul-2021 4561.00 6152.09 75.67 2.00 222.88 2746.93
   13:15:03.726.18-Jul-2021 4561.00 6153.08 75.67 2.00 223.08 2746.93
   13:15:03.926.18-Jul-2021 4561.00 6153.08 75.67 2.00 223.28 2746.93
   13:15:04.126.18-Jul-2021 4561.00 6151.68 75.67 2.00 223.48 2746.93
   13:15:04.326.18-Jul-2021 4561.00 6152.24 75.67 2.00 223.68 2746.93
   13:15:04.526.18-Jul-2021 4561.00 6152.43 75.67 2.00 223.88 2746.93
   13:15:04.726.18-Jul-2021 4561.00 6151.88 75.67 2.00 224.08 2746.93
   13:15:04.926.18-Jul-2021 4561.00 6151.88 75.67 2.00 224.28 2746.93
   13:15:05.127.18-Jul-2021 4561.00 6152.32 75.67 2.00 224.48 2746.93
   13:15:05.327.18-Jul-2021 4561.00 6152.07 75.67 2.00 224.68 2746.93
   13:15:05.527.18-Jul-2021 4561.00 6152.12 75.67 2.00 224.88 2746.93
   13:15:05.727.18-Jul-2021 4561.00 6152.35 75.67 2.00 225.08 2746.93
   13:15:05.927.18-Jul-2021 4561.00 6152.35 75.67 2.00 225.28 2746.93
   13:15:06.127.18-Jul-2021 4561.00 6151.61 75.67 2.00 225.48 2746.93
   13:15:06.327.18-Jul-2021 4561.00 6152.31 75.67 2.00 225.68 2746.93
   13:15:06.527.18-Jul-2021 4561.00 6152.76 75.67 2.00 225.88 2746.93
   13:15:06.727.18-Jul-2021 4561.00 6152.13 75.67 2.00 226.08 2746.93
   13:15:06.927.18-Jul-2021 4561.00 6152.13 75.67 2.00 226.28 2746.93
   13:15:07.127.18-Jul-2021 4561.00 6152.05 75.67 2.00 226.48 2746.93
   13:15:07.327.18-Jul-2021 4561.00 6152.20 75.67 2.00 226.68 2746.93
   13:15:07.527.18-Jul-2021 4561.00 6151.89 75.67 2.00 226.88 2746.93
   13:15:07.728.18-Jul-2021 4561.00 6152.48 75.67 2.00 227.08 2746.93
   13:15:07.928.18-Jul-2021 4561.00 6152.48 75.67 2.00 227.28 2746.93
   13:15:08.128.18-Jul-2021 4561.00 6152.10 75.67 2.00 227.48 2746.93
   13:15:08.328.18-Jul-2021 4561.00 6152.36 75.67 2.00 227.68 2746.93
   13:15:08.528.18-Jul-2021 4561.00 6151.48 75.67 2.00 227.88 2746.93
   13:15:08.728.18-Jul-2021 4561.00 6152.54 75.67 2.00 228.08 2746.93
   13:15:08.928.18-Jul-2021 4561.00 6152.54 75.67 2.00 228.28 2746.93
   13:15:09.128.18-Jul-2021 4561.00 6153.56 75.67 2.00 228.48 2746.93
   13:15:09.328.18-Jul-2021 4561.00 6152.10 75.67 2.00 228.68 2746.93
   13:15:09.528.18-Jul-2021 4561.00 6151.83 75.67 2.00 228.88 2746.93
   13:15:09.728.18-Jul-2021 4561.00 6153.38 75.67 2.00 229.08 2746.93
   13:15:09.928.18-Jul-2021 4561.00 6153.38 75.67 2.00 229.28 2746.93
   13:15:10.128.18-Jul-2021 4561.00 6150.74 75.67 2.00 229.48 2746.93
   13:15:10.328.18-Jul-2021 4561.00 6154.34 75.67 2.00 229.68 2746.93
   13:15:10.529.18-Jul-2021 4561.00 6152.72 75.67 2.00 229.88 2746.93
