~Version Information
 VERS.                  2.0:   CWLS log ASCII Standard -VERSION 2.0
 WRAP.                   NO:   One line per depth step
~Well Information Block
#MNEM.UNIT     VALUE/NAME     DESCRIPTION
#---------     -----------    ---------------------------
 STRT.S             13:44:38 19-Jul-21: START TIME 13:44:38 19-Jul-21
 STOP.S             13:51:30 19-Jul-21: STOP TIME  13:51:30 19-Jul-21
 STEP.S                   0.00: STEP TIME
 NULL.                 -999.25: NULL VALUE
 MDS .        Operator Entered:  MAG DATA SOURCE
 PDAT.          Mean Sea Level:  PERMANENT DATUM
 UNIT.                     N/A:  LOGGING EQUIPMENT ID
 DCON.         Sperry Drilling:  DIRECTNL CONTR
 DOE .                     N/A:  DOE NUMBER
 RIG .              West Azeri:  RIG NAME
 JOBN.        AZ-XX-0906997913:  JOB TICKET NUMB
 WELL.                     C41:  WELL NAME
 MWDS.                    Baku:  MWD SHOP
 SRVC.          Turan Drilling:  CONTRACTOR
 FLD .                     ACG:  FIELD NAME
 CTRY.              Azerbaijan:  COUNTRY NAME
 PROV.                    Baku:  PROVINCE
 STAT.                    Baku:  STATE NAME
 REGN.                   EESSA:  REGION
 BASE.              Azerbaijan:  LOGGING EQUIPMENT BASE LOCATION
 UWI .                     N/A:  UNIQUE WELL IDENTIFIER
 API .                     N/A:  API NUMBER
 COMP.     BP Exploration (Caspian Sea) Ltd.:  COMPANY
 WTYP.                Deviated:  WELL TYPE
 SON .        AZ-XX-0906997913:  JOB NUMBER
 FTOP.          Formation Tops:  FORM TOPS DESC
 ILTD.               Lithology:  INTERP LTH DESC
 SVYD.                  Survey:  SURVEY DESC
 DMOD.             Drill Model:  DRILL MOD DESC
 HPTY.       Minimum Curvature:  HOLE POS TYPE
 NREF.                    Grid:  NORTH REFERENCE
 SPUD.               16-May-21:  SPUD DATE
 DATE.      21.11.28 17-May-21:  END TIME
 STIM.      21.11.28 17-May-21:  START TIME
 DMF .             Drill Floor:  DRILL MEAS FROM
 DFST.                        :  DIST FSL TEXT
 DFWT.                        :  DIST FWL TEXT
 CNTY.                        :  COUNTY
 LOC .                        :  LOCATION
 LMF .             Drill Floor:  LOG MEASURED FROM
 AGAP.m                  43.42:  AIR GAP
 VSNS.m                  -2.16:  VERT SEC N/S
 VSEW.m                  -6.24:  VERT SEC E/W
 APD .m                  43.42:  DEPTH ABOVE PD
 WDMS.m                 118.27:  WD ELEV
 EGL .m                   0.00:  GROUND ELEVATION
 EPD .m                   0.00:  ELEVATION
 AZTC.deg                 6.29:  AZM TOTAL CORR
 GRDC.deg                 0.18:  GRID CORRECTION
 MDEC.deg                 6.47:  MAGNETIC DECL
 MDIP.deg                59.54:  MAGNETIC DIP
 MFLD.nT              50337.00:  MAGNETIC FIELD
 GVFD.g                   1.00:  GRAVITY FIELD
 VSDR.deg               226.99:  VERT SEC DIRECT
 TDD .m                   0.00:  TOTAL DEPTH (DRILLER)
 SDEP.m                 448.00:  START DEPTH
 DFSL.m                   0.00:  DISTANCE FSL
 DFWL.m                   0.00:  DISTANCE FWL
 UTMY.m             4435799.96:  UTM Y
 UTMX.m              526265.35:  UTM X
 WHEW.m                  -6.24:  WELL HEAD E/W
 WHNS.m                  -2.16:  WELL HEAD N/S
 LONG.deg                51.31:  LONGITUDE
 LATI.deg                40.06:  LATITUDE
 TVDS.m                  43.42:  TVDSS CORRECTN
 EKB .m                  43.42:  KB ELEVATION
 EDF .m                  43.42:  DF ELEVATION
 TDL .m                 288.00:  TOTAL DEPTH (LOGGER)
 MAGU.                 1851863:  MAGUTM CHECKSUM
 VSC .                       0:  VS TO CLOSURE
~Parameter Information Block
#MNEM.UNIT       Value        Description
#---------     -----------    ---------------------------
 AV  .mps                 0.40:  Ann Velocity 
 AVMX.mps                 0.63:  Max Ann Veloc 
 AZIF.deg               158.76:  Azm, Final 
 BHAT.        Rotary Steerable:  BHA Type 
 BROT.°/30m               0.68:  Build Rotating 
 BS  .in                  8.50:  Bit Size 
 BSZ .in                  8.50:  Bit Size 
 BTPL.psig              712.00:  Bit Press Loss 
 CABU.                      No:  Customer Abuse 
 COMM.                     ÌÇp:  Run Comments 1 
 TCS .hr                 90.66:  Time Ciculation Ended 
 CV  .mps                 2.02:  Crit Velocity 
 CVMX.mps                 2.14:  Max Crit Veloc 
 DD1 .            Aziz Aliyevu:  Direct Drillr 1 
 DD2 .             Samir Abbas:  Direct Drillr 2 
 DD3 .           Teymur Aliyev:  Direct Drillr 3 
 DDSV.                 iCruise:  DD Service 
 DEFF.%                  85.10:  % Det Eff 
 DLRX.°/30m               1.05:  Dogleg Rot Max 
 DLSO.°/30m               1.01:  Dogleg Oriented 
 DLSX.°/30m               1.05:  Dogleg Str Max 
 DRET.      07.45.00 18-Jul-21:  Drill End Time 
 DRST.      15.00.00 16-Jul-21:  Drill Start Tim 
 DTIM.hr                 23.46:  Time Drilling 
 EDEP.m                4603.00:  End Depth 
 ENG1.       Seymur Iskandarov:  Engineer 1 
 ENG2.         Yevgeniy Ulikov:  Engineer 2 
 ENG3.         Bahruz Mehdiyev:  Engineer 3 
 ENG4.         Elchin Mammadov:  Engineer 4 
 ETIM.      14.00.00 23-Jul-21:  End Time 
 FLOI.gpm               500.00:  Flow In 
 FLON.gpm               450.00:  Flow In Min 
 FLOS.cptm                0.00:  Fluid Loss 
 FLOX.gpm               560.00:  Flow In Max 
 DFT .        Mineral Oil Base:  Mud Type 
 FTRO.       Formation Presure:  FTWD Run Obj 
 HFLO.                      No:  High Flow 
 HPRE.                      No:  High Pressure 
 HTEM.                      No:  High Temp 
 HYDO.m                   1.80:  Hydro Offset 
 IFIN.deg                40.22:  Inc, Final 
 IMAX.deg                40.54:  Inc Max 
 IMIN.deg                39.44:  Inc Min 
 IMND.m                4361.17:  Inc Min Depth 
 IMXD.m                4417.92:  Inc Max Depth 
 JARR.                      No:  Jarring 
 LETM.      07.45.00 18-Jul-21:  Log End Time 
 LOST.hr                    16:  Lost Rig Time 
 LSTM.      15.00.00 16-Jul-21:  Log Start Time 
 MDCL.ppm             36500.00:  Mud Chlorides 
 MDES.     Inversion Oil/Synthetic:  Mud Desc 
 DFD .sg                  1.42:  Mud Density 
 MDMN.sg                  1.42:  Dens Mud Min 
 MDMX.sg                  1.43:  Dens Mud Max 
 MOIL.                      56:  Run Mud Oil % 
 MOWR.                   71:29:  Run Mud OWR 
 MSND.                     0.5:  Run Mud Sand % 
 MSOL.                      21:  Run Mud Solids% 
 DFV .spqt               78.00:  Mud Viscosity 
 MWOD.in                  6.75:  MWD Tool OD 
 MWSI.                     Yes:  Serv Intrp, MWD 
 OTIM.hr                200.73:  Time Operating 
 PCON.           Look Like New:  Pad Condition 
 PMAX.psia            11069.93:  Press Op, Max 
 PV  .cP                 32.00:  Mud PV 
 RUN .                     700:  Run Number 
 ROPA.m/hr               10.00:  ROP Avg 
 ROPN.m/hr                9.00:  ROP Min 
 ROPX.m/hr               16.00:  ROP Max 
 RPMA.rpm               116.00:  RPM Surface Avg 
 RPMN.rpm                80.00:  RPM Surface Min 
 RPMX.rpm               120.00:  RPM Surface Max 
 RRUN.                    L605:  Rig Run Number 
 RTIM.hr                 45.00:  Time Reaming 
 SAZI.deg               159.86:  Azm, Start 
 SDEP.m                4315.00:  Start Depth 
 SIDD.                      No:  Serv Intrp, DD 
 SINC.deg                39.86:  Inc, Start 
 SPPA.psig             3300.00:  SPP Avg 
 SPPN.psig             3040.00:  SPP Min 
 SPPX.psig             3645.00:  SPP Max 
 STIM.      01.00.00 15-Jul-21:  Start Time 
 SVCS.                 DD, MWD:  Services 
 SVER.                    9.20:  Sperry Version 
 TDAT.m                 288.00:  Tot Depth Attmp 
 TDDF.                      No:  Trip for DD 
 TDLG.m                 288.00:  Tot Depth Loggd 
 TFF .                      No:  Trip for Fail 
 TQAA.f-kp               19.00:  Torque Abs Avg 
 TQAN.f-kp               18.00:  Torque Abs Min 
 TQAX.f-kp               21.00:  Torque Abs Max 
 TRRT.°/30m               0.45:  Turn Rotating 
 MRT .                    HCIM:  Maximum Recorded Temperature 
 TTMX.degC               88.24:  Max Tool Temp 
 VS01.                90649157:  Virtual Str1 SN 
 VS02.                90652483:  Virtual Str2 SN 
 VS03.                11671987:  Virtual Str3 SN 
 VS04.                90643411:  Virtual Str4 SN 
 VS05.                90652478:  Virtual Str5 SN 
 VS06.                    6111:  Virtual Str6 SN 
 WBMN.klb                 9.50:  WOB Min 
 WITN.        Grigoriy Sarayev:  Customer Rep 
 WITN.          Rufat Huseynov:  Customer Rep 2 
 WOBA.klb                11.00:  WOB Avg 
 WOBX.klb                15.00:  WOB Max 
 YP  .lhf2               28.00:  Yield Point 
~Curve Information Block
#MNEM.UNIT                 API CODE     Curve Description
#---------               -----------    ---------------------------
 TIME.HHMMSS            00 000 000 000:  GT Time & Date
 GTDEPTH.m              00 000 000 000:  GT Depth
 GTPQH.psia             00 000 000 000:  GT HR Quartz Pressure
 GTTQ.degC              00 000 000 000:  GT Quartz Temperature
 GTTN.NONE              00 000 000 000:  GT Test Number
 GTET.sec               00 000 000 000:  GT Elapsed Test Time
 GTTVD.m                00 000 000 000:  GT True Vertical Depth
#Other Information
#
#WARRANTY: Halliburton will use its best efforts to furnish customers with 
#accurate information and interpretations that are part of, and incident to, the services 
#provided.  However, Halliburton cannot and does not warrant the accuracy 
#or correctness of such information and interpretations.  Under no circumstances should any 
#such information or interpretation be relied upon as the sole basis for any drilling, 
#completion, production, or financial decision or any procedure involving any risk to the 
#safety of any drilling venture, drilling rig or its crew or any other third party.  The 
#Customer has full responsibility for all drilling, completion and production operation.  
#Halliburton makes no representations or warranties, either expressed or 
#implied, including, but not limited to, the implied warranties of merchantability or fitness 
#for a particular purpose, with respect to the services rendered.  In no event will 
#Halliburton be liable for failure to obtain any particular results or for 
#any damages, including, but not limited to, indirect, special or consequential damages, 
#resulting from the use of any information or interpretation provided by Halliburton.
#
~A           TIME           GTDEPTH  GTPQH  GTTQ  GTTN   GTET   GTTVD  
# ...
   13:45:23.409.19-Jul-2021 4561.50 3614.24 71.23 30.00  45.22 2747.31
   13:45:23.609.19-Jul-2021 4561.50 3613.69 71.23 30.00  45.42 2747.31
   13:45:23.810.19-Jul-2021 4561.50 3614.00 71.23 30.00  45.62 2747.31
   13:45:24.010.19-Jul-2021 4561.50 3614.38 71.23 30.00  45.82 2747.31
   13:45:24.210.19-Jul-2021 4561.50 3613.90 71.23 30.00  46.02 2747.31
   13:45:24.410.19-Jul-2021 4561.50 3613.90 71.23 30.00  46.22 2747.31
   13:45:24.610.19-Jul-2021 4561.50 3614.08 71.23 30.00  46.42 2747.31
   13:45:24.810.19-Jul-2021 4561.50 3614.44 71.23 30.00  46.62 2747.31
   13:45:25.010.19-Jul-2021 4561.50 3614.14 71.23 30.00  46.82 2747.31
   13:45:25.210.19-Jul-2021 4561.50 3614.32 71.23 30.00  47.02 2747.31
   13:45:25.410.19-Jul-2021 4561.50 3614.32 71.23 30.00  47.22 2747.31
   13:45:25.610.19-Jul-2021 4561.50 3618.17 71.23 30.00  47.42 2747.31
   13:45:25.810.19-Jul-2021 4561.50 3615.85 71.23 30.00  47.62 2747.31
   13:45:26.010.19-Jul-2021 4561.50 3614.57 71.23 30.00  47.82 2747.31
   13:45:26.210.19-Jul-2021 4561.50 3614.61 71.22 30.00  48.02 2747.31
   13:45:26.411.19-Jul-2021 4561.50 3614.61 71.22 30.00  48.22 2747.31
   13:45:26.611.19-Jul-2021 4561.50 3614.65 71.22 30.00  48.42 2747.31
   13:45:26.811.19-Jul-2021 4561.50 3614.55 71.22 30.00  48.62 2747.31
   13:45:27.011.19-Jul-2021 4561.50 3614.21 71.22 30.00  48.82 2747.31
   13:45:27.211.19-Jul-2021 4561.50 3614.11 71.22 30.00  49.02 2747.31
   13:45:27.411.19-Jul-2021 4561.50 3614.11 71.22 30.00  49.22 2747.31
   13:45:27.611.19-Jul-2021 4561.50 3614.24 71.22 30.00  49.42 2747.31
   13:45:27.811.19-Jul-2021 4561.50 3614.00 71.22 30.00  49.62 2747.31
   13:45:28.011.19-Jul-2021 4561.50 3614.30 71.22 30.00  49.82 2747.31
   13:45:28.211.19-Jul-2021 4561.50 3614.08 71.22 30.00  50.02 2747.31
   13:45:28.411.19-Jul-2021 4561.50 3614.08 71.22 30.00  50.22 2747.31
   13:45:28.611.19-Jul-2021 4561.50 3614.27 71.22 30.00  50.42 2747.31
   13:45:28.811.19-Jul-2021 4561.50 3614.04 71.22 30.00  50.62 2747.31
   13:45:29.011.19-Jul-2021 4561.50 3614.19 71.22 30.00  50.82 2747.31
   13:45:29.212.19-Jul-2021 4561.50 3614.88 71.22 30.00  51.02 2747.31
   13:45:29.412.19-Jul-2021 4561.50 3614.88 71.22 30.00  51.22 2747.31
   13:45:29.612.19-Jul-2021 4561.50 3614.09 71.22 30.00  51.42 2747.31
   13:45:29.812.19-Jul-2021 4561.50 3614.15 71.22 30.00  51.62 2747.31
   13:45:30.012.19-Jul-2021 4561.50 3614.15 71.22 30.00  51.82 2747.31
   13:45:30.212.19-Jul-2021 4561.50 3613.88 71.22 30.00  52.02 2747.31
   13:45:30.412.19-Jul-2021 4561.50 3613.88 71.22 30.00  52.22 2747.31
   13:45:30.612.19-Jul-2021 4561.50 3613.93 71.22 30.00  52.42 2747.31
   13:45:30.812.19-Jul-2021 4561.50 3614.19 71.22 30.00  52.62 2747.31
   13:45:31.012.19-Jul-2021 4561.50 3614.01 71.22 30.00  52.82 2747.31
   13:45:31.212.19-Jul-2021 4561.50 3614.24 71.22 30.00  53.02 2747.31
   13:45:31.412.19-Jul-2021 4561.50 3614.24 71.22 30.00  53.22 2747.31
   13:45:31.612.19-Jul-2021 4561.50 3614.04 71.22 30.00  53.42 2747.31
   13:45:31.813.19-Jul-2021 4561.50 3614.89 71.22 30.00  53.62 2747.31
   13:45:32.013.19-Jul-2021 4561.50 3614.59 71.22 30.00  53.82 2747.31
   13:45:32.213.19-Jul-2021 4561.50 3614.65 71.22 30.00  54.02 2747.31
   13:45:32.413.19-Jul-2021 4561.50 3614.65 71.22 30.00  54.22 2747.31
   13:45:32.613.19-Jul-2021 4561.50 3615.40 71.22 30.00  54.42 2747.31
   13:45:32.813.19-Jul-2021 4561.50 3614.64 71.22 30.00  54.62 2747.31
   13:45:33.013.19-Jul-2021 4561.50 3614.47 71.22 30.00  54.82 2747.31
   13:45:33.213.19-Jul-2021 4561.50 3615.46 71.22 30.00  55.02 2747.31
   13:45:33.413.19-Jul-2021 4561.50 3615.46 71.22 30.00  55.22 2747.31
   13:45:33.613.19-Jul-2021 4561.50 3614.68 71.22 30.00  55.42 2747.31
   13:45:33.813.19-Jul-2021 4561.50 3614.24 71.22 30.00  55.62 2747.31
   13:45:34.013.19-Jul-2021 4561.50 3615.48 71.22 30.00  55.82 2747.31
   13:45:34.213.19-Jul-2021 4561.50 3614.02 71.22 30.00  56.02 2747.31
   13:45:34.413.19-Jul-2021 4561.50 3614.02 71.22 30.00  56.22 2747.31
   13:45:34.614.19-Jul-2021 4561.50 3614.25 71.22 30.00  56.42 2747.31
   13:45:34.814.19-Jul-2021 4561.50 3614.31 71.22 30.00  56.62 2747.31
   13:45:35.014.19-Jul-2021 4561.50 3615.03 71.22 30.00  56.82 2747.31
   13:45:35.214.19-Jul-2021 4561.50 3613.83 71.22 30.00  57.02 2747.31
   13:45:35.414.19-Jul-2021 4561.50 3613.83 71.22 30.00  57.22 2747.31
   13:45:35.614.19-Jul-2021 4561.50 3614.41 71.22 30.00  57.42 2747.31
   13:45:35.814.19-Jul-2021 4561.50 3614.25 71.22 30.00  57.62 2747.31
   13:45:36.014.19-Jul-2021 4561.50 3614.44 71.22 30.00  57.82 2747.31
   13:45:36.214.19-Jul-2021 4561.50 3614.07 71.22 30.00  58.02 2747.31
   13:45:36.414.19-Jul-2021 4561.50 3614.07 71.22 30.00  58.22 2747.31
   13:45:36.614.19-Jul-2021 4561.50 3614.37 71.22 30.00  58.42 2747.31
   13:45:36.814.19-Jul-2021 4561.50 3614.35 71.23 30.00  58.62 2747.31
   13:45:37.014.19-Jul-2021 4561.50 3614.30 71.23 30.00  58.82 2747.31
   13:45:37.214.19-Jul-2021 4561.50 3614.40 71.23 30.00  59.02 2747.31
   13:45:37.415.19-Jul-2021 4561.50 3614.40 71.23 30.00  59.22 2747.31
   13:45:37.615.19-Jul-2021 4561.50 3614.47 71.23 30.00  59.42 2747.31
   13:45:37.815.19-Jul-2021 4561.50 3614.24 71.23 30.00  59.62 2747.31
   13:45:38.015.19-Jul-2021 4561.50 3614.73 71.23 30.00  59.82 2747.31
   13:45:38.215.19-Jul-2021 4561.50 3614.57 71.23 30.00  60.02 2747.31
   13:45:38.415.19-Jul-2021 4561.50 3614.57 71.23 30.00  60.22 2747.31
   13:45:38.615.19-Jul-2021 4561.50 3614.28 71.23 30.00  60.42 2747.31
   13:45:38.815.19-Jul-2021 4561.50 3614.49 71.23 30.00  60.62 2747.31
   13:45:39.015.19-Jul-2021 4561.50 3614.30 71.23 30.00  60.82 2747.31
   13:45:39.215.19-Jul-2021 4561.50 3614.41 71.23 30.00  61.02 2747.31
   13:45:39.415.19-Jul-2021 4561.50 3614.41 71.23 30.00  61.22 2747.31
   13:45:39.615.19-Jul-2021 4561.50 3614.47 71.23 30.00  61.42 2747.31
   13:45:39.815.19-Jul-2021 4561.50 3614.26 71.23 30.00  61.62 2747.31
   13:45:40.016.19-Jul-2021 4561.50 3614.53 71.23 30.00  61.82 2747.31
   13:45:40.216.19-Jul-2021 4561.50 3614.35 71.23 30.00  62.02 2747.31
   13:45:40.416.19-Jul-2021 4561.50 3614.35 71.23 30.00  62.22 2747.31
   13:45:40.616.19-Jul-2021 4561.50 3614.11 71.23 30.00  62.42 2747.31
   13:45:40.816.19-Jul-2021 4561.50 3614.17 71.23 30.00  62.62 2747.31
   13:45:41.016.19-Jul-2021 4561.50 3614.71 71.23 30.00  62.82 2747.31
   13:45:41.216.19-Jul-2021 4561.50 3614.42 71.23 30.00  63.02 2747.31
   13:45:41.416.19-Jul-2021 4561.50 3614.42 71.23 30.00  63.22 2747.31
   13:45:41.616.19-Jul-2021 4561.50 3615.02 71.23 30.00  63.42 2747.31
   13:45:41.816.19-Jul-2021 4561.50 3613.94 71.23 30.00  63.62 2747.31
   13:45:42.016.19-Jul-2021 4561.50 3614.37 71.23 30.00  63.82 2747.31
   13:45:42.216.19-Jul-2021 4561.50 3614.43 71.23 30.00  64.02 2747.31
   13:45:42.416.19-Jul-2021 4561.50 3614.43 71.23 30.00  64.22 2747.31
   13:45:42.616.19-Jul-2021 4561.50 3614.11 71.23 30.00  64.42 2747.31
   13:45:42.817.19-Jul-2021 4561.50 3614.56 71.23 30.00  64.62 2747.31
   13:45:43.017.19-Jul-2021 4561.50 3614.38 71.23 30.00  64.82 2747.31
   13:45:43.217.19-Jul-2021 4561.50 3614.48 71.23 30.00  65.02 2747.31
   13:45:43.417.19-Jul-2021 4561.50 3614.48 71.23 30.00  65.22 2747.31
   13:45:43.617.19-Jul-2021 4561.50 3614.36 71.23 30.00  65.42 2747.31
   13:45:43.817.19-Jul-2021 4561.50 3614.74 71.23 30.00  65.62 2747.31
   13:45:44.017.19-Jul-2021 4561.50 3614.35 71.23 30.00  65.82 2747.31
   13:45:44.217.19-Jul-2021 4561.50 3614.49 71.23 30.00  66.02 2747.31
   13:45:44.417.19-Jul-2021 4561.50 3614.49 71.23 30.00  66.22 2747.31
   13:45:44.617.19-Jul-2021 4561.50 3614.60 71.23 30.00  66.42 2747.31
   13:45:44.817.19-Jul-2021 4561.50 3614.46 71.23 30.00  66.62 2747.31
   13:45:45.017.19-Jul-2021 4561.50 3614.41 71.23 30.00  66.82 2747.31
   13:45:45.217.19-Jul-2021 4561.50 3614.48 71.23 30.00  67.02 2747.31
   13:45:45.418.19-Jul-2021 4561.50 3614.48 71.23 30.00  67.22 2747.31
   13:45:45.618.19-Jul-2021 4561.50 3614.48 71.23 30.00  67.42 2747.31
   13:45:45.818.19-Jul-2021 4561.50 3614.57 71.23 30.00  67.62 2747.31
