~Version Information
 VERS.                  2.0:   CWLS log ASCII Standard -VERSION 2.0
 WRAP.                   NO:   One line per depth step
~Well Information Block
#MNEM.UNIT     VALUE/NAME     DESCRIPTION
#---------     -----------    ---------------------------
 STRT.S             23:00:58 18-Jul-21: START TIME 23:00:58 18-Jul-21
 STOP.S             23:07:34 18-Jul-21: STOP TIME  23:07:34 18-Jul-21
 STEP.S                   0.00: STEP TIME
 NULL.                 -999.25: NULL VALUE
 MDS .        Operator Entered:  MAG DATA SOURCE
 PDAT.          Mean Sea Level:  PERMANENT DATUM
 UNIT.                     N/A:  LOGGING EQUIPMENT ID
 DCON.         Sperry Drilling:  DIRECTNL CONTR
 DOE .                     N/A:  DOE NUMBER
 RIG .              West Azeri:  RIG NAME
 JOBN.        AZ-XX-0906997913:  JOB TICKET NUMB
 WELL.                     C41:  WELL NAME
 MWDS.                    Baku:  MWD SHOP
 SRVC.          Turan Drilling:  CONTRACTOR
 FLD .                     ACG:  FIELD NAME
 CTRY.              Azerbaijan:  COUNTRY NAME
 PROV.                    Baku:  PROVINCE
 STAT.                    Baku:  STATE NAME
 REGN.                   EESSA:  REGION
 BASE.              Azerbaijan:  LOGGING EQUIPMENT BASE LOCATION
 UWI .                     N/A:  UNIQUE WELL IDENTIFIER
 API .                     N/A:  API NUMBER
 COMP.     BP Exploration (Caspian Sea) Ltd.:  COMPANY
 WTYP.                Deviated:  WELL TYPE
 SON .        AZ-XX-0906997913:  JOB NUMBER
 FTOP.          Formation Tops:  FORM TOPS DESC
 ILTD.               Lithology:  INTERP LTH DESC
 SVYD.                  Survey:  SURVEY DESC
 DMOD.             Drill Model:  DRILL MOD DESC
 HPTY.       Minimum Curvature:  HOLE POS TYPE
 NREF.                    Grid:  NORTH REFERENCE
 SPUD.               16-May-21:  SPUD DATE
 DATE.      21.11.28 17-May-21:  END TIME
 STIM.      21.11.28 17-May-21:  START TIME
 DMF .             Drill Floor:  DRILL MEAS FROM
 DFST.                        :  DIST FSL TEXT
 DFWT.                        :  DIST FWL TEXT
 CNTY.                        :  COUNTY
 LOC .                        :  LOCATION
 LMF .             Drill Floor:  LOG MEASURED FROM
 AGAP.m                  43.42:  AIR GAP
 VSNS.m                  -2.16:  VERT SEC N/S
 VSEW.m                  -6.24:  VERT SEC E/W
 APD .m                  43.42:  DEPTH ABOVE PD
 WDMS.m                 118.27:  WD ELEV
 EGL .m                   0.00:  GROUND ELEVATION
 EPD .m                   0.00:  ELEVATION
 AZTC.deg                 6.29:  AZM TOTAL CORR
 GRDC.deg                 0.18:  GRID CORRECTION
 MDEC.deg                 6.47:  MAGNETIC DECL
 MDIP.deg                59.54:  MAGNETIC DIP
 MFLD.nT              50337.00:  MAGNETIC FIELD
 GVFD.g                   1.00:  GRAVITY FIELD
 VSDR.deg               226.99:  VERT SEC DIRECT
 TDD .m                   0.00:  TOTAL DEPTH (DRILLER)
 SDEP.m                 448.00:  START DEPTH
 DFSL.m                   0.00:  DISTANCE FSL
 DFWL.m                   0.00:  DISTANCE FWL
 UTMY.m             4435799.96:  UTM Y
 UTMX.m              526265.35:  UTM X
 WHEW.m                  -6.24:  WELL HEAD E/W
 WHNS.m                  -2.16:  WELL HEAD N/S
 LONG.deg                51.31:  LONGITUDE
 LATI.deg                40.06:  LATITUDE
 TVDS.m                  43.42:  TVDSS CORRECTN
 EKB .m                  43.42:  KB ELEVATION
 EDF .m                  43.42:  DF ELEVATION
 TDL .m                 288.00:  TOTAL DEPTH (LOGGER)
 MAGU.                 1851863:  MAGUTM CHECKSUM
 VSC .                       0:  VS TO CLOSURE
~Parameter Information Block
#MNEM.UNIT       Value        Description
#---------     -----------    ---------------------------
 AV  .mps                 0.40:  Ann Velocity 
 AVMX.mps                 0.63:  Max Ann Veloc 
 AZIF.deg               158.76:  Azm, Final 
 BHAT.        Rotary Steerable:  BHA Type 
 BROT.°/30m               0.68:  Build Rotating 
 BS  .in                  8.50:  Bit Size 
 BSZ .in                  8.50:  Bit Size 
 BTPL.psig              712.00:  Bit Press Loss 
 CABU.                      No:  Customer Abuse 
 COMM.                     ¼2`:  Run Comments 1 
 TCS .hr                 90.66:  Time Ciculation Ended 
 CV  .mps                 2.02:  Crit Velocity 
 CVMX.mps                 2.14:  Max Crit Veloc 
 DD1 .            Aziz Aliyevu:  Direct Drillr 1 
 DD2 .             Samir Abbas:  Direct Drillr 2 
 DD3 .           Teymur Aliyev:  Direct Drillr 3 
 DDSV.                 iCruise:  DD Service 
 DEFF.%                  85.10:  % Det Eff 
 DLRX.°/30m               1.05:  Dogleg Rot Max 
 DLSO.°/30m               1.01:  Dogleg Oriented 
 DLSX.°/30m               1.05:  Dogleg Str Max 
 DRET.      07.45.00 18-Jul-21:  Drill End Time 
 DRST.      15.00.00 16-Jul-21:  Drill Start Tim 
 DTIM.hr                 23.46:  Time Drilling 
 EDEP.m                4603.00:  End Depth 
 ENG1.       Seymur Iskandarov:  Engineer 1 
 ENG2.         Yevgeniy Ulikov:  Engineer 2 
 ENG3.         Bahruz Mehdiyev:  Engineer 3 
 ENG4.         Elchin Mammadov:  Engineer 4 
 ETIM.      14.00.00 23-Jul-21:  End Time 
 FLOI.gpm               500.00:  Flow In 
 FLON.gpm               450.00:  Flow In Min 
 FLOS.cptm                0.00:  Fluid Loss 
 FLOX.gpm               560.00:  Flow In Max 
 DFT .        Mineral Oil Base:  Mud Type 
 FTRO.       Formation Presure:  FTWD Run Obj 
 HFLO.                      No:  High Flow 
 HPRE.                      No:  High Pressure 
 HTEM.                      No:  High Temp 
 HYDO.m                   1.80:  Hydro Offset 
 IFIN.deg                40.22:  Inc, Final 
 IMAX.deg                40.54:  Inc Max 
 IMIN.deg                39.44:  Inc Min 
 IMND.m                4361.17:  Inc Min Depth 
 IMXD.m                4417.92:  Inc Max Depth 
 JARR.                      No:  Jarring 
 LETM.      07.45.00 18-Jul-21:  Log End Time 
 LOST.hr                    16:  Lost Rig Time 
 LSTM.      15.00.00 16-Jul-21:  Log Start Time 
 MDCL.ppm             36500.00:  Mud Chlorides 
 MDES.     Inversion Oil/Synthetic:  Mud Desc 
 DFD .sg                  1.42:  Mud Density 
 MDMN.sg                  1.42:  Dens Mud Min 
 MDMX.sg                  1.43:  Dens Mud Max 
 MOIL.                      56:  Run Mud Oil % 
 MOWR.                   71:29:  Run Mud OWR 
 MSND.                     0.5:  Run Mud Sand % 
 MSOL.                      21:  Run Mud Solids% 
 DFV .spqt               78.00:  Mud Viscosity 
 MWOD.in                  6.75:  MWD Tool OD 
 MWSI.                     Yes:  Serv Intrp, MWD 
 OTIM.hr                200.73:  Time Operating 
 PCON.           Look Like New:  Pad Condition 
 PMAX.psia            11069.93:  Press Op, Max 
 PV  .cP                 32.00:  Mud PV 
 RUN .                     700:  Run Number 
 ROPA.m/hr               10.00:  ROP Avg 
 ROPN.m/hr                9.00:  ROP Min 
 ROPX.m/hr               16.00:  ROP Max 
 RPMA.rpm               116.00:  RPM Surface Avg 
 RPMN.rpm                80.00:  RPM Surface Min 
 RPMX.rpm               120.00:  RPM Surface Max 
 RRUN.                    L605:  Rig Run Number 
 RTIM.hr                 45.00:  Time Reaming 
 SAZI.deg               159.86:  Azm, Start 
 SDEP.m                4315.00:  Start Depth 
 SIDD.                      No:  Serv Intrp, DD 
 SINC.deg                39.86:  Inc, Start 
 SPPA.psig             3300.00:  SPP Avg 
 SPPN.psig             3040.00:  SPP Min 
 SPPX.psig             3645.00:  SPP Max 
 STIM.      01.00.00 15-Jul-21:  Start Time 
 SVCS.                 DD, MWD:  Services 
 SVER.                    9.20:  Sperry Version 
 TDAT.m                 288.00:  Tot Depth Attmp 
 TDDF.                      No:  Trip for DD 
 TDLG.m                 288.00:  Tot Depth Loggd 
 TFF .                      No:  Trip for Fail 
 TQAA.f-kp               19.00:  Torque Abs Avg 
 TQAN.f-kp               18.00:  Torque Abs Min 
 TQAX.f-kp               21.00:  Torque Abs Max 
 TRRT.°/30m               0.45:  Turn Rotating 
 MRT .                    HCIM:  Maximum Recorded Temperature 
 TTMX.degC               88.24:  Max Tool Temp 
 VS01.                90649157:  Virtual Str1 SN 
 VS02.                90652483:  Virtual Str2 SN 
 VS03.                11671987:  Virtual Str3 SN 
 VS04.                90643411:  Virtual Str4 SN 
 VS05.                90652478:  Virtual Str5 SN 
 VS06.                    6111:  Virtual Str6 SN 
 WBMN.klb                 9.50:  WOB Min 
 WITN.        Grigoriy Sarayev:  Customer Rep 
 WITN.          Rufat Huseynov:  Customer Rep 2 
 WOBA.klb                11.00:  WOB Avg 
 WOBX.klb                15.00:  WOB Max 
 YP  .lhf2               28.00:  Yield Point 
~Curve Information Block
#MNEM.UNIT                 API CODE     Curve Description
#---------               -----------    ---------------------------
 TIME.HHMMSS            00 000 000 000:  GT Time & Date
 GTDEPTH.m              00 000 000 000:  GT Depth
 GTPQH.psia             00 000 000 000:  GT HR Quartz Pressure
 GTTQ.degC              00 000 000 000:  GT Quartz Temperature
 GTTN.NONE              00 000 000 000:  GT Test Number
 GTET.sec               00 000 000 000:  GT Elapsed Test Time
 GTTVD.m                00 000 000 000:  GT True Vertical Depth
#Other Information
#
#WARRANTY: Halliburton will use its best efforts to furnish customers with 
#accurate information and interpretations that are part of, and incident to, the services 
#provided.  However, Halliburton cannot and does not warrant the accuracy 
#or correctness of such information and interpretations.  Under no circumstances should any 
#such information or interpretation be relied upon as the sole basis for any drilling, 
#completion, production, or financial decision or any procedure involving any risk to the 
#safety of any drilling venture, drilling rig or its crew or any other third party.  The 
#Customer has full responsibility for all drilling, completion and production operation.  
#Halliburton makes no representations or warranties, either expressed or 
#implied, including, but not limited to, the implied warranties of merchantability or fitness 
#for a particular purpose, with respect to the services rendered.  In no event will 
#Halliburton be liable for failure to obtain any particular results or for 
#any damages, including, but not limited to, indirect, special or consequential damages, 
#resulting from the use of any information or interpretation provided by Halliburton.
#
~A           TIME           GTDEPTH  GTPQH  GTTQ  GTTN  GTET   GTTVD  
# ...
   23:05:11.764.18-Jul-2021 4247.58 5968.12 69.67 8.00 253.09 2507.04
   23:05:11.964.18-Jul-2021 4247.58 5968.12 69.67 8.00 253.29 2507.04
   23:05:12.164.18-Jul-2021 4247.58 5967.71 69.67 8.00 253.49 2507.04
   23:05:12.364.18-Jul-2021 4247.58 5967.39 69.67 8.00 253.69 2507.04
   23:05:12.564.18-Jul-2021 4247.58 5970.76 69.67 8.00 253.89 2507.04
   23:05:12.764.18-Jul-2021 4247.58 5962.88 69.67 8.00 254.09 2507.04
   23:05:12.964.18-Jul-2021 4247.58 5962.88 69.67 8.00 254.29 2507.04
   23:05:13.164.18-Jul-2021 4247.58 5975.26 69.67 8.00 254.49 2507.04
   23:05:13.364.18-Jul-2021 4247.58 5978.91 69.67 8.00 254.69 2507.04
   23:05:13.564.18-Jul-2021 4247.58 5977.76 69.67 8.00 254.89 2507.04
   23:05:13.764.18-Jul-2021 4247.58 5978.36 69.67 8.00 255.09 2507.04
   23:05:13.964.18-Jul-2021 4247.58 5978.36 69.67 8.00 255.29 2507.04
   23:05:14.165.18-Jul-2021 4247.58 5978.26 69.67 8.00 255.49 2507.04
   23:05:14.365.18-Jul-2021 4247.58 5978.47 69.67 8.00 255.69 2507.04
   23:05:14.565.18-Jul-2021 4247.58 5978.42 69.67 8.00 255.89 2507.04
   23:05:14.765.18-Jul-2021 4247.58 5979.07 69.67 8.00 256.09 2507.04
   23:05:14.965.18-Jul-2021 4247.58 5979.07 69.67 8.00 256.29 2507.04
   23:05:15.165.18-Jul-2021 4247.58 5979.96 69.67 8.00 256.49 2507.04
   23:05:15.365.18-Jul-2021 4247.58 5980.44 69.67 8.00 256.69 2507.04
   23:05:15.565.18-Jul-2021 4247.58 5976.90 69.67 8.00 256.89 2507.04
   23:05:15.765.18-Jul-2021 4247.58 5980.66 69.67 8.00 257.09 2507.04
   23:05:15.965.18-Jul-2021 4247.58 5980.66 69.67 8.00 257.29 2507.04
   23:05:16.165.18-Jul-2021 4247.58 5969.85 69.67 8.00 257.49 2507.04
   23:05:16.365.18-Jul-2021 4247.58 5975.56 69.67 8.00 257.69 2507.04
   23:05:16.565.18-Jul-2021 4247.58 5965.55 69.67 8.00 257.89 2507.04
   23:05:16.765.18-Jul-2021 4247.58 5965.33 69.67 8.00 258.10 2507.04
   23:05:16.966.18-Jul-2021 4247.58 5965.33 69.67 8.00 258.30 2507.04
   23:05:17.166.18-Jul-2021 4247.58 5968.84 69.67 8.00 258.50 2507.04
   23:05:17.366.18-Jul-2021 4247.58 5971.96 69.67 8.00 258.70 2507.04
   23:05:17.566.18-Jul-2021 4247.58 5962.47 69.67 8.00 258.90 2507.04
   23:05:17.766.18-Jul-2021 4247.58 5963.59 69.67 8.00 259.10 2507.04
   23:05:17.966.18-Jul-2021 4247.58 5963.59 69.67 8.00 259.30 2507.04
   23:05:18.166.18-Jul-2021 4247.58 5970.35 69.67 8.00 259.50 2507.04
   23:05:18.366.18-Jul-2021 4247.58 5962.79 69.67 8.00 259.70 2507.04
   23:05:18.566.18-Jul-2021 4247.58 5961.91 69.67 8.00 259.90 2507.04
   23:05:18.766.18-Jul-2021 4247.58 5965.24 69.67 8.00 260.10 2507.04
   23:05:18.966.18-Jul-2021 4247.58 5965.24 69.67 8.00 260.30 2507.04
   23:05:19.166.18-Jul-2021 4247.58 5964.42 69.67 8.00 260.50 2507.04
   23:05:19.366.18-Jul-2021 4247.58 5964.95 69.67 8.00 260.70 2507.04
   23:05:19.567.18-Jul-2021 4247.58 5964.69 69.67 8.00 260.90 2507.04
   23:05:19.767.18-Jul-2021 4247.58 5964.59 69.67 8.00 261.10 2507.04
   23:05:19.967.18-Jul-2021 4247.58 5964.59 69.67 8.00 261.30 2507.04
   23:05:20.167.18-Jul-2021 4247.58 5964.69 69.67 8.00 261.50 2507.04
   23:05:20.367.18-Jul-2021 4247.58 5964.18 69.67 8.00 261.70 2507.04
   23:05:20.567.18-Jul-2021 4247.58 5963.91 69.67 8.00 261.90 2507.04
   23:05:20.767.18-Jul-2021 4247.58 5964.21 69.67 8.00 262.10 2507.04
   23:05:20.967.18-Jul-2021 4247.58 5964.21 69.67 8.00 262.30 2507.04
   23:05:21.167.18-Jul-2021 4247.58 5959.43 69.67 8.00 262.50 2507.04
   23:05:21.367.18-Jul-2021 4247.58 5958.13 69.67 8.00 262.70 2507.04
   23:05:21.567.18-Jul-2021 4247.58 5959.73 69.67 8.00 262.90 2507.04
   23:05:21.767.18-Jul-2021 4247.58 5959.15 69.67 8.00 263.10 2507.04
   23:05:21.967.18-Jul-2021 4247.58 5959.15 69.67 8.00 263.30 2507.04
   23:05:22.167.18-Jul-2021 4247.58 5957.71 69.67 8.00 263.50 2507.04
   23:05:22.368.18-Jul-2021 4247.58 5957.00 69.67 8.00 263.70 2507.04
   23:05:22.568.18-Jul-2021 4247.58 5957.69 69.67 8.00 263.90 2507.04
   23:05:22.768.18-Jul-2021 4247.58 5958.30 69.67 8.00 264.10 2507.04
   23:05:22.968.18-Jul-2021 4247.58 5958.30 69.67 8.00 264.30 2507.04
   23:05:23.168.18-Jul-2021 4247.58 5958.42 69.67 8.00 264.50 2507.04
   23:05:23.368.18-Jul-2021 4247.58 5958.53 69.67 8.00 264.70 2507.04
   23:05:23.568.18-Jul-2021 4247.58 5962.07 69.67 8.00 264.90 2507.04
   23:05:23.768.18-Jul-2021 4247.58 5955.23 69.67 8.00 265.10 2507.04
   23:05:23.968.18-Jul-2021 4247.58 5955.23 69.67 8.00 265.30 2507.04
   23:05:24.168.18-Jul-2021 4247.58 5961.52 69.67 8.00 265.50 2507.04
   23:05:24.368.18-Jul-2021 4247.58 5951.22 69.67 8.00 265.70 2507.04
   23:05:24.568.18-Jul-2021 4247.58 5953.83 69.67 8.00 265.90 2507.04
   23:05:24.768.18-Jul-2021 4247.58 5956.93 69.67 8.00 266.10 2507.04
   23:05:24.969.18-Jul-2021 4247.58 5956.93 69.67 8.00 266.30 2507.04
   23:05:25.169.18-Jul-2021 4247.58 5952.13 69.67 8.00 266.50 2507.04
   23:05:25.369.18-Jul-2021 4247.58 5951.49 69.67 8.00 266.70 2507.04
   23:05:25.569.18-Jul-2021 4247.58 5956.35 69.67 8.00 266.90 2507.04
   23:05:25.769.18-Jul-2021 4247.58 5957.66 69.67 8.00 267.10 2507.04
   23:05:25.969.18-Jul-2021 4247.58 5957.66 69.67 8.00 267.30 2507.04
   23:05:26.169.18-Jul-2021 4247.58 5951.09 69.67 8.00 267.50 2507.04
   23:05:26.369.18-Jul-2021 4247.58 5951.40 69.67 8.00 267.70 2507.04
   23:05:26.569.18-Jul-2021 4247.58 5953.82 69.67 8.00 267.90 2507.04
   23:05:26.769.18-Jul-2021 4247.58 5956.70 69.67 8.00 268.10 2507.04
   23:05:26.969.18-Jul-2021 4247.58 5956.70 69.67 8.00 268.30 2507.04
   23:05:27.169.18-Jul-2021 4247.58 5949.30 69.67 8.00 268.50 2507.04
   23:05:27.369.18-Jul-2021 4247.58 5950.44 69.67 8.00 268.70 2507.04
   23:05:27.569.18-Jul-2021 4247.58 5952.62 69.67 8.00 268.90 2507.04
   23:05:27.770.18-Jul-2021 4247.58 5952.00 69.67 8.00 269.10 2507.04
   23:05:27.970.18-Jul-2021 4247.58 5952.00 69.67 8.00 269.30 2507.04
   23:05:28.170.18-Jul-2021 4247.58 5952.64 69.67 8.00 269.50 2507.04
   23:05:28.370.18-Jul-2021 4247.58 5951.14 69.67 8.00 269.70 2507.04
   23:05:28.570.18-Jul-2021 4247.58 5951.73 69.67 8.00 269.90 2507.04
   23:05:28.770.18-Jul-2021 4247.58 5950.79 69.67 8.00 270.10 2507.04
   23:05:28.970.18-Jul-2021 4247.58 5950.79 69.67 8.00 270.30 2507.04
   23:05:29.170.18-Jul-2021 4247.58 5949.72 69.67 8.00 270.50 2507.04
   23:05:29.370.18-Jul-2021 4247.58 5950.71 69.67 8.00 270.70 2507.04
   23:05:29.570.18-Jul-2021 4247.58 5953.89 69.67 8.00 270.90 2507.04
   23:05:29.770.18-Jul-2021 4247.58 5946.36 69.67 8.00 271.10 2507.04
   23:05:29.970.18-Jul-2021 4247.58 5946.36 69.67 8.00 271.30 2507.04
   23:05:30.170.18-Jul-2021 4247.58 5950.45 69.67 8.00 271.50 2507.04
   23:05:30.370.18-Jul-2021 4247.58 5952.11 69.67 8.00 271.70 2507.04
   23:05:30.571.18-Jul-2021 4247.58 5949.81 69.67 8.00 271.90 2507.04
   23:05:30.771.18-Jul-2021 4247.58 5951.05 69.67 8.00 272.10 2507.04
   23:05:30.971.18-Jul-2021 4247.58 5951.05 69.67 8.00 272.30 2507.04
   23:05:31.171.18-Jul-2021 4247.58 5950.39 69.67 8.00 272.50 2507.04
   23:05:31.371.18-Jul-2021 4247.58 5951.47 69.67 8.00 272.70 2507.04
   23:05:31.571.18-Jul-2021 4247.58 5950.90 69.67 8.00 272.90 2507.04
   23:05:31.771.18-Jul-2021 4247.58 5951.79 69.67 8.00 273.10 2507.04
   23:05:31.971.18-Jul-2021 4247.58 5951.79 69.67 8.00 273.30 2507.04
   23:05:32.171.18-Jul-2021 4247.58 5950.94 69.67 8.00 273.50 2507.04
   23:05:32.371.18-Jul-2021 4247.58 5952.62 69.67 8.00 273.70 2507.04
   23:05:32.571.18-Jul-2021 4247.58 5948.31 69.67 8.00 273.90 2507.04
   23:05:32.771.18-Jul-2021 4247.58 5951.26 69.67 8.00 274.10 2507.04
   23:05:32.971.18-Jul-2021 4247.58 5951.26 69.67 8.00 274.30 2507.04
   23:05:33.172.18-Jul-2021 4247.58 5948.05 69.67 8.00 274.50 2507.04
   23:05:33.372.18-Jul-2021 4247.58 5953.02 69.67 8.00 274.70 2507.04
   23:05:33.572.18-Jul-2021 4247.58 5947.10 69.67 8.00 274.90 2507.04
   23:05:33.772.18-Jul-2021 4247.58 5948.50 69.67 8.00 275.10 2507.04
   23:05:33.972.18-Jul-2021 4247.58 5948.50 69.67 8.00 275.30 2507.04
   23:05:34.172.18-Jul-2021 4247.58 5953.91 69.67 8.00 275.50 2507.04
   23:05:34.372.18-Jul-2021 4247.58 5955.11 69.67 8.00 275.70 2507.04
   23:05:34.572.18-Jul-2021 4247.58 5948.63 69.67 8.00 275.90 2507.04
