~Version Information
 VERS.                  2.0:   CWLS log ASCII Standard -VERSION 2.0
 WRAP.                   NO:   One line per depth step
~Well Information Block
#MNEM.UNIT     VALUE/NAME     DESCRIPTION
#---------     -----------    ---------------------------
 STRT.S             07:37:07 19-Jul-21: START TIME 07:37:07 19-Jul-21
 STOP.S             07:44:01 19-Jul-21: STOP TIME  07:44:01 19-Jul-21
 STEP.S                   0.00: STEP TIME
 NULL.                 -999.25: NULL VALUE
 MDS .        Operator Entered:  MAG DATA SOURCE
 PDAT.          Mean Sea Level:  PERMANENT DATUM
 UNIT.                     N/A:  LOGGING EQUIPMENT ID
 DCON.         Sperry Drilling:  DIRECTNL CONTR
 DOE .                     N/A:  DOE NUMBER
 RIG .              West Azeri:  RIG NAME
 JOBN.        AZ-XX-0906997913:  JOB TICKET NUMB
 WELL.                     C41:  WELL NAME
 MWDS.                    Baku:  MWD SHOP
 SRVC.          Turan Drilling:  CONTRACTOR
 FLD .                     ACG:  FIELD NAME
 CTRY.              Azerbaijan:  COUNTRY NAME
 PROV.                    Baku:  PROVINCE
 STAT.                    Baku:  STATE NAME
 REGN.                   EESSA:  REGION
 BASE.              Azerbaijan:  LOGGING EQUIPMENT BASE LOCATION
 UWI .                     N/A:  UNIQUE WELL IDENTIFIER
 API .                     N/A:  API NUMBER
 COMP.     BP Exploration (Caspian Sea) Ltd.:  COMPANY
 WTYP.                Deviated:  WELL TYPE
 SON .        AZ-XX-0906997913:  JOB NUMBER
 FTOP.          Formation Tops:  FORM TOPS DESC
 ILTD.               Lithology:  INTERP LTH DESC
 SVYD.                  Survey:  SURVEY DESC
 DMOD.             Drill Model:  DRILL MOD DESC
 HPTY.       Minimum Curvature:  HOLE POS TYPE
 NREF.                    Grid:  NORTH REFERENCE
 SPUD.               16-May-21:  SPUD DATE
 DATE.      21.11.28 17-May-21:  END TIME
 STIM.      21.11.28 17-May-21:  START TIME
 DMF .             Drill Floor:  DRILL MEAS FROM
 DFST.                        :  DIST FSL TEXT
 DFWT.                        :  DIST FWL TEXT
 CNTY.                        :  COUNTY
 LOC .                        :  LOCATION
 LMF .             Drill Floor:  LOG MEASURED FROM
 AGAP.m                  43.42:  AIR GAP
 VSNS.m                  -2.16:  VERT SEC N/S
 VSEW.m                  -6.24:  VERT SEC E/W
 APD .m                  43.42:  DEPTH ABOVE PD
 WDMS.m                 118.27:  WD ELEV
 EGL .m                   0.00:  GROUND ELEVATION
 EPD .m                   0.00:  ELEVATION
 AZTC.deg                 6.29:  AZM TOTAL CORR
 GRDC.deg                 0.18:  GRID CORRECTION
 MDEC.deg                 6.47:  MAGNETIC DECL
 MDIP.deg                59.54:  MAGNETIC DIP
 MFLD.nT              50337.00:  MAGNETIC FIELD
 GVFD.g                   1.00:  GRAVITY FIELD
 VSDR.deg               226.99:  VERT SEC DIRECT
 TDD .m                   0.00:  TOTAL DEPTH (DRILLER)
 SDEP.m                 448.00:  START DEPTH
 DFSL.m                   0.00:  DISTANCE FSL
 DFWL.m                   0.00:  DISTANCE FWL
 UTMY.m             4435799.96:  UTM Y
 UTMX.m              526265.35:  UTM X
 WHEW.m                  -6.24:  WELL HEAD E/W
 WHNS.m                  -2.16:  WELL HEAD N/S
 LONG.deg                51.31:  LONGITUDE
 LATI.deg                40.06:  LATITUDE
 TVDS.m                  43.42:  TVDSS CORRECTN
 EKB .m                  43.42:  KB ELEVATION
 EDF .m                  43.42:  DF ELEVATION
 TDL .m                 288.00:  TOTAL DEPTH (LOGGER)
 MAGU.                 1851863:  MAGUTM CHECKSUM
 VSC .                       0:  VS TO CLOSURE
~Parameter Information Block
#MNEM.UNIT       Value        Description
#---------     -----------    ---------------------------
 AV  .mps                 0.40:  Ann Velocity 
 AVMX.mps                 0.63:  Max Ann Veloc 
 AZIF.deg               158.76:  Azm, Final 
 BHAT.        Rotary Steerable:  BHA Type 
 BROT.°/30m               0.68:  Build Rotating 
 BS  .in                  8.50:  Bit Size 
 BSZ .in                  8.50:  Bit Size 
 BTPL.psig              712.00:  Bit Press Loss 
 CABU.                      No:  Customer Abuse 
 COMM.                     ÌT{:  Run Comments 1 
 TCS .hr                 90.66:  Time Ciculation Ended 
 CV  .mps                 2.02:  Crit Velocity 
 CVMX.mps                 2.14:  Max Crit Veloc 
 DD1 .            Aziz Aliyevu:  Direct Drillr 1 
 DD2 .             Samir Abbas:  Direct Drillr 2 
 DD3 .           Teymur Aliyev:  Direct Drillr 3 
 DDSV.                 iCruise:  DD Service 
 DEFF.%                  85.10:  % Det Eff 
 DLRX.°/30m               1.05:  Dogleg Rot Max 
 DLSO.°/30m               1.01:  Dogleg Oriented 
 DLSX.°/30m               1.05:  Dogleg Str Max 
 DRET.      07.45.00 18-Jul-21:  Drill End Time 
 DRST.      15.00.00 16-Jul-21:  Drill Start Tim 
 DTIM.hr                 23.46:  Time Drilling 
 EDEP.m                4603.00:  End Depth 
 ENG1.       Seymur Iskandarov:  Engineer 1 
 ENG2.         Yevgeniy Ulikov:  Engineer 2 
 ENG3.         Bahruz Mehdiyev:  Engineer 3 
 ENG4.         Elchin Mammadov:  Engineer 4 
 ETIM.      14.00.00 23-Jul-21:  End Time 
 FLOI.gpm               500.00:  Flow In 
 FLON.gpm               450.00:  Flow In Min 
 FLOS.cptm                0.00:  Fluid Loss 
 FLOX.gpm               560.00:  Flow In Max 
 DFT .        Mineral Oil Base:  Mud Type 
 FTRO.       Formation Presure:  FTWD Run Obj 
 HFLO.                      No:  High Flow 
 HPRE.                      No:  High Pressure 
 HTEM.                      No:  High Temp 
 HYDO.m                   1.80:  Hydro Offset 
 IFIN.deg                40.22:  Inc, Final 
 IMAX.deg                40.54:  Inc Max 
 IMIN.deg                39.44:  Inc Min 
 IMND.m                4361.17:  Inc Min Depth 
 IMXD.m                4417.92:  Inc Max Depth 
 JARR.                      No:  Jarring 
 LETM.      07.45.00 18-Jul-21:  Log End Time 
 LOST.hr                    16:  Lost Rig Time 
 LSTM.      15.00.00 16-Jul-21:  Log Start Time 
 MDCL.ppm             36500.00:  Mud Chlorides 
 MDES.     Inversion Oil/Synthetic:  Mud Desc 
 DFD .sg                  1.42:  Mud Density 
 MDMN.sg                  1.42:  Dens Mud Min 
 MDMX.sg                  1.43:  Dens Mud Max 
 MOIL.                      56:  Run Mud Oil % 
 MOWR.                   71:29:  Run Mud OWR 
 MSND.                     0.5:  Run Mud Sand % 
 MSOL.                      21:  Run Mud Solids% 
 DFV .spqt               78.00:  Mud Viscosity 
 MWOD.in                  6.75:  MWD Tool OD 
 MWSI.                     Yes:  Serv Intrp, MWD 
 OTIM.hr                200.73:  Time Operating 
 PCON.           Look Like New:  Pad Condition 
 PMAX.psia            11069.93:  Press Op, Max 
 PV  .cP                 32.00:  Mud PV 
 RUN .                     700:  Run Number 
 ROPA.m/hr               10.00:  ROP Avg 
 ROPN.m/hr                9.00:  ROP Min 
 ROPX.m/hr               16.00:  ROP Max 
 RPMA.rpm               116.00:  RPM Surface Avg 
 RPMN.rpm                80.00:  RPM Surface Min 
 RPMX.rpm               120.00:  RPM Surface Max 
 RRUN.                    L605:  Rig Run Number 
 RTIM.hr                 45.00:  Time Reaming 
 SAZI.deg               159.86:  Azm, Start 
 SDEP.m                4315.00:  Start Depth 
 SIDD.                      No:  Serv Intrp, DD 
 SINC.deg                39.86:  Inc, Start 
 SPPA.psig             3300.00:  SPP Avg 
 SPPN.psig             3040.00:  SPP Min 
 SPPX.psig             3645.00:  SPP Max 
 STIM.      01.00.00 15-Jul-21:  Start Time 
 SVCS.                 DD, MWD:  Services 
 SVER.                    9.20:  Sperry Version 
 TDAT.m                 288.00:  Tot Depth Attmp 
 TDDF.                      No:  Trip for DD 
 TDLG.m                 288.00:  Tot Depth Loggd 
 TFF .                      No:  Trip for Fail 
 TQAA.f-kp               19.00:  Torque Abs Avg 
 TQAN.f-kp               18.00:  Torque Abs Min 
 TQAX.f-kp               21.00:  Torque Abs Max 
 TRRT.°/30m               0.45:  Turn Rotating 
 MRT .                    HCIM:  Maximum Recorded Temperature 
 TTMX.degC               88.24:  Max Tool Temp 
 VS01.                90649157:  Virtual Str1 SN 
 VS02.                90652483:  Virtual Str2 SN 
 VS03.                11671987:  Virtual Str3 SN 
 VS04.                90643411:  Virtual Str4 SN 
 VS05.                90652478:  Virtual Str5 SN 
 VS06.                    6111:  Virtual Str6 SN 
 WBMN.klb                 9.50:  WOB Min 
 WITN.        Grigoriy Sarayev:  Customer Rep 
 WITN.          Rufat Huseynov:  Customer Rep 2 
 WOBA.klb                11.00:  WOB Avg 
 WOBX.klb                15.00:  WOB Max 
 YP  .lhf2               28.00:  Yield Point 
~Curve Information Block
#MNEM.UNIT                 API CODE     Curve Description
#---------               -----------    ---------------------------
 TIME.HHMMSS            00 000 000 000:  GT Time & Date
 GTDEPTH.m              00 000 000 000:  GT Depth
 GTPQH.psia             00 000 000 000:  GT HR Quartz Pressure
 GTTQ.degC              00 000 000 000:  GT Quartz Temperature
 GTTN.NONE              00 000 000 000:  GT Test Number
 GTET.sec               00 000 000 000:  GT Elapsed Test Time
 GTTVD.m                00 000 000 000:  GT True Vertical Depth
#Other Information
#
#WARRANTY: Halliburton will use its best efforts to furnish customers with 
#accurate information and interpretations that are part of, and incident to, the services 
#provided.  However, Halliburton cannot and does not warrant the accuracy 
#or correctness of such information and interpretations.  Under no circumstances should any 
#such information or interpretation be relied upon as the sole basis for any drilling, 
#completion, production, or financial decision or any procedure involving any risk to the 
#safety of any drilling venture, drilling rig or its crew or any other third party.  The 
#Customer has full responsibility for all drilling, completion and production operation.  
#Halliburton makes no representations or warranties, either expressed or 
#implied, including, but not limited to, the implied warranties of merchantability or fitness 
#for a particular purpose, with respect to the services rendered.  In no event will 
#Halliburton be liable for failure to obtain any particular results or for 
#any damages, including, but not limited to, indirect, special or consequential damages, 
#resulting from the use of any information or interpretation provided by Halliburton.
#
~A           TIME           GTDEPTH  GTPQH  GTTQ  GTTN   GTET   GTTVD  
# ...
   07:43:08.807.19-Jul-2021 4415.50 6437.05 70.00 16.00 361.73 2635.75
   07:43:09.007.19-Jul-2021 4415.50 6417.79 70.01 16.00 361.93 2635.75
   07:43:09.207.19-Jul-2021 4415.50 6409.77 70.01 16.00 362.13 2635.75
   07:43:09.407.19-Jul-2021 4415.50 6409.77 70.01 16.00 362.33 2635.75
   07:43:09.607.19-Jul-2021 4415.50 6415.19 70.01 16.00 362.53 2635.75
   07:43:09.807.19-Jul-2021 4415.50 6414.69 70.01 16.00 362.73 2635.75
   07:43:10.007.19-Jul-2021 4415.50 6415.94 70.01 16.00 362.93 2635.75
   07:43:10.207.19-Jul-2021 4415.50 6414.96 70.01 16.00 363.13 2635.75
   07:43:10.407.19-Jul-2021 4415.50 6414.96 70.01 16.00 363.33 2635.75
   07:43:10.607.19-Jul-2021 4415.50 6413.93 70.02 16.00 363.53 2635.75
   07:43:10.807.19-Jul-2021 4415.50 6413.86 70.02 16.00 363.73 2635.75
   07:43:11.007.19-Jul-2021 4415.50 6413.08 70.02 16.00 363.93 2635.75
   07:43:11.207.19-Jul-2021 4415.50 6410.85 70.02 16.00 364.13 2635.75
   07:43:11.407.19-Jul-2021 4415.50 6410.85 70.02 16.00 364.33 2635.75
   07:43:11.608.19-Jul-2021 4415.50 6441.88 70.02 16.00 364.53 2635.75
   07:43:11.808.19-Jul-2021 4415.50 6416.62 70.02 16.00 364.73 2635.75
   07:43:12.008.19-Jul-2021 4415.50 6413.79 70.03 16.00 364.93 2635.75
   07:43:12.208.19-Jul-2021 4415.50 6412.84 70.03 16.00 365.13 2635.75
   07:43:12.408.19-Jul-2021 4415.50 6412.84 70.03 16.00 365.33 2635.75
   07:43:12.608.19-Jul-2021 4415.50 6414.49 70.03 16.00 365.53 2635.75
   07:43:12.808.19-Jul-2021 4415.50 6412.52 70.03 16.00 365.73 2635.75
   07:43:13.008.19-Jul-2021 4415.50 6412.78 70.03 16.00 365.93 2635.75
   07:43:13.208.19-Jul-2021 4415.50 6412.92 70.03 16.00 366.13 2635.75
   07:43:13.408.19-Jul-2021 4415.50 6412.92 70.03 16.00 366.33 2635.75
   07:43:13.608.19-Jul-2021 4415.50 6412.90 70.03 16.00 366.53 2635.75
   07:43:13.808.19-Jul-2021 4415.50 6410.30 70.03 16.00 366.74 2635.75
   07:43:14.008.19-Jul-2021 4415.50 6410.29 70.03 16.00 366.94 2635.75
   07:43:14.209.19-Jul-2021 4415.50 6441.11 70.04 16.00 367.14 2635.75
   07:43:14.409.19-Jul-2021 4415.50 6441.11 70.04 16.00 367.34 2635.75
   07:43:14.609.19-Jul-2021 4415.50 6419.41 70.04 16.00 367.54 2635.75
   07:43:14.809.19-Jul-2021 4415.50 6436.10 70.04 16.00 367.74 2635.75
   07:43:15.009.19-Jul-2021 4415.50 6417.47 70.04 16.00 367.94 2635.75
   07:43:15.209.19-Jul-2021 4415.50 6411.68 70.04 16.00 368.14 2635.75
   07:43:15.409.19-Jul-2021 4415.50 6411.68 70.04 16.00 368.34 2635.75
   07:43:15.609.19-Jul-2021 4415.50 6434.87 70.04 16.00 368.54 2635.75
   07:43:15.809.19-Jul-2021 4415.50 6416.20 70.04 16.00 368.74 2635.75
   07:43:16.009.19-Jul-2021 4415.50 6412.12 70.04 16.00 368.94 2635.75
   07:43:16.209.19-Jul-2021 4415.50 6430.64 70.04 16.00 369.14 2635.75
   07:43:16.409.19-Jul-2021 4415.50 6430.64 70.04 16.00 369.34 2635.75
   07:43:16.609.19-Jul-2021 4415.50 6419.37 70.04 16.00 369.54 2635.75
   07:43:16.809.19-Jul-2021 4415.50 6417.80 70.04 16.00 369.74 2635.75
   07:43:17.010.19-Jul-2021 4415.50 6412.36 70.04 16.00 369.94 2635.75
   07:43:17.210.19-Jul-2021 4415.50 6414.61 70.04 16.00 370.14 2635.75
   07:43:17.410.19-Jul-2021 4415.50 6414.61 70.04 16.00 370.34 2635.75
   07:43:17.610.19-Jul-2021 4415.50 6421.61 70.04 16.00 370.54 2635.75
   07:43:17.810.19-Jul-2021 4415.50 6415.54 70.04 16.00 370.74 2635.75
   07:43:18.010.19-Jul-2021 4415.50 6413.52 70.04 16.00 370.94 2635.75
   07:43:18.210.19-Jul-2021 4415.50 6413.09 70.04 16.00 371.14 2635.75
   07:43:18.410.19-Jul-2021 4415.50 6413.09 70.04 16.00 371.34 2635.75
   07:43:18.610.19-Jul-2021 4415.50 6412.46 70.05 16.00 371.54 2635.75
   07:43:18.810.19-Jul-2021 4415.50 6412.02 70.05 16.00 371.74 2635.75
   07:43:19.010.19-Jul-2021 4415.50 6411.74 70.05 16.00 371.94 2635.75
   07:43:19.210.19-Jul-2021 4415.50 6411.18 70.05 16.00 372.14 2635.75
   07:43:19.410.19-Jul-2021 4415.50 6411.18 70.05 16.00 372.34 2635.75
   07:43:19.610.19-Jul-2021 4415.50 6410.48 70.05 16.00 372.54 2635.75
   07:43:19.811.19-Jul-2021 4415.50 6408.20 70.05 16.00 372.74 2635.75
   07:43:20.011.19-Jul-2021 4415.50 6407.46 70.05 16.00 372.94 2635.75
   07:43:20.211.19-Jul-2021 4415.50 6439.22 70.05 16.00 373.14 2635.75
   07:43:20.411.19-Jul-2021 4415.50 6439.22 70.05 16.00 373.34 2635.75
   07:43:20.611.19-Jul-2021 4415.50 6409.45 70.05 16.00 373.54 2635.75
   07:43:20.811.19-Jul-2021 4415.50 6408.13 70.05 16.00 373.74 2635.75
   07:43:21.011.19-Jul-2021 4415.50 6407.41 70.05 16.00 373.94 2635.75
   07:43:21.211.19-Jul-2021 4415.50 6410.92 70.05 16.00 374.14 2635.75
   07:43:21.411.19-Jul-2021 4415.50 6410.92 70.05 16.00 374.34 2635.75
   07:43:21.611.19-Jul-2021 4415.50 6410.10 70.05 16.00 374.54 2635.75
   07:43:21.811.19-Jul-2021 4415.50 6410.04 70.05 16.00 374.74 2635.75
   07:43:22.011.19-Jul-2021 4415.50 6410.09 70.05 16.00 374.94 2635.75
   07:43:22.211.19-Jul-2021 4415.50 6409.62 70.05 16.00 375.14 2635.75
   07:43:22.412.19-Jul-2021 4415.50 6409.62 70.05 16.00 375.34 2635.75
   07:43:22.612.19-Jul-2021 4415.50 6407.60 70.05 16.00 375.54 2635.75
   07:43:22.812.19-Jul-2021 4415.50 6437.69 70.05 16.00 375.74 2635.75
   07:43:23.012.19-Jul-2021 4415.50 6412.75 70.05 16.00 375.94 2635.75
   07:43:23.212.19-Jul-2021 4415.50 6412.73 70.05 16.00 376.14 2635.75
   07:43:23.412.19-Jul-2021 4415.50 6412.73 70.05 16.00 376.34 2635.75
   07:43:23.612.19-Jul-2021 4415.50 6414.76 70.05 16.00 376.54 2635.75
   07:43:23.812.19-Jul-2021 4415.50 6410.36 70.05 16.00 376.74 2635.75
   07:43:24.012.19-Jul-2021 4415.50 6441.50 70.05 16.00 376.94 2635.75
   07:43:24.212.19-Jul-2021 4415.50 6415.14 70.05 16.00 377.14 2635.75
   07:43:24.412.19-Jul-2021 4415.50 6415.14 70.05 16.00 377.34 2635.75
   07:43:24.612.19-Jul-2021 4415.50 6443.20 70.05 16.00 377.54 2635.75
   07:43:24.812.19-Jul-2021 4415.50 6416.70 70.05 16.00 377.74 2635.75
   07:43:25.012.19-Jul-2021 4415.50 6415.96 70.05 16.00 377.94 2635.75
   07:43:25.213.19-Jul-2021 4415.50 6414.75 70.05 16.00 378.14 2635.75
   07:43:25.413.19-Jul-2021 4415.50 6414.75 70.05 16.00 378.34 2635.75
   07:43:25.613.19-Jul-2021 4415.50 6422.09 70.05 16.00 378.54 2635.75
   07:43:25.813.19-Jul-2021 4415.50 6415.89 70.05 16.00 378.74 2635.75
   07:43:26.013.19-Jul-2021 4415.50 6415.04 70.05 16.00 378.94 2635.75
   07:43:26.213.19-Jul-2021 4415.50 6413.75 70.05 16.00 379.14 2635.75
   07:43:26.413.19-Jul-2021 4415.50 6413.75 70.05 16.00 379.34 2635.75
   07:43:26.613.19-Jul-2021 4415.50 6413.01 70.05 16.00 379.54 2635.75
   07:43:26.813.19-Jul-2021 4415.50 6411.95 70.05 16.00 379.74 2635.75
   07:43:27.013.19-Jul-2021 4415.50 6411.84 70.05 16.00 379.94 2635.75
   07:43:27.213.19-Jul-2021 4415.50 6411.41 70.05 16.00 380.14 2635.75
   07:43:27.413.19-Jul-2021 4415.50 6411.41 70.05 16.00 380.34 2635.75
   07:43:27.613.19-Jul-2021 4415.50 6410.54 70.05 16.00 380.54 2635.75
   07:43:27.814.19-Jul-2021 4415.50 6409.03 70.05 16.00 380.74 2635.75
   07:43:28.014.19-Jul-2021 4415.50 6409.67 70.05 16.00 380.94 2635.75
   07:43:28.214.19-Jul-2021 4415.50 6442.18 70.05 16.00 381.14 2635.75
   07:43:28.414.19-Jul-2021 4415.50 6442.18 70.05 16.00 381.34 2635.75
   07:43:28.614.19-Jul-2021 4415.50 6418.15 70.05 16.00 381.54 2635.75
   07:43:28.814.19-Jul-2021 4415.50 6413.67 70.05 16.00 381.74 2635.75
   07:43:29.014.19-Jul-2021 4415.50 6412.17 70.05 16.00 381.94 2635.75
   07:43:29.214.19-Jul-2021 4415.50 6414.93 70.05 16.00 382.14 2635.75
   07:43:29.414.19-Jul-2021 4415.50 6414.93 70.05 16.00 382.34 2635.75
   07:43:29.614.19-Jul-2021 4415.50 6410.80 70.05 16.00 382.54 2635.75
   07:43:29.814.19-Jul-2021 4415.50 6409.88 70.05 16.00 382.74 2635.75
   07:43:30.014.19-Jul-2021 4415.50 6410.27 70.05 16.00 382.94 2635.75
   07:43:30.214.19-Jul-2021 4415.50 6410.36 70.05 16.00 383.14 2635.75
   07:43:30.414.19-Jul-2021 4415.50 6410.36 70.05 16.00 383.34 2635.75
   07:43:30.615.19-Jul-2021 4415.50 6410.15 70.05 16.00 383.54 2635.75
   07:43:30.815.19-Jul-2021 4415.50 6428.96 70.05 16.00 383.74 2635.75
   07:43:31.015.19-Jul-2021 4415.50 6424.35 70.05 16.00 383.94 2635.75
   07:43:31.215.19-Jul-2021 4415.50 6415.35 70.05 16.00 384.14 2635.75
