~Version Information
 VERS.                  2.0:   CWLS log ASCII Standard -VERSION 2.0
 WRAP.                   NO:   One line per depth step
~Well Information Block
#MNEM.UNIT     VALUE/NAME     DESCRIPTION
#---------     -----------    ---------------------------
 STRT.S             17:59:38 18-Jul-21: START TIME 17:59:38 18-Jul-21
 STOP.S             18:06:07 18-Jul-21: STOP TIME  18:06:07 18-Jul-21
 STEP.S                   0.00: STEP TIME
 NULL.                 -999.25: NULL VALUE
 MDS .        Operator Entered:  MAG DATA SOURCE
 PDAT.          Mean Sea Level:  PERMANENT DATUM
 UNIT.                     N/A:  LOGGING EQUIPMENT ID
 DCON.         Sperry Drilling:  DIRECTNL CONTR
 DOE .                     N/A:  DOE NUMBER
 RIG .              West Azeri:  RIG NAME
 JOBN.        AZ-XX-0906997913:  JOB TICKET NUMB
 WELL.                     C41:  WELL NAME
 MWDS.                    Baku:  MWD SHOP
 SRVC.          Turan Drilling:  CONTRACTOR
 FLD .                     ACG:  FIELD NAME
 CTRY.              Azerbaijan:  COUNTRY NAME
 PROV.                    Baku:  PROVINCE
 STAT.                    Baku:  STATE NAME
 REGN.                   EESSA:  REGION
 BASE.              Azerbaijan:  LOGGING EQUIPMENT BASE LOCATION
 UWI .                     N/A:  UNIQUE WELL IDENTIFIER
 API .                     N/A:  API NUMBER
 COMP.     BP Exploration (Caspian Sea) Ltd.:  COMPANY
 WTYP.                Deviated:  WELL TYPE
 SON .        AZ-XX-0906997913:  JOB NUMBER
 FTOP.          Formation Tops:  FORM TOPS DESC
 ILTD.               Lithology:  INTERP LTH DESC
 SVYD.                  Survey:  SURVEY DESC
 DMOD.             Drill Model:  DRILL MOD DESC
 HPTY.       Minimum Curvature:  HOLE POS TYPE
 NREF.                    Grid:  NORTH REFERENCE
 SPUD.               16-May-21:  SPUD DATE
 DATE.      21.11.28 17-May-21:  END TIME
 STIM.      21.11.28 17-May-21:  START TIME
 DMF .             Drill Floor:  DRILL MEAS FROM
 DFST.                        :  DIST FSL TEXT
 DFWT.                        :  DIST FWL TEXT
 CNTY.                        :  COUNTY
 LOC .                        :  LOCATION
 LMF .             Drill Floor:  LOG MEASURED FROM
 AGAP.m                  43.42:  AIR GAP
 VSNS.m                  -2.16:  VERT SEC N/S
 VSEW.m                  -6.24:  VERT SEC E/W
 APD .m                  43.42:  DEPTH ABOVE PD
 WDMS.m                 118.27:  WD ELEV
 EGL .m                   0.00:  GROUND ELEVATION
 EPD .m                   0.00:  ELEVATION
 AZTC.deg                 6.29:  AZM TOTAL CORR
 GRDC.deg                 0.18:  GRID CORRECTION
 MDEC.deg                 6.47:  MAGNETIC DECL
 MDIP.deg                59.54:  MAGNETIC DIP
 MFLD.nT              50337.00:  MAGNETIC FIELD
 GVFD.g                   1.00:  GRAVITY FIELD
 VSDR.deg               226.99:  VERT SEC DIRECT
 TDD .m                   0.00:  TOTAL DEPTH (DRILLER)
 SDEP.m                 448.00:  START DEPTH
 DFSL.m                   0.00:  DISTANCE FSL
 DFWL.m                   0.00:  DISTANCE FWL
 UTMY.m             4435799.96:  UTM Y
 UTMX.m              526265.35:  UTM X
 WHEW.m                  -6.24:  WELL HEAD E/W
 WHNS.m                  -2.16:  WELL HEAD N/S
 LONG.deg                51.31:  LONGITUDE
 LATI.deg                40.06:  LATITUDE
 TVDS.m                  43.42:  TVDSS CORRECTN
 EKB .m                  43.42:  KB ELEVATION
 EDF .m                  43.42:  DF ELEVATION
 TDL .m                 288.00:  TOTAL DEPTH (LOGGER)
 MAGU.                 1851863:  MAGUTM CHECKSUM
 VSC .                       0:  VS TO CLOSURE
~Parameter Information Block
#MNEM.UNIT       Value        Description
#---------     -----------    ---------------------------
 AV  .mps                 0.40:  Ann Velocity 
 AVMX.mps                 0.63:  Max Ann Veloc 
 AZIF.deg               158.76:  Azm, Final 
 BHAT.        Rotary Steerable:  BHA Type 
 BROT.°/30m               0.68:  Build Rotating 
 BS  .in                  8.50:  Bit Size 
 BSZ .in                  8.50:  Bit Size 
 BTPL.psig              712.00:  Bit Press Loss 
 CABU.                      No:  Customer Abuse 
 COMM.                     Ä"ƒ:  Run Comments 1 
 TCS .hr                 90.66:  Time Ciculation Ended 
 CV  .mps                 2.02:  Crit Velocity 
 CVMX.mps                 2.14:  Max Crit Veloc 
 DD1 .            Aziz Aliyevu:  Direct Drillr 1 
 DD2 .             Samir Abbas:  Direct Drillr 2 
 DD3 .           Teymur Aliyev:  Direct Drillr 3 
 DDSV.                 iCruise:  DD Service 
 DEFF.%                  85.10:  % Det Eff 
 DLRX.°/30m               1.05:  Dogleg Rot Max 
 DLSO.°/30m               1.01:  Dogleg Oriented 
 DLSX.°/30m               1.05:  Dogleg Str Max 
 DRET.      07.45.00 18-Jul-21:  Drill End Time 
 DRST.      15.00.00 16-Jul-21:  Drill Start Tim 
 DTIM.hr                 23.46:  Time Drilling 
 EDEP.m                4603.00:  End Depth 
 ENG1.       Seymur Iskandarov:  Engineer 1 
 ENG2.         Yevgeniy Ulikov:  Engineer 2 
 ENG3.         Bahruz Mehdiyev:  Engineer 3 
 ENG4.         Elchin Mammadov:  Engineer 4 
 ETIM.      14.00.00 23-Jul-21:  End Time 
 FLOI.gpm               500.00:  Flow In 
 FLON.gpm               450.00:  Flow In Min 
 FLOS.cptm                0.00:  Fluid Loss 
 FLOX.gpm               560.00:  Flow In Max 
 DFT .        Mineral Oil Base:  Mud Type 
 FTRO.       Formation Presure:  FTWD Run Obj 
 HFLO.                      No:  High Flow 
 HPRE.                      No:  High Pressure 
 HTEM.                      No:  High Temp 
 HYDO.m                   1.80:  Hydro Offset 
 IFIN.deg                40.22:  Inc, Final 
 IMAX.deg                40.54:  Inc Max 
 IMIN.deg                39.44:  Inc Min 
 IMND.m                4361.17:  Inc Min Depth 
 IMXD.m                4417.92:  Inc Max Depth 
 JARR.                      No:  Jarring 
 LETM.      07.45.00 18-Jul-21:  Log End Time 
 LOST.hr                    16:  Lost Rig Time 
 LSTM.      15.00.00 16-Jul-21:  Log Start Time 
 MDCL.ppm             36500.00:  Mud Chlorides 
 MDES.     Inversion Oil/Synthetic:  Mud Desc 
 DFD .sg                  1.42:  Mud Density 
 MDMN.sg                  1.42:  Dens Mud Min 
 MDMX.sg                  1.43:  Dens Mud Max 
 MOIL.                      56:  Run Mud Oil % 
 MOWR.                   71:29:  Run Mud OWR 
 MSND.                     0.5:  Run Mud Sand % 
 MSOL.                      21:  Run Mud Solids% 
 DFV .spqt               78.00:  Mud Viscosity 
 MWOD.in                  6.75:  MWD Tool OD 
 MWSI.                     Yes:  Serv Intrp, MWD 
 OTIM.hr                200.73:  Time Operating 
 PCON.           Look Like New:  Pad Condition 
 PMAX.psia            11069.93:  Press Op, Max 
 PV  .cP                 32.00:  Mud PV 
 RUN .                     700:  Run Number 
 ROPA.m/hr               10.00:  ROP Avg 
 ROPN.m/hr                9.00:  ROP Min 
 ROPX.m/hr               16.00:  ROP Max 
 RPMA.rpm               116.00:  RPM Surface Avg 
 RPMN.rpm                80.00:  RPM Surface Min 
 RPMX.rpm               120.00:  RPM Surface Max 
 RRUN.                    L605:  Rig Run Number 
 RTIM.hr                 45.00:  Time Reaming 
 SAZI.deg               159.86:  Azm, Start 
 SDEP.m                4315.00:  Start Depth 
 SIDD.                      No:  Serv Intrp, DD 
 SINC.deg                39.86:  Inc, Start 
 SPPA.psig             3300.00:  SPP Avg 
 SPPN.psig             3040.00:  SPP Min 
 SPPX.psig             3645.00:  SPP Max 
 STIM.      01.00.00 15-Jul-21:  Start Time 
 SVCS.                 DD, MWD:  Services 
 SVER.                    9.20:  Sperry Version 
 TDAT.m                 288.00:  Tot Depth Attmp 
 TDDF.                      No:  Trip for DD 
 TDLG.m                 288.00:  Tot Depth Loggd 
 TFF .                      No:  Trip for Fail 
 TQAA.f-kp               19.00:  Torque Abs Avg 
 TQAN.f-kp               18.00:  Torque Abs Min 
 TQAX.f-kp               21.00:  Torque Abs Max 
 TRRT.°/30m               0.45:  Turn Rotating 
 MRT .                    HCIM:  Maximum Recorded Temperature 
 TTMX.degC               88.24:  Max Tool Temp 
 VS01.                90649157:  Virtual Str1 SN 
 VS02.                90652483:  Virtual Str2 SN 
 VS03.                11671987:  Virtual Str3 SN 
 VS04.                90643411:  Virtual Str4 SN 
 VS05.                90652478:  Virtual Str5 SN 
 VS06.                    6111:  Virtual Str6 SN 
 WBMN.klb                 9.50:  WOB Min 
 WITN.        Grigoriy Sarayev:  Customer Rep 
 WITN.          Rufat Huseynov:  Customer Rep 2 
 WOBA.klb                11.00:  WOB Avg 
 WOBX.klb                15.00:  WOB Max 
 YP  .lhf2               28.00:  Yield Point 
~Curve Information Block
#MNEM.UNIT                 API CODE     Curve Description
#---------               -----------    ---------------------------
 TIME.HHMMSS            00 000 000 000:  GT Time & Date
 GTDEPTH.m              00 000 000 000:  GT Depth
 GTPQH.psia             00 000 000 000:  GT HR Quartz Pressure
 GTTQ.degC              00 000 000 000:  GT Quartz Temperature
 GTTN.NONE              00 000 000 000:  GT Test Number
 GTET.sec               00 000 000 000:  GT Elapsed Test Time
 GTTVD.m                00 000 000 000:  GT True Vertical Depth
#Other Information
#
#WARRANTY: Halliburton will use its best efforts to furnish customers with 
#accurate information and interpretations that are part of, and incident to, the services 
#provided.  However, Halliburton cannot and does not warrant the accuracy 
#or correctness of such information and interpretations.  Under no circumstances should any 
#such information or interpretation be relied upon as the sole basis for any drilling, 
#completion, production, or financial decision or any procedure involving any risk to the 
#safety of any drilling venture, drilling rig or its crew or any other third party.  The 
#Customer has full responsibility for all drilling, completion and production operation.  
#Halliburton makes no representations or warranties, either expressed or 
#implied, including, but not limited to, the implied warranties of merchantability or fitness 
#for a particular purpose, with respect to the services rendered.  In no event will 
#Halliburton be liable for failure to obtain any particular results or for 
#any damages, including, but not limited to, indirect, special or consequential damages, 
#resulting from the use of any information or interpretation provided by Halliburton.
#
~A           TIME           GTDEPTH  GTPQH  GTTQ  GTTN  GTET   GTTVD  
# ...
   18:00:47.038.18-Jul-2021 4487.50 6033.05 73.25 7.00  69.03 2690.71
   18:00:47.238.18-Jul-2021 4487.50 6033.05 73.25 7.00  69.23 2690.71
   18:00:47.439.18-Jul-2021 4487.50 6033.59 73.25 7.00  69.43 2690.71
   18:00:47.639.18-Jul-2021 4487.50 6031.88 73.25 7.00  69.63 2690.71
   18:00:47.839.18-Jul-2021 4487.50 6032.68 73.25 7.00  69.83 2690.71
   18:00:48.039.18-Jul-2021 4487.50 6032.80 73.25 7.00  70.03 2690.71
   18:00:48.239.18-Jul-2021 4487.50 6032.80 73.25 7.00  70.23 2690.71
   18:00:48.439.18-Jul-2021 4487.50 6032.90 73.25 7.00  70.43 2690.71
   18:00:48.639.18-Jul-2021 4487.50 6032.90 73.25 7.00  70.63 2690.71
   18:00:48.839.18-Jul-2021 4487.50 6032.86 73.25 7.00  70.83 2690.71
   18:00:49.039.18-Jul-2021 4487.50 6032.96 73.25 7.00  71.03 2690.71
   18:00:49.239.18-Jul-2021 4487.50 6032.96 73.25 7.00  71.23 2690.71
   18:00:49.439.18-Jul-2021 4487.50 6032.94 73.25 7.00  71.43 2690.71
   18:00:49.639.18-Jul-2021 4487.50 6032.93 73.25 7.00  71.63 2690.71
   18:00:49.839.18-Jul-2021 4487.50 6033.08 73.25 7.00  71.83 2690.71
   18:00:50.039.18-Jul-2021 4487.50 6033.17 73.25 7.00  72.03 2690.71
   18:00:50.240.18-Jul-2021 4487.50 6033.17 73.25 7.00  72.23 2690.71
   18:00:50.440.18-Jul-2021 4487.50 6031.76 73.25 7.00  72.43 2690.71
   18:00:50.640.18-Jul-2021 4487.50 6032.42 73.25 7.00  72.63 2690.71
   18:00:50.840.18-Jul-2021 4487.50 6032.64 73.25 7.00  72.83 2690.71
   18:00:51.040.18-Jul-2021 4487.50 6033.05 73.25 7.00  73.03 2690.71
   18:00:51.240.18-Jul-2021 4487.50 6033.05 73.25 7.00  73.23 2690.71
   18:00:51.440.18-Jul-2021 4487.50 6032.64 73.25 7.00  73.43 2690.71
   18:00:51.640.18-Jul-2021 4487.50 6032.60 73.25 7.00  73.63 2690.71
   18:00:51.840.18-Jul-2021 4487.50 6032.63 73.25 7.00  73.83 2690.71
   18:00:52.040.18-Jul-2021 4487.50 6032.55 73.25 7.00  74.03 2690.71
   18:00:52.240.18-Jul-2021 4487.50 6032.55 73.25 7.00  74.23 2690.71
   18:00:52.440.18-Jul-2021 4487.50 6032.55 73.25 7.00  74.43 2690.71
   18:00:52.640.18-Jul-2021 4487.50 6032.69 73.25 7.00  74.63 2690.71
   18:00:52.841.18-Jul-2021 4487.50 6032.68 73.25 7.00  74.83 2690.71
   18:00:53.041.18-Jul-2021 4487.50 6031.44 73.25 7.00  75.03 2690.71
   18:00:53.241.18-Jul-2021 4487.50 6031.44 73.25 7.00  75.23 2690.71
   18:00:53.441.18-Jul-2021 4487.50 6032.14 73.25 7.00  75.43 2690.71
   18:00:53.641.18-Jul-2021 4487.50 6030.78 73.25 7.00  75.63 2690.71
   18:00:53.841.18-Jul-2021 4487.50 6031.34 73.25 7.00  75.83 2690.71
   18:00:54.041.18-Jul-2021 4487.50 6031.49 73.25 7.00  76.03 2690.71
   18:00:54.241.18-Jul-2021 4487.50 6031.49 73.25 7.00  76.23 2690.71
   18:00:54.441.18-Jul-2021 4487.50 6030.99 73.25 7.00  76.43 2690.71
   18:00:54.641.18-Jul-2021 4487.50 6029.23 73.25 7.00  76.63 2690.71
   18:00:54.841.18-Jul-2021 4487.50 6030.13 73.25 7.00  76.83 2690.71
   18:00:55.041.18-Jul-2021 4487.50 6030.05 73.25 7.00  77.03 2690.71
   18:00:55.241.18-Jul-2021 4487.50 6030.05 73.25 7.00  77.23 2690.71
   18:00:55.441.18-Jul-2021 4487.50 6029.66 73.25 7.00  77.43 2690.71
   18:00:55.642.18-Jul-2021 4487.50 6029.29 73.25 7.00  77.63 2690.71
   18:00:55.842.18-Jul-2021 4487.50 6028.65 73.25 7.00  77.83 2690.71
   18:00:56.042.18-Jul-2021 4487.50 6028.60 73.25 7.00  78.03 2690.71
   18:00:56.242.18-Jul-2021 4487.50 6028.60 73.25 7.00  78.23 2690.71
   18:00:56.442.18-Jul-2021 4487.50 6028.92 73.25 7.00  78.43 2690.71
   18:00:56.642.18-Jul-2021 4487.50 6028.60 73.25 7.00  78.63 2690.71
   18:00:56.842.18-Jul-2021 4487.50 6028.60 73.25 7.00  78.83 2690.71
   18:00:57.042.18-Jul-2021 4487.50 6028.63 73.25 7.00  79.03 2690.71
   18:00:57.242.18-Jul-2021 4487.50 6028.63 73.25 7.00  79.23 2690.71
   18:00:57.442.18-Jul-2021 4487.50 6028.52 73.25 7.00  79.43 2690.71
   18:00:57.642.18-Jul-2021 4487.50 6028.58 73.25 7.00  79.63 2690.71
   18:00:57.842.18-Jul-2021 4487.50 6028.57 73.25 7.00  79.83 2690.71
   18:00:58.042.18-Jul-2021 4487.50 6028.55 73.25 7.00  80.03 2690.71
   18:00:58.243.18-Jul-2021 4487.50 6028.55 73.25 7.00  80.23 2690.71
   18:00:58.443.18-Jul-2021 4487.50 6028.73 73.25 7.00  80.43 2690.71
   18:00:58.643.18-Jul-2021 4487.50 6027.48 73.25 7.00  80.63 2690.71
   18:00:58.843.18-Jul-2021 4487.50 6027.74 73.25 7.00  80.83 2690.71
   18:00:59.043.18-Jul-2021 4487.50 6027.97 73.25 7.00  81.03 2690.71
   18:00:59.243.18-Jul-2021 4487.50 6027.97 73.25 7.00  81.23 2690.71
   18:00:59.443.18-Jul-2021 4487.50 6028.15 73.25 7.00  81.43 2690.71
   18:00:59.643.18-Jul-2021 4487.50 6028.11 73.25 7.00  81.63 2690.71
   18:00:59.843.18-Jul-2021 4487.50 6028.12 73.25 7.00  81.83 2690.71
   18:01:00.043.18-Jul-2021 4487.50 6028.14 73.25 7.00  82.03 2690.71
   18:01:00.243.18-Jul-2021 4487.50 6028.14 73.25 7.00  82.23 2690.71
   18:01:00.443.18-Jul-2021 4487.50 6028.09 73.25 7.00  82.43 2690.71
   18:01:00.643.18-Jul-2021 4487.50 6028.02 73.25 7.00  82.63 2690.71
   18:01:00.843.18-Jul-2021 4487.50 6028.10 73.25 7.00  82.83 2690.71
   18:01:01.044.18-Jul-2021 4487.50 6028.11 73.25 7.00  83.03 2690.71
   18:01:01.244.18-Jul-2021 4487.50 6028.11 73.25 7.00  83.23 2690.71
   18:01:01.444.18-Jul-2021 4487.50 6027.66 73.25 7.00  83.43 2690.71
   18:01:01.644.18-Jul-2021 4487.50 6027.82 73.25 7.00  83.63 2690.71
   18:01:01.844.18-Jul-2021 4487.50 6026.83 73.25 7.00  83.83 2690.71
   18:01:02.044.18-Jul-2021 4487.50 6027.76 73.25 7.00  84.03 2690.71
   18:01:02.244.18-Jul-2021 4487.50 6027.76 73.25 7.00  84.23 2690.71
   18:01:02.444.18-Jul-2021 4487.50 6027.62 73.25 7.00  84.43 2690.71
   18:01:02.644.18-Jul-2021 4487.50 6026.30 73.25 7.00  84.63 2690.71
   18:01:02.844.18-Jul-2021 4487.50 6026.71 73.25 7.00  84.83 2690.71
   18:01:03.044.18-Jul-2021 4487.50 6026.45 73.25 7.00  85.03 2690.71
   18:01:03.244.18-Jul-2021 4487.50 6026.45 73.25 7.00  85.23 2690.71
   18:01:03.444.18-Jul-2021 4487.50 6025.11 73.25 7.00  85.43 2690.71
   18:01:03.645.18-Jul-2021 4487.50 6025.40 73.25 7.00  85.63 2690.71
   18:01:03.845.18-Jul-2021 4487.50 6025.41 73.25 7.00  85.83 2690.71
   18:01:04.045.18-Jul-2021 4487.50 6024.63 73.25 7.00  86.03 2690.71
   18:01:04.245.18-Jul-2021 4487.50 6024.63 73.25 7.00  86.23 2690.71
   18:01:04.445.18-Jul-2021 4487.50 6024.74 73.25 7.00  86.43 2690.71
   18:01:04.645.18-Jul-2021 4487.50 6025.05 73.25 7.00  86.63 2690.71
   18:01:04.845.18-Jul-2021 4487.50 6024.74 73.25 7.00  86.83 2690.71
   18:01:05.045.18-Jul-2021 4487.50 6024.64 73.25 7.00  87.03 2690.71
   18:01:05.245.18-Jul-2021 4487.50 6024.64 73.25 7.00  87.23 2690.71
   18:01:05.445.18-Jul-2021 4487.50 6024.58 73.25 7.00  87.43 2690.71
   18:01:05.645.18-Jul-2021 4487.50 6024.61 73.25 7.00  87.63 2690.71
   18:01:05.845.18-Jul-2021 4487.50 6024.62 73.25 7.00  87.83 2690.71
   18:01:06.045.18-Jul-2021 4487.50 6024.67 73.25 7.00  88.03 2690.71
   18:01:06.245.18-Jul-2021 4487.50 6024.67 73.25 7.00  88.23 2690.71
   18:01:06.446.18-Jul-2021 4487.50 6024.68 73.25 7.00  88.43 2690.71
   18:01:06.646.18-Jul-2021 4487.50 6024.79 73.25 7.00  88.63 2690.71
   18:01:06.846.18-Jul-2021 4487.50 6023.66 73.25 7.00  88.83 2690.71
   18:01:07.046.18-Jul-2021 4487.50 6024.11 73.25 7.00  89.03 2690.71
   18:01:07.246.18-Jul-2021 4487.50 6024.11 73.25 7.00  89.23 2690.71
   18:01:07.446.18-Jul-2021 4487.50 6024.14 73.25 7.00  89.43 2690.71
   18:01:07.646.18-Jul-2021 4487.50 6023.85 73.25 7.00  89.63 2690.71
   18:01:07.846.18-Jul-2021 4487.50 6023.80 73.25 7.00  89.83 2690.71
   18:01:08.046.18-Jul-2021 4487.50 6023.56 73.25 7.00  90.03 2690.71
   18:01:08.246.18-Jul-2021 4487.50 6023.56 73.25 7.00  90.23 2690.71
   18:01:08.446.18-Jul-2021 4487.50 6023.51 73.25 7.00  90.43 2690.71
   18:01:08.646.18-Jul-2021 4487.50 6023.66 73.25 7.00  90.63 2690.71
   18:01:08.846.18-Jul-2021 4487.50 6023.63 73.25 7.00  90.83 2690.71
   18:01:09.046.18-Jul-2021 4487.50 6023.60 73.25 7.00  91.03 2690.71
   18:01:09.247.18-Jul-2021 4487.50 6023.60 73.25 7.00  91.23 2690.71
   18:01:09.447.18-Jul-2021 4487.50 6023.74 73.25 7.00  91.43 2690.71
   18:01:09.647.18-Jul-2021 4487.50 6021.90 73.25 7.00  91.63 2690.71
   18:01:09.847.18-Jul-2021 4487.50 6023.38 73.25 7.00  91.83 2690.71
