~Version Information
 VERS.                  2.0:   CWLS log ASCII Standard -VERSION 2.0
 WRAP.                   NO:   One line per depth step
~Well Information Block
#MNEM.UNIT     VALUE/NAME     DESCRIPTION
#---------     -----------    ---------------------------
 STRT.S             23:29:17 18-Jul-21: START TIME 23:29:17 18-Jul-21
 STOP.S             23:35:51 18-Jul-21: STOP TIME  23:35:51 18-Jul-21
 STEP.S                   0.00: STEP TIME
 NULL.                 -999.25: NULL VALUE
 MDS .        Operator Entered:  MAG DATA SOURCE
 PDAT.          Mean Sea Level:  PERMANENT DATUM
 UNIT.                     N/A:  LOGGING EQUIPMENT ID
 DCON.         Sperry Drilling:  DIRECTNL CONTR
 DOE .                     N/A:  DOE NUMBER
 RIG .              West Azeri:  RIG NAME
 JOBN.        AZ-XX-0906997913:  JOB TICKET NUMB
 WELL.                     C41:  WELL NAME
 MWDS.                    Baku:  MWD SHOP
 SRVC.          Turan Drilling:  CONTRACTOR
 FLD .                     ACG:  FIELD NAME
 CTRY.              Azerbaijan:  COUNTRY NAME
 PROV.                    Baku:  PROVINCE
 STAT.                    Baku:  STATE NAME
 REGN.                   EESSA:  REGION
 BASE.              Azerbaijan:  LOGGING EQUIPMENT BASE LOCATION
 UWI .                     N/A:  UNIQUE WELL IDENTIFIER
 API .                     N/A:  API NUMBER
 COMP.     BP Exploration (Caspian Sea) Ltd.:  COMPANY
 WTYP.                Deviated:  WELL TYPE
 SON .        AZ-XX-0906997913:  JOB NUMBER
 FTOP.          Formation Tops:  FORM TOPS DESC
 ILTD.               Lithology:  INTERP LTH DESC
 SVYD.                  Survey:  SURVEY DESC
 DMOD.             Drill Model:  DRILL MOD DESC
 HPTY.       Minimum Curvature:  HOLE POS TYPE
 NREF.                    Grid:  NORTH REFERENCE
 SPUD.               16-May-21:  SPUD DATE
 DATE.      21.11.28 17-May-21:  END TIME
 STIM.      21.11.28 17-May-21:  START TIME
 DMF .             Drill Floor:  DRILL MEAS FROM
 DFST.                        :  DIST FSL TEXT
 DFWT.                        :  DIST FWL TEXT
 CNTY.                        :  COUNTY
 LOC .                        :  LOCATION
 LMF .             Drill Floor:  LOG MEASURED FROM
 AGAP.m                  43.42:  AIR GAP
 VSNS.m                  -2.16:  VERT SEC N/S
 VSEW.m                  -6.24:  VERT SEC E/W
 APD .m                  43.42:  DEPTH ABOVE PD
 WDMS.m                 118.27:  WD ELEV
 EGL .m                   0.00:  GROUND ELEVATION
 EPD .m                   0.00:  ELEVATION
 AZTC.deg                 6.29:  AZM TOTAL CORR
 GRDC.deg                 0.18:  GRID CORRECTION
 MDEC.deg                 6.47:  MAGNETIC DECL
 MDIP.deg                59.54:  MAGNETIC DIP
 MFLD.nT              50337.00:  MAGNETIC FIELD
 GVFD.g                   1.00:  GRAVITY FIELD
 VSDR.deg               226.99:  VERT SEC DIRECT
 TDD .m                   0.00:  TOTAL DEPTH (DRILLER)
 SDEP.m                 448.00:  START DEPTH
 DFSL.m                   0.00:  DISTANCE FSL
 DFWL.m                   0.00:  DISTANCE FWL
 UTMY.m             4435799.96:  UTM Y
 UTMX.m              526265.35:  UTM X
 WHEW.m                  -6.24:  WELL HEAD E/W
 WHNS.m                  -2.16:  WELL HEAD N/S
 LONG.deg                51.31:  LONGITUDE
 LATI.deg                40.06:  LATITUDE
 TVDS.m                  43.42:  TVDSS CORRECTN
 EKB .m                  43.42:  KB ELEVATION
 EDF .m                  43.42:  DF ELEVATION
 TDL .m                 288.00:  TOTAL DEPTH (LOGGER)
 MAGU.                 1851863:  MAGUTM CHECKSUM
 VSC .                       0:  VS TO CLOSURE
~Parameter Information Block
#MNEM.UNIT       Value        Description
#---------     -----------    ---------------------------
 AV  .mps                 0.40:  Ann Velocity 
 AVMX.mps                 0.63:  Max Ann Veloc 
 AZIF.deg               158.76:  Azm, Final 
 BHAT.        Rotary Steerable:  BHA Type 
 BROT.°/30m               0.68:  Build Rotating 
 BS  .in                  8.50:  Bit Size 
 BSZ .in                  8.50:  Bit Size 
 BTPL.psig              712.00:  Bit Press Loss 
 CABU.                      No:  Customer Abuse 
 COMM.                     $¸T:  Run Comments 1 
 TCS .hr                 90.66:  Time Ciculation Ended 
 CV  .mps                 2.02:  Crit Velocity 
 CVMX.mps                 2.14:  Max Crit Veloc 
 DD1 .            Aziz Aliyevu:  Direct Drillr 1 
 DD2 .             Samir Abbas:  Direct Drillr 2 
 DD3 .           Teymur Aliyev:  Direct Drillr 3 
 DDSV.                 iCruise:  DD Service 
 DEFF.%                  85.10:  % Det Eff 
 DLRX.°/30m               1.05:  Dogleg Rot Max 
 DLSO.°/30m               1.01:  Dogleg Oriented 
 DLSX.°/30m               1.05:  Dogleg Str Max 
 DRET.      07.45.00 18-Jul-21:  Drill End Time 
 DRST.      15.00.00 16-Jul-21:  Drill Start Tim 
 DTIM.hr                 23.46:  Time Drilling 
 EDEP.m                4603.00:  End Depth 
 ENG1.       Seymur Iskandarov:  Engineer 1 
 ENG2.         Yevgeniy Ulikov:  Engineer 2 
 ENG3.         Bahruz Mehdiyev:  Engineer 3 
 ENG4.         Elchin Mammadov:  Engineer 4 
 ETIM.      14.00.00 23-Jul-21:  End Time 
 FLOI.gpm               500.00:  Flow In 
 FLON.gpm               450.00:  Flow In Min 
 FLOS.cptm                0.00:  Fluid Loss 
 FLOX.gpm               560.00:  Flow In Max 
 DFT .        Mineral Oil Base:  Mud Type 
 FTRO.       Formation Presure:  FTWD Run Obj 
 HFLO.                      No:  High Flow 
 HPRE.                      No:  High Pressure 
 HTEM.                      No:  High Temp 
 HYDO.m                   1.80:  Hydro Offset 
 IFIN.deg                40.22:  Inc, Final 
 IMAX.deg                40.54:  Inc Max 
 IMIN.deg                39.44:  Inc Min 
 IMND.m                4361.17:  Inc Min Depth 
 IMXD.m                4417.92:  Inc Max Depth 
 JARR.                      No:  Jarring 
 LETM.      07.45.00 18-Jul-21:  Log End Time 
 LOST.hr                    16:  Lost Rig Time 
 LSTM.      15.00.00 16-Jul-21:  Log Start Time 
 MDCL.ppm             36500.00:  Mud Chlorides 
 MDES.     Inversion Oil/Synthetic:  Mud Desc 
 DFD .sg                  1.42:  Mud Density 
 MDMN.sg                  1.42:  Dens Mud Min 
 MDMX.sg                  1.43:  Dens Mud Max 
 MOIL.                      56:  Run Mud Oil % 
 MOWR.                   71:29:  Run Mud OWR 
 MSND.                     0.5:  Run Mud Sand % 
 MSOL.                      21:  Run Mud Solids% 
 DFV .spqt               78.00:  Mud Viscosity 
 MWOD.in                  6.75:  MWD Tool OD 
 MWSI.                     Yes:  Serv Intrp, MWD 
 OTIM.hr                200.73:  Time Operating 
 PCON.           Look Like New:  Pad Condition 
 PMAX.psia            11069.93:  Press Op, Max 
 PV  .cP                 32.00:  Mud PV 
 RUN .                     700:  Run Number 
 ROPA.m/hr               10.00:  ROP Avg 
 ROPN.m/hr                9.00:  ROP Min 
 ROPX.m/hr               16.00:  ROP Max 
 RPMA.rpm               116.00:  RPM Surface Avg 
 RPMN.rpm                80.00:  RPM Surface Min 
 RPMX.rpm               120.00:  RPM Surface Max 
 RRUN.                    L605:  Rig Run Number 
 RTIM.hr                 45.00:  Time Reaming 
 SAZI.deg               159.86:  Azm, Start 
 SDEP.m                4315.00:  Start Depth 
 SIDD.                      No:  Serv Intrp, DD 
 SINC.deg                39.86:  Inc, Start 
 SPPA.psig             3300.00:  SPP Avg 
 SPPN.psig             3040.00:  SPP Min 
 SPPX.psig             3645.00:  SPP Max 
 STIM.      01.00.00 15-Jul-21:  Start Time 
 SVCS.                 DD, MWD:  Services 
 SVER.                    9.20:  Sperry Version 
 TDAT.m                 288.00:  Tot Depth Attmp 
 TDDF.                      No:  Trip for DD 
 TDLG.m                 288.00:  Tot Depth Loggd 
 TFF .                      No:  Trip for Fail 
 TQAA.f-kp               19.00:  Torque Abs Avg 
 TQAN.f-kp               18.00:  Torque Abs Min 
 TQAX.f-kp               21.00:  Torque Abs Max 
 TRRT.°/30m               0.45:  Turn Rotating 
 MRT .                    HCIM:  Maximum Recorded Temperature 
 TTMX.degC               88.24:  Max Tool Temp 
 VS01.                90649157:  Virtual Str1 SN 
 VS02.                90652483:  Virtual Str2 SN 
 VS03.                11671987:  Virtual Str3 SN 
 VS04.                90643411:  Virtual Str4 SN 
 VS05.                90652478:  Virtual Str5 SN 
 VS06.                    6111:  Virtual Str6 SN 
 WBMN.klb                 9.50:  WOB Min 
 WITN.        Grigoriy Sarayev:  Customer Rep 
 WITN.          Rufat Huseynov:  Customer Rep 2 
 WOBA.klb                11.00:  WOB Avg 
 WOBX.klb                15.00:  WOB Max 
 YP  .lhf2               28.00:  Yield Point 
~Curve Information Block
#MNEM.UNIT                 API CODE     Curve Description
#---------               -----------    ---------------------------
 TIME.HHMMSS            00 000 000 000:  GT Time & Date
 GTDEPTH.m              00 000 000 000:  GT Depth
 GTPQH.psia             00 000 000 000:  GT HR Quartz Pressure
 GTTQ.degC              00 000 000 000:  GT Quartz Temperature
 GTTN.NONE              00 000 000 000:  GT Test Number
 GTET.sec               00 000 000 000:  GT Elapsed Test Time
 GTTVD.m                00 000 000 000:  GT True Vertical Depth
#Other Information
#
#WARRANTY: Halliburton will use its best efforts to furnish customers with 
#accurate information and interpretations that are part of, and incident to, the services 
#provided.  However, Halliburton cannot and does not warrant the accuracy 
#or correctness of such information and interpretations.  Under no circumstances should any 
#such information or interpretation be relied upon as the sole basis for any drilling, 
#completion, production, or financial decision or any procedure involving any risk to the 
#safety of any drilling venture, drilling rig or its crew or any other third party.  The 
#Customer has full responsibility for all drilling, completion and production operation.  
#Halliburton makes no representations or warranties, either expressed or 
#implied, including, but not limited to, the implied warranties of merchantability or fitness 
#for a particular purpose, with respect to the services rendered.  In no event will 
#Halliburton be liable for failure to obtain any particular results or for 
#any damages, including, but not limited to, indirect, special or consequential damages, 
#resulting from the use of any information or interpretation provided by Halliburton.
#
~A           TIME           GTDEPTH  GTPQH  GTTQ  GTTN  GTET   GTTVD  
# ...
   23:29:40.304.18-Jul-2021 4245.71 6235.77 69.29 9.00  23.01 2505.62
   23:29:40.504.18-Jul-2021 4245.71 6235.77 69.29 9.00  23.21 2505.62
   23:29:40.705.18-Jul-2021 4245.71 6217.84 69.29 9.00  23.41 2505.62
   23:29:40.905.18-Jul-2021 4245.71 6223.82 69.29 9.00  23.61 2505.62
   23:29:41.105.18-Jul-2021 4245.71 6249.00 69.29 9.00  23.81 2505.62
   23:29:41.305.18-Jul-2021 4245.71 6220.37 69.29 9.00  24.01 2505.62
   23:29:41.505.18-Jul-2021 4245.71 6220.37 69.29 9.00  24.21 2505.62
   23:29:41.705.18-Jul-2021 4245.71 6225.76 69.29 9.00  24.41 2505.62
   23:29:41.905.18-Jul-2021 4245.71 6230.21 69.29 9.00  24.61 2505.62
   23:29:42.105.18-Jul-2021 4245.71 6252.73 69.29 9.00  24.81 2505.62
   23:29:42.305.18-Jul-2021 4245.71 6214.64 69.29 9.00  25.01 2505.62
   23:29:42.505.18-Jul-2021 4245.71 6214.64 69.29 9.00  25.21 2505.62
   23:29:42.705.18-Jul-2021 4245.71 6224.52 69.29 9.00  25.41 2505.62
   23:29:42.905.18-Jul-2021 4245.71 6232.73 69.29 9.00  25.61 2505.62
   23:29:43.105.18-Jul-2021 4245.71 6226.93 69.29 9.00  25.81 2505.62
   23:29:43.305.18-Jul-2021 4245.71 6224.29 69.29 9.00  26.01 2505.62
   23:29:43.506.18-Jul-2021 4245.71 6224.29 69.29 9.00  26.21 2505.62
   23:29:43.706.18-Jul-2021 4245.71 6224.91 69.29 9.00  26.41 2505.62
   23:29:43.906.18-Jul-2021 4245.71 6224.62 69.29 9.00  26.61 2505.62
   23:29:44.106.18-Jul-2021 4245.71 6225.35 69.29 9.00  26.81 2505.62
   23:29:44.306.18-Jul-2021 4245.71 6223.61 69.29 9.00  27.01 2505.62
   23:29:44.506.18-Jul-2021 4245.71 6223.61 69.29 9.00  27.21 2505.62
   23:29:44.706.18-Jul-2021 4245.71 6223.59 69.29 9.00  27.41 2505.62
   23:29:44.906.18-Jul-2021 4245.71 6244.65 69.29 9.00  27.61 2505.62
   23:29:45.106.18-Jul-2021 4245.71 6220.37 69.29 9.00  27.81 2505.62
   23:29:45.306.18-Jul-2021 4245.71 6224.00 69.29 9.00  28.01 2505.62
   23:29:45.506.18-Jul-2021 4245.71 6224.00 69.29 9.00  28.21 2505.62
   23:29:45.706.18-Jul-2021 4245.71 6231.31 69.29 9.00  28.41 2505.62
   23:29:45.906.18-Jul-2021 4245.71 6227.11 69.29 9.00  28.61 2505.62
   23:29:46.107.18-Jul-2021 4245.71 6224.41 69.29 9.00  28.81 2505.62
   23:29:46.307.18-Jul-2021 4245.71 6228.42 69.29 9.00  29.01 2505.62
   23:29:46.507.18-Jul-2021 4245.71 6228.42 69.29 9.00  29.21 2505.62
   23:29:46.707.18-Jul-2021 4245.71 6226.47 69.29 9.00  29.41 2505.62
   23:29:46.907.18-Jul-2021 4245.71 6225.63 69.29 9.00  29.61 2505.62
   23:29:47.107.18-Jul-2021 4245.71 6224.98 69.29 9.00  29.81 2505.62
   23:29:47.307.18-Jul-2021 4245.71 6225.57 69.29 9.00  30.01 2505.62
   23:29:47.507.18-Jul-2021 4245.71 6225.57 69.29 9.00  30.21 2505.62
   23:29:47.707.18-Jul-2021 4245.71 6220.90 69.29 9.00  30.41 2505.62
   23:29:47.907.18-Jul-2021 4245.71 6226.04 69.29 9.00  30.61 2505.62
   23:29:48.107.18-Jul-2021 4245.71 6255.37 69.29 9.00  30.81 2505.62
   23:29:48.307.18-Jul-2021 4245.71 6221.49 69.29 9.00  31.01 2505.62
   23:29:48.507.18-Jul-2021 4245.71 6221.49 69.29 9.00  31.21 2505.62
   23:29:48.707.18-Jul-2021 4245.71 6254.76 69.29 9.00  31.41 2505.62
   23:29:48.908.18-Jul-2021 4245.71 6231.49 69.29 9.00  31.61 2505.62
   23:29:49.108.18-Jul-2021 4245.71 6226.43 69.29 9.00  31.81 2505.62
   23:29:49.308.18-Jul-2021 4245.71 6226.21 69.29 9.00  32.01 2505.62
   23:29:49.508.18-Jul-2021 4245.71 6226.21 69.29 9.00  32.21 2505.62
   23:29:49.708.18-Jul-2021 4245.71 6228.94 69.29 9.00  32.41 2505.62
   23:29:49.908.18-Jul-2021 4245.71 6228.77 69.29 9.00  32.61 2505.62
   23:29:50.108.18-Jul-2021 4245.71 6240.82 69.29 9.00  32.81 2505.62
   23:29:50.308.18-Jul-2021 4245.71 6276.09 69.29 9.00  33.01 2505.62
   23:29:50.508.18-Jul-2021 4245.71 6276.09 69.29 9.00  33.21 2505.62
   23:29:50.708.18-Jul-2021 4245.71 6261.65 69.29 9.00  33.41 2505.62
   23:29:50.908.18-Jul-2021 4245.71 6266.62 69.30 9.00  33.61 2505.62
   23:29:51.108.18-Jul-2021 4245.71 6261.62 69.30 9.00  33.81 2505.62
   23:29:51.308.18-Jul-2021 4245.71 6254.61 69.30 9.00  34.01 2505.62
   23:29:51.508.18-Jul-2021 4245.71 6254.61 69.30 9.00  34.21 2505.62
   23:29:51.709.18-Jul-2021 4245.71 6247.23 69.30 9.00  34.41 2505.62
   23:29:51.909.18-Jul-2021 4245.71 6245.16 69.30 9.00  34.61 2505.62
   23:29:52.109.18-Jul-2021 4245.71 6244.93 69.30 9.00  34.81 2505.62
   23:29:52.309.18-Jul-2021 4245.71 6244.00 69.30 9.00  35.01 2505.62
   23:29:52.509.18-Jul-2021 4245.71 6244.00 69.30 9.00  35.21 2505.62
   23:29:52.709.18-Jul-2021 4245.71 6243.39 69.30 9.00  35.41 2505.62
   23:29:52.909.18-Jul-2021 4245.71 6252.17 69.30 9.00  35.61 2505.62
   23:29:53.109.18-Jul-2021 4245.71 6244.59 69.30 9.00  35.81 2505.62
   23:29:53.309.18-Jul-2021 4245.71 6241.09 69.30 9.00  36.01 2505.62
   23:29:53.509.18-Jul-2021 4245.71 6241.09 69.30 9.00  36.21 2505.62
   23:29:53.709.18-Jul-2021 4245.71 6246.21 69.30 9.00  36.41 2505.62
   23:29:53.909.18-Jul-2021 4245.71 6245.70 69.30 9.00  36.61 2505.62
   23:29:54.109.18-Jul-2021 4245.71 6244.21 69.30 9.00  36.81 2505.62
   23:29:54.310.18-Jul-2021 4245.71 6244.53 69.30 9.00  37.01 2505.62
   23:29:54.510.18-Jul-2021 4245.71 6244.53 69.30 9.00  37.21 2505.62
   23:29:54.710.18-Jul-2021 4245.71 6242.77 69.30 9.00  37.41 2505.62
   23:29:54.910.18-Jul-2021 4245.71 6242.66 69.30 9.00  37.61 2505.62
   23:29:55.110.18-Jul-2021 4245.71 6243.07 69.30 9.00  37.81 2505.62
   23:29:55.310.18-Jul-2021 4245.71 6242.65 69.30 9.00  38.01 2505.62
   23:29:55.510.18-Jul-2021 4245.71 6242.65 69.30 9.00  38.21 2505.62
   23:29:55.710.18-Jul-2021 4245.71 6249.71 69.30 9.00  38.41 2505.62
   23:29:55.910.18-Jul-2021 4245.71 6240.06 69.30 9.00  38.61 2505.62
   23:29:56.110.18-Jul-2021 4245.71 6239.31 69.30 9.00  38.81 2505.62
   23:29:56.310.18-Jul-2021 4245.71 6237.47 69.30 9.00  39.01 2505.62
   23:29:56.510.18-Jul-2021 4245.71 6237.47 69.30 9.00  39.21 2505.62
   23:29:56.710.18-Jul-2021 4245.71 4324.97 69.30 9.00  39.41 2505.62
   23:29:56.910.18-Jul-2021 4245.71 3371.01 69.30 9.00  39.61 2505.62
   23:29:57.111.18-Jul-2021 4245.71 2525.40 69.30 9.00  39.81 2505.62
   23:29:57.311.18-Jul-2021 4245.71 1762.28 69.30 9.00  40.01 2505.62
   23:29:57.511.18-Jul-2021 4245.71 1762.28 69.30 9.00  40.21 2505.62
   23:29:57.711.18-Jul-2021 4245.71  657.02 69.30 9.00  40.41 2505.62
   23:29:57.911.18-Jul-2021 4245.71  549.02 69.29 9.00  40.61 2505.62
   23:29:58.111.18-Jul-2021 4245.71  510.07 69.29 9.00  40.82 2505.62
   23:29:58.311.18-Jul-2021 4245.71  496.05 69.29 9.00  41.02 2505.62
   23:29:58.511.18-Jul-2021 4245.71  496.05 69.29 9.00  41.22 2505.62
   23:29:58.711.18-Jul-2021 4245.71  475.00 69.28 9.00  41.42 2505.62
   23:29:58.911.18-Jul-2021 4245.71  468.65 69.28 9.00  41.62 2505.62
   23:29:59.111.18-Jul-2021 4245.71  458.05 69.28 9.00  41.82 2505.62
   23:29:59.311.18-Jul-2021 4245.71  457.31 69.28 9.00  42.02 2505.62
   23:29:59.511.18-Jul-2021 4245.71  457.31 69.28 9.00  42.22 2505.62
   23:29:59.712.18-Jul-2021 4245.71  457.80 69.27 9.00  42.42 2505.62
   23:29:59.912.18-Jul-2021 4245.71  456.45 69.27 9.00  42.62 2505.62
   23:30:00.112.18-Jul-2021 4245.71  447.58 69.26 9.00  42.82 2505.62
   23:30:00.312.18-Jul-2021 4245.71  445.95 69.26 9.00  43.02 2505.62
   23:30:00.512.18-Jul-2021 4245.71  445.95 69.26 9.00  43.22 2505.62
   23:30:00.712.18-Jul-2021 4245.71  445.29 69.26 9.00  43.42 2505.62
   23:30:00.912.18-Jul-2021 4245.71  445.66 69.25 9.00  43.62 2505.62
   23:30:01.112.18-Jul-2021 4245.71  444.18 69.25 9.00  43.82 2505.62
   23:30:01.312.18-Jul-2021 4245.71  443.65 69.24 9.00  44.02 2505.62
   23:30:01.512.18-Jul-2021 4245.71  443.65 69.24 9.00  44.22 2505.62
   23:30:01.712.18-Jul-2021 4245.71  442.69 69.24 9.00  44.42 2505.62
   23:30:01.912.18-Jul-2021 4245.71  441.61 69.23 9.00  44.62 2505.62
   23:30:02.112.18-Jul-2021 4245.71  440.60 69.23 9.00  44.82 2505.62
   23:30:02.312.18-Jul-2021 4245.71  439.51 69.23 9.00  45.02 2505.62
   23:30:02.513.18-Jul-2021 4245.71  439.51 69.23 9.00  45.22 2505.62
   23:30:02.713.18-Jul-2021 4245.71  439.45 69.22 9.00  45.42 2505.62
   23:30:02.913.18-Jul-2021 4245.71  434.63 69.22 9.00  45.62 2505.62
   23:30:03.113.18-Jul-2021 4245.71  432.04 69.22 9.00  45.82 2505.62
