~Version Information
 VERS.                  2.0:   CWLS log ASCII Standard -VERSION 2.0
 WRAP.                   NO:   One line per depth step
~Well Information Block
#MNEM.UNIT     VALUE/NAME     DESCRIPTION
#---------     -----------    ---------------------------
 STRT.S             14:45:19 18-Jul-21: START TIME 14:45:19 18-Jul-21
 STOP.S             14:51:50 18-Jul-21: STOP TIME  14:51:50 18-Jul-21
 STEP.S                   0.00: STEP TIME
 NULL.                 -999.25: NULL VALUE
 MDS .        Operator Entered:  MAG DATA SOURCE
 PDAT.          Mean Sea Level:  PERMANENT DATUM
 UNIT.                     N/A:  LOGGING EQUIPMENT ID
 DCON.         Sperry Drilling:  DIRECTNL CONTR
 DOE .                     N/A:  DOE NUMBER
 RIG .              West Azeri:  RIG NAME
 JOBN.        AZ-XX-0906997913:  JOB TICKET NUMB
 WELL.                     C41:  WELL NAME
 MWDS.                    Baku:  MWD SHOP
 SRVC.          Turan Drilling:  CONTRACTOR
 FLD .                     ACG:  FIELD NAME
 CTRY.              Azerbaijan:  COUNTRY NAME
 PROV.                    Baku:  PROVINCE
 STAT.                    Baku:  STATE NAME
 REGN.                   EESSA:  REGION
 BASE.              Azerbaijan:  LOGGING EQUIPMENT BASE LOCATION
 UWI .                     N/A:  UNIQUE WELL IDENTIFIER
 API .                     N/A:  API NUMBER
 COMP.     BP Exploration (Caspian Sea) Ltd.:  COMPANY
 WTYP.                Deviated:  WELL TYPE
 SON .        AZ-XX-0906997913:  JOB NUMBER
 FTOP.          Formation Tops:  FORM TOPS DESC
 ILTD.               Lithology:  INTERP LTH DESC
 SVYD.                  Survey:  SURVEY DESC
 DMOD.             Drill Model:  DRILL MOD DESC
 HPTY.       Minimum Curvature:  HOLE POS TYPE
 NREF.                    Grid:  NORTH REFERENCE
 SPUD.               16-May-21:  SPUD DATE
 DATE.      21.11.28 17-May-21:  END TIME
 STIM.      21.11.28 17-May-21:  START TIME
 DMF .             Drill Floor:  DRILL MEAS FROM
 DFST.                        :  DIST FSL TEXT
 DFWT.                        :  DIST FWL TEXT
 CNTY.                        :  COUNTY
 LOC .                        :  LOCATION
 LMF .             Drill Floor:  LOG MEASURED FROM
 AGAP.m                  43.42:  AIR GAP
 VSNS.m                  -2.16:  VERT SEC N/S
 VSEW.m                  -6.24:  VERT SEC E/W
 APD .m                  43.42:  DEPTH ABOVE PD
 WDMS.m                 118.27:  WD ELEV
 EGL .m                   0.00:  GROUND ELEVATION
 EPD .m                   0.00:  ELEVATION
 AZTC.deg                 6.29:  AZM TOTAL CORR
 GRDC.deg                 0.18:  GRID CORRECTION
 MDEC.deg                 6.47:  MAGNETIC DECL
 MDIP.deg                59.54:  MAGNETIC DIP
 MFLD.nT              50337.00:  MAGNETIC FIELD
 GVFD.g                   1.00:  GRAVITY FIELD
 VSDR.deg               226.99:  VERT SEC DIRECT
 TDD .m                   0.00:  TOTAL DEPTH (DRILLER)
 SDEP.m                 448.00:  START DEPTH
 DFSL.m                   0.00:  DISTANCE FSL
 DFWL.m                   0.00:  DISTANCE FWL
 UTMY.m             4435799.96:  UTM Y
 UTMX.m              526265.35:  UTM X
 WHEW.m                  -6.24:  WELL HEAD E/W
 WHNS.m                  -2.16:  WELL HEAD N/S
 LONG.deg                51.31:  LONGITUDE
 LATI.deg                40.06:  LATITUDE
 TVDS.m                  43.42:  TVDSS CORRECTN
 EKB .m                  43.42:  KB ELEVATION
 EDF .m                  43.42:  DF ELEVATION
 TDL .m                 288.00:  TOTAL DEPTH (LOGGER)
 MAGU.                 1851863:  MAGUTM CHECKSUM
 VSC .                       0:  VS TO CLOSURE
~Parameter Information Block
#MNEM.UNIT       Value        Description
#---------     -----------    ---------------------------
 AV  .mps                 0.40:  Ann Velocity 
 AVMX.mps                 0.63:  Max Ann Veloc 
 AZIF.deg               158.76:  Azm, Final 
 BHAT.        Rotary Steerable:  BHA Type 
 BROT.°/30m               0.68:  Build Rotating 
 BS  .in                  8.50:  Bit Size 
 BSZ .in                  8.50:  Bit Size 
 BTPL.psig              712.00:  Bit Press Loss 
 CABU.                      No:  Customer Abuse 
 TCS .hr                 90.66:  Time Ciculation Ended 
 CV  .mps                 2.02:  Crit Velocity 
 CVMX.mps                 2.14:  Max Crit Veloc 
 DD1 .            Aziz Aliyevu:  Direct Drillr 1 
 DD2 .             Samir Abbas:  Direct Drillr 2 
 DD3 .           Teymur Aliyev:  Direct Drillr 3 
 DDSV.                 iCruise:  DD Service 
 DEFF.%                  85.10:  % Det Eff 
 DLRX.°/30m               1.05:  Dogleg Rot Max 
 DLSO.°/30m               1.01:  Dogleg Oriented 
 DLSX.°/30m               1.05:  Dogleg Str Max 
 DRET.      07.45.00 18-Jul-21:  Drill End Time 
 DRST.      15.00.00 16-Jul-21:  Drill Start Tim 
 DTIM.hr                 23.46:  Time Drilling 
 EDEP.m                4603.00:  End Depth 
 ENG1.       Seymur Iskandarov:  Engineer 1 
 ENG2.         Yevgeniy Ulikov:  Engineer 2 
 ENG3.         Bahruz Mehdiyev:  Engineer 3 
 ENG4.         Elchin Mammadov:  Engineer 4 
 ETIM.      14.00.00 23-Jul-21:  End Time 
 FLOI.gpm               500.00:  Flow In 
 FLON.gpm               450.00:  Flow In Min 
 FLOS.cptm                0.00:  Fluid Loss 
 FLOX.gpm               560.00:  Flow In Max 
 DFT .        Mineral Oil Base:  Mud Type 
 FTRO.       Formation Presure:  FTWD Run Obj 
 HFLO.                      No:  High Flow 
 HPRE.                      No:  High Pressure 
 HTEM.                      No:  High Temp 
 HYDO.m                   1.80:  Hydro Offset 
 IFIN.deg                40.22:  Inc, Final 
 IMAX.deg                40.54:  Inc Max 
 IMIN.deg                39.44:  Inc Min 
 IMND.m                4361.17:  Inc Min Depth 
 IMXD.m                4417.92:  Inc Max Depth 
 JARR.                      No:  Jarring 
 LETM.      07.45.00 18-Jul-21:  Log End Time 
 LOST.hr                    16:  Lost Rig Time 
 LSTM.      15.00.00 16-Jul-21:  Log Start Time 
 MDCL.ppm             36500.00:  Mud Chlorides 
 MDES.     Inversion Oil/Synthetic:  Mud Desc 
 DFD .sg                  1.42:  Mud Density 
 MDMN.sg                  1.42:  Dens Mud Min 
 MDMX.sg                  1.43:  Dens Mud Max 
 MOIL.                      56:  Run Mud Oil % 
 MOWR.                   71:29:  Run Mud OWR 
 MSND.                     0.5:  Run Mud Sand % 
 MSOL.                      21:  Run Mud Solids% 
 DFV .spqt               78.00:  Mud Viscosity 
 MWOD.in                  6.75:  MWD Tool OD 
 MWSI.                     Yes:  Serv Intrp, MWD 
 OTIM.hr                200.73:  Time Operating 
 PCON.           Look Like New:  Pad Condition 
 PMAX.psia            11069.93:  Press Op, Max 
 PV  .cP                 32.00:  Mud PV 
 RUN .                     700:  Run Number 
 ROPA.m/hr               10.00:  ROP Avg 
 ROPN.m/hr                9.00:  ROP Min 
 ROPX.m/hr               16.00:  ROP Max 
 RPMA.rpm               116.00:  RPM Surface Avg 
 RPMN.rpm                80.00:  RPM Surface Min 
 RPMX.rpm               120.00:  RPM Surface Max 
 RRUN.                    L605:  Rig Run Number 
 RTIM.hr                 45.00:  Time Reaming 
 SAZI.deg               159.86:  Azm, Start 
 SDEP.m                4315.00:  Start Depth 
 SIDD.                      No:  Serv Intrp, DD 
 SINC.deg                39.86:  Inc, Start 
 SPPA.psig             3300.00:  SPP Avg 
 SPPN.psig             3040.00:  SPP Min 
 SPPX.psig             3645.00:  SPP Max 
 STIM.      01.00.00 15-Jul-21:  Start Time 
 SVCS.                 DD, MWD:  Services 
 SVER.                    9.20:  Sperry Version 
 TDAT.m                 288.00:  Tot Depth Attmp 
 TDDF.                      No:  Trip for DD 
 TDLG.m                 288.00:  Tot Depth Loggd 
 TFF .                      No:  Trip for Fail 
 TQAA.f-kp               19.00:  Torque Abs Avg 
 TQAN.f-kp               18.00:  Torque Abs Min 
 TQAX.f-kp               21.00:  Torque Abs Max 
 TRRT.°/30m               0.45:  Turn Rotating 
 MRT .                    HCIM:  Maximum Recorded Temperature 
 TTMX.degC               88.24:  Max Tool Temp 
 VS01.                90649157:  Virtual Str1 SN 
 VS02.                90652483:  Virtual Str2 SN 
 VS03.                11671987:  Virtual Str3 SN 
 VS04.                90643411:  Virtual Str4 SN 
 VS05.                90652478:  Virtual Str5 SN 
 VS06.                    6111:  Virtual Str6 SN 
 WBMN.klb                 9.50:  WOB Min 
 WITN.        Grigoriy Sarayev:  Customer Rep 
 WITN.          Rufat Huseynov:  Customer Rep 2 
 WOBA.klb                11.00:  WOB Avg 
 WOBX.klb                15.00:  WOB Max 
 YP  .lhf2               28.00:  Yield Point 
~Curve Information Block
#MNEM.UNIT                 API CODE     Curve Description
#---------               -----------    ---------------------------
 TIME.HHMMSS            00 000 000 000:  GT Time & Date
 GTDEPTH.m              00 000 000 000:  GT Depth
 GTPQH.psia             00 000 000 000:  GT HR Quartz Pressure
 GTTQ.degC              00 000 000 000:  GT Quartz Temperature
 GTTN.NONE              00 000 000 000:  GT Test Number
 GTET.sec               00 000 000 000:  GT Elapsed Test Time
 GTTVD.m                00 000 000 000:  GT True Vertical Depth
#Other Information
#
#WARRANTY: Halliburton will use its best efforts to furnish customers with 
#accurate information and interpretations that are part of, and incident to, the services 
#provided.  However, Halliburton cannot and does not warrant the accuracy 
#or correctness of such information and interpretations.  Under no circumstances should any 
#such information or interpretation be relied upon as the sole basis for any drilling, 
#completion, production, or financial decision or any procedure involving any risk to the 
#safety of any drilling venture, drilling rig or its crew or any other third party.  The 
#Customer has full responsibility for all drilling, completion and production operation.  
#Halliburton makes no representations or warranties, either expressed or 
#implied, including, but not limited to, the implied warranties of merchantability or fitness 
#for a particular purpose, with respect to the services rendered.  In no event will 
#Halliburton be liable for failure to obtain any particular results or for 
#any damages, including, but not limited to, indirect, special or consequential damages, 
#resulting from the use of any information or interpretation provided by Halliburton.
#
~A           TIME           GTDEPTH  GTPQH  GTTQ  GTTN  GTET   GTTVD  
# ...
   14:46:28.746.18-Jul-2021 4553.00 6621.38 75.28 5.00  69.03 2740.81
   14:46:28.946.18-Jul-2021 4553.00 6621.38 75.28 5.00  69.23 2740.81
   14:46:29.146.18-Jul-2021 4553.00 6621.10 75.28 5.00  69.43 2740.81
   14:46:29.346.18-Jul-2021 4553.00 6620.41 75.28 5.00  69.63 2740.81
   14:46:29.546.18-Jul-2021 4553.00 6624.40 75.28 5.00  69.83 2740.81
   14:46:29.746.18-Jul-2021 4553.00 6624.16 75.28 5.00  70.03 2740.81
   14:46:29.946.18-Jul-2021 4553.00 6624.16 75.28 5.00  70.23 2740.81
   14:46:30.146.18-Jul-2021 4553.00 6623.81 75.28 5.00  70.43 2740.81
   14:46:30.346.18-Jul-2021 4553.00 6623.58 75.28 5.00  70.63 2740.81
   14:46:30.546.18-Jul-2021 4553.00 6623.07 75.28 5.00  70.83 2740.81
   14:46:30.746.18-Jul-2021 4553.00 6623.05 75.28 5.00  71.03 2740.81
   14:46:30.947.18-Jul-2021 4553.00 6623.05 75.28 5.00  71.23 2740.81
   14:46:31.147.18-Jul-2021 4553.00 6622.70 75.28 5.00  71.43 2740.81
   14:46:31.347.18-Jul-2021 4553.00 6622.87 75.28 5.00  71.63 2740.81
   14:46:31.547.18-Jul-2021 4553.00 6622.82 75.28 5.00  71.83 2740.81
   14:46:31.747.18-Jul-2021 4553.00 6622.68 75.28 5.00  72.03 2740.81
   14:46:31.947.18-Jul-2021 4553.00 6622.68 75.28 5.00  72.23 2740.81
   14:46:32.147.18-Jul-2021 4553.00 6624.89 75.28 5.00  72.43 2740.81
   14:46:32.347.18-Jul-2021 4553.00 6624.17 75.28 5.00  72.63 2740.81
   14:46:32.547.18-Jul-2021 4553.00 6623.01 75.28 5.00  72.83 2740.81
   14:46:32.747.18-Jul-2021 4553.00 6626.74 75.28 5.00  73.03 2740.81
   14:46:32.947.18-Jul-2021 4553.00 6626.74 75.28 5.00  73.23 2740.81
   14:46:33.147.18-Jul-2021 4553.00 6624.05 75.28 5.00  73.43 2740.81
   14:46:33.347.18-Jul-2021 4553.00 6623.71 75.28 5.00  73.63 2740.81
   14:46:33.547.18-Jul-2021 4553.00 6624.21 75.28 5.00  73.83 2740.81
   14:46:33.748.18-Jul-2021 4553.00 6624.30 75.28 5.00  74.03 2740.81
   14:46:33.948.18-Jul-2021 4553.00 6624.30 75.28 5.00  74.23 2740.81
   14:46:34.148.18-Jul-2021 4553.00 6623.70 75.28 5.00  74.43 2740.81
   14:46:34.348.18-Jul-2021 4553.00 6622.35 75.28 5.00  74.63 2740.81
   14:46:34.548.18-Jul-2021 4553.00 6621.63 75.28 5.00  74.83 2740.81
   14:46:34.748.18-Jul-2021 4553.00 6626.16 75.28 5.00  75.03 2740.81
   14:46:34.948.18-Jul-2021 4553.00 6626.16 75.28 5.00  75.23 2740.81
   14:46:35.148.18-Jul-2021 4553.00 6623.19 75.28 5.00  75.43 2740.81
   14:46:35.348.18-Jul-2021 4553.00 6622.83 75.28 5.00  75.63 2740.81
   14:46:35.548.18-Jul-2021 4553.00 6622.72 75.28 5.00  75.83 2740.81
   14:46:35.748.18-Jul-2021 4553.00 6626.93 75.28 5.00  76.03 2740.81
   14:46:35.948.18-Jul-2021 4553.00 6626.93 75.28 5.00  76.23 2740.81
   14:46:36.148.18-Jul-2021 4553.00 6624.78 75.28 5.00  76.43 2740.81
   14:46:36.348.18-Jul-2021 4553.00 6624.91 75.28 5.00  76.63 2740.81
   14:46:36.549.18-Jul-2021 4553.00 6624.47 75.28 5.00  76.83 2740.81
   14:46:36.749.18-Jul-2021 4553.00 6624.18 75.28 5.00  77.03 2740.81
   14:46:36.949.18-Jul-2021 4553.00 6624.18 75.28 5.00  77.23 2740.81
   14:46:37.149.18-Jul-2021 4553.00 6624.22 75.28 5.00  77.43 2740.81
   14:46:37.349.18-Jul-2021 4553.00 6624.35 75.28 5.00  77.63 2740.81
   14:46:37.549.18-Jul-2021 4553.00 6624.29 75.28 5.00  77.83 2740.81
   14:46:37.749.18-Jul-2021 4553.00 6624.30 75.28 5.00  78.03 2740.81
   14:46:37.949.18-Jul-2021 4553.00 6624.30 75.28 5.00  78.23 2740.81
   14:46:38.149.18-Jul-2021 4553.00 6623.65 75.28 5.00  78.43 2740.81
   14:46:38.349.18-Jul-2021 4553.00 6623.09 75.28 5.00  78.63 2740.81
   14:46:38.549.18-Jul-2021 4553.00 6626.79 75.28 5.00  78.83 2740.81
   14:46:38.749.18-Jul-2021 4553.00 6625.39 75.28 5.00  79.03 2740.81
   14:46:38.949.18-Jul-2021 4553.00 6625.39 75.28 5.00  79.23 2740.81
   14:46:39.150.18-Jul-2021 4553.00 6625.02 75.28 5.00  79.43 2740.81
   14:46:39.350.18-Jul-2021 4553.00 6624.44 75.28 5.00  79.63 2740.81
   14:46:39.550.18-Jul-2021 4553.00 6624.30 75.28 5.00  79.83 2740.81
   14:46:39.750.18-Jul-2021 4553.00 6624.17 75.28 5.00  80.03 2740.81
   14:46:39.950.18-Jul-2021 4553.00 6624.17 75.28 5.00  80.23 2740.81
   14:46:40.150.18-Jul-2021 4553.00 6624.13 75.28 5.00  80.43 2740.81
   14:46:40.350.18-Jul-2021 4553.00 6624.32 75.28 5.00  80.63 2740.81
   14:46:40.550.18-Jul-2021 4553.00 6624.02 75.28 5.00  80.83 2740.81
   14:46:40.750.18-Jul-2021 4553.00 6623.82 75.28 5.00  81.03 2740.81
   14:46:40.950.18-Jul-2021 4553.00 6623.82 75.28 5.00  81.23 2740.81
   14:46:41.150.18-Jul-2021 4553.00 6624.98 75.28 5.00  81.43 2740.81
   14:46:41.350.18-Jul-2021 4553.00 6625.29 75.28 5.00  81.63 2740.81
   14:46:41.550.18-Jul-2021 4553.00 6623.06 75.28 5.00  81.83 2740.81
   14:46:41.750.18-Jul-2021 4553.00 6628.80 75.28 5.00  82.03 2740.81
   14:46:41.951.18-Jul-2021 4553.00 6628.80 75.28 5.00  82.23 2740.81
   14:46:42.151.18-Jul-2021 4553.00 6625.47 75.28 5.00  82.43 2740.81
   14:46:42.351.18-Jul-2021 4553.00 6625.30 75.28 5.00  82.63 2740.81
   14:46:42.551.18-Jul-2021 4553.00 6624.55 75.28 5.00  82.83 2740.81
   14:46:42.751.18-Jul-2021 4553.00 6627.41 75.28 5.00  83.03 2740.81
   14:46:42.951.18-Jul-2021 4553.00 6627.41 75.28 5.00  83.23 2740.81
   14:46:43.151.18-Jul-2021 4553.00 6624.50 75.28 5.00  83.43 2740.81
   14:46:43.351.18-Jul-2021 4553.00 6623.79 75.28 5.00  83.63 2740.81
   14:46:43.551.18-Jul-2021 4553.00 6622.60 75.28 5.00  83.83 2740.81
   14:46:43.751.18-Jul-2021 4553.00 6624.06 75.28 5.00  84.03 2740.81
   14:46:43.951.18-Jul-2021 4553.00 6624.06 75.28 5.00  84.23 2740.81
   14:46:44.151.18-Jul-2021 4553.00 6623.81 75.28 5.00  84.43 2740.81
   14:46:44.351.18-Jul-2021 4553.00 6624.07 75.28 5.00  84.63 2740.81
   14:46:44.552.18-Jul-2021 4553.00 6623.13 75.28 5.00  84.83 2740.81
   14:46:44.752.18-Jul-2021 4553.00 6626.49 75.28 5.00  85.03 2740.81
   14:46:44.952.18-Jul-2021 4553.00 6626.49 75.28 5.00  85.23 2740.81
   14:46:45.152.18-Jul-2021 4553.00 6625.25 75.28 5.00  85.43 2740.81
   14:46:45.352.18-Jul-2021 4553.00 6625.67 75.28 5.00  85.63 2740.81
   14:46:45.552.18-Jul-2021 4553.00 6624.91 75.28 5.00  85.83 2740.81
   14:46:45.752.18-Jul-2021 4553.00 6624.83 75.28 5.00  86.03 2740.81
   14:46:45.952.18-Jul-2021 4553.00 6624.83 75.28 5.00  86.23 2740.81
   14:46:46.152.18-Jul-2021 4553.00 6624.80 75.28 5.00  86.43 2740.81
   14:46:46.352.18-Jul-2021 4553.00 6624.67 75.28 5.00  86.63 2740.81
   14:46:46.552.18-Jul-2021 4553.00 6624.84 75.28 5.00  86.83 2740.81
   14:46:46.752.18-Jul-2021 4553.00 6625.17 75.28 5.00  87.03 2740.81
   14:46:46.952.18-Jul-2021 4553.00 6625.17 75.28 5.00  87.23 2740.81
   14:46:47.152.18-Jul-2021 4553.00 6623.89 75.28 5.00  87.43 2740.81
   14:46:47.353.18-Jul-2021 4553.00 6623.17 75.28 5.00  87.63 2740.81
   14:46:47.553.18-Jul-2021 4553.00 6625.56 75.28 5.00  87.83 2740.81
   14:46:47.753.18-Jul-2021 4553.00 6625.24 75.28 5.00  88.03 2740.81
   14:46:47.953.18-Jul-2021 4553.00 6625.24 75.28 5.00  88.23 2740.81
   14:46:48.153.18-Jul-2021 4553.00 6624.89 75.28 5.00  88.43 2740.81
   14:46:48.353.18-Jul-2021 4553.00 6624.19 75.28 5.00  88.63 2740.81
   14:46:48.553.18-Jul-2021 4553.00 6623.76 75.28 5.00  88.83 2740.81
   14:46:48.753.18-Jul-2021 4553.00 6623.58 75.28 5.00  89.03 2740.81
   14:46:48.953.18-Jul-2021 4553.00 6623.58 75.28 5.00  89.23 2740.81
   14:46:49.153.18-Jul-2021 4553.00 6623.80 75.28 5.00  89.43 2740.81
   14:46:49.353.18-Jul-2021 4553.00 6624.33 75.28 5.00  89.63 2740.81
   14:46:49.553.18-Jul-2021 4553.00 6624.14 75.28 5.00  89.83 2740.81
   14:46:49.753.18-Jul-2021 4553.00 6623.65 75.28 5.00  90.03 2740.81
   14:46:49.954.18-Jul-2021 4553.00 6623.65 75.28 5.00  90.23 2740.81
   14:46:50.154.18-Jul-2021 4553.00 6625.31 75.28 5.00  90.43 2740.81
   14:46:50.354.18-Jul-2021 4553.00 6625.52 75.28 5.00  90.63 2740.81
   14:46:50.554.18-Jul-2021 4553.00 6624.08 75.28 5.00  90.83 2740.81
   14:46:50.754.18-Jul-2021 4553.00 6627.67 75.28 5.00  91.03 2740.81
   14:46:50.954.18-Jul-2021 4553.00 6627.67 75.28 5.00  91.23 2740.81
   14:46:51.154.18-Jul-2021 4553.00 6626.08 75.28 5.00  91.43 2740.81
   14:46:51.354.18-Jul-2021 4553.00 6626.42 75.28 5.00  91.63 2740.81
   14:46:51.554.18-Jul-2021 4553.00 6625.35 75.28 5.00  91.83 2740.81
