~Version Information
 VERS.                  2.0:   CWLS log ASCII Standard -VERSION 2.0
 WRAP.                   NO:   One line per depth step
~Well Information Block
#MNEM.UNIT     VALUE/NAME     DESCRIPTION
#---------     -----------    ---------------------------
 STRT.S             05:02:49 19-Jul-21: START TIME 05:02:49 19-Jul-21
 STOP.S             05:09:40 19-Jul-21: STOP TIME  05:09:40 19-Jul-21
 STEP.S                   0.00: STEP TIME
 NULL.                 -999.25: NULL VALUE
 MDS .        Operator Entered:  MAG DATA SOURCE
 PDAT.          Mean Sea Level:  PERMANENT DATUM
 UNIT.                     N/A:  LOGGING EQUIPMENT ID
 DCON.         Sperry Drilling:  DIRECTNL CONTR
 DOE .                     N/A:  DOE NUMBER
 RIG .              West Azeri:  RIG NAME
 JOBN.        AZ-XX-0906997913:  JOB TICKET NUMB
 WELL.                     C41:  WELL NAME
 MWDS.                    Baku:  MWD SHOP
 SRVC.          Turan Drilling:  CONTRACTOR
 FLD .                     ACG:  FIELD NAME
 CTRY.              Azerbaijan:  COUNTRY NAME
 PROV.                    Baku:  PROVINCE
 STAT.                    Baku:  STATE NAME
 REGN.                   EESSA:  REGION
 BASE.              Azerbaijan:  LOGGING EQUIPMENT BASE LOCATION
 UWI .                     N/A:  UNIQUE WELL IDENTIFIER
 API .                     N/A:  API NUMBER
 COMP.     BP Exploration (Caspian Sea) Ltd.:  COMPANY
 WTYP.                Deviated:  WELL TYPE
 SON .        AZ-XX-0906997913:  JOB NUMBER
 FTOP.          Formation Tops:  FORM TOPS DESC
 ILTD.               Lithology:  INTERP LTH DESC
 SVYD.                  Survey:  SURVEY DESC
 DMOD.             Drill Model:  DRILL MOD DESC
 HPTY.       Minimum Curvature:  HOLE POS TYPE
 NREF.                    Grid:  NORTH REFERENCE
 SPUD.               16-May-21:  SPUD DATE
 DATE.      21.11.28 17-May-21:  END TIME
 STIM.      21.11.28 17-May-21:  START TIME
 DMF .             Drill Floor:  DRILL MEAS FROM
 DFST.                        :  DIST FSL TEXT
 DFWT.                        :  DIST FWL TEXT
 CNTY.                        :  COUNTY
 LOC .                        :  LOCATION
 LMF .             Drill Floor:  LOG MEASURED FROM
 AGAP.m                  43.42:  AIR GAP
 VSNS.m                  -2.16:  VERT SEC N/S
 VSEW.m                  -6.24:  VERT SEC E/W
 APD .m                  43.42:  DEPTH ABOVE PD
 WDMS.m                 118.27:  WD ELEV
 EGL .m                   0.00:  GROUND ELEVATION
 EPD .m                   0.00:  ELEVATION
 AZTC.deg                 6.29:  AZM TOTAL CORR
 GRDC.deg                 0.18:  GRID CORRECTION
 MDEC.deg                 6.47:  MAGNETIC DECL
 MDIP.deg                59.54:  MAGNETIC DIP
 MFLD.nT              50337.00:  MAGNETIC FIELD
 GVFD.g                   1.00:  GRAVITY FIELD
 VSDR.deg               226.99:  VERT SEC DIRECT
 TDD .m                   0.00:  TOTAL DEPTH (DRILLER)
 SDEP.m                 448.00:  START DEPTH
 DFSL.m                   0.00:  DISTANCE FSL
 DFWL.m                   0.00:  DISTANCE FWL
 UTMY.m             4435799.96:  UTM Y
 UTMX.m              526265.35:  UTM X
 WHEW.m                  -6.24:  WELL HEAD E/W
 WHNS.m                  -2.16:  WELL HEAD N/S
 LONG.deg                51.31:  LONGITUDE
 LATI.deg                40.06:  LATITUDE
 TVDS.m                  43.42:  TVDSS CORRECTN
 EKB .m                  43.42:  KB ELEVATION
 EDF .m                  43.42:  DF ELEVATION
 TDL .m                 288.00:  TOTAL DEPTH (LOGGER)
 MAGU.                 1851863:  MAGUTM CHECKSUM
 VSC .                       0:  VS TO CLOSURE
~Parameter Information Block
#MNEM.UNIT       Value        Description
#---------     -----------    ---------------------------
 AV  .mps                 0.40:  Ann Velocity 
 AVMX.mps                 0.63:  Max Ann Veloc 
 AZIF.deg               158.76:  Azm, Final 
 BHAT.        Rotary Steerable:  BHA Type 
 BROT.°/30m               0.68:  Build Rotating 
 BS  .in                  8.50:  Bit Size 
 BSZ .in                  8.50:  Bit Size 
 BTPL.psig              712.00:  Bit Press Loss 
 CABU.                      No:  Customer Abuse 
 COMM.                     'i:  Run Comments 1 
 TCS .hr                 90.66:  Time Ciculation Ended 
 CV  .mps                 2.02:  Crit Velocity 
 CVMX.mps                 2.14:  Max Crit Veloc 
 DD1 .            Aziz Aliyevu:  Direct Drillr 1 
 DD2 .             Samir Abbas:  Direct Drillr 2 
 DD3 .           Teymur Aliyev:  Direct Drillr 3 
 DDSV.                 iCruise:  DD Service 
 DEFF.%                  85.10:  % Det Eff 
 DLRX.°/30m               1.05:  Dogleg Rot Max 
 DLSO.°/30m               1.01:  Dogleg Oriented 
 DLSX.°/30m               1.05:  Dogleg Str Max 
 DRET.      07.45.00 18-Jul-21:  Drill End Time 
 DRST.      15.00.00 16-Jul-21:  Drill Start Tim 
 DTIM.hr                 23.46:  Time Drilling 
 EDEP.m                4603.00:  End Depth 
 ENG1.       Seymur Iskandarov:  Engineer 1 
 ENG2.         Yevgeniy Ulikov:  Engineer 2 
 ENG3.         Bahruz Mehdiyev:  Engineer 3 
 ENG4.         Elchin Mammadov:  Engineer 4 
 ETIM.      14.00.00 23-Jul-21:  End Time 
 FLOI.gpm               500.00:  Flow In 
 FLON.gpm               450.00:  Flow In Min 
 FLOS.cptm                0.00:  Fluid Loss 
 FLOX.gpm               560.00:  Flow In Max 
 DFT .        Mineral Oil Base:  Mud Type 
 FTRO.       Formation Presure:  FTWD Run Obj 
 HFLO.                      No:  High Flow 
 HPRE.                      No:  High Pressure 
 HTEM.                      No:  High Temp 
 HYDO.m                   1.80:  Hydro Offset 
 IFIN.deg                40.22:  Inc, Final 
 IMAX.deg                40.54:  Inc Max 
 IMIN.deg                39.44:  Inc Min 
 IMND.m                4361.17:  Inc Min Depth 
 IMXD.m                4417.92:  Inc Max Depth 
 JARR.                      No:  Jarring 
 LETM.      07.45.00 18-Jul-21:  Log End Time 
 LOST.hr                    16:  Lost Rig Time 
 LSTM.      15.00.00 16-Jul-21:  Log Start Time 
 MDCL.ppm             36500.00:  Mud Chlorides 
 MDES.     Inversion Oil/Synthetic:  Mud Desc 
 DFD .sg                  1.42:  Mud Density 
 MDMN.sg                  1.42:  Dens Mud Min 
 MDMX.sg                  1.43:  Dens Mud Max 
 MOIL.                      56:  Run Mud Oil % 
 MOWR.                   71:29:  Run Mud OWR 
 MSND.                     0.5:  Run Mud Sand % 
 MSOL.                      21:  Run Mud Solids% 
 DFV .spqt               78.00:  Mud Viscosity 
 MWOD.in                  6.75:  MWD Tool OD 
 MWSI.                     Yes:  Serv Intrp, MWD 
 OTIM.hr                200.73:  Time Operating 
 PCON.           Look Like New:  Pad Condition 
 PMAX.psia            11069.93:  Press Op, Max 
 PV  .cP                 32.00:  Mud PV 
 RUN .                     700:  Run Number 
 ROPA.m/hr               10.00:  ROP Avg 
 ROPN.m/hr                9.00:  ROP Min 
 ROPX.m/hr               16.00:  ROP Max 
 RPMA.rpm               116.00:  RPM Surface Avg 
 RPMN.rpm                80.00:  RPM Surface Min 
 RPMX.rpm               120.00:  RPM Surface Max 
 RRUN.                    L605:  Rig Run Number 
 RTIM.hr                 45.00:  Time Reaming 
 SAZI.deg               159.86:  Azm, Start 
 SDEP.m                4315.00:  Start Depth 
 SIDD.                      No:  Serv Intrp, DD 
 SINC.deg                39.86:  Inc, Start 
 SPPA.psig             3300.00:  SPP Avg 
 SPPN.psig             3040.00:  SPP Min 
 SPPX.psig             3645.00:  SPP Max 
 STIM.      01.00.00 15-Jul-21:  Start Time 
 SVCS.                 DD, MWD:  Services 
 SVER.                    9.20:  Sperry Version 
 TDAT.m                 288.00:  Tot Depth Attmp 
 TDDF.                      No:  Trip for DD 
 TDLG.m                 288.00:  Tot Depth Loggd 
 TFF .                      No:  Trip for Fail 
 TQAA.f-kp               19.00:  Torque Abs Avg 
 TQAN.f-kp               18.00:  Torque Abs Min 
 TQAX.f-kp               21.00:  Torque Abs Max 
 TRRT.°/30m               0.45:  Turn Rotating 
 MRT .                    HCIM:  Maximum Recorded Temperature 
 TTMX.degC               88.24:  Max Tool Temp 
 VS01.                90649157:  Virtual Str1 SN 
 VS02.                90652483:  Virtual Str2 SN 
 VS03.                11671987:  Virtual Str3 SN 
 VS04.                90643411:  Virtual Str4 SN 
 VS05.                90652478:  Virtual Str5 SN 
 VS06.                    6111:  Virtual Str6 SN 
 WBMN.klb                 9.50:  WOB Min 
 WITN.        Grigoriy Sarayev:  Customer Rep 
 WITN.          Rufat Huseynov:  Customer Rep 2 
 WOBA.klb                11.00:  WOB Avg 
 WOBX.klb                15.00:  WOB Max 
 YP  .lhf2               28.00:  Yield Point 
~Curve Information Block
#MNEM.UNIT                 API CODE     Curve Description
#---------               -----------    ---------------------------
 TIME.HHMMSS            00 000 000 000:  GT Time & Date
 GTDEPTH.m              00 000 000 000:  GT Depth
 GTPQH.psia             00 000 000 000:  GT HR Quartz Pressure
 GTTQ.degC              00 000 000 000:  GT Quartz Temperature
 GTTN.NONE              00 000 000 000:  GT Test Number
 GTET.sec               00 000 000 000:  GT Elapsed Test Time
 GTTVD.m                00 000 000 000:  GT True Vertical Depth
#Other Information
#
#WARRANTY: Halliburton will use its best efforts to furnish customers with 
#accurate information and interpretations that are part of, and incident to, the services 
#provided.  However, Halliburton cannot and does not warrant the accuracy 
#or correctness of such information and interpretations.  Under no circumstances should any 
#such information or interpretation be relied upon as the sole basis for any drilling, 
#completion, production, or financial decision or any procedure involving any risk to the 
#safety of any drilling venture, drilling rig or its crew or any other third party.  The 
#Customer has full responsibility for all drilling, completion and production operation.  
#Halliburton makes no representations or warranties, either expressed or 
#implied, including, but not limited to, the implied warranties of merchantability or fitness 
#for a particular purpose, with respect to the services rendered.  In no event will 
#Halliburton be liable for failure to obtain any particular results or for 
#any damages, including, but not limited to, indirect, special or consequential damages, 
#resulting from the use of any information or interpretation provided by Halliburton.
#
~A           TIME           GTDEPTH  GTPQH  GTTQ  GTTN   GTET   GTTVD  
# ...
   05:03:34.881.19-Jul-2021 4356.00 1181.78 68.77 12.00  45.22 2590.09
   05:03:35.081.19-Jul-2021 4356.00 1194.08 68.76 12.00  45.42 2590.09
   05:03:35.281.19-Jul-2021 4356.00 1163.55 68.76 12.00  45.62 2590.09
   05:03:35.482.19-Jul-2021 4356.00 1179.21 68.76 12.00  45.82 2590.09
   05:03:35.682.19-Jul-2021 4356.00 1191.44 68.75 12.00  46.02 2590.09
   05:03:35.882.19-Jul-2021 4356.00 1191.44 68.75 12.00  46.22 2590.09
   05:03:36.082.19-Jul-2021 4356.00 1181.38 68.75 12.00  46.42 2590.09
   05:03:36.282.19-Jul-2021 4356.00 1168.60 68.75 12.00  46.62 2590.09
   05:03:36.482.19-Jul-2021 4356.00 1165.54 68.75 12.00  46.82 2590.09
   05:03:36.682.19-Jul-2021 4356.00 1111.05 68.74 12.00  47.02 2590.09
   05:03:36.882.19-Jul-2021 4356.00 1111.05 68.74 12.00  47.22 2590.09
   05:03:37.082.19-Jul-2021 4356.00 1153.55 68.74 12.00  47.42 2590.09
   05:03:37.282.19-Jul-2021 4356.00 1149.86 68.74 12.00  47.62 2590.09
   05:03:37.482.19-Jul-2021 4356.00 1164.52 68.74 12.00  47.82 2590.09
   05:03:37.682.19-Jul-2021 4356.00 1182.25 68.73 12.00  48.02 2590.09
   05:03:37.882.19-Jul-2021 4356.00 1182.25 68.73 12.00  48.22 2590.09
   05:03:38.082.19-Jul-2021 4356.00 1191.45 68.73 12.00  48.42 2590.09
   05:03:38.283.19-Jul-2021 4356.00 1192.21 68.73 12.00  48.62 2590.09
   05:03:38.483.19-Jul-2021 4356.00 1183.30 68.73 12.00  48.82 2590.09
   05:03:38.683.19-Jul-2021 4356.00 1173.78 68.73 12.00  49.02 2590.09
   05:03:38.883.19-Jul-2021 4356.00 1173.78 68.73 12.00  49.22 2590.09
   05:03:39.083.19-Jul-2021 4356.00 1170.95 68.72 12.00  49.42 2590.09
   05:03:39.283.19-Jul-2021 4356.00 1487.79 68.72 12.00  49.62 2590.09
   05:03:39.483.19-Jul-2021 4356.00 1838.49 68.72 12.00  49.82 2590.09
   05:03:39.683.19-Jul-2021 4356.00 2138.06 68.72 12.00  50.02 2590.09
   05:03:39.883.19-Jul-2021 4356.00 2138.06 68.72 12.00  50.22 2590.09
   05:03:40.083.19-Jul-2021 4356.00 2601.88 68.72 12.00  50.42 2590.09
   05:03:40.283.19-Jul-2021 4356.00 2780.80 68.72 12.00  50.62 2590.09
   05:03:40.483.19-Jul-2021 4356.00 2935.29 68.72 12.00  50.82 2590.09
   05:03:40.683.19-Jul-2021 4356.00 3068.42 68.72 12.00  51.02 2590.09
   05:03:40.884.19-Jul-2021 4356.00 3068.42 68.72 12.00  51.22 2590.09
   05:03:41.084.19-Jul-2021 4356.00 3285.88 68.72 12.00  51.42 2590.09
   05:03:41.284.19-Jul-2021 4356.00 3374.45 68.72 12.00  51.62 2590.09
   05:03:41.484.19-Jul-2021 4356.00 3451.83 68.72 12.00  51.82 2590.09
   05:03:41.684.19-Jul-2021 4356.00 3520.10 68.72 12.00  52.02 2590.09
   05:03:41.884.19-Jul-2021 4356.00 3520.10 68.72 12.00  52.22 2590.09
   05:03:42.084.19-Jul-2021 4356.00 3633.30 68.72 12.00  52.42 2590.09
   05:03:42.284.19-Jul-2021 4356.00 3680.29 68.72 12.00  52.62 2590.09
   05:03:42.484.19-Jul-2021 4356.00 3721.89 68.72 12.00  52.82 2590.09
   05:03:42.684.19-Jul-2021 4356.00 3759.09 68.72 12.00  53.02 2590.09
   05:03:42.884.19-Jul-2021 4356.00 3759.09 68.72 12.00  53.22 2590.09
   05:03:43.084.19-Jul-2021 4356.00 3788.67 68.72 12.00  53.42 2590.09
   05:03:43.284.19-Jul-2021 4356.00 3842.66 68.73 12.00  53.62 2590.09
   05:03:43.484.19-Jul-2021 4356.00 3865.86 68.73 12.00  53.82 2590.09
   05:03:43.685.19-Jul-2021 4356.00 3886.39 68.73 12.00  54.02 2590.09
   05:03:43.885.19-Jul-2021 4356.00 3886.39 68.73 12.00  54.22 2590.09
   05:03:44.085.19-Jul-2021 4356.00 3924.67 68.73 12.00  54.42 2590.09
   05:03:44.285.19-Jul-2021 4356.00 3938.94 68.73 12.00  54.62 2590.09
   05:03:44.485.19-Jul-2021 4356.00 3953.81 68.73 12.00  54.82 2590.09
   05:03:44.685.19-Jul-2021 4356.00 3967.41 68.73 12.00  55.02 2590.09
   05:03:44.885.19-Jul-2021 4356.00 3967.41 68.73 12.00  55.22 2590.09
   05:03:45.085.19-Jul-2021 4356.00 3989.49 68.74 12.00  55.42 2590.09
   05:03:45.285.19-Jul-2021 4356.00 4000.34 68.74 12.00  55.62 2590.09
   05:03:45.485.19-Jul-2021 4356.00 4008.98 68.74 12.00  55.82 2590.09
   05:03:45.685.19-Jul-2021 4356.00 4018.26 68.74 12.00  56.02 2590.09
   05:03:45.885.19-Jul-2021 4356.00 4018.26 68.74 12.00  56.22 2590.09
   05:03:46.085.19-Jul-2021 4356.00 4031.50 68.74 12.00  56.42 2590.09
   05:03:46.285.19-Jul-2021 4356.00 4036.62 68.74 12.00  56.62 2590.09
   05:03:46.486.19-Jul-2021 4356.00 4043.67 68.75 12.00  56.82 2590.09
   05:03:46.686.19-Jul-2021 4356.00 4050.05 68.75 12.00  57.02 2590.09
   05:03:46.886.19-Jul-2021 4356.00 4050.05 68.75 12.00  57.22 2590.09
   05:03:47.086.19-Jul-2021 4356.00 4061.90 68.75 12.00  57.42 2590.09
   05:03:47.286.19-Jul-2021 4356.00 4067.12 68.75 12.00  57.62 2590.09
   05:03:47.486.19-Jul-2021 4356.00 4071.97 68.75 12.00  57.82 2590.09
   05:03:47.686.19-Jul-2021 4356.00 4076.43 68.75 12.00  58.02 2590.09
   05:03:47.886.19-Jul-2021 4356.00 4076.43 68.75 12.00  58.22 2590.09
   05:03:48.086.19-Jul-2021 4356.00 4084.47 68.76 12.00  58.42 2590.09
   05:03:48.286.19-Jul-2021 4356.00 4088.09 68.76 12.00  58.62 2590.09
   05:03:48.486.19-Jul-2021 4356.00 4091.28 68.76 12.00  58.82 2590.09
   05:03:48.686.19-Jul-2021 4356.00 4094.41 68.76 12.00  59.02 2590.09
   05:03:48.886.19-Jul-2021 4356.00 4094.41 68.76 12.00  59.22 2590.09
   05:03:49.087.19-Jul-2021 4356.00 4096.58 68.76 12.00  59.42 2590.09
   05:03:49.287.19-Jul-2021 4356.00 4099.11 68.76 12.00  59.62 2590.09
   05:03:49.487.19-Jul-2021 4356.00 4101.96 68.76 12.00  59.82 2590.09
   05:03:49.687.19-Jul-2021 4356.00 4104.30 68.76 12.00  60.02 2590.09
   05:03:49.887.19-Jul-2021 4356.00 4104.30 68.76 12.00  60.22 2590.09
   05:03:50.087.19-Jul-2021 4356.00 4109.13 68.77 12.00  60.42 2590.09
   05:03:50.287.19-Jul-2021 4356.00 4111.26 68.77 12.00  60.62 2590.09
   05:03:50.487.19-Jul-2021 4356.00 4113.22 68.77 12.00  60.82 2590.09
   05:03:50.687.19-Jul-2021 4356.00 4115.09 68.77 12.00  61.02 2590.09
   05:03:50.887.19-Jul-2021 4356.00 4115.09 68.77 12.00  61.22 2590.09
   05:03:51.087.19-Jul-2021 4356.00 4118.53 68.77 12.00  61.42 2590.09
   05:03:51.287.19-Jul-2021 4356.00 4118.57 68.77 12.00  61.62 2590.09
   05:03:51.487.19-Jul-2021 4356.00 4118.77 68.77 12.00  61.82 2590.09
   05:03:51.687.19-Jul-2021 4356.00 4119.64 68.77 12.00  62.02 2590.09
   05:03:51.888.19-Jul-2021 4356.00 4119.64 68.77 12.00  62.22 2590.09
   05:03:52.088.19-Jul-2021 4356.00 4119.54 68.77 12.00  62.42 2590.09
   05:03:52.288.19-Jul-2021 4356.00 4120.38 68.77 12.00  62.62 2590.09
   05:03:52.488.19-Jul-2021 4356.00 4121.95 68.78 12.00  62.82 2590.09
   05:03:52.688.19-Jul-2021 4356.00 4121.62 68.78 12.00  63.02 2590.09
   05:03:52.888.19-Jul-2021 4356.00 4121.62 68.78 12.00  63.22 2590.09
   05:03:53.088.19-Jul-2021 4356.00 4122.62 68.78 12.00  63.42 2590.09
   05:03:53.288.19-Jul-2021 4356.00 4123.97 68.78 12.00  63.62 2590.09
   05:03:53.488.19-Jul-2021 4356.00 4125.30 68.78 12.00  63.82 2590.09
   05:03:53.688.19-Jul-2021 4356.00 4127.13 68.78 12.00  64.02 2590.09
   05:03:53.888.19-Jul-2021 4356.00 4127.13 68.78 12.00  64.22 2590.09
   05:03:54.088.19-Jul-2021 4356.00 4125.98 68.78 12.00  64.42 2590.09
   05:03:54.288.19-Jul-2021 4356.00 4127.31 68.78 12.00  64.62 2590.09
   05:03:54.489.19-Jul-2021 4356.00 4124.95 68.78 12.00  64.82 2590.09
   05:03:54.689.19-Jul-2021 4356.00 4125.21 68.78 12.00  65.02 2590.09
   05:03:54.889.19-Jul-2021 4356.00 4125.21 68.78 12.00  65.22 2590.09
   05:03:55.089.19-Jul-2021 4356.00 4128.94 68.78 12.00  65.42 2590.09
   05:03:55.289.19-Jul-2021 4356.00 4130.42 68.78 12.00  65.62 2590.09
   05:03:55.489.19-Jul-2021 4356.00 4132.01 68.78 12.00  65.82 2590.09
   05:03:55.689.19-Jul-2021 4356.00 4133.64 68.78 12.00  66.02 2590.09
   05:03:55.889.19-Jul-2021 4356.00 4133.64 68.78 12.00  66.22 2590.09
   05:03:56.089.19-Jul-2021 4356.00 4139.73 68.78 12.00  66.42 2590.09
   05:03:56.289.19-Jul-2021 4356.00 4140.73 68.79 12.00  66.62 2590.09
   05:03:56.489.19-Jul-2021 4356.00 4141.35 68.79 12.00  66.82 2590.09
   05:03:56.689.19-Jul-2021 4356.00 4142.01 68.79 12.00  67.02 2590.09
   05:03:56.889.19-Jul-2021 4356.00 4142.01 68.79 12.00  67.22 2590.09
   05:03:57.089.19-Jul-2021 4356.00 4141.93 68.79 12.00  67.42 2590.09
   05:03:57.290.19-Jul-2021 4356.00 4141.29 68.79 12.00  67.62 2590.09
