~Version Information
 VERS.                  2.0:   CWLS log ASCII Standard -VERSION 2.0
 WRAP.                   NO:   One line per depth step
~Well Information Block
#MNEM.UNIT     VALUE/NAME     DESCRIPTION
#---------     -----------    ---------------------------
 STRT.S             04:43:18 19-Jul-21: START TIME 04:43:18 19-Jul-21
 STOP.S             04:49:54 19-Jul-21: STOP TIME  04:49:54 19-Jul-21
 STEP.S                   0.00: STEP TIME
 NULL.                 -999.25: NULL VALUE
 MDS .        Operator Entered:  MAG DATA SOURCE
 PDAT.          Mean Sea Level:  PERMANENT DATUM
 UNIT.                     N/A:  LOGGING EQUIPMENT ID
 DCON.         Sperry Drilling:  DIRECTNL CONTR
 DOE .                     N/A:  DOE NUMBER
 RIG .              West Azeri:  RIG NAME
 JOBN.        AZ-XX-0906997913:  JOB TICKET NUMB
 WELL.                     C41:  WELL NAME
 MWDS.                    Baku:  MWD SHOP
 SRVC.          Turan Drilling:  CONTRACTOR
 FLD .                     ACG:  FIELD NAME
 CTRY.              Azerbaijan:  COUNTRY NAME
 PROV.                    Baku:  PROVINCE
 STAT.                    Baku:  STATE NAME
 REGN.                   EESSA:  REGION
 BASE.              Azerbaijan:  LOGGING EQUIPMENT BASE LOCATION
 UWI .                     N/A:  UNIQUE WELL IDENTIFIER
 API .                     N/A:  API NUMBER
 COMP.     BP Exploration (Caspian Sea) Ltd.:  COMPANY
 WTYP.                Deviated:  WELL TYPE
 SON .        AZ-XX-0906997913:  JOB NUMBER
 FTOP.          Formation Tops:  FORM TOPS DESC
 ILTD.               Lithology:  INTERP LTH DESC
 SVYD.                  Survey:  SURVEY DESC
 DMOD.             Drill Model:  DRILL MOD DESC
 HPTY.       Minimum Curvature:  HOLE POS TYPE
 NREF.                    Grid:  NORTH REFERENCE
 SPUD.               16-May-21:  SPUD DATE
 DATE.      21.11.28 17-May-21:  END TIME
 STIM.      21.11.28 17-May-21:  START TIME
 DMF .             Drill Floor:  DRILL MEAS FROM
 DFST.                        :  DIST FSL TEXT
 DFWT.                        :  DIST FWL TEXT
 CNTY.                        :  COUNTY
 LOC .                        :  LOCATION
 LMF .             Drill Floor:  LOG MEASURED FROM
 AGAP.m                  43.42:  AIR GAP
 VSNS.m                  -2.16:  VERT SEC N/S
 VSEW.m                  -6.24:  VERT SEC E/W
 APD .m                  43.42:  DEPTH ABOVE PD
 WDMS.m                 118.27:  WD ELEV
 EGL .m                   0.00:  GROUND ELEVATION
 EPD .m                   0.00:  ELEVATION
 AZTC.deg                 6.29:  AZM TOTAL CORR
 GRDC.deg                 0.18:  GRID CORRECTION
 MDEC.deg                 6.47:  MAGNETIC DECL
 MDIP.deg                59.54:  MAGNETIC DIP
 MFLD.nT              50337.00:  MAGNETIC FIELD
 GVFD.g                   1.00:  GRAVITY FIELD
 VSDR.deg               226.99:  VERT SEC DIRECT
 TDD .m                   0.00:  TOTAL DEPTH (DRILLER)
 SDEP.m                 448.00:  START DEPTH
 DFSL.m                   0.00:  DISTANCE FSL
 DFWL.m                   0.00:  DISTANCE FWL
 UTMY.m             4435799.96:  UTM Y
 UTMX.m              526265.35:  UTM X
 WHEW.m                  -6.24:  WELL HEAD E/W
 WHNS.m                  -2.16:  WELL HEAD N/S
 LONG.deg                51.31:  LONGITUDE
 LATI.deg                40.06:  LATITUDE
 TVDS.m                  43.42:  TVDSS CORRECTN
 EKB .m                  43.42:  KB ELEVATION
 EDF .m                  43.42:  DF ELEVATION
 TDL .m                 288.00:  TOTAL DEPTH (LOGGER)
 MAGU.                 1851863:  MAGUTM CHECKSUM
 VSC .                       0:  VS TO CLOSURE
~Parameter Information Block
#MNEM.UNIT       Value        Description
#---------     -----------    ---------------------------
 AV  .mps                 0.40:  Ann Velocity 
 AVMX.mps                 0.63:  Max Ann Veloc 
 AZIF.deg               158.76:  Azm, Final 
 BHAT.        Rotary Steerable:  BHA Type 
 BROT.°/30m               0.68:  Build Rotating 
 BS  .in                  8.50:  Bit Size 
 BSZ .in                  8.50:  Bit Size 
 BTPL.psig              712.00:  Bit Press Loss 
 CABU.                      No:  Customer Abuse 
 COMM.                     ”™f:  Run Comments 1 
 TCS .hr                 90.66:  Time Ciculation Ended 
 CV  .mps                 2.02:  Crit Velocity 
 CVMX.mps                 2.14:  Max Crit Veloc 
 DD1 .            Aziz Aliyevu:  Direct Drillr 1 
 DD2 .             Samir Abbas:  Direct Drillr 2 
 DD3 .           Teymur Aliyev:  Direct Drillr 3 
 DDSV.                 iCruise:  DD Service 
 DEFF.%                  85.10:  % Det Eff 
 DLRX.°/30m               1.05:  Dogleg Rot Max 
 DLSO.°/30m               1.01:  Dogleg Oriented 
 DLSX.°/30m               1.05:  Dogleg Str Max 
 DRET.      07.45.00 18-Jul-21:  Drill End Time 
 DRST.      15.00.00 16-Jul-21:  Drill Start Tim 
 DTIM.hr                 23.46:  Time Drilling 
 EDEP.m                4603.00:  End Depth 
 ENG1.       Seymur Iskandarov:  Engineer 1 
 ENG2.         Yevgeniy Ulikov:  Engineer 2 
 ENG3.         Bahruz Mehdiyev:  Engineer 3 
 ENG4.         Elchin Mammadov:  Engineer 4 
 ETIM.      14.00.00 23-Jul-21:  End Time 
 FLOI.gpm               500.00:  Flow In 
 FLON.gpm               450.00:  Flow In Min 
 FLOS.cptm                0.00:  Fluid Loss 
 FLOX.gpm               560.00:  Flow In Max 
 DFT .        Mineral Oil Base:  Mud Type 
 FTRO.       Formation Presure:  FTWD Run Obj 
 HFLO.                      No:  High Flow 
 HPRE.                      No:  High Pressure 
 HTEM.                      No:  High Temp 
 HYDO.m                   1.80:  Hydro Offset 
 IFIN.deg                40.22:  Inc, Final 
 IMAX.deg                40.54:  Inc Max 
 IMIN.deg                39.44:  Inc Min 
 IMND.m                4361.17:  Inc Min Depth 
 IMXD.m                4417.92:  Inc Max Depth 
 JARR.                      No:  Jarring 
 LETM.      07.45.00 18-Jul-21:  Log End Time 
 LOST.hr                    16:  Lost Rig Time 
 LSTM.      15.00.00 16-Jul-21:  Log Start Time 
 MDCL.ppm             36500.00:  Mud Chlorides 
 MDES.     Inversion Oil/Synthetic:  Mud Desc 
 DFD .sg                  1.42:  Mud Density 
 MDMN.sg                  1.42:  Dens Mud Min 
 MDMX.sg                  1.43:  Dens Mud Max 
 MOIL.                      56:  Run Mud Oil % 
 MOWR.                   71:29:  Run Mud OWR 
 MSND.                     0.5:  Run Mud Sand % 
 MSOL.                      21:  Run Mud Solids% 
 DFV .spqt               78.00:  Mud Viscosity 
 MWOD.in                  6.75:  MWD Tool OD 
 MWSI.                     Yes:  Serv Intrp, MWD 
 OTIM.hr                200.73:  Time Operating 
 PCON.           Look Like New:  Pad Condition 
 PMAX.psia            11069.93:  Press Op, Max 
 PV  .cP                 32.00:  Mud PV 
 RUN .                     700:  Run Number 
 ROPA.m/hr               10.00:  ROP Avg 
 ROPN.m/hr                9.00:  ROP Min 
 ROPX.m/hr               16.00:  ROP Max 
 RPMA.rpm               116.00:  RPM Surface Avg 
 RPMN.rpm                80.00:  RPM Surface Min 
 RPMX.rpm               120.00:  RPM Surface Max 
 RRUN.                    L605:  Rig Run Number 
 RTIM.hr                 45.00:  Time Reaming 
 SAZI.deg               159.86:  Azm, Start 
 SDEP.m                4315.00:  Start Depth 
 SIDD.                      No:  Serv Intrp, DD 
 SINC.deg                39.86:  Inc, Start 
 SPPA.psig             3300.00:  SPP Avg 
 SPPN.psig             3040.00:  SPP Min 
 SPPX.psig             3645.00:  SPP Max 
 STIM.      01.00.00 15-Jul-21:  Start Time 
 SVCS.                 DD, MWD:  Services 
 SVER.                    9.20:  Sperry Version 
 TDAT.m                 288.00:  Tot Depth Attmp 
 TDDF.                      No:  Trip for DD 
 TDLG.m                 288.00:  Tot Depth Loggd 
 TFF .                      No:  Trip for Fail 
 TQAA.f-kp               19.00:  Torque Abs Avg 
 TQAN.f-kp               18.00:  Torque Abs Min 
 TQAX.f-kp               21.00:  Torque Abs Max 
 TRRT.°/30m               0.45:  Turn Rotating 
 MRT .                    HCIM:  Maximum Recorded Temperature 
 TTMX.degC               88.24:  Max Tool Temp 
 VS01.                90649157:  Virtual Str1 SN 
 VS02.                90652483:  Virtual Str2 SN 
 VS03.                11671987:  Virtual Str3 SN 
 VS04.                90643411:  Virtual Str4 SN 
 VS05.                90652478:  Virtual Str5 SN 
 VS06.                    6111:  Virtual Str6 SN 
 WBMN.klb                 9.50:  WOB Min 
 WITN.        Grigoriy Sarayev:  Customer Rep 
 WITN.          Rufat Huseynov:  Customer Rep 2 
 WOBA.klb                11.00:  WOB Avg 
 WOBX.klb                15.00:  WOB Max 
 YP  .lhf2               28.00:  Yield Point 
~Curve Information Block
#MNEM.UNIT                 API CODE     Curve Description
#---------               -----------    ---------------------------
 TIME.HHMMSS            00 000 000 000:  GT Time & Date
 GTDEPTH.m              00 000 000 000:  GT Depth
 GTPQH.psia             00 000 000 000:  GT HR Quartz Pressure
 GTTQ.degC              00 000 000 000:  GT Quartz Temperature
 GTTN.NONE              00 000 000 000:  GT Test Number
 GTET.sec               00 000 000 000:  GT Elapsed Test Time
 GTTVD.m                00 000 000 000:  GT True Vertical Depth
#Other Information
#
#WARRANTY: Halliburton will use its best efforts to furnish customers with 
#accurate information and interpretations that are part of, and incident to, the services 
#provided.  However, Halliburton cannot and does not warrant the accuracy 
#or correctness of such information and interpretations.  Under no circumstances should any 
#such information or interpretation be relied upon as the sole basis for any drilling, 
#completion, production, or financial decision or any procedure involving any risk to the 
#safety of any drilling venture, drilling rig or its crew or any other third party.  The 
#Customer has full responsibility for all drilling, completion and production operation.  
#Halliburton makes no representations or warranties, either expressed or 
#implied, including, but not limited to, the implied warranties of merchantability or fitness 
#for a particular purpose, with respect to the services rendered.  In no event will 
#Halliburton be liable for failure to obtain any particular results or for 
#any damages, including, but not limited to, indirect, special or consequential damages, 
#resulting from the use of any information or interpretation provided by Halliburton.
#
~A           TIME           GTDEPTH  GTPQH  GTTQ  GTTN   GTET   GTTVD  
# ...
   04:45:33.883.19-Jul-2021 4355.50 1480.61 68.66 11.00 135.65 2589.71
   04:45:34.083.19-Jul-2021 4355.50 1481.98 68.66 11.00 135.85 2589.71
   04:45:34.283.19-Jul-2021 4355.50 1483.24 68.66 11.00 136.05 2589.71
   04:45:34.483.19-Jul-2021 4355.50 1483.24 68.66 11.00 136.25 2589.71
   04:45:34.684.19-Jul-2021 4355.50 1485.54 68.66 11.00 136.45 2589.71
   04:45:34.884.19-Jul-2021 4355.50 1486.78 68.66 11.00 136.65 2589.71
   04:45:35.084.19-Jul-2021 4355.50 1487.82 68.66 11.00 136.85 2589.71
   04:45:35.284.19-Jul-2021 4355.50 1486.88 68.66 11.00 137.05 2589.71
   04:45:35.484.19-Jul-2021 4355.50 1486.88 68.66 11.00 137.25 2589.71
   04:45:35.684.19-Jul-2021 4355.50 1488.73 68.66 11.00 137.45 2589.71
   04:45:35.884.19-Jul-2021 4355.50 1490.66 68.66 11.00 137.65 2589.71
   04:45:36.084.19-Jul-2021 4355.50 1491.93 68.66 11.00 137.85 2589.71
   04:45:36.284.19-Jul-2021 4355.50 1493.40 68.66 11.00 138.05 2589.71
   04:45:36.484.19-Jul-2021 4355.50 1493.40 68.66 11.00 138.25 2589.71
   04:45:36.684.19-Jul-2021 4355.50 1496.06 68.66 11.00 138.45 2589.71
   04:45:36.884.19-Jul-2021 4355.50 1497.29 68.66 11.00 138.65 2589.71
   04:45:37.084.19-Jul-2021 4355.50 1497.29 68.66 11.00 138.85 2589.71
   04:45:37.285.19-Jul-2021 4355.50 1499.73 68.66 11.00 139.05 2589.71
   04:45:37.485.19-Jul-2021 4355.50 1499.73 68.66 11.00 139.25 2589.71
   04:45:37.685.19-Jul-2021 4355.50 1501.75 68.66 11.00 139.45 2589.71
   04:45:37.885.19-Jul-2021 4355.50 1500.30 68.66 11.00 139.65 2589.71
   04:45:38.085.19-Jul-2021 4355.50 1501.47 68.66 11.00 139.85 2589.71
   04:45:38.285.19-Jul-2021 4355.50 1502.69 68.66 11.00 140.05 2589.71
   04:45:38.485.19-Jul-2021 4355.50 1502.69 68.66 11.00 140.25 2589.71
   04:45:38.685.19-Jul-2021 4355.50 1504.24 68.66 11.00 140.45 2589.71
   04:45:38.885.19-Jul-2021 4355.50 1506.78 68.66 11.00 140.65 2589.71
   04:45:39.085.19-Jul-2021 4355.50 1508.89 68.66 11.00 140.85 2589.71
   04:45:39.285.19-Jul-2021 4355.50 1509.90 68.66 11.00 141.05 2589.71
   04:45:39.485.19-Jul-2021 4355.50 1509.90 68.66 11.00 141.25 2589.71
   04:45:39.685.19-Jul-2021 4355.50 1511.41 68.66 11.00 141.45 2589.71
   04:45:39.885.19-Jul-2021 4355.50 1512.98 68.66 11.00 141.65 2589.71
   04:45:40.086.19-Jul-2021 4355.50 1513.73 68.66 11.00 141.85 2589.71
   04:45:40.286.19-Jul-2021 4355.50 1514.73 68.66 11.00 142.05 2589.71
   04:45:40.486.19-Jul-2021 4355.50 1514.73 68.66 11.00 142.25 2589.71
   04:45:40.686.19-Jul-2021 4355.50 1518.68 68.66 11.00 142.45 2589.71
   04:45:40.886.19-Jul-2021 4355.50 1519.09 68.66 11.00 142.65 2589.71
   04:45:41.086.19-Jul-2021 4355.50 1519.96 68.66 11.00 142.85 2589.71
   04:45:41.286.19-Jul-2021 4355.50 1521.74 68.66 11.00 143.05 2589.71
   04:45:41.486.19-Jul-2021 4355.50 1521.74 68.66 11.00 143.25 2589.71
   04:45:41.686.19-Jul-2021 4355.50 1525.76 68.66 11.00 143.45 2589.71
   04:45:41.886.19-Jul-2021 4355.50 1527.24 68.66 11.00 143.65 2589.71
   04:45:42.086.19-Jul-2021 4355.50 1528.79 68.66 11.00 143.85 2589.71
   04:45:42.286.19-Jul-2021 4355.50 1530.18 68.66 11.00 144.05 2589.71
   04:45:42.486.19-Jul-2021 4355.50 1530.18 68.66 11.00 144.25 2589.71
   04:45:42.687.19-Jul-2021 4355.50 1532.33 68.66 11.00 144.45 2589.71
   04:45:42.887.19-Jul-2021 4355.50 1515.10 68.66 11.00 144.65 2589.71
   04:45:43.087.19-Jul-2021 4355.50 1494.38 68.66 11.00 144.85 2589.71
   04:45:43.287.19-Jul-2021 4355.50 1483.48 68.66 11.00 145.05 2589.71
   04:45:43.487.19-Jul-2021 4355.50 1483.48 68.66 11.00 145.25 2589.71
   04:45:43.687.19-Jul-2021 4355.50 1204.46 68.66 11.00 145.45 2589.71
   04:45:43.887.19-Jul-2021 4355.50 1044.56 68.66 11.00 145.65 2589.71
   04:45:44.087.19-Jul-2021 4355.50  840.99 68.67 11.00 145.85 2589.71
   04:45:44.287.19-Jul-2021 4355.50  749.66 68.67 11.00 146.05 2589.71
   04:45:44.487.19-Jul-2021 4355.50  749.66 68.67 11.00 146.25 2589.71
   04:45:44.687.19-Jul-2021 4355.50  683.51 68.66 11.00 146.45 2589.71
   04:45:44.887.19-Jul-2021 4355.50  663.72 68.66 11.00 146.65 2589.71
   04:45:45.087.19-Jul-2021 4355.50  650.38 68.66 11.00 146.85 2589.71
   04:45:45.287.19-Jul-2021 4355.50  640.49 68.66 11.00 147.05 2589.71
   04:45:45.488.19-Jul-2021 4355.50  640.49 68.66 11.00 147.25 2589.71
   04:45:45.688.19-Jul-2021 4355.50  628.96 68.66 11.00 147.45 2589.71
   04:45:45.888.19-Jul-2021 4355.50  624.53 68.66 11.00 147.65 2589.71
   04:45:46.088.19-Jul-2021 4355.50  620.00 68.66 11.00 147.85 2589.71
   04:45:46.288.19-Jul-2021 4355.50  617.36 68.66 11.00 148.05 2589.71
   04:45:46.488.19-Jul-2021 4355.50  617.36 68.66 11.00 148.25 2589.71
   04:45:46.688.19-Jul-2021 4355.50  614.27 68.66 11.00 148.45 2589.71
   04:45:46.888.19-Jul-2021 4355.50  616.22 68.66 11.00 148.65 2589.71
   04:45:47.088.19-Jul-2021 4355.50  611.03 68.66 11.00 148.85 2589.71
   04:45:47.288.19-Jul-2021 4355.50  613.16 68.66 11.00 149.05 2589.71
   04:45:47.488.19-Jul-2021 4355.50  613.16 68.66 11.00 149.25 2589.71
   04:45:47.688.19-Jul-2021 4355.50  615.07 68.66 11.00 149.46 2589.71
   04:45:47.888.19-Jul-2021 4355.50  613.34 68.66 11.00 149.66 2589.71
   04:45:48.088.19-Jul-2021 4355.50  613.57 68.66 11.00 149.86 2589.71
   04:45:48.289.19-Jul-2021 4355.50  615.01 68.66 11.00 150.06 2589.71
   04:45:48.489.19-Jul-2021 4355.50  615.01 68.66 11.00 150.26 2589.71
   04:45:48.689.19-Jul-2021 4355.50  615.26 68.66 11.00 150.46 2589.71
   04:45:48.889.19-Jul-2021 4355.50  613.21 68.66 11.00 150.66 2589.71
   04:45:49.089.19-Jul-2021 4355.50  612.90 68.66 11.00 150.86 2589.71
   04:45:49.289.19-Jul-2021 4355.50  613.42 68.66 11.00 151.06 2589.71
   04:45:49.489.19-Jul-2021 4355.50  613.42 68.66 11.00 151.26 2589.71
   04:45:49.689.19-Jul-2021 4355.50  609.05 68.66 11.00 151.46 2589.71
   04:45:49.889.19-Jul-2021 4355.50  611.17 68.65 11.00 151.66 2589.71
   04:45:50.089.19-Jul-2021 4355.50  611.93 68.65 11.00 151.86 2589.71
   04:45:50.289.19-Jul-2021 4355.50  613.46 68.65 11.00 152.06 2589.71
   04:45:50.489.19-Jul-2021 4355.50  613.46 68.65 11.00 152.26 2589.71
   04:45:50.689.19-Jul-2021 4355.50  616.16 68.65 11.00 152.46 2589.71
   04:45:50.890.19-Jul-2021 4355.50  617.34 68.65 11.00 152.66 2589.71
   04:45:51.090.19-Jul-2021 4355.50  617.61 68.65 11.00 152.86 2589.71
   04:45:51.290.19-Jul-2021 4355.50  617.61 68.65 11.00 153.06 2589.71
   04:45:51.490.19-Jul-2021 4355.50  617.61 68.65 11.00 153.26 2589.71
   04:45:51.690.19-Jul-2021 4355.50  618.49 68.65 11.00 153.46 2589.71
   04:45:51.890.19-Jul-2021 4355.50  618.55 68.65 11.00 153.66 2589.71
   04:45:52.090.19-Jul-2021 4355.50  616.60 68.65 11.00 153.86 2589.71
   04:45:52.290.19-Jul-2021 4355.50  613.66 68.65 11.00 154.06 2589.71
   04:45:52.490.19-Jul-2021 4355.50  613.66 68.65 11.00 154.26 2589.71
   04:45:52.690.19-Jul-2021 4355.50  613.39 68.65 11.00 154.46 2589.71
   04:45:52.890.19-Jul-2021 4355.50  613.30 68.65 11.00 154.66 2589.71
   04:45:53.090.19-Jul-2021 4355.50  614.25 68.65 11.00 154.86 2589.71
   04:45:53.290.19-Jul-2021 4355.50  615.93 68.65 11.00 155.06 2589.71
   04:45:53.490.19-Jul-2021 4355.50  615.93 68.65 11.00 155.26 2589.71
   04:45:53.691.19-Jul-2021 4355.50  615.93 68.65 11.00 155.46 2589.71
   04:45:53.891.19-Jul-2021 4355.50  622.76 68.65 11.00 155.66 2589.71
   04:45:54.091.19-Jul-2021 4355.50  624.37 68.65 11.00 155.86 2589.71
   04:45:54.291.19-Jul-2021 4355.50  625.95 68.65 11.00 156.06 2589.71
   04:45:54.491.19-Jul-2021 4355.50  625.95 68.65 11.00 156.26 2589.71
   04:45:54.691.19-Jul-2021 4355.50  630.26 68.65 11.00 156.46 2589.71
   04:45:54.891.19-Jul-2021 4355.50  631.73 68.65 11.00 156.66 2589.71
   04:45:55.091.19-Jul-2021 4355.50  632.12 68.65 11.00 156.86 2589.71
   04:45:55.291.19-Jul-2021 4355.50  634.07 68.65 11.00 157.06 2589.71
   04:45:55.491.19-Jul-2021 4355.50  634.07 68.65 11.00 157.26 2589.71
   04:45:55.691.19-Jul-2021 4355.50  637.50 68.65 11.00 157.46 2589.71
   04:45:55.891.19-Jul-2021 4355.50  638.50 68.65 11.00 157.66 2589.71
   04:45:56.091.19-Jul-2021 4355.50  640.07 68.65 11.00 157.86 2589.71
   04:45:56.292.19-Jul-2021 4355.50  639.71 68.65 11.00 158.06 2589.71
