~Version Information
 VERS.                  2.0:   CWLS log ASCII Standard -VERSION 2.0
 WRAP.                   NO:   One line per depth step
~Well Information Block
#MNEM.UNIT     VALUE/NAME     DESCRIPTION
#---------     -----------    ---------------------------
 STRT.S             12:46:21 18-Jul-21: START TIME 12:46:21 18-Jul-21
 STOP.S             12:52:54 18-Jul-21: STOP TIME  12:52:54 18-Jul-21
 STEP.S                   0.00: STEP TIME
 NULL.                 -999.25: NULL VALUE
 MDS .        Operator Entered:  MAG DATA SOURCE
 PDAT.          Mean Sea Level:  PERMANENT DATUM
 UNIT.                     N/A:  LOGGING EQUIPMENT ID
 DCON.         Sperry Drilling:  DIRECTNL CONTR
 DOE .                     N/A:  DOE NUMBER
 RIG .              West Azeri:  RIG NAME
 JOBN.        AZ-XX-0906997913:  JOB TICKET NUMB
 WELL.                     C41:  WELL NAME
 MWDS.                    Baku:  MWD SHOP
 SRVC.          Turan Drilling:  CONTRACTOR
 FLD .                     ACG:  FIELD NAME
 CTRY.              Azerbaijan:  COUNTRY NAME
 PROV.                    Baku:  PROVINCE
 STAT.                    Baku:  STATE NAME
 REGN.                   EESSA:  REGION
 BASE.              Azerbaijan:  LOGGING EQUIPMENT BASE LOCATION
 UWI .                     N/A:  UNIQUE WELL IDENTIFIER
 API .                     N/A:  API NUMBER
 COMP.     BP Exploration (Caspian Sea) Ltd.:  COMPANY
 WTYP.                Deviated:  WELL TYPE
 SON .        AZ-XX-0906997913:  JOB NUMBER
 FTOP.          Formation Tops:  FORM TOPS DESC
 ILTD.               Lithology:  INTERP LTH DESC
 SVYD.                  Survey:  SURVEY DESC
 DMOD.             Drill Model:  DRILL MOD DESC
 HPTY.       Minimum Curvature:  HOLE POS TYPE
 NREF.                    Grid:  NORTH REFERENCE
 SPUD.               16-May-21:  SPUD DATE
 DATE.      21.11.28 17-May-21:  END TIME
 STIM.      21.11.28 17-May-21:  START TIME
 DMF .             Drill Floor:  DRILL MEAS FROM
 DFST.                        :  DIST FSL TEXT
 DFWT.                        :  DIST FWL TEXT
 CNTY.                        :  COUNTY
 LOC .                        :  LOCATION
 LMF .             Drill Floor:  LOG MEASURED FROM
 AGAP.m                  43.42:  AIR GAP
 VSNS.m                  -2.16:  VERT SEC N/S
 VSEW.m                  -6.24:  VERT SEC E/W
 APD .m                  43.42:  DEPTH ABOVE PD
 WDMS.m                 118.27:  WD ELEV
 EGL .m                   0.00:  GROUND ELEVATION
 EPD .m                   0.00:  ELEVATION
 AZTC.deg                 6.29:  AZM TOTAL CORR
 GRDC.deg                 0.18:  GRID CORRECTION
 MDEC.deg                 6.47:  MAGNETIC DECL
 MDIP.deg                59.54:  MAGNETIC DIP
 MFLD.nT              50337.00:  MAGNETIC FIELD
 GVFD.g                   1.00:  GRAVITY FIELD
 VSDR.deg               226.99:  VERT SEC DIRECT
 TDD .m                   0.00:  TOTAL DEPTH (DRILLER)
 SDEP.m                 448.00:  START DEPTH
 DFSL.m                   0.00:  DISTANCE FSL
 DFWL.m                   0.00:  DISTANCE FWL
 UTMY.m             4435799.96:  UTM Y
 UTMX.m              526265.35:  UTM X
 WHEW.m                  -6.24:  WELL HEAD E/W
 WHNS.m                  -2.16:  WELL HEAD N/S
 LONG.deg                51.31:  LONGITUDE
 LATI.deg                40.06:  LATITUDE
 TVDS.m                  43.42:  TVDSS CORRECTN
 EKB .m                  43.42:  KB ELEVATION
 EDF .m                  43.42:  DF ELEVATION
 TDL .m                 288.00:  TOTAL DEPTH (LOGGER)
 MAGU.                 1851863:  MAGUTM CHECKSUM
 VSC .                       0:  VS TO CLOSURE
~Parameter Information Block
#MNEM.UNIT       Value        Description
#---------     -----------    ---------------------------
 AV  .mps                 0.40:  Ann Velocity 
 AVMX.mps                 0.63:  Max Ann Veloc 
 AZIF.deg               158.76:  Azm, Final 
 BHAT.        Rotary Steerable:  BHA Type 
 BROT.°/30m               0.68:  Build Rotating 
 BS  .in                  8.50:  Bit Size 
 BSZ .in                  8.50:  Bit Size 
 BTPL.psig              712.00:  Bit Press Loss 
 CABU.                      No:  Customer Abuse 
 COMM.                     üëZ:  Run Comments 1 
 TCS .hr                 90.66:  Time Ciculation Ended 
 CV  .mps                 2.02:  Crit Velocity 
 CVMX.mps                 2.14:  Max Crit Veloc 
 DD1 .            Aziz Aliyevu:  Direct Drillr 1 
 DD2 .             Samir Abbas:  Direct Drillr 2 
 DD3 .           Teymur Aliyev:  Direct Drillr 3 
 DDSV.                 iCruise:  DD Service 
 DEFF.%                  85.10:  % Det Eff 
 DLRX.°/30m               1.05:  Dogleg Rot Max 
 DLSO.°/30m               1.01:  Dogleg Oriented 
 DLSX.°/30m               1.05:  Dogleg Str Max 
 DRET.      07.45.00 18-Jul-21:  Drill End Time 
 DRST.      15.00.00 16-Jul-21:  Drill Start Tim 
 DTIM.hr                 23.46:  Time Drilling 
 EDEP.m                4603.00:  End Depth 
 ENG1.       Seymur Iskandarov:  Engineer 1 
 ENG2.         Yevgeniy Ulikov:  Engineer 2 
 ENG3.         Bahruz Mehdiyev:  Engineer 3 
 ENG4.         Elchin Mammadov:  Engineer 4 
 ETIM.      14.00.00 23-Jul-21:  End Time 
 FLOI.gpm               500.00:  Flow In 
 FLON.gpm               450.00:  Flow In Min 
 FLOS.cptm                0.00:  Fluid Loss 
 FLOX.gpm               560.00:  Flow In Max 
 DFT .        Mineral Oil Base:  Mud Type 
 FTRO.       Formation Presure:  FTWD Run Obj 
 HFLO.                      No:  High Flow 
 HPRE.                      No:  High Pressure 
 HTEM.                      No:  High Temp 
 HYDO.m                   1.80:  Hydro Offset 
 IFIN.deg                40.22:  Inc, Final 
 IMAX.deg                40.54:  Inc Max 
 IMIN.deg                39.44:  Inc Min 
 IMND.m                4361.17:  Inc Min Depth 
 IMXD.m                4417.92:  Inc Max Depth 
 JARR.                      No:  Jarring 
 LETM.      07.45.00 18-Jul-21:  Log End Time 
 LOST.hr                    16:  Lost Rig Time 
 LSTM.      15.00.00 16-Jul-21:  Log Start Time 
 MDCL.ppm             36500.00:  Mud Chlorides 
 MDES.     Inversion Oil/Synthetic:  Mud Desc 
 DFD .sg                  1.42:  Mud Density 
 MDMN.sg                  1.42:  Dens Mud Min 
 MDMX.sg                  1.43:  Dens Mud Max 
 MOIL.                      56:  Run Mud Oil % 
 MOWR.                   71:29:  Run Mud OWR 
 MSND.                     0.5:  Run Mud Sand % 
 MSOL.                      21:  Run Mud Solids% 
 DFV .spqt               78.00:  Mud Viscosity 
 MWOD.in                  6.75:  MWD Tool OD 
 MWSI.                     Yes:  Serv Intrp, MWD 
 OTIM.hr                200.73:  Time Operating 
 PCON.           Look Like New:  Pad Condition 
 PMAX.psia            11069.93:  Press Op, Max 
 PV  .cP                 32.00:  Mud PV 
 RUN .                     700:  Run Number 
 ROPA.m/hr               10.00:  ROP Avg 
 ROPN.m/hr                9.00:  ROP Min 
 ROPX.m/hr               16.00:  ROP Max 
 RPMA.rpm               116.00:  RPM Surface Avg 
 RPMN.rpm                80.00:  RPM Surface Min 
 RPMX.rpm               120.00:  RPM Surface Max 
 RRUN.                    L605:  Rig Run Number 
 RTIM.hr                 45.00:  Time Reaming 
 SAZI.deg               159.86:  Azm, Start 
 SDEP.m                4315.00:  Start Depth 
 SIDD.                      No:  Serv Intrp, DD 
 SINC.deg                39.86:  Inc, Start 
 SPPA.psig             3300.00:  SPP Avg 
 SPPN.psig             3040.00:  SPP Min 
 SPPX.psig             3645.00:  SPP Max 
 STIM.      01.00.00 15-Jul-21:  Start Time 
 SVCS.                 DD, MWD:  Services 
 SVER.                    9.20:  Sperry Version 
 TDAT.m                 288.00:  Tot Depth Attmp 
 TDDF.                      No:  Trip for DD 
 TDLG.m                 288.00:  Tot Depth Loggd 
 TFF .                      No:  Trip for Fail 
 TQAA.f-kp               19.00:  Torque Abs Avg 
 TQAN.f-kp               18.00:  Torque Abs Min 
 TQAX.f-kp               21.00:  Torque Abs Max 
 TRRT.°/30m               0.45:  Turn Rotating 
 MRT .                    HCIM:  Maximum Recorded Temperature 
 TTMX.degC               88.24:  Max Tool Temp 
 VS01.                90649157:  Virtual Str1 SN 
 VS02.                90652483:  Virtual Str2 SN 
 VS03.                11671987:  Virtual Str3 SN 
 VS04.                90643411:  Virtual Str4 SN 
 VS05.                90652478:  Virtual Str5 SN 
 VS06.                    6111:  Virtual Str6 SN 
 WBMN.klb                 9.50:  WOB Min 
 WITN.        Grigoriy Sarayev:  Customer Rep 
 WITN.          Rufat Huseynov:  Customer Rep 2 
 WOBA.klb                11.00:  WOB Avg 
 WOBX.klb                15.00:  WOB Max 
 YP  .lhf2               28.00:  Yield Point 
~Curve Information Block
#MNEM.UNIT                 API CODE     Curve Description
#---------               -----------    ---------------------------
 TIME.HHMMSS            00 000 000 000:  GT Time & Date
 GTDEPTH.m              00 000 000 000:  GT Depth
 GTPQH.psia             00 000 000 000:  GT HR Quartz Pressure
 GTTQ.degC              00 000 000 000:  GT Quartz Temperature
 GTTN.NONE              00 000 000 000:  GT Test Number
 GTET.sec               00 000 000 000:  GT Elapsed Test Time
 GTTVD.m                00 000 000 000:  GT True Vertical Depth
#Other Information
#
#WARRANTY: Halliburton will use its best efforts to furnish customers with 
#accurate information and interpretations that are part of, and incident to, the services 
#provided.  However, Halliburton cannot and does not warrant the accuracy 
#or correctness of such information and interpretations.  Under no circumstances should any 
#such information or interpretation be relied upon as the sole basis for any drilling, 
#completion, production, or financial decision or any procedure involving any risk to the 
#safety of any drilling venture, drilling rig or its crew or any other third party.  The 
#Customer has full responsibility for all drilling, completion and production operation.  
#Halliburton makes no representations or warranties, either expressed or 
#implied, including, but not limited to, the implied warranties of merchantability or fitness 
#for a particular purpose, with respect to the services rendered.  In no event will 
#Halliburton be liable for failure to obtain any particular results or for 
#any damages, including, but not limited to, indirect, special or consequential damages, 
#resulting from the use of any information or interpretation provided by Halliburton.
#
~A           TIME           GTDEPTH  GTPQH  GTTQ  GTTN  GTET   GTTVD  
# ...
   12:47:53.126.18-Jul-2021 4561.50 6745.82 76.57 1.00  92.03 2747.31
   12:47:53.326.18-Jul-2021 4561.50 6745.82 76.57 1.00  92.23 2747.31
   12:47:53.526.18-Jul-2021 4561.50 6745.92 76.57 1.00  92.43 2747.31
   12:47:53.726.18-Jul-2021 4561.50 6746.02 76.57 1.00  92.63 2747.31
   12:47:53.926.18-Jul-2021 4561.50 6746.27 76.57 1.00  92.83 2747.31
   12:47:54.126.18-Jul-2021 4561.50 6746.92 76.57 1.00  93.03 2747.31
   12:47:54.326.18-Jul-2021 4561.50 6746.92 76.57 1.00  93.23 2747.31
   12:47:54.526.18-Jul-2021 4561.50 6743.64 76.57 1.00  93.43 2747.31
   12:47:54.726.18-Jul-2021 4561.50 6742.97 76.57 1.00  93.63 2747.31
   12:47:54.926.18-Jul-2021 4561.50 6742.45 76.56 1.00  93.83 2747.31
   12:47:55.126.18-Jul-2021 4561.50 6742.14 76.56 1.00  94.03 2747.31
   12:47:55.326.18-Jul-2021 4561.50 6742.14 76.56 1.00  94.23 2747.31
   12:47:55.527.18-Jul-2021 4561.50 6741.96 76.56 1.00  94.43 2747.31
   12:47:55.727.18-Jul-2021 4561.50 6741.76 76.56 1.00  94.63 2747.31
   12:47:55.927.18-Jul-2021 4561.50 6742.65 76.56 1.00  94.83 2747.31
   12:47:56.127.18-Jul-2021 4561.50 6742.31 76.56 1.00  95.03 2747.31
   12:47:56.327.18-Jul-2021 4561.50 6742.31 76.56 1.00  95.24 2747.31
   12:47:56.527.18-Jul-2021 4561.50 6742.23 76.56 1.00  95.44 2747.31
   12:47:56.727.18-Jul-2021 4561.50 6742.70 76.56 1.00  95.64 2747.31
   12:47:56.927.18-Jul-2021 4561.50 6740.14 76.56 1.00  95.84 2747.31
   12:47:57.127.18-Jul-2021 4561.50 6737.58 76.56 1.00  96.04 2747.31
   12:47:57.327.18-Jul-2021 4561.50 6737.58 76.56 1.00  96.24 2747.31
   12:47:57.527.18-Jul-2021 4561.50 6742.09 76.56 1.00  96.44 2747.31
   12:47:57.727.18-Jul-2021 4561.50 6738.33 76.56 1.00  96.64 2747.31
   12:47:57.927.18-Jul-2021 4561.50 6739.04 76.56 1.00  96.84 2747.31
   12:47:58.127.18-Jul-2021 4561.50 6740.09 76.56 1.00  97.04 2747.31
   12:47:58.328.18-Jul-2021 4561.50 6740.09 76.56 1.00  97.24 2747.31
   12:47:58.528.18-Jul-2021 4561.50 6738.25 76.56 1.00  97.44 2747.31
   12:47:58.728.18-Jul-2021 4561.50 6737.62 76.56 1.00  97.64 2747.31
   12:47:58.928.18-Jul-2021 4561.50 6739.26 76.56 1.00  97.84 2747.31
   12:47:59.128.18-Jul-2021 4561.50 6737.71 76.56 1.00  98.04 2747.31
   12:47:59.328.18-Jul-2021 4561.50 6737.71 76.56 1.00  98.24 2747.31
   12:47:59.528.18-Jul-2021 4561.50 6721.50 76.56 1.00  98.44 2747.31
   12:47:59.728.18-Jul-2021 4561.50 6710.48 76.56 1.00  98.64 2747.31
   12:47:59.928.18-Jul-2021 4561.50 6711.64 76.56 1.00  98.84 2747.31
   12:48:00.128.18-Jul-2021 4561.50 6711.34 76.56 1.00  99.04 2747.31
   12:48:00.328.18-Jul-2021 4561.50 6711.34 76.56 1.00  99.24 2747.31
   12:48:00.528.18-Jul-2021 4561.50 6711.47 76.56 1.00  99.44 2747.31
   12:48:00.728.18-Jul-2021 4561.50 6711.48 76.56 1.00  99.64 2747.31
   12:48:00.929.18-Jul-2021 4561.50 6711.72 76.56 1.00  99.84 2747.31
   12:48:01.129.18-Jul-2021 4561.50 6711.80 76.56 1.00 100.04 2747.31
   12:48:01.329.18-Jul-2021 4561.50 6711.80 76.56 1.00 100.24 2747.31
   12:48:01.529.18-Jul-2021 4561.50 6711.86 76.56 1.00 100.44 2747.31
   12:48:01.729.18-Jul-2021 4561.50 6712.09 76.56 1.00 100.64 2747.31
   12:48:01.929.18-Jul-2021 4561.50 6712.20 76.56 1.00 100.84 2747.31
   12:48:02.129.18-Jul-2021 4561.50 6710.90 76.56 1.00 101.04 2747.31
   12:48:02.329.18-Jul-2021 4561.50 6710.90 76.56 1.00 101.24 2747.31
   12:48:02.529.18-Jul-2021 4561.50 6701.56 76.56 1.00 101.44 2747.31
   12:48:02.729.18-Jul-2021 4561.50 6701.14 76.56 1.00 101.64 2747.31
   12:48:02.929.18-Jul-2021 4561.50 6701.21 76.56 1.00 101.84 2747.31
   12:48:03.129.18-Jul-2021 4561.50 6700.60 76.56 1.00 102.04 2747.31
   12:48:03.329.18-Jul-2021 4561.50 6700.60 76.56 1.00 102.24 2747.31
   12:48:03.529.18-Jul-2021 4561.50 6701.29 76.56 1.00 102.44 2747.31
   12:48:03.730.18-Jul-2021 4561.50 6700.99 76.56 1.00 102.64 2747.31
   12:48:03.930.18-Jul-2021 4561.50 6700.81 76.56 1.00 102.84 2747.31
   12:48:04.130.18-Jul-2021 4561.50 6701.31 76.56 1.00 103.04 2747.31
   12:48:04.330.18-Jul-2021 4561.50 6701.31 76.56 1.00 103.24 2747.31
   12:48:04.530.18-Jul-2021 4561.50 6700.79 76.56 1.00 103.44 2747.31
   12:48:04.730.18-Jul-2021 4561.50 6700.71 76.56 1.00 103.64 2747.31
   12:48:04.930.18-Jul-2021 4561.50 6704.16 76.56 1.00 103.84 2747.31
   12:48:05.130.18-Jul-2021 4561.50 6697.14 76.56 1.00 104.04 2747.31
   12:48:05.330.18-Jul-2021 4561.50 6697.14 76.56 1.00 104.24 2747.31
   12:48:05.530.18-Jul-2021 4561.50 6699.43 76.56 1.00 104.44 2747.31
   12:48:05.730.18-Jul-2021 4561.50 6687.58 76.56 1.00 104.64 2747.31
   12:48:05.930.18-Jul-2021 4561.50 6693.40 76.56 1.00 104.84 2747.31
   12:48:06.130.18-Jul-2021 4561.50 6695.93 76.56 1.00 105.04 2747.31
   12:48:06.331.18-Jul-2021 4561.50 6695.93 76.56 1.00 105.24 2747.31
   12:48:06.531.18-Jul-2021 4561.50 6690.60 76.56 1.00 105.44 2747.31
   12:48:06.731.18-Jul-2021 4561.50 6689.92 76.56 1.00 105.64 2747.31
   12:48:06.931.18-Jul-2021 4561.50 6688.83 76.56 1.00 105.84 2747.31
   12:48:07.131.18-Jul-2021 4561.50 6693.51 76.56 1.00 106.04 2747.31
   12:48:07.331.18-Jul-2021 4561.50 6693.51 76.56 1.00 106.24 2747.31
   12:48:07.531.18-Jul-2021 4561.50 6682.66 76.56 1.00 106.44 2747.31
   12:48:07.731.18-Jul-2021 4561.50 6682.66 76.56 1.00 106.64 2747.31
   12:48:07.931.18-Jul-2021 4561.50 6686.38 76.55 1.00 106.84 2747.31
   12:48:08.131.18-Jul-2021 4561.50 6679.11 76.55 1.00 107.04 2747.31
   12:48:08.331.18-Jul-2021 4561.50 6679.11 76.55 1.00 107.24 2747.31
   12:48:08.531.18-Jul-2021 4561.50 6682.69 76.55 1.00 107.44 2747.31
   12:48:08.731.18-Jul-2021 4561.50 6678.82 76.55 1.00 107.64 2747.31
   12:48:08.931.18-Jul-2021 4561.50 6679.31 76.55 1.00 107.84 2747.31
   12:48:09.132.18-Jul-2021 4561.50 6682.06 76.55 1.00 108.04 2747.31
   12:48:09.332.18-Jul-2021 4561.50 6682.06 76.55 1.00 108.24 2747.31
   12:48:09.532.18-Jul-2021 4561.50 6679.13 76.55 1.00 108.44 2747.31
   12:48:09.732.18-Jul-2021 4561.50 6681.21 76.55 1.00 108.64 2747.31
   12:48:09.932.18-Jul-2021 4561.50 6680.67 76.55 1.00 108.84 2747.31
   12:48:10.132.18-Jul-2021 4561.50 6680.28 76.55 1.00 109.04 2747.31
   12:48:10.332.18-Jul-2021 4561.50 6680.28 76.55 1.00 109.24 2747.31
   12:48:10.532.18-Jul-2021 4561.50 6685.20 76.55 1.00 109.44 2747.31
   12:48:10.732.18-Jul-2021 4561.50 6691.29 76.55 1.00 109.64 2747.31
   12:48:10.932.18-Jul-2021 4561.50 6684.42 76.55 1.00 109.84 2747.31
   12:48:11.132.18-Jul-2021 4561.50 6681.11 76.55 1.00 110.04 2747.31
   12:48:11.332.18-Jul-2021 4561.50 6681.11 76.55 1.00 110.24 2747.31
   12:48:11.532.18-Jul-2021 4561.50 6681.13 76.55 1.00 110.44 2747.31
   12:48:11.733.18-Jul-2021 4561.50 6680.40 76.55 1.00 110.64 2747.31
   12:48:11.933.18-Jul-2021 4561.50 6681.60 76.55 1.00 110.84 2747.31
   12:48:12.133.18-Jul-2021 4561.50 6681.00 76.55 1.00 111.04 2747.31
   12:48:12.333.18-Jul-2021 4561.50 6681.00 76.55 1.00 111.24 2747.31
   12:48:12.533.18-Jul-2021 4561.50 6681.93 76.55 1.00 111.44 2747.31
   12:48:12.733.18-Jul-2021 4561.50 6679.68 76.55 1.00 111.64 2747.31
   12:48:12.933.18-Jul-2021 4561.50 6678.82 76.55 1.00 111.84 2747.31
   12:48:13.133.18-Jul-2021 4561.50 6683.70 76.55 1.00 112.04 2747.31
   12:48:13.333.18-Jul-2021 4561.50 6683.70 76.55 1.00 112.24 2747.31
   12:48:13.533.18-Jul-2021 4561.50 6687.43 76.55 1.00 112.44 2747.31
   12:48:13.733.18-Jul-2021 4561.50 6685.42 76.55 1.00 112.64 2747.31
   12:48:13.933.18-Jul-2021 4561.50 6685.69 76.55 1.00 112.84 2747.31
   12:48:14.133.18-Jul-2021 4561.50 6675.23 76.55 1.00 113.04 2747.31
   12:48:14.333.18-Jul-2021 4561.50 6675.23 76.55 1.00 113.24 2747.31
   12:48:14.534.18-Jul-2021 4561.50 6678.70 76.55 1.00 113.44 2747.31
   12:48:14.734.18-Jul-2021 4561.50 6676.19 76.55 1.00 113.64 2747.31
   12:48:14.934.18-Jul-2021 4561.50 6674.13 76.55 1.00 113.84 2747.31
   12:48:15.134.18-Jul-2021 4561.50 6679.05 76.55 1.00 114.04 2747.31
   12:48:15.334.18-Jul-2021 4561.50 6679.05 76.55 1.00 114.24 2747.31
   12:48:15.534.18-Jul-2021 4561.50 6675.47 76.55 1.00 114.44 2747.31
   12:48:15.734.18-Jul-2021 4561.50 6680.68 76.55 1.00 114.64 2747.31
   12:48:15.934.18-Jul-2021 4561.50 6683.49 76.55 1.00 114.84 2747.31
