~Version Information
 VERS.                  2.0:   CWLS log ASCII Standard -VERSION 2.0
 WRAP.                   NO:   One line per depth step
~Well Information Block
#MNEM.UNIT     VALUE/NAME     DESCRIPTION
#---------     -----------    ---------------------------
 STRT.S             17:59:38 18-Jul-21: START TIME 17:59:38 18-Jul-21
 STOP.S             18:06:07 18-Jul-21: STOP TIME  18:06:07 18-Jul-21
 STEP.S                   0.00: STEP TIME
 NULL.                 -999.25: NULL VALUE
 MDS .        Operator Entered:  MAG DATA SOURCE
 PDAT.          Mean Sea Level:  PERMANENT DATUM
 UNIT.                     N/A:  LOGGING EQUIPMENT ID
 DCON.         Sperry Drilling:  DIRECTNL CONTR
 DOE .                     N/A:  DOE NUMBER
 RIG .              West Azeri:  RIG NAME
 JOBN.        AZ-XX-0906997913:  JOB TICKET NUMB
 WELL.                     C41:  WELL NAME
 MWDS.                    Baku:  MWD SHOP
 SRVC.          Turan Drilling:  CONTRACTOR
 FLD .                     ACG:  FIELD NAME
 CTRY.              Azerbaijan:  COUNTRY NAME
 PROV.                    Baku:  PROVINCE
 STAT.                    Baku:  STATE NAME
 REGN.                   EESSA:  REGION
 BASE.              Azerbaijan:  LOGGING EQUIPMENT BASE LOCATION
 UWI .                     N/A:  UNIQUE WELL IDENTIFIER
 API .                     N/A:  API NUMBER
 COMP.     BP Exploration (Caspian Sea) Ltd.:  COMPANY
 WTYP.                Deviated:  WELL TYPE
 SON .        AZ-XX-0906997913:  JOB NUMBER
 FTOP.          Formation Tops:  FORM TOPS DESC
 ILTD.               Lithology:  INTERP LTH DESC
 SVYD.                  Survey:  SURVEY DESC
 DMOD.             Drill Model:  DRILL MOD DESC
 HPTY.       Minimum Curvature:  HOLE POS TYPE
 NREF.                    Grid:  NORTH REFERENCE
 SPUD.               16-May-21:  SPUD DATE
 DATE.      21.11.28 17-May-21:  END TIME
 STIM.      21.11.28 17-May-21:  START TIME
 DMF .             Drill Floor:  DRILL MEAS FROM
 DFST.                        :  DIST FSL TEXT
 DFWT.                        :  DIST FWL TEXT
 CNTY.                        :  COUNTY
 LOC .                        :  LOCATION
 LMF .             Drill Floor:  LOG MEASURED FROM
 AGAP.m                  43.42:  AIR GAP
 VSNS.m                  -2.16:  VERT SEC N/S
 VSEW.m                  -6.24:  VERT SEC E/W
 APD .m                  43.42:  DEPTH ABOVE PD
 WDMS.m                 118.27:  WD ELEV
 EGL .m                   0.00:  GROUND ELEVATION
 EPD .m                   0.00:  ELEVATION
 AZTC.deg                 6.29:  AZM TOTAL CORR
 GRDC.deg                 0.18:  GRID CORRECTION
 MDEC.deg                 6.47:  MAGNETIC DECL
 MDIP.deg                59.54:  MAGNETIC DIP
 MFLD.nT              50337.00:  MAGNETIC FIELD
 GVFD.g                   1.00:  GRAVITY FIELD
 VSDR.deg               226.99:  VERT SEC DIRECT
 TDD .m                   0.00:  TOTAL DEPTH (DRILLER)
 SDEP.m                 448.00:  START DEPTH
 DFSL.m                   0.00:  DISTANCE FSL
 DFWL.m                   0.00:  DISTANCE FWL
 UTMY.m             4435799.96:  UTM Y
 UTMX.m              526265.35:  UTM X
 WHEW.m                  -6.24:  WELL HEAD E/W
 WHNS.m                  -2.16:  WELL HEAD N/S
 LONG.deg                51.31:  LONGITUDE
 LATI.deg                40.06:  LATITUDE
 TVDS.m                  43.42:  TVDSS CORRECTN
 EKB .m                  43.42:  KB ELEVATION
 EDF .m                  43.42:  DF ELEVATION
 TDL .m                 288.00:  TOTAL DEPTH (LOGGER)
 MAGU.                 1851863:  MAGUTM CHECKSUM
 VSC .                       0:  VS TO CLOSURE
~Parameter Information Block
#MNEM.UNIT       Value        Description
#---------     -----------    ---------------------------
 AV  .mps                 0.40:  Ann Velocity 
 AVMX.mps                 0.63:  Max Ann Veloc 
 AZIF.deg               158.76:  Azm, Final 
 BHAT.        Rotary Steerable:  BHA Type 
 BROT.°/30m               0.68:  Build Rotating 
 BS  .in                  8.50:  Bit Size 
 BSZ .in                  8.50:  Bit Size 
 BTPL.psig              712.00:  Bit Press Loss 
 CABU.                      No:  Customer Abuse 
 COMM.                     Ä"ƒ:  Run Comments 1 
 TCS .hr                 90.66:  Time Ciculation Ended 
 CV  .mps                 2.02:  Crit Velocity 
 CVMX.mps                 2.14:  Max Crit Veloc 
 DD1 .            Aziz Aliyevu:  Direct Drillr 1 
 DD2 .             Samir Abbas:  Direct Drillr 2 
 DD3 .           Teymur Aliyev:  Direct Drillr 3 
 DDSV.                 iCruise:  DD Service 
 DEFF.%                  85.10:  % Det Eff 
 DLRX.°/30m               1.05:  Dogleg Rot Max 
 DLSO.°/30m               1.01:  Dogleg Oriented 
 DLSX.°/30m               1.05:  Dogleg Str Max 
 DRET.      07.45.00 18-Jul-21:  Drill End Time 
 DRST.      15.00.00 16-Jul-21:  Drill Start Tim 
 DTIM.hr                 23.46:  Time Drilling 
 EDEP.m                4603.00:  End Depth 
 ENG1.       Seymur Iskandarov:  Engineer 1 
 ENG2.         Yevgeniy Ulikov:  Engineer 2 
 ENG3.         Bahruz Mehdiyev:  Engineer 3 
 ENG4.         Elchin Mammadov:  Engineer 4 
 ETIM.      14.00.00 23-Jul-21:  End Time 
 FLOI.gpm               500.00:  Flow In 
 FLON.gpm               450.00:  Flow In Min 
 FLOS.cptm                0.00:  Fluid Loss 
 FLOX.gpm               560.00:  Flow In Max 
 DFT .        Mineral Oil Base:  Mud Type 
 FTRO.       Formation Presure:  FTWD Run Obj 
 HFLO.                      No:  High Flow 
 HPRE.                      No:  High Pressure 
 HTEM.                      No:  High Temp 
 HYDO.m                   1.80:  Hydro Offset 
 IFIN.deg                40.22:  Inc, Final 
 IMAX.deg                40.54:  Inc Max 
 IMIN.deg                39.44:  Inc Min 
 IMND.m                4361.17:  Inc Min Depth 
 IMXD.m                4417.92:  Inc Max Depth 
 JARR.                      No:  Jarring 
 LETM.      07.45.00 18-Jul-21:  Log End Time 
 LOST.hr                    16:  Lost Rig Time 
 LSTM.      15.00.00 16-Jul-21:  Log Start Time 
 MDCL.ppm             36500.00:  Mud Chlorides 
 MDES.     Inversion Oil/Synthetic:  Mud Desc 
 DFD .sg                  1.42:  Mud Density 
 MDMN.sg                  1.42:  Dens Mud Min 
 MDMX.sg                  1.43:  Dens Mud Max 
 MOIL.                      56:  Run Mud Oil % 
 MOWR.                   71:29:  Run Mud OWR 
 MSND.                     0.5:  Run Mud Sand % 
 MSOL.                      21:  Run Mud Solids% 
 DFV .spqt               78.00:  Mud Viscosity 
 MWOD.in                  6.75:  MWD Tool OD 
 MWSI.                     Yes:  Serv Intrp, MWD 
 OTIM.hr                200.73:  Time Operating 
 PCON.           Look Like New:  Pad Condition 
 PMAX.psia            11069.93:  Press Op, Max 
 PV  .cP                 32.00:  Mud PV 
 RUN .                     700:  Run Number 
 ROPA.m/hr               10.00:  ROP Avg 
 ROPN.m/hr                9.00:  ROP Min 
 ROPX.m/hr               16.00:  ROP Max 
 RPMA.rpm               116.00:  RPM Surface Avg 
 RPMN.rpm                80.00:  RPM Surface Min 
 RPMX.rpm               120.00:  RPM Surface Max 
 RRUN.                    L605:  Rig Run Number 
 RTIM.hr                 45.00:  Time Reaming 
 SAZI.deg               159.86:  Azm, Start 
 SDEP.m                4315.00:  Start Depth 
 SIDD.                      No:  Serv Intrp, DD 
 SINC.deg                39.86:  Inc, Start 
 SPPA.psig             3300.00:  SPP Avg 
 SPPN.psig             3040.00:  SPP Min 
 SPPX.psig             3645.00:  SPP Max 
 STIM.      01.00.00 15-Jul-21:  Start Time 
 SVCS.                 DD, MWD:  Services 
 SVER.                    9.20:  Sperry Version 
 TDAT.m                 288.00:  Tot Depth Attmp 
 TDDF.                      No:  Trip for DD 
 TDLG.m                 288.00:  Tot Depth Loggd 
 TFF .                      No:  Trip for Fail 
 TQAA.f-kp               19.00:  Torque Abs Avg 
 TQAN.f-kp               18.00:  Torque Abs Min 
 TQAX.f-kp               21.00:  Torque Abs Max 
 TRRT.°/30m               0.45:  Turn Rotating 
 MRT .                    HCIM:  Maximum Recorded Temperature 
 TTMX.degC               88.24:  Max Tool Temp 
 VS01.                90649157:  Virtual Str1 SN 
 VS02.                90652483:  Virtual Str2 SN 
 VS03.                11671987:  Virtual Str3 SN 
 VS04.                90643411:  Virtual Str4 SN 
 VS05.                90652478:  Virtual Str5 SN 
 VS06.                    6111:  Virtual Str6 SN 
 WBMN.klb                 9.50:  WOB Min 
 WITN.        Grigoriy Sarayev:  Customer Rep 
 WITN.          Rufat Huseynov:  Customer Rep 2 
 WOBA.klb                11.00:  WOB Avg 
 WOBX.klb                15.00:  WOB Max 
 YP  .lhf2               28.00:  Yield Point 
~Curve Information Block
#MNEM.UNIT                 API CODE     Curve Description
#---------               -----------    ---------------------------
 TIME.HHMMSS            00 000 000 000:  GT Time & Date
 GTDEPTH.m              00 000 000 000:  GT Depth
 GTPQH.psia             00 000 000 000:  GT HR Quartz Pressure
 GTTQ.degC              00 000 000 000:  GT Quartz Temperature
 GTTN.NONE              00 000 000 000:  GT Test Number
 GTET.sec               00 000 000 000:  GT Elapsed Test Time
 GTTVD.m                00 000 000 000:  GT True Vertical Depth
#Other Information
#
#WARRANTY: Halliburton will use its best efforts to furnish customers with 
#accurate information and interpretations that are part of, and incident to, the services 
#provided.  However, Halliburton cannot and does not warrant the accuracy 
#or correctness of such information and interpretations.  Under no circumstances should any 
#such information or interpretation be relied upon as the sole basis for any drilling, 
#completion, production, or financial decision or any procedure involving any risk to the 
#safety of any drilling venture, drilling rig or its crew or any other third party.  The 
#Customer has full responsibility for all drilling, completion and production operation.  
#Halliburton makes no representations or warranties, either expressed or 
#implied, including, but not limited to, the implied warranties of merchantability or fitness 
#for a particular purpose, with respect to the services rendered.  In no event will 
#Halliburton be liable for failure to obtain any particular results or for 
#any damages, including, but not limited to, indirect, special or consequential damages, 
#resulting from the use of any information or interpretation provided by Halliburton.
#
~A           TIME           GTDEPTH  GTPQH  GTTQ  GTTN  GTET   GTTVD  
# ...
   18:00:01.021.18-Jul-2021 4487.50 6556.23 73.28 7.00  23.01 2690.71
   18:00:01.222.18-Jul-2021 4487.50 6556.23 73.28 7.00  23.21 2690.71
   18:00:01.422.18-Jul-2021 4487.50 6550.65 73.28 7.00  23.41 2690.71
   18:00:01.622.18-Jul-2021 4487.50 6552.03 73.28 7.00  23.61 2690.71
   18:00:01.822.18-Jul-2021 4487.50 6551.86 73.28 7.00  23.81 2690.71
   18:00:02.022.18-Jul-2021 4487.50 6574.09 73.28 7.00  24.01 2690.71
   18:00:02.222.18-Jul-2021 4487.50 6574.09 73.28 7.00  24.21 2690.71
   18:00:02.422.18-Jul-2021 4487.50 6557.55 73.28 7.00  24.41 2690.71
   18:00:02.622.18-Jul-2021 4487.50 6575.91 73.28 7.00  24.61 2690.71
   18:00:02.822.18-Jul-2021 4487.50 6542.35 73.28 7.00  24.81 2690.71
   18:00:03.022.18-Jul-2021 4487.50 6557.61 73.28 7.00  25.01 2690.71
   18:00:03.222.18-Jul-2021 4487.50 6557.61 73.28 7.00  25.21 2690.71
   18:00:03.422.18-Jul-2021 4487.50 6552.36 73.28 7.00  25.41 2690.71
   18:00:03.622.18-Jul-2021 4487.50 6570.15 73.28 7.00  25.61 2690.71
   18:00:03.822.18-Jul-2021 4487.50 6545.93 73.28 7.00  25.81 2690.71
   18:00:04.023.18-Jul-2021 4487.50 6559.55 73.28 7.00  26.01 2690.71
   18:00:04.223.18-Jul-2021 4487.50 6559.55 73.28 7.00  26.21 2690.71
   18:00:04.423.18-Jul-2021 4487.50 6555.25 73.28 7.00  26.41 2690.71
   18:00:04.623.18-Jul-2021 4487.50 6555.13 73.28 7.00  26.61 2690.71
   18:00:04.823.18-Jul-2021 4487.50 6553.97 73.28 7.00  26.81 2690.71
   18:00:05.023.18-Jul-2021 4487.50 6554.05 73.28 7.00  27.01 2690.71
   18:00:05.223.18-Jul-2021 4487.50 6554.05 73.28 7.00  27.21 2690.71
   18:00:05.423.18-Jul-2021 4487.50 6554.56 73.28 7.00  27.41 2690.71
   18:00:05.623.18-Jul-2021 4487.50 6554.71 73.28 7.00  27.61 2690.71
   18:00:05.823.18-Jul-2021 4487.50 6555.28 73.28 7.00  27.81 2690.71
   18:00:06.023.18-Jul-2021 4487.50 6536.23 73.28 7.00  28.01 2690.71
   18:00:06.223.18-Jul-2021 4487.50 6536.23 73.28 7.00  28.21 2690.71
   18:00:06.423.18-Jul-2021 4487.50 6501.89 73.28 7.00  28.41 2690.71
   18:00:06.624.18-Jul-2021 4487.50 6501.40 73.28 7.00  28.61 2690.71
   18:00:06.824.18-Jul-2021 4487.50 6489.81 73.28 7.00  28.81 2690.71
   18:00:07.024.18-Jul-2021 4487.50 6481.81 73.28 7.00  29.01 2690.71
   18:00:07.224.18-Jul-2021 4487.50 6481.81 73.28 7.00  29.21 2690.71
   18:00:07.424.18-Jul-2021 4487.50 6456.20 73.28 7.00  29.41 2690.71
   18:00:07.624.18-Jul-2021 4487.50 6422.50 73.28 7.00  29.61 2690.71
   18:00:07.824.18-Jul-2021 4487.50 6384.29 73.28 7.00  29.81 2690.71
   18:00:08.024.18-Jul-2021 4487.50 6344.28 73.28 7.00  30.01 2690.71
   18:00:08.224.18-Jul-2021 4487.50 6344.28 73.28 7.00  30.21 2690.71
   18:00:08.424.18-Jul-2021 4487.50 6272.91 73.28 7.00  30.41 2690.71
   18:00:08.624.18-Jul-2021 4487.50 6252.18 73.28 7.00  30.61 2690.71
   18:00:08.824.18-Jul-2021 4487.50 6237.12 73.28 7.00  30.81 2690.71
   18:00:09.024.18-Jul-2021 4487.50 6226.39 73.28 7.00  31.01 2690.71
   18:00:09.224.18-Jul-2021 4487.50 6226.39 73.28 7.00  31.21 2690.71
   18:00:09.425.18-Jul-2021 4487.50 6209.19 73.28 7.00  31.41 2690.71
   18:00:09.625.18-Jul-2021 4487.50 6200.44 73.28 7.00  31.61 2690.71
   18:00:09.825.18-Jul-2021 4487.50 6195.03 73.28 7.00  31.81 2690.71
   18:00:10.025.18-Jul-2021 4487.50 6188.47 73.28 7.00  32.01 2690.71
   18:00:10.225.18-Jul-2021 4487.50 6188.47 73.28 7.00  32.21 2690.71
   18:00:10.425.18-Jul-2021 4487.50 6180.35 73.28 7.00  32.41 2690.71
   18:00:10.625.18-Jul-2021 4487.50 6175.50 73.28 7.00  32.61 2690.71
   18:00:10.825.18-Jul-2021 4487.50 6169.50 73.28 7.00  32.81 2690.71
   18:00:11.025.18-Jul-2021 4487.50 6166.30 73.28 7.00  33.01 2690.71
   18:00:11.225.18-Jul-2021 4487.50 6166.30 73.28 7.00  33.21 2690.71
   18:00:11.425.18-Jul-2021 4487.50 6158.86 73.28 7.00  33.41 2690.71
   18:00:11.625.18-Jul-2021 4487.50 6156.24 73.28 7.00  33.61 2690.71
   18:00:11.825.18-Jul-2021 4487.50 6153.59 73.28 7.00  33.81 2690.71
   18:00:12.025.18-Jul-2021 4487.50 6150.30 73.28 7.00  34.01 2690.71
   18:00:12.226.18-Jul-2021 4487.50 6150.30 73.28 7.00  34.21 2690.71
   18:00:12.426.18-Jul-2021 4487.50 6144.55 73.28 7.00  34.41 2690.71
   18:00:12.626.18-Jul-2021 4487.50 6143.57 73.28 7.00  34.61 2690.71
   18:00:12.826.18-Jul-2021 4487.50 6141.14 73.27 7.00  34.81 2690.71
   18:00:13.026.18-Jul-2021 4487.50 6139.57 73.27 7.00  35.01 2690.71
   18:00:13.226.18-Jul-2021 4487.50 6139.57 73.27 7.00  35.21 2690.71
   18:00:13.426.18-Jul-2021 4487.50 6128.96 73.27 7.00  35.41 2690.71
   18:00:13.626.18-Jul-2021 4487.50 6126.30 73.27 7.00  35.61 2690.71
   18:00:13.826.18-Jul-2021 4487.50 6123.55 73.27 7.00  35.81 2690.71
   18:00:14.026.18-Jul-2021 4487.50 6121.71 73.27 7.00  36.01 2690.71
   18:00:14.226.18-Jul-2021 4487.50 6121.71 73.27 7.00  36.21 2690.71
   18:00:14.426.18-Jul-2021 4487.50 6118.34 73.27 7.00  36.41 2690.71
   18:00:14.626.18-Jul-2021 4487.50 6116.77 73.27 7.00  36.61 2690.71
   18:00:14.827.18-Jul-2021 4487.50 6112.88 73.27 7.00  36.81 2690.71
   18:00:15.027.18-Jul-2021 4487.50 6110.94 73.27 7.00  37.01 2690.71
   18:00:15.227.18-Jul-2021 4487.50 6110.94 73.27 7.00  37.21 2690.71
   18:00:15.427.18-Jul-2021 4487.50 6107.31 73.27 7.00  37.41 2690.71
   18:00:15.627.18-Jul-2021 4487.50 6105.04 73.27 7.00  37.61 2690.71
   18:00:15.827.18-Jul-2021 4487.50 6102.98 73.27 7.00  37.81 2690.71
   18:00:16.027.18-Jul-2021 4487.50 6102.01 73.27 7.00  38.01 2690.71
   18:00:16.227.18-Jul-2021 4487.50 6102.01 73.27 7.00  38.21 2690.71
   18:00:16.427.18-Jul-2021 4487.50 6099.54 73.27 7.00  38.41 2690.71
   18:00:16.627.18-Jul-2021 4487.50 6098.58 73.27 7.00  38.61 2690.71
   18:00:16.827.18-Jul-2021 4487.50 6097.35 73.27 7.00  38.81 2690.71
   18:00:17.027.18-Jul-2021 4487.50 6096.62 73.27 7.00  39.01 2690.71
   18:00:17.227.18-Jul-2021 4487.50 6096.62 73.27 7.00  39.21 2690.71
   18:00:17.427.18-Jul-2021 4487.50 6093.05 73.27 7.00  39.41 2690.71
   18:00:17.628.18-Jul-2021 4487.50 6091.06 73.27 7.00  39.61 2690.71
   18:00:17.828.18-Jul-2021 4487.50 6089.31 73.27 7.00  39.81 2690.71
   18:00:18.028.18-Jul-2021 4487.50 6088.08 73.27 7.00  40.01 2690.71
   18:00:18.228.18-Jul-2021 4487.50 6088.08 73.27 7.00  40.21 2690.71
   18:00:18.428.18-Jul-2021 4487.50 6082.73 73.27 7.00  40.41 2690.71
   18:00:18.628.18-Jul-2021 4487.50 6081.65 73.27 7.00  40.61 2690.71
   18:00:18.828.18-Jul-2021 4487.50 6079.94 73.27 7.00  40.82 2690.71
   18:00:19.028.18-Jul-2021 4487.50 6078.45 73.27 7.00  41.02 2690.71
   18:00:19.228.18-Jul-2021 4487.50 6078.45 73.27 7.00  41.22 2690.71
   18:00:19.428.18-Jul-2021 4487.50 6074.04 73.27 7.00  41.42 2690.71
   18:00:19.628.18-Jul-2021 4487.50 6072.59 73.27 7.00  41.62 2690.71
   18:00:19.828.18-Jul-2021 4487.50 6071.29 73.27 7.00  41.82 2690.71
   18:00:20.028.18-Jul-2021 4487.50 6068.65 73.27 7.00  42.02 2690.71
   18:00:20.229.18-Jul-2021 4487.50 6068.65 73.27 7.00  42.22 2690.71
   18:00:20.429.18-Jul-2021 4487.50 6065.91 73.27 7.00  42.42 2690.71
   18:00:20.629.18-Jul-2021 4487.50 6062.08 73.27 7.00  42.62 2690.71
   18:00:20.829.18-Jul-2021 4487.50 6061.26 73.27 7.00  42.82 2690.71
   18:00:21.029.18-Jul-2021 4487.50 6059.38 73.27 7.00  43.02 2690.71
   18:00:21.229.18-Jul-2021 4487.50 6059.38 73.27 7.00  43.22 2690.71
   18:00:21.429.18-Jul-2021 4487.50 6057.18 73.26 7.00  43.42 2690.71
   18:00:21.629.18-Jul-2021 4487.50 6055.17 73.26 7.00  43.62 2690.71
   18:00:21.829.18-Jul-2021 4487.50 6053.57 73.26 7.00  43.82 2690.71
   18:00:22.029.18-Jul-2021 4487.50 6052.17 73.26 7.00  44.02 2690.71
   18:00:22.229.18-Jul-2021 4487.50 6052.17 73.26 7.00  44.22 2690.71
   18:00:22.429.18-Jul-2021 4487.50 6050.28 73.26 7.00  44.42 2690.71
   18:00:22.629.18-Jul-2021 4487.50 6049.58 73.26 7.00  44.62 2690.71
   18:00:22.829.18-Jul-2021 4487.50 6049.07 73.26 7.00  44.82 2690.71
   18:00:23.030.18-Jul-2021 4487.50 6048.66 73.26 7.00  45.02 2690.71
   18:00:23.230.18-Jul-2021 4487.50 6048.66 73.26 7.00  45.22 2690.71
   18:00:23.430.18-Jul-2021 4487.50 6049.06 73.26 7.00  45.42 2690.71
   18:00:23.630.18-Jul-2021 4487.50 6049.00 73.26 7.00  45.62 2690.71
   18:00:23.830.18-Jul-2021 4487.50 6048.77 73.26 7.00  45.82 2690.71
