~Version Information
 VERS.                  2.0:   CWLS log ASCII Standard -VERSION 2.0
 WRAP.                   NO:   One line per depth step
~Well Information Block
#MNEM.UNIT     VALUE/NAME     DESCRIPTION
#---------     -----------    ---------------------------
 STRT.S             03:40:15 19-Jul-21: START TIME 03:40:15 19-Jul-21
 STOP.S             03:47:11 19-Jul-21: STOP TIME  03:47:11 19-Jul-21
 STEP.S                   0.00: STEP TIME
 NULL.                 -999.25: NULL VALUE
 MDS .        Operator Entered:  MAG DATA SOURCE
 PDAT.          Mean Sea Level:  PERMANENT DATUM
 UNIT.                     N/A:  LOGGING EQUIPMENT ID
 DCON.         Sperry Drilling:  DIRECTNL CONTR
 DOE .                     N/A:  DOE NUMBER
 RIG .              West Azeri:  RIG NAME
 JOBN.        AZ-XX-0906997913:  JOB TICKET NUMB
 WELL.                     C41:  WELL NAME
 MWDS.                    Baku:  MWD SHOP
 SRVC.          Turan Drilling:  CONTRACTOR
 FLD .                     ACG:  FIELD NAME
 CTRY.              Azerbaijan:  COUNTRY NAME
 PROV.                    Baku:  PROVINCE
 STAT.                    Baku:  STATE NAME
 REGN.                   EESSA:  REGION
 BASE.              Azerbaijan:  LOGGING EQUIPMENT BASE LOCATION
 UWI .                     N/A:  UNIQUE WELL IDENTIFIER
 API .                     N/A:  API NUMBER
 COMP.     BP Exploration (Caspian Sea) Ltd.:  COMPANY
 WTYP.                Deviated:  WELL TYPE
 SON .        AZ-XX-0906997913:  JOB NUMBER
 FTOP.          Formation Tops:  FORM TOPS DESC
 ILTD.               Lithology:  INTERP LTH DESC
 SVYD.                  Survey:  SURVEY DESC
 DMOD.             Drill Model:  DRILL MOD DESC
 HPTY.       Minimum Curvature:  HOLE POS TYPE
 NREF.                    Grid:  NORTH REFERENCE
 SPUD.               16-May-21:  SPUD DATE
 DATE.      21.11.28 17-May-21:  END TIME
 STIM.      21.11.28 17-May-21:  START TIME
 DMF .             Drill Floor:  DRILL MEAS FROM
 DFST.                        :  DIST FSL TEXT
 DFWT.                        :  DIST FWL TEXT
 CNTY.                        :  COUNTY
 LOC .                        :  LOCATION
 LMF .             Drill Floor:  LOG MEASURED FROM
 AGAP.m                  43.42:  AIR GAP
 VSNS.m                  -2.16:  VERT SEC N/S
 VSEW.m                  -6.24:  VERT SEC E/W
 APD .m                  43.42:  DEPTH ABOVE PD
 WDMS.m                 118.27:  WD ELEV
 EGL .m                   0.00:  GROUND ELEVATION
 EPD .m                   0.00:  ELEVATION
 AZTC.deg                 6.29:  AZM TOTAL CORR
 GRDC.deg                 0.18:  GRID CORRECTION
 MDEC.deg                 6.47:  MAGNETIC DECL
 MDIP.deg                59.54:  MAGNETIC DIP
 MFLD.nT              50337.00:  MAGNETIC FIELD
 GVFD.g                   1.00:  GRAVITY FIELD
 VSDR.deg               226.99:  VERT SEC DIRECT
 TDD .m                   0.00:  TOTAL DEPTH (DRILLER)
 SDEP.m                 448.00:  START DEPTH
 DFSL.m                   0.00:  DISTANCE FSL
 DFWL.m                   0.00:  DISTANCE FWL
 UTMY.m             4435799.96:  UTM Y
 UTMX.m              526265.35:  UTM X
 WHEW.m                  -6.24:  WELL HEAD E/W
 WHNS.m                  -2.16:  WELL HEAD N/S
 LONG.deg                51.31:  LONGITUDE
 LATI.deg                40.06:  LATITUDE
 TVDS.m                  43.42:  TVDSS CORRECTN
 EKB .m                  43.42:  KB ELEVATION
 EDF .m                  43.42:  DF ELEVATION
 TDL .m                 288.00:  TOTAL DEPTH (LOGGER)
 MAGU.                 1851863:  MAGUTM CHECKSUM
 VSC .                       0:  VS TO CLOSURE
~Parameter Information Block
#MNEM.UNIT       Value        Description
#---------     -----------    ---------------------------
 AV  .mps                 0.40:  Ann Velocity 
 AVMX.mps                 0.63:  Max Ann Veloc 
 AZIF.deg               158.76:  Azm, Final 
 BHAT.        Rotary Steerable:  BHA Type 
 BROT.∞/30m               0.68:  Build Rotating 
 BS  .in                  8.50:  Bit Size 
 BSZ .in                  8.50:  Bit Size 
 BTPL.psig              712.00:  Bit Press Loss 
 CABU.                      No:  Customer Abuse 
 COMM.                     ÙZ]:  Run Comments 1 
 TCS .hr                 90.66:  Time Ciculation Ended 
 CV  .mps                 2.02:  Crit Velocity 
 CVMX.mps                 2.14:  Max Crit Veloc 
 DD1 .            Aziz Aliyevu:  Direct Drillr 1 
 DD2 .             Samir Abbas:  Direct Drillr 2 
 DD3 .           Teymur Aliyev:  Direct Drillr 3 
 DDSV.                 iCruise:  DD Service 
 DEFF.%                  85.10:  % Det Eff 
 DLRX.∞/30m               1.05:  Dogleg Rot Max 
 DLSO.∞/30m               1.01:  Dogleg Oriented 
 DLSX.∞/30m               1.05:  Dogleg Str Max 
 DRET.      07.45.00 18-Jul-21:  Drill End Time 
 DRST.      15.00.00 16-Jul-21:  Drill Start Tim 
 DTIM.hr                 23.46:  Time Drilling 
 EDEP.m                4603.00:  End Depth 
 ENG1.       Seymur Iskandarov:  Engineer 1 
 ENG2.         Yevgeniy Ulikov:  Engineer 2 
 ENG3.         Bahruz Mehdiyev:  Engineer 3 
 ENG4.         Elchin Mammadov:  Engineer 4 
 ETIM.      14.00.00 23-Jul-21:  End Time 
 FLOI.gpm               500.00:  Flow In 
 FLON.gpm               450.00:  Flow In Min 
 FLOS.cptm                0.00:  Fluid Loss 
 FLOX.gpm               560.00:  Flow In Max 
 DFT .        Mineral Oil Base:  Mud Type 
 FTRO.       Formation Presure:  FTWD Run Obj 
 HFLO.                      No:  High Flow 
 HPRE.                      No:  High Pressure 
 HTEM.                      No:  High Temp 
 HYDO.m                   1.80:  Hydro Offset 
 IFIN.deg                40.22:  Inc, Final 
 IMAX.deg                40.54:  Inc Max 
 IMIN.deg                39.44:  Inc Min 
 IMND.m                4361.17:  Inc Min Depth 
 IMXD.m                4417.92:  Inc Max Depth 
 JARR.                      No:  Jarring 
 LETM.      07.45.00 18-Jul-21:  Log End Time 
 LOST.hr                    16:  Lost Rig Time 
 LSTM.      15.00.00 16-Jul-21:  Log Start Time 
 MDCL.ppm             36500.00:  Mud Chlorides 
 MDES.     Inversion Oil/Synthetic:  Mud Desc 
 DFD .sg                  1.42:  Mud Density 
 MDMN.sg                  1.42:  Dens Mud Min 
 MDMX.sg                  1.43:  Dens Mud Max 
 MOIL.                      56:  Run Mud Oil % 
 MOWR.                   71:29:  Run Mud OWR 
 MSND.                     0.5:  Run Mud Sand % 
 MSOL.                      21:  Run Mud Solids% 
 DFV .spqt               78.00:  Mud Viscosity 
 MWOD.in                  6.75:  MWD Tool OD 
 MWSI.                     Yes:  Serv Intrp, MWD 
 OTIM.hr                200.73:  Time Operating 
 PCON.           Look Like New:  Pad Condition 
 PMAX.psia            11069.93:  Press Op, Max 
 PV  .cP                 32.00:  Mud PV 
 RUN .                     700:  Run Number 
 ROPA.m/hr               10.00:  ROP Avg 
 ROPN.m/hr                9.00:  ROP Min 
 ROPX.m/hr               16.00:  ROP Max 
 RPMA.rpm               116.00:  RPM Surface Avg 
 RPMN.rpm                80.00:  RPM Surface Min 
 RPMX.rpm               120.00:  RPM Surface Max 
 RRUN.                    L605:  Rig Run Number 
 RTIM.hr                 45.00:  Time Reaming 
 SAZI.deg               159.86:  Azm, Start 
 SDEP.m                4315.00:  Start Depth 
 SIDD.                      No:  Serv Intrp, DD 
 SINC.deg                39.86:  Inc, Start 
 SPPA.psig             3300.00:  SPP Avg 
 SPPN.psig             3040.00:  SPP Min 
 SPPX.psig             3645.00:  SPP Max 
 STIM.      01.00.00 15-Jul-21:  Start Time 
 SVCS.                 DD, MWD:  Services 
 SVER.                    9.20:  Sperry Version 
 TDAT.m                 288.00:  Tot Depth Attmp 
 TDDF.                      No:  Trip for DD 
 TDLG.m                 288.00:  Tot Depth Loggd 
 TFF .                      No:  Trip for Fail 
 TQAA.f-kp               19.00:  Torque Abs Avg 
 TQAN.f-kp               18.00:  Torque Abs Min 
 TQAX.f-kp               21.00:  Torque Abs Max 
 TRRT.∞/30m               0.45:  Turn Rotating 
 MRT .                    HCIM:  Maximum Recorded Temperature 
 TTMX.degC               88.24:  Max Tool Temp 
 VS01.                90649157:  Virtual Str1 SN 
 VS02.                90652483:  Virtual Str2 SN 
 VS03.                11671987:  Virtual Str3 SN 
 VS04.                90643411:  Virtual Str4 SN 
 VS05.                90652478:  Virtual Str5 SN 
 VS06.                    6111:  Virtual Str6 SN 
 WBMN.klb                 9.50:  WOB Min 
 WITN.        Grigoriy Sarayev:  Customer Rep 
 WITN.          Rufat Huseynov:  Customer Rep 2 
 WOBA.klb                11.00:  WOB Avg 
 WOBX.klb                15.00:  WOB Max 
 YP  .lhf2               28.00:  Yield Point 
~Curve Information Block
#MNEM.UNIT                 API CODE     Curve Description
#---------               -----------    ---------------------------
 TIME.HHMMSS            00 000 000 000:  GT Time & Date
 GTDEPTH.m              00 000 000 000:  GT Depth
 GTPQH.psia             00 000 000 000:  GT HR Quartz Pressure
 GTTQ.degC              00 000 000 000:  GT Quartz Temperature
 GTTN.NONE              00 000 000 000:  GT Test Number
 GTET.sec               00 000 000 000:  GT Elapsed Test Time
 GTTVD.m                00 000 000 000:  GT True Vertical Depth
#Other Information
#
#WARRANTY: Halliburton will use its best efforts to furnish customers with 
#accurate information and interpretations that are part of, and incident to, the services 
#provided.  However, Halliburton cannot and does not warrant the accuracy 
#or correctness of such information and interpretations.  Under no circumstances should any 
#such information or interpretation be relied upon as the sole basis for any drilling, 
#completion, production, or financial decision or any procedure involving any risk to the 
#safety of any drilling venture, drilling rig or its crew or any other third party.  The 
#Customer has full responsibility for all drilling, completion and production operation.  
#Halliburton makes no representations or warranties, either expressed or 
#implied, including, but not limited to, the implied warranties of merchantability or fitness 
#for a particular purpose, with respect to the services rendered.  In no event will 
#Halliburton be liable for failure to obtain any particular results or for 
#any damages, including, but not limited to, indirect, special or consequential damages, 
#resulting from the use of any information or interpretation provided by Halliburton.
#
~A           TIME           GTDEPTH  GTPQH  GTTQ  GTTN   GTET   GTTVD  
# ...
   03:40:38.449.19-Jul-2021 4323.50 6248.60 69.22 10.00  22.61 2565.11
   03:40:38.649.19-Jul-2021 4323.50 6273.60 69.22 10.00  22.81 2565.11
   03:40:38.849.19-Jul-2021 4323.50 6243.07 69.22 10.00  23.01 2565.11
   03:40:39.049.19-Jul-2021 4323.50 6243.07 69.22 10.00  23.21 2565.11
   03:40:39.249.19-Jul-2021 4323.50 6259.76 69.22 10.00  23.41 2565.11
   03:40:39.449.19-Jul-2021 4323.50 6251.80 69.22 10.00  23.61 2565.11
   03:40:39.649.19-Jul-2021 4323.50 6250.15 69.22 10.00  23.81 2565.11
   03:40:39.849.19-Jul-2021 4323.50 6253.67 69.22 10.00  24.01 2565.11
   03:40:40.050.19-Jul-2021 4323.50 6253.67 69.22 10.00  24.21 2565.11
   03:40:40.250.19-Jul-2021 4323.50 6251.42 69.22 10.00  24.41 2565.11
   03:40:40.450.19-Jul-2021 4323.50 6250.27 69.22 10.00  24.61 2565.11
   03:40:40.650.19-Jul-2021 4323.50 6248.88 69.22 10.00  24.81 2565.11
   03:40:40.850.19-Jul-2021 4323.50 6249.19 69.22 10.00  25.01 2565.11
   03:40:41.050.19-Jul-2021 4323.50 6249.19 69.22 10.00  25.21 2565.11
   03:40:41.250.19-Jul-2021 4323.50 6273.78 69.22 10.00  25.41 2565.11
   03:40:41.450.19-Jul-2021 4323.50 6241.77 69.22 10.00  25.61 2565.11
   03:40:41.650.19-Jul-2021 4323.50 6247.35 69.21 10.00  25.81 2565.11
   03:40:41.850.19-Jul-2021 4323.50 6280.96 69.21 10.00  26.01 2565.11
   03:40:42.050.19-Jul-2021 4323.50 6280.96 69.21 10.00  26.21 2565.11
   03:40:42.250.19-Jul-2021 4323.50 6246.66 69.21 10.00  26.41 2565.11
   03:40:42.450.19-Jul-2021 4323.50 6287.70 69.21 10.00  26.61 2565.11
   03:40:42.650.19-Jul-2021 4323.50 6248.44 69.21 10.00  26.81 2565.11
   03:40:42.851.19-Jul-2021 4323.50 6252.50 69.21 10.00  27.01 2565.11
   03:40:43.051.19-Jul-2021 4323.50 6252.50 69.21 10.00  27.21 2565.11
   03:40:43.251.19-Jul-2021 4323.50 6254.04 69.21 10.00  27.41 2565.11
   03:40:43.451.19-Jul-2021 4323.50 6262.56 69.21 10.00  27.61 2565.11
   03:40:43.651.19-Jul-2021 4323.50 6267.08 69.21 10.00  27.81 2565.11
   03:40:43.851.19-Jul-2021 4323.50 6255.70 69.21 10.00  28.01 2565.11
   03:40:44.051.19-Jul-2021 4323.50 6255.70 69.21 10.00  28.21 2565.11
   03:40:44.251.19-Jul-2021 4323.50 6260.51 69.21 10.00  28.41 2565.11
   03:40:44.451.19-Jul-2021 4323.50 6274.15 69.21 10.00  28.61 2565.11
   03:40:44.651.19-Jul-2021 4323.50 6258.85 69.21 10.00  28.81 2565.11
   03:40:44.851.19-Jul-2021 4323.50 6256.77 69.21 10.00  29.01 2565.11
   03:40:45.051.19-Jul-2021 4323.50 6256.77 69.21 10.00  29.21 2565.11
   03:40:45.251.19-Jul-2021 4323.50 6261.52 69.21 10.00  29.41 2565.11
   03:40:45.452.19-Jul-2021 4323.50 6258.27 69.21 10.00  29.61 2565.11
   03:40:45.652.19-Jul-2021 4323.50 6262.50 69.21 10.00  29.81 2565.11
   03:40:45.852.19-Jul-2021 4323.50 6258.70 69.21 10.00  30.01 2565.11
   03:40:46.052.19-Jul-2021 4323.50 6258.70 69.21 10.00  30.21 2565.11
   03:40:46.252.19-Jul-2021 4323.50 6259.96 69.21 10.00  30.41 2565.11
   03:40:46.452.19-Jul-2021 4323.50 6260.04 69.21 10.00  30.61 2565.11
   03:40:46.652.19-Jul-2021 4323.50 6260.07 69.21 10.00  30.81 2565.11
   03:40:46.852.19-Jul-2021 4323.50 6258.65 69.21 10.00  31.01 2565.11
   03:40:47.052.19-Jul-2021 4323.50 6258.65 69.21 10.00  31.21 2565.11
   03:40:47.252.19-Jul-2021 4323.50 6266.49 69.21 10.00  31.41 2565.11
   03:40:47.452.19-Jul-2021 4323.50 6267.84 69.21 10.00  31.61 2565.11
   03:40:47.652.19-Jul-2021 4323.50 6354.18 69.21 10.00  31.81 2565.11
   03:40:47.852.19-Jul-2021 4323.50 6390.87 69.21 10.00  32.01 2565.11
   03:40:48.052.19-Jul-2021 4323.50 6390.87 69.21 10.00  32.21 2565.11
   03:40:48.253.19-Jul-2021 4323.50 6391.87 69.21 10.00  32.41 2565.11
   03:40:48.453.19-Jul-2021 4323.50 6398.84 69.21 10.00  32.61 2565.11
   03:40:48.653.19-Jul-2021 4323.50 6410.41 69.21 10.00  32.81 2565.11
   03:40:48.853.19-Jul-2021 4323.50 6421.23 69.21 10.00  33.01 2565.11
   03:40:49.053.19-Jul-2021 4323.50 6421.23 69.21 10.00  33.21 2565.11
   03:40:49.253.19-Jul-2021 4323.50 6418.35 69.21 10.00  33.41 2565.11
   03:40:49.453.19-Jul-2021 4323.50 6412.63 69.21 10.00  33.61 2565.11
   03:40:49.653.19-Jul-2021 4323.50 6409.63 69.21 10.00  33.81 2565.11
   03:40:49.853.19-Jul-2021 4323.50 6407.51 69.21 10.00  34.01 2565.11
   03:40:50.053.19-Jul-2021 4323.50 6407.51 69.21 10.00  34.21 2565.11
   03:40:50.253.19-Jul-2021 4323.50 6403.26 69.21 10.00  34.41 2565.11
   03:40:50.453.19-Jul-2021 4323.50 6406.56 69.21 10.00  34.61 2565.11
   03:40:50.653.19-Jul-2021 4323.50 6405.31 69.21 10.00  34.81 2565.11
   03:40:50.853.19-Jul-2021 4323.50 6401.68 69.21 10.00  35.01 2565.11
   03:40:51.054.19-Jul-2021 4323.50 6401.68 69.21 10.00  35.21 2565.11
   03:40:51.254.19-Jul-2021 4323.50 6408.49 69.21 10.00  35.41 2565.11
   03:40:51.454.19-Jul-2021 4323.50 6403.84 69.21 10.00  35.61 2565.11
   03:40:51.654.19-Jul-2021 4323.50 6401.94 69.21 10.00  35.81 2565.11
   03:40:51.854.19-Jul-2021 4323.50 6403.73 69.21 10.00  36.01 2565.11
   03:40:52.054.19-Jul-2021 4323.50 6403.73 69.21 10.00  36.21 2565.11
   03:40:52.254.19-Jul-2021 4323.50 6408.15 69.21 10.00  36.41 2565.11
   03:40:52.454.19-Jul-2021 4323.50 6402.77 69.21 10.00  36.61 2565.11
   03:40:52.654.19-Jul-2021 4323.50 6402.26 69.21 10.00  36.81 2565.11
   03:40:52.854.19-Jul-2021 4323.50 6406.90 69.21 10.00  37.01 2565.11
   03:40:53.054.19-Jul-2021 4323.50 6406.90 69.21 10.00  37.21 2565.11
   03:40:53.254.19-Jul-2021 4323.50 6404.18 69.21 10.00  37.41 2565.11
   03:40:53.454.19-Jul-2021 4323.50 6198.83 69.21 10.00  37.61 2565.11
   03:40:53.655.19-Jul-2021 4323.50 5676.71 69.21 10.00  37.81 2565.11
   03:40:53.855.19-Jul-2021 4323.50 4838.66 69.21 10.00  38.01 2565.11
   03:40:54.055.19-Jul-2021 4323.50 4838.66 69.21 10.00  38.21 2565.11
   03:40:54.255.19-Jul-2021 4323.50 3935.91 69.21 10.00  38.41 2565.11
   03:40:54.455.19-Jul-2021 4323.50 3967.55 69.21 10.00  38.61 2565.11
   03:40:54.655.19-Jul-2021 4323.50 3973.88 69.20 10.00  38.81 2565.11
   03:40:54.855.19-Jul-2021 4323.50 3973.85 69.20 10.00  39.01 2565.11
   03:40:55.055.19-Jul-2021 4323.50 3973.85 69.20 10.00  39.21 2565.11
   03:40:55.255.19-Jul-2021 4323.50 3980.01 69.20 10.00  39.41 2565.11
   03:40:55.455.19-Jul-2021 4323.50 3991.22 69.20 10.00  39.61 2565.11
   03:40:55.655.19-Jul-2021 4323.50 3995.19 69.20 10.00  39.81 2565.11
   03:40:55.855.19-Jul-2021 4323.50 3994.95 69.20 10.00  40.01 2565.11
   03:40:56.055.19-Jul-2021 4323.50 3994.95 69.20 10.00  40.21 2565.11
   03:40:56.255.19-Jul-2021 4323.50 3999.77 69.20 10.00  40.41 2565.11
   03:40:56.456.19-Jul-2021 4323.50 3996.82 69.19 10.00  40.61 2565.11
   03:40:56.656.19-Jul-2021 4323.50 3994.43 69.19 10.00  40.82 2565.11
   03:40:56.856.19-Jul-2021 4323.50 3997.16 69.19 10.00  41.02 2565.11
   03:40:57.056.19-Jul-2021 4323.50 3997.16 69.19 10.00  41.22 2565.11
   03:40:57.256.19-Jul-2021 4323.50 3995.38 69.19 10.00  41.42 2565.11
   03:40:57.456.19-Jul-2021 4323.50 3993.26 69.19 10.00  41.62 2565.11
   03:40:57.656.19-Jul-2021 4323.50 3991.67 69.18 10.00  41.82 2565.11
   03:40:57.856.19-Jul-2021 4323.50 3995.27 69.18 10.00  42.02 2565.11
   03:40:58.056.19-Jul-2021 4323.50 3995.27 69.18 10.00  42.22 2565.11
   03:40:58.256.19-Jul-2021 4323.50 3996.08 69.18 10.00  42.42 2565.11
   03:40:58.456.19-Jul-2021 4323.50 3991.61 69.18 10.00  42.62 2565.11
   03:40:58.656.19-Jul-2021 4323.50 3995.57 69.18 10.00  42.82 2565.11
   03:40:58.856.19-Jul-2021 4323.50 3995.65 69.17 10.00  43.02 2565.11
   03:40:59.057.19-Jul-2021 4323.50 3995.65 69.17 10.00  43.22 2565.11
   03:40:59.257.19-Jul-2021 4323.50 3999.83 69.17 10.00  43.42 2565.11
   03:40:59.457.19-Jul-2021 4323.50 3989.34 69.17 10.00  43.62 2565.11
   03:40:59.657.19-Jul-2021 4323.50 3997.96 69.17 10.00  43.82 2565.11
   03:40:59.857.19-Jul-2021 4323.50 3998.20 69.17 10.00  44.02 2565.11
   03:41:00.057.19-Jul-2021 4323.50 3998.20 69.17 10.00  44.22 2565.11
   03:41:00.257.19-Jul-2021 4323.50 3994.29 69.17 10.00  44.42 2565.11
   03:41:00.457.19-Jul-2021 4323.50 3996.36 69.16 10.00  44.62 2565.11
   03:41:00.657.19-Jul-2021 4323.50 3997.80 69.16 10.00  44.82 2565.11
   03:41:00.857.19-Jul-2021 4323.50 3995.54 69.16 10.00  45.02 2565.11
