~Version Information
 VERS.                  2.0:   CWLS log ASCII Standard -VERSION 2.0
 WRAP.                   NO:   One line per depth step
~Well Information Block
#MNEM.UNIT     VALUE/NAME     DESCRIPTION
#---------     -----------    ---------------------------
 STRT.S             23:29:17 18-Jul-21: START TIME 23:29:17 18-Jul-21
 STOP.S             23:35:51 18-Jul-21: STOP TIME  23:35:51 18-Jul-21
 STEP.S                   0.00: STEP TIME
 NULL.                 -999.25: NULL VALUE
 MDS .        Operator Entered:  MAG DATA SOURCE
 PDAT.          Mean Sea Level:  PERMANENT DATUM
 UNIT.                     N/A:  LOGGING EQUIPMENT ID
 DCON.         Sperry Drilling:  DIRECTNL CONTR
 DOE .                     N/A:  DOE NUMBER
 RIG .              West Azeri:  RIG NAME
 JOBN.        AZ-XX-0906997913:  JOB TICKET NUMB
 WELL.                     C41:  WELL NAME
 MWDS.                    Baku:  MWD SHOP
 SRVC.          Turan Drilling:  CONTRACTOR
 FLD .                     ACG:  FIELD NAME
 CTRY.              Azerbaijan:  COUNTRY NAME
 PROV.                    Baku:  PROVINCE
 STAT.                    Baku:  STATE NAME
 REGN.                   EESSA:  REGION
 BASE.              Azerbaijan:  LOGGING EQUIPMENT BASE LOCATION
 UWI .                     N/A:  UNIQUE WELL IDENTIFIER
 API .                     N/A:  API NUMBER
 COMP.     BP Exploration (Caspian Sea) Ltd.:  COMPANY
 WTYP.                Deviated:  WELL TYPE
 SON .        AZ-XX-0906997913:  JOB NUMBER
 FTOP.          Formation Tops:  FORM TOPS DESC
 ILTD.               Lithology:  INTERP LTH DESC
 SVYD.                  Survey:  SURVEY DESC
 DMOD.             Drill Model:  DRILL MOD DESC
 HPTY.       Minimum Curvature:  HOLE POS TYPE
 NREF.                    Grid:  NORTH REFERENCE
 SPUD.               16-May-21:  SPUD DATE
 DATE.      21.11.28 17-May-21:  END TIME
 STIM.      21.11.28 17-May-21:  START TIME
 DMF .             Drill Floor:  DRILL MEAS FROM
 DFST.                        :  DIST FSL TEXT
 DFWT.                        :  DIST FWL TEXT
 CNTY.                        :  COUNTY
 LOC .                        :  LOCATION
 LMF .             Drill Floor:  LOG MEASURED FROM
 AGAP.m                  43.42:  AIR GAP
 VSNS.m                  -2.16:  VERT SEC N/S
 VSEW.m                  -6.24:  VERT SEC E/W
 APD .m                  43.42:  DEPTH ABOVE PD
 WDMS.m                 118.27:  WD ELEV
 EGL .m                   0.00:  GROUND ELEVATION
 EPD .m                   0.00:  ELEVATION
 AZTC.deg                 6.29:  AZM TOTAL CORR
 GRDC.deg                 0.18:  GRID CORRECTION
 MDEC.deg                 6.47:  MAGNETIC DECL
 MDIP.deg                59.54:  MAGNETIC DIP
 MFLD.nT              50337.00:  MAGNETIC FIELD
 GVFD.g                   1.00:  GRAVITY FIELD
 VSDR.deg               226.99:  VERT SEC DIRECT
 TDD .m                   0.00:  TOTAL DEPTH (DRILLER)
 SDEP.m                 448.00:  START DEPTH
 DFSL.m                   0.00:  DISTANCE FSL
 DFWL.m                   0.00:  DISTANCE FWL
 UTMY.m             4435799.96:  UTM Y
 UTMX.m              526265.35:  UTM X
 WHEW.m                  -6.24:  WELL HEAD E/W
 WHNS.m                  -2.16:  WELL HEAD N/S
 LONG.deg                51.31:  LONGITUDE
 LATI.deg                40.06:  LATITUDE
 TVDS.m                  43.42:  TVDSS CORRECTN
 EKB .m                  43.42:  KB ELEVATION
 EDF .m                  43.42:  DF ELEVATION
 TDL .m                 288.00:  TOTAL DEPTH (LOGGER)
 MAGU.                 1851863:  MAGUTM CHECKSUM
 VSC .                       0:  VS TO CLOSURE
~Parameter Information Block
#MNEM.UNIT       Value        Description
#---------     -----------    ---------------------------
 AV  .mps                 0.40:  Ann Velocity 
 AVMX.mps                 0.63:  Max Ann Veloc 
 AZIF.deg               158.76:  Azm, Final 
 BHAT.        Rotary Steerable:  BHA Type 
 BROT.°/30m               0.68:  Build Rotating 
 BS  .in                  8.50:  Bit Size 
 BSZ .in                  8.50:  Bit Size 
 BTPL.psig              712.00:  Bit Press Loss 
 CABU.                      No:  Customer Abuse 
 COMM.                     $¸T:  Run Comments 1 
 TCS .hr                 90.66:  Time Ciculation Ended 
 CV  .mps                 2.02:  Crit Velocity 
 CVMX.mps                 2.14:  Max Crit Veloc 
 DD1 .            Aziz Aliyevu:  Direct Drillr 1 
 DD2 .             Samir Abbas:  Direct Drillr 2 
 DD3 .           Teymur Aliyev:  Direct Drillr 3 
 DDSV.                 iCruise:  DD Service 
 DEFF.%                  85.10:  % Det Eff 
 DLRX.°/30m               1.05:  Dogleg Rot Max 
 DLSO.°/30m               1.01:  Dogleg Oriented 
 DLSX.°/30m               1.05:  Dogleg Str Max 
 DRET.      07.45.00 18-Jul-21:  Drill End Time 
 DRST.      15.00.00 16-Jul-21:  Drill Start Tim 
 DTIM.hr                 23.46:  Time Drilling 
 EDEP.m                4603.00:  End Depth 
 ENG1.       Seymur Iskandarov:  Engineer 1 
 ENG2.         Yevgeniy Ulikov:  Engineer 2 
 ENG3.         Bahruz Mehdiyev:  Engineer 3 
 ENG4.         Elchin Mammadov:  Engineer 4 
 ETIM.      14.00.00 23-Jul-21:  End Time 
 FLOI.gpm               500.00:  Flow In 
 FLON.gpm               450.00:  Flow In Min 
 FLOS.cptm                0.00:  Fluid Loss 
 FLOX.gpm               560.00:  Flow In Max 
 DFT .        Mineral Oil Base:  Mud Type 
 FTRO.       Formation Presure:  FTWD Run Obj 
 HFLO.                      No:  High Flow 
 HPRE.                      No:  High Pressure 
 HTEM.                      No:  High Temp 
 HYDO.m                   1.80:  Hydro Offset 
 IFIN.deg                40.22:  Inc, Final 
 IMAX.deg                40.54:  Inc Max 
 IMIN.deg                39.44:  Inc Min 
 IMND.m                4361.17:  Inc Min Depth 
 IMXD.m                4417.92:  Inc Max Depth 
 JARR.                      No:  Jarring 
 LETM.      07.45.00 18-Jul-21:  Log End Time 
 LOST.hr                    16:  Lost Rig Time 
 LSTM.      15.00.00 16-Jul-21:  Log Start Time 
 MDCL.ppm             36500.00:  Mud Chlorides 
 MDES.     Inversion Oil/Synthetic:  Mud Desc 
 DFD .sg                  1.42:  Mud Density 
 MDMN.sg                  1.42:  Dens Mud Min 
 MDMX.sg                  1.43:  Dens Mud Max 
 MOIL.                      56:  Run Mud Oil % 
 MOWR.                   71:29:  Run Mud OWR 
 MSND.                     0.5:  Run Mud Sand % 
 MSOL.                      21:  Run Mud Solids% 
 DFV .spqt               78.00:  Mud Viscosity 
 MWOD.in                  6.75:  MWD Tool OD 
 MWSI.                     Yes:  Serv Intrp, MWD 
 OTIM.hr                200.73:  Time Operating 
 PCON.           Look Like New:  Pad Condition 
 PMAX.psia            11069.93:  Press Op, Max 
 PV  .cP                 32.00:  Mud PV 
 RUN .                     700:  Run Number 
 ROPA.m/hr               10.00:  ROP Avg 
 ROPN.m/hr                9.00:  ROP Min 
 ROPX.m/hr               16.00:  ROP Max 
 RPMA.rpm               116.00:  RPM Surface Avg 
 RPMN.rpm                80.00:  RPM Surface Min 
 RPMX.rpm               120.00:  RPM Surface Max 
 RRUN.                    L605:  Rig Run Number 
 RTIM.hr                 45.00:  Time Reaming 
 SAZI.deg               159.86:  Azm, Start 
 SDEP.m                4315.00:  Start Depth 
 SIDD.                      No:  Serv Intrp, DD 
 SINC.deg                39.86:  Inc, Start 
 SPPA.psig             3300.00:  SPP Avg 
 SPPN.psig             3040.00:  SPP Min 
 SPPX.psig             3645.00:  SPP Max 
 STIM.      01.00.00 15-Jul-21:  Start Time 
 SVCS.                 DD, MWD:  Services 
 SVER.                    9.20:  Sperry Version 
 TDAT.m                 288.00:  Tot Depth Attmp 
 TDDF.                      No:  Trip for DD 
 TDLG.m                 288.00:  Tot Depth Loggd 
 TFF .                      No:  Trip for Fail 
 TQAA.f-kp               19.00:  Torque Abs Avg 
 TQAN.f-kp               18.00:  Torque Abs Min 
 TQAX.f-kp               21.00:  Torque Abs Max 
 TRRT.°/30m               0.45:  Turn Rotating 
 MRT .                    HCIM:  Maximum Recorded Temperature 
 TTMX.degC               88.24:  Max Tool Temp 
 VS01.                90649157:  Virtual Str1 SN 
 VS02.                90652483:  Virtual Str2 SN 
 VS03.                11671987:  Virtual Str3 SN 
 VS04.                90643411:  Virtual Str4 SN 
 VS05.                90652478:  Virtual Str5 SN 
 VS06.                    6111:  Virtual Str6 SN 
 WBMN.klb                 9.50:  WOB Min 
 WITN.        Grigoriy Sarayev:  Customer Rep 
 WITN.          Rufat Huseynov:  Customer Rep 2 
 WOBA.klb                11.00:  WOB Avg 
 WOBX.klb                15.00:  WOB Max 
 YP  .lhf2               28.00:  Yield Point 
~Curve Information Block
#MNEM.UNIT                 API CODE     Curve Description
#---------               -----------    ---------------------------
 TIME.HHMMSS            00 000 000 000:  GT Time & Date
 GTDEPTH.m              00 000 000 000:  GT Depth
 GTPQH.psia             00 000 000 000:  GT HR Quartz Pressure
 GTTQ.degC              00 000 000 000:  GT Quartz Temperature
 GTTN.NONE              00 000 000 000:  GT Test Number
 GTET.sec               00 000 000 000:  GT Elapsed Test Time
 GTTVD.m                00 000 000 000:  GT True Vertical Depth
#Other Information
#
#WARRANTY: Halliburton will use its best efforts to furnish customers with 
#accurate information and interpretations that are part of, and incident to, the services 
#provided.  However, Halliburton cannot and does not warrant the accuracy 
#or correctness of such information and interpretations.  Under no circumstances should any 
#such information or interpretation be relied upon as the sole basis for any drilling, 
#completion, production, or financial decision or any procedure involving any risk to the 
#safety of any drilling venture, drilling rig or its crew or any other third party.  The 
#Customer has full responsibility for all drilling, completion and production operation.  
#Halliburton makes no representations or warranties, either expressed or 
#implied, including, but not limited to, the implied warranties of merchantability or fitness 
#for a particular purpose, with respect to the services rendered.  In no event will 
#Halliburton be liable for failure to obtain any particular results or for 
#any damages, including, but not limited to, indirect, special or consequential damages, 
#resulting from the use of any information or interpretation provided by Halliburton.
#
~A           TIME           GTDEPTH  GTPQH  GTTQ  GTTN  GTET   GTTVD  
# ...
   23:30:49.330.18-Jul-2021 4245.71  554.15 69.22 9.00  92.03 2505.62
   23:30:49.530.18-Jul-2021 4245.71  554.15 69.22 9.00  92.23 2505.62
   23:30:49.730.18-Jul-2021 4245.71  554.58 69.22 9.00  92.43 2505.62
   23:30:49.930.18-Jul-2021 4245.71  554.98 69.22 9.00  92.63 2505.62
   23:30:50.130.18-Jul-2021 4245.71  555.77 69.22 9.00  92.83 2505.62
   23:30:50.330.18-Jul-2021 4245.71  556.07 69.22 9.00  93.03 2505.62
   23:30:50.530.18-Jul-2021 4245.71  556.07 69.22 9.00  93.23 2505.62
   23:30:50.730.18-Jul-2021 4245.71  556.52 69.22 9.00  93.43 2505.62
   23:30:50.930.18-Jul-2021 4245.71  556.70 69.22 9.00  93.63 2505.62
   23:30:51.130.18-Jul-2021 4245.71  556.83 69.22 9.00  93.83 2505.62
   23:30:51.331.18-Jul-2021 4245.71  557.13 69.22 9.00  94.03 2505.62
   23:30:51.531.18-Jul-2021 4245.71  557.13 69.22 9.00  94.23 2505.62
   23:30:51.731.18-Jul-2021 4245.71  557.78 69.23 9.00  94.43 2505.62
   23:30:51.931.18-Jul-2021 4245.71  557.98 69.23 9.00  94.63 2505.62
   23:30:52.131.18-Jul-2021 4245.71  558.32 69.23 9.00  94.83 2505.62
   23:30:52.331.18-Jul-2021 4245.71  557.40 69.23 9.00  95.03 2505.62
   23:30:52.531.18-Jul-2021 4245.71  557.40 69.23 9.00  95.24 2505.62
   23:30:52.731.18-Jul-2021 4245.71  558.52 69.23 9.00  95.44 2505.62
   23:30:52.931.18-Jul-2021 4245.71  559.04 69.23 9.00  95.64 2505.62
   23:30:53.131.18-Jul-2021 4245.71  559.20 69.23 9.00  95.84 2505.62
   23:30:53.331.18-Jul-2021 4245.71  559.44 69.23 9.00  96.04 2505.62
   23:30:53.531.18-Jul-2021 4245.71  559.44 69.23 9.00  96.24 2505.62
   23:30:53.731.18-Jul-2021 4245.71  560.06 69.23 9.00  96.44 2505.62
   23:30:53.931.18-Jul-2021 4245.71  560.33 69.23 9.00  96.64 2505.62
   23:30:54.132.18-Jul-2021 4245.71  560.63 69.23 9.00  96.84 2505.62
   23:30:54.332.18-Jul-2021 4245.71  561.05 69.23 9.00  97.04 2505.62
   23:30:54.532.18-Jul-2021 4245.71  561.05 69.23 9.00  97.24 2505.62
   23:30:54.732.18-Jul-2021 4245.71  560.90 69.23 9.00  97.44 2505.62
   23:30:54.932.18-Jul-2021 4245.71  561.53 69.23 9.00  97.64 2505.62
   23:30:55.132.18-Jul-2021 4245.71  561.94 69.23 9.00  97.84 2505.62
   23:30:55.332.18-Jul-2021 4245.71  561.35 69.23 9.00  98.04 2505.62
   23:30:55.532.18-Jul-2021 4245.71  561.35 69.23 9.00  98.24 2505.62
   23:30:55.732.18-Jul-2021 4245.71  562.93 69.23 9.00  98.44 2505.62
   23:30:55.932.18-Jul-2021 4245.71  562.78 69.23 9.00  98.64 2505.62
   23:30:56.132.18-Jul-2021 4245.71  562.17 69.23 9.00  98.84 2505.62
   23:30:56.332.18-Jul-2021 4245.71  563.06 69.23 9.00  99.04 2505.62
   23:30:56.532.18-Jul-2021 4245.71  563.06 69.23 9.00  99.24 2505.62
   23:30:56.733.18-Jul-2021 4245.71  562.54 69.23 9.00  99.44 2505.62
   23:30:56.933.18-Jul-2021 4245.71  563.42 69.23 9.00  99.64 2505.62
   23:30:57.133.18-Jul-2021 4245.71  563.85 69.23 9.00  99.84 2505.62
   23:30:57.333.18-Jul-2021 4245.71  564.13 69.23 9.00 100.04 2505.62
   23:30:57.533.18-Jul-2021 4245.71  564.13 69.23 9.00 100.24 2505.62
   23:30:57.733.18-Jul-2021 4245.71  562.64 69.23 9.00 100.44 2505.62
   23:30:57.933.18-Jul-2021 4245.71  564.16 69.23 9.00 100.64 2505.62
   23:30:58.133.18-Jul-2021 4245.71  564.43 69.24 9.00 100.84 2505.62
   23:30:58.333.18-Jul-2021 4245.71  565.08 69.24 9.00 101.04 2505.62
   23:30:58.533.18-Jul-2021 4245.71  565.08 69.24 9.00 101.24 2505.62
   23:30:58.733.18-Jul-2021 4245.71  565.28 69.24 9.00 101.44 2505.62
   23:30:58.933.18-Jul-2021 4245.71  565.80 69.24 9.00 101.64 2505.62
   23:30:59.133.18-Jul-2021 4245.71  566.12 69.24 9.00 101.84 2505.62
   23:30:59.333.18-Jul-2021 4245.71  566.48 69.24 9.00 102.04 2505.62
   23:30:59.534.18-Jul-2021 4245.71  566.48 69.24 9.00 102.24 2505.62
   23:30:59.734.18-Jul-2021 4245.71  566.77 69.24 9.00 102.44 2505.62
   23:30:59.934.18-Jul-2021 4245.71  567.05 69.24 9.00 102.64 2505.62
   23:31:00.134.18-Jul-2021 4245.71  567.26 69.24 9.00 102.84 2505.62
   23:31:00.334.18-Jul-2021 4245.71  567.14 69.24 9.00 103.04 2505.62
   23:31:00.534.18-Jul-2021 4245.71  567.14 69.24 9.00 103.24 2505.62
   23:31:00.734.18-Jul-2021 4245.71  567.62 69.24 9.00 103.44 2505.62
   23:31:00.934.18-Jul-2021 4245.71  567.94 69.24 9.00 103.64 2505.62
   23:31:01.134.18-Jul-2021 4245.71  568.54 69.24 9.00 103.84 2505.62
   23:31:01.334.18-Jul-2021 4245.71  568.71 69.24 9.00 104.04 2505.62
   23:31:01.534.18-Jul-2021 4245.71  568.71 69.24 9.00 104.24 2505.62
   23:31:01.734.18-Jul-2021 4245.71  569.24 69.24 9.00 104.44 2505.62
   23:31:01.934.18-Jul-2021 4245.71  569.37 69.24 9.00 104.64 2505.62
   23:31:02.135.18-Jul-2021 4245.71  569.61 69.24 9.00 104.84 2505.62
   23:31:02.335.18-Jul-2021 4245.71  569.91 69.24 9.00 105.04 2505.62
   23:31:02.535.18-Jul-2021 4245.71  569.91 69.24 9.00 105.24 2505.62
   23:31:02.735.18-Jul-2021 4245.71  570.47 69.24 9.00 105.44 2505.62
   23:31:02.935.18-Jul-2021 4245.71  569.20 69.24 9.00 105.64 2505.62
   23:31:03.135.18-Jul-2021 4245.71  570.35 69.24 9.00 105.84 2505.62
   23:31:03.335.18-Jul-2021 4245.71  569.96 69.24 9.00 106.04 2505.62
   23:31:03.535.18-Jul-2021 4245.71  569.96 69.24 9.00 106.24 2505.62
   23:31:03.735.18-Jul-2021 4245.71  570.93 69.24 9.00 106.44 2505.62
   23:31:03.935.18-Jul-2021 4245.71  571.02 69.24 9.00 106.64 2505.62
   23:31:04.135.18-Jul-2021 4245.71  571.05 69.24 9.00 106.84 2505.62
   23:31:04.335.18-Jul-2021 4245.71  570.43 69.24 9.00 107.04 2505.62
   23:31:04.535.18-Jul-2021 4245.71  570.43 69.24 9.00 107.24 2505.62
   23:31:04.735.18-Jul-2021 4245.71  571.37 69.24 9.00 107.44 2505.62
   23:31:04.936.18-Jul-2021 4245.71  570.48 69.25 9.00 107.64 2505.62
   23:31:05.136.18-Jul-2021 4245.71  571.82 69.25 9.00 107.84 2505.62
   23:31:05.336.18-Jul-2021 4245.71  572.06 69.25 9.00 108.04 2505.62
   23:31:05.536.18-Jul-2021 4245.71  572.06 69.25 9.00 108.24 2505.62
   23:31:05.736.18-Jul-2021 4245.71  570.75 69.25 9.00 108.44 2505.62
   23:31:05.936.18-Jul-2021 4245.71  571.93 69.25 9.00 108.64 2505.62
   23:31:06.136.18-Jul-2021 4245.71  572.38 69.25 9.00 108.84 2505.62
   23:31:06.336.18-Jul-2021 4245.71  573.07 69.25 9.00 109.04 2505.62
   23:31:06.536.18-Jul-2021 4245.71  573.07 69.25 9.00 109.24 2505.62
   23:31:06.736.18-Jul-2021 4245.71  573.69 69.25 9.00 109.44 2505.62
   23:31:06.936.18-Jul-2021 4245.71  573.98 69.25 9.00 109.64 2505.62
   23:31:07.136.18-Jul-2021 4245.71  574.24 69.25 9.00 109.84 2505.62
   23:31:07.336.18-Jul-2021 4245.71  574.42 69.25 9.00 110.04 2505.62
   23:31:07.536.18-Jul-2021 4245.71  574.42 69.25 9.00 110.24 2505.62
   23:31:07.737.18-Jul-2021 4245.71  574.87 69.25 9.00 110.44 2505.62
   23:31:07.937.18-Jul-2021 4245.71  575.15 69.25 9.00 110.64 2505.62
   23:31:08.137.18-Jul-2021 4245.71  575.36 69.25 9.00 110.84 2505.62
   23:31:08.337.18-Jul-2021 4245.71  575.10 69.25 9.00 111.04 2505.62
   23:31:08.537.18-Jul-2021 4245.71  575.10 69.25 9.00 111.24 2505.62
   23:31:08.737.18-Jul-2021 4245.71  575.59 69.25 9.00 111.44 2505.62
   23:31:08.937.18-Jul-2021 4245.71  575.91 69.25 9.00 111.64 2505.62
   23:31:09.137.18-Jul-2021 4245.71  576.63 69.25 9.00 111.84 2505.62
   23:31:09.337.18-Jul-2021 4245.71  576.69 69.25 9.00 112.04 2505.62
   23:31:09.537.18-Jul-2021 4245.71  576.69 69.25 9.00 112.24 2505.62
   23:31:09.737.18-Jul-2021 4245.71  576.95 69.25 9.00 112.44 2505.62
   23:31:09.937.18-Jul-2021 4245.71  577.04 69.25 9.00 112.64 2505.62
   23:31:10.137.18-Jul-2021 4245.71  577.30 69.25 9.00 112.84 2505.62
   23:31:10.338.18-Jul-2021 4245.71  577.60 69.25 9.00 113.04 2505.62
   23:31:10.538.18-Jul-2021 4245.71  577.60 69.25 9.00 113.24 2505.62
   23:31:10.738.18-Jul-2021 4245.71  578.04 69.25 9.00 113.44 2505.62
   23:31:10.938.18-Jul-2021 4245.71  577.09 69.25 9.00 113.64 2505.62
   23:31:11.138.18-Jul-2021 4245.71  578.46 69.25 9.00 113.84 2505.62
   23:31:11.338.18-Jul-2021 4245.71  578.11 69.25 9.00 114.04 2505.62
   23:31:11.538.18-Jul-2021 4245.71  578.11 69.25 9.00 114.24 2505.62
   23:31:11.738.18-Jul-2021 4245.71  578.37 69.25 9.00 114.44 2505.62
   23:31:11.938.18-Jul-2021 4245.71  578.56 69.25 9.00 114.64 2505.62
   23:31:12.138.18-Jul-2021 4245.71  578.00 69.25 9.00 114.84 2505.62
