~Version Information
 VERS.                  2.0:   CWLS log ASCII Standard -VERSION 2.0
 WRAP.                   NO:   One line per depth step
~Well Information Block
#MNEM.UNIT     VALUE/NAME     DESCRIPTION
#---------     -----------    ---------------------------
 STRT.S             13:11:20 18-Jul-21: START TIME 13:11:20 18-Jul-21
 STOP.S             13:17:54 18-Jul-21: STOP TIME  13:17:54 18-Jul-21
 STEP.S                   0.00: STEP TIME
 NULL.                 -999.25: NULL VALUE
 MDS .        Operator Entered:  MAG DATA SOURCE
 PDAT.          Mean Sea Level:  PERMANENT DATUM
 UNIT.                     N/A:  LOGGING EQUIPMENT ID
 DCON.         Sperry Drilling:  DIRECTNL CONTR
 DOE .                     N/A:  DOE NUMBER
 RIG .              West Azeri:  RIG NAME
 JOBN.        AZ-XX-0906997913:  JOB TICKET NUMB
 WELL.                     C41:  WELL NAME
 MWDS.                    Baku:  MWD SHOP
 SRVC.          Turan Drilling:  CONTRACTOR
 FLD .                     ACG:  FIELD NAME
 CTRY.              Azerbaijan:  COUNTRY NAME
 PROV.                    Baku:  PROVINCE
 STAT.                    Baku:  STATE NAME
 REGN.                   EESSA:  REGION
 BASE.              Azerbaijan:  LOGGING EQUIPMENT BASE LOCATION
 UWI .                     N/A:  UNIQUE WELL IDENTIFIER
 API .                     N/A:  API NUMBER
 COMP.     BP Exploration (Caspian Sea) Ltd.:  COMPANY
 WTYP.                Deviated:  WELL TYPE
 SON .        AZ-XX-0906997913:  JOB NUMBER
 FTOP.          Formation Tops:  FORM TOPS DESC
 ILTD.               Lithology:  INTERP LTH DESC
 SVYD.                  Survey:  SURVEY DESC
 DMOD.             Drill Model:  DRILL MOD DESC
 HPTY.       Minimum Curvature:  HOLE POS TYPE
 NREF.                    Grid:  NORTH REFERENCE
 SPUD.               16-May-21:  SPUD DATE
 DATE.      21.11.28 17-May-21:  END TIME
 STIM.      21.11.28 17-May-21:  START TIME
 DMF .             Drill Floor:  DRILL MEAS FROM
 DFST.                        :  DIST FSL TEXT
 DFWT.                        :  DIST FWL TEXT
 CNTY.                        :  COUNTY
 LOC .                        :  LOCATION
 LMF .             Drill Floor:  LOG MEASURED FROM
 AGAP.m                  43.42:  AIR GAP
 VSNS.m                  -2.16:  VERT SEC N/S
 VSEW.m                  -6.24:  VERT SEC E/W
 APD .m                  43.42:  DEPTH ABOVE PD
 WDMS.m                 118.27:  WD ELEV
 EGL .m                   0.00:  GROUND ELEVATION
 EPD .m                   0.00:  ELEVATION
 AZTC.deg                 6.29:  AZM TOTAL CORR
 GRDC.deg                 0.18:  GRID CORRECTION
 MDEC.deg                 6.47:  MAGNETIC DECL
 MDIP.deg                59.54:  MAGNETIC DIP
 MFLD.nT              50337.00:  MAGNETIC FIELD
 GVFD.g                   1.00:  GRAVITY FIELD
 VSDR.deg               226.99:  VERT SEC DIRECT
 TDD .m                   0.00:  TOTAL DEPTH (DRILLER)
 SDEP.m                 448.00:  START DEPTH
 DFSL.m                   0.00:  DISTANCE FSL
 DFWL.m                   0.00:  DISTANCE FWL
 UTMY.m             4435799.96:  UTM Y
 UTMX.m              526265.35:  UTM X
 WHEW.m                  -6.24:  WELL HEAD E/W
 WHNS.m                  -2.16:  WELL HEAD N/S
 LONG.deg                51.31:  LONGITUDE
 LATI.deg                40.06:  LATITUDE
 TVDS.m                  43.42:  TVDSS CORRECTN
 EKB .m                  43.42:  KB ELEVATION
 EDF .m                  43.42:  DF ELEVATION
 TDL .m                 288.00:  TOTAL DEPTH (LOGGER)
 MAGU.                 1851863:  MAGUTM CHECKSUM
 VSC .                       0:  VS TO CLOSURE
~Parameter Information Block
#MNEM.UNIT       Value        Description
#---------     -----------    ---------------------------
 AV  .mps                 0.40:  Ann Velocity 
 AVMX.mps                 0.63:  Max Ann Veloc 
 AZIF.deg               158.76:  Azm, Final 
 BHAT.        Rotary Steerable:  BHA Type 
 BROT.∞/30m               0.68:  Build Rotating 
 BS  .in                  8.50:  Bit Size 
 BSZ .in                  8.50:  Bit Size 
 BTPL.psig              712.00:  Bit Press Loss 
 CABU.                      No:  Customer Abuse 
 COMM.                     §ÁL:  Run Comments 1 
 TCS .hr                 90.66:  Time Ciculation Ended 
 CV  .mps                 2.02:  Crit Velocity 
 CVMX.mps                 2.14:  Max Crit Veloc 
 DD1 .            Aziz Aliyevu:  Direct Drillr 1 
 DD2 .             Samir Abbas:  Direct Drillr 2 
 DD3 .           Teymur Aliyev:  Direct Drillr 3 
 DDSV.                 iCruise:  DD Service 
 DEFF.%                  85.10:  % Det Eff 
 DLRX.∞/30m               1.05:  Dogleg Rot Max 
 DLSO.∞/30m               1.01:  Dogleg Oriented 
 DLSX.∞/30m               1.05:  Dogleg Str Max 
 DRET.      07.45.00 18-Jul-21:  Drill End Time 
 DRST.      15.00.00 16-Jul-21:  Drill Start Tim 
 DTIM.hr                 23.46:  Time Drilling 
 EDEP.m                4603.00:  End Depth 
 ENG1.       Seymur Iskandarov:  Engineer 1 
 ENG2.         Yevgeniy Ulikov:  Engineer 2 
 ENG3.         Bahruz Mehdiyev:  Engineer 3 
 ENG4.         Elchin Mammadov:  Engineer 4 
 ETIM.      14.00.00 23-Jul-21:  End Time 
 FLOI.gpm               500.00:  Flow In 
 FLON.gpm               450.00:  Flow In Min 
 FLOS.cptm                0.00:  Fluid Loss 
 FLOX.gpm               560.00:  Flow In Max 
 DFT .        Mineral Oil Base:  Mud Type 
 FTRO.       Formation Presure:  FTWD Run Obj 
 HFLO.                      No:  High Flow 
 HPRE.                      No:  High Pressure 
 HTEM.                      No:  High Temp 
 HYDO.m                   1.80:  Hydro Offset 
 IFIN.deg                40.22:  Inc, Final 
 IMAX.deg                40.54:  Inc Max 
 IMIN.deg                39.44:  Inc Min 
 IMND.m                4361.17:  Inc Min Depth 
 IMXD.m                4417.92:  Inc Max Depth 
 JARR.                      No:  Jarring 
 LETM.      07.45.00 18-Jul-21:  Log End Time 
 LOST.hr                    16:  Lost Rig Time 
 LSTM.      15.00.00 16-Jul-21:  Log Start Time 
 MDCL.ppm             36500.00:  Mud Chlorides 
 MDES.     Inversion Oil/Synthetic:  Mud Desc 
 DFD .sg                  1.42:  Mud Density 
 MDMN.sg                  1.42:  Dens Mud Min 
 MDMX.sg                  1.43:  Dens Mud Max 
 MOIL.                      56:  Run Mud Oil % 
 MOWR.                   71:29:  Run Mud OWR 
 MSND.                     0.5:  Run Mud Sand % 
 MSOL.                      21:  Run Mud Solids% 
 DFV .spqt               78.00:  Mud Viscosity 
 MWOD.in                  6.75:  MWD Tool OD 
 MWSI.                     Yes:  Serv Intrp, MWD 
 OTIM.hr                200.73:  Time Operating 
 PCON.           Look Like New:  Pad Condition 
 PMAX.psia            11069.93:  Press Op, Max 
 PV  .cP                 32.00:  Mud PV 
 RUN .                     700:  Run Number 
 ROPA.m/hr               10.00:  ROP Avg 
 ROPN.m/hr                9.00:  ROP Min 
 ROPX.m/hr               16.00:  ROP Max 
 RPMA.rpm               116.00:  RPM Surface Avg 
 RPMN.rpm                80.00:  RPM Surface Min 
 RPMX.rpm               120.00:  RPM Surface Max 
 RRUN.                    L605:  Rig Run Number 
 RTIM.hr                 45.00:  Time Reaming 
 SAZI.deg               159.86:  Azm, Start 
 SDEP.m                4315.00:  Start Depth 
 SIDD.                      No:  Serv Intrp, DD 
 SINC.deg                39.86:  Inc, Start 
 SPPA.psig             3300.00:  SPP Avg 
 SPPN.psig             3040.00:  SPP Min 
 SPPX.psig             3645.00:  SPP Max 
 STIM.      01.00.00 15-Jul-21:  Start Time 
 SVCS.                 DD, MWD:  Services 
 SVER.                    9.20:  Sperry Version 
 TDAT.m                 288.00:  Tot Depth Attmp 
 TDDF.                      No:  Trip for DD 
 TDLG.m                 288.00:  Tot Depth Loggd 
 TFF .                      No:  Trip for Fail 
 TQAA.f-kp               19.00:  Torque Abs Avg 
 TQAN.f-kp               18.00:  Torque Abs Min 
 TQAX.f-kp               21.00:  Torque Abs Max 
 TRRT.∞/30m               0.45:  Turn Rotating 
 MRT .                    HCIM:  Maximum Recorded Temperature 
 TTMX.degC               88.24:  Max Tool Temp 
 VS01.                90649157:  Virtual Str1 SN 
 VS02.                90652483:  Virtual Str2 SN 
 VS03.                11671987:  Virtual Str3 SN 
 VS04.                90643411:  Virtual Str4 SN 
 VS05.                90652478:  Virtual Str5 SN 
 VS06.                    6111:  Virtual Str6 SN 
 WBMN.klb                 9.50:  WOB Min 
 WITN.        Grigoriy Sarayev:  Customer Rep 
 WITN.          Rufat Huseynov:  Customer Rep 2 
 WOBA.klb                11.00:  WOB Avg 
 WOBX.klb                15.00:  WOB Max 
 YP  .lhf2               28.00:  Yield Point 
~Curve Information Block
#MNEM.UNIT                 API CODE     Curve Description
#---------               -----------    ---------------------------
 TIME.HHMMSS            00 000 000 000:  GT Time & Date
 GTDEPTH.m              00 000 000 000:  GT Depth
 GTPQH.psia             00 000 000 000:  GT HR Quartz Pressure
 GTTQ.degC              00 000 000 000:  GT Quartz Temperature
 GTTN.NONE              00 000 000 000:  GT Test Number
 GTET.sec               00 000 000 000:  GT Elapsed Test Time
 GTTVD.m                00 000 000 000:  GT True Vertical Depth
#Other Information
#
#WARRANTY: Halliburton will use its best efforts to furnish customers with 
#accurate information and interpretations that are part of, and incident to, the services 
#provided.  However, Halliburton cannot and does not warrant the accuracy 
#or correctness of such information and interpretations.  Under no circumstances should any 
#such information or interpretation be relied upon as the sole basis for any drilling, 
#completion, production, or financial decision or any procedure involving any risk to the 
#safety of any drilling venture, drilling rig or its crew or any other third party.  The 
#Customer has full responsibility for all drilling, completion and production operation.  
#Halliburton makes no representations or warranties, either expressed or 
#implied, including, but not limited to, the implied warranties of merchantability or fitness 
#for a particular purpose, with respect to the services rendered.  In no event will 
#Halliburton be liable for failure to obtain any particular results or for 
#any damages, including, but not limited to, indirect, special or consequential damages, 
#resulting from the use of any information or interpretation provided by Halliburton.
#
~A           TIME           GTDEPTH  GTPQH  GTTQ  GTTN  GTET   GTTVD  
# ...
   13:15:56.746.18-Jul-2021 4561.00 6146.22 75.66 2.00 276.10 2746.93
   13:15:56.946.18-Jul-2021 4561.00 6146.22 75.66 2.00 276.30 2746.93
   13:15:57.146.18-Jul-2021 4561.00 6143.95 75.66 2.00 276.50 2746.93
   13:15:57.346.18-Jul-2021 4561.00 6147.15 75.66 2.00 276.70 2746.93
   13:15:57.546.18-Jul-2021 4561.00 6145.41 75.66 2.00 276.90 2746.93
   13:15:57.746.18-Jul-2021 4561.00 6145.86 75.66 2.00 277.10 2746.93
   13:15:57.946.18-Jul-2021 4561.00 6145.86 75.66 2.00 277.30 2746.93
   13:15:58.146.18-Jul-2021 4561.00 6144.29 75.66 2.00 277.50 2746.93
   13:15:58.346.18-Jul-2021 4561.00 6145.23 75.66 2.00 277.70 2746.93
   13:15:58.546.18-Jul-2021 4561.00 6145.48 75.66 2.00 277.90 2746.93
   13:15:58.746.18-Jul-2021 4561.00 6145.97 75.66 2.00 278.10 2746.93
   13:15:58.946.18-Jul-2021 4561.00 6145.97 75.66 2.00 278.30 2746.93
   13:15:59.146.18-Jul-2021 4561.00 6145.06 75.66 2.00 278.50 2746.93
   13:15:59.347.18-Jul-2021 4561.00 6145.22 75.66 2.00 278.70 2746.93
   13:15:59.547.18-Jul-2021 4561.00 6145.05 75.66 2.00 278.90 2746.93
   13:15:59.747.18-Jul-2021 4561.00 6145.07 75.66 2.00 279.10 2746.93
   13:15:59.947.18-Jul-2021 4561.00 6145.07 75.66 2.00 279.30 2746.93
   13:16:00.147.18-Jul-2021 4561.00 6144.92 75.66 2.00 279.50 2746.93
   13:16:00.347.18-Jul-2021 4561.00 6145.17 75.66 2.00 279.70 2746.93
   13:16:00.547.18-Jul-2021 4561.00 6145.30 75.66 2.00 279.90 2746.93
   13:16:00.747.18-Jul-2021 4561.00 6144.82 75.66 2.00 280.10 2746.93
   13:16:00.947.18-Jul-2021 4561.00 6144.82 75.66 2.00 280.30 2746.93
   13:16:01.147.18-Jul-2021 4561.00 6145.70 75.66 2.00 280.50 2746.93
   13:16:01.347.18-Jul-2021 4561.00 6145.28 75.66 2.00 280.70 2746.93
   13:16:01.547.18-Jul-2021 4561.00 6146.26 75.66 2.00 280.90 2746.93
   13:16:01.747.18-Jul-2021 4561.00 6145.39 75.66 2.00 281.10 2746.93
   13:16:01.947.18-Jul-2021 4561.00 6145.39 75.66 2.00 281.30 2746.93
   13:16:02.148.18-Jul-2021 4561.00 6144.97 75.66 2.00 281.50 2746.93
   13:16:02.348.18-Jul-2021 4561.00 6145.40 75.66 2.00 281.70 2746.93
   13:16:02.548.18-Jul-2021 4561.00 6145.01 75.66 2.00 281.90 2746.93
   13:16:02.748.18-Jul-2021 4561.00 6144.79 75.66 2.00 282.10 2746.93
   13:16:02.948.18-Jul-2021 4561.00 6144.79 75.66 2.00 282.30 2746.93
   13:16:03.148.18-Jul-2021 4561.00 6144.94 75.66 2.00 282.50 2746.93
   13:16:03.348.18-Jul-2021 4561.00 6144.90 75.66 2.00 282.70 2746.93
   13:16:03.548.18-Jul-2021 4561.00 6144.22 75.66 2.00 282.90 2746.93
   13:16:03.748.18-Jul-2021 4561.00 6145.27 75.66 2.00 283.10 2746.93
   13:16:03.948.18-Jul-2021 4561.00 6145.27 75.66 2.00 283.30 2746.93
   13:16:04.148.18-Jul-2021 4561.00 6145.33 75.66 2.00 283.50 2746.93
   13:16:04.348.18-Jul-2021 4561.00 6145.11 75.66 2.00 283.70 2746.93
   13:16:04.548.18-Jul-2021 4561.00 6143.70 75.66 2.00 283.90 2746.93
   13:16:04.749.18-Jul-2021 4561.00 6146.35 75.66 2.00 284.10 2746.93
   13:16:04.949.18-Jul-2021 4561.00 6146.35 75.66 2.00 284.30 2746.93
   13:16:05.149.18-Jul-2021 4561.00 6143.97 75.66 2.00 284.50 2746.93
   13:16:05.349.18-Jul-2021 4561.00 6146.49 75.66 2.00 284.70 2746.93
   13:16:05.549.18-Jul-2021 4561.00 6144.83 75.66 2.00 284.90 2746.93
   13:16:05.749.18-Jul-2021 4561.00 6145.32 75.66 2.00 285.10 2746.93
   13:16:05.949.18-Jul-2021 4561.00 6145.32 75.66 2.00 285.31 2746.93
   13:16:06.149.18-Jul-2021 4561.00 6145.43 75.66 2.00 285.51 2746.93
   13:16:06.349.18-Jul-2021 4561.00 6144.68 75.66 2.00 285.71 2746.93
   13:16:06.549.18-Jul-2021 4561.00 6145.88 75.66 2.00 285.91 2746.93
   13:16:06.749.18-Jul-2021 4561.00 6145.38 75.66 2.00 286.11 2746.93
   13:16:06.949.18-Jul-2021 4561.00 6145.38 75.66 2.00 286.31 2746.93
   13:16:07.149.18-Jul-2021 4561.00 6145.07 75.66 2.00 286.51 2746.93
   13:16:07.349.18-Jul-2021 4561.00 6145.00 75.66 2.00 286.71 2746.93
   13:16:07.550.18-Jul-2021 4561.00 6144.70 75.66 2.00 286.91 2746.93
   13:16:07.750.18-Jul-2021 4561.00 6145.14 75.66 2.00 287.11 2746.93
   13:16:07.950.18-Jul-2021 4561.00 6145.14 75.66 2.00 287.31 2746.93
   13:16:08.150.18-Jul-2021 4561.00 6144.55 75.66 2.00 287.51 2746.93
   13:16:08.350.18-Jul-2021 4561.00 6145.16 75.66 2.00 287.71 2746.93
   13:16:08.550.18-Jul-2021 4561.00 6145.31 75.66 2.00 287.91 2746.93
   13:16:08.750.18-Jul-2021 4561.00 6144.19 75.66 2.00 288.11 2746.93
   13:16:08.950.18-Jul-2021 4561.00 6144.19 75.66 2.00 288.31 2746.93
   13:16:09.150.18-Jul-2021 4561.00 6145.06 75.66 2.00 288.51 2746.93
   13:16:09.350.18-Jul-2021 4561.00 6145.18 75.66 2.00 288.71 2746.93
   13:16:09.550.18-Jul-2021 4561.00 6145.73 75.66 2.00 288.91 2746.93
   13:16:09.750.18-Jul-2021 4561.00 6144.79 75.66 2.00 289.11 2746.93
   13:16:09.950.18-Jul-2021 4561.00 6144.79 75.66 2.00 289.31 2746.93
   13:16:10.151.18-Jul-2021 4561.00 6144.85 75.66 2.00 289.51 2746.93
   13:16:10.351.18-Jul-2021 4561.00 6145.01 75.66 2.00 289.71 2746.93
   13:16:10.551.18-Jul-2021 4561.00 6144.92 75.66 2.00 289.91 2746.93
   13:16:10.751.18-Jul-2021 4561.00 6144.88 75.66 2.00 290.11 2746.93
   13:16:10.951.18-Jul-2021 4561.00 6144.88 75.66 2.00 290.31 2746.93
   13:16:11.151.18-Jul-2021 4561.00 6144.89 75.66 2.00 290.51 2746.93
   13:16:11.351.18-Jul-2021 4561.00 6144.11 75.66 2.00 290.71 2746.93
   13:16:11.551.18-Jul-2021 4561.00 6144.85 75.66 2.00 290.91 2746.93
   13:16:11.751.18-Jul-2021 4561.00 6144.65 75.66 2.00 291.11 2746.93
   13:16:11.951.18-Jul-2021 4561.00 6144.65 75.66 2.00 291.31 2746.93
   13:16:12.151.18-Jul-2021 4561.00 6145.86 75.66 2.00 291.51 2746.93
   13:16:12.351.18-Jul-2021 4561.00 6144.74 75.66 2.00 291.71 2746.93
   13:16:12.551.18-Jul-2021 4561.00 6144.23 75.66 2.00 291.91 2746.93
   13:16:12.751.18-Jul-2021 4561.00 6145.52 75.66 2.00 292.11 2746.93
   13:16:12.952.18-Jul-2021 4561.00 6145.52 75.66 2.00 292.31 2746.93
   13:16:13.152.18-Jul-2021 4561.00 6145.94 75.66 2.00 292.51 2746.93
   13:16:13.352.18-Jul-2021 4561.00 6144.40 75.66 2.00 292.71 2746.93
   13:16:13.552.18-Jul-2021 4561.00 6144.96 75.66 2.00 292.91 2746.93
   13:16:13.752.18-Jul-2021 4561.00 6145.36 75.66 2.00 293.11 2746.93
   13:16:13.952.18-Jul-2021 4561.00 6145.36 75.66 2.00 293.31 2746.93
   13:16:14.152.18-Jul-2021 4561.00 6145.48 75.66 2.00 293.51 2746.93
   13:16:14.352.18-Jul-2021 4561.00 6144.52 75.66 2.00 293.71 2746.93
   13:16:14.552.18-Jul-2021 4561.00 6145.09 75.66 2.00 293.91 2746.93
   13:16:14.752.18-Jul-2021 4561.00 6144.43 75.66 2.00 294.11 2746.93
   13:16:14.952.18-Jul-2021 4561.00 6144.43 75.66 2.00 294.31 2746.93
   13:16:15.152.18-Jul-2021 4561.00 6144.09 75.66 2.00 294.51 2746.93
   13:16:15.352.18-Jul-2021 4561.00 6144.30 75.66 2.00 294.71 2746.93
   13:16:15.553.18-Jul-2021 4561.00 6144.24 75.66 2.00 294.91 2746.93
   13:16:15.753.18-Jul-2021 4561.00 6144.40 75.66 2.00 295.11 2746.93
   13:16:15.953.18-Jul-2021 4561.00 6144.40 75.66 2.00 295.31 2746.93
   13:16:16.153.18-Jul-2021 4561.00 6144.31 75.66 2.00 295.51 2746.93
   13:16:16.353.18-Jul-2021 4561.00 6144.52 75.66 2.00 295.71 2746.93
   13:16:16.553.18-Jul-2021 4561.00 6144.25 75.66 2.00 295.91 2746.93
   13:16:16.753.18-Jul-2021 4561.00 6143.50 75.66 2.00 296.11 2746.93
   13:16:16.953.18-Jul-2021 4561.00 6143.50 75.66 2.00 296.31 2746.93
   13:16:17.153.18-Jul-2021 4561.00 6144.73 75.66 2.00 296.51 2746.93
   13:16:17.353.18-Jul-2021 4561.00 6144.99 75.66 2.00 296.71 2746.93
   13:16:17.553.18-Jul-2021 4561.00 6144.46 75.66 2.00 296.91 2746.93
   13:16:17.753.18-Jul-2021 4561.00 6144.23 75.66 2.00 297.11 2746.93
   13:16:17.953.18-Jul-2021 4561.00 6144.23 75.66 2.00 297.31 2746.93
   13:16:18.153.18-Jul-2021 4561.00 6144.31 75.66 2.00 297.51 2746.93
   13:16:18.354.18-Jul-2021 4561.00 6144.20 75.66 2.00 297.71 2746.93
   13:16:18.554.18-Jul-2021 4561.00 6144.59 75.66 2.00 297.91 2746.93
   13:16:18.754.18-Jul-2021 4561.00 6144.25 75.66 2.00 298.11 2746.93
   13:16:18.954.18-Jul-2021 4561.00 6144.25 75.66 2.00 298.31 2746.93
   13:16:19.154.18-Jul-2021 4561.00 6144.55 75.66 2.00 298.51 2746.93
   13:16:19.354.18-Jul-2021 4561.00 6143.52 75.66 2.00 298.71 2746.93
   13:16:19.554.18-Jul-2021 4561.00 6144.51 75.66 2.00 298.91 2746.93
