~Version Information
 VERS.                  2.0:   CWLS log ASCII Standard -VERSION 2.0
 WRAP.                   NO:   One line per depth step
~Well Information Block
#MNEM.UNIT     VALUE/NAME     DESCRIPTION
#---------     -----------    ---------------------------
 STRT.S             12:46:21 18-Jul-21: START TIME 12:46:21 18-Jul-21
 STOP.S             12:52:54 18-Jul-21: STOP TIME  12:52:54 18-Jul-21
 STEP.S                   0.00: STEP TIME
 NULL.                 -999.25: NULL VALUE
 MDS .        Operator Entered:  MAG DATA SOURCE
 PDAT.          Mean Sea Level:  PERMANENT DATUM
 UNIT.                     N/A:  LOGGING EQUIPMENT ID
 DCON.         Sperry Drilling:  DIRECTNL CONTR
 DOE .                     N/A:  DOE NUMBER
 RIG .              West Azeri:  RIG NAME
 JOBN.        AZ-XX-0906997913:  JOB TICKET NUMB
 WELL.                     C41:  WELL NAME
 MWDS.                    Baku:  MWD SHOP
 SRVC.          Turan Drilling:  CONTRACTOR
 FLD .                     ACG:  FIELD NAME
 CTRY.              Azerbaijan:  COUNTRY NAME
 PROV.                    Baku:  PROVINCE
 STAT.                    Baku:  STATE NAME
 REGN.                   EESSA:  REGION
 BASE.              Azerbaijan:  LOGGING EQUIPMENT BASE LOCATION
 UWI .                     N/A:  UNIQUE WELL IDENTIFIER
 API .                     N/A:  API NUMBER
 COMP.     BP Exploration (Caspian Sea) Ltd.:  COMPANY
 WTYP.                Deviated:  WELL TYPE
 SON .        AZ-XX-0906997913:  JOB NUMBER
 FTOP.          Formation Tops:  FORM TOPS DESC
 ILTD.               Lithology:  INTERP LTH DESC
 SVYD.                  Survey:  SURVEY DESC
 DMOD.             Drill Model:  DRILL MOD DESC
 HPTY.       Minimum Curvature:  HOLE POS TYPE
 NREF.                    Grid:  NORTH REFERENCE
 SPUD.               16-May-21:  SPUD DATE
 DATE.      21.11.28 17-May-21:  END TIME
 STIM.      21.11.28 17-May-21:  START TIME
 DMF .             Drill Floor:  DRILL MEAS FROM
 DFST.                        :  DIST FSL TEXT
 DFWT.                        :  DIST FWL TEXT
 CNTY.                        :  COUNTY
 LOC .                        :  LOCATION
 LMF .             Drill Floor:  LOG MEASURED FROM
 AGAP.m                  43.42:  AIR GAP
 VSNS.m                  -2.16:  VERT SEC N/S
 VSEW.m                  -6.24:  VERT SEC E/W
 APD .m                  43.42:  DEPTH ABOVE PD
 WDMS.m                 118.27:  WD ELEV
 EGL .m                   0.00:  GROUND ELEVATION
 EPD .m                   0.00:  ELEVATION
 AZTC.deg                 6.29:  AZM TOTAL CORR
 GRDC.deg                 0.18:  GRID CORRECTION
 MDEC.deg                 6.47:  MAGNETIC DECL
 MDIP.deg                59.54:  MAGNETIC DIP
 MFLD.nT              50337.00:  MAGNETIC FIELD
 GVFD.g                   1.00:  GRAVITY FIELD
 VSDR.deg               226.99:  VERT SEC DIRECT
 TDD .m                   0.00:  TOTAL DEPTH (DRILLER)
 SDEP.m                 448.00:  START DEPTH
 DFSL.m                   0.00:  DISTANCE FSL
 DFWL.m                   0.00:  DISTANCE FWL
 UTMY.m             4435799.96:  UTM Y
 UTMX.m              526265.35:  UTM X
 WHEW.m                  -6.24:  WELL HEAD E/W
 WHNS.m                  -2.16:  WELL HEAD N/S
 LONG.deg                51.31:  LONGITUDE
 LATI.deg                40.06:  LATITUDE
 TVDS.m                  43.42:  TVDSS CORRECTN
 EKB .m                  43.42:  KB ELEVATION
 EDF .m                  43.42:  DF ELEVATION
 TDL .m                 288.00:  TOTAL DEPTH (LOGGER)
 MAGU.                 1851863:  MAGUTM CHECKSUM
 VSC .                       0:  VS TO CLOSURE
~Parameter Information Block
#MNEM.UNIT       Value        Description
#---------     -----------    ---------------------------
 AV  .mps                 0.40:  Ann Velocity 
 AVMX.mps                 0.63:  Max Ann Veloc 
 AZIF.deg               158.76:  Azm, Final 
 BHAT.        Rotary Steerable:  BHA Type 
 BROT.°/30m               0.68:  Build Rotating 
 BS  .in                  8.50:  Bit Size 
 BSZ .in                  8.50:  Bit Size 
 BTPL.psig              712.00:  Bit Press Loss 
 CABU.                      No:  Customer Abuse 
 COMM.                     üëZ:  Run Comments 1 
 TCS .hr                 90.66:  Time Ciculation Ended 
 CV  .mps                 2.02:  Crit Velocity 
 CVMX.mps                 2.14:  Max Crit Veloc 
 DD1 .            Aziz Aliyevu:  Direct Drillr 1 
 DD2 .             Samir Abbas:  Direct Drillr 2 
 DD3 .           Teymur Aliyev:  Direct Drillr 3 
 DDSV.                 iCruise:  DD Service 
 DEFF.%                  85.10:  % Det Eff 
 DLRX.°/30m               1.05:  Dogleg Rot Max 
 DLSO.°/30m               1.01:  Dogleg Oriented 
 DLSX.°/30m               1.05:  Dogleg Str Max 
 DRET.      07.45.00 18-Jul-21:  Drill End Time 
 DRST.      15.00.00 16-Jul-21:  Drill Start Tim 
 DTIM.hr                 23.46:  Time Drilling 
 EDEP.m                4603.00:  End Depth 
 ENG1.       Seymur Iskandarov:  Engineer 1 
 ENG2.         Yevgeniy Ulikov:  Engineer 2 
 ENG3.         Bahruz Mehdiyev:  Engineer 3 
 ENG4.         Elchin Mammadov:  Engineer 4 
 ETIM.      14.00.00 23-Jul-21:  End Time 
 FLOI.gpm               500.00:  Flow In 
 FLON.gpm               450.00:  Flow In Min 
 FLOS.cptm                0.00:  Fluid Loss 
 FLOX.gpm               560.00:  Flow In Max 
 DFT .        Mineral Oil Base:  Mud Type 
 FTRO.       Formation Presure:  FTWD Run Obj 
 HFLO.                      No:  High Flow 
 HPRE.                      No:  High Pressure 
 HTEM.                      No:  High Temp 
 HYDO.m                   1.80:  Hydro Offset 
 IFIN.deg                40.22:  Inc, Final 
 IMAX.deg                40.54:  Inc Max 
 IMIN.deg                39.44:  Inc Min 
 IMND.m                4361.17:  Inc Min Depth 
 IMXD.m                4417.92:  Inc Max Depth 
 JARR.                      No:  Jarring 
 LETM.      07.45.00 18-Jul-21:  Log End Time 
 LOST.hr                    16:  Lost Rig Time 
 LSTM.      15.00.00 16-Jul-21:  Log Start Time 
 MDCL.ppm             36500.00:  Mud Chlorides 
 MDES.     Inversion Oil/Synthetic:  Mud Desc 
 DFD .sg                  1.42:  Mud Density 
 MDMN.sg                  1.42:  Dens Mud Min 
 MDMX.sg                  1.43:  Dens Mud Max 
 MOIL.                      56:  Run Mud Oil % 
 MOWR.                   71:29:  Run Mud OWR 
 MSND.                     0.5:  Run Mud Sand % 
 MSOL.                      21:  Run Mud Solids% 
 DFV .spqt               78.00:  Mud Viscosity 
 MWOD.in                  6.75:  MWD Tool OD 
 MWSI.                     Yes:  Serv Intrp, MWD 
 OTIM.hr                200.73:  Time Operating 
 PCON.           Look Like New:  Pad Condition 
 PMAX.psia            11069.93:  Press Op, Max 
 PV  .cP                 32.00:  Mud PV 
 RUN .                     700:  Run Number 
 ROPA.m/hr               10.00:  ROP Avg 
 ROPN.m/hr                9.00:  ROP Min 
 ROPX.m/hr               16.00:  ROP Max 
 RPMA.rpm               116.00:  RPM Surface Avg 
 RPMN.rpm                80.00:  RPM Surface Min 
 RPMX.rpm               120.00:  RPM Surface Max 
 RRUN.                    L605:  Rig Run Number 
 RTIM.hr                 45.00:  Time Reaming 
 SAZI.deg               159.86:  Azm, Start 
 SDEP.m                4315.00:  Start Depth 
 SIDD.                      No:  Serv Intrp, DD 
 SINC.deg                39.86:  Inc, Start 
 SPPA.psig             3300.00:  SPP Avg 
 SPPN.psig             3040.00:  SPP Min 
 SPPX.psig             3645.00:  SPP Max 
 STIM.      01.00.00 15-Jul-21:  Start Time 
 SVCS.                 DD, MWD:  Services 
 SVER.                    9.20:  Sperry Version 
 TDAT.m                 288.00:  Tot Depth Attmp 
 TDDF.                      No:  Trip for DD 
 TDLG.m                 288.00:  Tot Depth Loggd 
 TFF .                      No:  Trip for Fail 
 TQAA.f-kp               19.00:  Torque Abs Avg 
 TQAN.f-kp               18.00:  Torque Abs Min 
 TQAX.f-kp               21.00:  Torque Abs Max 
 TRRT.°/30m               0.45:  Turn Rotating 
 MRT .                    HCIM:  Maximum Recorded Temperature 
 TTMX.degC               88.24:  Max Tool Temp 
 VS01.                90649157:  Virtual Str1 SN 
 VS02.                90652483:  Virtual Str2 SN 
 VS03.                11671987:  Virtual Str3 SN 
 VS04.                90643411:  Virtual Str4 SN 
 VS05.                90652478:  Virtual Str5 SN 
 VS06.                    6111:  Virtual Str6 SN 
 WBMN.klb                 9.50:  WOB Min 
 WITN.        Grigoriy Sarayev:  Customer Rep 
 WITN.          Rufat Huseynov:  Customer Rep 2 
 WOBA.klb                11.00:  WOB Avg 
 WOBX.klb                15.00:  WOB Max 
 YP  .lhf2               28.00:  Yield Point 
~Curve Information Block
#MNEM.UNIT                 API CODE     Curve Description
#---------               -----------    ---------------------------
 TIME.HHMMSS            00 000 000 000:  GT Time & Date
 GTDEPTH.m              00 000 000 000:  GT Depth
 GTPQH.psia             00 000 000 000:  GT HR Quartz Pressure
 GTTQ.degC              00 000 000 000:  GT Quartz Temperature
 GTTN.NONE              00 000 000 000:  GT Test Number
 GTET.sec               00 000 000 000:  GT Elapsed Test Time
 GTTVD.m                00 000 000 000:  GT True Vertical Depth
#Other Information
#
#WARRANTY: Halliburton will use its best efforts to furnish customers with 
#accurate information and interpretations that are part of, and incident to, the services 
#provided.  However, Halliburton cannot and does not warrant the accuracy 
#or correctness of such information and interpretations.  Under no circumstances should any 
#such information or interpretation be relied upon as the sole basis for any drilling, 
#completion, production, or financial decision or any procedure involving any risk to the 
#safety of any drilling venture, drilling rig or its crew or any other third party.  The 
#Customer has full responsibility for all drilling, completion and production operation.  
#Halliburton makes no representations or warranties, either expressed or 
#implied, including, but not limited to, the implied warranties of merchantability or fitness 
#for a particular purpose, with respect to the services rendered.  In no event will 
#Halliburton be liable for failure to obtain any particular results or for 
#any damages, including, but not limited to, indirect, special or consequential damages, 
#resulting from the use of any information or interpretation provided by Halliburton.
#
~A           TIME           GTDEPTH  GTPQH  GTTQ  GTTN  GTET   GTTVD  
# ...
   12:52:29.227.18-Jul-2021 4561.50 6523.78 76.42 1.00 368.14 2747.31
   12:52:29.427.18-Jul-2021 4561.50 6523.78 76.42 1.00 368.34 2747.31
   12:52:29.627.18-Jul-2021 4561.50 6544.80 76.42 1.00 368.54 2747.31
   12:52:29.828.18-Jul-2021 4561.50 6522.74 76.42 1.00 368.74 2747.31
   12:52:30.028.18-Jul-2021 4561.50 6528.65 76.42 1.00 368.94 2747.31
   12:52:30.228.18-Jul-2021 4561.50 6524.13 76.42 1.00 369.14 2747.31
   12:52:30.428.18-Jul-2021 4561.50 6524.13 76.42 1.00 369.34 2747.31
   12:52:30.628.18-Jul-2021 4561.50 6523.29 76.42 1.00 369.54 2747.31
   12:52:30.828.18-Jul-2021 4561.50 6524.05 76.42 1.00 369.74 2747.31
   12:52:31.028.18-Jul-2021 4561.50 6525.10 76.42 1.00 369.94 2747.31
   12:52:31.228.18-Jul-2021 4561.50 6525.62 76.42 1.00 370.14 2747.31
   12:52:31.428.18-Jul-2021 4561.50 6525.62 76.42 1.00 370.34 2747.31
   12:52:31.628.18-Jul-2021 4561.50 6522.40 76.42 1.00 370.54 2747.31
   12:52:31.828.18-Jul-2021 4561.50 6523.95 76.42 1.00 370.74 2747.31
   12:52:32.028.18-Jul-2021 4561.50 6542.24 76.42 1.00 370.94 2747.31
   12:52:32.228.18-Jul-2021 4561.50 6529.37 76.42 1.00 371.14 2747.31
   12:52:32.428.18-Jul-2021 4561.50 6529.37 76.42 1.00 371.34 2747.31
   12:52:32.629.18-Jul-2021 4561.50 6548.85 76.42 1.00 371.54 2747.31
   12:52:32.829.18-Jul-2021 4561.50 6535.15 76.42 1.00 371.74 2747.31
   12:52:33.029.18-Jul-2021 4561.50 6520.69 76.42 1.00 371.94 2747.31
   12:52:33.229.18-Jul-2021 4561.50 6522.49 76.42 1.00 372.14 2747.31
   12:52:33.429.18-Jul-2021 4561.50 6522.49 76.42 1.00 372.34 2747.31
   12:52:33.629.18-Jul-2021 4561.50 6522.89 76.42 1.00 372.54 2747.31
   12:52:33.829.18-Jul-2021 4561.50 6516.06 76.42 1.00 372.74 2747.31
   12:52:34.029.18-Jul-2021 4561.50 6521.25 76.42 1.00 372.94 2747.31
   12:52:34.229.18-Jul-2021 4561.50 6510.96 76.42 1.00 373.14 2747.31
   12:52:34.429.18-Jul-2021 4561.50 6510.96 76.42 1.00 373.34 2747.31
   12:52:34.629.18-Jul-2021 4561.50 6517.81 76.42 1.00 373.54 2747.31
   12:52:34.829.18-Jul-2021 4561.50 6506.64 76.42 1.00 373.74 2747.31
   12:52:35.029.18-Jul-2021 4561.50 6508.69 76.42 1.00 373.94 2747.31
   12:52:35.230.18-Jul-2021 4561.50 6508.74 76.42 1.00 374.14 2747.31
   12:52:35.430.18-Jul-2021 4561.50 6508.74 76.42 1.00 374.34 2747.31
   12:52:35.630.18-Jul-2021 4561.50 6505.37 76.42 1.00 374.54 2747.31
   12:52:35.830.18-Jul-2021 4561.50 6495.18 76.42 1.00 374.74 2747.31
   12:52:36.030.18-Jul-2021 4561.50 6499.62 76.42 1.00 374.94 2747.31
   12:52:36.230.18-Jul-2021 4561.50 6498.32 76.42 1.00 375.14 2747.31
   12:52:36.430.18-Jul-2021 4561.50 6498.32 76.42 1.00 375.34 2747.31
   12:52:36.630.18-Jul-2021 4561.50 6489.95 76.42 1.00 375.54 2747.31
   12:52:36.830.18-Jul-2021 4561.50 6488.42 76.42 1.00 375.74 2747.31
   12:52:37.030.18-Jul-2021 4561.50 6485.33 76.42 1.00 375.94 2747.31
   12:52:37.230.18-Jul-2021 4561.50 6482.95 76.42 1.00 376.14 2747.31
   12:52:37.430.18-Jul-2021 4561.50 6482.95 76.42 1.00 376.34 2747.31
   12:52:37.630.18-Jul-2021 4561.50 6480.22 76.42 1.00 376.54 2747.31
   12:52:37.830.18-Jul-2021 4561.50 6474.85 76.42 1.00 376.74 2747.31
   12:52:38.031.18-Jul-2021 4561.50 6469.72 76.42 1.00 376.94 2747.31
   12:52:38.231.18-Jul-2021 4561.50 6476.14 76.42 1.00 377.14 2747.31
   12:52:38.431.18-Jul-2021 4561.50 6476.14 76.42 1.00 377.34 2747.31
   12:52:38.631.18-Jul-2021 4561.50 6451.40 76.42 1.00 377.54 2747.31
   12:52:38.831.18-Jul-2021 4561.50 6452.78 76.42 1.00 377.74 2747.31
   12:52:39.031.18-Jul-2021 4561.50 6454.00 76.42 1.00 377.94 2747.31
   12:52:39.231.18-Jul-2021 4561.50 6446.40 76.42 1.00 378.14 2747.31
   12:52:39.431.18-Jul-2021 4561.50 6446.40 76.42 1.00 378.34 2747.31
   12:52:39.631.18-Jul-2021 4561.50 6442.96 76.42 1.00 378.54 2747.31
   12:52:39.831.18-Jul-2021 4561.50 6440.91 76.42 1.00 378.74 2747.31
   12:52:40.031.18-Jul-2021 4561.50 6438.74 76.42 1.00 378.94 2747.31
   12:52:40.231.18-Jul-2021 4561.50 6437.03 76.42 1.00 379.14 2747.31
   12:52:40.431.18-Jul-2021 4561.50 6437.03 76.42 1.00 379.34 2747.31
   12:52:40.632.18-Jul-2021 4561.50 6434.60 76.42 1.00 379.54 2747.31
   12:52:40.832.18-Jul-2021 4561.50 6437.07 76.42 1.00 379.74 2747.31
   12:52:41.032.18-Jul-2021 4561.50 6444.83 76.42 1.00 379.94 2747.31
   12:52:41.232.18-Jul-2021 4561.50 6423.86 76.42 1.00 380.14 2747.31
   12:52:41.432.18-Jul-2021 4561.50 6423.86 76.42 1.00 380.34 2747.31
   12:52:41.632.18-Jul-2021 4561.50 6435.97 76.42 1.00 380.54 2747.31
   12:52:41.832.18-Jul-2021 4561.50 6415.04 76.41 1.00 380.74 2747.31
   12:52:42.032.18-Jul-2021 4561.50 6417.11 76.42 1.00 380.94 2747.31
   12:52:42.232.18-Jul-2021 4561.50 6432.77 76.41 1.00 381.14 2747.31
   12:52:42.432.18-Jul-2021 4561.50 6432.77 76.41 1.00 381.34 2747.31
   12:52:42.632.18-Jul-2021 4561.50 6403.64 76.41 1.00 381.54 2747.31
   12:52:42.832.18-Jul-2021 4561.50 6408.25 76.41 1.00 381.74 2747.31
   12:52:43.032.18-Jul-2021 4561.50 6407.71 76.41 1.00 381.94 2747.31
   12:52:43.232.18-Jul-2021 4561.50 6407.09 76.41 1.00 382.14 2747.31
   12:52:43.433.18-Jul-2021 4561.50 6407.09 76.41 1.00 382.34 2747.31
   12:52:43.633.18-Jul-2021 4561.50 6393.91 76.41 1.00 382.54 2747.31
   12:52:43.833.18-Jul-2021 4561.50 6396.02 76.41 1.00 382.74 2747.31
   12:52:44.033.18-Jul-2021 4561.50 6400.07 76.41 1.00 382.94 2747.31
   12:52:44.233.18-Jul-2021 4561.50 6390.02 76.41 1.00 383.14 2747.31
   12:52:44.433.18-Jul-2021 4561.50 6390.02 76.41 1.00 383.34 2747.31
   12:52:44.633.18-Jul-2021 4561.50 6390.66 76.41 1.00 383.54 2747.31
   12:52:44.833.18-Jul-2021 4561.50 6382.04 76.41 1.00 383.74 2747.31
   12:52:45.033.18-Jul-2021 4561.50 6384.35 76.41 1.00 383.94 2747.31
   12:52:45.233.18-Jul-2021 4561.50 6383.28 76.41 1.00 384.14 2747.31
   12:52:45.433.18-Jul-2021 4561.50 6383.28 76.41 1.00 384.34 2747.31
   12:52:45.633.18-Jul-2021 4561.50 6377.40 76.41 1.00 384.54 2747.31
   12:52:45.833.18-Jul-2021 4561.50 6375.19 76.41 1.00 384.74 2747.31
   12:52:46.034.18-Jul-2021 4561.50 6373.12 76.41 1.00 384.94 2747.31
   12:52:46.234.18-Jul-2021 4561.50 6371.03 76.41 1.00 385.14 2747.31
   12:52:46.434.18-Jul-2021 4561.50 6371.03 76.41 1.00 385.34 2747.31
   12:52:46.634.18-Jul-2021 4561.50 6368.65 76.41 1.00 385.54 2747.31
   12:52:46.834.18-Jul-2021 4561.50 6367.49 76.41 1.00 385.74 2747.31
   12:52:47.034.18-Jul-2021 4561.50 6365.05 76.41 1.00 385.94 2747.31
   12:52:47.234.18-Jul-2021 4561.50 6372.46 76.41 1.00 386.14 2747.31
   12:52:47.434.18-Jul-2021 4561.50 6372.46 76.41 1.00 386.34 2747.31
   12:52:47.634.18-Jul-2021 4561.50 6372.46 76.41 1.00 386.54 2747.31
   12:52:47.834.18-Jul-2021 4561.50 6351.51 76.41 1.00 386.74 2747.31
   12:52:48.034.18-Jul-2021 4561.50 6352.51 76.41 1.00 386.94 2747.31
   12:52:48.234.18-Jul-2021 4561.50 6345.06 76.41 1.00 387.14 2747.31
   12:52:48.434.18-Jul-2021 4561.50 6345.06 76.41 1.00 387.34 2747.31
   12:52:48.634.18-Jul-2021 4561.50 6345.06 76.41 1.00 387.54 2747.31
   12:52:48.835.18-Jul-2021 4561.50 6341.76 76.41 1.00 387.74 2747.31
   12:52:49.035.18-Jul-2021 4561.50 6340.06 76.41 1.00 387.94 2747.31
   12:52:49.235.18-Jul-2021 4561.50 6339.35 76.41 1.00 388.14 2747.31
   12:52:49.435.18-Jul-2021 4561.50 6339.35 76.41 1.00 388.34 2747.31
   12:52:49.635.18-Jul-2021 4561.50 6337.57 76.41 1.00 388.54 2747.31
   12:52:49.835.18-Jul-2021 4561.50 6339.49 76.41 1.00 388.74 2747.31
   12:52:50.035.18-Jul-2021 4561.50 6345.80 76.41 1.00 388.94 2747.31
   12:52:50.235.18-Jul-2021 4561.50 6326.18 76.41 1.00 389.14 2747.31
   12:52:50.435.18-Jul-2021 4561.50 6326.18 76.41 1.00 389.34 2747.31
   12:52:50.635.18-Jul-2021 4561.50 6336.42 76.41 1.00 389.54 2747.31
   12:52:50.835.18-Jul-2021 4561.50 6317.77 76.41 1.00 389.74 2747.31
   12:52:51.035.18-Jul-2021 4561.50 6319.60 76.41 1.00 389.94 2747.31
   12:52:51.235.18-Jul-2021 4561.50 6331.03 76.41 1.00 390.14 2747.31
   12:52:51.435.18-Jul-2021 4561.50 6331.03 76.41 1.00 390.34 2747.31
   12:52:51.636.18-Jul-2021 4561.50 6309.02 76.41 1.00 390.54 2747.31
   12:52:51.836.18-Jul-2021 4561.50 6328.35 76.41 1.00 390.74 2747.31
   12:52:52.036.18-Jul-2021 4561.50 6320.36 76.41 1.00 390.94 2747.31
