~Version Information
 VERS.                  2.0:   CWLS log ASCII Standard -VERSION 2.0
 WRAP.                   NO:   One line per depth step
~Well Information Block
#MNEM.UNIT     VALUE/NAME     DESCRIPTION
#---------     -----------    ---------------------------
 STRT.S             07:55:35 19-Jul-21: START TIME 07:55:35 19-Jul-21
 STOP.S             08:02:29 19-Jul-21: STOP TIME  08:02:29 19-Jul-21
 STEP.S                   0.00: STEP TIME
 NULL.                 -999.25: NULL VALUE
 MDS .        Operator Entered:  MAG DATA SOURCE
 PDAT.          Mean Sea Level:  PERMANENT DATUM
 UNIT.                     N/A:  LOGGING EQUIPMENT ID
 DCON.         Sperry Drilling:  DIRECTNL CONTR
 DOE .                     N/A:  DOE NUMBER
 RIG .              West Azeri:  RIG NAME
 JOBN.        AZ-XX-0906997913:  JOB TICKET NUMB
 WELL.                     C41:  WELL NAME
 MWDS.                    Baku:  MWD SHOP
 SRVC.          Turan Drilling:  CONTRACTOR
 FLD .                     ACG:  FIELD NAME
 CTRY.              Azerbaijan:  COUNTRY NAME
 PROV.                    Baku:  PROVINCE
 STAT.                    Baku:  STATE NAME
 REGN.                   EESSA:  REGION
 BASE.              Azerbaijan:  LOGGING EQUIPMENT BASE LOCATION
 UWI .                     N/A:  UNIQUE WELL IDENTIFIER
 API .                     N/A:  API NUMBER
 COMP.     BP Exploration (Caspian Sea) Ltd.:  COMPANY
 WTYP.                Deviated:  WELL TYPE
 SON .        AZ-XX-0906997913:  JOB NUMBER
 FTOP.          Formation Tops:  FORM TOPS DESC
 ILTD.               Lithology:  INTERP LTH DESC
 SVYD.                  Survey:  SURVEY DESC
 DMOD.             Drill Model:  DRILL MOD DESC
 HPTY.       Minimum Curvature:  HOLE POS TYPE
 NREF.                    Grid:  NORTH REFERENCE
 SPUD.               16-May-21:  SPUD DATE
 DATE.      21.11.28 17-May-21:  END TIME
 STIM.      21.11.28 17-May-21:  START TIME
 DMF .             Drill Floor:  DRILL MEAS FROM
 DFST.                        :  DIST FSL TEXT
 DFWT.                        :  DIST FWL TEXT
 CNTY.                        :  COUNTY
 LOC .                        :  LOCATION
 LMF .             Drill Floor:  LOG MEASURED FROM
 AGAP.m                  43.42:  AIR GAP
 VSNS.m                  -2.16:  VERT SEC N/S
 VSEW.m                  -6.24:  VERT SEC E/W
 APD .m                  43.42:  DEPTH ABOVE PD
 WDMS.m                 118.27:  WD ELEV
 EGL .m                   0.00:  GROUND ELEVATION
 EPD .m                   0.00:  ELEVATION
 AZTC.deg                 6.29:  AZM TOTAL CORR
 GRDC.deg                 0.18:  GRID CORRECTION
 MDEC.deg                 6.47:  MAGNETIC DECL
 MDIP.deg                59.54:  MAGNETIC DIP
 MFLD.nT              50337.00:  MAGNETIC FIELD
 GVFD.g                   1.00:  GRAVITY FIELD
 VSDR.deg               226.99:  VERT SEC DIRECT
 TDD .m                   0.00:  TOTAL DEPTH (DRILLER)
 SDEP.m                 448.00:  START DEPTH
 DFSL.m                   0.00:  DISTANCE FSL
 DFWL.m                   0.00:  DISTANCE FWL
 UTMY.m             4435799.96:  UTM Y
 UTMX.m              526265.35:  UTM X
 WHEW.m                  -6.24:  WELL HEAD E/W
 WHNS.m                  -2.16:  WELL HEAD N/S
 LONG.deg                51.31:  LONGITUDE
 LATI.deg                40.06:  LATITUDE
 TVDS.m                  43.42:  TVDSS CORRECTN
 EKB .m                  43.42:  KB ELEVATION
 EDF .m                  43.42:  DF ELEVATION
 TDL .m                 288.00:  TOTAL DEPTH (LOGGER)
 MAGU.                 1851863:  MAGUTM CHECKSUM
 VSC .                       0:  VS TO CLOSURE
~Parameter Information Block
#MNEM.UNIT       Value        Description
#---------     -----------    ---------------------------
 AV  .mps                 0.40:  Ann Velocity 
 AVMX.mps                 0.63:  Max Ann Veloc 
 AZIF.deg               158.76:  Azm, Final 
 BHAT.        Rotary Steerable:  BHA Type 
 BROT.°/30m               0.68:  Build Rotating 
 BS  .in                  8.50:  Bit Size 
 BSZ .in                  8.50:  Bit Size 
 BTPL.psig              712.00:  Bit Press Loss 
 CABU.                      No:  Customer Abuse 
 COMM.                     ,°M:  Run Comments 1 
 TCS .hr                 90.66:  Time Ciculation Ended 
 CV  .mps                 2.02:  Crit Velocity 
 CVMX.mps                 2.14:  Max Crit Veloc 
 DD1 .            Aziz Aliyevu:  Direct Drillr 1 
 DD2 .             Samir Abbas:  Direct Drillr 2 
 DD3 .           Teymur Aliyev:  Direct Drillr 3 
 DDSV.                 iCruise:  DD Service 
 DEFF.%                  85.10:  % Det Eff 
 DLRX.°/30m               1.05:  Dogleg Rot Max 
 DLSO.°/30m               1.01:  Dogleg Oriented 
 DLSX.°/30m               1.05:  Dogleg Str Max 
 DRET.      07.45.00 18-Jul-21:  Drill End Time 
 DRST.      15.00.00 16-Jul-21:  Drill Start Tim 
 DTIM.hr                 23.46:  Time Drilling 
 EDEP.m                4603.00:  End Depth 
 ENG1.       Seymur Iskandarov:  Engineer 1 
 ENG2.         Yevgeniy Ulikov:  Engineer 2 
 ENG3.         Bahruz Mehdiyev:  Engineer 3 
 ENG4.         Elchin Mammadov:  Engineer 4 
 ETIM.      14.00.00 23-Jul-21:  End Time 
 FLOI.gpm               500.00:  Flow In 
 FLON.gpm               450.00:  Flow In Min 
 FLOS.cptm                0.00:  Fluid Loss 
 FLOX.gpm               560.00:  Flow In Max 
 DFT .        Mineral Oil Base:  Mud Type 
 FTRO.       Formation Presure:  FTWD Run Obj 
 HFLO.                      No:  High Flow 
 HPRE.                      No:  High Pressure 
 HTEM.                      No:  High Temp 
 HYDO.m                   1.80:  Hydro Offset 
 IFIN.deg                40.22:  Inc, Final 
 IMAX.deg                40.54:  Inc Max 
 IMIN.deg                39.44:  Inc Min 
 IMND.m                4361.17:  Inc Min Depth 
 IMXD.m                4417.92:  Inc Max Depth 
 JARR.                      No:  Jarring 
 LETM.      07.45.00 18-Jul-21:  Log End Time 
 LOST.hr                    16:  Lost Rig Time 
 LSTM.      15.00.00 16-Jul-21:  Log Start Time 
 MDCL.ppm             36500.00:  Mud Chlorides 
 MDES.     Inversion Oil/Synthetic:  Mud Desc 
 DFD .sg                  1.42:  Mud Density 
 MDMN.sg                  1.42:  Dens Mud Min 
 MDMX.sg                  1.43:  Dens Mud Max 
 MOIL.                      56:  Run Mud Oil % 
 MOWR.                   71:29:  Run Mud OWR 
 MSND.                     0.5:  Run Mud Sand % 
 MSOL.                      21:  Run Mud Solids% 
 DFV .spqt               78.00:  Mud Viscosity 
 MWOD.in                  6.75:  MWD Tool OD 
 MWSI.                     Yes:  Serv Intrp, MWD 
 OTIM.hr                200.73:  Time Operating 
 PCON.           Look Like New:  Pad Condition 
 PMAX.psia            11069.93:  Press Op, Max 
 PV  .cP                 32.00:  Mud PV 
 RUN .                     700:  Run Number 
 ROPA.m/hr               10.00:  ROP Avg 
 ROPN.m/hr                9.00:  ROP Min 
 ROPX.m/hr               16.00:  ROP Max 
 RPMA.rpm               116.00:  RPM Surface Avg 
 RPMN.rpm                80.00:  RPM Surface Min 
 RPMX.rpm               120.00:  RPM Surface Max 
 RRUN.                    L605:  Rig Run Number 
 RTIM.hr                 45.00:  Time Reaming 
 SAZI.deg               159.86:  Azm, Start 
 SDEP.m                4315.00:  Start Depth 
 SIDD.                      No:  Serv Intrp, DD 
 SINC.deg                39.86:  Inc, Start 
 SPPA.psig             3300.00:  SPP Avg 
 SPPN.psig             3040.00:  SPP Min 
 SPPX.psig             3645.00:  SPP Max 
 STIM.      01.00.00 15-Jul-21:  Start Time 
 SVCS.                 DD, MWD:  Services 
 SVER.                    9.20:  Sperry Version 
 TDAT.m                 288.00:  Tot Depth Attmp 
 TDDF.                      No:  Trip for DD 
 TDLG.m                 288.00:  Tot Depth Loggd 
 TFF .                      No:  Trip for Fail 
 TQAA.f-kp               19.00:  Torque Abs Avg 
 TQAN.f-kp               18.00:  Torque Abs Min 
 TQAX.f-kp               21.00:  Torque Abs Max 
 TRRT.°/30m               0.45:  Turn Rotating 
 MRT .                    HCIM:  Maximum Recorded Temperature 
 TTMX.degC               88.24:  Max Tool Temp 
 VS01.                90649157:  Virtual Str1 SN 
 VS02.                90652483:  Virtual Str2 SN 
 VS03.                11671987:  Virtual Str3 SN 
 VS04.                90643411:  Virtual Str4 SN 
 VS05.                90652478:  Virtual Str5 SN 
 VS06.                    6111:  Virtual Str6 SN 
 WBMN.klb                 9.50:  WOB Min 
 WITN.        Grigoriy Sarayev:  Customer Rep 
 WITN.          Rufat Huseynov:  Customer Rep 2 
 WOBA.klb                11.00:  WOB Avg 
 WOBX.klb                15.00:  WOB Max 
 YP  .lhf2               28.00:  Yield Point 
~Curve Information Block
#MNEM.UNIT                 API CODE     Curve Description
#---------               -----------    ---------------------------
 TIME.HHMMSS            00 000 000 000:  GT Time & Date
 GTDEPTH.m              00 000 000 000:  GT Depth
 GTPQH.psia             00 000 000 000:  GT HR Quartz Pressure
 GTTQ.degC              00 000 000 000:  GT Quartz Temperature
 GTTN.NONE              00 000 000 000:  GT Test Number
 GTET.sec               00 000 000 000:  GT Elapsed Test Time
 GTTVD.m                00 000 000 000:  GT True Vertical Depth
#Other Information
#
#WARRANTY: Halliburton will use its best efforts to furnish customers with 
#accurate information and interpretations that are part of, and incident to, the services 
#provided.  However, Halliburton cannot and does not warrant the accuracy 
#or correctness of such information and interpretations.  Under no circumstances should any 
#such information or interpretation be relied upon as the sole basis for any drilling, 
#completion, production, or financial decision or any procedure involving any risk to the 
#safety of any drilling venture, drilling rig or its crew or any other third party.  The 
#Customer has full responsibility for all drilling, completion and production operation.  
#Halliburton makes no representations or warranties, either expressed or 
#implied, including, but not limited to, the implied warranties of merchantability or fitness 
#for a particular purpose, with respect to the services rendered.  In no event will 
#Halliburton be liable for failure to obtain any particular results or for 
#any damages, including, but not limited to, indirect, special or consequential damages, 
#resulting from the use of any information or interpretation provided by Halliburton.
#
~A           TIME           GTDEPTH  GTPQH  GTTQ  GTTN   GTET   GTTVD  
# ...
   07:55:58.090.19-Jul-2021 4420.00 6410.72 70.17 17.00  22.61 2639.17
   07:55:58.290.19-Jul-2021 4420.00 6390.47 70.17 17.00  22.81 2639.17
   07:55:58.490.19-Jul-2021 4420.00 6391.73 70.17 17.00  23.01 2639.17
   07:55:58.690.19-Jul-2021 4420.00 6391.73 70.17 17.00  23.21 2639.17
   07:55:58.890.19-Jul-2021 4420.00 6391.24 70.17 17.00  23.41 2639.17
   07:55:59.090.19-Jul-2021 4420.00 6393.12 70.17 17.00  23.61 2639.17
   07:55:59.290.19-Jul-2021 4420.00 6389.82 70.17 17.00  23.81 2639.17
   07:55:59.490.19-Jul-2021 4420.00 6389.36 70.17 17.00  24.01 2639.17
   07:55:59.690.19-Jul-2021 4420.00 6389.36 70.17 17.00  24.21 2639.17
   07:55:59.890.19-Jul-2021 4420.00 6390.03 70.17 17.00  24.41 2639.17
   07:56:00.091.19-Jul-2021 4420.00 6389.75 70.17 17.00  24.61 2639.17
   07:56:00.291.19-Jul-2021 4420.00 6388.73 70.17 17.00  24.81 2639.17
   07:56:00.491.19-Jul-2021 4420.00 6388.75 70.17 17.00  25.01 2639.17
   07:56:00.691.19-Jul-2021 4420.00 6388.75 70.17 17.00  25.21 2639.17
   07:56:00.891.19-Jul-2021 4420.00 6391.82 70.17 17.00  25.41 2639.17
   07:56:01.091.19-Jul-2021 4420.00 6391.71 70.17 17.00  25.61 2639.17
   07:56:01.291.19-Jul-2021 4420.00 6411.61 70.17 17.00  25.81 2639.17
   07:56:01.491.19-Jul-2021 4420.00 6394.95 70.17 17.00  26.01 2639.17
   07:56:01.691.19-Jul-2021 4420.00 6394.95 70.17 17.00  26.21 2639.17
   07:56:01.891.19-Jul-2021 4420.00 6395.25 70.17 17.00  26.41 2639.17
   07:56:02.091.19-Jul-2021 4420.00 6392.83 70.17 17.00  26.61 2639.17
   07:56:02.291.19-Jul-2021 4420.00 6416.99 70.17 17.00  26.81 2639.17
   07:56:02.491.19-Jul-2021 4420.00 6390.68 70.17 17.00  27.01 2639.17
   07:56:02.691.19-Jul-2021 4420.00 6390.68 70.17 17.00  27.21 2639.17
   07:56:02.892.19-Jul-2021 4420.00 6392.27 70.17 17.00  27.41 2639.17
   07:56:03.092.19-Jul-2021 4420.00 6399.44 70.17 17.00  27.61 2639.17
   07:56:03.292.19-Jul-2021 4420.00 6408.74 70.17 17.00  27.81 2639.17
   07:56:03.492.19-Jul-2021 4420.00 6396.30 70.17 17.00  28.01 2639.17
   07:56:03.692.19-Jul-2021 4420.00 6396.30 70.17 17.00  28.21 2639.17
   07:56:03.892.19-Jul-2021 4420.00 6402.98 70.17 17.00  28.41 2639.17
   07:56:04.092.19-Jul-2021 4420.00 6398.60 70.17 17.00  28.61 2639.17
   07:56:04.292.19-Jul-2021 4420.00 6397.83 70.17 17.00  28.81 2639.17
   07:56:04.492.19-Jul-2021 4420.00 6399.16 70.17 17.00  29.01 2639.17
   07:56:04.692.19-Jul-2021 4420.00 6399.16 70.17 17.00  29.21 2639.17
   07:56:04.892.19-Jul-2021 4420.00 6395.61 70.17 17.00  29.41 2639.17
   07:56:05.092.19-Jul-2021 4420.00 6396.22 70.17 17.00  29.61 2639.17
   07:56:05.292.19-Jul-2021 4420.00 6395.35 70.17 17.00  29.81 2639.17
   07:56:05.492.19-Jul-2021 4420.00 6407.94 70.17 17.00  30.01 2639.17
   07:56:05.693.19-Jul-2021 4420.00 6407.94 70.17 17.00  30.21 2639.17
   07:56:05.893.19-Jul-2021 4420.00 6439.23 70.17 17.00  30.41 2639.17
   07:56:06.093.19-Jul-2021 4420.00 6442.04 70.17 17.00  30.61 2639.17
   07:56:06.293.19-Jul-2021 4420.00 6443.53 70.17 17.00  30.81 2639.17
   07:56:06.493.19-Jul-2021 4420.00 6444.47 70.17 17.00  31.01 2639.17
   07:56:06.693.19-Jul-2021 4420.00 6444.47 70.17 17.00  31.21 2639.17
   07:56:06.893.19-Jul-2021 4420.00 6440.74 70.17 17.00  31.41 2639.17
   07:56:07.093.19-Jul-2021 4420.00 6430.68 70.17 17.00  31.61 2639.17
   07:56:07.293.19-Jul-2021 4420.00 6424.61 70.17 17.00  31.81 2639.17
   07:56:07.493.19-Jul-2021 4420.00 6418.00 70.17 17.00  32.01 2639.17
   07:56:07.693.19-Jul-2021 4420.00 6418.00 70.17 17.00  32.21 2639.17
   07:56:07.893.19-Jul-2021 4420.00 6415.24 70.17 17.00  32.41 2639.17
   07:56:08.093.19-Jul-2021 4420.00 6411.85 70.17 17.00  32.61 2639.17
   07:56:08.294.19-Jul-2021 4420.00 6411.42 70.17 17.00  32.81 2639.17
   07:56:08.494.19-Jul-2021 4420.00 6410.78 70.17 17.00  33.01 2639.17
   07:56:08.694.19-Jul-2021 4420.00 6410.78 70.17 17.00  33.21 2639.17
   07:56:08.894.19-Jul-2021 4420.00 6409.68 70.17 17.00  33.41 2639.17
   07:56:09.094.19-Jul-2021 4420.00 6409.08 70.17 17.00  33.61 2639.17
   07:56:09.294.19-Jul-2021 4420.00 6415.09 70.17 17.00  33.81 2639.17
   07:56:09.494.19-Jul-2021 4420.00 6411.35 70.17 17.00  34.01 2639.17
   07:56:09.694.19-Jul-2021 4420.00 6411.35 70.17 17.00  34.21 2639.17
   07:56:09.894.19-Jul-2021 4420.00 6413.57 70.17 17.00  34.41 2639.17
   07:56:10.094.19-Jul-2021 4420.00 6407.45 70.17 17.00  34.61 2639.17
   07:56:10.294.19-Jul-2021 4420.00 6406.51 70.17 17.00  34.81 2639.17
   07:56:10.494.19-Jul-2021 4420.00 6405.00 70.17 17.00  35.01 2639.17
   07:56:10.694.19-Jul-2021 4420.00 6405.00 70.17 17.00  35.21 2639.17
   07:56:10.894.19-Jul-2021 4420.00 6405.62 70.17 17.00  35.41 2639.17
   07:56:11.095.19-Jul-2021 4420.00 6401.85 70.17 17.00  35.61 2639.17
   07:56:11.295.19-Jul-2021 4420.00 6400.96 70.17 17.00  35.81 2639.17
   07:56:11.495.19-Jul-2021 4420.00 6399.65 70.17 17.00  36.01 2639.17
   07:56:11.695.19-Jul-2021 4420.00 6399.65 70.17 17.00  36.21 2639.17
   07:56:11.895.19-Jul-2021 4420.00 6282.76 70.17 17.00  36.41 2639.17
   07:56:12.095.19-Jul-2021 4420.00 4616.47 70.17 17.00  36.61 2639.17
   07:56:12.295.19-Jul-2021 4420.00 3695.46 70.17 17.00  36.81 2639.17
   07:56:12.495.19-Jul-2021 4420.00 3507.58 70.17 17.00  37.01 2639.17
   07:56:12.695.19-Jul-2021 4420.00 3507.58 70.17 17.00  37.21 2639.17
   07:56:12.895.19-Jul-2021 4420.00 3587.48 70.16 17.00  37.41 2639.17
   07:56:13.095.19-Jul-2021 4420.00 3589.20 70.16 17.00  37.61 2639.17
   07:56:13.295.19-Jul-2021 4420.00 3591.43 70.16 17.00  37.81 2639.17
   07:56:13.495.19-Jul-2021 4420.00 3592.34 70.16 17.00  38.01 2639.17
   07:56:13.696.19-Jul-2021 4420.00 3592.34 70.16 17.00  38.21 2639.17
   07:56:13.896.19-Jul-2021 4420.00 3591.00 70.16 17.00  38.41 2639.17
   07:56:14.096.19-Jul-2021 4420.00 3586.92 70.16 17.00  38.61 2639.17
   07:56:14.296.19-Jul-2021 4420.00 3585.43 70.16 17.00  38.81 2639.17
   07:56:14.496.19-Jul-2021 4420.00 3584.22 70.15 17.00  39.01 2639.17
   07:56:14.696.19-Jul-2021 4420.00 3584.22 70.15 17.00  39.21 2639.17
   07:56:14.896.19-Jul-2021 4420.00 3583.90 70.15 17.00  39.41 2639.17
   07:56:15.096.19-Jul-2021 4420.00 3583.56 70.15 17.00  39.61 2639.17
   07:56:15.296.19-Jul-2021 4420.00 3584.07 70.15 17.00  39.81 2639.17
   07:56:15.496.19-Jul-2021 4420.00 3584.82 70.15 17.00  40.01 2639.17
   07:56:15.696.19-Jul-2021 4420.00 3584.82 70.15 17.00  40.21 2639.17
   07:56:15.896.19-Jul-2021 4420.00 3585.39 70.14 17.00  40.41 2639.17
   07:56:16.096.19-Jul-2021 4420.00 3583.65 70.14 17.00  40.61 2639.17
   07:56:16.296.19-Jul-2021 4420.00 3583.97 70.14 17.00  40.82 2639.17
   07:56:16.497.19-Jul-2021 4420.00 3583.77 70.14 17.00  41.02 2639.17
   07:56:16.697.19-Jul-2021 4420.00 3583.77 70.14 17.00  41.22 2639.17
   07:56:16.897.19-Jul-2021 4420.00 3583.15 70.13 17.00  41.42 2639.17
   07:56:17.097.19-Jul-2021 4420.00 3584.15 70.13 17.00  41.62 2639.17
   07:56:17.297.19-Jul-2021 4420.00 3583.65 70.13 17.00  41.82 2639.17
   07:56:17.497.19-Jul-2021 4420.00 3584.10 70.13 17.00  42.02 2639.17
   07:56:17.697.19-Jul-2021 4420.00 3584.10 70.13 17.00  42.22 2639.17
   07:56:17.897.19-Jul-2021 4420.00 3584.49 70.13 17.00  42.42 2639.17
   07:56:18.097.19-Jul-2021 4420.00 3583.66 70.13 17.00  42.62 2639.17
   07:56:18.297.19-Jul-2021 4420.00 3586.19 70.12 17.00  42.82 2639.17
   07:56:18.497.19-Jul-2021 4420.00 3582.32 70.12 17.00  43.02 2639.17
   07:56:18.697.19-Jul-2021 4420.00 3582.32 70.12 17.00  43.22 2639.17
   07:56:18.897.19-Jul-2021 4420.00 3583.49 70.12 17.00  43.42 2639.17
   07:56:19.098.19-Jul-2021 4420.00 3583.72 70.12 17.00  43.62 2639.17
   07:56:19.298.19-Jul-2021 4420.00 3583.74 70.12 17.00  43.82 2639.17
   07:56:19.498.19-Jul-2021 4420.00 3583.60 70.12 17.00  44.02 2639.17
   07:56:19.698.19-Jul-2021 4420.00 3583.60 70.12 17.00  44.22 2639.17
   07:56:19.898.19-Jul-2021 4420.00 3583.57 70.12 17.00  44.42 2639.17
   07:56:20.098.19-Jul-2021 4420.00 3584.59 70.11 17.00  44.62 2639.17
   07:56:20.298.19-Jul-2021 4420.00 3581.86 70.11 17.00  44.82 2639.17
   07:56:20.498.19-Jul-2021 4420.00 3583.94 70.11 17.00  45.02 2639.17
