~Version Information
 VERS.                  2.0:   CWLS log ASCII Standard -VERSION 2.0
 WRAP.                   NO:   One line per depth step
~Well Information Block
#MNEM.UNIT     VALUE/NAME     DESCRIPTION
#---------     -----------    ---------------------------
 STRT.S             12:06:52 19-Jul-21: START TIME 12:06:52 19-Jul-21
 STOP.S             12:13:44 19-Jul-21: STOP TIME  12:13:44 19-Jul-21
 STEP.S                   0.00: STEP TIME
 NULL.                 -999.25: NULL VALUE
 MDS .        Operator Entered:  MAG DATA SOURCE
 PDAT.          Mean Sea Level:  PERMANENT DATUM
 UNIT.                     N/A:  LOGGING EQUIPMENT ID
 DCON.         Sperry Drilling:  DIRECTNL CONTR
 DOE .                     N/A:  DOE NUMBER
 RIG .              West Azeri:  RIG NAME
 JOBN.        AZ-XX-0906997913:  JOB TICKET NUMB
 WELL.                     C41:  WELL NAME
 MWDS.                    Baku:  MWD SHOP
 SRVC.          Turan Drilling:  CONTRACTOR
 FLD .                     ACG:  FIELD NAME
 CTRY.              Azerbaijan:  COUNTRY NAME
 PROV.                    Baku:  PROVINCE
 STAT.                    Baku:  STATE NAME
 REGN.                   EESSA:  REGION
 BASE.              Azerbaijan:  LOGGING EQUIPMENT BASE LOCATION
 UWI .                     N/A:  UNIQUE WELL IDENTIFIER
 API .                     N/A:  API NUMBER
 COMP.     BP Exploration (Caspian Sea) Ltd.:  COMPANY
 WTYP.                Deviated:  WELL TYPE
 SON .        AZ-XX-0906997913:  JOB NUMBER
 FTOP.          Formation Tops:  FORM TOPS DESC
 ILTD.               Lithology:  INTERP LTH DESC
 SVYD.                  Survey:  SURVEY DESC
 DMOD.             Drill Model:  DRILL MOD DESC
 HPTY.       Minimum Curvature:  HOLE POS TYPE
 NREF.                    Grid:  NORTH REFERENCE
 SPUD.               16-May-21:  SPUD DATE
 DATE.      21.11.28 17-May-21:  END TIME
 STIM.      21.11.28 17-May-21:  START TIME
 DMF .             Drill Floor:  DRILL MEAS FROM
 DFST.                        :  DIST FSL TEXT
 DFWT.                        :  DIST FWL TEXT
 CNTY.                        :  COUNTY
 LOC .                        :  LOCATION
 LMF .             Drill Floor:  LOG MEASURED FROM
 AGAP.m                  43.42:  AIR GAP
 VSNS.m                  -2.16:  VERT SEC N/S
 VSEW.m                  -6.24:  VERT SEC E/W
 APD .m                  43.42:  DEPTH ABOVE PD
 WDMS.m                 118.27:  WD ELEV
 EGL .m                   0.00:  GROUND ELEVATION
 EPD .m                   0.00:  ELEVATION
 AZTC.deg                 6.29:  AZM TOTAL CORR
 GRDC.deg                 0.18:  GRID CORRECTION
 MDEC.deg                 6.47:  MAGNETIC DECL
 MDIP.deg                59.54:  MAGNETIC DIP
 MFLD.nT              50337.00:  MAGNETIC FIELD
 GVFD.g                   1.00:  GRAVITY FIELD
 VSDR.deg               226.99:  VERT SEC DIRECT
 TDD .m                   0.00:  TOTAL DEPTH (DRILLER)
 SDEP.m                 448.00:  START DEPTH
 DFSL.m                   0.00:  DISTANCE FSL
 DFWL.m                   0.00:  DISTANCE FWL
 UTMY.m             4435799.96:  UTM Y
 UTMX.m              526265.35:  UTM X
 WHEW.m                  -6.24:  WELL HEAD E/W
 WHNS.m                  -2.16:  WELL HEAD N/S
 LONG.deg                51.31:  LONGITUDE
 LATI.deg                40.06:  LATITUDE
 TVDS.m                  43.42:  TVDSS CORRECTN
 EKB .m                  43.42:  KB ELEVATION
 EDF .m                  43.42:  DF ELEVATION
 TDL .m                 288.00:  TOTAL DEPTH (LOGGER)
 MAGU.                 1851863:  MAGUTM CHECKSUM
 VSC .                       0:  VS TO CLOSURE
~Parameter Information Block
#MNEM.UNIT       Value        Description
#---------     -----------    ---------------------------
 AV  .mps                 0.40:  Ann Velocity 
 AVMX.mps                 0.63:  Max Ann Veloc 
 AZIF.deg               158.76:  Azm, Final 
 BHAT.        Rotary Steerable:  BHA Type 
 BROT.°/30m               0.68:  Build Rotating 
 BS  .in                  8.50:  Bit Size 
 BSZ .in                  8.50:  Bit Size 
 BTPL.psig              712.00:  Bit Press Loss 
 CABU.                      No:  Customer Abuse 
 COMM.                     {J:  Run Comments 1 
 TCS .hr                 90.66:  Time Ciculation Ended 
 CV  .mps                 2.02:  Crit Velocity 
 CVMX.mps                 2.14:  Max Crit Veloc 
 DD1 .            Aziz Aliyevu:  Direct Drillr 1 
 DD2 .             Samir Abbas:  Direct Drillr 2 
 DD3 .           Teymur Aliyev:  Direct Drillr 3 
 DDSV.                 iCruise:  DD Service 
 DEFF.%                  85.10:  % Det Eff 
 DLRX.°/30m               1.05:  Dogleg Rot Max 
 DLSO.°/30m               1.01:  Dogleg Oriented 
 DLSX.°/30m               1.05:  Dogleg Str Max 
 DRET.      07.45.00 18-Jul-21:  Drill End Time 
 DRST.      15.00.00 16-Jul-21:  Drill Start Tim 
 DTIM.hr                 23.46:  Time Drilling 
 EDEP.m                4603.00:  End Depth 
 ENG1.       Seymur Iskandarov:  Engineer 1 
 ENG2.         Yevgeniy Ulikov:  Engineer 2 
 ENG3.         Bahruz Mehdiyev:  Engineer 3 
 ENG4.         Elchin Mammadov:  Engineer 4 
 ETIM.      14.00.00 23-Jul-21:  End Time 
 FLOI.gpm               500.00:  Flow In 
 FLON.gpm               450.00:  Flow In Min 
 FLOS.cptm                0.00:  Fluid Loss 
 FLOX.gpm               560.00:  Flow In Max 
 DFT .        Mineral Oil Base:  Mud Type 
 FTRO.       Formation Presure:  FTWD Run Obj 
 HFLO.                      No:  High Flow 
 HPRE.                      No:  High Pressure 
 HTEM.                      No:  High Temp 
 HYDO.m                   1.80:  Hydro Offset 
 IFIN.deg                40.22:  Inc, Final 
 IMAX.deg                40.54:  Inc Max 
 IMIN.deg                39.44:  Inc Min 
 IMND.m                4361.17:  Inc Min Depth 
 IMXD.m                4417.92:  Inc Max Depth 
 JARR.                      No:  Jarring 
 LETM.      07.45.00 18-Jul-21:  Log End Time 
 LOST.hr                    16:  Lost Rig Time 
 LSTM.      15.00.00 16-Jul-21:  Log Start Time 
 MDCL.ppm             36500.00:  Mud Chlorides 
 MDES.     Inversion Oil/Synthetic:  Mud Desc 
 DFD .sg                  1.42:  Mud Density 
 MDMN.sg                  1.42:  Dens Mud Min 
 MDMX.sg                  1.43:  Dens Mud Max 
 MOIL.                      56:  Run Mud Oil % 
 MOWR.                   71:29:  Run Mud OWR 
 MSND.                     0.5:  Run Mud Sand % 
 MSOL.                      21:  Run Mud Solids% 
 DFV .spqt               78.00:  Mud Viscosity 
 MWOD.in                  6.75:  MWD Tool OD 
 MWSI.                     Yes:  Serv Intrp, MWD 
 OTIM.hr                200.73:  Time Operating 
 PCON.           Look Like New:  Pad Condition 
 PMAX.psia            11069.93:  Press Op, Max 
 PV  .cP                 32.00:  Mud PV 
 RUN .                     700:  Run Number 
 ROPA.m/hr               10.00:  ROP Avg 
 ROPN.m/hr                9.00:  ROP Min 
 ROPX.m/hr               16.00:  ROP Max 
 RPMA.rpm               116.00:  RPM Surface Avg 
 RPMN.rpm                80.00:  RPM Surface Min 
 RPMX.rpm               120.00:  RPM Surface Max 
 RRUN.                    L605:  Rig Run Number 
 RTIM.hr                 45.00:  Time Reaming 
 SAZI.deg               159.86:  Azm, Start 
 SDEP.m                4315.00:  Start Depth 
 SIDD.                      No:  Serv Intrp, DD 
 SINC.deg                39.86:  Inc, Start 
 SPPA.psig             3300.00:  SPP Avg 
 SPPN.psig             3040.00:  SPP Min 
 SPPX.psig             3645.00:  SPP Max 
 STIM.      01.00.00 15-Jul-21:  Start Time 
 SVCS.                 DD, MWD:  Services 
 SVER.                    9.20:  Sperry Version 
 TDAT.m                 288.00:  Tot Depth Attmp 
 TDDF.                      No:  Trip for DD 
 TDLG.m                 288.00:  Tot Depth Loggd 
 TFF .                      No:  Trip for Fail 
 TQAA.f-kp               19.00:  Torque Abs Avg 
 TQAN.f-kp               18.00:  Torque Abs Min 
 TQAX.f-kp               21.00:  Torque Abs Max 
 TRRT.°/30m               0.45:  Turn Rotating 
 MRT .                    HCIM:  Maximum Recorded Temperature 
 TTMX.degC               88.24:  Max Tool Temp 
 VS01.                90649157:  Virtual Str1 SN 
 VS02.                90652483:  Virtual Str2 SN 
 VS03.                11671987:  Virtual Str3 SN 
 VS04.                90643411:  Virtual Str4 SN 
 VS05.                90652478:  Virtual Str5 SN 
 VS06.                    6111:  Virtual Str6 SN 
 WBMN.klb                 9.50:  WOB Min 
 WITN.        Grigoriy Sarayev:  Customer Rep 
 WITN.          Rufat Huseynov:  Customer Rep 2 
 WOBA.klb                11.00:  WOB Avg 
 WOBX.klb                15.00:  WOB Max 
 YP  .lhf2               28.00:  Yield Point 
~Curve Information Block
#MNEM.UNIT                 API CODE     Curve Description
#---------               -----------    ---------------------------
 TIME.HHMMSS            00 000 000 000:  GT Time & Date
 GTDEPTH.m              00 000 000 000:  GT Depth
 GTPQH.psia             00 000 000 000:  GT HR Quartz Pressure
 GTTQ.degC              00 000 000 000:  GT Quartz Temperature
 GTTN.NONE              00 000 000 000:  GT Test Number
 GTET.sec               00 000 000 000:  GT Elapsed Test Time
 GTTVD.m                00 000 000 000:  GT True Vertical Depth
#Other Information
#
#WARRANTY: Halliburton will use its best efforts to furnish customers with 
#accurate information and interpretations that are part of, and incident to, the services 
#provided.  However, Halliburton cannot and does not warrant the accuracy 
#or correctness of such information and interpretations.  Under no circumstances should any 
#such information or interpretation be relied upon as the sole basis for any drilling, 
#completion, production, or financial decision or any procedure involving any risk to the 
#safety of any drilling venture, drilling rig or its crew or any other third party.  The 
#Customer has full responsibility for all drilling, completion and production operation.  
#Halliburton makes no representations or warranties, either expressed or 
#implied, including, but not limited to, the implied warranties of merchantability or fitness 
#for a particular purpose, with respect to the services rendered.  In no event will 
#Halliburton be liable for failure to obtain any particular results or for 
#any damages, including, but not limited to, indirect, special or consequential damages, 
#resulting from the use of any information or interpretation provided by Halliburton.
#
~A           TIME           GTDEPTH  GTPQH  GTTQ  GTTN   GTET   GTTVD  
# ...
   12:10:15.508.19-Jul-2021 4522.00 3611.94 70.79 26.00 203.47 2717.06
   12:10:15.708.19-Jul-2021 4522.00 3611.90 70.79 26.00 203.67 2717.06
   12:10:15.908.19-Jul-2021 4522.00 3611.94 70.79 26.00 203.88 2717.06
   12:10:16.108.19-Jul-2021 4522.00 3611.92 70.79 26.00 204.08 2717.06
   12:10:16.308.19-Jul-2021 4522.00 3611.92 70.79 26.00 204.28 2717.06
   12:10:16.508.19-Jul-2021 4522.00 3611.91 70.79 26.00 204.48 2717.06
   12:10:16.708.19-Jul-2021 4522.00 3611.93 70.79 26.00 204.68 2717.06
   12:10:16.908.19-Jul-2021 4522.00 3611.90 70.79 26.00 204.88 2717.06
   12:10:17.108.19-Jul-2021 4522.00 3611.94 70.79 26.00 205.08 2717.06
   12:10:17.308.19-Jul-2021 4522.00 3611.94 70.79 26.00 205.28 2717.06
   12:10:17.508.19-Jul-2021 4522.00 3611.76 70.79 26.00 205.48 2717.06
   12:10:17.709.19-Jul-2021 4522.00 3611.64 70.79 26.00 205.68 2717.06
   12:10:17.909.19-Jul-2021 4522.00 3611.95 70.79 26.00 205.88 2717.06
   12:10:18.109.19-Jul-2021 4522.00 3611.89 70.79 26.00 206.08 2717.06
   12:10:18.309.19-Jul-2021 4522.00 3611.89 70.79 26.00 206.28 2717.06
   12:10:18.509.19-Jul-2021 4522.00 3611.96 70.79 26.00 206.48 2717.06
   12:10:18.709.19-Jul-2021 4522.00 3611.90 70.79 26.00 206.68 2717.06
   12:10:18.909.19-Jul-2021 4522.00 3611.90 70.79 26.00 206.88 2717.06
   12:10:19.109.19-Jul-2021 4522.00 3611.94 70.79 26.00 207.08 2717.06
   12:10:19.309.19-Jul-2021 4522.00 3611.94 70.79 26.00 207.28 2717.06
   12:10:19.509.19-Jul-2021 4522.00 3611.94 70.79 26.00 207.48 2717.06
   12:10:19.709.19-Jul-2021 4522.00 3611.90 70.79 26.00 207.68 2717.06
   12:10:19.909.19-Jul-2021 4522.00 3611.89 70.79 26.00 207.88 2717.06
   12:10:20.109.19-Jul-2021 4522.00 3611.58 70.79 26.00 208.08 2717.06
   12:10:20.309.19-Jul-2021 4522.00 3611.58 70.79 26.00 208.28 2717.06
   12:10:20.510.19-Jul-2021 4522.00 3612.09 70.79 26.00 208.48 2717.06
   12:10:20.710.19-Jul-2021 4522.00 3611.30 70.79 26.00 208.68 2717.06
   12:10:20.910.19-Jul-2021 4522.00 3611.94 70.79 26.00 208.88 2717.06
   12:10:21.110.19-Jul-2021 4522.00 3611.91 70.79 26.00 209.08 2717.06
   12:10:21.310.19-Jul-2021 4522.00 3611.91 70.79 26.00 209.28 2717.06
   12:10:21.510.19-Jul-2021 4522.00 3611.62 70.79 26.00 209.48 2717.06
   12:10:21.710.19-Jul-2021 4522.00 3612.03 70.79 26.00 209.68 2717.06
   12:10:21.910.19-Jul-2021 4522.00 3611.73 70.79 26.00 209.88 2717.06
   12:10:22.110.19-Jul-2021 4522.00 3611.85 70.79 26.00 210.08 2717.06
   12:10:22.310.19-Jul-2021 4522.00 3611.85 70.79 26.00 210.28 2717.06
   12:10:22.510.19-Jul-2021 4522.00 3611.97 70.79 26.00 210.48 2717.06
   12:10:22.710.19-Jul-2021 4522.00 3612.12 70.79 26.00 210.68 2717.06
   12:10:22.910.19-Jul-2021 4522.00 3611.21 70.79 26.00 210.88 2717.06
   12:10:23.111.19-Jul-2021 4522.00 3611.95 70.79 26.00 211.08 2717.06
   12:10:23.311.19-Jul-2021 4522.00 3611.95 70.79 26.00 211.28 2717.06
   12:10:23.511.19-Jul-2021 4522.00 3611.99 70.79 26.00 211.48 2717.06
   12:10:23.711.19-Jul-2021 4522.00 3611.92 70.80 26.00 211.68 2717.06
   12:10:23.911.19-Jul-2021 4522.00 3611.96 70.80 26.00 211.88 2717.06
   12:10:24.111.19-Jul-2021 4522.00 3611.95 70.79 26.00 212.08 2717.06
   12:10:24.311.19-Jul-2021 4522.00 3611.95 70.79 26.00 212.28 2717.06
   12:10:24.511.19-Jul-2021 4522.00 3611.91 70.80 26.00 212.48 2717.06
   12:10:24.711.19-Jul-2021 4522.00 3611.95 70.80 26.00 212.68 2717.06
   12:10:24.911.19-Jul-2021 4522.00 3611.91 70.80 26.00 212.88 2717.06
   12:10:25.111.19-Jul-2021 4522.00 3611.95 70.80 26.00 213.08 2717.06
   12:10:25.311.19-Jul-2021 4522.00 3611.95 70.80 26.00 213.28 2717.06
   12:10:25.511.19-Jul-2021 4522.00 3611.94 70.80 26.00 213.48 2717.06
   12:10:25.711.19-Jul-2021 4522.00 3611.88 70.80 26.00 213.68 2717.06
   12:10:25.912.19-Jul-2021 4522.00 3611.91 70.80 26.00 213.88 2717.06
   12:10:26.112.19-Jul-2021 4522.00 3611.84 70.80 26.00 214.08 2717.06
   12:10:26.312.19-Jul-2021 4522.00 3611.84 70.80 26.00 214.28 2717.06
   12:10:26.512.19-Jul-2021 4522.00 3611.93 70.80 26.00 214.48 2717.06
   12:10:26.712.19-Jul-2021 4522.00 3611.91 70.80 26.00 214.68 2717.06
   12:10:26.912.19-Jul-2021 4522.00 3611.91 70.80 26.00 214.88 2717.06
   12:10:27.112.19-Jul-2021 4522.00 3611.90 70.80 26.00 215.08 2717.06
   12:10:27.312.19-Jul-2021 4522.00 3611.90 70.80 26.00 215.28 2717.06
   12:10:27.512.19-Jul-2021 4522.00 3611.90 70.80 26.00 215.48 2717.06
   12:10:27.712.19-Jul-2021 4522.00 3611.93 70.80 26.00 215.68 2717.06
   12:10:27.912.19-Jul-2021 4522.00 3611.93 70.80 26.00 215.88 2717.06
   12:10:28.112.19-Jul-2021 4522.00 3612.13 70.80 26.00 216.08 2717.06
   12:10:28.312.19-Jul-2021 4522.00 3612.13 70.80 26.00 216.28 2717.06
   12:10:28.512.19-Jul-2021 4522.00 3611.90 70.80 26.00 216.48 2717.06
   12:10:28.713.19-Jul-2021 4522.00 3611.69 70.80 26.00 216.68 2717.06
   12:10:28.913.19-Jul-2021 4522.00 3611.96 70.80 26.00 216.88 2717.06
   12:10:29.113.19-Jul-2021 4522.00 3611.94 70.80 26.00 217.08 2717.06
   12:10:29.313.19-Jul-2021 4522.00 3611.94 70.80 26.00 217.28 2717.06
   12:10:29.513.19-Jul-2021 4522.00 3611.16 70.80 26.00 217.48 2717.06
   12:10:29.713.19-Jul-2021 4522.00 3611.96 70.80 26.00 217.68 2717.06
   12:10:29.913.19-Jul-2021 4522.00 3611.79 70.80 26.00 217.88 2717.06
   12:10:30.113.19-Jul-2021 4522.00 3611.92 70.80 26.00 218.08 2717.06
   12:10:30.313.19-Jul-2021 4522.00 3611.92 70.80 26.00 218.28 2717.06
   12:10:30.513.19-Jul-2021 4522.00 3612.04 70.80 26.00 218.48 2717.06
   12:10:30.713.19-Jul-2021 4522.00 3611.94 70.80 26.00 218.68 2717.06
   12:10:30.913.19-Jul-2021 4522.00 3611.54 70.80 26.00 218.88 2717.06
   12:10:31.113.19-Jul-2021 4522.00 3611.80 70.80 26.00 219.08 2717.06
   12:10:31.314.19-Jul-2021 4522.00 3611.80 70.80 26.00 219.28 2717.06
   12:10:31.514.19-Jul-2021 4522.00 3611.99 70.80 26.00 219.48 2717.06
   12:10:31.714.19-Jul-2021 4522.00 3611.99 70.80 26.00 219.68 2717.06
   12:10:31.914.19-Jul-2021 4522.00 3611.94 70.80 26.00 219.88 2717.06
   12:10:32.114.19-Jul-2021 4522.00 3612.01 70.80 26.00 220.08 2717.06
   12:10:32.314.19-Jul-2021 4522.00 3612.01 70.80 26.00 220.28 2717.06
   12:10:32.514.19-Jul-2021 4522.00 3611.93 70.80 26.00 220.48 2717.06
   12:10:32.714.19-Jul-2021 4522.00 3611.98 70.80 26.00 220.68 2717.06
   12:10:32.914.19-Jul-2021 4522.00 3611.94 70.80 26.00 220.88 2717.06
   12:10:33.114.19-Jul-2021 4522.00 3611.97 70.80 26.00 221.08 2717.06
   12:10:33.314.19-Jul-2021 4522.00 3611.97 70.80 26.00 221.28 2717.06
   12:10:33.514.19-Jul-2021 4522.00 3611.97 70.80 26.00 221.48 2717.06
   12:10:33.714.19-Jul-2021 4522.00 3611.94 70.80 26.00 221.68 2717.06
   12:10:33.914.19-Jul-2021 4522.00 3611.72 70.80 26.00 221.88 2717.06
   12:10:34.115.19-Jul-2021 4522.00 3611.70 70.80 26.00 222.08 2717.06
   12:10:34.315.19-Jul-2021 4522.00 3611.70 70.80 26.00 222.28 2717.06
   12:10:34.515.19-Jul-2021 4522.00 3611.98 70.80 26.00 222.48 2717.06
   12:10:34.715.19-Jul-2021 4522.00 3611.90 70.80 26.00 222.68 2717.06
   12:10:34.915.19-Jul-2021 4522.00 3611.92 70.80 26.00 222.88 2717.06
   12:10:35.115.19-Jul-2021 4522.00 3611.90 70.80 26.00 223.08 2717.06
   12:10:35.315.19-Jul-2021 4522.00 3611.90 70.80 26.00 223.28 2717.06
   12:10:35.515.19-Jul-2021 4522.00 3611.91 70.80 26.00 223.48 2717.06
   12:10:35.715.19-Jul-2021 4522.00 3611.91 70.80 26.00 223.68 2717.06
   12:10:35.915.19-Jul-2021 4522.00 3611.95 70.80 26.00 223.88 2717.06
   12:10:36.115.19-Jul-2021 4522.00 3611.90 70.80 26.00 224.08 2717.06
   12:10:36.315.19-Jul-2021 4522.00 3611.90 70.80 26.00 224.28 2717.06
   12:10:36.515.19-Jul-2021 4522.00 3611.90 70.80 26.00 224.48 2717.06
   12:10:36.716.19-Jul-2021 4522.00 3611.65 70.80 26.00 224.68 2717.06
   12:10:36.916.19-Jul-2021 4522.00 3611.96 70.80 26.00 224.88 2717.06
   12:10:37.116.19-Jul-2021 4522.00 3611.73 70.80 26.00 225.08 2717.06
   12:10:37.316.19-Jul-2021 4522.00 3611.73 70.80 26.00 225.28 2717.06
   12:10:37.516.19-Jul-2021 4522.00 3611.62 70.80 26.00 225.48 2717.06
   12:10:37.716.19-Jul-2021 4522.00 3611.90 70.80 26.00 225.68 2717.06
   12:10:37.916.19-Jul-2021 4522.00 3611.90 70.80 26.00 225.88 2717.06
