~Version Information
 VERS.                  2.0:   CWLS log ASCII Standard -VERSION 2.0
 WRAP.                   NO:   One line per depth step
~Well Information Block
#MNEM.UNIT     VALUE/NAME     DESCRIPTION
#---------     -----------    ---------------------------
 STRT.S             10:23:02 19-Jul-21: START TIME 10:23:02 19-Jul-21
 STOP.S             10:29:56 19-Jul-21: STOP TIME  10:29:56 19-Jul-21
 STEP.S                   0.00: STEP TIME
 NULL.                 -999.25: NULL VALUE
 MDS .        Operator Entered:  MAG DATA SOURCE
 PDAT.          Mean Sea Level:  PERMANENT DATUM
 UNIT.                     N/A:  LOGGING EQUIPMENT ID
 DCON.         Sperry Drilling:  DIRECTNL CONTR
 DOE .                     N/A:  DOE NUMBER
 RIG .              West Azeri:  RIG NAME
 JOBN.        AZ-XX-0906997913:  JOB TICKET NUMB
 WELL.                     C41:  WELL NAME
 MWDS.                    Baku:  MWD SHOP
 SRVC.          Turan Drilling:  CONTRACTOR
 FLD .                     ACG:  FIELD NAME
 CTRY.              Azerbaijan:  COUNTRY NAME
 PROV.                    Baku:  PROVINCE
 STAT.                    Baku:  STATE NAME
 REGN.                   EESSA:  REGION
 BASE.              Azerbaijan:  LOGGING EQUIPMENT BASE LOCATION
 UWI .                     N/A:  UNIQUE WELL IDENTIFIER
 API .                     N/A:  API NUMBER
 COMP.     BP Exploration (Caspian Sea) Ltd.:  COMPANY
 WTYP.                Deviated:  WELL TYPE
 SON .        AZ-XX-0906997913:  JOB NUMBER
 FTOP.          Formation Tops:  FORM TOPS DESC
 ILTD.               Lithology:  INTERP LTH DESC
 SVYD.                  Survey:  SURVEY DESC
 DMOD.             Drill Model:  DRILL MOD DESC
 HPTY.       Minimum Curvature:  HOLE POS TYPE
 NREF.                    Grid:  NORTH REFERENCE
 SPUD.               16-May-21:  SPUD DATE
 DATE.      21.11.28 17-May-21:  END TIME
 STIM.      21.11.28 17-May-21:  START TIME
 DMF .             Drill Floor:  DRILL MEAS FROM
 DFST.                        :  DIST FSL TEXT
 DFWT.                        :  DIST FWL TEXT
 CNTY.                        :  COUNTY
 LOC .                        :  LOCATION
 LMF .             Drill Floor:  LOG MEASURED FROM
 AGAP.m                  43.42:  AIR GAP
 VSNS.m                  -2.16:  VERT SEC N/S
 VSEW.m                  -6.24:  VERT SEC E/W
 APD .m                  43.42:  DEPTH ABOVE PD
 WDMS.m                 118.27:  WD ELEV
 EGL .m                   0.00:  GROUND ELEVATION
 EPD .m                   0.00:  ELEVATION
 AZTC.deg                 6.29:  AZM TOTAL CORR
 GRDC.deg                 0.18:  GRID CORRECTION
 MDEC.deg                 6.47:  MAGNETIC DECL
 MDIP.deg                59.54:  MAGNETIC DIP
 MFLD.nT              50337.00:  MAGNETIC FIELD
 GVFD.g                   1.00:  GRAVITY FIELD
 VSDR.deg               226.99:  VERT SEC DIRECT
 TDD .m                   0.00:  TOTAL DEPTH (DRILLER)
 SDEP.m                 448.00:  START DEPTH
 DFSL.m                   0.00:  DISTANCE FSL
 DFWL.m                   0.00:  DISTANCE FWL
 UTMY.m             4435799.96:  UTM Y
 UTMX.m              526265.35:  UTM X
 WHEW.m                  -6.24:  WELL HEAD E/W
 WHNS.m                  -2.16:  WELL HEAD N/S
 LONG.deg                51.31:  LONGITUDE
 LATI.deg                40.06:  LATITUDE
 TVDS.m                  43.42:  TVDSS CORRECTN
 EKB .m                  43.42:  KB ELEVATION
 EDF .m                  43.42:  DF ELEVATION
 TDL .m                 288.00:  TOTAL DEPTH (LOGGER)
 MAGU.                 1851863:  MAGUTM CHECKSUM
 VSC .                       0:  VS TO CLOSURE
~Parameter Information Block
#MNEM.UNIT       Value        Description
#---------     -----------    ---------------------------
 AV  .mps                 0.40:  Ann Velocity 
 AVMX.mps                 0.63:  Max Ann Veloc 
 AZIF.deg               158.76:  Azm, Final 
 BHAT.        Rotary Steerable:  BHA Type 
 BROT.∞/30m               0.68:  Build Rotating 
 BS  .in                  8.50:  Bit Size 
 BSZ .in                  8.50:  Bit Size 
 BTPL.psig              712.00:  Bit Press Loss 
 CABU.                      No:  Customer Abuse 
 COMM.                     l(ê:  Run Comments 1 
 TCS .hr                 90.66:  Time Ciculation Ended 
 CV  .mps                 2.02:  Crit Velocity 
 CVMX.mps                 2.14:  Max Crit Veloc 
 DD1 .            Aziz Aliyevu:  Direct Drillr 1 
 DD2 .             Samir Abbas:  Direct Drillr 2 
 DD3 .           Teymur Aliyev:  Direct Drillr 3 
 DDSV.                 iCruise:  DD Service 
 DEFF.%                  85.10:  % Det Eff 
 DLRX.∞/30m               1.05:  Dogleg Rot Max 
 DLSO.∞/30m               1.01:  Dogleg Oriented 
 DLSX.∞/30m               1.05:  Dogleg Str Max 
 DRET.      07.45.00 18-Jul-21:  Drill End Time 
 DRST.      15.00.00 16-Jul-21:  Drill Start Tim 
 DTIM.hr                 23.46:  Time Drilling 
 EDEP.m                4603.00:  End Depth 
 ENG1.       Seymur Iskandarov:  Engineer 1 
 ENG2.         Yevgeniy Ulikov:  Engineer 2 
 ENG3.         Bahruz Mehdiyev:  Engineer 3 
 ENG4.         Elchin Mammadov:  Engineer 4 
 ETIM.      14.00.00 23-Jul-21:  End Time 
 FLOI.gpm               500.00:  Flow In 
 FLON.gpm               450.00:  Flow In Min 
 FLOS.cptm                0.00:  Fluid Loss 
 FLOX.gpm               560.00:  Flow In Max 
 DFT .        Mineral Oil Base:  Mud Type 
 FTRO.       Formation Presure:  FTWD Run Obj 
 HFLO.                      No:  High Flow 
 HPRE.                      No:  High Pressure 
 HTEM.                      No:  High Temp 
 HYDO.m                   1.80:  Hydro Offset 
 IFIN.deg                40.22:  Inc, Final 
 IMAX.deg                40.54:  Inc Max 
 IMIN.deg                39.44:  Inc Min 
 IMND.m                4361.17:  Inc Min Depth 
 IMXD.m                4417.92:  Inc Max Depth 
 JARR.                      No:  Jarring 
 LETM.      07.45.00 18-Jul-21:  Log End Time 
 LOST.hr                    16:  Lost Rig Time 
 LSTM.      15.00.00 16-Jul-21:  Log Start Time 
 MDCL.ppm             36500.00:  Mud Chlorides 
 MDES.     Inversion Oil/Synthetic:  Mud Desc 
 DFD .sg                  1.42:  Mud Density 
 MDMN.sg                  1.42:  Dens Mud Min 
 MDMX.sg                  1.43:  Dens Mud Max 
 MOIL.                      56:  Run Mud Oil % 
 MOWR.                   71:29:  Run Mud OWR 
 MSND.                     0.5:  Run Mud Sand % 
 MSOL.                      21:  Run Mud Solids% 
 DFV .spqt               78.00:  Mud Viscosity 
 MWOD.in                  6.75:  MWD Tool OD 
 MWSI.                     Yes:  Serv Intrp, MWD 
 OTIM.hr                200.73:  Time Operating 
 PCON.           Look Like New:  Pad Condition 
 PMAX.psia            11069.93:  Press Op, Max 
 PV  .cP                 32.00:  Mud PV 
 RUN .                     700:  Run Number 
 ROPA.m/hr               10.00:  ROP Avg 
 ROPN.m/hr                9.00:  ROP Min 
 ROPX.m/hr               16.00:  ROP Max 
 RPMA.rpm               116.00:  RPM Surface Avg 
 RPMN.rpm                80.00:  RPM Surface Min 
 RPMX.rpm               120.00:  RPM Surface Max 
 RRUN.                    L605:  Rig Run Number 
 RTIM.hr                 45.00:  Time Reaming 
 SAZI.deg               159.86:  Azm, Start 
 SDEP.m                4315.00:  Start Depth 
 SIDD.                      No:  Serv Intrp, DD 
 SINC.deg                39.86:  Inc, Start 
 SPPA.psig             3300.00:  SPP Avg 
 SPPN.psig             3040.00:  SPP Min 
 SPPX.psig             3645.00:  SPP Max 
 STIM.      01.00.00 15-Jul-21:  Start Time 
 SVCS.                 DD, MWD:  Services 
 SVER.                    9.20:  Sperry Version 
 TDAT.m                 288.00:  Tot Depth Attmp 
 TDDF.                      No:  Trip for DD 
 TDLG.m                 288.00:  Tot Depth Loggd 
 TFF .                      No:  Trip for Fail 
 TQAA.f-kp               19.00:  Torque Abs Avg 
 TQAN.f-kp               18.00:  Torque Abs Min 
 TQAX.f-kp               21.00:  Torque Abs Max 
 TRRT.∞/30m               0.45:  Turn Rotating 
 MRT .                    HCIM:  Maximum Recorded Temperature 
 TTMX.degC               88.24:  Max Tool Temp 
 VS01.                90649157:  Virtual Str1 SN 
 VS02.                90652483:  Virtual Str2 SN 
 VS03.                11671987:  Virtual Str3 SN 
 VS04.                90643411:  Virtual Str4 SN 
 VS05.                90652478:  Virtual Str5 SN 
 VS06.                    6111:  Virtual Str6 SN 
 WBMN.klb                 9.50:  WOB Min 
 WITN.        Grigoriy Sarayev:  Customer Rep 
 WITN.          Rufat Huseynov:  Customer Rep 2 
 WOBA.klb                11.00:  WOB Avg 
 WOBX.klb                15.00:  WOB Max 
 YP  .lhf2               28.00:  Yield Point 
~Curve Information Block
#MNEM.UNIT                 API CODE     Curve Description
#---------               -----------    ---------------------------
 TIME.HHMMSS            00 000 000 000:  GT Time & Date
 GTDEPTH.m              00 000 000 000:  GT Depth
 GTPQH.psia             00 000 000 000:  GT HR Quartz Pressure
 GTTQ.degC              00 000 000 000:  GT Quartz Temperature
 GTTN.NONE              00 000 000 000:  GT Test Number
 GTET.sec               00 000 000 000:  GT Elapsed Test Time
 GTTVD.m                00 000 000 000:  GT True Vertical Depth
#Other Information
#
#WARRANTY: Halliburton will use its best efforts to furnish customers with 
#accurate information and interpretations that are part of, and incident to, the services 
#provided.  However, Halliburton cannot and does not warrant the accuracy 
#or correctness of such information and interpretations.  Under no circumstances should any 
#such information or interpretation be relied upon as the sole basis for any drilling, 
#completion, production, or financial decision or any procedure involving any risk to the 
#safety of any drilling venture, drilling rig or its crew or any other third party.  The 
#Customer has full responsibility for all drilling, completion and production operation.  
#Halliburton makes no representations or warranties, either expressed or 
#implied, including, but not limited to, the implied warranties of merchantability or fitness 
#for a particular purpose, with respect to the services rendered.  In no event will 
#Halliburton be liable for failure to obtain any particular results or for 
#any damages, including, but not limited to, indirect, special or consequential damages, 
#resulting from the use of any information or interpretation provided by Halliburton.
#
~A           TIME           GTDEPTH  GTPQH  GTTQ  GTTN   GTET   GTTVD  
# ...
   10:29:04.472.19-Jul-2021 4487.50 6539.44 70.55 22.00 361.73 2690.71
   10:29:04.672.19-Jul-2021 4487.50 6545.45 70.55 22.00 361.93 2690.71
   10:29:04.872.19-Jul-2021 4487.50 6546.57 70.56 22.00 362.13 2690.71
   10:29:05.073.19-Jul-2021 4487.50 6546.57 70.56 22.00 362.33 2690.71
   10:29:05.273.19-Jul-2021 4487.50 6548.95 70.56 22.00 362.53 2690.71
   10:29:05.473.19-Jul-2021 4487.50 6549.40 70.56 22.00 362.73 2690.71
   10:29:05.673.19-Jul-2021 4487.50 6550.42 70.56 22.00 362.93 2690.71
   10:29:05.873.19-Jul-2021 4487.50 6541.67 70.56 22.00 363.13 2690.71
   10:29:06.073.19-Jul-2021 4487.50 6541.67 70.56 22.00 363.33 2690.71
   10:29:06.273.19-Jul-2021 4487.50 6541.22 70.57 22.00 363.53 2690.71
   10:29:06.473.19-Jul-2021 4487.50 6538.33 70.57 22.00 363.73 2690.71
   10:29:06.673.19-Jul-2021 4487.50 6538.49 70.57 22.00 363.93 2690.71
   10:29:06.873.19-Jul-2021 4487.50 6537.97 70.57 22.00 364.13 2690.71
   10:29:07.073.19-Jul-2021 4487.50 6537.97 70.57 22.00 364.33 2690.71
   10:29:07.273.19-Jul-2021 4487.50 6537.16 70.57 22.00 364.53 2690.71
   10:29:07.473.19-Jul-2021 4487.50 6537.27 70.58 22.00 364.73 2690.71
   10:29:07.673.19-Jul-2021 4487.50 6537.42 70.58 22.00 364.93 2690.71
   10:29:07.874.19-Jul-2021 4487.50 6538.09 70.58 22.00 365.13 2690.71
   10:29:08.074.19-Jul-2021 4487.50 6538.09 70.58 22.00 365.33 2690.71
   10:29:08.274.19-Jul-2021 4487.50 6551.92 70.58 22.00 365.53 2690.71
   10:29:08.474.19-Jul-2021 4487.50 6543.40 70.58 22.00 365.73 2690.71
   10:29:08.674.19-Jul-2021 4487.50 6537.53 70.58 22.00 365.93 2690.71
   10:29:08.874.19-Jul-2021 4487.50 6539.82 70.58 22.00 366.13 2690.71
   10:29:09.074.19-Jul-2021 4487.50 6539.82 70.58 22.00 366.33 2690.71
   10:29:09.274.19-Jul-2021 4487.50 6536.27 70.59 22.00 366.53 2690.71
   10:29:09.474.19-Jul-2021 4487.50 6535.82 70.59 22.00 366.74 2690.71
   10:29:09.674.19-Jul-2021 4487.50 6535.46 70.59 22.00 366.94 2690.71
   10:29:09.874.19-Jul-2021 4487.50 6535.44 70.59 22.00 367.14 2690.71
   10:29:10.074.19-Jul-2021 4487.50 6535.44 70.59 22.00 367.34 2690.71
   10:29:10.274.19-Jul-2021 4487.50 6536.19 70.59 22.00 367.54 2690.71
   10:29:10.474.19-Jul-2021 4487.50 6537.24 70.59 22.00 367.74 2690.71
   10:29:10.675.19-Jul-2021 4487.50 6543.59 70.59 22.00 367.94 2690.71
   10:29:10.875.19-Jul-2021 4487.50 6545.39 70.59 22.00 368.14 2690.71
   10:29:11.075.19-Jul-2021 4487.50 6545.39 70.59 22.00 368.34 2690.71
   10:29:11.275.19-Jul-2021 4487.50 6558.24 70.59 22.00 368.54 2690.71
   10:29:11.475.19-Jul-2021 4487.50 6537.83 70.59 22.00 368.74 2690.71
   10:29:11.675.19-Jul-2021 4487.50 6553.66 70.60 22.00 368.94 2690.71
   10:29:11.875.19-Jul-2021 4487.50 6541.76 70.60 22.00 369.14 2690.71
   10:29:12.075.19-Jul-2021 4487.50 6541.76 70.60 22.00 369.34 2690.71
   10:29:12.275.19-Jul-2021 4487.50 6547.48 70.60 22.00 369.54 2690.71
   10:29:12.475.19-Jul-2021 4487.50 6545.47 70.60 22.00 369.74 2690.71
   10:29:12.675.19-Jul-2021 4487.50 6540.19 70.60 22.00 369.94 2690.71
   10:29:12.875.19-Jul-2021 4487.50 6541.71 70.60 22.00 370.14 2690.71
   10:29:13.075.19-Jul-2021 4487.50 6541.71 70.60 22.00 370.34 2690.71
   10:29:13.276.19-Jul-2021 4487.50 6558.87 70.60 22.00 370.54 2690.71
   10:29:13.476.19-Jul-2021 4487.50 6538.56 70.60 22.00 370.74 2690.71
   10:29:13.676.19-Jul-2021 4487.50 6546.87 70.60 22.00 370.94 2690.71
   10:29:13.876.19-Jul-2021 4487.50 6562.49 70.60 22.00 371.14 2690.71
   10:29:14.076.19-Jul-2021 4487.50 6562.49 70.60 22.00 371.34 2690.71
   10:29:14.276.19-Jul-2021 4487.50 6546.23 70.60 22.00 371.54 2690.71
   10:29:14.476.19-Jul-2021 4487.50 6542.86 70.60 22.00 371.74 2690.71
   10:29:14.676.19-Jul-2021 4487.50 6541.10 70.60 22.00 371.94 2690.71
   10:29:14.876.19-Jul-2021 4487.50 6540.53 70.60 22.00 372.14 2690.71
   10:29:15.076.19-Jul-2021 4487.50 6540.53 70.60 22.00 372.34 2690.71
   10:29:15.276.19-Jul-2021 4487.50 6539.86 70.60 22.00 372.54 2690.71
   10:29:15.476.19-Jul-2021 4487.50 6540.13 70.60 22.00 372.74 2690.71
   10:29:15.676.19-Jul-2021 4487.50 6540.15 70.60 22.00 372.94 2690.71
   10:29:15.876.19-Jul-2021 4487.50 6539.96 70.60 22.00 373.14 2690.71
   10:29:16.077.19-Jul-2021 4487.50 6539.96 70.60 22.00 373.34 2690.71
   10:29:16.277.19-Jul-2021 4487.50 6539.73 70.60 22.00 373.54 2690.71
   10:29:16.477.19-Jul-2021 4487.50 6539.69 70.60 22.00 373.74 2690.71
   10:29:16.677.19-Jul-2021 4487.50 6561.16 70.60 22.00 373.94 2690.71
   10:29:16.877.19-Jul-2021 4487.50 6530.70 70.60 22.00 374.14 2690.71
   10:29:17.077.19-Jul-2021 4487.50 6530.70 70.60 22.00 374.34 2690.71
   10:29:17.277.19-Jul-2021 4487.50 6530.70 70.60 22.00 374.54 2690.71
   10:29:17.477.19-Jul-2021 4487.50 6538.55 70.60 22.00 374.74 2690.71
   10:29:17.677.19-Jul-2021 4487.50 6537.84 70.60 22.00 374.94 2690.71
   10:29:17.877.19-Jul-2021 4487.50 6537.21 70.60 22.00 375.14 2690.71
   10:29:18.077.19-Jul-2021 4487.50 6537.21 70.60 22.00 375.34 2690.71
   10:29:18.277.19-Jul-2021 4487.50 6536.90 70.60 22.00 375.54 2690.71
   10:29:18.477.19-Jul-2021 4487.50 6536.62 70.60 22.00 375.74 2690.71
   10:29:18.678.19-Jul-2021 4487.50 6537.34 70.60 22.00 375.94 2690.71
   10:29:18.878.19-Jul-2021 4487.50 6538.36 70.60 22.00 376.14 2690.71
   10:29:19.078.19-Jul-2021 4487.50 6538.36 70.60 22.00 376.34 2690.71
   10:29:19.278.19-Jul-2021 4487.50 6553.92 70.60 22.00 376.54 2690.71
   10:29:19.478.19-Jul-2021 4487.50 6534.25 70.60 22.00 376.74 2690.71
   10:29:19.678.19-Jul-2021 4487.50 6549.43 70.60 22.00 376.94 2690.71
   10:29:19.878.19-Jul-2021 4487.50 6562.76 70.60 22.00 377.14 2690.71
   10:29:20.078.19-Jul-2021 4487.50 6562.76 70.60 22.00 377.34 2690.71
   10:29:20.278.19-Jul-2021 4487.50 6549.03 70.60 22.00 377.54 2690.71
   10:29:20.478.19-Jul-2021 4487.50 6541.43 70.60 22.00 377.74 2690.71
   10:29:20.678.19-Jul-2021 4487.50 6536.99 70.60 22.00 377.94 2690.71
   10:29:20.878.19-Jul-2021 4487.50 6551.32 70.60 22.00 378.14 2690.71
   10:29:21.078.19-Jul-2021 4487.50 6551.32 70.60 22.00 378.34 2690.71
   10:29:21.278.19-Jul-2021 4487.50 6556.18 70.60 22.00 378.54 2690.71
   10:29:21.479.19-Jul-2021 4487.50 6540.45 70.60 22.00 378.74 2690.71
   10:29:21.679.19-Jul-2021 4487.50 6553.46 70.60 22.00 378.94 2690.71
   10:29:21.879.19-Jul-2021 4487.50 6565.68 70.60 22.00 379.14 2690.71
   10:29:22.079.19-Jul-2021 4487.50 6565.68 70.60 22.00 379.34 2690.71
   10:29:22.279.19-Jul-2021 4487.50 6552.48 70.60 22.00 379.54 2690.71
   10:29:22.479.19-Jul-2021 4487.50 6542.91 70.60 22.00 379.74 2690.71
   10:29:22.679.19-Jul-2021 4487.50 6539.99 70.60 22.00 379.94 2690.71
   10:29:22.879.19-Jul-2021 4487.50 6539.55 70.60 22.00 380.14 2690.71
   10:29:23.079.19-Jul-2021 4487.50 6539.55 70.60 22.00 380.34 2690.71
   10:29:23.279.19-Jul-2021 4487.50 6539.25 70.60 22.00 380.54 2690.71
   10:29:23.479.19-Jul-2021 4487.50 6539.09 70.60 22.00 380.74 2690.71
   10:29:23.679.19-Jul-2021 4487.50 6539.02 70.60 22.00 380.94 2690.71
   10:29:23.879.19-Jul-2021 4487.50 6539.14 70.60 22.00 381.14 2690.71
   10:29:24.080.19-Jul-2021 4487.50 6539.14 70.60 22.00 381.34 2690.71
   10:29:24.280.19-Jul-2021 4487.50 6538.76 70.60 22.00 381.54 2690.71
   10:29:24.480.19-Jul-2021 4487.50 6538.14 70.60 22.00 381.74 2690.71
   10:29:24.680.19-Jul-2021 4487.50 6555.89 70.60 22.00 381.94 2690.71
   10:29:24.880.19-Jul-2021 4487.50 6537.28 70.60 22.00 382.14 2690.71
   10:29:25.080.19-Jul-2021 4487.50 6537.28 70.60 22.00 382.34 2690.71
   10:29:25.280.19-Jul-2021 4487.50 6539.79 70.60 22.00 382.54 2690.71
   10:29:25.480.19-Jul-2021 4487.50 6539.46 70.60 22.00 382.74 2690.71
   10:29:25.680.19-Jul-2021 4487.50 6538.26 70.60 22.00 382.94 2690.71
   10:29:25.880.19-Jul-2021 4487.50 6536.93 70.60 22.00 383.14 2690.71
   10:29:26.080.19-Jul-2021 4487.50 6536.93 70.60 22.00 383.34 2690.71
   10:29:26.280.19-Jul-2021 4487.50 6535.62 70.60 22.00 383.54 2690.71
   10:29:26.480.19-Jul-2021 4487.50 6534.87 70.60 22.00 383.74 2690.71
   10:29:26.680.19-Jul-2021 4487.50 6535.20 70.60 22.00 383.94 2690.71
   10:29:26.881.19-Jul-2021 4487.50 6535.62 70.60 22.00 384.14 2690.71
