~Version Information
 VERS.                  2.0:   CWLS log ASCII Standard -VERSION 2.0
 WRAP.                   NO:   One line per depth step
~Well Information Block
#MNEM.UNIT     VALUE/NAME     DESCRIPTION
#---------     -----------    ---------------------------
 STRT.S             14:01:43 18-Jul-21: START TIME 14:01:43 18-Jul-21
 STOP.S             14:08:15 18-Jul-21: STOP TIME  14:08:15 18-Jul-21
 STEP.S                   0.00: STEP TIME
 NULL.                 -999.25: NULL VALUE
 MDS .        Operator Entered:  MAG DATA SOURCE
 PDAT.          Mean Sea Level:  PERMANENT DATUM
 UNIT.                     N/A:  LOGGING EQUIPMENT ID
 DCON.         Sperry Drilling:  DIRECTNL CONTR
 DOE .                     N/A:  DOE NUMBER
 RIG .              West Azeri:  RIG NAME
 JOBN.        AZ-XX-0906997913:  JOB TICKET NUMB
 WELL.                     C41:  WELL NAME
 MWDS.                    Baku:  MWD SHOP
 SRVC.          Turan Drilling:  CONTRACTOR
 FLD .                     ACG:  FIELD NAME
 CTRY.              Azerbaijan:  COUNTRY NAME
 PROV.                    Baku:  PROVINCE
 STAT.                    Baku:  STATE NAME
 REGN.                   EESSA:  REGION
 BASE.              Azerbaijan:  LOGGING EQUIPMENT BASE LOCATION
 UWI .                     N/A:  UNIQUE WELL IDENTIFIER
 API .                     N/A:  API NUMBER
 COMP.     BP Exploration (Caspian Sea) Ltd.:  COMPANY
 WTYP.                Deviated:  WELL TYPE
 SON .        AZ-XX-0906997913:  JOB NUMBER
 FTOP.          Formation Tops:  FORM TOPS DESC
 ILTD.               Lithology:  INTERP LTH DESC
 SVYD.                  Survey:  SURVEY DESC
 DMOD.             Drill Model:  DRILL MOD DESC
 HPTY.       Minimum Curvature:  HOLE POS TYPE
 NREF.                    Grid:  NORTH REFERENCE
 SPUD.               16-May-21:  SPUD DATE
 DATE.      21.11.28 17-May-21:  END TIME
 STIM.      21.11.28 17-May-21:  START TIME
 DMF .             Drill Floor:  DRILL MEAS FROM
 DFST.                        :  DIST FSL TEXT
 DFWT.                        :  DIST FWL TEXT
 CNTY.                        :  COUNTY
 LOC .                        :  LOCATION
 LMF .             Drill Floor:  LOG MEASURED FROM
 AGAP.m                  43.42:  AIR GAP
 VSNS.m                  -2.16:  VERT SEC N/S
 VSEW.m                  -6.24:  VERT SEC E/W
 APD .m                  43.42:  DEPTH ABOVE PD
 WDMS.m                 118.27:  WD ELEV
 EGL .m                   0.00:  GROUND ELEVATION
 EPD .m                   0.00:  ELEVATION
 AZTC.deg                 6.29:  AZM TOTAL CORR
 GRDC.deg                 0.18:  GRID CORRECTION
 MDEC.deg                 6.47:  MAGNETIC DECL
 MDIP.deg                59.54:  MAGNETIC DIP
 MFLD.nT              50337.00:  MAGNETIC FIELD
 GVFD.g                   1.00:  GRAVITY FIELD
 VSDR.deg               226.99:  VERT SEC DIRECT
 TDD .m                   0.00:  TOTAL DEPTH (DRILLER)
 SDEP.m                 448.00:  START DEPTH
 DFSL.m                   0.00:  DISTANCE FSL
 DFWL.m                   0.00:  DISTANCE FWL
 UTMY.m             4435799.96:  UTM Y
 UTMX.m              526265.35:  UTM X
 WHEW.m                  -6.24:  WELL HEAD E/W
 WHNS.m                  -2.16:  WELL HEAD N/S
 LONG.deg                51.31:  LONGITUDE
 LATI.deg                40.06:  LATITUDE
 TVDS.m                  43.42:  TVDSS CORRECTN
 EKB .m                  43.42:  KB ELEVATION
 EDF .m                  43.42:  DF ELEVATION
 TDL .m                 288.00:  TOTAL DEPTH (LOGGER)
 MAGU.                 1851863:  MAGUTM CHECKSUM
 VSC .                       0:  VS TO CLOSURE
~Parameter Information Block
#MNEM.UNIT       Value        Description
#---------     -----------    ---------------------------
 AV  .mps                 0.40:  Ann Velocity 
 AVMX.mps                 0.63:  Max Ann Veloc 
 AZIF.deg               158.76:  Azm, Final 
 BHAT.        Rotary Steerable:  BHA Type 
 BROT.°/30m               0.68:  Build Rotating 
 BS  .in                  8.50:  Bit Size 
 BSZ .in                  8.50:  Bit Size 
 BTPL.psig              712.00:  Bit Press Loss 
 CABU.                      No:  Customer Abuse 
 COMM.                     <©Q:  Run Comments 1 
 TCS .hr                 90.66:  Time Ciculation Ended 
 CV  .mps                 2.02:  Crit Velocity 
 CVMX.mps                 2.14:  Max Crit Veloc 
 DD1 .            Aziz Aliyevu:  Direct Drillr 1 
 DD2 .             Samir Abbas:  Direct Drillr 2 
 DD3 .           Teymur Aliyev:  Direct Drillr 3 
 DDSV.                 iCruise:  DD Service 
 DEFF.%                  85.10:  % Det Eff 
 DLRX.°/30m               1.05:  Dogleg Rot Max 
 DLSO.°/30m               1.01:  Dogleg Oriented 
 DLSX.°/30m               1.05:  Dogleg Str Max 
 DRET.      07.45.00 18-Jul-21:  Drill End Time 
 DRST.      15.00.00 16-Jul-21:  Drill Start Tim 
 DTIM.hr                 23.46:  Time Drilling 
 EDEP.m                4603.00:  End Depth 
 ENG1.       Seymur Iskandarov:  Engineer 1 
 ENG2.         Yevgeniy Ulikov:  Engineer 2 
 ENG3.         Bahruz Mehdiyev:  Engineer 3 
 ENG4.         Elchin Mammadov:  Engineer 4 
 ETIM.      14.00.00 23-Jul-21:  End Time 
 FLOI.gpm               500.00:  Flow In 
 FLON.gpm               450.00:  Flow In Min 
 FLOS.cptm                0.00:  Fluid Loss 
 FLOX.gpm               560.00:  Flow In Max 
 DFT .        Mineral Oil Base:  Mud Type 
 FTRO.       Formation Presure:  FTWD Run Obj 
 HFLO.                      No:  High Flow 
 HPRE.                      No:  High Pressure 
 HTEM.                      No:  High Temp 
 HYDO.m                   1.80:  Hydro Offset 
 IFIN.deg                40.22:  Inc, Final 
 IMAX.deg                40.54:  Inc Max 
 IMIN.deg                39.44:  Inc Min 
 IMND.m                4361.17:  Inc Min Depth 
 IMXD.m                4417.92:  Inc Max Depth 
 JARR.                      No:  Jarring 
 LETM.      07.45.00 18-Jul-21:  Log End Time 
 LOST.hr                    16:  Lost Rig Time 
 LSTM.      15.00.00 16-Jul-21:  Log Start Time 
 MDCL.ppm             36500.00:  Mud Chlorides 
 MDES.     Inversion Oil/Synthetic:  Mud Desc 
 DFD .sg                  1.42:  Mud Density 
 MDMN.sg                  1.42:  Dens Mud Min 
 MDMX.sg                  1.43:  Dens Mud Max 
 MOIL.                      56:  Run Mud Oil % 
 MOWR.                   71:29:  Run Mud OWR 
 MSND.                     0.5:  Run Mud Sand % 
 MSOL.                      21:  Run Mud Solids% 
 DFV .spqt               78.00:  Mud Viscosity 
 MWOD.in                  6.75:  MWD Tool OD 
 MWSI.                     Yes:  Serv Intrp, MWD 
 OTIM.hr                200.73:  Time Operating 
 PCON.           Look Like New:  Pad Condition 
 PMAX.psia            11069.93:  Press Op, Max 
 PV  .cP                 32.00:  Mud PV 
 RUN .                     700:  Run Number 
 ROPA.m/hr               10.00:  ROP Avg 
 ROPN.m/hr                9.00:  ROP Min 
 ROPX.m/hr               16.00:  ROP Max 
 RPMA.rpm               116.00:  RPM Surface Avg 
 RPMN.rpm                80.00:  RPM Surface Min 
 RPMX.rpm               120.00:  RPM Surface Max 
 RRUN.                    L605:  Rig Run Number 
 RTIM.hr                 45.00:  Time Reaming 
 SAZI.deg               159.86:  Azm, Start 
 SDEP.m                4315.00:  Start Depth 
 SIDD.                      No:  Serv Intrp, DD 
 SINC.deg                39.86:  Inc, Start 
 SPPA.psig             3300.00:  SPP Avg 
 SPPN.psig             3040.00:  SPP Min 
 SPPX.psig             3645.00:  SPP Max 
 STIM.      01.00.00 15-Jul-21:  Start Time 
 SVCS.                 DD, MWD:  Services 
 SVER.                    9.20:  Sperry Version 
 TDAT.m                 288.00:  Tot Depth Attmp 
 TDDF.                      No:  Trip for DD 
 TDLG.m                 288.00:  Tot Depth Loggd 
 TFF .                      No:  Trip for Fail 
 TQAA.f-kp               19.00:  Torque Abs Avg 
 TQAN.f-kp               18.00:  Torque Abs Min 
 TQAX.f-kp               21.00:  Torque Abs Max 
 TRRT.°/30m               0.45:  Turn Rotating 
 MRT .                    HCIM:  Maximum Recorded Temperature 
 TTMX.degC               88.24:  Max Tool Temp 
 VS01.                90649157:  Virtual Str1 SN 
 VS02.                90652483:  Virtual Str2 SN 
 VS03.                11671987:  Virtual Str3 SN 
 VS04.                90643411:  Virtual Str4 SN 
 VS05.                90652478:  Virtual Str5 SN 
 VS06.                    6111:  Virtual Str6 SN 
 WBMN.klb                 9.50:  WOB Min 
 WITN.        Grigoriy Sarayev:  Customer Rep 
 WITN.          Rufat Huseynov:  Customer Rep 2 
 WOBA.klb                11.00:  WOB Avg 
 WOBX.klb                15.00:  WOB Max 
 YP  .lhf2               28.00:  Yield Point 
~Curve Information Block
#MNEM.UNIT                 API CODE     Curve Description
#---------               -----------    ---------------------------
 TIME.HHMMSS            00 000 000 000:  GT Time & Date
 GTDEPTH.m              00 000 000 000:  GT Depth
 GTPQH.psia             00 000 000 000:  GT HR Quartz Pressure
 GTTQ.degC              00 000 000 000:  GT Quartz Temperature
 GTTN.NONE              00 000 000 000:  GT Test Number
 GTET.sec               00 000 000 000:  GT Elapsed Test Time
 GTTVD.m                00 000 000 000:  GT True Vertical Depth
#Other Information
#
#WARRANTY: Halliburton will use its best efforts to furnish customers with 
#accurate information and interpretations that are part of, and incident to, the services 
#provided.  However, Halliburton cannot and does not warrant the accuracy 
#or correctness of such information and interpretations.  Under no circumstances should any 
#such information or interpretation be relied upon as the sole basis for any drilling, 
#completion, production, or financial decision or any procedure involving any risk to the 
#safety of any drilling venture, drilling rig or its crew or any other third party.  The 
#Customer has full responsibility for all drilling, completion and production operation.  
#Halliburton makes no representations or warranties, either expressed or 
#implied, including, but not limited to, the implied warranties of merchantability or fitness 
#for a particular purpose, with respect to the services rendered.  In no event will 
#Halliburton be liable for failure to obtain any particular results or for 
#any damages, including, but not limited to, indirect, special or consequential damages, 
#resulting from the use of any information or interpretation provided by Halliburton.
#
~A           TIME           GTDEPTH  GTPQH  GTTQ  GTTN  GTET   GTTVD  
# ...
   14:04:24.816.18-Jul-2021 4559.00 6760.20 75.28 3.00 161.06 2745.40
   14:04:25.016.18-Jul-2021 4559.00 6760.20 75.28 3.00 161.26 2745.40
   14:04:25.217.18-Jul-2021 4559.00 6759.06 75.27 3.00 161.46 2745.40
   14:04:25.417.18-Jul-2021 4559.00 6759.62 75.28 3.00 161.66 2745.40
   14:04:25.617.18-Jul-2021 4559.00 6759.27 75.28 3.00 161.86 2745.40
   14:04:25.817.18-Jul-2021 4559.00 6758.95 75.28 3.00 162.06 2745.40
   14:04:26.017.18-Jul-2021 4559.00 6758.95 75.28 3.00 162.26 2745.40
   14:04:26.217.18-Jul-2021 4559.00 6758.65 75.28 3.00 162.46 2745.40
   14:04:26.417.18-Jul-2021 4559.00 6758.75 75.28 3.00 162.66 2745.40
   14:04:26.617.18-Jul-2021 4559.00 6758.60 75.28 3.00 162.86 2745.40
   14:04:26.817.18-Jul-2021 4559.00 6758.60 75.28 3.00 163.06 2745.40
   14:04:27.017.18-Jul-2021 4559.00 6758.60 75.28 3.00 163.26 2745.40
   14:04:27.217.18-Jul-2021 4559.00 6758.76 75.28 3.00 163.46 2745.40
   14:04:27.417.18-Jul-2021 4559.00 6758.43 75.28 3.00 163.66 2745.40
   14:04:27.617.18-Jul-2021 4559.00 6758.26 75.28 3.00 163.86 2745.40
   14:04:27.817.18-Jul-2021 4559.00 6763.43 75.28 3.00 164.06 2745.40
   14:04:28.018.18-Jul-2021 4559.00 6763.43 75.28 3.00 164.26 2745.40
   14:04:28.218.18-Jul-2021 4559.00 6758.44 75.28 3.00 164.46 2745.40
   14:04:28.418.18-Jul-2021 4559.00 6759.08 75.28 3.00 164.66 2745.40
   14:04:28.618.18-Jul-2021 4559.00 6757.70 75.28 3.00 164.86 2745.40
   14:04:28.818.18-Jul-2021 4559.00 6757.70 75.28 3.00 165.06 2745.40
   14:04:29.018.18-Jul-2021 4559.00 6757.70 75.28 3.00 165.26 2745.40
   14:04:29.218.18-Jul-2021 4559.00 6757.46 75.28 3.00 165.46 2745.40
   14:04:29.418.18-Jul-2021 4559.00 6757.08 75.28 3.00 165.66 2745.40
   14:04:29.618.18-Jul-2021 4559.00 6757.18 75.28 3.00 165.86 2745.40
   14:04:29.818.18-Jul-2021 4559.00 6757.20 75.28 3.00 166.06 2745.40
   14:04:30.018.18-Jul-2021 4559.00 6757.20 75.28 3.00 166.26 2745.40
   14:04:30.218.18-Jul-2021 4559.00 6756.98 75.28 3.00 166.46 2745.40
   14:04:30.418.18-Jul-2021 4559.00 6761.65 75.28 3.00 166.66 2745.40
   14:04:30.618.18-Jul-2021 4559.00 6758.35 75.28 3.00 166.86 2745.40
   14:04:30.819.18-Jul-2021 4559.00 6758.39 75.28 3.00 167.06 2745.40
   14:04:31.019.18-Jul-2021 4559.00 6758.39 75.28 3.00 167.26 2745.40
   14:04:31.219.18-Jul-2021 4559.00 6758.35 75.28 3.00 167.46 2745.40
   14:04:31.419.18-Jul-2021 4559.00 6757.84 75.28 3.00 167.66 2745.40
   14:04:31.619.18-Jul-2021 4559.00 6760.46 75.28 3.00 167.86 2745.40
   14:04:31.819.18-Jul-2021 4559.00 6761.12 75.28 3.00 168.06 2745.40
   14:04:32.019.18-Jul-2021 4559.00 6761.12 75.28 3.00 168.26 2745.40
   14:04:32.219.18-Jul-2021 4559.00 6758.33 75.28 3.00 168.46 2745.40
   14:04:32.419.18-Jul-2021 4559.00 6757.87 75.28 3.00 168.66 2745.40
   14:04:32.619.18-Jul-2021 4559.00 6761.96 75.28 3.00 168.86 2745.40
   14:04:32.819.18-Jul-2021 4559.00 6758.43 75.28 3.00 169.06 2745.40
   14:04:33.019.18-Jul-2021 4559.00 6758.43 75.28 3.00 169.26 2745.40
   14:04:33.219.18-Jul-2021 4559.00 6763.26 75.28 3.00 169.46 2745.40
   14:04:33.420.18-Jul-2021 4559.00 6759.20 75.28 3.00 169.66 2745.40
   14:04:33.620.18-Jul-2021 4559.00 6758.06 75.28 3.00 169.86 2745.40
   14:04:33.820.18-Jul-2021 4559.00 6758.94 75.28 3.00 170.06 2745.40
   14:04:34.020.18-Jul-2021 4559.00 6758.94 75.28 3.00 170.26 2745.40
   14:04:34.220.18-Jul-2021 4559.00 6757.96 75.28 3.00 170.46 2745.40
   14:04:34.420.18-Jul-2021 4559.00 6757.92 75.28 3.00 170.66 2745.40
   14:04:34.620.18-Jul-2021 4559.00 6758.43 75.28 3.00 170.86 2745.40
   14:04:34.820.18-Jul-2021 4559.00 6757.51 75.28 3.00 171.06 2745.40
   14:04:35.020.18-Jul-2021 4559.00 6757.51 75.28 3.00 171.26 2745.40
   14:04:35.220.18-Jul-2021 4559.00 6757.72 75.28 3.00 171.46 2745.40
   14:04:35.420.18-Jul-2021 4559.00 6757.79 75.28 3.00 171.66 2745.40
   14:04:35.620.18-Jul-2021 4559.00 6757.69 75.28 3.00 171.86 2745.40
   14:04:35.820.18-Jul-2021 4559.00 6757.56 75.28 3.00 172.06 2745.40
   14:04:36.020.18-Jul-2021 4559.00 6757.56 75.28 3.00 172.26 2745.40
   14:04:36.221.18-Jul-2021 4559.00 6759.90 75.28 3.00 172.46 2745.40
   14:04:36.421.18-Jul-2021 4559.00 6756.99 75.28 3.00 172.66 2745.40
   14:04:36.621.18-Jul-2021 4559.00 6758.84 75.28 3.00 172.86 2745.40
   14:04:36.821.18-Jul-2021 4559.00 6757.74 75.28 3.00 173.06 2745.40
   14:04:37.021.18-Jul-2021 4559.00 6757.74 75.28 3.00 173.26 2745.40
   14:04:37.221.18-Jul-2021 4559.00 6757.17 75.28 3.00 173.46 2745.40
   14:04:37.421.18-Jul-2021 4559.00 6756.71 75.28 3.00 173.66 2745.40
   14:04:37.621.18-Jul-2021 4559.00 6756.66 75.28 3.00 173.86 2745.40
   14:04:37.821.18-Jul-2021 4559.00 6756.35 75.28 3.00 174.06 2745.40
   14:04:38.021.18-Jul-2021 4559.00 6756.35 75.28 3.00 174.26 2745.40
   14:04:38.221.18-Jul-2021 4559.00 6756.24 75.28 3.00 174.46 2745.40
   14:04:38.421.18-Jul-2021 4559.00 6756.33 75.28 3.00 174.66 2745.40
   14:04:38.621.18-Jul-2021 4559.00 6759.47 75.28 3.00 174.86 2745.40
   14:04:38.822.18-Jul-2021 4559.00 6758.67 75.28 3.00 175.06 2745.40
   14:04:39.022.18-Jul-2021 4559.00 6758.67 75.28 3.00 175.26 2745.40
   14:04:39.222.18-Jul-2021 4559.00 6760.68 75.28 3.00 175.46 2745.40
   14:04:39.422.18-Jul-2021 4559.00 6758.96 75.28 3.00 175.66 2745.40
   14:04:39.622.18-Jul-2021 4559.00 6756.36 75.28 3.00 175.86 2745.40
   14:04:39.822.18-Jul-2021 4559.00 6758.92 75.28 3.00 176.06 2745.40
   14:04:40.022.18-Jul-2021 4559.00 6758.92 75.28 3.00 176.26 2745.40
   14:04:40.222.18-Jul-2021 4559.00 6757.53 75.28 3.00 176.46 2745.40
   14:04:40.422.18-Jul-2021 4559.00 6756.38 75.28 3.00 176.67 2745.40
   14:04:40.622.18-Jul-2021 4559.00 6756.85 75.28 3.00 176.87 2745.40
   14:04:40.822.18-Jul-2021 4559.00 6759.39 75.28 3.00 177.07 2745.40
   14:04:41.022.18-Jul-2021 4559.00 6759.39 75.28 3.00 177.27 2745.40
   14:04:41.222.18-Jul-2021 4559.00 6755.80 75.28 3.00 177.47 2745.40
   14:04:41.422.18-Jul-2021 4559.00 6757.19 75.28 3.00 177.67 2745.40
   14:04:41.623.18-Jul-2021 4559.00 6758.23 75.28 3.00 177.87 2745.40
   14:04:41.823.18-Jul-2021 4559.00 6758.92 75.28 3.00 178.07 2745.40
   14:04:42.023.18-Jul-2021 4559.00 6758.92 75.28 3.00 178.27 2745.40
   14:04:42.223.18-Jul-2021 4559.00 6757.46 75.28 3.00 178.47 2745.40
   14:04:42.423.18-Jul-2021 4559.00 6756.62 75.28 3.00 178.67 2745.40
   14:04:42.623.18-Jul-2021 4559.00 6756.38 75.28 3.00 178.87 2745.40
   14:04:42.823.18-Jul-2021 4559.00 6756.32 75.28 3.00 179.07 2745.40
   14:04:43.023.18-Jul-2021 4559.00 6756.32 75.28 3.00 179.27 2745.40
   14:04:43.223.18-Jul-2021 4559.00 6756.26 75.28 3.00 179.47 2745.40
   14:04:43.423.18-Jul-2021 4559.00 6756.19 75.28 3.00 179.67 2745.40
   14:04:43.623.18-Jul-2021 4559.00 6755.75 75.28 3.00 179.87 2745.40
   14:04:43.823.18-Jul-2021 4559.00 6755.96 75.28 3.00 180.07 2745.40
   14:04:44.023.18-Jul-2021 4559.00 6755.96 75.28 3.00 180.27 2745.40
   14:04:44.224.18-Jul-2021 4559.00 6756.39 75.28 3.00 180.47 2745.40
   14:04:44.424.18-Jul-2021 4559.00 6756.11 75.28 3.00 180.67 2745.40
   14:04:44.624.18-Jul-2021 4559.00 6760.80 75.28 3.00 180.87 2745.40
   14:04:44.824.18-Jul-2021 4559.00 6756.58 75.28 3.00 181.07 2745.40
   14:04:45.024.18-Jul-2021 4559.00 6756.58 75.28 3.00 181.27 2745.40
   14:04:45.224.18-Jul-2021 4559.00 6757.27 75.28 3.00 181.47 2745.40
   14:04:45.424.18-Jul-2021 4559.00 6756.00 75.28 3.00 181.67 2745.40
   14:04:45.624.18-Jul-2021 4559.00 6756.22 75.28 3.00 181.87 2745.40
   14:04:45.824.18-Jul-2021 4559.00 6756.10 75.28 3.00 182.07 2745.40
   14:04:46.024.18-Jul-2021 4559.00 6756.10 75.28 3.00 182.27 2745.40
   14:04:46.224.18-Jul-2021 4559.00 6755.46 75.28 3.00 182.47 2745.40
   14:04:46.424.18-Jul-2021 4559.00 6755.59 75.28 3.00 182.67 2745.40
   14:04:46.624.18-Jul-2021 4559.00 6755.23 75.28 3.00 182.87 2745.40
   14:04:46.824.18-Jul-2021 4559.00 6755.53 75.28 3.00 183.07 2745.40
   14:04:47.025.18-Jul-2021 4559.00 6755.53 75.28 3.00 183.27 2745.40
   14:04:47.225.18-Jul-2021 4559.00 6759.40 75.28 3.00 183.47 2745.40
   14:04:47.425.18-Jul-2021 4559.00 6756.35 75.28 3.00 183.67 2745.40
   14:04:47.625.18-Jul-2021 4559.00 6757.38 75.28 3.00 183.87 2745.40
