~Version Information
 VERS.                  2.0:   CWLS log ASCII Standard -VERSION 2.0
 WRAP.                   NO:   One line per depth step
~Well Information Block
#MNEM.UNIT     VALUE/NAME     DESCRIPTION
#---------     -----------    ---------------------------
 STRT.S             11:46:53 19-Jul-21: START TIME 11:46:53 19-Jul-21
 STOP.S             11:53:47 19-Jul-21: STOP TIME  11:53:47 19-Jul-21
 STEP.S                   0.00: STEP TIME
 NULL.                 -999.25: NULL VALUE
 MDS .        Operator Entered:  MAG DATA SOURCE
 PDAT.          Mean Sea Level:  PERMANENT DATUM
 UNIT.                     N/A:  LOGGING EQUIPMENT ID
 DCON.         Sperry Drilling:  DIRECTNL CONTR
 DOE .                     N/A:  DOE NUMBER
 RIG .              West Azeri:  RIG NAME
 JOBN.        AZ-XX-0906997913:  JOB TICKET NUMB
 WELL.                     C41:  WELL NAME
 MWDS.                    Baku:  MWD SHOP
 SRVC.          Turan Drilling:  CONTRACTOR
 FLD .                     ACG:  FIELD NAME
 CTRY.              Azerbaijan:  COUNTRY NAME
 PROV.                    Baku:  PROVINCE
 STAT.                    Baku:  STATE NAME
 REGN.                   EESSA:  REGION
 BASE.              Azerbaijan:  LOGGING EQUIPMENT BASE LOCATION
 UWI .                     N/A:  UNIQUE WELL IDENTIFIER
 API .                     N/A:  API NUMBER
 COMP.     BP Exploration (Caspian Sea) Ltd.:  COMPANY
 WTYP.                Deviated:  WELL TYPE
 SON .        AZ-XX-0906997913:  JOB NUMBER
 FTOP.          Formation Tops:  FORM TOPS DESC
 ILTD.               Lithology:  INTERP LTH DESC
 SVYD.                  Survey:  SURVEY DESC
 DMOD.             Drill Model:  DRILL MOD DESC
 HPTY.       Minimum Curvature:  HOLE POS TYPE
 NREF.                    Grid:  NORTH REFERENCE
 SPUD.               16-May-21:  SPUD DATE
 DATE.      21.11.28 17-May-21:  END TIME
 STIM.      21.11.28 17-May-21:  START TIME
 DMF .             Drill Floor:  DRILL MEAS FROM
 DFST.                        :  DIST FSL TEXT
 DFWT.                        :  DIST FWL TEXT
 CNTY.                        :  COUNTY
 LOC .                        :  LOCATION
 LMF .             Drill Floor:  LOG MEASURED FROM
 AGAP.m                  43.42:  AIR GAP
 VSNS.m                  -2.16:  VERT SEC N/S
 VSEW.m                  -6.24:  VERT SEC E/W
 APD .m                  43.42:  DEPTH ABOVE PD
 WDMS.m                 118.27:  WD ELEV
 EGL .m                   0.00:  GROUND ELEVATION
 EPD .m                   0.00:  ELEVATION
 AZTC.deg                 6.29:  AZM TOTAL CORR
 GRDC.deg                 0.18:  GRID CORRECTION
 MDEC.deg                 6.47:  MAGNETIC DECL
 MDIP.deg                59.54:  MAGNETIC DIP
 MFLD.nT              50337.00:  MAGNETIC FIELD
 GVFD.g                   1.00:  GRAVITY FIELD
 VSDR.deg               226.99:  VERT SEC DIRECT
 TDD .m                   0.00:  TOTAL DEPTH (DRILLER)
 SDEP.m                 448.00:  START DEPTH
 DFSL.m                   0.00:  DISTANCE FSL
 DFWL.m                   0.00:  DISTANCE FWL
 UTMY.m             4435799.96:  UTM Y
 UTMX.m              526265.35:  UTM X
 WHEW.m                  -6.24:  WELL HEAD E/W
 WHNS.m                  -2.16:  WELL HEAD N/S
 LONG.deg                51.31:  LONGITUDE
 LATI.deg                40.06:  LATITUDE
 TVDS.m                  43.42:  TVDSS CORRECTN
 EKB .m                  43.42:  KB ELEVATION
 EDF .m                  43.42:  DF ELEVATION
 TDL .m                 288.00:  TOTAL DEPTH (LOGGER)
 MAGU.                 1851863:  MAGUTM CHECKSUM
 VSC .                       0:  VS TO CLOSURE
~Parameter Information Block
#MNEM.UNIT       Value        Description
#---------     -----------    ---------------------------
 AV  .mps                 0.40:  Ann Velocity 
 AVMX.mps                 0.63:  Max Ann Veloc 
 AZIF.deg               158.76:  Azm, Final 
 BHAT.        Rotary Steerable:  BHA Type 
 BROT.°/30m               0.68:  Build Rotating 
 BS  .in                  8.50:  Bit Size 
 BSZ .in                  8.50:  Bit Size 
 BTPL.psig              712.00:  Bit Press Loss 
 CABU.                      No:  Customer Abuse 
 COMM.                     œ_R:  Run Comments 1 
 TCS .hr                 90.66:  Time Ciculation Ended 
 CV  .mps                 2.02:  Crit Velocity 
 CVMX.mps                 2.14:  Max Crit Veloc 
 DD1 .            Aziz Aliyevu:  Direct Drillr 1 
 DD2 .             Samir Abbas:  Direct Drillr 2 
 DD3 .           Teymur Aliyev:  Direct Drillr 3 
 DDSV.                 iCruise:  DD Service 
 DEFF.%                  85.10:  % Det Eff 
 DLRX.°/30m               1.05:  Dogleg Rot Max 
 DLSO.°/30m               1.01:  Dogleg Oriented 
 DLSX.°/30m               1.05:  Dogleg Str Max 
 DRET.      07.45.00 18-Jul-21:  Drill End Time 
 DRST.      15.00.00 16-Jul-21:  Drill Start Tim 
 DTIM.hr                 23.46:  Time Drilling 
 EDEP.m                4603.00:  End Depth 
 ENG1.       Seymur Iskandarov:  Engineer 1 
 ENG2.         Yevgeniy Ulikov:  Engineer 2 
 ENG3.         Bahruz Mehdiyev:  Engineer 3 
 ENG4.         Elchin Mammadov:  Engineer 4 
 ETIM.      14.00.00 23-Jul-21:  End Time 
 FLOI.gpm               500.00:  Flow In 
 FLON.gpm               450.00:  Flow In Min 
 FLOS.cptm                0.00:  Fluid Loss 
 FLOX.gpm               560.00:  Flow In Max 
 DFT .        Mineral Oil Base:  Mud Type 
 FTRO.       Formation Presure:  FTWD Run Obj 
 HFLO.                      No:  High Flow 
 HPRE.                      No:  High Pressure 
 HTEM.                      No:  High Temp 
 HYDO.m                   1.80:  Hydro Offset 
 IFIN.deg                40.22:  Inc, Final 
 IMAX.deg                40.54:  Inc Max 
 IMIN.deg                39.44:  Inc Min 
 IMND.m                4361.17:  Inc Min Depth 
 IMXD.m                4417.92:  Inc Max Depth 
 JARR.                      No:  Jarring 
 LETM.      07.45.00 18-Jul-21:  Log End Time 
 LOST.hr                    16:  Lost Rig Time 
 LSTM.      15.00.00 16-Jul-21:  Log Start Time 
 MDCL.ppm             36500.00:  Mud Chlorides 
 MDES.     Inversion Oil/Synthetic:  Mud Desc 
 DFD .sg                  1.42:  Mud Density 
 MDMN.sg                  1.42:  Dens Mud Min 
 MDMX.sg                  1.43:  Dens Mud Max 
 MOIL.                      56:  Run Mud Oil % 
 MOWR.                   71:29:  Run Mud OWR 
 MSND.                     0.5:  Run Mud Sand % 
 MSOL.                      21:  Run Mud Solids% 
 DFV .spqt               78.00:  Mud Viscosity 
 MWOD.in                  6.75:  MWD Tool OD 
 MWSI.                     Yes:  Serv Intrp, MWD 
 OTIM.hr                200.73:  Time Operating 
 PCON.           Look Like New:  Pad Condition 
 PMAX.psia            11069.93:  Press Op, Max 
 PV  .cP                 32.00:  Mud PV 
 RUN .                     700:  Run Number 
 ROPA.m/hr               10.00:  ROP Avg 
 ROPN.m/hr                9.00:  ROP Min 
 ROPX.m/hr               16.00:  ROP Max 
 RPMA.rpm               116.00:  RPM Surface Avg 
 RPMN.rpm                80.00:  RPM Surface Min 
 RPMX.rpm               120.00:  RPM Surface Max 
 RRUN.                    L605:  Rig Run Number 
 RTIM.hr                 45.00:  Time Reaming 
 SAZI.deg               159.86:  Azm, Start 
 SDEP.m                4315.00:  Start Depth 
 SIDD.                      No:  Serv Intrp, DD 
 SINC.deg                39.86:  Inc, Start 
 SPPA.psig             3300.00:  SPP Avg 
 SPPN.psig             3040.00:  SPP Min 
 SPPX.psig             3645.00:  SPP Max 
 STIM.      01.00.00 15-Jul-21:  Start Time 
 SVCS.                 DD, MWD:  Services 
 SVER.                    9.20:  Sperry Version 
 TDAT.m                 288.00:  Tot Depth Attmp 
 TDDF.                      No:  Trip for DD 
 TDLG.m                 288.00:  Tot Depth Loggd 
 TFF .                      No:  Trip for Fail 
 TQAA.f-kp               19.00:  Torque Abs Avg 
 TQAN.f-kp               18.00:  Torque Abs Min 
 TQAX.f-kp               21.00:  Torque Abs Max 
 TRRT.°/30m               0.45:  Turn Rotating 
 MRT .                    HCIM:  Maximum Recorded Temperature 
 TTMX.degC               88.24:  Max Tool Temp 
 VS01.                90649157:  Virtual Str1 SN 
 VS02.                90652483:  Virtual Str2 SN 
 VS03.                11671987:  Virtual Str3 SN 
 VS04.                90643411:  Virtual Str4 SN 
 VS05.                90652478:  Virtual Str5 SN 
 VS06.                    6111:  Virtual Str6 SN 
 WBMN.klb                 9.50:  WOB Min 
 WITN.        Grigoriy Sarayev:  Customer Rep 
 WITN.          Rufat Huseynov:  Customer Rep 2 
 WOBA.klb                11.00:  WOB Avg 
 WOBX.klb                15.00:  WOB Max 
 YP  .lhf2               28.00:  Yield Point 
~Curve Information Block
#MNEM.UNIT                 API CODE     Curve Description
#---------               -----------    ---------------------------
 TIME.HHMMSS            00 000 000 000:  GT Time & Date
 GTDEPTH.m              00 000 000 000:  GT Depth
 GTPQH.psia             00 000 000 000:  GT HR Quartz Pressure
 GTTQ.degC              00 000 000 000:  GT Quartz Temperature
 GTTN.NONE              00 000 000 000:  GT Test Number
 GTET.sec               00 000 000 000:  GT Elapsed Test Time
 GTTVD.m                00 000 000 000:  GT True Vertical Depth
#Other Information
#
#WARRANTY: Halliburton will use its best efforts to furnish customers with 
#accurate information and interpretations that are part of, and incident to, the services 
#provided.  However, Halliburton cannot and does not warrant the accuracy 
#or correctness of such information and interpretations.  Under no circumstances should any 
#such information or interpretation be relied upon as the sole basis for any drilling, 
#completion, production, or financial decision or any procedure involving any risk to the 
#safety of any drilling venture, drilling rig or its crew or any other third party.  The 
#Customer has full responsibility for all drilling, completion and production operation.  
#Halliburton makes no representations or warranties, either expressed or 
#implied, including, but not limited to, the implied warranties of merchantability or fitness 
#for a particular purpose, with respect to the services rendered.  In no event will 
#Halliburton be liable for failure to obtain any particular results or for 
#any damages, including, but not limited to, indirect, special or consequential damages, 
#resulting from the use of any information or interpretation provided by Halliburton.
#
~A           TIME           GTDEPTH  GTPQH  GTTQ  GTTN   GTET   GTTVD  
# ...
   11:47:16.200.19-Jul-2021 4516.00 6571.11 70.90 25.00  22.61 2712.47
   11:47:16.400.19-Jul-2021 4516.00 6570.72 70.90 25.00  22.81 2712.47
   11:47:16.600.19-Jul-2021 4516.00 6570.60 70.90 25.00  23.01 2712.47
   11:47:16.800.19-Jul-2021 4516.00 6570.60 70.90 25.00  23.21 2712.47
   11:47:17.000.19-Jul-2021 4516.00 6570.16 70.90 25.00  23.41 2712.47
   11:47:17.200.19-Jul-2021 4516.00 6570.43 70.90 25.00  23.61 2712.47
   11:47:17.400.19-Jul-2021 4516.00 6578.25 70.90 25.00  23.81 2712.47
   11:47:17.600.19-Jul-2021 4516.00 6581.90 70.89 25.00  24.01 2712.47
   11:47:17.800.19-Jul-2021 4516.00 6581.90 70.89 25.00  24.21 2712.47
   11:47:18.000.19-Jul-2021 4516.00 6572.83 70.90 25.00  24.41 2712.47
   11:47:18.201.19-Jul-2021 4516.00 6574.86 70.89 25.00  24.61 2712.47
   11:47:18.401.19-Jul-2021 4516.00 6573.14 70.89 25.00  24.81 2712.47
   11:47:18.601.19-Jul-2021 4516.00 6572.10 70.89 25.00  25.01 2712.47
   11:47:18.801.19-Jul-2021 4516.00 6572.10 70.89 25.00  25.21 2712.47
   11:47:19.001.19-Jul-2021 4516.00 6572.01 70.89 25.00  25.41 2712.47
   11:47:19.201.19-Jul-2021 4516.00 6571.75 70.89 25.00  25.61 2712.47
   11:47:19.401.19-Jul-2021 4516.00 6571.67 70.89 25.00  25.81 2712.47
   11:47:19.601.19-Jul-2021 4516.00 6571.61 70.89 25.00  26.01 2712.47
   11:47:19.801.19-Jul-2021 4516.00 6571.61 70.89 25.00  26.21 2712.47
   11:47:20.001.19-Jul-2021 4516.00 6572.67 70.89 25.00  26.41 2712.47
   11:47:20.201.19-Jul-2021 4516.00 6587.82 70.89 25.00  26.61 2712.47
   11:47:20.401.19-Jul-2021 4516.00 6582.70 70.89 25.00  26.81 2712.47
   11:47:20.601.19-Jul-2021 4516.00 6583.35 70.89 25.00  27.01 2712.47
   11:47:20.802.19-Jul-2021 4516.00 6583.35 70.89 25.00  27.21 2712.47
   11:47:21.002.19-Jul-2021 4516.00 6584.50 70.89 25.00  27.41 2712.47
   11:47:21.202.19-Jul-2021 4516.00 6573.42 70.89 25.00  27.61 2712.47
   11:47:21.402.19-Jul-2021 4516.00 6575.75 70.89 25.00  27.81 2712.47
   11:47:21.602.19-Jul-2021 4516.00 6574.85 70.89 25.00  28.01 2712.47
   11:47:21.802.19-Jul-2021 4516.00 6574.85 70.89 25.00  28.21 2712.47
   11:47:22.002.19-Jul-2021 4516.00 6580.96 70.89 25.00  28.41 2712.47
   11:47:22.202.19-Jul-2021 4516.00 6576.52 70.89 25.00  28.61 2712.47
   11:47:22.402.19-Jul-2021 4516.00 6596.69 70.89 25.00  28.81 2712.47
   11:47:22.602.19-Jul-2021 4516.00 6580.50 70.89 25.00  29.01 2712.47
   11:47:22.802.19-Jul-2021 4516.00 6580.50 70.89 25.00  29.21 2712.47
   11:47:23.002.19-Jul-2021 4516.00 6580.57 70.89 25.00  29.41 2712.47
   11:47:23.202.19-Jul-2021 4516.00 6599.12 70.89 25.00  29.61 2712.47
   11:47:23.402.19-Jul-2021 4516.00 6598.23 70.89 25.00  29.81 2712.47
   11:47:23.603.19-Jul-2021 4516.00 6588.49 70.89 25.00  30.01 2712.47
   11:47:23.803.19-Jul-2021 4516.00 6588.49 70.89 25.00  30.21 2712.47
   11:47:24.003.19-Jul-2021 4516.00 6574.41 70.89 25.00  30.41 2712.47
   11:47:24.203.19-Jul-2021 4516.00 6570.85 70.89 25.00  30.61 2712.47
   11:47:24.403.19-Jul-2021 4516.00 6565.00 70.89 25.00  30.81 2712.47
   11:47:24.603.19-Jul-2021 4516.00 6552.16 70.89 25.00  31.01 2712.47
   11:47:24.803.19-Jul-2021 4516.00 6552.16 70.89 25.00  31.21 2712.47
   11:47:25.003.19-Jul-2021 4516.00 6496.88 70.89 25.00  31.41 2712.47
   11:47:25.203.19-Jul-2021 4516.00 6479.44 70.89 25.00  31.61 2712.47
   11:47:25.403.19-Jul-2021 4516.00 6469.76 70.89 25.00  31.81 2712.47
   11:47:25.603.19-Jul-2021 4516.00 6463.40 70.89 25.00  32.01 2712.47
   11:47:25.803.19-Jul-2021 4516.00 6463.40 70.89 25.00  32.21 2712.47
   11:47:26.003.19-Jul-2021 4516.00 6453.33 70.89 25.00  32.41 2712.47
   11:47:26.204.19-Jul-2021 4516.00 6455.50 70.89 25.00  32.61 2712.47
   11:47:26.404.19-Jul-2021 4516.00 6449.94 70.89 25.00  32.81 2712.47
   11:47:26.604.19-Jul-2021 4516.00 6446.25 70.89 25.00  33.01 2712.47
   11:47:26.804.19-Jul-2021 4516.00 6446.25 70.89 25.00  33.21 2712.47
   11:47:27.004.19-Jul-2021 4516.00 6441.21 70.89 25.00  33.41 2712.47
   11:47:27.204.19-Jul-2021 4516.00 6438.30 70.89 25.00  33.61 2712.47
   11:47:27.404.19-Jul-2021 4516.00 6435.98 70.89 25.00  33.81 2712.47
   11:47:27.604.19-Jul-2021 4516.00 6434.03 70.89 25.00  34.01 2712.47
   11:47:27.804.19-Jul-2021 4516.00 6434.03 70.89 25.00  34.21 2712.47
   11:47:28.004.19-Jul-2021 4516.00 6430.92 70.89 25.00  34.41 2712.47
   11:47:28.204.19-Jul-2021 4516.00 6429.42 70.89 25.00  34.61 2712.47
   11:47:28.404.19-Jul-2021 4516.00 6428.13 70.89 25.00  34.81 2712.47
   11:47:28.604.19-Jul-2021 4516.00 6426.29 70.89 25.00  35.01 2712.47
   11:47:28.804.19-Jul-2021 4516.00 6426.29 70.89 25.00  35.21 2712.47
   11:47:29.005.19-Jul-2021 4516.00 6419.39 70.89 25.00  35.41 2712.47
   11:47:29.205.19-Jul-2021 4516.00 6414.78 70.89 25.00  35.61 2712.47
   11:47:29.405.19-Jul-2021 4516.00 6416.61 70.89 25.00  35.81 2712.47
   11:47:29.605.19-Jul-2021 4516.00 6194.39 70.89 25.00  36.01 2712.47
   11:47:29.805.19-Jul-2021 4516.00 6194.39 70.89 25.00  36.21 2712.47
   11:47:30.005.19-Jul-2021 4516.00 4281.92 70.89 25.00  36.41 2712.47
   11:47:30.205.19-Jul-2021 4516.00 3605.40 70.89 25.00  36.61 2712.47
   11:47:30.405.19-Jul-2021 4516.00 3583.69 70.89 25.00  36.81 2712.47
   11:47:30.605.19-Jul-2021 4516.00 3583.74 70.89 25.00  37.01 2712.47
   11:47:30.805.19-Jul-2021 4516.00 3583.74 70.89 25.00  37.21 2712.47
   11:47:31.005.19-Jul-2021 4516.00 3584.81 70.89 25.00  37.41 2712.47
   11:47:31.205.19-Jul-2021 4516.00 3584.30 70.89 25.00  37.61 2712.47
   11:47:31.405.19-Jul-2021 4516.00 3586.54 70.88 25.00  37.81 2712.47
   11:47:31.605.19-Jul-2021 4516.00 3584.60 70.88 25.00  38.01 2712.47
   11:47:31.806.19-Jul-2021 4516.00 3584.60 70.88 25.00  38.21 2712.47
   11:47:32.006.19-Jul-2021 4516.00 3582.73 70.88 25.00  38.41 2712.47
   11:47:32.206.19-Jul-2021 4516.00 3582.69 70.88 25.00  38.61 2712.47
   11:47:32.406.19-Jul-2021 4516.00 3582.30 70.88 25.00  38.81 2712.47
   11:47:32.606.19-Jul-2021 4516.00 3582.21 70.87 25.00  39.01 2712.47
   11:47:32.806.19-Jul-2021 4516.00 3582.21 70.87 25.00  39.21 2712.47
   11:47:33.006.19-Jul-2021 4516.00 3582.85 70.87 25.00  39.41 2712.47
   11:47:33.206.19-Jul-2021 4516.00 3582.53 70.87 25.00  39.61 2712.47
   11:47:33.406.19-Jul-2021 4516.00 3582.46 70.87 25.00  39.81 2712.47
   11:47:33.606.19-Jul-2021 4516.00 3582.41 70.87 25.00  40.01 2712.47
   11:47:33.806.19-Jul-2021 4516.00 3582.41 70.87 25.00  40.21 2712.47
   11:47:34.006.19-Jul-2021 4516.00 3582.21 70.86 25.00  40.41 2712.47
   11:47:34.206.19-Jul-2021 4516.00 3582.13 70.86 25.00  40.61 2712.47
   11:47:34.407.19-Jul-2021 4516.00 3581.79 70.86 25.00  40.82 2712.47
   11:47:34.607.19-Jul-2021 4516.00 3581.70 70.86 25.00  41.02 2712.47
   11:47:34.807.19-Jul-2021 4516.00 3581.70 70.86 25.00  41.22 2712.47
   11:47:35.007.19-Jul-2021 4516.00 3581.59 70.85 25.00  41.42 2712.47
   11:47:35.207.19-Jul-2021 4516.00 3581.55 70.85 25.00  41.62 2712.47
   11:47:35.407.19-Jul-2021 4516.00 3581.56 70.85 25.00  41.82 2712.47
   11:47:35.607.19-Jul-2021 4516.00 3581.66 70.85 25.00  42.02 2712.47
   11:47:35.807.19-Jul-2021 4516.00 3581.66 70.85 25.00  42.22 2712.47
   11:47:36.007.19-Jul-2021 4516.00 3581.71 70.85 25.00  42.42 2712.47
   11:47:36.207.19-Jul-2021 4516.00 3581.68 70.85 25.00  42.62 2712.47
   11:47:36.407.19-Jul-2021 4516.00 3581.72 70.84 25.00  42.82 2712.47
   11:47:36.607.19-Jul-2021 4516.00 3581.77 70.84 25.00  43.02 2712.47
   11:47:36.807.19-Jul-2021 4516.00 3581.77 70.84 25.00  43.22 2712.47
   11:47:37.007.19-Jul-2021 4516.00 3581.96 70.84 25.00  43.42 2712.47
   11:47:37.208.19-Jul-2021 4516.00 3581.60 70.84 25.00  43.62 2712.47
   11:47:37.408.19-Jul-2021 4516.00 3581.74 70.84 25.00  43.82 2712.47
   11:47:37.608.19-Jul-2021 4516.00 3581.86 70.84 25.00  44.02 2712.47
   11:47:37.808.19-Jul-2021 4516.00 3581.86 70.84 25.00  44.22 2712.47
   11:47:38.008.19-Jul-2021 4516.00 3581.73 70.84 25.00  44.42 2712.47
   11:47:38.208.19-Jul-2021 4516.00 3581.83 70.83 25.00  44.62 2712.47
   11:47:38.408.19-Jul-2021 4516.00 3581.95 70.83 25.00  44.82 2712.47
   11:47:38.608.19-Jul-2021 4516.00 3582.00 70.83 25.00  45.02 2712.47
