~Version Information
 VERS.                  2.0:   CWLS log ASCII Standard -VERSION 2.0
 WRAP.                   NO:   One line per depth step
~Well Information Block
#MNEM.UNIT     VALUE/NAME     DESCRIPTION
#---------     -----------    ---------------------------
 STRT.S             14:01:43 18-Jul-21: START TIME 14:01:43 18-Jul-21
 STOP.S             14:08:15 18-Jul-21: STOP TIME  14:08:15 18-Jul-21
 STEP.S                   0.00: STEP TIME
 NULL.                 -999.25: NULL VALUE
 MDS .        Operator Entered:  MAG DATA SOURCE
 PDAT.          Mean Sea Level:  PERMANENT DATUM
 UNIT.                     N/A:  LOGGING EQUIPMENT ID
 DCON.         Sperry Drilling:  DIRECTNL CONTR
 DOE .                     N/A:  DOE NUMBER
 RIG .              West Azeri:  RIG NAME
 JOBN.        AZ-XX-0906997913:  JOB TICKET NUMB
 WELL.                     C41:  WELL NAME
 MWDS.                    Baku:  MWD SHOP
 SRVC.          Turan Drilling:  CONTRACTOR
 FLD .                     ACG:  FIELD NAME
 CTRY.              Azerbaijan:  COUNTRY NAME
 PROV.                    Baku:  PROVINCE
 STAT.                    Baku:  STATE NAME
 REGN.                   EESSA:  REGION
 BASE.              Azerbaijan:  LOGGING EQUIPMENT BASE LOCATION
 UWI .                     N/A:  UNIQUE WELL IDENTIFIER
 API .                     N/A:  API NUMBER
 COMP.     BP Exploration (Caspian Sea) Ltd.:  COMPANY
 WTYP.                Deviated:  WELL TYPE
 SON .        AZ-XX-0906997913:  JOB NUMBER
 FTOP.          Formation Tops:  FORM TOPS DESC
 ILTD.               Lithology:  INTERP LTH DESC
 SVYD.                  Survey:  SURVEY DESC
 DMOD.             Drill Model:  DRILL MOD DESC
 HPTY.       Minimum Curvature:  HOLE POS TYPE
 NREF.                    Grid:  NORTH REFERENCE
 SPUD.               16-May-21:  SPUD DATE
 DATE.      21.11.28 17-May-21:  END TIME
 STIM.      21.11.28 17-May-21:  START TIME
 DMF .             Drill Floor:  DRILL MEAS FROM
 DFST.                        :  DIST FSL TEXT
 DFWT.                        :  DIST FWL TEXT
 CNTY.                        :  COUNTY
 LOC .                        :  LOCATION
 LMF .             Drill Floor:  LOG MEASURED FROM
 AGAP.m                  43.42:  AIR GAP
 VSNS.m                  -2.16:  VERT SEC N/S
 VSEW.m                  -6.24:  VERT SEC E/W
 APD .m                  43.42:  DEPTH ABOVE PD
 WDMS.m                 118.27:  WD ELEV
 EGL .m                   0.00:  GROUND ELEVATION
 EPD .m                   0.00:  ELEVATION
 AZTC.deg                 6.29:  AZM TOTAL CORR
 GRDC.deg                 0.18:  GRID CORRECTION
 MDEC.deg                 6.47:  MAGNETIC DECL
 MDIP.deg                59.54:  MAGNETIC DIP
 MFLD.nT              50337.00:  MAGNETIC FIELD
 GVFD.g                   1.00:  GRAVITY FIELD
 VSDR.deg               226.99:  VERT SEC DIRECT
 TDD .m                   0.00:  TOTAL DEPTH (DRILLER)
 SDEP.m                 448.00:  START DEPTH
 DFSL.m                   0.00:  DISTANCE FSL
 DFWL.m                   0.00:  DISTANCE FWL
 UTMY.m             4435799.96:  UTM Y
 UTMX.m              526265.35:  UTM X
 WHEW.m                  -6.24:  WELL HEAD E/W
 WHNS.m                  -2.16:  WELL HEAD N/S
 LONG.deg                51.31:  LONGITUDE
 LATI.deg                40.06:  LATITUDE
 TVDS.m                  43.42:  TVDSS CORRECTN
 EKB .m                  43.42:  KB ELEVATION
 EDF .m                  43.42:  DF ELEVATION
 TDL .m                 288.00:  TOTAL DEPTH (LOGGER)
 MAGU.                 1851863:  MAGUTM CHECKSUM
 VSC .                       0:  VS TO CLOSURE
~Parameter Information Block
#MNEM.UNIT       Value        Description
#---------     -----------    ---------------------------
 AV  .mps                 0.40:  Ann Velocity 
 AVMX.mps                 0.63:  Max Ann Veloc 
 AZIF.deg               158.76:  Azm, Final 
 BHAT.        Rotary Steerable:  BHA Type 
 BROT.°/30m               0.68:  Build Rotating 
 BS  .in                  8.50:  Bit Size 
 BSZ .in                  8.50:  Bit Size 
 BTPL.psig              712.00:  Bit Press Loss 
 CABU.                      No:  Customer Abuse 
 COMM.                     <©Q:  Run Comments 1 
 TCS .hr                 90.66:  Time Ciculation Ended 
 CV  .mps                 2.02:  Crit Velocity 
 CVMX.mps                 2.14:  Max Crit Veloc 
 DD1 .            Aziz Aliyevu:  Direct Drillr 1 
 DD2 .             Samir Abbas:  Direct Drillr 2 
 DD3 .           Teymur Aliyev:  Direct Drillr 3 
 DDSV.                 iCruise:  DD Service 
 DEFF.%                  85.10:  % Det Eff 
 DLRX.°/30m               1.05:  Dogleg Rot Max 
 DLSO.°/30m               1.01:  Dogleg Oriented 
 DLSX.°/30m               1.05:  Dogleg Str Max 
 DRET.      07.45.00 18-Jul-21:  Drill End Time 
 DRST.      15.00.00 16-Jul-21:  Drill Start Tim 
 DTIM.hr                 23.46:  Time Drilling 
 EDEP.m                4603.00:  End Depth 
 ENG1.       Seymur Iskandarov:  Engineer 1 
 ENG2.         Yevgeniy Ulikov:  Engineer 2 
 ENG3.         Bahruz Mehdiyev:  Engineer 3 
 ENG4.         Elchin Mammadov:  Engineer 4 
 ETIM.      14.00.00 23-Jul-21:  End Time 
 FLOI.gpm               500.00:  Flow In 
 FLON.gpm               450.00:  Flow In Min 
 FLOS.cptm                0.00:  Fluid Loss 
 FLOX.gpm               560.00:  Flow In Max 
 DFT .        Mineral Oil Base:  Mud Type 
 FTRO.       Formation Presure:  FTWD Run Obj 
 HFLO.                      No:  High Flow 
 HPRE.                      No:  High Pressure 
 HTEM.                      No:  High Temp 
 HYDO.m                   1.80:  Hydro Offset 
 IFIN.deg                40.22:  Inc, Final 
 IMAX.deg                40.54:  Inc Max 
 IMIN.deg                39.44:  Inc Min 
 IMND.m                4361.17:  Inc Min Depth 
 IMXD.m                4417.92:  Inc Max Depth 
 JARR.                      No:  Jarring 
 LETM.      07.45.00 18-Jul-21:  Log End Time 
 LOST.hr                    16:  Lost Rig Time 
 LSTM.      15.00.00 16-Jul-21:  Log Start Time 
 MDCL.ppm             36500.00:  Mud Chlorides 
 MDES.     Inversion Oil/Synthetic:  Mud Desc 
 DFD .sg                  1.42:  Mud Density 
 MDMN.sg                  1.42:  Dens Mud Min 
 MDMX.sg                  1.43:  Dens Mud Max 
 MOIL.                      56:  Run Mud Oil % 
 MOWR.                   71:29:  Run Mud OWR 
 MSND.                     0.5:  Run Mud Sand % 
 MSOL.                      21:  Run Mud Solids% 
 DFV .spqt               78.00:  Mud Viscosity 
 MWOD.in                  6.75:  MWD Tool OD 
 MWSI.                     Yes:  Serv Intrp, MWD 
 OTIM.hr                200.73:  Time Operating 
 PCON.           Look Like New:  Pad Condition 
 PMAX.psia            11069.93:  Press Op, Max 
 PV  .cP                 32.00:  Mud PV 
 RUN .                     700:  Run Number 
 ROPA.m/hr               10.00:  ROP Avg 
 ROPN.m/hr                9.00:  ROP Min 
 ROPX.m/hr               16.00:  ROP Max 
 RPMA.rpm               116.00:  RPM Surface Avg 
 RPMN.rpm                80.00:  RPM Surface Min 
 RPMX.rpm               120.00:  RPM Surface Max 
 RRUN.                    L605:  Rig Run Number 
 RTIM.hr                 45.00:  Time Reaming 
 SAZI.deg               159.86:  Azm, Start 
 SDEP.m                4315.00:  Start Depth 
 SIDD.                      No:  Serv Intrp, DD 
 SINC.deg                39.86:  Inc, Start 
 SPPA.psig             3300.00:  SPP Avg 
 SPPN.psig             3040.00:  SPP Min 
 SPPX.psig             3645.00:  SPP Max 
 STIM.      01.00.00 15-Jul-21:  Start Time 
 SVCS.                 DD, MWD:  Services 
 SVER.                    9.20:  Sperry Version 
 TDAT.m                 288.00:  Tot Depth Attmp 
 TDDF.                      No:  Trip for DD 
 TDLG.m                 288.00:  Tot Depth Loggd 
 TFF .                      No:  Trip for Fail 
 TQAA.f-kp               19.00:  Torque Abs Avg 
 TQAN.f-kp               18.00:  Torque Abs Min 
 TQAX.f-kp               21.00:  Torque Abs Max 
 TRRT.°/30m               0.45:  Turn Rotating 
 MRT .                    HCIM:  Maximum Recorded Temperature 
 TTMX.degC               88.24:  Max Tool Temp 
 VS01.                90649157:  Virtual Str1 SN 
 VS02.                90652483:  Virtual Str2 SN 
 VS03.                11671987:  Virtual Str3 SN 
 VS04.                90643411:  Virtual Str4 SN 
 VS05.                90652478:  Virtual Str5 SN 
 VS06.                    6111:  Virtual Str6 SN 
 WBMN.klb                 9.50:  WOB Min 
 WITN.        Grigoriy Sarayev:  Customer Rep 
 WITN.          Rufat Huseynov:  Customer Rep 2 
 WOBA.klb                11.00:  WOB Avg 
 WOBX.klb                15.00:  WOB Max 
 YP  .lhf2               28.00:  Yield Point 
~Curve Information Block
#MNEM.UNIT                 API CODE     Curve Description
#---------               -----------    ---------------------------
 TIME.HHMMSS            00 000 000 000:  GT Time & Date
 GTDEPTH.m              00 000 000 000:  GT Depth
 GTPQH.psia             00 000 000 000:  GT HR Quartz Pressure
 GTTQ.degC              00 000 000 000:  GT Quartz Temperature
 GTTN.NONE              00 000 000 000:  GT Test Number
 GTET.sec               00 000 000 000:  GT Elapsed Test Time
 GTTVD.m                00 000 000 000:  GT True Vertical Depth
#Other Information
#
#WARRANTY: Halliburton will use its best efforts to furnish customers with 
#accurate information and interpretations that are part of, and incident to, the services 
#provided.  However, Halliburton cannot and does not warrant the accuracy 
#or correctness of such information and interpretations.  Under no circumstances should any 
#such information or interpretation be relied upon as the sole basis for any drilling, 
#completion, production, or financial decision or any procedure involving any risk to the 
#safety of any drilling venture, drilling rig or its crew or any other third party.  The 
#Customer has full responsibility for all drilling, completion and production operation.  
#Halliburton makes no representations or warranties, either expressed or 
#implied, including, but not limited to, the implied warranties of merchantability or fitness 
#for a particular purpose, with respect to the services rendered.  In no event will 
#Halliburton be liable for failure to obtain any particular results or for 
#any damages, including, but not limited to, indirect, special or consequential damages, 
#resulting from the use of any information or interpretation provided by Halliburton.
#
~A           TIME           GTDEPTH  GTPQH  GTTQ  GTTN  GTET   GTTVD  
# ...
   14:06:19.859.18-Jul-2021 4559.00 6752.41 75.31 3.00 276.10 2745.40
   14:06:20.059.18-Jul-2021 4559.00 6752.41 75.31 3.00 276.30 2745.40
   14:06:20.259.18-Jul-2021 4559.00 6751.13 75.31 3.00 276.50 2745.40
   14:06:20.459.18-Jul-2021 4559.00 6751.25 75.32 3.00 276.70 2745.40
   14:06:20.659.18-Jul-2021 4559.00 6750.78 75.32 3.00 276.90 2745.40
   14:06:20.859.18-Jul-2021 4559.00 6750.64 75.32 3.00 277.10 2745.40
   14:06:21.059.18-Jul-2021 4559.00 6750.64 75.32 3.00 277.30 2745.40
   14:06:21.259.18-Jul-2021 4559.00 6750.53 75.32 3.00 277.50 2745.40
   14:06:21.459.18-Jul-2021 4559.00 6750.27 75.32 3.00 277.70 2745.40
   14:06:21.659.18-Jul-2021 4559.00 6749.91 75.32 3.00 277.90 2745.40
   14:06:21.859.18-Jul-2021 4559.00 6753.22 75.32 3.00 278.10 2745.40
   14:06:22.060.18-Jul-2021 4559.00 6753.22 75.32 3.00 278.30 2745.40
   14:06:22.260.18-Jul-2021 4559.00 6750.07 75.32 3.00 278.50 2745.40
   14:06:22.460.18-Jul-2021 4559.00 6756.74 75.32 3.00 278.70 2745.40
   14:06:22.660.18-Jul-2021 4559.00 6752.08 75.32 3.00 278.90 2745.40
   14:06:22.860.18-Jul-2021 4559.00 6750.78 75.32 3.00 279.10 2745.40
   14:06:23.060.18-Jul-2021 4559.00 6750.78 75.32 3.00 279.30 2745.40
   14:06:23.260.18-Jul-2021 4559.00 6753.29 75.32 3.00 279.50 2745.40
   14:06:23.460.18-Jul-2021 4559.00 6751.50 75.32 3.00 279.70 2745.40
   14:06:23.660.18-Jul-2021 4559.00 6753.18 75.32 3.00 279.90 2745.40
   14:06:23.860.18-Jul-2021 4559.00 6750.96 75.32 3.00 280.10 2745.40
   14:06:24.060.18-Jul-2021 4559.00 6750.96 75.32 3.00 280.30 2745.40
   14:06:24.260.18-Jul-2021 4559.00 6755.47 75.32 3.00 280.50 2745.40
   14:06:24.460.18-Jul-2021 4559.00 6752.19 75.32 3.00 280.70 2745.40
   14:06:24.660.18-Jul-2021 4559.00 6752.09 75.32 3.00 280.90 2745.40
   14:06:24.861.18-Jul-2021 4559.00 6752.53 75.32 3.00 281.10 2745.40
   14:06:25.061.18-Jul-2021 4559.00 6752.53 75.32 3.00 281.30 2745.40
   14:06:25.261.18-Jul-2021 4559.00 6754.11 75.32 3.00 281.50 2745.40
   14:06:25.461.18-Jul-2021 4559.00 6751.36 75.32 3.00 281.70 2745.40
   14:06:25.661.18-Jul-2021 4559.00 6752.51 75.32 3.00 281.90 2745.40
   14:06:25.861.18-Jul-2021 4559.00 6752.08 75.32 3.00 282.10 2745.40
   14:06:26.061.18-Jul-2021 4559.00 6752.08 75.32 3.00 282.30 2745.40
   14:06:26.261.18-Jul-2021 4559.00 6751.27 75.32 3.00 282.50 2745.40
   14:06:26.461.18-Jul-2021 4559.00 6751.16 75.32 3.00 282.70 2745.40
   14:06:26.661.18-Jul-2021 4559.00 6751.23 75.32 3.00 282.90 2745.40
   14:06:26.861.18-Jul-2021 4559.00 6751.07 75.32 3.00 283.10 2745.40
   14:06:27.061.18-Jul-2021 4559.00 6751.07 75.32 3.00 283.30 2745.40
   14:06:27.261.18-Jul-2021 4559.00 6751.24 75.32 3.00 283.50 2745.40
   14:06:27.462.18-Jul-2021 4559.00 6751.73 75.32 3.00 283.70 2745.40
   14:06:27.662.18-Jul-2021 4559.00 6751.18 75.32 3.00 283.90 2745.40
   14:06:27.862.18-Jul-2021 4559.00 6750.17 75.32 3.00 284.10 2745.40
   14:06:28.062.18-Jul-2021 4559.00 6750.17 75.32 3.00 284.30 2745.40
   14:06:28.262.18-Jul-2021 4559.00 6751.16 75.32 3.00 284.50 2745.40
   14:06:28.462.18-Jul-2021 4559.00 6751.03 75.32 3.00 284.70 2745.40
   14:06:28.662.18-Jul-2021 4559.00 6752.01 75.32 3.00 284.90 2745.40
   14:06:28.862.18-Jul-2021 4559.00 6750.59 75.32 3.00 285.10 2745.40
   14:06:29.062.18-Jul-2021 4559.00 6750.59 75.32 3.00 285.31 2745.40
   14:06:29.262.18-Jul-2021 4559.00 6750.24 75.32 3.00 285.51 2745.40
   14:06:29.462.18-Jul-2021 4559.00 6750.02 75.32 3.00 285.71 2745.40
   14:06:29.662.18-Jul-2021 4559.00 6750.13 75.32 3.00 285.91 2745.40
   14:06:29.862.18-Jul-2021 4559.00 6750.33 75.32 3.00 286.11 2745.40
   14:06:30.062.18-Jul-2021 4559.00 6750.33 75.32 3.00 286.31 2745.40
   14:06:30.263.18-Jul-2021 4559.00 6750.11 75.32 3.00 286.51 2745.40
   14:06:30.463.18-Jul-2021 4559.00 6749.91 75.32 3.00 286.71 2745.40
   14:06:30.663.18-Jul-2021 4559.00 6754.50 75.32 3.00 286.91 2745.40
   14:06:30.863.18-Jul-2021 4559.00 6751.17 75.32 3.00 287.11 2745.40
   14:06:31.063.18-Jul-2021 4559.00 6751.17 75.32 3.00 287.31 2745.40
   14:06:31.263.18-Jul-2021 4559.00 6755.56 75.32 3.00 287.51 2745.40
   14:06:31.463.18-Jul-2021 4559.00 6752.10 75.32 3.00 287.71 2745.40
   14:06:31.663.18-Jul-2021 4559.00 6751.89 75.32 3.00 287.91 2745.40
   14:06:31.863.18-Jul-2021 4559.00 6755.57 75.32 3.00 288.11 2745.40
   14:06:32.063.18-Jul-2021 4559.00 6755.57 75.32 3.00 288.31 2745.40
   14:06:32.263.18-Jul-2021 4559.00 6751.12 75.32 3.00 288.51 2745.40
   14:06:32.463.18-Jul-2021 4559.00 6753.21 75.32 3.00 288.71 2745.40
   14:06:32.663.18-Jul-2021 4559.00 6754.51 75.32 3.00 288.91 2745.40
   14:06:32.864.18-Jul-2021 4559.00 6753.34 75.32 3.00 289.11 2745.40
   14:06:33.064.18-Jul-2021 4559.00 6753.34 75.32 3.00 289.31 2745.40
   14:06:33.264.18-Jul-2021 4559.00 6753.36 75.32 3.00 289.51 2745.40
   14:06:33.464.18-Jul-2021 4559.00 6754.09 75.32 3.00 289.71 2745.40
   14:06:33.664.18-Jul-2021 4559.00 6755.13 75.32 3.00 289.91 2745.40
   14:06:33.864.18-Jul-2021 4559.00 6750.70 75.32 3.00 290.11 2745.40
   14:06:34.064.18-Jul-2021 4559.00 6750.70 75.32 3.00 290.31 2745.40
   14:06:34.264.18-Jul-2021 4559.00 6752.25 75.32 3.00 290.51 2745.40
   14:06:34.464.18-Jul-2021 4559.00 6751.15 75.32 3.00 290.71 2745.40
   14:06:34.664.18-Jul-2021 4559.00 6751.89 75.32 3.00 290.91 2745.40
   14:06:34.864.18-Jul-2021 4559.00 6751.59 75.32 3.00 291.11 2745.40
   14:06:35.064.18-Jul-2021 4559.00 6751.59 75.32 3.00 291.31 2745.40
   14:06:35.264.18-Jul-2021 4559.00 6751.38 75.32 3.00 291.51 2745.40
   14:06:35.464.18-Jul-2021 4559.00 6750.92 75.32 3.00 291.71 2745.40
   14:06:35.665.18-Jul-2021 4559.00 6750.95 75.32 3.00 291.91 2745.40
   14:06:35.865.18-Jul-2021 4559.00 6751.39 75.32 3.00 292.11 2745.40
   14:06:36.065.18-Jul-2021 4559.00 6751.39 75.32 3.00 292.31 2745.40
   14:06:36.265.18-Jul-2021 4559.00 6750.90 75.32 3.00 292.51 2745.40
   14:06:36.465.18-Jul-2021 4559.00 6755.71 75.32 3.00 292.71 2745.40
   14:06:36.665.18-Jul-2021 4559.00 6751.88 75.32 3.00 292.91 2745.40
   14:06:36.865.18-Jul-2021 4559.00 6751.35 75.32 3.00 293.11 2745.40
   14:06:37.065.18-Jul-2021 4559.00 6751.35 75.32 3.00 293.31 2745.40
   14:06:37.265.18-Jul-2021 4559.00 6751.06 75.32 3.00 293.51 2745.40
   14:06:37.465.18-Jul-2021 4559.00 6751.05 75.32 3.00 293.71 2745.40
   14:06:37.665.18-Jul-2021 4559.00 6750.65 75.32 3.00 293.91 2745.40
   14:06:37.865.18-Jul-2021 4559.00 6750.87 75.32 3.00 294.11 2745.40
   14:06:38.065.18-Jul-2021 4559.00 6750.87 75.32 3.00 294.31 2745.40
   14:06:38.265.18-Jul-2021 4559.00 6750.48 75.32 3.00 294.51 2745.40
   14:06:38.466.18-Jul-2021 4559.00 6750.76 75.32 3.00 294.71 2745.40
   14:06:38.666.18-Jul-2021 4559.00 6750.52 75.32 3.00 294.91 2745.40
   14:06:38.866.18-Jul-2021 4559.00 6751.00 75.32 3.00 295.11 2745.40
   14:06:39.066.18-Jul-2021 4559.00 6751.00 75.32 3.00 295.31 2745.40
   14:06:39.266.18-Jul-2021 4559.00 6751.32 75.32 3.00 295.51 2745.40
   14:06:39.466.18-Jul-2021 4559.00 6752.10 75.32 3.00 295.71 2745.40
   14:06:39.666.18-Jul-2021 4559.00 6755.38 75.32 3.00 295.91 2745.40
   14:06:39.866.18-Jul-2021 4559.00 6751.22 75.32 3.00 296.11 2745.40
   14:06:40.066.18-Jul-2021 4559.00 6751.22 75.32 3.00 296.31 2745.40
   14:06:40.266.18-Jul-2021 4559.00 6757.03 75.32 3.00 296.51 2745.40
   14:06:40.466.18-Jul-2021 4559.00 6752.48 75.32 3.00 296.71 2745.40
   14:06:40.666.18-Jul-2021 4559.00 6751.87 75.32 3.00 296.91 2745.40
   14:06:40.866.18-Jul-2021 4559.00 6752.45 75.32 3.00 297.11 2745.40
   14:06:41.067.18-Jul-2021 4559.00 6752.45 75.32 3.00 297.31 2745.40
   14:06:41.267.18-Jul-2021 4559.00 6753.48 75.32 3.00 297.51 2745.40
   14:06:41.467.18-Jul-2021 4559.00 6752.77 75.32 3.00 297.71 2745.40
   14:06:41.667.18-Jul-2021 4559.00 6751.39 75.32 3.00 297.91 2745.40
   14:06:41.867.18-Jul-2021 4559.00 6752.96 75.32 3.00 298.11 2745.40
   14:06:42.067.18-Jul-2021 4559.00 6752.96 75.32 3.00 298.31 2745.40
   14:06:42.267.18-Jul-2021 4559.00 6753.80 75.32 3.00 298.51 2745.40
   14:06:42.467.18-Jul-2021 4559.00 6751.92 75.32 3.00 298.71 2745.40
   14:06:42.667.18-Jul-2021 4559.00 6751.61 75.32 3.00 298.91 2745.40
