~Version Information
 VERS.                  2.0:   CWLS log ASCII Standard -VERSION 2.0
 WRAP.                   NO:   One line per depth step
~Well Information Block
#MNEM.UNIT     VALUE/NAME     DESCRIPTION
#---------     -----------    ---------------------------
 STRT.S             14:22:27 18-Jul-21: START TIME 14:22:27 18-Jul-21
 STOP.S             14:29:00 18-Jul-21: STOP TIME  14:29:00 18-Jul-21
 STEP.S                   0.00: STEP TIME
 NULL.                 -999.25: NULL VALUE
 MDS .        Operator Entered:  MAG DATA SOURCE
 PDAT.          Mean Sea Level:  PERMANENT DATUM
 UNIT.                     N/A:  LOGGING EQUIPMENT ID
 DCON.         Sperry Drilling:  DIRECTNL CONTR
 DOE .                     N/A:  DOE NUMBER
 RIG .              West Azeri:  RIG NAME
 JOBN.        AZ-XX-0906997913:  JOB TICKET NUMB
 WELL.                     C41:  WELL NAME
 MWDS.                    Baku:  MWD SHOP
 SRVC.          Turan Drilling:  CONTRACTOR
 FLD .                     ACG:  FIELD NAME
 CTRY.              Azerbaijan:  COUNTRY NAME
 PROV.                    Baku:  PROVINCE
 STAT.                    Baku:  STATE NAME
 REGN.                   EESSA:  REGION
 BASE.              Azerbaijan:  LOGGING EQUIPMENT BASE LOCATION
 UWI .                     N/A:  UNIQUE WELL IDENTIFIER
 API .                     N/A:  API NUMBER
 COMP.     BP Exploration (Caspian Sea) Ltd.:  COMPANY
 WTYP.                Deviated:  WELL TYPE
 SON .        AZ-XX-0906997913:  JOB NUMBER
 FTOP.          Formation Tops:  FORM TOPS DESC
 ILTD.               Lithology:  INTERP LTH DESC
 SVYD.                  Survey:  SURVEY DESC
 DMOD.             Drill Model:  DRILL MOD DESC
 HPTY.       Minimum Curvature:  HOLE POS TYPE
 NREF.                    Grid:  NORTH REFERENCE
 SPUD.               16-May-21:  SPUD DATE
 DATE.      21.11.28 17-May-21:  END TIME
 STIM.      21.11.28 17-May-21:  START TIME
 DMF .             Drill Floor:  DRILL MEAS FROM
 DFST.                        :  DIST FSL TEXT
 DFWT.                        :  DIST FWL TEXT
 CNTY.                        :  COUNTY
 LOC .                        :  LOCATION
 LMF .             Drill Floor:  LOG MEASURED FROM
 AGAP.m                  43.42:  AIR GAP
 VSNS.m                  -2.16:  VERT SEC N/S
 VSEW.m                  -6.24:  VERT SEC E/W
 APD .m                  43.42:  DEPTH ABOVE PD
 WDMS.m                 118.27:  WD ELEV
 EGL .m                   0.00:  GROUND ELEVATION
 EPD .m                   0.00:  ELEVATION
 AZTC.deg                 6.29:  AZM TOTAL CORR
 GRDC.deg                 0.18:  GRID CORRECTION
 MDEC.deg                 6.47:  MAGNETIC DECL
 MDIP.deg                59.54:  MAGNETIC DIP
 MFLD.nT              50337.00:  MAGNETIC FIELD
 GVFD.g                   1.00:  GRAVITY FIELD
 VSDR.deg               226.99:  VERT SEC DIRECT
 TDD .m                   0.00:  TOTAL DEPTH (DRILLER)
 SDEP.m                 448.00:  START DEPTH
 DFSL.m                   0.00:  DISTANCE FSL
 DFWL.m                   0.00:  DISTANCE FWL
 UTMY.m             4435799.96:  UTM Y
 UTMX.m              526265.35:  UTM X
 WHEW.m                  -6.24:  WELL HEAD E/W
 WHNS.m                  -2.16:  WELL HEAD N/S
 LONG.deg                51.31:  LONGITUDE
 LATI.deg                40.06:  LATITUDE
 TVDS.m                  43.42:  TVDSS CORRECTN
 EKB .m                  43.42:  KB ELEVATION
 EDF .m                  43.42:  DF ELEVATION
 TDL .m                 288.00:  TOTAL DEPTH (LOGGER)
 MAGU.                 1851863:  MAGUTM CHECKSUM
 VSC .                       0:  VS TO CLOSURE
~Parameter Information Block
#MNEM.UNIT       Value        Description
#---------     -----------    ---------------------------
 AV  .mps                 0.40:  Ann Velocity 
 AVMX.mps                 0.63:  Max Ann Veloc 
 AZIF.deg               158.76:  Azm, Final 
 BHAT.        Rotary Steerable:  BHA Type 
 BROT.°/30m               0.68:  Build Rotating 
 BS  .in                  8.50:  Bit Size 
 BSZ .in                  8.50:  Bit Size 
 BTPL.psig              712.00:  Bit Press Loss 
 CABU.                      No:  Customer Abuse 
 COMM.                     |«g:  Run Comments 1 
 TCS .hr                 90.66:  Time Ciculation Ended 
 CV  .mps                 2.02:  Crit Velocity 
 CVMX.mps                 2.14:  Max Crit Veloc 
 DD1 .            Aziz Aliyevu:  Direct Drillr 1 
 DD2 .             Samir Abbas:  Direct Drillr 2 
 DD3 .           Teymur Aliyev:  Direct Drillr 3 
 DDSV.                 iCruise:  DD Service 
 DEFF.%                  85.10:  % Det Eff 
 DLRX.°/30m               1.05:  Dogleg Rot Max 
 DLSO.°/30m               1.01:  Dogleg Oriented 
 DLSX.°/30m               1.05:  Dogleg Str Max 
 DRET.      07.45.00 18-Jul-21:  Drill End Time 
 DRST.      15.00.00 16-Jul-21:  Drill Start Tim 
 DTIM.hr                 23.46:  Time Drilling 
 EDEP.m                4603.00:  End Depth 
 ENG1.       Seymur Iskandarov:  Engineer 1 
 ENG2.         Yevgeniy Ulikov:  Engineer 2 
 ENG3.         Bahruz Mehdiyev:  Engineer 3 
 ENG4.         Elchin Mammadov:  Engineer 4 
 ETIM.      14.00.00 23-Jul-21:  End Time 
 FLOI.gpm               500.00:  Flow In 
 FLON.gpm               450.00:  Flow In Min 
 FLOS.cptm                0.00:  Fluid Loss 
 FLOX.gpm               560.00:  Flow In Max 
 DFT .        Mineral Oil Base:  Mud Type 
 FTRO.       Formation Presure:  FTWD Run Obj 
 HFLO.                      No:  High Flow 
 HPRE.                      No:  High Pressure 
 HTEM.                      No:  High Temp 
 HYDO.m                   1.80:  Hydro Offset 
 IFIN.deg                40.22:  Inc, Final 
 IMAX.deg                40.54:  Inc Max 
 IMIN.deg                39.44:  Inc Min 
 IMND.m                4361.17:  Inc Min Depth 
 IMXD.m                4417.92:  Inc Max Depth 
 JARR.                      No:  Jarring 
 LETM.      07.45.00 18-Jul-21:  Log End Time 
 LOST.hr                    16:  Lost Rig Time 
 LSTM.      15.00.00 16-Jul-21:  Log Start Time 
 MDCL.ppm             36500.00:  Mud Chlorides 
 MDES.     Inversion Oil/Synthetic:  Mud Desc 
 DFD .sg                  1.42:  Mud Density 
 MDMN.sg                  1.42:  Dens Mud Min 
 MDMX.sg                  1.43:  Dens Mud Max 
 MOIL.                      56:  Run Mud Oil % 
 MOWR.                   71:29:  Run Mud OWR 
 MSND.                     0.5:  Run Mud Sand % 
 MSOL.                      21:  Run Mud Solids% 
 DFV .spqt               78.00:  Mud Viscosity 
 MWOD.in                  6.75:  MWD Tool OD 
 MWSI.                     Yes:  Serv Intrp, MWD 
 OTIM.hr                200.73:  Time Operating 
 PCON.           Look Like New:  Pad Condition 
 PMAX.psia            11069.93:  Press Op, Max 
 PV  .cP                 32.00:  Mud PV 
 RUN .                     700:  Run Number 
 ROPA.m/hr               10.00:  ROP Avg 
 ROPN.m/hr                9.00:  ROP Min 
 ROPX.m/hr               16.00:  ROP Max 
 RPMA.rpm               116.00:  RPM Surface Avg 
 RPMN.rpm                80.00:  RPM Surface Min 
 RPMX.rpm               120.00:  RPM Surface Max 
 RRUN.                    L605:  Rig Run Number 
 RTIM.hr                 45.00:  Time Reaming 
 SAZI.deg               159.86:  Azm, Start 
 SDEP.m                4315.00:  Start Depth 
 SIDD.                      No:  Serv Intrp, DD 
 SINC.deg                39.86:  Inc, Start 
 SPPA.psig             3300.00:  SPP Avg 
 SPPN.psig             3040.00:  SPP Min 
 SPPX.psig             3645.00:  SPP Max 
 STIM.      01.00.00 15-Jul-21:  Start Time 
 SVCS.                 DD, MWD:  Services 
 SVER.                    9.20:  Sperry Version 
 TDAT.m                 288.00:  Tot Depth Attmp 
 TDDF.                      No:  Trip for DD 
 TDLG.m                 288.00:  Tot Depth Loggd 
 TFF .                      No:  Trip for Fail 
 TQAA.f-kp               19.00:  Torque Abs Avg 
 TQAN.f-kp               18.00:  Torque Abs Min 
 TQAX.f-kp               21.00:  Torque Abs Max 
 TRRT.°/30m               0.45:  Turn Rotating 
 MRT .                    HCIM:  Maximum Recorded Temperature 
 TTMX.degC               88.24:  Max Tool Temp 
 VS01.                90649157:  Virtual Str1 SN 
 VS02.                90652483:  Virtual Str2 SN 
 VS03.                11671987:  Virtual Str3 SN 
 VS04.                90643411:  Virtual Str4 SN 
 VS05.                90652478:  Virtual Str5 SN 
 VS06.                    6111:  Virtual Str6 SN 
 WBMN.klb                 9.50:  WOB Min 
 WITN.        Grigoriy Sarayev:  Customer Rep 
 WITN.          Rufat Huseynov:  Customer Rep 2 
 WOBA.klb                11.00:  WOB Avg 
 WOBX.klb                15.00:  WOB Max 
 YP  .lhf2               28.00:  Yield Point 
~Curve Information Block
#MNEM.UNIT                 API CODE     Curve Description
#---------               -----------    ---------------------------
 TIME.HHMMSS            00 000 000 000:  GT Time & Date
 GTDEPTH.m              00 000 000 000:  GT Depth
 GTPQH.psia             00 000 000 000:  GT HR Quartz Pressure
 GTTQ.degC              00 000 000 000:  GT Quartz Temperature
 GTTN.NONE              00 000 000 000:  GT Test Number
 GTET.sec               00 000 000 000:  GT Elapsed Test Time
 GTTVD.m                00 000 000 000:  GT True Vertical Depth
#Other Information
#
#WARRANTY: Halliburton will use its best efforts to furnish customers with 
#accurate information and interpretations that are part of, and incident to, the services 
#provided.  However, Halliburton cannot and does not warrant the accuracy 
#or correctness of such information and interpretations.  Under no circumstances should any 
#such information or interpretation be relied upon as the sole basis for any drilling, 
#completion, production, or financial decision or any procedure involving any risk to the 
#safety of any drilling venture, drilling rig or its crew or any other third party.  The 
#Customer has full responsibility for all drilling, completion and production operation.  
#Halliburton makes no representations or warranties, either expressed or 
#implied, including, but not limited to, the implied warranties of merchantability or fitness 
#for a particular purpose, with respect to the services rendered.  In no event will 
#Halliburton be liable for failure to obtain any particular results or for 
#any damages, including, but not limited to, indirect, special or consequential damages, 
#resulting from the use of any information or interpretation provided by Halliburton.
#
~A           TIME           GTDEPTH  GTPQH  GTTQ  GTTN  GTET   GTTVD  
# ...
   14:27:49.334.18-Jul-2021 4558.50 6647.56 75.32 4.00 322.12 2745.02
   14:27:49.534.18-Jul-2021 4558.50 6647.56 75.32 4.00 322.32 2745.02
   14:27:49.734.18-Jul-2021 4558.50 6648.76 75.32 4.00 322.52 2745.02
   14:27:49.934.18-Jul-2021 4558.50 6647.62 75.32 4.00 322.72 2745.02
   14:27:50.134.18-Jul-2021 4558.50 6651.61 75.32 4.00 322.92 2745.02
   14:27:50.334.18-Jul-2021 4558.50 6650.66 75.32 4.00 323.12 2745.02
   14:27:50.534.18-Jul-2021 4558.50 6650.66 75.32 4.00 323.32 2745.02
   14:27:50.734.18-Jul-2021 4558.50 6648.74 75.32 4.00 323.52 2745.02
   14:27:50.934.18-Jul-2021 4558.50 6646.86 75.32 4.00 323.72 2745.02
   14:27:51.134.18-Jul-2021 4558.50 6648.27 75.32 4.00 323.92 2745.02
   14:27:51.334.18-Jul-2021 4558.50 6650.50 75.32 4.00 324.12 2745.02
   14:27:51.534.18-Jul-2021 4558.50 6650.50 75.32 4.00 324.32 2745.02
   14:27:51.734.18-Jul-2021 4558.50 6648.26 75.32 4.00 324.52 2745.02
   14:27:51.934.18-Jul-2021 4558.50 6648.15 75.32 4.00 324.72 2745.02
   14:27:52.135.18-Jul-2021 4558.50 6649.25 75.32 4.00 324.92 2745.02
   14:27:52.335.18-Jul-2021 4558.50 6651.10 75.32 4.00 325.12 2745.02
   14:27:52.535.18-Jul-2021 4558.50 6651.10 75.32 4.00 325.32 2745.02
   14:27:52.735.18-Jul-2021 4558.50 6648.71 75.32 4.00 325.52 2745.02
   14:27:52.935.18-Jul-2021 4558.50 6647.95 75.32 4.00 325.72 2745.02
   14:27:53.135.18-Jul-2021 4558.50 6651.91 75.32 4.00 325.92 2745.02
   14:27:53.335.18-Jul-2021 4558.50 6649.00 75.32 4.00 326.12 2745.02
   14:27:53.535.18-Jul-2021 4558.50 6649.00 75.32 4.00 326.32 2745.02
   14:27:53.735.18-Jul-2021 4558.50 6649.34 75.32 4.00 326.52 2745.02
   14:27:53.935.18-Jul-2021 4558.50 6648.53 75.32 4.00 326.72 2745.02
   14:27:54.135.18-Jul-2021 4558.50 6648.56 75.32 4.00 326.92 2745.02
   14:27:54.335.18-Jul-2021 4558.50 6648.74 75.32 4.00 327.12 2745.02
   14:27:54.535.18-Jul-2021 4558.50 6648.74 75.32 4.00 327.32 2745.02
   14:27:54.736.18-Jul-2021 4558.50 6648.25 75.32 4.00 327.52 2745.02
   14:27:54.936.18-Jul-2021 4558.50 6648.39 75.32 4.00 327.72 2745.02
   14:27:55.136.18-Jul-2021 4558.50 6648.04 75.32 4.00 327.92 2745.02
   14:27:55.336.18-Jul-2021 4558.50 6648.33 75.32 4.00 328.12 2745.02
   14:27:55.536.18-Jul-2021 4558.50 6648.33 75.32 4.00 328.32 2745.02
   14:27:55.736.18-Jul-2021 4558.50 6647.12 75.32 4.00 328.52 2745.02
   14:27:55.936.18-Jul-2021 4558.50 6650.57 75.32 4.00 328.72 2745.02
   14:27:56.136.18-Jul-2021 4558.50 6650.19 75.32 4.00 328.92 2745.02
   14:27:56.336.18-Jul-2021 4558.50 6647.75 75.32 4.00 329.12 2745.02
   14:27:56.536.18-Jul-2021 4558.50 6647.75 75.32 4.00 329.32 2745.02
   14:27:56.736.18-Jul-2021 4558.50 6647.90 75.32 4.00 329.52 2745.02
   14:27:56.936.18-Jul-2021 4558.50 6647.04 75.32 4.00 329.72 2745.02
   14:27:57.136.18-Jul-2021 4558.50 6647.41 75.32 4.00 329.92 2745.02
   14:27:57.336.18-Jul-2021 4558.50 6647.56 75.32 4.00 330.12 2745.02
   14:27:57.537.18-Jul-2021 4558.50 6647.56 75.32 4.00 330.32 2745.02
   14:27:57.737.18-Jul-2021 4558.50 6647.47 75.32 4.00 330.52 2745.02
   14:27:57.937.18-Jul-2021 4558.50 6647.50 75.32 4.00 330.72 2745.02
   14:27:58.137.18-Jul-2021 4558.50 6646.80 75.32 4.00 330.92 2745.02
   14:27:58.337.18-Jul-2021 4558.50 6646.76 75.32 4.00 331.12 2745.02
   14:27:58.537.18-Jul-2021 4558.50 6646.76 75.32 4.00 331.32 2745.02
   14:27:58.737.18-Jul-2021 4558.50 6648.05 75.32 4.00 331.52 2745.02
   14:27:58.937.18-Jul-2021 4558.50 6646.72 75.32 4.00 331.72 2745.02
   14:27:59.137.18-Jul-2021 4558.50 6651.07 75.32 4.00 331.92 2745.02
   14:27:59.337.18-Jul-2021 4558.50 6650.28 75.32 4.00 332.12 2745.02
   14:27:59.537.18-Jul-2021 4558.50 6650.28 75.32 4.00 332.32 2745.02
   14:27:59.737.18-Jul-2021 4558.50 6648.54 75.32 4.00 332.52 2745.02
   14:27:59.937.18-Jul-2021 4558.50 6647.40 75.32 4.00 332.72 2745.02
   14:28:00.137.18-Jul-2021 4558.50 6649.50 75.32 4.00 332.92 2745.02
   14:28:00.338.18-Jul-2021 4558.50 6648.80 75.32 4.00 333.12 2745.02
   14:28:00.538.18-Jul-2021 4558.50 6648.80 75.32 4.00 333.32 2745.02
   14:28:00.738.18-Jul-2021 4558.50 6648.22 75.32 4.00 333.52 2745.02
   14:28:00.938.18-Jul-2021 4558.50 6647.00 75.32 4.00 333.72 2745.02
   14:28:01.138.18-Jul-2021 4558.50 6647.12 75.32 4.00 333.92 2745.02
   14:28:01.338.18-Jul-2021 4558.50 6651.57 75.32 4.00 334.12 2745.02
   14:28:01.538.18-Jul-2021 4558.50 6651.57 75.32 4.00 334.32 2745.02
   14:28:01.738.18-Jul-2021 4558.50 6647.64 75.32 4.00 334.52 2745.02
   14:28:01.938.18-Jul-2021 4558.50 6650.89 75.32 4.00 334.72 2745.02
   14:28:02.138.18-Jul-2021 4558.50 6649.97 75.32 4.00 334.92 2745.02
   14:28:02.338.18-Jul-2021 4558.50 6648.12 75.32 4.00 335.12 2745.02
   14:28:02.538.18-Jul-2021 4558.50 6648.12 75.32 4.00 335.32 2745.02
   14:28:02.738.18-Jul-2021 4558.50 6648.13 75.32 4.00 335.52 2745.02
   14:28:02.939.18-Jul-2021 4558.50 6647.66 75.32 4.00 335.72 2745.02
   14:28:03.139.18-Jul-2021 4558.50 6647.87 75.32 4.00 335.92 2745.02
   14:28:03.339.18-Jul-2021 4558.50 6647.59 75.32 4.00 336.12 2745.02
   14:28:03.539.18-Jul-2021 4558.50 6647.59 75.32 4.00 336.32 2745.02
   14:28:03.739.18-Jul-2021 4558.50 6647.58 75.32 4.00 336.52 2745.02
   14:28:03.939.18-Jul-2021 4558.50 6647.99 75.32 4.00 336.72 2745.02
   14:28:04.139.18-Jul-2021 4558.50 6648.22 75.32 4.00 336.92 2745.02
   14:28:04.339.18-Jul-2021 4558.50 6648.26 75.32 4.00 337.12 2745.02
   14:28:04.539.18-Jul-2021 4558.50 6648.26 75.32 4.00 337.32 2745.02
   14:28:04.739.18-Jul-2021 4558.50 6649.37 75.32 4.00 337.52 2745.02
   14:28:04.939.18-Jul-2021 4558.50 6649.35 75.32 4.00 337.72 2745.02
   14:28:05.139.18-Jul-2021 4558.50 6647.60 75.32 4.00 337.92 2745.02
   14:28:05.339.18-Jul-2021 4558.50 6648.58 75.32 4.00 338.12 2745.02
   14:28:05.539.18-Jul-2021 4558.50 6648.58 75.32 4.00 338.32 2745.02
   14:28:05.740.18-Jul-2021 4558.50 6647.37 75.32 4.00 338.52 2745.02
   14:28:05.940.18-Jul-2021 4558.50 6647.40 75.32 4.00 338.72 2745.02
   14:28:06.140.18-Jul-2021 4558.50 6647.49 75.32 4.00 338.92 2745.02
   14:28:06.340.18-Jul-2021 4558.50 6646.74 75.32 4.00 339.12 2745.02
   14:28:06.540.18-Jul-2021 4558.50 6646.74 75.32 4.00 339.32 2745.02
   14:28:06.740.18-Jul-2021 4558.50 6647.37 75.32 4.00 339.53 2745.02
   14:28:06.940.18-Jul-2021 4558.50 6647.48 75.32 4.00 339.73 2745.02
   14:28:07.140.18-Jul-2021 4558.50 6647.19 75.32 4.00 339.93 2745.02
   14:28:07.340.18-Jul-2021 4558.50 6648.62 75.32 4.00 340.13 2745.02
   14:28:07.540.18-Jul-2021 4558.50 6648.62 75.32 4.00 340.33 2745.02
   14:28:07.740.18-Jul-2021 4558.50 6647.40 75.32 4.00 340.53 2745.02
   14:28:07.940.18-Jul-2021 4558.50 6650.36 75.32 4.00 340.73 2745.02
   14:28:08.140.18-Jul-2021 4558.50 6649.87 75.32 4.00 340.93 2745.02
   14:28:08.341.18-Jul-2021 4558.50 6648.23 75.32 4.00 341.13 2745.02
   14:28:08.541.18-Jul-2021 4558.50 6648.23 75.32 4.00 341.33 2745.02
   14:28:08.741.18-Jul-2021 4558.50 6647.58 75.32 4.00 341.53 2745.02
   14:28:08.941.18-Jul-2021 4558.50 6647.79 75.32 4.00 341.73 2745.02
   14:28:09.141.18-Jul-2021 4558.50 6649.08 75.32 4.00 341.93 2745.02
   14:28:09.341.18-Jul-2021 4558.50 6647.11 75.32 4.00 342.13 2745.02
   14:28:09.541.18-Jul-2021 4558.50 6647.11 75.32 4.00 342.33 2745.02
   14:28:09.741.18-Jul-2021 4558.50 6648.09 75.32 4.00 342.53 2745.02
   14:28:09.941.18-Jul-2021 4558.50 6646.61 75.32 4.00 342.73 2745.02
   14:28:10.141.18-Jul-2021 4558.50 6649.72 75.32 4.00 342.93 2745.02
   14:28:10.341.18-Jul-2021 4558.50 6649.24 75.32 4.00 343.13 2745.02
   14:28:10.541.18-Jul-2021 4558.50 6649.24 75.32 4.00 343.33 2745.02
   14:28:10.741.18-Jul-2021 4558.50 6650.62 75.32 4.00 343.53 2745.02
   14:28:10.941.18-Jul-2021 4558.50 6649.47 75.32 4.00 343.73 2745.02
   14:28:11.142.18-Jul-2021 4558.50 6647.89 75.32 4.00 343.93 2745.02
   14:28:11.342.18-Jul-2021 4558.50 6649.19 75.32 4.00 344.13 2745.02
   14:28:11.542.18-Jul-2021 4558.50 6649.19 75.32 4.00 344.33 2745.02
   14:28:11.742.18-Jul-2021 4558.50 6647.56 75.32 4.00 344.53 2745.02
   14:28:11.942.18-Jul-2021 4558.50 6647.74 75.32 4.00 344.73 2745.02
   14:28:12.142.18-Jul-2021 4558.50 6647.59 75.32 4.00 344.93 2745.02
