~Version Information
 VERS.                  2.0:   CWLS log ASCII Standard -VERSION 2.0
 WRAP.                   NO:   One line per depth step
~Well Information Block
#MNEM.UNIT     VALUE/NAME     DESCRIPTION
#---------     -----------    ---------------------------
 STRT.S             05:02:49 19-Jul-21: START TIME 05:02:49 19-Jul-21
 STOP.S             05:09:40 19-Jul-21: STOP TIME  05:09:40 19-Jul-21
 STEP.S                   0.00: STEP TIME
 NULL.                 -999.25: NULL VALUE
 MDS .        Operator Entered:  MAG DATA SOURCE
 PDAT.          Mean Sea Level:  PERMANENT DATUM
 UNIT.                     N/A:  LOGGING EQUIPMENT ID
 DCON.         Sperry Drilling:  DIRECTNL CONTR
 DOE .                     N/A:  DOE NUMBER
 RIG .              West Azeri:  RIG NAME
 JOBN.        AZ-XX-0906997913:  JOB TICKET NUMB
 WELL.                     C41:  WELL NAME
 MWDS.                    Baku:  MWD SHOP
 SRVC.          Turan Drilling:  CONTRACTOR
 FLD .                     ACG:  FIELD NAME
 CTRY.              Azerbaijan:  COUNTRY NAME
 PROV.                    Baku:  PROVINCE
 STAT.                    Baku:  STATE NAME
 REGN.                   EESSA:  REGION
 BASE.              Azerbaijan:  LOGGING EQUIPMENT BASE LOCATION
 UWI .                     N/A:  UNIQUE WELL IDENTIFIER
 API .                     N/A:  API NUMBER
 COMP.     BP Exploration (Caspian Sea) Ltd.:  COMPANY
 WTYP.                Deviated:  WELL TYPE
 SON .        AZ-XX-0906997913:  JOB NUMBER
 FTOP.          Formation Tops:  FORM TOPS DESC
 ILTD.               Lithology:  INTERP LTH DESC
 SVYD.                  Survey:  SURVEY DESC
 DMOD.             Drill Model:  DRILL MOD DESC
 HPTY.       Minimum Curvature:  HOLE POS TYPE
 NREF.                    Grid:  NORTH REFERENCE
 SPUD.               16-May-21:  SPUD DATE
 DATE.      21.11.28 17-May-21:  END TIME
 STIM.      21.11.28 17-May-21:  START TIME
 DMF .             Drill Floor:  DRILL MEAS FROM
 DFST.                        :  DIST FSL TEXT
 DFWT.                        :  DIST FWL TEXT
 CNTY.                        :  COUNTY
 LOC .                        :  LOCATION
 LMF .             Drill Floor:  LOG MEASURED FROM
 AGAP.m                  43.42:  AIR GAP
 VSNS.m                  -2.16:  VERT SEC N/S
 VSEW.m                  -6.24:  VERT SEC E/W
 APD .m                  43.42:  DEPTH ABOVE PD
 WDMS.m                 118.27:  WD ELEV
 EGL .m                   0.00:  GROUND ELEVATION
 EPD .m                   0.00:  ELEVATION
 AZTC.deg                 6.29:  AZM TOTAL CORR
 GRDC.deg                 0.18:  GRID CORRECTION
 MDEC.deg                 6.47:  MAGNETIC DECL
 MDIP.deg                59.54:  MAGNETIC DIP
 MFLD.nT              50337.00:  MAGNETIC FIELD
 GVFD.g                   1.00:  GRAVITY FIELD
 VSDR.deg               226.99:  VERT SEC DIRECT
 TDD .m                   0.00:  TOTAL DEPTH (DRILLER)
 SDEP.m                 448.00:  START DEPTH
 DFSL.m                   0.00:  DISTANCE FSL
 DFWL.m                   0.00:  DISTANCE FWL
 UTMY.m             4435799.96:  UTM Y
 UTMX.m              526265.35:  UTM X
 WHEW.m                  -6.24:  WELL HEAD E/W
 WHNS.m                  -2.16:  WELL HEAD N/S
 LONG.deg                51.31:  LONGITUDE
 LATI.deg                40.06:  LATITUDE
 TVDS.m                  43.42:  TVDSS CORRECTN
 EKB .m                  43.42:  KB ELEVATION
 EDF .m                  43.42:  DF ELEVATION
 TDL .m                 288.00:  TOTAL DEPTH (LOGGER)
 MAGU.                 1851863:  MAGUTM CHECKSUM
 VSC .                       0:  VS TO CLOSURE
~Parameter Information Block
#MNEM.UNIT       Value        Description
#---------     -----------    ---------------------------
 AV  .mps                 0.40:  Ann Velocity 
 AVMX.mps                 0.63:  Max Ann Veloc 
 AZIF.deg               158.76:  Azm, Final 
 BHAT.        Rotary Steerable:  BHA Type 
 BROT.°/30m               0.68:  Build Rotating 
 BS  .in                  8.50:  Bit Size 
 BSZ .in                  8.50:  Bit Size 
 BTPL.psig              712.00:  Bit Press Loss 
 CABU.                      No:  Customer Abuse 
 COMM.                     'i:  Run Comments 1 
 TCS .hr                 90.66:  Time Ciculation Ended 
 CV  .mps                 2.02:  Crit Velocity 
 CVMX.mps                 2.14:  Max Crit Veloc 
 DD1 .            Aziz Aliyevu:  Direct Drillr 1 
 DD2 .             Samir Abbas:  Direct Drillr 2 
 DD3 .           Teymur Aliyev:  Direct Drillr 3 
 DDSV.                 iCruise:  DD Service 
 DEFF.%                  85.10:  % Det Eff 
 DLRX.°/30m               1.05:  Dogleg Rot Max 
 DLSO.°/30m               1.01:  Dogleg Oriented 
 DLSX.°/30m               1.05:  Dogleg Str Max 
 DRET.      07.45.00 18-Jul-21:  Drill End Time 
 DRST.      15.00.00 16-Jul-21:  Drill Start Tim 
 DTIM.hr                 23.46:  Time Drilling 
 EDEP.m                4603.00:  End Depth 
 ENG1.       Seymur Iskandarov:  Engineer 1 
 ENG2.         Yevgeniy Ulikov:  Engineer 2 
 ENG3.         Bahruz Mehdiyev:  Engineer 3 
 ENG4.         Elchin Mammadov:  Engineer 4 
 ETIM.      14.00.00 23-Jul-21:  End Time 
 FLOI.gpm               500.00:  Flow In 
 FLON.gpm               450.00:  Flow In Min 
 FLOS.cptm                0.00:  Fluid Loss 
 FLOX.gpm               560.00:  Flow In Max 
 DFT .        Mineral Oil Base:  Mud Type 
 FTRO.       Formation Presure:  FTWD Run Obj 
 HFLO.                      No:  High Flow 
 HPRE.                      No:  High Pressure 
 HTEM.                      No:  High Temp 
 HYDO.m                   1.80:  Hydro Offset 
 IFIN.deg                40.22:  Inc, Final 
 IMAX.deg                40.54:  Inc Max 
 IMIN.deg                39.44:  Inc Min 
 IMND.m                4361.17:  Inc Min Depth 
 IMXD.m                4417.92:  Inc Max Depth 
 JARR.                      No:  Jarring 
 LETM.      07.45.00 18-Jul-21:  Log End Time 
 LOST.hr                    16:  Lost Rig Time 
 LSTM.      15.00.00 16-Jul-21:  Log Start Time 
 MDCL.ppm             36500.00:  Mud Chlorides 
 MDES.     Inversion Oil/Synthetic:  Mud Desc 
 DFD .sg                  1.42:  Mud Density 
 MDMN.sg                  1.42:  Dens Mud Min 
 MDMX.sg                  1.43:  Dens Mud Max 
 MOIL.                      56:  Run Mud Oil % 
 MOWR.                   71:29:  Run Mud OWR 
 MSND.                     0.5:  Run Mud Sand % 
 MSOL.                      21:  Run Mud Solids% 
 DFV .spqt               78.00:  Mud Viscosity 
 MWOD.in                  6.75:  MWD Tool OD 
 MWSI.                     Yes:  Serv Intrp, MWD 
 OTIM.hr                200.73:  Time Operating 
 PCON.           Look Like New:  Pad Condition 
 PMAX.psia            11069.93:  Press Op, Max 
 PV  .cP                 32.00:  Mud PV 
 RUN .                     700:  Run Number 
 ROPA.m/hr               10.00:  ROP Avg 
 ROPN.m/hr                9.00:  ROP Min 
 ROPX.m/hr               16.00:  ROP Max 
 RPMA.rpm               116.00:  RPM Surface Avg 
 RPMN.rpm                80.00:  RPM Surface Min 
 RPMX.rpm               120.00:  RPM Surface Max 
 RRUN.                    L605:  Rig Run Number 
 RTIM.hr                 45.00:  Time Reaming 
 SAZI.deg               159.86:  Azm, Start 
 SDEP.m                4315.00:  Start Depth 
 SIDD.                      No:  Serv Intrp, DD 
 SINC.deg                39.86:  Inc, Start 
 SPPA.psig             3300.00:  SPP Avg 
 SPPN.psig             3040.00:  SPP Min 
 SPPX.psig             3645.00:  SPP Max 
 STIM.      01.00.00 15-Jul-21:  Start Time 
 SVCS.                 DD, MWD:  Services 
 SVER.                    9.20:  Sperry Version 
 TDAT.m                 288.00:  Tot Depth Attmp 
 TDDF.                      No:  Trip for DD 
 TDLG.m                 288.00:  Tot Depth Loggd 
 TFF .                      No:  Trip for Fail 
 TQAA.f-kp               19.00:  Torque Abs Avg 
 TQAN.f-kp               18.00:  Torque Abs Min 
 TQAX.f-kp               21.00:  Torque Abs Max 
 TRRT.°/30m               0.45:  Turn Rotating 
 MRT .                    HCIM:  Maximum Recorded Temperature 
 TTMX.degC               88.24:  Max Tool Temp 
 VS01.                90649157:  Virtual Str1 SN 
 VS02.                90652483:  Virtual Str2 SN 
 VS03.                11671987:  Virtual Str3 SN 
 VS04.                90643411:  Virtual Str4 SN 
 VS05.                90652478:  Virtual Str5 SN 
 VS06.                    6111:  Virtual Str6 SN 
 WBMN.klb                 9.50:  WOB Min 
 WITN.        Grigoriy Sarayev:  Customer Rep 
 WITN.          Rufat Huseynov:  Customer Rep 2 
 WOBA.klb                11.00:  WOB Avg 
 WOBX.klb                15.00:  WOB Max 
 YP  .lhf2               28.00:  Yield Point 
~Curve Information Block
#MNEM.UNIT                 API CODE     Curve Description
#---------               -----------    ---------------------------
 TIME.HHMMSS            00 000 000 000:  GT Time & Date
 GTDEPTH.m              00 000 000 000:  GT Depth
 GTPQH.psia             00 000 000 000:  GT HR Quartz Pressure
 GTTQ.degC              00 000 000 000:  GT Quartz Temperature
 GTTN.NONE              00 000 000 000:  GT Test Number
 GTET.sec               00 000 000 000:  GT Elapsed Test Time
 GTTVD.m                00 000 000 000:  GT True Vertical Depth
#Other Information
#
#WARRANTY: Halliburton will use its best efforts to furnish customers with 
#accurate information and interpretations that are part of, and incident to, the services 
#provided.  However, Halliburton cannot and does not warrant the accuracy 
#or correctness of such information and interpretations.  Under no circumstances should any 
#such information or interpretation be relied upon as the sole basis for any drilling, 
#completion, production, or financial decision or any procedure involving any risk to the 
#safety of any drilling venture, drilling rig or its crew or any other third party.  The 
#Customer has full responsibility for all drilling, completion and production operation.  
#Halliburton makes no representations or warranties, either expressed or 
#implied, including, but not limited to, the implied warranties of merchantability or fitness 
#for a particular purpose, with respect to the services rendered.  In no event will 
#Halliburton be liable for failure to obtain any particular results or for 
#any damages, including, but not limited to, indirect, special or consequential damages, 
#resulting from the use of any information or interpretation provided by Halliburton.
#
~A           TIME           GTDEPTH  GTPQH  GTTQ  GTTN   GTET   GTTVD  
# ...
   05:05:50.531.19-Jul-2021 4356.00 4136.56 68.81 12.00 180.87 2590.09
   05:05:50.731.19-Jul-2021 4356.00 4138.08 68.81 12.00 181.07 2590.09
   05:05:50.931.19-Jul-2021 4356.00 4138.08 68.81 12.00 181.27 2590.09
   05:05:51.131.19-Jul-2021 4356.00 4140.30 68.82 12.00 181.47 2590.09
   05:05:51.332.19-Jul-2021 4356.00 4141.48 68.81 12.00 181.67 2590.09
   05:05:51.532.19-Jul-2021 4356.00 4142.56 68.82 12.00 181.87 2590.09
   05:05:51.732.19-Jul-2021 4356.00 4143.61 68.82 12.00 182.07 2590.09
   05:05:51.932.19-Jul-2021 4356.00 4143.61 68.82 12.00 182.27 2590.09
   05:05:52.132.19-Jul-2021 4356.00 4145.32 68.82 12.00 182.47 2590.09
   05:05:52.332.19-Jul-2021 4356.00 4146.31 68.82 12.00 182.67 2590.09
   05:05:52.532.19-Jul-2021 4356.00 4147.20 68.82 12.00 182.87 2590.09
   05:05:52.732.19-Jul-2021 4356.00 4148.01 68.82 12.00 183.07 2590.09
   05:05:52.932.19-Jul-2021 4356.00 4148.01 68.82 12.00 183.27 2590.09
   05:05:53.132.19-Jul-2021 4356.00 4145.33 68.82 12.00 183.47 2590.09
   05:05:53.332.19-Jul-2021 4356.00 4145.99 68.82 12.00 183.67 2590.09
   05:05:53.532.19-Jul-2021 4356.00 4146.78 68.82 12.00 183.87 2590.09
   05:05:53.732.19-Jul-2021 4356.00 4147.14 68.82 12.00 184.07 2590.09
   05:05:53.932.19-Jul-2021 4356.00 4147.14 68.82 12.00 184.27 2590.09
   05:05:54.133.19-Jul-2021 4356.00 4148.46 68.82 12.00 184.47 2590.09
   05:05:54.333.19-Jul-2021 4356.00 4149.16 68.82 12.00 184.67 2590.09
   05:05:54.533.19-Jul-2021 4356.00 4149.78 68.82 12.00 184.87 2590.09
   05:05:54.733.19-Jul-2021 4356.00 4150.43 68.82 12.00 185.07 2590.09
   05:05:54.933.19-Jul-2021 4356.00 4150.43 68.82 12.00 185.27 2590.09
   05:05:55.133.19-Jul-2021 4356.00 4151.39 68.82 12.00 185.47 2590.09
   05:05:55.333.19-Jul-2021 4356.00 4151.90 68.82 12.00 185.67 2590.09
   05:05:55.533.19-Jul-2021 4356.00 4150.55 68.82 12.00 185.87 2590.09
   05:05:55.733.19-Jul-2021 4356.00 4148.68 68.82 12.00 186.07 2590.09
   05:05:55.933.19-Jul-2021 4356.00 4148.68 68.82 12.00 186.27 2590.09
   05:05:56.133.19-Jul-2021 4356.00 4146.87 68.82 12.00 186.47 2590.09
   05:05:56.333.19-Jul-2021 4356.00 4145.75 68.82 12.00 186.67 2590.09
   05:05:56.533.19-Jul-2021 4356.00 4146.51 68.82 12.00 186.87 2590.09
   05:05:56.734.19-Jul-2021 4356.00 4145.30 68.82 12.00 187.07 2590.09
   05:05:56.934.19-Jul-2021 4356.00 4145.30 68.82 12.00 187.27 2590.09
   05:05:57.134.19-Jul-2021 4356.00 4145.36 68.82 12.00 187.47 2590.09
   05:05:57.334.19-Jul-2021 4356.00 4145.45 68.82 12.00 187.67 2590.09
   05:05:57.534.19-Jul-2021 4356.00 4144.56 68.82 12.00 187.87 2590.09
   05:05:57.734.19-Jul-2021 4356.00 4144.88 68.82 12.00 188.07 2590.09
   05:05:57.934.19-Jul-2021 4356.00 4144.88 68.82 12.00 188.27 2590.09
   05:05:58.134.19-Jul-2021 4356.00 4146.80 68.82 12.00 188.47 2590.09
   05:05:58.334.19-Jul-2021 4356.00 4144.96 68.82 12.00 188.67 2590.09
   05:05:58.534.19-Jul-2021 4356.00 4143.80 68.82 12.00 188.87 2590.09
   05:05:58.734.19-Jul-2021 4356.00 4144.72 68.82 12.00 189.07 2590.09
   05:05:58.934.19-Jul-2021 4356.00 4144.72 68.82 12.00 189.27 2590.09
   05:05:59.134.19-Jul-2021 4356.00 4146.79 68.82 12.00 189.47 2590.09
   05:05:59.334.19-Jul-2021 4356.00 4148.02 68.82 12.00 189.67 2590.09
   05:05:59.535.19-Jul-2021 4356.00 4149.05 68.82 12.00 189.87 2590.09
   05:05:59.735.19-Jul-2021 4356.00 4150.16 68.82 12.00 190.07 2590.09
   05:05:59.935.19-Jul-2021 4356.00 4150.16 68.82 12.00 190.27 2590.09
   05:06:00.135.19-Jul-2021 4356.00 4152.04 68.82 12.00 190.47 2590.09
   05:06:00.335.19-Jul-2021 4356.00 4152.78 68.82 12.00 190.67 2590.09
   05:06:00.535.19-Jul-2021 4356.00 4153.61 68.82 12.00 190.87 2590.09
   05:06:00.735.19-Jul-2021 4356.00 4154.19 68.82 12.00 191.07 2590.09
   05:06:00.935.19-Jul-2021 4356.00 4154.19 68.82 12.00 191.27 2590.09
   05:06:01.135.19-Jul-2021 4356.00 4152.83 68.82 12.00 191.47 2590.09
   05:06:01.335.19-Jul-2021 4356.00 4152.25 68.82 12.00 191.67 2590.09
   05:06:01.535.19-Jul-2021 4356.00 4152.95 68.82 12.00 191.87 2590.09
   05:06:01.735.19-Jul-2021 4356.00 4153.24 68.82 12.00 192.07 2590.09
   05:06:01.935.19-Jul-2021 4356.00 4153.24 68.82 12.00 192.27 2590.09
   05:06:02.136.19-Jul-2021 4356.00 4154.44 68.82 12.00 192.47 2590.09
   05:06:02.336.19-Jul-2021 4356.00 4155.02 68.82 12.00 192.67 2590.09
   05:06:02.536.19-Jul-2021 4356.00 4155.65 68.82 12.00 192.87 2590.09
   05:06:02.736.19-Jul-2021 4356.00 4156.12 68.82 12.00 193.07 2590.09
   05:06:02.936.19-Jul-2021 4356.00 4156.12 68.82 12.00 193.27 2590.09
   05:06:03.136.19-Jul-2021 4356.00 4156.66 68.82 12.00 193.47 2590.09
   05:06:03.336.19-Jul-2021 4356.00 4157.52 68.82 12.00 193.67 2590.09
   05:06:03.536.19-Jul-2021 4356.00 4157.00 68.82 12.00 193.87 2590.09
   05:06:03.736.19-Jul-2021 4356.00 4156.35 68.82 12.00 194.07 2590.09
   05:06:03.936.19-Jul-2021 4356.00 4156.35 68.82 12.00 194.27 2590.09
   05:06:04.136.19-Jul-2021 4356.00 4155.37 68.82 12.00 194.47 2590.09
   05:06:04.336.19-Jul-2021 4356.00 4153.63 68.82 12.00 194.67 2590.09
   05:06:04.536.19-Jul-2021 4356.00 4153.40 68.82 12.00 194.87 2590.09
   05:06:04.736.19-Jul-2021 4356.00 4154.02 68.82 12.00 195.07 2590.09
   05:06:04.937.19-Jul-2021 4356.00 4154.02 68.82 12.00 195.27 2590.09
   05:06:05.137.19-Jul-2021 4356.00 4151.34 68.82 12.00 195.47 2590.09
   05:06:05.337.19-Jul-2021 4356.00 4152.05 68.82 12.00 195.67 2590.09
   05:06:05.537.19-Jul-2021 4356.00 4151.98 68.82 12.00 195.87 2590.09
   05:06:05.737.19-Jul-2021 4356.00 4151.58 68.82 12.00 196.07 2590.09
   05:06:05.937.19-Jul-2021 4356.00 4151.58 68.82 12.00 196.27 2590.09
   05:06:06.137.19-Jul-2021 4356.00 4152.82 68.82 12.00 196.47 2590.09
   05:06:06.337.19-Jul-2021 4356.00 4152.09 68.82 12.00 196.67 2590.09
   05:06:06.537.19-Jul-2021 4356.00 4151.08 68.82 12.00 196.87 2590.09
   05:06:06.737.19-Jul-2021 4356.00 4151.95 68.82 12.00 197.07 2590.09
   05:06:06.937.19-Jul-2021 4356.00 4151.95 68.82 12.00 197.27 2590.09
   05:06:07.137.19-Jul-2021 4356.00 4153.86 68.82 12.00 197.47 2590.09
   05:06:07.337.19-Jul-2021 4356.00 4154.83 68.82 12.00 197.67 2590.09
   05:06:07.538.19-Jul-2021 4356.00 4155.71 68.82 12.00 197.87 2590.09
   05:06:07.738.19-Jul-2021 4356.00 4156.52 68.82 12.00 198.07 2590.09
   05:06:07.938.19-Jul-2021 4356.00 4156.52 68.82 12.00 198.27 2590.09
   05:06:08.138.19-Jul-2021 4356.00 4159.99 68.82 12.00 198.47 2590.09
   05:06:08.338.19-Jul-2021 4356.00 4161.45 68.82 12.00 198.67 2590.09
   05:06:08.538.19-Jul-2021 4356.00 4162.01 68.82 12.00 198.87 2590.09
   05:06:08.738.19-Jul-2021 4356.00 4162.45 68.82 12.00 199.07 2590.09
   05:06:08.938.19-Jul-2021 4356.00 4162.45 68.82 12.00 199.27 2590.09
   05:06:09.138.19-Jul-2021 4356.00 4160.83 68.82 12.00 199.47 2590.09
   05:06:09.338.19-Jul-2021 4356.00 4159.92 68.82 12.00 199.67 2590.09
   05:06:09.538.19-Jul-2021 4356.00 4160.08 68.82 12.00 199.87 2590.09
   05:06:09.738.19-Jul-2021 4356.00 4160.65 68.82 12.00 200.07 2590.09
   05:06:09.938.19-Jul-2021 4356.00 4160.65 68.82 12.00 200.27 2590.09
   05:06:10.138.19-Jul-2021 4356.00 4161.22 68.82 12.00 200.47 2590.09
   05:06:10.339.19-Jul-2021 4356.00 4161.51 68.82 12.00 200.67 2590.09
   05:06:10.539.19-Jul-2021 4356.00 4161.85 68.82 12.00 200.87 2590.09
   05:06:10.739.19-Jul-2021 4356.00 4162.08 68.82 12.00 201.07 2590.09
   05:06:10.939.19-Jul-2021 4356.00 4162.08 68.82 12.00 201.27 2590.09
   05:06:11.139.19-Jul-2021 4356.00 4162.76 68.82 12.00 201.47 2590.09
   05:06:11.339.19-Jul-2021 4356.00 4162.98 68.82 12.00 201.67 2590.09
   05:06:11.539.19-Jul-2021 4356.00 4163.14 68.82 12.00 201.87 2590.09
   05:06:11.739.19-Jul-2021 4356.00 4161.31 68.82 12.00 202.07 2590.09
   05:06:11.939.19-Jul-2021 4356.00 4161.31 68.82 12.00 202.27 2590.09
   05:06:12.139.19-Jul-2021 4356.00 4159.93 68.82 12.00 202.47 2590.09
   05:06:12.339.19-Jul-2021 4356.00 4158.58 68.82 12.00 202.67 2590.09
   05:06:12.539.19-Jul-2021 4356.00 4156.93 68.82 12.00 202.87 2590.09
   05:06:12.739.19-Jul-2021 4356.00 4157.75 68.82 12.00 203.07 2590.09
   05:06:12.939.19-Jul-2021 4356.00 4157.75 68.82 12.00 203.27 2590.09
