~Version Information
 VERS.                  2.0:   CWLS log ASCII Standard -VERSION 2.0
 WRAP.                   NO:   One line per depth step
~Well Information Block
#MNEM.UNIT     VALUE/NAME     DESCRIPTION
#---------     -----------    ---------------------------
 STRT.S             07:16:19 19-Jul-21: START TIME 07:16:19 19-Jul-21
 STOP.S             07:23:16 19-Jul-21: STOP TIME  07:23:16 19-Jul-21
 STEP.S                   0.00: STEP TIME
 NULL.                 -999.25: NULL VALUE
 MDS .        Operator Entered:  MAG DATA SOURCE
 PDAT.          Mean Sea Level:  PERMANENT DATUM
 UNIT.                     N/A:  LOGGING EQUIPMENT ID
 DCON.         Sperry Drilling:  DIRECTNL CONTR
 DOE .                     N/A:  DOE NUMBER
 RIG .              West Azeri:  RIG NAME
 JOBN.        AZ-XX-0906997913:  JOB TICKET NUMB
 WELL.                     C41:  WELL NAME
 MWDS.                    Baku:  MWD SHOP
 SRVC.          Turan Drilling:  CONTRACTOR
 FLD .                     ACG:  FIELD NAME
 CTRY.              Azerbaijan:  COUNTRY NAME
 PROV.                    Baku:  PROVINCE
 STAT.                    Baku:  STATE NAME
 REGN.                   EESSA:  REGION
 BASE.              Azerbaijan:  LOGGING EQUIPMENT BASE LOCATION
 UWI .                     N/A:  UNIQUE WELL IDENTIFIER
 API .                     N/A:  API NUMBER
 COMP.     BP Exploration (Caspian Sea) Ltd.:  COMPANY
 WTYP.                Deviated:  WELL TYPE
 SON .        AZ-XX-0906997913:  JOB NUMBER
 FTOP.          Formation Tops:  FORM TOPS DESC
 ILTD.               Lithology:  INTERP LTH DESC
 SVYD.                  Survey:  SURVEY DESC
 DMOD.             Drill Model:  DRILL MOD DESC
 HPTY.       Minimum Curvature:  HOLE POS TYPE
 NREF.                    Grid:  NORTH REFERENCE
 SPUD.               16-May-21:  SPUD DATE
 DATE.      21.11.28 17-May-21:  END TIME
 STIM.      21.11.28 17-May-21:  START TIME
 DMF .             Drill Floor:  DRILL MEAS FROM
 DFST.                        :  DIST FSL TEXT
 DFWT.                        :  DIST FWL TEXT
 CNTY.                        :  COUNTY
 LOC .                        :  LOCATION
 LMF .             Drill Floor:  LOG MEASURED FROM
 AGAP.m                  43.42:  AIR GAP
 VSNS.m                  -2.16:  VERT SEC N/S
 VSEW.m                  -6.24:  VERT SEC E/W
 APD .m                  43.42:  DEPTH ABOVE PD
 WDMS.m                 118.27:  WD ELEV
 EGL .m                   0.00:  GROUND ELEVATION
 EPD .m                   0.00:  ELEVATION
 AZTC.deg                 6.29:  AZM TOTAL CORR
 GRDC.deg                 0.18:  GRID CORRECTION
 MDEC.deg                 6.47:  MAGNETIC DECL
 MDIP.deg                59.54:  MAGNETIC DIP
 MFLD.nT              50337.00:  MAGNETIC FIELD
 GVFD.g                   1.00:  GRAVITY FIELD
 VSDR.deg               226.99:  VERT SEC DIRECT
 TDD .m                   0.00:  TOTAL DEPTH (DRILLER)
 SDEP.m                 448.00:  START DEPTH
 DFSL.m                   0.00:  DISTANCE FSL
 DFWL.m                   0.00:  DISTANCE FWL
 UTMY.m             4435799.96:  UTM Y
 UTMX.m              526265.35:  UTM X
 WHEW.m                  -6.24:  WELL HEAD E/W
 WHNS.m                  -2.16:  WELL HEAD N/S
 LONG.deg                51.31:  LONGITUDE
 LATI.deg                40.06:  LATITUDE
 TVDS.m                  43.42:  TVDSS CORRECTN
 EKB .m                  43.42:  KB ELEVATION
 EDF .m                  43.42:  DF ELEVATION
 TDL .m                 288.00:  TOTAL DEPTH (LOGGER)
 MAGU.                 1851863:  MAGUTM CHECKSUM
 VSC .                       0:  VS TO CLOSURE
~Parameter Information Block
#MNEM.UNIT       Value        Description
#---------     -----------    ---------------------------
 AV  .mps                 0.40:  Ann Velocity 
 AVMX.mps                 0.63:  Max Ann Veloc 
 AZIF.deg               158.76:  Azm, Final 
 BHAT.        Rotary Steerable:  BHA Type 
 BROT.°/30m               0.68:  Build Rotating 
 BS  .in                  8.50:  Bit Size 
 BSZ .in                  8.50:  Bit Size 
 BTPL.psig              712.00:  Bit Press Loss 
 CABU.                      No:  Customer Abuse 
 COMM.                     ôK:  Run Comments 1 
 TCS .hr                 90.66:  Time Ciculation Ended 
 CV  .mps                 2.02:  Crit Velocity 
 CVMX.mps                 2.14:  Max Crit Veloc 
 DD1 .            Aziz Aliyevu:  Direct Drillr 1 
 DD2 .             Samir Abbas:  Direct Drillr 2 
 DD3 .           Teymur Aliyev:  Direct Drillr 3 
 DDSV.                 iCruise:  DD Service 
 DEFF.%                  85.10:  % Det Eff 
 DLRX.°/30m               1.05:  Dogleg Rot Max 
 DLSO.°/30m               1.01:  Dogleg Oriented 
 DLSX.°/30m               1.05:  Dogleg Str Max 
 DRET.      07.45.00 18-Jul-21:  Drill End Time 
 DRST.      15.00.00 16-Jul-21:  Drill Start Tim 
 DTIM.hr                 23.46:  Time Drilling 
 EDEP.m                4603.00:  End Depth 
 ENG1.       Seymur Iskandarov:  Engineer 1 
 ENG2.         Yevgeniy Ulikov:  Engineer 2 
 ENG3.         Bahruz Mehdiyev:  Engineer 3 
 ENG4.         Elchin Mammadov:  Engineer 4 
 ETIM.      14.00.00 23-Jul-21:  End Time 
 FLOI.gpm               500.00:  Flow In 
 FLON.gpm               450.00:  Flow In Min 
 FLOS.cptm                0.00:  Fluid Loss 
 FLOX.gpm               560.00:  Flow In Max 
 DFT .        Mineral Oil Base:  Mud Type 
 FTRO.       Formation Presure:  FTWD Run Obj 
 HFLO.                      No:  High Flow 
 HPRE.                      No:  High Pressure 
 HTEM.                      No:  High Temp 
 HYDO.m                   1.80:  Hydro Offset 
 IFIN.deg                40.22:  Inc, Final 
 IMAX.deg                40.54:  Inc Max 
 IMIN.deg                39.44:  Inc Min 
 IMND.m                4361.17:  Inc Min Depth 
 IMXD.m                4417.92:  Inc Max Depth 
 JARR.                      No:  Jarring 
 LETM.      07.45.00 18-Jul-21:  Log End Time 
 LOST.hr                    16:  Lost Rig Time 
 LSTM.      15.00.00 16-Jul-21:  Log Start Time 
 MDCL.ppm             36500.00:  Mud Chlorides 
 MDES.     Inversion Oil/Synthetic:  Mud Desc 
 DFD .sg                  1.42:  Mud Density 
 MDMN.sg                  1.42:  Dens Mud Min 
 MDMX.sg                  1.43:  Dens Mud Max 
 MOIL.                      56:  Run Mud Oil % 
 MOWR.                   71:29:  Run Mud OWR 
 MSND.                     0.5:  Run Mud Sand % 
 MSOL.                      21:  Run Mud Solids% 
 DFV .spqt               78.00:  Mud Viscosity 
 MWOD.in                  6.75:  MWD Tool OD 
 MWSI.                     Yes:  Serv Intrp, MWD 
 OTIM.hr                200.73:  Time Operating 
 PCON.           Look Like New:  Pad Condition 
 PMAX.psia            11069.93:  Press Op, Max 
 PV  .cP                 32.00:  Mud PV 
 RUN .                     700:  Run Number 
 ROPA.m/hr               10.00:  ROP Avg 
 ROPN.m/hr                9.00:  ROP Min 
 ROPX.m/hr               16.00:  ROP Max 
 RPMA.rpm               116.00:  RPM Surface Avg 
 RPMN.rpm                80.00:  RPM Surface Min 
 RPMX.rpm               120.00:  RPM Surface Max 
 RRUN.                    L605:  Rig Run Number 
 RTIM.hr                 45.00:  Time Reaming 
 SAZI.deg               159.86:  Azm, Start 
 SDEP.m                4315.00:  Start Depth 
 SIDD.                      No:  Serv Intrp, DD 
 SINC.deg                39.86:  Inc, Start 
 SPPA.psig             3300.00:  SPP Avg 
 SPPN.psig             3040.00:  SPP Min 
 SPPX.psig             3645.00:  SPP Max 
 STIM.      01.00.00 15-Jul-21:  Start Time 
 SVCS.                 DD, MWD:  Services 
 SVER.                    9.20:  Sperry Version 
 TDAT.m                 288.00:  Tot Depth Attmp 
 TDDF.                      No:  Trip for DD 
 TDLG.m                 288.00:  Tot Depth Loggd 
 TFF .                      No:  Trip for Fail 
 TQAA.f-kp               19.00:  Torque Abs Avg 
 TQAN.f-kp               18.00:  Torque Abs Min 
 TQAX.f-kp               21.00:  Torque Abs Max 
 TRRT.°/30m               0.45:  Turn Rotating 
 MRT .                    HCIM:  Maximum Recorded Temperature 
 TTMX.degC               88.24:  Max Tool Temp 
 VS01.                90649157:  Virtual Str1 SN 
 VS02.                90652483:  Virtual Str2 SN 
 VS03.                11671987:  Virtual Str3 SN 
 VS04.                90643411:  Virtual Str4 SN 
 VS05.                90652478:  Virtual Str5 SN 
 VS06.                    6111:  Virtual Str6 SN 
 WBMN.klb                 9.50:  WOB Min 
 WITN.        Grigoriy Sarayev:  Customer Rep 
 WITN.          Rufat Huseynov:  Customer Rep 2 
 WOBA.klb                11.00:  WOB Avg 
 WOBX.klb                15.00:  WOB Max 
 YP  .lhf2               28.00:  Yield Point 
~Curve Information Block
#MNEM.UNIT                 API CODE     Curve Description
#---------               -----------    ---------------------------
 TIME.HHMMSS            00 000 000 000:  GT Time & Date
 GTDEPTH.m              00 000 000 000:  GT Depth
 GTPQH.psia             00 000 000 000:  GT HR Quartz Pressure
 GTTQ.degC              00 000 000 000:  GT Quartz Temperature
 GTTN.NONE              00 000 000 000:  GT Test Number
 GTET.sec               00 000 000 000:  GT Elapsed Test Time
 GTTVD.m                00 000 000 000:  GT True Vertical Depth
#Other Information
#
#WARRANTY: Halliburton will use its best efforts to furnish customers with 
#accurate information and interpretations that are part of, and incident to, the services 
#provided.  However, Halliburton cannot and does not warrant the accuracy 
#or correctness of such information and interpretations.  Under no circumstances should any 
#such information or interpretation be relied upon as the sole basis for any drilling, 
#completion, production, or financial decision or any procedure involving any risk to the 
#safety of any drilling venture, drilling rig or its crew or any other third party.  The 
#Customer has full responsibility for all drilling, completion and production operation.  
#Halliburton makes no representations or warranties, either expressed or 
#implied, including, but not limited to, the implied warranties of merchantability or fitness 
#for a particular purpose, with respect to the services rendered.  In no event will 
#Halliburton be liable for failure to obtain any particular results or for 
#any damages, including, but not limited to, indirect, special or consequential damages, 
#resulting from the use of any information or interpretation provided by Halliburton.
#
~A           TIME           GTDEPTH  GTPQH  GTTQ  GTTN   GTET   GTTVD  
# ...
   07:22:21.347.19-Jul-2021 4406.50 6396.04 69.79 15.00 361.73 2628.90
   07:22:21.547.19-Jul-2021 4406.50 6413.51 69.79 15.00 361.93 2628.90
   07:22:21.747.19-Jul-2021 4406.50 6400.87 69.80 15.00 362.13 2628.90
   07:22:21.947.19-Jul-2021 4406.50 6400.87 69.80 15.00 362.33 2628.90
   07:22:22.147.19-Jul-2021 4406.50 6401.27 69.80 15.00 362.53 2628.90
   07:22:22.348.19-Jul-2021 4406.50 6396.00 69.80 15.00 362.73 2628.90
   07:22:22.548.19-Jul-2021 4406.50 6394.91 69.80 15.00 362.93 2628.90
   07:22:22.748.19-Jul-2021 4406.50 6394.12 69.80 15.00 363.13 2628.90
   07:22:22.948.19-Jul-2021 4406.50 6394.12 69.80 15.00 363.33 2628.90
   07:22:23.148.19-Jul-2021 4406.50 6395.14 69.80 15.00 363.53 2628.90
   07:22:23.348.19-Jul-2021 4406.50 6395.70 69.81 15.00 363.73 2628.90
   07:22:23.548.19-Jul-2021 4406.50 6396.11 69.81 15.00 363.93 2628.90
   07:22:23.748.19-Jul-2021 4406.50 6396.76 69.81 15.00 364.13 2628.90
   07:22:23.948.19-Jul-2021 4406.50 6396.76 69.81 15.00 364.33 2628.90
   07:22:24.148.19-Jul-2021 4406.50 6396.94 69.81 15.00 364.53 2628.90
   07:22:24.348.19-Jul-2021 4406.50 6418.62 69.81 15.00 364.73 2628.90
   07:22:24.548.19-Jul-2021 4406.50 6394.27 69.81 15.00 364.93 2628.90
   07:22:24.748.19-Jul-2021 4406.50 6397.87 69.81 15.00 365.13 2628.90
   07:22:24.949.19-Jul-2021 4406.50 6397.87 69.81 15.00 365.33 2628.90
   07:22:25.149.19-Jul-2021 4406.50 6397.11 69.82 15.00 365.53 2628.90
   07:22:25.349.19-Jul-2021 4406.50 6397.74 69.82 15.00 365.73 2628.90
   07:22:25.549.19-Jul-2021 4406.50 6395.83 69.82 15.00 365.93 2628.90
   07:22:25.749.19-Jul-2021 4406.50 6396.29 69.82 15.00 366.13 2628.90
   07:22:25.949.19-Jul-2021 4406.50 6396.29 69.82 15.00 366.33 2628.90
   07:22:26.149.19-Jul-2021 4406.50 6394.62 69.82 15.00 366.53 2628.90
   07:22:26.349.19-Jul-2021 4406.50 6394.97 69.82 15.00 366.74 2628.90
   07:22:26.549.19-Jul-2021 4406.50 6395.16 69.82 15.00 366.94 2628.90
   07:22:26.749.19-Jul-2021 4406.50 6394.52 69.82 15.00 367.14 2628.90
   07:22:26.949.19-Jul-2021 4406.50 6394.52 69.82 15.00 367.34 2628.90
   07:22:27.149.19-Jul-2021 4406.50 6392.94 69.83 15.00 367.54 2628.90
   07:22:27.349.19-Jul-2021 4406.50 6396.56 69.83 15.00 367.74 2628.90
   07:22:27.549.19-Jul-2021 4406.50 6419.69 69.83 15.00 367.94 2628.90
   07:22:27.750.19-Jul-2021 4406.50 6395.35 69.83 15.00 368.14 2628.90
   07:22:27.950.19-Jul-2021 4406.50 6395.35 69.83 15.00 368.34 2628.90
   07:22:28.150.19-Jul-2021 4406.50 6400.66 69.83 15.00 368.54 2628.90
   07:22:28.350.19-Jul-2021 4406.50 6397.91 69.83 15.00 368.74 2628.90
   07:22:28.550.19-Jul-2021 4406.50 6404.05 69.83 15.00 368.94 2628.90
   07:22:28.750.19-Jul-2021 4406.50 6408.18 69.83 15.00 369.14 2628.90
   07:22:28.950.19-Jul-2021 4406.50 6408.18 69.83 15.00 369.34 2628.90
   07:22:29.150.19-Jul-2021 4406.50 6403.15 69.83 15.00 369.54 2628.90
   07:22:29.350.19-Jul-2021 4406.50 6400.03 69.83 15.00 369.74 2628.90
   07:22:29.550.19-Jul-2021 4406.50 6417.92 69.83 15.00 369.94 2628.90
   07:22:29.750.19-Jul-2021 4406.50 6401.25 69.84 15.00 370.14 2628.90
   07:22:29.950.19-Jul-2021 4406.50 6401.25 69.84 15.00 370.34 2628.90
   07:22:30.150.19-Jul-2021 4406.50 6405.47 69.84 15.00 370.54 2628.90
   07:22:30.351.19-Jul-2021 4406.50 6399.31 69.84 15.00 370.74 2628.90
   07:22:30.551.19-Jul-2021 4406.50 6405.49 69.84 15.00 370.94 2628.90
   07:22:30.751.19-Jul-2021 4406.50 6399.62 69.84 15.00 371.14 2628.90
   07:22:30.951.19-Jul-2021 4406.50 6399.62 69.84 15.00 371.34 2628.90
   07:22:31.151.19-Jul-2021 4406.50 6397.53 69.84 15.00 371.54 2628.90
   07:22:31.351.19-Jul-2021 4406.50 6397.25 69.84 15.00 371.74 2628.90
   07:22:31.551.19-Jul-2021 4406.50 6396.83 69.84 15.00 371.94 2628.90
   07:22:31.751.19-Jul-2021 4406.50 6396.63 69.84 15.00 372.14 2628.90
   07:22:31.951.19-Jul-2021 4406.50 6396.63 69.84 15.00 372.34 2628.90
   07:22:32.151.19-Jul-2021 4406.50 6396.45 69.84 15.00 372.54 2628.90
   07:22:32.351.19-Jul-2021 4406.50 6397.48 69.84 15.00 372.74 2628.90
   07:22:32.551.19-Jul-2021 4406.50 6397.49 69.84 15.00 372.94 2628.90
   07:22:32.751.19-Jul-2021 4406.50 6402.61 69.84 15.00 373.14 2628.90
   07:22:32.951.19-Jul-2021 4406.50 6402.61 69.84 15.00 373.34 2628.90
   07:22:33.152.19-Jul-2021 4406.50 6397.49 69.84 15.00 373.54 2628.90
   07:22:33.352.19-Jul-2021 4406.50 6402.51 69.84 15.00 373.74 2628.90
   07:22:33.552.19-Jul-2021 4406.50 6400.01 69.84 15.00 373.94 2628.90
   07:22:33.752.19-Jul-2021 4406.50 6398.99 69.84 15.00 374.14 2628.90
   07:22:33.952.19-Jul-2021 4406.50 6398.99 69.84 15.00 374.34 2628.90
   07:22:34.152.19-Jul-2021 4406.50 6397.09 69.84 15.00 374.54 2628.90
   07:22:34.352.19-Jul-2021 4406.50 6396.04 69.84 15.00 374.74 2628.90
   07:22:34.552.19-Jul-2021 4406.50 6395.73 69.84 15.00 374.94 2628.90
   07:22:34.752.19-Jul-2021 4406.50 6395.56 69.84 15.00 375.14 2628.90
   07:22:34.952.19-Jul-2021 4406.50 6395.56 69.84 15.00 375.34 2628.90
   07:22:35.152.19-Jul-2021 4406.50 6395.20 69.84 15.00 375.54 2628.90
   07:22:35.352.19-Jul-2021 4406.50 6401.01 69.84 15.00 375.74 2628.90
   07:22:35.552.19-Jul-2021 4406.50 6406.56 69.84 15.00 375.94 2628.90
   07:22:35.752.19-Jul-2021 4406.50 6394.53 69.84 15.00 376.14 2628.90
   07:22:35.953.19-Jul-2021 4406.50 6394.53 69.84 15.00 376.34 2628.90
   07:22:36.153.19-Jul-2021 4406.50 6415.93 69.84 15.00 376.54 2628.90
   07:22:36.353.19-Jul-2021 4406.50 6396.28 69.84 15.00 376.74 2628.90
   07:22:36.553.19-Jul-2021 4406.50 6401.94 69.84 15.00 376.94 2628.90
   07:22:36.753.19-Jul-2021 4406.50 6398.18 69.84 15.00 377.14 2628.90
   07:22:36.953.19-Jul-2021 4406.50 6398.18 69.84 15.00 377.34 2628.90
   07:22:37.153.19-Jul-2021 4406.50 6412.75 69.84 15.00 377.54 2628.90
   07:22:37.353.19-Jul-2021 4406.50 6398.42 69.84 15.00 377.74 2628.90
   07:22:37.553.19-Jul-2021 4406.50 6400.44 69.84 15.00 377.94 2628.90
   07:22:37.753.19-Jul-2021 4406.50 6398.68 69.84 15.00 378.14 2628.90
   07:22:37.953.19-Jul-2021 4406.50 6398.68 69.84 15.00 378.34 2628.90
   07:22:38.153.19-Jul-2021 4406.50 6413.56 69.84 15.00 378.54 2628.90
   07:22:38.353.19-Jul-2021 4406.50 6398.77 69.84 15.00 378.74 2628.90
   07:22:38.554.19-Jul-2021 4406.50 6395.68 69.84 15.00 378.94 2628.90
   07:22:38.754.19-Jul-2021 4406.50 6399.44 69.84 15.00 379.14 2628.90
   07:22:38.954.19-Jul-2021 4406.50 6399.44 69.84 15.00 379.34 2628.90
   07:22:39.154.19-Jul-2021 4406.50 6395.13 69.84 15.00 379.54 2628.90
   07:22:39.354.19-Jul-2021 4406.50 6411.90 69.84 15.00 379.74 2628.90
   07:22:39.554.19-Jul-2021 4406.50 6398.01 69.84 15.00 379.94 2628.90
   07:22:39.754.19-Jul-2021 4406.50 6399.48 69.84 15.00 380.14 2628.90
   07:22:39.954.19-Jul-2021 4406.50 6399.48 69.84 15.00 380.34 2628.90
   07:22:40.154.19-Jul-2021 4406.50 6398.58 69.84 15.00 380.54 2628.90
   07:22:40.354.19-Jul-2021 4406.50 6397.53 69.84 15.00 380.74 2628.90
   07:22:40.554.19-Jul-2021 4406.50 6396.19 69.84 15.00 380.94 2628.90
   07:22:40.754.19-Jul-2021 4406.50 6396.82 69.84 15.00 381.14 2628.90
   07:22:40.954.19-Jul-2021 4406.50 6396.82 69.84 15.00 381.34 2628.90
   07:22:41.154.19-Jul-2021 4406.50 6395.23 69.84 15.00 381.54 2628.90
   07:22:41.355.19-Jul-2021 4406.50 6394.50 69.84 15.00 381.74 2628.90
   07:22:41.555.19-Jul-2021 4406.50 6393.22 69.84 15.00 381.94 2628.90
   07:22:41.755.19-Jul-2021 4406.50 6392.57 69.84 15.00 382.14 2628.90
   07:22:41.955.19-Jul-2021 4406.50 6392.57 69.84 15.00 382.34 2628.90
   07:22:42.155.19-Jul-2021 4406.50 6413.22 69.84 15.00 382.54 2628.90
   07:22:42.355.19-Jul-2021 4406.50 6392.36 69.84 15.00 382.74 2628.90
   07:22:42.555.19-Jul-2021 4406.50 6396.96 69.84 15.00 382.94 2628.90
   07:22:42.755.19-Jul-2021 4406.50 6395.45 69.84 15.00 383.14 2628.90
   07:22:42.955.19-Jul-2021 4406.50 6395.45 69.84 15.00 383.34 2628.90
   07:22:43.155.19-Jul-2021 4406.50 6395.89 69.84 15.00 383.54 2628.90
   07:22:43.355.19-Jul-2021 4406.50 6394.88 69.84 15.00 383.74 2628.90
   07:22:43.555.19-Jul-2021 4406.50 6395.32 69.84 15.00 383.94 2628.90
   07:22:43.755.19-Jul-2021 4406.50 6394.07 69.84 15.00 384.14 2628.90
