~Version Information
 VERS.                  2.0:   CWLS log ASCII Standard -VERSION 2.0
 WRAP.                   NO:   One line per depth step
~Well Information Block
#MNEM.UNIT     VALUE/NAME     DESCRIPTION
#---------     -----------    ---------------------------
 STRT.S             14:45:19 18-Jul-21: START TIME 14:45:19 18-Jul-21
 STOP.S             14:51:50 18-Jul-21: STOP TIME  14:51:50 18-Jul-21
 STEP.S                   0.00: STEP TIME
 NULL.                 -999.25: NULL VALUE
 MDS .        Operator Entered:  MAG DATA SOURCE
 PDAT.          Mean Sea Level:  PERMANENT DATUM
 UNIT.                     N/A:  LOGGING EQUIPMENT ID
 DCON.         Sperry Drilling:  DIRECTNL CONTR
 DOE .                     N/A:  DOE NUMBER
 RIG .              West Azeri:  RIG NAME
 JOBN.        AZ-XX-0906997913:  JOB TICKET NUMB
 WELL.                     C41:  WELL NAME
 MWDS.                    Baku:  MWD SHOP
 SRVC.          Turan Drilling:  CONTRACTOR
 FLD .                     ACG:  FIELD NAME
 CTRY.              Azerbaijan:  COUNTRY NAME
 PROV.                    Baku:  PROVINCE
 STAT.                    Baku:  STATE NAME
 REGN.                   EESSA:  REGION
 BASE.              Azerbaijan:  LOGGING EQUIPMENT BASE LOCATION
 UWI .                     N/A:  UNIQUE WELL IDENTIFIER
 API .                     N/A:  API NUMBER
 COMP.     BP Exploration (Caspian Sea) Ltd.:  COMPANY
 WTYP.                Deviated:  WELL TYPE
 SON .        AZ-XX-0906997913:  JOB NUMBER
 FTOP.          Formation Tops:  FORM TOPS DESC
 ILTD.               Lithology:  INTERP LTH DESC
 SVYD.                  Survey:  SURVEY DESC
 DMOD.             Drill Model:  DRILL MOD DESC
 HPTY.       Minimum Curvature:  HOLE POS TYPE
 NREF.                    Grid:  NORTH REFERENCE
 SPUD.               16-May-21:  SPUD DATE
 DATE.      21.11.28 17-May-21:  END TIME
 STIM.      21.11.28 17-May-21:  START TIME
 DMF .             Drill Floor:  DRILL MEAS FROM
 DFST.                        :  DIST FSL TEXT
 DFWT.                        :  DIST FWL TEXT
 CNTY.                        :  COUNTY
 LOC .                        :  LOCATION
 LMF .             Drill Floor:  LOG MEASURED FROM
 AGAP.m                  43.42:  AIR GAP
 VSNS.m                  -2.16:  VERT SEC N/S
 VSEW.m                  -6.24:  VERT SEC E/W
 APD .m                  43.42:  DEPTH ABOVE PD
 WDMS.m                 118.27:  WD ELEV
 EGL .m                   0.00:  GROUND ELEVATION
 EPD .m                   0.00:  ELEVATION
 AZTC.deg                 6.29:  AZM TOTAL CORR
 GRDC.deg                 0.18:  GRID CORRECTION
 MDEC.deg                 6.47:  MAGNETIC DECL
 MDIP.deg                59.54:  MAGNETIC DIP
 MFLD.nT              50337.00:  MAGNETIC FIELD
 GVFD.g                   1.00:  GRAVITY FIELD
 VSDR.deg               226.99:  VERT SEC DIRECT
 TDD .m                   0.00:  TOTAL DEPTH (DRILLER)
 SDEP.m                 448.00:  START DEPTH
 DFSL.m                   0.00:  DISTANCE FSL
 DFWL.m                   0.00:  DISTANCE FWL
 UTMY.m             4435799.96:  UTM Y
 UTMX.m              526265.35:  UTM X
 WHEW.m                  -6.24:  WELL HEAD E/W
 WHNS.m                  -2.16:  WELL HEAD N/S
 LONG.deg                51.31:  LONGITUDE
 LATI.deg                40.06:  LATITUDE
 TVDS.m                  43.42:  TVDSS CORRECTN
 EKB .m                  43.42:  KB ELEVATION
 EDF .m                  43.42:  DF ELEVATION
 TDL .m                 288.00:  TOTAL DEPTH (LOGGER)
 MAGU.                 1851863:  MAGUTM CHECKSUM
 VSC .                       0:  VS TO CLOSURE
~Parameter Information Block
#MNEM.UNIT       Value        Description
#---------     -----------    ---------------------------
 AV  .mps                 0.40:  Ann Velocity 
 AVMX.mps                 0.63:  Max Ann Veloc 
 AZIF.deg               158.76:  Azm, Final 
 BHAT.        Rotary Steerable:  BHA Type 
 BROT.°/30m               0.68:  Build Rotating 
 BS  .in                  8.50:  Bit Size 
 BSZ .in                  8.50:  Bit Size 
 BTPL.psig              712.00:  Bit Press Loss 
 CABU.                      No:  Customer Abuse 
 TCS .hr                 90.66:  Time Ciculation Ended 
 CV  .mps                 2.02:  Crit Velocity 
 CVMX.mps                 2.14:  Max Crit Veloc 
 DD1 .            Aziz Aliyevu:  Direct Drillr 1 
 DD2 .             Samir Abbas:  Direct Drillr 2 
 DD3 .           Teymur Aliyev:  Direct Drillr 3 
 DDSV.                 iCruise:  DD Service 
 DEFF.%                  85.10:  % Det Eff 
 DLRX.°/30m               1.05:  Dogleg Rot Max 
 DLSO.°/30m               1.01:  Dogleg Oriented 
 DLSX.°/30m               1.05:  Dogleg Str Max 
 DRET.      07.45.00 18-Jul-21:  Drill End Time 
 DRST.      15.00.00 16-Jul-21:  Drill Start Tim 
 DTIM.hr                 23.46:  Time Drilling 
 EDEP.m                4603.00:  End Depth 
 ENG1.       Seymur Iskandarov:  Engineer 1 
 ENG2.         Yevgeniy Ulikov:  Engineer 2 
 ENG3.         Bahruz Mehdiyev:  Engineer 3 
 ENG4.         Elchin Mammadov:  Engineer 4 
 ETIM.      14.00.00 23-Jul-21:  End Time 
 FLOI.gpm               500.00:  Flow In 
 FLON.gpm               450.00:  Flow In Min 
 FLOS.cptm                0.00:  Fluid Loss 
 FLOX.gpm               560.00:  Flow In Max 
 DFT .        Mineral Oil Base:  Mud Type 
 FTRO.       Formation Presure:  FTWD Run Obj 
 HFLO.                      No:  High Flow 
 HPRE.                      No:  High Pressure 
 HTEM.                      No:  High Temp 
 HYDO.m                   1.80:  Hydro Offset 
 IFIN.deg                40.22:  Inc, Final 
 IMAX.deg                40.54:  Inc Max 
 IMIN.deg                39.44:  Inc Min 
 IMND.m                4361.17:  Inc Min Depth 
 IMXD.m                4417.92:  Inc Max Depth 
 JARR.                      No:  Jarring 
 LETM.      07.45.00 18-Jul-21:  Log End Time 
 LOST.hr                    16:  Lost Rig Time 
 LSTM.      15.00.00 16-Jul-21:  Log Start Time 
 MDCL.ppm             36500.00:  Mud Chlorides 
 MDES.     Inversion Oil/Synthetic:  Mud Desc 
 DFD .sg                  1.42:  Mud Density 
 MDMN.sg                  1.42:  Dens Mud Min 
 MDMX.sg                  1.43:  Dens Mud Max 
 MOIL.                      56:  Run Mud Oil % 
 MOWR.                   71:29:  Run Mud OWR 
 MSND.                     0.5:  Run Mud Sand % 
 MSOL.                      21:  Run Mud Solids% 
 DFV .spqt               78.00:  Mud Viscosity 
 MWOD.in                  6.75:  MWD Tool OD 
 MWSI.                     Yes:  Serv Intrp, MWD 
 OTIM.hr                200.73:  Time Operating 
 PCON.           Look Like New:  Pad Condition 
 PMAX.psia            11069.93:  Press Op, Max 
 PV  .cP                 32.00:  Mud PV 
 RUN .                     700:  Run Number 
 ROPA.m/hr               10.00:  ROP Avg 
 ROPN.m/hr                9.00:  ROP Min 
 ROPX.m/hr               16.00:  ROP Max 
 RPMA.rpm               116.00:  RPM Surface Avg 
 RPMN.rpm                80.00:  RPM Surface Min 
 RPMX.rpm               120.00:  RPM Surface Max 
 RRUN.                    L605:  Rig Run Number 
 RTIM.hr                 45.00:  Time Reaming 
 SAZI.deg               159.86:  Azm, Start 
 SDEP.m                4315.00:  Start Depth 
 SIDD.                      No:  Serv Intrp, DD 
 SINC.deg                39.86:  Inc, Start 
 SPPA.psig             3300.00:  SPP Avg 
 SPPN.psig             3040.00:  SPP Min 
 SPPX.psig             3645.00:  SPP Max 
 STIM.      01.00.00 15-Jul-21:  Start Time 
 SVCS.                 DD, MWD:  Services 
 SVER.                    9.20:  Sperry Version 
 TDAT.m                 288.00:  Tot Depth Attmp 
 TDDF.                      No:  Trip for DD 
 TDLG.m                 288.00:  Tot Depth Loggd 
 TFF .                      No:  Trip for Fail 
 TQAA.f-kp               19.00:  Torque Abs Avg 
 TQAN.f-kp               18.00:  Torque Abs Min 
 TQAX.f-kp               21.00:  Torque Abs Max 
 TRRT.°/30m               0.45:  Turn Rotating 
 MRT .                    HCIM:  Maximum Recorded Temperature 
 TTMX.degC               88.24:  Max Tool Temp 
 VS01.                90649157:  Virtual Str1 SN 
 VS02.                90652483:  Virtual Str2 SN 
 VS03.                11671987:  Virtual Str3 SN 
 VS04.                90643411:  Virtual Str4 SN 
 VS05.                90652478:  Virtual Str5 SN 
 VS06.                    6111:  Virtual Str6 SN 
 WBMN.klb                 9.50:  WOB Min 
 WITN.        Grigoriy Sarayev:  Customer Rep 
 WITN.          Rufat Huseynov:  Customer Rep 2 
 WOBA.klb                11.00:  WOB Avg 
 WOBX.klb                15.00:  WOB Max 
 YP  .lhf2               28.00:  Yield Point 
~Curve Information Block
#MNEM.UNIT                 API CODE     Curve Description
#---------               -----------    ---------------------------
 TIME.HHMMSS            00 000 000 000:  GT Time & Date
 GTDEPTH.m              00 000 000 000:  GT Depth
 GTPQH.psia             00 000 000 000:  GT HR Quartz Pressure
 GTTQ.degC              00 000 000 000:  GT Quartz Temperature
 GTTN.NONE              00 000 000 000:  GT Test Number
 GTET.sec               00 000 000 000:  GT Elapsed Test Time
 GTTVD.m                00 000 000 000:  GT True Vertical Depth
#Other Information
#
#WARRANTY: Halliburton will use its best efforts to furnish customers with 
#accurate information and interpretations that are part of, and incident to, the services 
#provided.  However, Halliburton cannot and does not warrant the accuracy 
#or correctness of such information and interpretations.  Under no circumstances should any 
#such information or interpretation be relied upon as the sole basis for any drilling, 
#completion, production, or financial decision or any procedure involving any risk to the 
#safety of any drilling venture, drilling rig or its crew or any other third party.  The 
#Customer has full responsibility for all drilling, completion and production operation.  
#Halliburton makes no representations or warranties, either expressed or 
#implied, including, but not limited to, the implied warranties of merchantability or fitness 
#for a particular purpose, with respect to the services rendered.  In no event will 
#Halliburton be liable for failure to obtain any particular results or for 
#any damages, including, but not limited to, indirect, special or consequential damages, 
#resulting from the use of any information or interpretation provided by Halliburton.
#
~A           TIME           GTDEPTH  GTPQH  GTTQ  GTTN  GTET   GTTVD  
# ...
   14:49:09.805.18-Jul-2021 4553.00 6624.59 75.27 5.00 230.08 2740.81
   14:49:10.005.18-Jul-2021 4553.00 6624.59 75.27 5.00 230.28 2740.81
   14:49:10.205.18-Jul-2021 4553.00 6622.76 75.27 5.00 230.48 2740.81
   14:49:10.405.18-Jul-2021 4553.00 6622.66 75.27 5.00 230.68 2740.81
   14:49:10.605.18-Jul-2021 4553.00 6622.25 75.27 5.00 230.89 2740.81
   14:49:10.805.18-Jul-2021 4553.00 6622.16 75.27 5.00 231.09 2740.81
   14:49:11.005.18-Jul-2021 4553.00 6622.16 75.27 5.00 231.29 2740.81
   14:49:11.206.18-Jul-2021 4553.00 6622.16 75.27 5.00 231.49 2740.81
   14:49:11.406.18-Jul-2021 4553.00 6622.28 75.27 5.00 231.69 2740.81
   14:49:11.606.18-Jul-2021 4553.00 6622.21 75.27 5.00 231.89 2740.81
   14:49:11.806.18-Jul-2021 4553.00 6622.02 75.27 5.00 232.09 2740.81
   14:49:12.006.18-Jul-2021 4553.00 6622.02 75.27 5.00 232.29 2740.81
   14:49:12.206.18-Jul-2021 4553.00 6621.18 75.27 5.00 232.49 2740.81
   14:49:12.406.18-Jul-2021 4553.00 6624.10 75.27 5.00 232.69 2740.81
   14:49:12.606.18-Jul-2021 4553.00 6622.29 75.27 5.00 232.89 2740.81
   14:49:12.806.18-Jul-2021 4553.00 6621.63 75.27 5.00 233.09 2740.81
   14:49:13.006.18-Jul-2021 4553.00 6621.63 75.27 5.00 233.29 2740.81
   14:49:13.206.18-Jul-2021 4553.00 6623.55 75.27 5.00 233.49 2740.81
   14:49:13.406.18-Jul-2021 4553.00 6622.92 75.27 5.00 233.69 2740.81
   14:49:13.606.18-Jul-2021 4553.00 6622.78 75.27 5.00 233.89 2740.81
   14:49:13.806.18-Jul-2021 4553.00 6622.07 75.27 5.00 234.09 2740.81
   14:49:14.007.18-Jul-2021 4553.00 6622.07 75.27 5.00 234.29 2740.81
   14:49:14.207.18-Jul-2021 4553.00 6622.73 75.27 5.00 234.49 2740.81
   14:49:14.407.18-Jul-2021 4553.00 6623.16 75.27 5.00 234.69 2740.81
   14:49:14.607.18-Jul-2021 4553.00 6622.45 75.27 5.00 234.89 2740.81
   14:49:14.807.18-Jul-2021 4553.00 6621.39 75.27 5.00 235.09 2740.81
   14:49:15.007.18-Jul-2021 4553.00 6621.39 75.27 5.00 235.29 2740.81
   14:49:15.207.18-Jul-2021 4553.00 6623.41 75.27 5.00 235.49 2740.81
   14:49:15.407.18-Jul-2021 4553.00 6623.03 75.27 5.00 235.69 2740.81
   14:49:15.607.18-Jul-2021 4553.00 6622.86 75.27 5.00 235.89 2740.81
   14:49:15.807.18-Jul-2021 4553.00 6623.08 75.27 5.00 236.09 2740.81
   14:49:16.007.18-Jul-2021 4553.00 6623.08 75.27 5.00 236.29 2740.81
   14:49:16.207.18-Jul-2021 4553.00 6622.63 75.27 5.00 236.49 2740.81
   14:49:16.407.18-Jul-2021 4553.00 6623.43 75.27 5.00 236.69 2740.81
   14:49:16.607.18-Jul-2021 4553.00 6622.63 75.27 5.00 236.89 2740.81
   14:49:16.808.18-Jul-2021 4553.00 6622.38 75.27 5.00 237.09 2740.81
   14:49:17.008.18-Jul-2021 4553.00 6622.38 75.27 5.00 237.29 2740.81
   14:49:17.208.18-Jul-2021 4553.00 6622.47 75.27 5.00 237.49 2740.81
   14:49:17.408.18-Jul-2021 4553.00 6622.37 75.27 5.00 237.69 2740.81
   14:49:17.608.18-Jul-2021 4553.00 6622.51 75.27 5.00 237.89 2740.81
   14:49:17.808.18-Jul-2021 4553.00 6622.57 75.27 5.00 238.09 2740.81
   14:49:18.008.18-Jul-2021 4553.00 6622.57 75.27 5.00 238.29 2740.81
   14:49:18.208.18-Jul-2021 4553.00 6622.32 75.27 5.00 238.49 2740.81
   14:49:18.408.18-Jul-2021 4553.00 6621.93 75.27 5.00 238.69 2740.81
   14:49:18.608.18-Jul-2021 4553.00 6622.83 75.27 5.00 238.89 2740.81
   14:49:18.808.18-Jul-2021 4553.00 6623.27 75.27 5.00 239.09 2740.81
   14:49:19.008.18-Jul-2021 4553.00 6623.27 75.27 5.00 239.29 2740.81
   14:49:19.208.18-Jul-2021 4553.00 6622.92 75.27 5.00 239.49 2740.81
   14:49:19.409.18-Jul-2021 4553.00 6622.37 75.27 5.00 239.69 2740.81
   14:49:19.609.18-Jul-2021 4553.00 6622.15 75.27 5.00 239.89 2740.81
   14:49:19.809.18-Jul-2021 4553.00 6621.85 75.27 5.00 240.09 2740.81
   14:49:20.009.18-Jul-2021 4553.00 6621.85 75.27 5.00 240.29 2740.81
   14:49:20.209.18-Jul-2021 4553.00 6621.96 75.27 5.00 240.49 2740.81
   14:49:20.409.18-Jul-2021 4553.00 6622.04 75.27 5.00 240.69 2740.81
   14:49:20.609.18-Jul-2021 4553.00 6622.14 75.27 5.00 240.89 2740.81
   14:49:20.809.18-Jul-2021 4553.00 6621.97 75.27 5.00 241.09 2740.81
   14:49:21.009.18-Jul-2021 4553.00 6621.97 75.27 5.00 241.29 2740.81
   14:49:21.209.18-Jul-2021 4553.00 6621.38 75.27 5.00 241.49 2740.81
   14:49:21.409.18-Jul-2021 4553.00 6624.08 75.27 5.00 241.69 2740.81
   14:49:21.609.18-Jul-2021 4553.00 6621.72 75.27 5.00 241.89 2740.81
   14:49:21.809.18-Jul-2021 4553.00 6623.22 75.27 5.00 242.09 2740.81
   14:49:22.009.18-Jul-2021 4553.00 6623.22 75.27 5.00 242.29 2740.81
   14:49:22.210.18-Jul-2021 4553.00 6622.72 75.27 5.00 242.49 2740.81
   14:49:22.410.18-Jul-2021 4553.00 6622.87 75.27 5.00 242.69 2740.81
   14:49:22.610.18-Jul-2021 4553.00 6621.99 75.27 5.00 242.89 2740.81
   14:49:22.810.18-Jul-2021 4553.00 6622.38 75.27 5.00 243.09 2740.81
   14:49:23.010.18-Jul-2021 4553.00 6622.38 75.27 5.00 243.29 2740.81
   14:49:23.210.18-Jul-2021 4553.00 6622.15 75.27 5.00 243.49 2740.81
   14:49:23.410.18-Jul-2021 4553.00 6622.49 75.27 5.00 243.69 2740.81
   14:49:23.610.18-Jul-2021 4553.00 6621.51 75.27 5.00 243.89 2740.81
   14:49:23.810.18-Jul-2021 4553.00 6621.10 75.27 5.00 244.09 2740.81
   14:49:24.010.18-Jul-2021 4553.00 6621.10 75.27 5.00 244.29 2740.81
   14:49:24.210.18-Jul-2021 4553.00 6622.58 75.27 5.00 244.49 2740.81
   14:49:24.410.18-Jul-2021 4553.00 6622.65 75.27 5.00 244.69 2740.81
   14:49:24.610.18-Jul-2021 4553.00 6621.85 75.27 5.00 244.89 2740.81
   14:49:24.811.18-Jul-2021 4553.00 6624.07 75.27 5.00 245.09 2740.81
   14:49:25.011.18-Jul-2021 4553.00 6624.07 75.27 5.00 245.29 2740.81
   14:49:25.211.18-Jul-2021 4553.00 6622.60 75.27 5.00 245.49 2740.81
   14:49:25.411.18-Jul-2021 4553.00 6622.55 75.27 5.00 245.69 2740.81
   14:49:25.611.18-Jul-2021 4553.00 6622.29 75.27 5.00 245.89 2740.81
   14:49:25.811.18-Jul-2021 4553.00 6621.96 75.27 5.00 246.09 2740.81
   14:49:26.011.18-Jul-2021 4553.00 6621.96 75.27 5.00 246.29 2740.81
   14:49:26.211.18-Jul-2021 4553.00 6622.15 75.27 5.00 246.49 2740.81
   14:49:26.411.18-Jul-2021 4553.00 6622.02 75.27 5.00 246.69 2740.81
   14:49:26.611.18-Jul-2021 4553.00 6622.14 75.27 5.00 246.89 2740.81
   14:49:26.811.18-Jul-2021 4553.00 6622.22 75.27 5.00 247.09 2740.81
   14:49:27.011.18-Jul-2021 4553.00 6622.22 75.27 5.00 247.29 2740.81
   14:49:27.211.18-Jul-2021 4553.00 6621.67 75.27 5.00 247.49 2740.81
   14:49:27.411.18-Jul-2021 4553.00 6620.55 75.27 5.00 247.69 2740.81
   14:49:27.612.18-Jul-2021 4553.00 6623.63 75.27 5.00 247.89 2740.81
   14:49:27.812.18-Jul-2021 4553.00 6622.46 75.27 5.00 248.09 2740.81
   14:49:28.012.18-Jul-2021 4553.00 6622.46 75.27 5.00 248.29 2740.81
   14:49:28.212.18-Jul-2021 4553.00 6622.34 75.27 5.00 248.49 2740.81
   14:49:28.412.18-Jul-2021 4553.00 6621.87 75.27 5.00 248.69 2740.81
   14:49:28.612.18-Jul-2021 4553.00 6621.70 75.27 5.00 248.89 2740.81
   14:49:28.812.18-Jul-2021 4553.00 6621.60 75.27 5.00 249.09 2740.81
   14:49:29.012.18-Jul-2021 4553.00 6621.60 75.27 5.00 249.29 2740.81
   14:49:29.212.18-Jul-2021 4553.00 6621.53 75.27 5.00 249.49 2740.81
   14:49:29.412.18-Jul-2021 4553.00 6621.68 75.27 5.00 249.69 2740.81
   14:49:29.612.18-Jul-2021 4553.00 6621.49 75.27 5.00 249.89 2740.81
   14:49:29.812.18-Jul-2021 4553.00 6620.16 75.27 5.00 250.09 2740.81
   14:49:30.012.18-Jul-2021 4553.00 6620.16 75.27 5.00 250.29 2740.81
   14:49:30.213.18-Jul-2021 4553.00 6620.53 75.27 5.00 250.49 2740.81
   14:49:30.413.18-Jul-2021 4553.00 6621.02 75.27 5.00 250.69 2740.81
   14:49:30.613.18-Jul-2021 4553.00 6618.85 75.27 5.00 250.89 2740.81
   14:49:30.813.18-Jul-2021 4553.00 6622.99 75.27 5.00 251.09 2740.81
   14:49:31.013.18-Jul-2021 4553.00 6622.99 75.27 5.00 251.29 2740.81
   14:49:31.213.18-Jul-2021 4553.00 6620.44 75.27 5.00 251.49 2740.81
   14:49:31.413.18-Jul-2021 4553.00 6620.27 75.27 5.00 251.69 2740.81
   14:49:31.613.18-Jul-2021 4553.00 6618.93 75.27 5.00 251.89 2740.81
   14:49:31.813.18-Jul-2021 4553.00 6621.24 75.27 5.00 252.09 2740.81
   14:49:32.013.18-Jul-2021 4553.00 6621.24 75.27 5.00 252.29 2740.81
   14:49:32.213.18-Jul-2021 4553.00 6620.06 75.27 5.00 252.49 2740.81
   14:49:32.413.18-Jul-2021 4553.00 6619.68 75.27 5.00 252.69 2740.81
   14:49:32.613.18-Jul-2021 4553.00 6618.83 75.27 5.00 252.89 2740.81
