~Version Information
 VERS.                  2.0:   CWLS log ASCII Standard -VERSION 2.0
 WRAP.                   NO:   One line per depth step
~Well Information Block
#MNEM.UNIT     VALUE/NAME     DESCRIPTION
#---------     -----------    ---------------------------
 STRT.S             05:02:49 19-Jul-21: START TIME 05:02:49 19-Jul-21
 STOP.S             05:09:40 19-Jul-21: STOP TIME  05:09:40 19-Jul-21
 STEP.S                   0.00: STEP TIME
 NULL.                 -999.25: NULL VALUE
 MDS .        Operator Entered:  MAG DATA SOURCE
 PDAT.          Mean Sea Level:  PERMANENT DATUM
 UNIT.                     N/A:  LOGGING EQUIPMENT ID
 DCON.         Sperry Drilling:  DIRECTNL CONTR
 DOE .                     N/A:  DOE NUMBER
 RIG .              West Azeri:  RIG NAME
 JOBN.        AZ-XX-0906997913:  JOB TICKET NUMB
 WELL.                     C41:  WELL NAME
 MWDS.                    Baku:  MWD SHOP
 SRVC.          Turan Drilling:  CONTRACTOR
 FLD .                     ACG:  FIELD NAME
 CTRY.              Azerbaijan:  COUNTRY NAME
 PROV.                    Baku:  PROVINCE
 STAT.                    Baku:  STATE NAME
 REGN.                   EESSA:  REGION
 BASE.              Azerbaijan:  LOGGING EQUIPMENT BASE LOCATION
 UWI .                     N/A:  UNIQUE WELL IDENTIFIER
 API .                     N/A:  API NUMBER
 COMP.     BP Exploration (Caspian Sea) Ltd.:  COMPANY
 WTYP.                Deviated:  WELL TYPE
 SON .        AZ-XX-0906997913:  JOB NUMBER
 FTOP.          Formation Tops:  FORM TOPS DESC
 ILTD.               Lithology:  INTERP LTH DESC
 SVYD.                  Survey:  SURVEY DESC
 DMOD.             Drill Model:  DRILL MOD DESC
 HPTY.       Minimum Curvature:  HOLE POS TYPE
 NREF.                    Grid:  NORTH REFERENCE
 SPUD.               16-May-21:  SPUD DATE
 DATE.      21.11.28 17-May-21:  END TIME
 STIM.      21.11.28 17-May-21:  START TIME
 DMF .             Drill Floor:  DRILL MEAS FROM
 DFST.                        :  DIST FSL TEXT
 DFWT.                        :  DIST FWL TEXT
 CNTY.                        :  COUNTY
 LOC .                        :  LOCATION
 LMF .             Drill Floor:  LOG MEASURED FROM
 AGAP.m                  43.42:  AIR GAP
 VSNS.m                  -2.16:  VERT SEC N/S
 VSEW.m                  -6.24:  VERT SEC E/W
 APD .m                  43.42:  DEPTH ABOVE PD
 WDMS.m                 118.27:  WD ELEV
 EGL .m                   0.00:  GROUND ELEVATION
 EPD .m                   0.00:  ELEVATION
 AZTC.deg                 6.29:  AZM TOTAL CORR
 GRDC.deg                 0.18:  GRID CORRECTION
 MDEC.deg                 6.47:  MAGNETIC DECL
 MDIP.deg                59.54:  MAGNETIC DIP
 MFLD.nT              50337.00:  MAGNETIC FIELD
 GVFD.g                   1.00:  GRAVITY FIELD
 VSDR.deg               226.99:  VERT SEC DIRECT
 TDD .m                   0.00:  TOTAL DEPTH (DRILLER)
 SDEP.m                 448.00:  START DEPTH
 DFSL.m                   0.00:  DISTANCE FSL
 DFWL.m                   0.00:  DISTANCE FWL
 UTMY.m             4435799.96:  UTM Y
 UTMX.m              526265.35:  UTM X
 WHEW.m                  -6.24:  WELL HEAD E/W
 WHNS.m                  -2.16:  WELL HEAD N/S
 LONG.deg                51.31:  LONGITUDE
 LATI.deg                40.06:  LATITUDE
 TVDS.m                  43.42:  TVDSS CORRECTN
 EKB .m                  43.42:  KB ELEVATION
 EDF .m                  43.42:  DF ELEVATION
 TDL .m                 288.00:  TOTAL DEPTH (LOGGER)
 MAGU.                 1851863:  MAGUTM CHECKSUM
 VSC .                       0:  VS TO CLOSURE
~Parameter Information Block
#MNEM.UNIT       Value        Description
#---------     -----------    ---------------------------
 AV  .mps                 0.40:  Ann Velocity 
 AVMX.mps                 0.63:  Max Ann Veloc 
 AZIF.deg               158.76:  Azm, Final 
 BHAT.        Rotary Steerable:  BHA Type 
 BROT.°/30m               0.68:  Build Rotating 
 BS  .in                  8.50:  Bit Size 
 BSZ .in                  8.50:  Bit Size 
 BTPL.psig              712.00:  Bit Press Loss 
 CABU.                      No:  Customer Abuse 
 COMM.                     'i:  Run Comments 1 
 TCS .hr                 90.66:  Time Ciculation Ended 
 CV  .mps                 2.02:  Crit Velocity 
 CVMX.mps                 2.14:  Max Crit Veloc 
 DD1 .            Aziz Aliyevu:  Direct Drillr 1 
 DD2 .             Samir Abbas:  Direct Drillr 2 
 DD3 .           Teymur Aliyev:  Direct Drillr 3 
 DDSV.                 iCruise:  DD Service 
 DEFF.%                  85.10:  % Det Eff 
 DLRX.°/30m               1.05:  Dogleg Rot Max 
 DLSO.°/30m               1.01:  Dogleg Oriented 
 DLSX.°/30m               1.05:  Dogleg Str Max 
 DRET.      07.45.00 18-Jul-21:  Drill End Time 
 DRST.      15.00.00 16-Jul-21:  Drill Start Tim 
 DTIM.hr                 23.46:  Time Drilling 
 EDEP.m                4603.00:  End Depth 
 ENG1.       Seymur Iskandarov:  Engineer 1 
 ENG2.         Yevgeniy Ulikov:  Engineer 2 
 ENG3.         Bahruz Mehdiyev:  Engineer 3 
 ENG4.         Elchin Mammadov:  Engineer 4 
 ETIM.      14.00.00 23-Jul-21:  End Time 
 FLOI.gpm               500.00:  Flow In 
 FLON.gpm               450.00:  Flow In Min 
 FLOS.cptm                0.00:  Fluid Loss 
 FLOX.gpm               560.00:  Flow In Max 
 DFT .        Mineral Oil Base:  Mud Type 
 FTRO.       Formation Presure:  FTWD Run Obj 
 HFLO.                      No:  High Flow 
 HPRE.                      No:  High Pressure 
 HTEM.                      No:  High Temp 
 HYDO.m                   1.80:  Hydro Offset 
 IFIN.deg                40.22:  Inc, Final 
 IMAX.deg                40.54:  Inc Max 
 IMIN.deg                39.44:  Inc Min 
 IMND.m                4361.17:  Inc Min Depth 
 IMXD.m                4417.92:  Inc Max Depth 
 JARR.                      No:  Jarring 
 LETM.      07.45.00 18-Jul-21:  Log End Time 
 LOST.hr                    16:  Lost Rig Time 
 LSTM.      15.00.00 16-Jul-21:  Log Start Time 
 MDCL.ppm             36500.00:  Mud Chlorides 
 MDES.     Inversion Oil/Synthetic:  Mud Desc 
 DFD .sg                  1.42:  Mud Density 
 MDMN.sg                  1.42:  Dens Mud Min 
 MDMX.sg                  1.43:  Dens Mud Max 
 MOIL.                      56:  Run Mud Oil % 
 MOWR.                   71:29:  Run Mud OWR 
 MSND.                     0.5:  Run Mud Sand % 
 MSOL.                      21:  Run Mud Solids% 
 DFV .spqt               78.00:  Mud Viscosity 
 MWOD.in                  6.75:  MWD Tool OD 
 MWSI.                     Yes:  Serv Intrp, MWD 
 OTIM.hr                200.73:  Time Operating 
 PCON.           Look Like New:  Pad Condition 
 PMAX.psia            11069.93:  Press Op, Max 
 PV  .cP                 32.00:  Mud PV 
 RUN .                     700:  Run Number 
 ROPA.m/hr               10.00:  ROP Avg 
 ROPN.m/hr                9.00:  ROP Min 
 ROPX.m/hr               16.00:  ROP Max 
 RPMA.rpm               116.00:  RPM Surface Avg 
 RPMN.rpm                80.00:  RPM Surface Min 
 RPMX.rpm               120.00:  RPM Surface Max 
 RRUN.                    L605:  Rig Run Number 
 RTIM.hr                 45.00:  Time Reaming 
 SAZI.deg               159.86:  Azm, Start 
 SDEP.m                4315.00:  Start Depth 
 SIDD.                      No:  Serv Intrp, DD 
 SINC.deg                39.86:  Inc, Start 
 SPPA.psig             3300.00:  SPP Avg 
 SPPN.psig             3040.00:  SPP Min 
 SPPX.psig             3645.00:  SPP Max 
 STIM.      01.00.00 15-Jul-21:  Start Time 
 SVCS.                 DD, MWD:  Services 
 SVER.                    9.20:  Sperry Version 
 TDAT.m                 288.00:  Tot Depth Attmp 
 TDDF.                      No:  Trip for DD 
 TDLG.m                 288.00:  Tot Depth Loggd 
 TFF .                      No:  Trip for Fail 
 TQAA.f-kp               19.00:  Torque Abs Avg 
 TQAN.f-kp               18.00:  Torque Abs Min 
 TQAX.f-kp               21.00:  Torque Abs Max 
 TRRT.°/30m               0.45:  Turn Rotating 
 MRT .                    HCIM:  Maximum Recorded Temperature 
 TTMX.degC               88.24:  Max Tool Temp 
 VS01.                90649157:  Virtual Str1 SN 
 VS02.                90652483:  Virtual Str2 SN 
 VS03.                11671987:  Virtual Str3 SN 
 VS04.                90643411:  Virtual Str4 SN 
 VS05.                90652478:  Virtual Str5 SN 
 VS06.                    6111:  Virtual Str6 SN 
 WBMN.klb                 9.50:  WOB Min 
 WITN.        Grigoriy Sarayev:  Customer Rep 
 WITN.          Rufat Huseynov:  Customer Rep 2 
 WOBA.klb                11.00:  WOB Avg 
 WOBX.klb                15.00:  WOB Max 
 YP  .lhf2               28.00:  Yield Point 
~Curve Information Block
#MNEM.UNIT                 API CODE     Curve Description
#---------               -----------    ---------------------------
 TIME.HHMMSS            00 000 000 000:  GT Time & Date
 GTDEPTH.m              00 000 000 000:  GT Depth
 GTPQH.psia             00 000 000 000:  GT HR Quartz Pressure
 GTTQ.degC              00 000 000 000:  GT Quartz Temperature
 GTTN.NONE              00 000 000 000:  GT Test Number
 GTET.sec               00 000 000 000:  GT Elapsed Test Time
 GTTVD.m                00 000 000 000:  GT True Vertical Depth
#Other Information
#
#WARRANTY: Halliburton will use its best efforts to furnish customers with 
#accurate information and interpretations that are part of, and incident to, the services 
#provided.  However, Halliburton cannot and does not warrant the accuracy 
#or correctness of such information and interpretations.  Under no circumstances should any 
#such information or interpretation be relied upon as the sole basis for any drilling, 
#completion, production, or financial decision or any procedure involving any risk to the 
#safety of any drilling venture, drilling rig or its crew or any other third party.  The 
#Customer has full responsibility for all drilling, completion and production operation.  
#Halliburton makes no representations or warranties, either expressed or 
#implied, including, but not limited to, the implied warranties of merchantability or fitness 
#for a particular purpose, with respect to the services rendered.  In no event will 
#Halliburton be liable for failure to obtain any particular results or for 
#any damages, including, but not limited to, indirect, special or consequential damages, 
#resulting from the use of any information or interpretation provided by Halliburton.
#
~A           TIME           GTDEPTH  GTPQH  GTTQ  GTTN   GTET   GTTVD  
# ...
   05:06:13.140.19-Jul-2021 4356.00 4155.51 68.82 12.00 203.47 2590.09
   05:06:13.340.19-Jul-2021 4356.00 4155.78 68.82 12.00 203.67 2590.09
   05:06:13.540.19-Jul-2021 4356.00 4156.50 68.82 12.00 203.88 2590.09
   05:06:13.740.19-Jul-2021 4356.00 4154.37 68.82 12.00 204.08 2590.09
   05:06:13.940.19-Jul-2021 4356.00 4154.37 68.82 12.00 204.28 2590.09
   05:06:14.140.19-Jul-2021 4356.00 4154.90 68.82 12.00 204.48 2590.09
   05:06:14.340.19-Jul-2021 4356.00 4156.10 68.82 12.00 204.68 2590.09
   05:06:14.540.19-Jul-2021 4356.00 4156.79 68.82 12.00 204.88 2590.09
   05:06:14.740.19-Jul-2021 4356.00 4156.77 68.82 12.00 205.08 2590.09
   05:06:14.940.19-Jul-2021 4356.00 4156.77 68.82 12.00 205.28 2590.09
   05:06:15.140.19-Jul-2021 4356.00 4155.95 68.82 12.00 205.48 2590.09
   05:06:15.340.19-Jul-2021 4356.00 4156.48 68.82 12.00 205.68 2590.09
   05:06:15.540.19-Jul-2021 4356.00 4157.11 68.82 12.00 205.88 2590.09
   05:06:15.741.19-Jul-2021 4356.00 4157.96 68.82 12.00 206.08 2590.09
   05:06:15.941.19-Jul-2021 4356.00 4157.96 68.82 12.00 206.28 2590.09
   05:06:16.141.19-Jul-2021 4356.00 4159.65 68.82 12.00 206.48 2590.09
   05:06:16.341.19-Jul-2021 4356.00 4160.34 68.82 12.00 206.68 2590.09
   05:06:16.541.19-Jul-2021 4356.00 4161.12 68.82 12.00 206.88 2590.09
   05:06:16.741.19-Jul-2021 4356.00 4161.68 68.82 12.00 207.08 2590.09
   05:06:16.941.19-Jul-2021 4356.00 4161.68 68.82 12.00 207.28 2590.09
   05:06:17.141.19-Jul-2021 4356.00 4162.73 68.82 12.00 207.48 2590.09
   05:06:17.341.19-Jul-2021 4356.00 4162.87 68.82 12.00 207.68 2590.09
   05:06:17.541.19-Jul-2021 4356.00 4161.86 68.82 12.00 207.88 2590.09
   05:06:17.741.19-Jul-2021 4356.00 4161.53 68.82 12.00 208.08 2590.09
   05:06:17.941.19-Jul-2021 4356.00 4161.53 68.82 12.00 208.28 2590.09
   05:06:18.141.19-Jul-2021 4356.00 4162.13 68.82 12.00 208.48 2590.09
   05:06:18.341.19-Jul-2021 4356.00 4162.07 68.82 12.00 208.68 2590.09
   05:06:18.542.19-Jul-2021 4356.00 4162.58 68.82 12.00 208.88 2590.09
   05:06:18.742.19-Jul-2021 4356.00 4162.98 68.82 12.00 209.08 2590.09
   05:06:18.942.19-Jul-2021 4356.00 4162.98 68.82 12.00 209.28 2590.09
   05:06:19.142.19-Jul-2021 4356.00 4163.83 68.82 12.00 209.48 2590.09
   05:06:19.342.19-Jul-2021 4356.00 4164.15 68.82 12.00 209.68 2590.09
   05:06:19.542.19-Jul-2021 4356.00 4164.40 68.82 12.00 209.88 2590.09
   05:06:19.742.19-Jul-2021 4356.00 4164.46 68.82 12.00 210.08 2590.09
   05:06:19.942.19-Jul-2021 4356.00 4164.46 68.82 12.00 210.28 2590.09
   05:06:20.142.19-Jul-2021 4356.00 4163.43 68.82 12.00 210.48 2590.09
   05:06:20.342.19-Jul-2021 4356.00 4162.42 68.82 12.00 210.68 2590.09
   05:06:20.542.19-Jul-2021 4356.00 4161.82 68.82 12.00 210.88 2590.09
   05:06:20.742.19-Jul-2021 4356.00 4160.96 68.82 12.00 211.08 2590.09
   05:06:20.942.19-Jul-2021 4356.00 4160.96 68.82 12.00 211.28 2590.09
   05:06:21.143.19-Jul-2021 4356.00 4157.98 68.82 12.00 211.48 2590.09
   05:06:21.343.19-Jul-2021 4356.00 4156.85 68.82 12.00 211.68 2590.09
   05:06:21.543.19-Jul-2021 4356.00 4156.49 68.82 12.00 211.88 2590.09
   05:06:21.743.19-Jul-2021 4356.00 4157.72 68.82 12.00 212.08 2590.09
   05:06:21.943.19-Jul-2021 4356.00 4157.72 68.82 12.00 212.28 2590.09
   05:06:22.143.19-Jul-2021 4356.00 4157.33 68.82 12.00 212.48 2590.09
   05:06:22.343.19-Jul-2021 4356.00 4155.86 68.82 12.00 212.68 2590.09
   05:06:22.543.19-Jul-2021 4356.00 4156.80 68.82 12.00 212.88 2590.09
   05:06:22.743.19-Jul-2021 4356.00 4158.27 68.82 12.00 213.08 2590.09
   05:06:22.943.19-Jul-2021 4356.00 4158.27 68.82 12.00 213.28 2590.09
   05:06:23.143.19-Jul-2021 4356.00 4158.65 68.82 12.00 213.48 2590.09
   05:06:23.343.19-Jul-2021 4356.00 4158.23 68.82 12.00 213.68 2590.09
   05:06:23.543.19-Jul-2021 4356.00 4158.43 68.82 12.00 213.88 2590.09
   05:06:23.743.19-Jul-2021 4356.00 4159.70 68.82 12.00 214.08 2590.09
   05:06:23.944.19-Jul-2021 4356.00 4159.70 68.82 12.00 214.28 2590.09
   05:06:24.144.19-Jul-2021 4356.00 4161.08 68.82 12.00 214.48 2590.09
   05:06:24.344.19-Jul-2021 4356.00 4161.94 68.82 12.00 214.68 2590.09
   05:06:24.544.19-Jul-2021 4356.00 4162.63 68.82 12.00 214.88 2590.09
   05:06:24.744.19-Jul-2021 4356.00 4163.26 68.82 12.00 215.08 2590.09
   05:06:24.944.19-Jul-2021 4356.00 4163.26 68.82 12.00 215.28 2590.09
   05:06:25.144.19-Jul-2021 4356.00 4164.35 68.82 12.00 215.48 2590.09
   05:06:25.344.19-Jul-2021 4356.00 4164.75 68.82 12.00 215.68 2590.09
   05:06:25.544.19-Jul-2021 4356.00 4165.24 68.82 12.00 215.88 2590.09
   05:06:25.744.19-Jul-2021 4356.00 4165.45 68.82 12.00 216.08 2590.09
   05:06:25.944.19-Jul-2021 4356.00 4165.45 68.82 12.00 216.28 2590.09
   05:06:26.144.19-Jul-2021 4356.00 4163.41 68.82 12.00 216.48 2590.09
   05:06:26.344.19-Jul-2021 4356.00 4163.85 68.82 12.00 216.68 2590.09
   05:06:26.545.19-Jul-2021 4356.00 4164.61 68.82 12.00 216.88 2590.09
   05:06:26.745.19-Jul-2021 4356.00 4164.55 68.82 12.00 217.08 2590.09
   05:06:26.945.19-Jul-2021 4356.00 4164.55 68.82 12.00 217.28 2590.09
   05:06:27.145.19-Jul-2021 4356.00 4165.45 68.82 12.00 217.48 2590.09
   05:06:27.345.19-Jul-2021 4356.00 4165.71 68.82 12.00 217.68 2590.09
   05:06:27.545.19-Jul-2021 4356.00 4165.95 68.82 12.00 217.88 2590.09
   05:06:27.745.19-Jul-2021 4356.00 4166.23 68.82 12.00 218.08 2590.09
   05:06:27.945.19-Jul-2021 4356.00 4166.23 68.82 12.00 218.28 2590.09
   05:06:28.145.19-Jul-2021 4356.00 4166.81 68.82 12.00 218.48 2590.09
   05:06:28.345.19-Jul-2021 4356.00 4166.94 68.82 12.00 218.68 2590.09
   05:06:28.545.19-Jul-2021 4356.00 4166.10 68.82 12.00 218.88 2590.09
   05:06:28.745.19-Jul-2021 4356.00 4164.75 68.82 12.00 219.08 2590.09
   05:06:28.945.19-Jul-2021 4356.00 4164.75 68.82 12.00 219.28 2590.09
   05:06:29.145.19-Jul-2021 4356.00 4163.55 68.82 12.00 219.48 2590.09
   05:06:29.346.19-Jul-2021 4356.00 4162.12 68.82 12.00 219.68 2590.09
   05:06:29.546.19-Jul-2021 4356.00 4160.73 68.82 12.00 219.88 2590.09
   05:06:29.746.19-Jul-2021 4356.00 4159.49 68.82 12.00 220.08 2590.09
   05:06:29.946.19-Jul-2021 4356.00 4159.49 68.82 12.00 220.28 2590.09
   05:06:30.146.19-Jul-2021 4356.00 4160.48 68.82 12.00 220.48 2590.09
   05:06:30.346.19-Jul-2021 4356.00 4160.70 68.82 12.00 220.68 2590.09
   05:06:30.546.19-Jul-2021 4356.00 4159.07 68.82 12.00 220.88 2590.09
   05:06:30.746.19-Jul-2021 4356.00 4158.65 68.82 12.00 221.08 2590.09
   05:06:30.946.19-Jul-2021 4356.00 4158.65 68.82 12.00 221.28 2590.09
   05:06:31.146.19-Jul-2021 4356.00 4160.47 68.82 12.00 221.48 2590.09
   05:06:31.346.19-Jul-2021 4356.00 4160.85 68.82 12.00 221.68 2590.09
   05:06:31.546.19-Jul-2021 4356.00 4160.35 68.82 12.00 221.88 2590.09
   05:06:31.746.19-Jul-2021 4356.00 4158.91 68.82 12.00 222.08 2590.09
   05:06:31.946.19-Jul-2021 4356.00 4158.91 68.82 12.00 222.28 2590.09
   05:06:32.147.19-Jul-2021 4356.00 4160.91 68.82 12.00 222.48 2590.09
   05:06:32.347.19-Jul-2021 4356.00 4161.24 68.82 12.00 222.68 2590.09
   05:06:32.547.19-Jul-2021 4356.00 4162.27 68.82 12.00 222.88 2590.09
   05:06:32.747.19-Jul-2021 4356.00 4163.09 68.82 12.00 223.08 2590.09
   05:06:32.947.19-Jul-2021 4356.00 4163.09 68.82 12.00 223.28 2590.09
   05:06:33.147.19-Jul-2021 4356.00 4164.43 68.82 12.00 223.48 2590.09
   05:06:33.347.19-Jul-2021 4356.00 4165.01 68.82 12.00 223.68 2590.09
   05:06:33.547.19-Jul-2021 4356.00 4165.56 68.82 12.00 223.88 2590.09
   05:06:33.747.19-Jul-2021 4356.00 4166.05 68.82 12.00 224.08 2590.09
   05:06:33.947.19-Jul-2021 4356.00 4166.05 68.82 12.00 224.28 2590.09
   05:06:34.147.19-Jul-2021 4356.00 4166.54 68.82 12.00 224.48 2590.09
   05:06:34.347.19-Jul-2021 4356.00 4165.13 68.82 12.00 224.68 2590.09
   05:06:34.547.19-Jul-2021 4356.00 4164.52 68.82 12.00 224.88 2590.09
   05:06:34.748.19-Jul-2021 4356.00 4164.79 68.82 12.00 225.08 2590.09
   05:06:34.948.19-Jul-2021 4356.00 4164.79 68.82 12.00 225.28 2590.09
   05:06:35.148.19-Jul-2021 4356.00 4165.73 68.82 12.00 225.48 2590.09
   05:06:35.348.19-Jul-2021 4356.00 4166.23 68.82 12.00 225.68 2590.09
   05:06:35.548.19-Jul-2021 4356.00 4166.52 68.82 12.00 225.88 2590.09
