~Version Information
 VERS.                  2.0:   CWLS log ASCII Standard -VERSION 2.0
 WRAP.                   NO:   One line per depth step
~Well Information Block
#MNEM.UNIT     VALUE/NAME     DESCRIPTION
#---------     -----------    ---------------------------
 STRT.S             11:46:53 19-Jul-21: START TIME 11:46:53 19-Jul-21
 STOP.S             11:53:47 19-Jul-21: STOP TIME  11:53:47 19-Jul-21
 STEP.S                   0.00: STEP TIME
 NULL.                 -999.25: NULL VALUE
 MDS .        Operator Entered:  MAG DATA SOURCE
 PDAT.          Mean Sea Level:  PERMANENT DATUM
 UNIT.                     N/A:  LOGGING EQUIPMENT ID
 DCON.         Sperry Drilling:  DIRECTNL CONTR
 DOE .                     N/A:  DOE NUMBER
 RIG .              West Azeri:  RIG NAME
 JOBN.        AZ-XX-0906997913:  JOB TICKET NUMB
 WELL.                     C41:  WELL NAME
 MWDS.                    Baku:  MWD SHOP
 SRVC.          Turan Drilling:  CONTRACTOR
 FLD .                     ACG:  FIELD NAME
 CTRY.              Azerbaijan:  COUNTRY NAME
 PROV.                    Baku:  PROVINCE
 STAT.                    Baku:  STATE NAME
 REGN.                   EESSA:  REGION
 BASE.              Azerbaijan:  LOGGING EQUIPMENT BASE LOCATION
 UWI .                     N/A:  UNIQUE WELL IDENTIFIER
 API .                     N/A:  API NUMBER
 COMP.     BP Exploration (Caspian Sea) Ltd.:  COMPANY
 WTYP.                Deviated:  WELL TYPE
 SON .        AZ-XX-0906997913:  JOB NUMBER
 FTOP.          Formation Tops:  FORM TOPS DESC
 ILTD.               Lithology:  INTERP LTH DESC
 SVYD.                  Survey:  SURVEY DESC
 DMOD.             Drill Model:  DRILL MOD DESC
 HPTY.       Minimum Curvature:  HOLE POS TYPE
 NREF.                    Grid:  NORTH REFERENCE
 SPUD.               16-May-21:  SPUD DATE
 DATE.      21.11.28 17-May-21:  END TIME
 STIM.      21.11.28 17-May-21:  START TIME
 DMF .             Drill Floor:  DRILL MEAS FROM
 DFST.                        :  DIST FSL TEXT
 DFWT.                        :  DIST FWL TEXT
 CNTY.                        :  COUNTY
 LOC .                        :  LOCATION
 LMF .             Drill Floor:  LOG MEASURED FROM
 AGAP.m                  43.42:  AIR GAP
 VSNS.m                  -2.16:  VERT SEC N/S
 VSEW.m                  -6.24:  VERT SEC E/W
 APD .m                  43.42:  DEPTH ABOVE PD
 WDMS.m                 118.27:  WD ELEV
 EGL .m                   0.00:  GROUND ELEVATION
 EPD .m                   0.00:  ELEVATION
 AZTC.deg                 6.29:  AZM TOTAL CORR
 GRDC.deg                 0.18:  GRID CORRECTION
 MDEC.deg                 6.47:  MAGNETIC DECL
 MDIP.deg                59.54:  MAGNETIC DIP
 MFLD.nT              50337.00:  MAGNETIC FIELD
 GVFD.g                   1.00:  GRAVITY FIELD
 VSDR.deg               226.99:  VERT SEC DIRECT
 TDD .m                   0.00:  TOTAL DEPTH (DRILLER)
 SDEP.m                 448.00:  START DEPTH
 DFSL.m                   0.00:  DISTANCE FSL
 DFWL.m                   0.00:  DISTANCE FWL
 UTMY.m             4435799.96:  UTM Y
 UTMX.m              526265.35:  UTM X
 WHEW.m                  -6.24:  WELL HEAD E/W
 WHNS.m                  -2.16:  WELL HEAD N/S
 LONG.deg                51.31:  LONGITUDE
 LATI.deg                40.06:  LATITUDE
 TVDS.m                  43.42:  TVDSS CORRECTN
 EKB .m                  43.42:  KB ELEVATION
 EDF .m                  43.42:  DF ELEVATION
 TDL .m                 288.00:  TOTAL DEPTH (LOGGER)
 MAGU.                 1851863:  MAGUTM CHECKSUM
 VSC .                       0:  VS TO CLOSURE
~Parameter Information Block
#MNEM.UNIT       Value        Description
#---------     -----------    ---------------------------
 AV  .mps                 0.40:  Ann Velocity 
 AVMX.mps                 0.63:  Max Ann Veloc 
 AZIF.deg               158.76:  Azm, Final 
 BHAT.        Rotary Steerable:  BHA Type 
 BROT.°/30m               0.68:  Build Rotating 
 BS  .in                  8.50:  Bit Size 
 BSZ .in                  8.50:  Bit Size 
 BTPL.psig              712.00:  Bit Press Loss 
 CABU.                      No:  Customer Abuse 
 COMM.                     œ_R:  Run Comments 1 
 TCS .hr                 90.66:  Time Ciculation Ended 
 CV  .mps                 2.02:  Crit Velocity 
 CVMX.mps                 2.14:  Max Crit Veloc 
 DD1 .            Aziz Aliyevu:  Direct Drillr 1 
 DD2 .             Samir Abbas:  Direct Drillr 2 
 DD3 .           Teymur Aliyev:  Direct Drillr 3 
 DDSV.                 iCruise:  DD Service 
 DEFF.%                  85.10:  % Det Eff 
 DLRX.°/30m               1.05:  Dogleg Rot Max 
 DLSO.°/30m               1.01:  Dogleg Oriented 
 DLSX.°/30m               1.05:  Dogleg Str Max 
 DRET.      07.45.00 18-Jul-21:  Drill End Time 
 DRST.      15.00.00 16-Jul-21:  Drill Start Tim 
 DTIM.hr                 23.46:  Time Drilling 
 EDEP.m                4603.00:  End Depth 
 ENG1.       Seymur Iskandarov:  Engineer 1 
 ENG2.         Yevgeniy Ulikov:  Engineer 2 
 ENG3.         Bahruz Mehdiyev:  Engineer 3 
 ENG4.         Elchin Mammadov:  Engineer 4 
 ETIM.      14.00.00 23-Jul-21:  End Time 
 FLOI.gpm               500.00:  Flow In 
 FLON.gpm               450.00:  Flow In Min 
 FLOS.cptm                0.00:  Fluid Loss 
 FLOX.gpm               560.00:  Flow In Max 
 DFT .        Mineral Oil Base:  Mud Type 
 FTRO.       Formation Presure:  FTWD Run Obj 
 HFLO.                      No:  High Flow 
 HPRE.                      No:  High Pressure 
 HTEM.                      No:  High Temp 
 HYDO.m                   1.80:  Hydro Offset 
 IFIN.deg                40.22:  Inc, Final 
 IMAX.deg                40.54:  Inc Max 
 IMIN.deg                39.44:  Inc Min 
 IMND.m                4361.17:  Inc Min Depth 
 IMXD.m                4417.92:  Inc Max Depth 
 JARR.                      No:  Jarring 
 LETM.      07.45.00 18-Jul-21:  Log End Time 
 LOST.hr                    16:  Lost Rig Time 
 LSTM.      15.00.00 16-Jul-21:  Log Start Time 
 MDCL.ppm             36500.00:  Mud Chlorides 
 MDES.     Inversion Oil/Synthetic:  Mud Desc 
 DFD .sg                  1.42:  Mud Density 
 MDMN.sg                  1.42:  Dens Mud Min 
 MDMX.sg                  1.43:  Dens Mud Max 
 MOIL.                      56:  Run Mud Oil % 
 MOWR.                   71:29:  Run Mud OWR 
 MSND.                     0.5:  Run Mud Sand % 
 MSOL.                      21:  Run Mud Solids% 
 DFV .spqt               78.00:  Mud Viscosity 
 MWOD.in                  6.75:  MWD Tool OD 
 MWSI.                     Yes:  Serv Intrp, MWD 
 OTIM.hr                200.73:  Time Operating 
 PCON.           Look Like New:  Pad Condition 
 PMAX.psia            11069.93:  Press Op, Max 
 PV  .cP                 32.00:  Mud PV 
 RUN .                     700:  Run Number 
 ROPA.m/hr               10.00:  ROP Avg 
 ROPN.m/hr                9.00:  ROP Min 
 ROPX.m/hr               16.00:  ROP Max 
 RPMA.rpm               116.00:  RPM Surface Avg 
 RPMN.rpm                80.00:  RPM Surface Min 
 RPMX.rpm               120.00:  RPM Surface Max 
 RRUN.                    L605:  Rig Run Number 
 RTIM.hr                 45.00:  Time Reaming 
 SAZI.deg               159.86:  Azm, Start 
 SDEP.m                4315.00:  Start Depth 
 SIDD.                      No:  Serv Intrp, DD 
 SINC.deg                39.86:  Inc, Start 
 SPPA.psig             3300.00:  SPP Avg 
 SPPN.psig             3040.00:  SPP Min 
 SPPX.psig             3645.00:  SPP Max 
 STIM.      01.00.00 15-Jul-21:  Start Time 
 SVCS.                 DD, MWD:  Services 
 SVER.                    9.20:  Sperry Version 
 TDAT.m                 288.00:  Tot Depth Attmp 
 TDDF.                      No:  Trip for DD 
 TDLG.m                 288.00:  Tot Depth Loggd 
 TFF .                      No:  Trip for Fail 
 TQAA.f-kp               19.00:  Torque Abs Avg 
 TQAN.f-kp               18.00:  Torque Abs Min 
 TQAX.f-kp               21.00:  Torque Abs Max 
 TRRT.°/30m               0.45:  Turn Rotating 
 MRT .                    HCIM:  Maximum Recorded Temperature 
 TTMX.degC               88.24:  Max Tool Temp 
 VS01.                90649157:  Virtual Str1 SN 
 VS02.                90652483:  Virtual Str2 SN 
 VS03.                11671987:  Virtual Str3 SN 
 VS04.                90643411:  Virtual Str4 SN 
 VS05.                90652478:  Virtual Str5 SN 
 VS06.                    6111:  Virtual Str6 SN 
 WBMN.klb                 9.50:  WOB Min 
 WITN.        Grigoriy Sarayev:  Customer Rep 
 WITN.          Rufat Huseynov:  Customer Rep 2 
 WOBA.klb                11.00:  WOB Avg 
 WOBX.klb                15.00:  WOB Max 
 YP  .lhf2               28.00:  Yield Point 
~Curve Information Block
#MNEM.UNIT                 API CODE     Curve Description
#---------               -----------    ---------------------------
 TIME.HHMMSS            00 000 000 000:  GT Time & Date
 GTDEPTH.m              00 000 000 000:  GT Depth
 GTPQH.psia             00 000 000 000:  GT HR Quartz Pressure
 GTTQ.degC              00 000 000 000:  GT Quartz Temperature
 GTTN.NONE              00 000 000 000:  GT Test Number
 GTET.sec               00 000 000 000:  GT Elapsed Test Time
 GTTVD.m                00 000 000 000:  GT True Vertical Depth
#Other Information
#
#WARRANTY: Halliburton will use its best efforts to furnish customers with 
#accurate information and interpretations that are part of, and incident to, the services 
#provided.  However, Halliburton cannot and does not warrant the accuracy 
#or correctness of such information and interpretations.  Under no circumstances should any 
#such information or interpretation be relied upon as the sole basis for any drilling, 
#completion, production, or financial decision or any procedure involving any risk to the 
#safety of any drilling venture, drilling rig or its crew or any other third party.  The 
#Customer has full responsibility for all drilling, completion and production operation.  
#Halliburton makes no representations or warranties, either expressed or 
#implied, including, but not limited to, the implied warranties of merchantability or fitness 
#for a particular purpose, with respect to the services rendered.  In no event will 
#Halliburton be liable for failure to obtain any particular results or for 
#any damages, including, but not limited to, indirect, special or consequential damages, 
#resulting from the use of any information or interpretation provided by Halliburton.
#
~A           TIME           GTDEPTH  GTPQH  GTTQ  GTTN   GTET   GTTVD  
# ...
   11:53:17.933.19-Jul-2021 4516.00 6622.55 70.95 25.00 384.34 2712.47
   11:53:18.133.19-Jul-2021 4516.00 6617.79 70.95 25.00 384.54 2712.47
   11:53:18.333.19-Jul-2021 4516.00 6629.92 70.95 25.00 384.74 2712.47
   11:53:18.533.19-Jul-2021 4516.00 6627.91 70.95 25.00 384.94 2712.47
   11:53:18.733.19-Jul-2021 4516.00 6622.69 70.95 25.00 385.14 2712.47
   11:53:18.933.19-Jul-2021 4516.00 6622.69 70.95 25.00 385.34 2712.47
   11:53:19.133.19-Jul-2021 4516.00 6620.99 70.95 25.00 385.54 2712.47
   11:53:19.334.19-Jul-2021 4516.00 6618.47 70.95 25.00 385.74 2712.47
   11:53:19.534.19-Jul-2021 4516.00 6619.00 70.95 25.00 385.94 2712.47
   11:53:19.734.19-Jul-2021 4516.00 6619.22 70.95 25.00 386.14 2712.47
   11:53:19.934.19-Jul-2021 4516.00 6619.22 70.95 25.00 386.34 2712.47
   11:53:20.134.19-Jul-2021 4516.00 6619.45 70.95 25.00 386.54 2712.47
   11:53:20.334.19-Jul-2021 4516.00 6620.18 70.95 25.00 386.74 2712.47
   11:53:20.534.19-Jul-2021 4516.00 6619.21 70.95 25.00 386.94 2712.47
   11:53:20.734.19-Jul-2021 4516.00 6616.29 70.95 25.00 387.14 2712.47
   11:53:20.934.19-Jul-2021 4516.00 6616.29 70.95 25.00 387.34 2712.47
   11:53:21.134.19-Jul-2021 4516.00 6636.14 70.95 25.00 387.54 2712.47
   11:53:21.334.19-Jul-2021 4516.00 6620.21 70.95 25.00 387.74 2712.47
   11:53:21.534.19-Jul-2021 4516.00 6621.89 70.95 25.00 387.94 2712.47
   11:53:21.734.19-Jul-2021 4516.00 6619.00 70.95 25.00 388.14 2712.47
   11:53:21.934.19-Jul-2021 4516.00 6619.00 70.95 25.00 388.34 2712.47
   11:53:22.135.19-Jul-2021 4516.00 6616.83 70.94 25.00 388.54 2712.47
   11:53:22.335.19-Jul-2021 4516.00 6616.69 70.94 25.00 388.74 2712.47
   11:53:22.535.19-Jul-2021 4516.00 6616.41 70.94 25.00 388.94 2712.47
   11:53:22.735.19-Jul-2021 4516.00 6616.66 70.94 25.00 389.14 2712.47
   11:53:22.935.19-Jul-2021 4516.00 6616.66 70.94 25.00 389.34 2712.47
   11:53:23.135.19-Jul-2021 4516.00 6617.13 70.94 25.00 389.54 2712.47
   11:53:23.335.19-Jul-2021 4516.00 6615.44 70.94 25.00 389.74 2712.47
   11:53:23.535.19-Jul-2021 4516.00 6615.15 70.94 25.00 389.94 2712.47
   11:53:23.735.19-Jul-2021 4516.00 6638.22 70.94 25.00 390.14 2712.47
   11:53:23.935.19-Jul-2021 4516.00 6638.22 70.94 25.00 390.34 2712.47
   11:53:24.135.19-Jul-2021 4516.00 6616.46 70.94 25.00 390.54 2712.47
   11:53:24.335.19-Jul-2021 4516.00 6638.45 70.94 25.00 390.74 2712.47
   11:53:24.535.19-Jul-2021 4516.00 6623.04 70.94 25.00 390.94 2712.47
   11:53:24.736.19-Jul-2021 4516.00 6620.29 70.94 25.00 391.14 2712.47
   11:53:24.936.19-Jul-2021 4516.00 6620.29 70.94 25.00 391.34 2712.47
   11:53:25.136.19-Jul-2021 4516.00 6631.44 70.94 25.00 391.54 2712.47
   11:53:25.336.19-Jul-2021 4516.00 6617.26 70.94 25.00 391.74 2712.47
   11:53:25.536.19-Jul-2021 4516.00 6622.38 70.94 25.00 391.94 2712.47
   11:53:25.736.19-Jul-2021 4516.00 6618.23 70.94 25.00 392.14 2712.47
   11:53:25.936.19-Jul-2021 4516.00 6618.23 70.94 25.00 392.34 2712.47
   11:53:26.136.19-Jul-2021 4516.00 6613.60 70.94 25.00 392.54 2712.47
   11:53:26.336.19-Jul-2021 4516.00 6635.60 70.94 25.00 392.74 2712.47
   11:53:26.536.19-Jul-2021 4516.00 6620.97 70.94 25.00 392.94 2712.47
   11:53:26.736.19-Jul-2021 4516.00 6621.38 70.94 25.00 393.14 2712.47
   11:53:26.936.19-Jul-2021 4516.00 6621.38 70.94 25.00 393.34 2712.47
   11:53:27.136.19-Jul-2021 4516.00 6622.68 70.94 25.00 393.54 2712.47
   11:53:27.336.19-Jul-2021 4516.00 6622.44 70.94 25.00 393.74 2712.47
   11:53:27.537.19-Jul-2021 4516.00 6620.74 70.94 25.00 393.95 2712.47
   11:53:27.737.19-Jul-2021 4516.00 6621.25 70.94 25.00 394.15 2712.47
   11:53:27.937.19-Jul-2021 4516.00 6621.25 70.94 25.00 394.35 2712.47
   11:53:28.137.19-Jul-2021 4516.00 6617.72 70.94 25.00 394.55 2712.47
   11:53:28.337.19-Jul-2021 4516.00 6617.54 70.94 25.00 394.75 2712.47
   11:53:28.537.19-Jul-2021 4516.00 6617.35 70.94 25.00 394.95 2712.47
   11:53:28.737.19-Jul-2021 4516.00 6616.46 70.94 25.00 395.15 2712.47
   11:53:28.937.19-Jul-2021 4516.00 6616.46 70.94 25.00 395.35 2712.47
   11:53:29.137.19-Jul-2021 4516.00 6616.43 70.94 25.00 395.55 2712.47
   11:53:29.337.19-Jul-2021 4516.00 6617.20 70.94 25.00 395.75 2712.47
   11:53:29.537.19-Jul-2021 4516.00 6616.27 70.94 25.00 395.95 2712.47
   11:53:29.737.19-Jul-2021 4516.00 6636.97 70.94 25.00 396.15 2712.47
   11:53:29.937.19-Jul-2021 4516.00 6636.97 70.94 25.00 396.35 2712.47
   11:53:30.138.19-Jul-2021 4516.00 6617.66 70.94 25.00 396.55 2712.47
   11:53:30.338.19-Jul-2021 4516.00 6618.29 70.94 25.00 396.75 2712.47
   11:53:30.538.19-Jul-2021 4516.00 6618.73 70.94 25.00 396.95 2712.47
   11:53:30.738.19-Jul-2021 4516.00 6615.46 70.94 25.00 397.15 2712.47
   11:53:30.938.19-Jul-2021 4516.00 6615.46 70.94 25.00 397.35 2712.47
   11:53:31.138.19-Jul-2021 4516.00 6615.17 70.94 25.00 397.55 2712.47
   11:53:31.338.19-Jul-2021 4516.00 6615.47 70.94 25.00 397.75 2712.47
   11:53:31.538.19-Jul-2021 4516.00 6615.71 70.94 25.00 397.95 2712.47
   11:53:31.738.19-Jul-2021 4516.00 6616.02 70.94 25.00 398.15 2712.47
   11:53:31.938.19-Jul-2021 4516.00 6616.02 70.94 25.00 398.35 2712.47
   11:53:32.138.19-Jul-2021 4516.00 6616.98 70.94 25.00 398.55 2712.47
   11:53:32.338.19-Jul-2021 4516.00 6632.42 70.94 25.00 398.75 2712.47
   11:53:32.538.19-Jul-2021 4516.00 6618.97 70.94 25.00 398.95 2712.47
   11:53:32.738.19-Jul-2021 4516.00 6622.04 70.94 25.00 399.15 2712.47
   11:53:32.939.19-Jul-2021 4516.00 6622.04 70.94 25.00 399.35 2712.47
   11:53:33.139.19-Jul-2021 4516.00 6618.17 70.94 25.00 399.55 2712.47
   11:53:33.339.19-Jul-2021 4516.00 6619.96 70.94 25.00 399.75 2712.47
   11:53:33.539.19-Jul-2021 4516.00 6620.42 70.94 25.00 399.95 2712.47
   11:53:33.739.19-Jul-2021 4516.00 6618.34 70.94 25.00 400.15 2712.47
   11:53:33.939.19-Jul-2021 4516.00 6618.34 70.94 25.00 400.35 2712.47
   11:53:34.139.19-Jul-2021 4516.00 6624.01 70.94 25.00 400.55 2712.47
   11:53:34.339.19-Jul-2021 4516.00 6619.60 70.94 25.00 400.75 2712.47
   11:53:34.539.19-Jul-2021 4516.00 6619.80 70.94 25.00 400.95 2712.47
   11:53:34.739.19-Jul-2021 4516.00 6618.61 70.94 25.00 401.15 2712.47
   11:53:34.939.19-Jul-2021 4516.00 6618.61 70.94 25.00 401.35 2712.47
   11:53:35.139.19-Jul-2021 4516.00 6626.90 70.94 25.00 401.55 2712.47
   11:53:35.339.19-Jul-2021 4516.00 6622.99 70.94 25.00 401.75 2712.47
   11:53:35.540.19-Jul-2021 4516.00 6620.29 70.94 25.00 401.95 2712.47
   11:53:35.740.19-Jul-2021 4516.00 6639.47 70.94 25.00 402.15 2712.47
   11:53:35.940.19-Jul-2021 4516.00 6639.47 70.94 25.00 402.35 2712.47
   11:53:36.140.19-Jul-2021 4516.00 6623.72 70.94 25.00 402.55 2712.47
   11:53:36.340.19-Jul-2021 4516.00 6621.79 70.94 25.00 402.75 2712.47
   11:53:36.540.19-Jul-2021 4516.00 6622.01 70.94 25.00 402.95 2712.47
   11:53:36.740.19-Jul-2021 4516.00 6618.33 70.94 25.00 403.15 2712.47
   11:53:36.940.19-Jul-2021 4516.00 6618.33 70.94 25.00 403.35 2712.47
   11:53:37.140.19-Jul-2021 4516.00 6618.06 70.94 25.00 403.55 2712.47
   11:53:37.340.19-Jul-2021 4516.00 6618.02 70.94 25.00 403.75 2712.47
   11:53:37.540.19-Jul-2021 4516.00 6617.87 70.94 25.00 403.95 2712.47
   11:53:37.740.19-Jul-2021 4516.00 6618.22 70.94 25.00 404.15 2712.47
   11:53:37.940.19-Jul-2021 4516.00 6618.22 70.94 25.00 404.35 2712.47
   11:53:38.140.19-Jul-2021 4516.00 6618.98 70.94 25.00 404.55 2712.47
   11:53:38.341.19-Jul-2021 4516.00 6616.67 70.94 25.00 404.75 2712.47
   11:53:38.541.19-Jul-2021 4516.00 6638.81 70.94 25.00 404.95 2712.47
   11:53:38.741.19-Jul-2021 4516.00 6617.01 70.94 25.00 405.15 2712.47
   11:53:38.941.19-Jul-2021 4516.00 6617.01 70.94 25.00 405.35 2712.47
   11:53:39.141.19-Jul-2021 4516.00 6620.64 70.94 25.00 405.55 2712.47
   11:53:39.341.19-Jul-2021 4516.00 6621.04 70.94 25.00 405.75 2712.47
   11:53:39.541.19-Jul-2021 4516.00 6618.39 70.94 25.00 405.95 2712.47
   11:53:39.741.19-Jul-2021 4516.00 6617.99 70.94 25.00 406.15 2712.47
   11:53:39.941.19-Jul-2021 4516.00 6617.99 70.94 25.00 406.35 2712.47
   11:53:40.141.19-Jul-2021 4516.00 6617.29 70.94 25.00 406.55 2712.47
   11:53:40.341.19-Jul-2021 4516.00 6617.31 70.94 25.00 406.75 2712.47
