~Version Information
 VERS.                  2.0:   CWLS log ASCII Standard -VERSION 2.0
 WRAP.                   NO:   One line per depth step
~Well Information Block
#MNEM.UNIT     VALUE/NAME     DESCRIPTION
#---------     -----------    ---------------------------
 STRT.S             04:43:18 19-Jul-21: START TIME 04:43:18 19-Jul-21
 STOP.S             04:49:54 19-Jul-21: STOP TIME  04:49:54 19-Jul-21
 STEP.S                   0.00: STEP TIME
 NULL.                 -999.25: NULL VALUE
 MDS .        Operator Entered:  MAG DATA SOURCE
 PDAT.          Mean Sea Level:  PERMANENT DATUM
 UNIT.                     N/A:  LOGGING EQUIPMENT ID
 DCON.         Sperry Drilling:  DIRECTNL CONTR
 DOE .                     N/A:  DOE NUMBER
 RIG .              West Azeri:  RIG NAME
 JOBN.        AZ-XX-0906997913:  JOB TICKET NUMB
 WELL.                     C41:  WELL NAME
 MWDS.                    Baku:  MWD SHOP
 SRVC.          Turan Drilling:  CONTRACTOR
 FLD .                     ACG:  FIELD NAME
 CTRY.              Azerbaijan:  COUNTRY NAME
 PROV.                    Baku:  PROVINCE
 STAT.                    Baku:  STATE NAME
 REGN.                   EESSA:  REGION
 BASE.              Azerbaijan:  LOGGING EQUIPMENT BASE LOCATION
 UWI .                     N/A:  UNIQUE WELL IDENTIFIER
 API .                     N/A:  API NUMBER
 COMP.     BP Exploration (Caspian Sea) Ltd.:  COMPANY
 WTYP.                Deviated:  WELL TYPE
 SON .        AZ-XX-0906997913:  JOB NUMBER
 FTOP.          Formation Tops:  FORM TOPS DESC
 ILTD.               Lithology:  INTERP LTH DESC
 SVYD.                  Survey:  SURVEY DESC
 DMOD.             Drill Model:  DRILL MOD DESC
 HPTY.       Minimum Curvature:  HOLE POS TYPE
 NREF.                    Grid:  NORTH REFERENCE
 SPUD.               16-May-21:  SPUD DATE
 DATE.      21.11.28 17-May-21:  END TIME
 STIM.      21.11.28 17-May-21:  START TIME
 DMF .             Drill Floor:  DRILL MEAS FROM
 DFST.                        :  DIST FSL TEXT
 DFWT.                        :  DIST FWL TEXT
 CNTY.                        :  COUNTY
 LOC .                        :  LOCATION
 LMF .             Drill Floor:  LOG MEASURED FROM
 AGAP.m                  43.42:  AIR GAP
 VSNS.m                  -2.16:  VERT SEC N/S
 VSEW.m                  -6.24:  VERT SEC E/W
 APD .m                  43.42:  DEPTH ABOVE PD
 WDMS.m                 118.27:  WD ELEV
 EGL .m                   0.00:  GROUND ELEVATION
 EPD .m                   0.00:  ELEVATION
 AZTC.deg                 6.29:  AZM TOTAL CORR
 GRDC.deg                 0.18:  GRID CORRECTION
 MDEC.deg                 6.47:  MAGNETIC DECL
 MDIP.deg                59.54:  MAGNETIC DIP
 MFLD.nT              50337.00:  MAGNETIC FIELD
 GVFD.g                   1.00:  GRAVITY FIELD
 VSDR.deg               226.99:  VERT SEC DIRECT
 TDD .m                   0.00:  TOTAL DEPTH (DRILLER)
 SDEP.m                 448.00:  START DEPTH
 DFSL.m                   0.00:  DISTANCE FSL
 DFWL.m                   0.00:  DISTANCE FWL
 UTMY.m             4435799.96:  UTM Y
 UTMX.m              526265.35:  UTM X
 WHEW.m                  -6.24:  WELL HEAD E/W
 WHNS.m                  -2.16:  WELL HEAD N/S
 LONG.deg                51.31:  LONGITUDE
 LATI.deg                40.06:  LATITUDE
 TVDS.m                  43.42:  TVDSS CORRECTN
 EKB .m                  43.42:  KB ELEVATION
 EDF .m                  43.42:  DF ELEVATION
 TDL .m                 288.00:  TOTAL DEPTH (LOGGER)
 MAGU.                 1851863:  MAGUTM CHECKSUM
 VSC .                       0:  VS TO CLOSURE
~Parameter Information Block
#MNEM.UNIT       Value        Description
#---------     -----------    ---------------------------
 AV  .mps                 0.40:  Ann Velocity 
 AVMX.mps                 0.63:  Max Ann Veloc 
 AZIF.deg               158.76:  Azm, Final 
 BHAT.        Rotary Steerable:  BHA Type 
 BROT.°/30m               0.68:  Build Rotating 
 BS  .in                  8.50:  Bit Size 
 BSZ .in                  8.50:  Bit Size 
 BTPL.psig              712.00:  Bit Press Loss 
 CABU.                      No:  Customer Abuse 
 COMM.                     ”™f:  Run Comments 1 
 TCS .hr                 90.66:  Time Ciculation Ended 
 CV  .mps                 2.02:  Crit Velocity 
 CVMX.mps                 2.14:  Max Crit Veloc 
 DD1 .            Aziz Aliyevu:  Direct Drillr 1 
 DD2 .             Samir Abbas:  Direct Drillr 2 
 DD3 .           Teymur Aliyev:  Direct Drillr 3 
 DDSV.                 iCruise:  DD Service 
 DEFF.%                  85.10:  % Det Eff 
 DLRX.°/30m               1.05:  Dogleg Rot Max 
 DLSO.°/30m               1.01:  Dogleg Oriented 
 DLSX.°/30m               1.05:  Dogleg Str Max 
 DRET.      07.45.00 18-Jul-21:  Drill End Time 
 DRST.      15.00.00 16-Jul-21:  Drill Start Tim 
 DTIM.hr                 23.46:  Time Drilling 
 EDEP.m                4603.00:  End Depth 
 ENG1.       Seymur Iskandarov:  Engineer 1 
 ENG2.         Yevgeniy Ulikov:  Engineer 2 
 ENG3.         Bahruz Mehdiyev:  Engineer 3 
 ENG4.         Elchin Mammadov:  Engineer 4 
 ETIM.      14.00.00 23-Jul-21:  End Time 
 FLOI.gpm               500.00:  Flow In 
 FLON.gpm               450.00:  Flow In Min 
 FLOS.cptm                0.00:  Fluid Loss 
 FLOX.gpm               560.00:  Flow In Max 
 DFT .        Mineral Oil Base:  Mud Type 
 FTRO.       Formation Presure:  FTWD Run Obj 
 HFLO.                      No:  High Flow 
 HPRE.                      No:  High Pressure 
 HTEM.                      No:  High Temp 
 HYDO.m                   1.80:  Hydro Offset 
 IFIN.deg                40.22:  Inc, Final 
 IMAX.deg                40.54:  Inc Max 
 IMIN.deg                39.44:  Inc Min 
 IMND.m                4361.17:  Inc Min Depth 
 IMXD.m                4417.92:  Inc Max Depth 
 JARR.                      No:  Jarring 
 LETM.      07.45.00 18-Jul-21:  Log End Time 
 LOST.hr                    16:  Lost Rig Time 
 LSTM.      15.00.00 16-Jul-21:  Log Start Time 
 MDCL.ppm             36500.00:  Mud Chlorides 
 MDES.     Inversion Oil/Synthetic:  Mud Desc 
 DFD .sg                  1.42:  Mud Density 
 MDMN.sg                  1.42:  Dens Mud Min 
 MDMX.sg                  1.43:  Dens Mud Max 
 MOIL.                      56:  Run Mud Oil % 
 MOWR.                   71:29:  Run Mud OWR 
 MSND.                     0.5:  Run Mud Sand % 
 MSOL.                      21:  Run Mud Solids% 
 DFV .spqt               78.00:  Mud Viscosity 
 MWOD.in                  6.75:  MWD Tool OD 
 MWSI.                     Yes:  Serv Intrp, MWD 
 OTIM.hr                200.73:  Time Operating 
 PCON.           Look Like New:  Pad Condition 
 PMAX.psia            11069.93:  Press Op, Max 
 PV  .cP                 32.00:  Mud PV 
 RUN .                     700:  Run Number 
 ROPA.m/hr               10.00:  ROP Avg 
 ROPN.m/hr                9.00:  ROP Min 
 ROPX.m/hr               16.00:  ROP Max 
 RPMA.rpm               116.00:  RPM Surface Avg 
 RPMN.rpm                80.00:  RPM Surface Min 
 RPMX.rpm               120.00:  RPM Surface Max 
 RRUN.                    L605:  Rig Run Number 
 RTIM.hr                 45.00:  Time Reaming 
 SAZI.deg               159.86:  Azm, Start 
 SDEP.m                4315.00:  Start Depth 
 SIDD.                      No:  Serv Intrp, DD 
 SINC.deg                39.86:  Inc, Start 
 SPPA.psig             3300.00:  SPP Avg 
 SPPN.psig             3040.00:  SPP Min 
 SPPX.psig             3645.00:  SPP Max 
 STIM.      01.00.00 15-Jul-21:  Start Time 
 SVCS.                 DD, MWD:  Services 
 SVER.                    9.20:  Sperry Version 
 TDAT.m                 288.00:  Tot Depth Attmp 
 TDDF.                      No:  Trip for DD 
 TDLG.m                 288.00:  Tot Depth Loggd 
 TFF .                      No:  Trip for Fail 
 TQAA.f-kp               19.00:  Torque Abs Avg 
 TQAN.f-kp               18.00:  Torque Abs Min 
 TQAX.f-kp               21.00:  Torque Abs Max 
 TRRT.°/30m               0.45:  Turn Rotating 
 MRT .                    HCIM:  Maximum Recorded Temperature 
 TTMX.degC               88.24:  Max Tool Temp 
 VS01.                90649157:  Virtual Str1 SN 
 VS02.                90652483:  Virtual Str2 SN 
 VS03.                11671987:  Virtual Str3 SN 
 VS04.                90643411:  Virtual Str4 SN 
 VS05.                90652478:  Virtual Str5 SN 
 VS06.                    6111:  Virtual Str6 SN 
 WBMN.klb                 9.50:  WOB Min 
 WITN.        Grigoriy Sarayev:  Customer Rep 
 WITN.          Rufat Huseynov:  Customer Rep 2 
 WOBA.klb                11.00:  WOB Avg 
 WOBX.klb                15.00:  WOB Max 
 YP  .lhf2               28.00:  Yield Point 
~Curve Information Block
#MNEM.UNIT                 API CODE     Curve Description
#---------               -----------    ---------------------------
 TIME.HHMMSS            00 000 000 000:  GT Time & Date
 GTDEPTH.m              00 000 000 000:  GT Depth
 GTPQH.psia             00 000 000 000:  GT HR Quartz Pressure
 GTTQ.degC              00 000 000 000:  GT Quartz Temperature
 GTTN.NONE              00 000 000 000:  GT Test Number
 GTET.sec               00 000 000 000:  GT Elapsed Test Time
 GTTVD.m                00 000 000 000:  GT True Vertical Depth
#Other Information
#
#WARRANTY: Halliburton will use its best efforts to furnish customers with 
#accurate information and interpretations that are part of, and incident to, the services 
#provided.  However, Halliburton cannot and does not warrant the accuracy 
#or correctness of such information and interpretations.  Under no circumstances should any 
#such information or interpretation be relied upon as the sole basis for any drilling, 
#completion, production, or financial decision or any procedure involving any risk to the 
#safety of any drilling venture, drilling rig or its crew or any other third party.  The 
#Customer has full responsibility for all drilling, completion and production operation.  
#Halliburton makes no representations or warranties, either expressed or 
#implied, including, but not limited to, the implied warranties of merchantability or fitness 
#for a particular purpose, with respect to the services rendered.  In no event will 
#Halliburton be liable for failure to obtain any particular results or for 
#any damages, including, but not limited to, indirect, special or consequential damages, 
#resulting from the use of any information or interpretation provided by Halliburton.
#
~A           TIME           GTDEPTH  GTPQH  GTTQ  GTTN   GTET   GTTVD  
# ...
   04:44:26.058.19-Jul-2021 4355.50  864.82 68.58 11.00  67.82 2589.71
   04:44:26.258.19-Jul-2021 4355.50  864.93 68.58 11.00  68.03 2589.71
   04:44:26.458.19-Jul-2021 4355.50  864.93 68.58 11.00  68.23 2589.71
   04:44:26.659.19-Jul-2021 4355.50  868.97 68.58 11.00  68.43 2589.71
   04:44:26.859.19-Jul-2021 4355.50  871.37 68.58 11.00  68.63 2589.71
   04:44:27.059.19-Jul-2021 4355.50  872.72 68.58 11.00  68.83 2589.71
   04:44:27.259.19-Jul-2021 4355.50  872.55 68.58 11.00  69.03 2589.71
   04:44:27.459.19-Jul-2021 4355.50  872.55 68.58 11.00  69.23 2589.71
   04:44:27.659.19-Jul-2021 4355.50  876.70 68.58 11.00  69.43 2589.71
   04:44:27.859.19-Jul-2021 4355.50  878.89 68.58 11.00  69.63 2589.71
   04:44:28.059.19-Jul-2021 4355.50  880.10 68.58 11.00  69.83 2589.71
   04:44:28.259.19-Jul-2021 4355.50  881.60 68.58 11.00  70.03 2589.71
   04:44:28.459.19-Jul-2021 4355.50  881.60 68.58 11.00  70.23 2589.71
   04:44:28.659.19-Jul-2021 4355.50  884.43 68.58 11.00  70.43 2589.71
   04:44:28.859.19-Jul-2021 4355.50  885.89 68.58 11.00  70.63 2589.71
   04:44:29.059.19-Jul-2021 4355.50  887.22 68.58 11.00  70.83 2589.71
   04:44:29.259.19-Jul-2021 4355.50  888.41 68.58 11.00  71.03 2589.71
   04:44:29.460.19-Jul-2021 4355.50  888.41 68.58 11.00  71.23 2589.71
   04:44:29.660.19-Jul-2021 4355.50  890.85 68.58 11.00  71.43 2589.71
   04:44:29.860.19-Jul-2021 4355.50  892.16 68.58 11.00  71.63 2589.71
   04:44:30.060.19-Jul-2021 4355.50  891.44 68.58 11.00  71.83 2589.71
   04:44:30.260.19-Jul-2021 4355.50  893.27 68.58 11.00  72.03 2589.71
   04:44:30.460.19-Jul-2021 4355.50  893.27 68.58 11.00  72.23 2589.71
   04:44:30.660.19-Jul-2021 4355.50  896.11 68.58 11.00  72.43 2589.71
   04:44:30.860.19-Jul-2021 4355.50  897.08 68.58 11.00  72.63 2589.71
   04:44:31.060.19-Jul-2021 4355.50  898.39 68.58 11.00  72.83 2589.71
   04:44:31.260.19-Jul-2021 4355.50  899.63 68.58 11.00  73.03 2589.71
   04:44:31.460.19-Jul-2021 4355.50  899.63 68.58 11.00  73.23 2589.71
   04:44:31.660.19-Jul-2021 4355.50  902.09 68.59 11.00  73.43 2589.71
   04:44:31.860.19-Jul-2021 4355.50  903.20 68.59 11.00  73.63 2589.71
   04:44:32.061.19-Jul-2021 4355.50  904.44 68.59 11.00  73.83 2589.71
   04:44:32.261.19-Jul-2021 4355.50  905.48 68.59 11.00  74.03 2589.71
   04:44:32.461.19-Jul-2021 4355.50  905.48 68.59 11.00  74.23 2589.71
   04:44:32.661.19-Jul-2021 4355.50  905.82 68.59 11.00  74.43 2589.71
   04:44:32.861.19-Jul-2021 4355.50  906.86 68.59 11.00  74.63 2589.71
   04:44:33.061.19-Jul-2021 4355.50  907.26 68.59 11.00  74.83 2589.71
   04:44:33.261.19-Jul-2021 4355.50  908.07 68.59 11.00  75.03 2589.71
   04:44:33.461.19-Jul-2021 4355.50  908.07 68.59 11.00  75.23 2589.71
   04:44:33.661.19-Jul-2021 4355.50  908.07 68.59 11.00  75.43 2589.71
   04:44:33.861.19-Jul-2021 4355.50  911.69 68.59 11.00  75.63 2589.71
   04:44:34.061.19-Jul-2021 4355.50  913.13 68.59 11.00  75.83 2589.71
   04:44:34.261.19-Jul-2021 4355.50  915.07 68.59 11.00  76.03 2589.71
   04:44:34.461.19-Jul-2021 4355.50  915.07 68.59 11.00  76.23 2589.71
   04:44:34.661.19-Jul-2021 4355.50  915.54 68.59 11.00  76.43 2589.71
   04:44:34.862.19-Jul-2021 4355.50  917.41 68.59 11.00  76.63 2589.71
   04:44:35.062.19-Jul-2021 4355.50  919.15 68.59 11.00  76.83 2589.71
   04:44:35.262.19-Jul-2021 4355.50  920.93 68.59 11.00  77.03 2589.71
   04:44:35.462.19-Jul-2021 4355.50  920.93 68.59 11.00  77.23 2589.71
   04:44:35.662.19-Jul-2021 4355.50  920.87 68.59 11.00  77.43 2589.71
   04:44:35.862.19-Jul-2021 4355.50  922.80 68.59 11.00  77.63 2589.71
   04:44:36.062.19-Jul-2021 4355.50  924.83 68.59 11.00  77.83 2589.71
   04:44:36.262.19-Jul-2021 4355.50  925.88 68.59 11.00  78.03 2589.71
   04:44:36.462.19-Jul-2021 4355.50  925.88 68.59 11.00  78.23 2589.71
   04:44:36.662.19-Jul-2021 4355.50  928.58 68.59 11.00  78.43 2589.71
   04:44:36.862.19-Jul-2021 4355.50  929.96 68.59 11.00  78.63 2589.71
   04:44:37.062.19-Jul-2021 4355.50  931.17 68.59 11.00  78.83 2589.71
   04:44:37.262.19-Jul-2021 4355.50  932.35 68.59 11.00  79.03 2589.71
   04:44:37.462.19-Jul-2021 4355.50  932.35 68.59 11.00  79.23 2589.71
   04:44:37.663.19-Jul-2021 4355.50  934.68 68.59 11.00  79.43 2589.71
   04:44:37.863.19-Jul-2021 4355.50  935.83 68.59 11.00  79.63 2589.71
   04:44:38.063.19-Jul-2021 4355.50  936.95 68.60 11.00  79.83 2589.71
   04:44:38.263.19-Jul-2021 4355.50  936.06 68.60 11.00  80.03 2589.71
   04:44:38.463.19-Jul-2021 4355.50  936.06 68.60 11.00  80.23 2589.71
   04:44:38.663.19-Jul-2021 4355.50  939.31 68.60 11.00  80.43 2589.71
   04:44:38.863.19-Jul-2021 4355.50  943.60 68.60 11.00  80.63 2589.71
   04:44:39.063.19-Jul-2021 4355.50  946.58 68.60 11.00  80.83 2589.71
   04:44:39.263.19-Jul-2021 4355.50  949.73 68.60 11.00  81.03 2589.71
   04:44:39.463.19-Jul-2021 4355.50  949.73 68.60 11.00  81.23 2589.71
   04:44:39.663.19-Jul-2021 4355.50  958.87 68.60 11.00  81.43 2589.71
   04:44:39.863.19-Jul-2021 4355.50  965.30 68.60 11.00  81.63 2589.71
   04:44:40.063.19-Jul-2021 4355.50  970.79 68.60 11.00  81.83 2589.71
   04:44:40.264.19-Jul-2021 4355.50  975.29 68.60 11.00  82.03 2589.71
   04:44:40.464.19-Jul-2021 4355.50  975.29 68.60 11.00  82.23 2589.71
   04:44:40.664.19-Jul-2021 4355.50  980.00 68.60 11.00  82.43 2589.71
   04:44:40.864.19-Jul-2021 4355.50  983.06 68.60 11.00  82.63 2589.71
   04:44:41.064.19-Jul-2021 4355.50  986.11 68.60 11.00  82.83 2589.71
   04:44:41.264.19-Jul-2021 4355.50  987.30 68.60 11.00  83.03 2589.71
   04:44:41.464.19-Jul-2021 4355.50  987.30 68.60 11.00  83.23 2589.71
   04:44:41.664.19-Jul-2021 4355.50  994.77 68.60 11.00  83.43 2589.71
   04:44:41.864.19-Jul-2021 4355.50  998.18 68.60 11.00  83.63 2589.71
   04:44:42.064.19-Jul-2021 4355.50  999.37 68.60 11.00  83.83 2589.71
   04:44:42.264.19-Jul-2021 4355.50 1002.78 68.60 11.00  84.03 2589.71
   04:44:42.464.19-Jul-2021 4355.50 1002.78 68.60 11.00  84.23 2589.71
   04:44:42.664.19-Jul-2021 4355.50 1007.62 68.60 11.00  84.43 2589.71
   04:44:42.864.19-Jul-2021 4355.50 1013.49 68.60 11.00  84.63 2589.71
   04:44:43.065.19-Jul-2021 4355.50 1018.32 68.60 11.00  84.83 2589.71
   04:44:43.265.19-Jul-2021 4355.50 1023.22 68.60 11.00  85.03 2589.71
   04:44:43.465.19-Jul-2021 4355.50 1023.22 68.60 11.00  85.23 2589.71
   04:44:43.665.19-Jul-2021 4355.50 1029.02 68.60 11.00  85.43 2589.71
   04:44:43.865.19-Jul-2021 4355.50 1033.27 68.60 11.00  85.63 2589.71
   04:44:44.065.19-Jul-2021 4355.50 1039.23 68.60 11.00  85.83 2589.71
   04:44:44.265.19-Jul-2021 4355.50 1052.33 68.60 11.00  86.03 2589.71
   04:44:44.465.19-Jul-2021 4355.50 1052.33 68.60 11.00  86.23 2589.71
   04:44:44.665.19-Jul-2021 4355.50 1111.70 68.60 11.00  86.43 2589.71
   04:44:44.865.19-Jul-2021 4355.50 1120.49 68.60 11.00  86.63 2589.71
   04:44:45.065.19-Jul-2021 4355.50 1126.85 68.61 11.00  86.83 2589.71
   04:44:45.265.19-Jul-2021 4355.50 1132.11 68.61 11.00  87.03 2589.71
   04:44:45.465.19-Jul-2021 4355.50 1132.11 68.61 11.00  87.23 2589.71
   04:44:45.666.19-Jul-2021 4355.50 1140.62 68.61 11.00  87.43 2589.71
   04:44:45.866.19-Jul-2021 4355.50 1144.31 68.61 11.00  87.63 2589.71
   04:44:46.066.19-Jul-2021 4355.50 1147.72 68.61 11.00  87.83 2589.71
   04:44:46.266.19-Jul-2021 4355.50 1149.78 68.61 11.00  88.03 2589.71
   04:44:46.466.19-Jul-2021 4355.50 1149.78 68.61 11.00  88.23 2589.71
   04:44:46.666.19-Jul-2021 4355.50 1155.91 68.61 11.00  88.43 2589.71
   04:44:46.866.19-Jul-2021 4355.50 1159.69 68.61 11.00  88.63 2589.71
   04:44:47.066.19-Jul-2021 4355.50 1162.66 68.61 11.00  88.83 2589.71
   04:44:47.266.19-Jul-2021 4355.50 1165.24 68.61 11.00  89.03 2589.71
   04:44:47.466.19-Jul-2021 4355.50 1165.24 68.61 11.00  89.23 2589.71
   04:44:47.666.19-Jul-2021 4355.50 1170.26 68.61 11.00  89.43 2589.71
   04:44:47.866.19-Jul-2021 4355.50 1172.59 68.61 11.00  89.63 2589.71
   04:44:48.066.19-Jul-2021 4355.50 1174.81 68.61 11.00  89.83 2589.71
   04:44:48.266.19-Jul-2021 4355.50 1176.93 68.61 11.00  90.03 2589.71
   04:44:48.467.19-Jul-2021 4355.50 1176.93 68.61 11.00  90.23 2589.71
