~Version Information
 VERS.                  2.0:   CWLS log ASCII Standard -VERSION 2.0
 WRAP.                   NO:   One line per depth step
~Well Information Block
#MNEM.UNIT     VALUE/NAME     DESCRIPTION
#---------     -----------    ---------------------------
 STRT.S             13:11:20 18-Jul-21: START TIME 13:11:20 18-Jul-21
 STOP.S             13:17:54 18-Jul-21: STOP TIME  13:17:54 18-Jul-21
 STEP.S                   0.00: STEP TIME
 NULL.                 -999.25: NULL VALUE
 MDS .        Operator Entered:  MAG DATA SOURCE
 PDAT.          Mean Sea Level:  PERMANENT DATUM
 UNIT.                     N/A:  LOGGING EQUIPMENT ID
 DCON.         Sperry Drilling:  DIRECTNL CONTR
 DOE .                     N/A:  DOE NUMBER
 RIG .              West Azeri:  RIG NAME
 JOBN.        AZ-XX-0906997913:  JOB TICKET NUMB
 WELL.                     C41:  WELL NAME
 MWDS.                    Baku:  MWD SHOP
 SRVC.          Turan Drilling:  CONTRACTOR
 FLD .                     ACG:  FIELD NAME
 CTRY.              Azerbaijan:  COUNTRY NAME
 PROV.                    Baku:  PROVINCE
 STAT.                    Baku:  STATE NAME
 REGN.                   EESSA:  REGION
 BASE.              Azerbaijan:  LOGGING EQUIPMENT BASE LOCATION
 UWI .                     N/A:  UNIQUE WELL IDENTIFIER
 API .                     N/A:  API NUMBER
 COMP.     BP Exploration (Caspian Sea) Ltd.:  COMPANY
 WTYP.                Deviated:  WELL TYPE
 SON .        AZ-XX-0906997913:  JOB NUMBER
 FTOP.          Formation Tops:  FORM TOPS DESC
 ILTD.               Lithology:  INTERP LTH DESC
 SVYD.                  Survey:  SURVEY DESC
 DMOD.             Drill Model:  DRILL MOD DESC
 HPTY.       Minimum Curvature:  HOLE POS TYPE
 NREF.                    Grid:  NORTH REFERENCE
 SPUD.               16-May-21:  SPUD DATE
 DATE.      21.11.28 17-May-21:  END TIME
 STIM.      21.11.28 17-May-21:  START TIME
 DMF .             Drill Floor:  DRILL MEAS FROM
 DFST.                        :  DIST FSL TEXT
 DFWT.                        :  DIST FWL TEXT
 CNTY.                        :  COUNTY
 LOC .                        :  LOCATION
 LMF .             Drill Floor:  LOG MEASURED FROM
 AGAP.m                  43.42:  AIR GAP
 VSNS.m                  -2.16:  VERT SEC N/S
 VSEW.m                  -6.24:  VERT SEC E/W
 APD .m                  43.42:  DEPTH ABOVE PD
 WDMS.m                 118.27:  WD ELEV
 EGL .m                   0.00:  GROUND ELEVATION
 EPD .m                   0.00:  ELEVATION
 AZTC.deg                 6.29:  AZM TOTAL CORR
 GRDC.deg                 0.18:  GRID CORRECTION
 MDEC.deg                 6.47:  MAGNETIC DECL
 MDIP.deg                59.54:  MAGNETIC DIP
 MFLD.nT              50337.00:  MAGNETIC FIELD
 GVFD.g                   1.00:  GRAVITY FIELD
 VSDR.deg               226.99:  VERT SEC DIRECT
 TDD .m                   0.00:  TOTAL DEPTH (DRILLER)
 SDEP.m                 448.00:  START DEPTH
 DFSL.m                   0.00:  DISTANCE FSL
 DFWL.m                   0.00:  DISTANCE FWL
 UTMY.m             4435799.96:  UTM Y
 UTMX.m              526265.35:  UTM X
 WHEW.m                  -6.24:  WELL HEAD E/W
 WHNS.m                  -2.16:  WELL HEAD N/S
 LONG.deg                51.31:  LONGITUDE
 LATI.deg                40.06:  LATITUDE
 TVDS.m                  43.42:  TVDSS CORRECTN
 EKB .m                  43.42:  KB ELEVATION
 EDF .m                  43.42:  DF ELEVATION
 TDL .m                 288.00:  TOTAL DEPTH (LOGGER)
 MAGU.                 1851863:  MAGUTM CHECKSUM
 VSC .                       0:  VS TO CLOSURE
~Parameter Information Block
#MNEM.UNIT       Value        Description
#---------     -----------    ---------------------------
 AV  .mps                 0.40:  Ann Velocity 
 AVMX.mps                 0.63:  Max Ann Veloc 
 AZIF.deg               158.76:  Azm, Final 
 BHAT.        Rotary Steerable:  BHA Type 
 BROT.∞/30m               0.68:  Build Rotating 
 BS  .in                  8.50:  Bit Size 
 BSZ .in                  8.50:  Bit Size 
 BTPL.psig              712.00:  Bit Press Loss 
 CABU.                      No:  Customer Abuse 
 COMM.                     §ÁL:  Run Comments 1 
 TCS .hr                 90.66:  Time Ciculation Ended 
 CV  .mps                 2.02:  Crit Velocity 
 CVMX.mps                 2.14:  Max Crit Veloc 
 DD1 .            Aziz Aliyevu:  Direct Drillr 1 
 DD2 .             Samir Abbas:  Direct Drillr 2 
 DD3 .           Teymur Aliyev:  Direct Drillr 3 
 DDSV.                 iCruise:  DD Service 
 DEFF.%                  85.10:  % Det Eff 
 DLRX.∞/30m               1.05:  Dogleg Rot Max 
 DLSO.∞/30m               1.01:  Dogleg Oriented 
 DLSX.∞/30m               1.05:  Dogleg Str Max 
 DRET.      07.45.00 18-Jul-21:  Drill End Time 
 DRST.      15.00.00 16-Jul-21:  Drill Start Tim 
 DTIM.hr                 23.46:  Time Drilling 
 EDEP.m                4603.00:  End Depth 
 ENG1.       Seymur Iskandarov:  Engineer 1 
 ENG2.         Yevgeniy Ulikov:  Engineer 2 
 ENG3.         Bahruz Mehdiyev:  Engineer 3 
 ENG4.         Elchin Mammadov:  Engineer 4 
 ETIM.      14.00.00 23-Jul-21:  End Time 
 FLOI.gpm               500.00:  Flow In 
 FLON.gpm               450.00:  Flow In Min 
 FLOS.cptm                0.00:  Fluid Loss 
 FLOX.gpm               560.00:  Flow In Max 
 DFT .        Mineral Oil Base:  Mud Type 
 FTRO.       Formation Presure:  FTWD Run Obj 
 HFLO.                      No:  High Flow 
 HPRE.                      No:  High Pressure 
 HTEM.                      No:  High Temp 
 HYDO.m                   1.80:  Hydro Offset 
 IFIN.deg                40.22:  Inc, Final 
 IMAX.deg                40.54:  Inc Max 
 IMIN.deg                39.44:  Inc Min 
 IMND.m                4361.17:  Inc Min Depth 
 IMXD.m                4417.92:  Inc Max Depth 
 JARR.                      No:  Jarring 
 LETM.      07.45.00 18-Jul-21:  Log End Time 
 LOST.hr                    16:  Lost Rig Time 
 LSTM.      15.00.00 16-Jul-21:  Log Start Time 
 MDCL.ppm             36500.00:  Mud Chlorides 
 MDES.     Inversion Oil/Synthetic:  Mud Desc 
 DFD .sg                  1.42:  Mud Density 
 MDMN.sg                  1.42:  Dens Mud Min 
 MDMX.sg                  1.43:  Dens Mud Max 
 MOIL.                      56:  Run Mud Oil % 
 MOWR.                   71:29:  Run Mud OWR 
 MSND.                     0.5:  Run Mud Sand % 
 MSOL.                      21:  Run Mud Solids% 
 DFV .spqt               78.00:  Mud Viscosity 
 MWOD.in                  6.75:  MWD Tool OD 
 MWSI.                     Yes:  Serv Intrp, MWD 
 OTIM.hr                200.73:  Time Operating 
 PCON.           Look Like New:  Pad Condition 
 PMAX.psia            11069.93:  Press Op, Max 
 PV  .cP                 32.00:  Mud PV 
 RUN .                     700:  Run Number 
 ROPA.m/hr               10.00:  ROP Avg 
 ROPN.m/hr                9.00:  ROP Min 
 ROPX.m/hr               16.00:  ROP Max 
 RPMA.rpm               116.00:  RPM Surface Avg 
 RPMN.rpm                80.00:  RPM Surface Min 
 RPMX.rpm               120.00:  RPM Surface Max 
 RRUN.                    L605:  Rig Run Number 
 RTIM.hr                 45.00:  Time Reaming 
 SAZI.deg               159.86:  Azm, Start 
 SDEP.m                4315.00:  Start Depth 
 SIDD.                      No:  Serv Intrp, DD 
 SINC.deg                39.86:  Inc, Start 
 SPPA.psig             3300.00:  SPP Avg 
 SPPN.psig             3040.00:  SPP Min 
 SPPX.psig             3645.00:  SPP Max 
 STIM.      01.00.00 15-Jul-21:  Start Time 
 SVCS.                 DD, MWD:  Services 
 SVER.                    9.20:  Sperry Version 
 TDAT.m                 288.00:  Tot Depth Attmp 
 TDDF.                      No:  Trip for DD 
 TDLG.m                 288.00:  Tot Depth Loggd 
 TFF .                      No:  Trip for Fail 
 TQAA.f-kp               19.00:  Torque Abs Avg 
 TQAN.f-kp               18.00:  Torque Abs Min 
 TQAX.f-kp               21.00:  Torque Abs Max 
 TRRT.∞/30m               0.45:  Turn Rotating 
 MRT .                    HCIM:  Maximum Recorded Temperature 
 TTMX.degC               88.24:  Max Tool Temp 
 VS01.                90649157:  Virtual Str1 SN 
 VS02.                90652483:  Virtual Str2 SN 
 VS03.                11671987:  Virtual Str3 SN 
 VS04.                90643411:  Virtual Str4 SN 
 VS05.                90652478:  Virtual Str5 SN 
 VS06.                    6111:  Virtual Str6 SN 
 WBMN.klb                 9.50:  WOB Min 
 WITN.        Grigoriy Sarayev:  Customer Rep 
 WITN.          Rufat Huseynov:  Customer Rep 2 
 WOBA.klb                11.00:  WOB Avg 
 WOBX.klb                15.00:  WOB Max 
 YP  .lhf2               28.00:  Yield Point 
~Curve Information Block
#MNEM.UNIT                 API CODE     Curve Description
#---------               -----------    ---------------------------
 TIME.HHMMSS            00 000 000 000:  GT Time & Date
 GTDEPTH.m              00 000 000 000:  GT Depth
 GTPQH.psia             00 000 000 000:  GT HR Quartz Pressure
 GTTQ.degC              00 000 000 000:  GT Quartz Temperature
 GTTN.NONE              00 000 000 000:  GT Test Number
 GTET.sec               00 000 000 000:  GT Elapsed Test Time
 GTTVD.m                00 000 000 000:  GT True Vertical Depth
#Other Information
#
#WARRANTY: Halliburton will use its best efforts to furnish customers with 
#accurate information and interpretations that are part of, and incident to, the services 
#provided.  However, Halliburton cannot and does not warrant the accuracy 
#or correctness of such information and interpretations.  Under no circumstances should any 
#such information or interpretation be relied upon as the sole basis for any drilling, 
#completion, production, or financial decision or any procedure involving any risk to the 
#safety of any drilling venture, drilling rig or its crew or any other third party.  The 
#Customer has full responsibility for all drilling, completion and production operation.  
#Halliburton makes no representations or warranties, either expressed or 
#implied, including, but not limited to, the implied warranties of merchantability or fitness 
#for a particular purpose, with respect to the services rendered.  In no event will 
#Halliburton be liable for failure to obtain any particular results or for 
#any damages, including, but not limited to, indirect, special or consequential damages, 
#resulting from the use of any information or interpretation provided by Halliburton.
#
~A           TIME           GTDEPTH  GTPQH  GTTQ  GTTN  GTET   GTTVD  
# ...
   13:13:38.695.18-Jul-2021 4561.00 6168.95 75.69 2.00 138.05 2746.93
   13:13:38.895.18-Jul-2021 4561.00 6168.95 75.69 2.00 138.25 2746.93
   13:13:39.095.18-Jul-2021 4561.00 6169.87 75.69 2.00 138.45 2746.93
   13:13:39.295.18-Jul-2021 4561.00 6168.76 75.69 2.00 138.65 2746.93
   13:13:39.495.18-Jul-2021 4561.00 6169.62 75.69 2.00 138.85 2746.93
   13:13:39.695.18-Jul-2021 4561.00 6169.18 75.69 2.00 139.05 2746.93
   13:13:39.895.18-Jul-2021 4561.00 6169.18 75.69 2.00 139.25 2746.93
   13:13:40.095.18-Jul-2021 4561.00 6168.88 75.69 2.00 139.45 2746.93
   13:13:40.295.18-Jul-2021 4561.00 6169.15 75.69 2.00 139.65 2746.93
   13:13:40.495.18-Jul-2021 4561.00 6168.46 75.69 2.00 139.85 2746.93
   13:13:40.695.18-Jul-2021 4561.00 6168.76 75.69 2.00 140.05 2746.93
   13:13:40.896.18-Jul-2021 4561.00 6168.76 75.69 2.00 140.25 2746.93
   13:13:41.096.18-Jul-2021 4561.00 6168.84 75.69 2.00 140.45 2746.93
   13:13:41.296.18-Jul-2021 4561.00 6169.15 75.69 2.00 140.65 2746.93
   13:13:41.496.18-Jul-2021 4561.00 6168.70 75.69 2.00 140.85 2746.93
   13:13:41.696.18-Jul-2021 4561.00 6169.15 75.69 2.00 141.05 2746.93
   13:13:41.896.18-Jul-2021 4561.00 6169.15 75.69 2.00 141.25 2746.93
   13:13:42.096.18-Jul-2021 4561.00 6170.31 75.69 2.00 141.45 2746.93
   13:13:42.296.18-Jul-2021 4561.00 6168.69 75.69 2.00 141.65 2746.93
   13:13:42.496.18-Jul-2021 4561.00 6168.27 75.69 2.00 141.85 2746.93
   13:13:42.696.18-Jul-2021 4561.00 6170.26 75.69 2.00 142.05 2746.93
   13:13:42.896.18-Jul-2021 4561.00 6170.26 75.69 2.00 142.25 2746.93
   13:13:43.096.18-Jul-2021 4561.00 6167.81 75.69 2.00 142.45 2746.93
   13:13:43.296.18-Jul-2021 4561.00 6167.16 75.69 2.00 142.65 2746.93
   13:13:43.497.18-Jul-2021 4561.00 6169.55 75.69 2.00 142.85 2746.93
   13:13:43.697.18-Jul-2021 4561.00 6168.30 75.69 2.00 143.05 2746.93
   13:13:43.897.18-Jul-2021 4561.00 6168.30 75.69 2.00 143.25 2746.93
   13:13:44.097.18-Jul-2021 4561.00 6167.33 75.69 2.00 143.45 2746.93
   13:13:44.297.18-Jul-2021 4561.00 6168.79 75.69 2.00 143.65 2746.93
   13:13:44.497.18-Jul-2021 4561.00 6168.34 75.69 2.00 143.85 2746.93
   13:13:44.697.18-Jul-2021 4561.00 6168.79 75.69 2.00 144.05 2746.93
   13:13:44.897.18-Jul-2021 4561.00 6168.79 75.69 2.00 144.25 2746.93
   13:13:45.097.18-Jul-2021 4561.00 6168.10 75.69 2.00 144.45 2746.93
   13:13:45.297.18-Jul-2021 4561.00 6168.63 75.69 2.00 144.65 2746.93
   13:13:45.497.18-Jul-2021 4561.00 6168.45 75.69 2.00 144.85 2746.93
   13:13:45.697.18-Jul-2021 4561.00 6168.26 75.69 2.00 145.05 2746.93
   13:13:45.897.18-Jul-2021 4561.00 6168.26 75.69 2.00 145.25 2746.93
   13:13:46.097.18-Jul-2021 4561.00 6162.81 75.69 2.00 145.45 2746.93
   13:13:46.298.18-Jul-2021 4561.00 6161.27 75.69 2.00 145.65 2746.93
   13:13:46.498.18-Jul-2021 4561.00 6160.87 75.69 2.00 145.85 2746.93
   13:13:46.698.18-Jul-2021 4561.00 6159.55 75.69 2.00 146.05 2746.93
   13:13:46.898.18-Jul-2021 4561.00 6159.55 75.69 2.00 146.25 2746.93
   13:13:47.098.18-Jul-2021 4561.00 6158.71 75.69 2.00 146.45 2746.93
   13:13:47.298.18-Jul-2021 4561.00 6157.01 75.69 2.00 146.65 2746.93
   13:13:47.498.18-Jul-2021 4561.00 6155.73 75.69 2.00 146.85 2746.93
   13:13:47.698.18-Jul-2021 4561.00 6155.79 75.69 2.00 147.05 2746.93
   13:13:47.898.18-Jul-2021 4561.00 6155.79 75.69 2.00 147.25 2746.93
   13:13:48.098.18-Jul-2021 4561.00 6154.83 75.69 2.00 147.45 2746.93
   13:13:48.298.18-Jul-2021 4561.00 6154.82 75.69 2.00 147.65 2746.93
   13:13:48.498.18-Jul-2021 4561.00 6154.71 75.69 2.00 147.85 2746.93
   13:13:48.698.18-Jul-2021 4561.00 6154.10 75.69 2.00 148.05 2746.93
   13:13:48.899.18-Jul-2021 4561.00 6154.10 75.69 2.00 148.25 2746.93
   13:13:49.099.18-Jul-2021 4561.00 6154.21 75.69 2.00 148.45 2746.93
   13:13:49.299.18-Jul-2021 4561.00 6154.41 75.69 2.00 148.65 2746.93
   13:13:49.499.18-Jul-2021 4561.00 6153.48 75.69 2.00 148.85 2746.93
   13:13:49.699.18-Jul-2021 4561.00 6153.62 75.69 2.00 149.05 2746.93
   13:13:49.899.18-Jul-2021 4561.00 6153.62 75.69 2.00 149.25 2746.93
   13:13:50.099.18-Jul-2021 4561.00 6151.90 75.69 2.00 149.46 2746.93
   13:13:50.299.18-Jul-2021 4561.00 6153.61 75.69 2.00 149.66 2746.93
   13:13:50.499.18-Jul-2021 4561.00 6151.32 75.69 2.00 149.86 2746.93
   13:13:50.699.18-Jul-2021 4561.00 6150.17 75.69 2.00 150.06 2746.93
   13:13:50.899.18-Jul-2021 4561.00 6150.17 75.69 2.00 150.26 2746.93
   13:13:51.099.18-Jul-2021 4561.00 6150.68 75.69 2.00 150.46 2746.93
   13:13:51.299.18-Jul-2021 4561.00 6150.58 75.69 2.00 150.66 2746.93
   13:13:51.499.18-Jul-2021 4561.00 6149.96 75.69 2.00 150.86 2746.93
   13:13:51.700.18-Jul-2021 4561.00 6150.43 75.69 2.00 151.06 2746.93
   13:13:51.900.18-Jul-2021 4561.00 6150.43 75.69 2.00 151.26 2746.93
   13:13:52.100.18-Jul-2021 4561.00 6150.39 75.69 2.00 151.46 2746.93
   13:13:52.300.18-Jul-2021 4561.00 6148.44 75.69 2.00 151.66 2746.93
   13:13:52.500.18-Jul-2021 4561.00 6150.28 75.69 2.00 151.86 2746.93
   13:13:52.700.18-Jul-2021 4561.00 6148.91 75.69 2.00 152.06 2746.93
   13:13:52.900.18-Jul-2021 4561.00 6148.91 75.69 2.00 152.26 2746.93
   13:13:53.100.18-Jul-2021 4561.00 6148.62 75.69 2.00 152.46 2746.93
   13:13:53.300.18-Jul-2021 4561.00 6148.66 75.69 2.00 152.66 2746.93
   13:13:53.500.18-Jul-2021 4561.00 6148.97 75.69 2.00 152.86 2746.93
   13:13:53.700.18-Jul-2021 4561.00 6148.96 75.69 2.00 153.06 2746.93
   13:13:53.900.18-Jul-2021 4561.00 6148.96 75.69 2.00 153.26 2746.93
   13:13:54.100.18-Jul-2021 4561.00 6149.12 75.69 2.00 153.46 2746.93
   13:13:54.300.18-Jul-2021 4561.00 6148.87 75.69 2.00 153.66 2746.93
   13:13:54.501.18-Jul-2021 4561.00 6148.89 75.69 2.00 153.86 2746.93
   13:13:54.701.18-Jul-2021 4561.00 6149.13 75.69 2.00 154.06 2746.93
   13:13:54.901.18-Jul-2021 4561.00 6149.13 75.69 2.00 154.26 2746.93
   13:13:55.101.18-Jul-2021 4561.00 6147.41 75.69 2.00 154.46 2746.93
   13:13:55.301.18-Jul-2021 4561.00 6149.32 75.69 2.00 154.66 2746.93
   13:13:55.501.18-Jul-2021 4561.00 6149.23 75.69 2.00 154.86 2746.93
   13:13:55.701.18-Jul-2021 4561.00 6149.18 75.69 2.00 155.06 2746.93
   13:13:55.901.18-Jul-2021 4561.00 6149.18 75.69 2.00 155.26 2746.93
   13:13:56.101.18-Jul-2021 4561.00 6148.80 75.69 2.00 155.46 2746.93
   13:13:56.301.18-Jul-2021 4561.00 6149.04 75.69 2.00 155.66 2746.93
   13:13:56.501.18-Jul-2021 4561.00 6149.40 75.69 2.00 155.86 2746.93
   13:13:56.701.18-Jul-2021 4561.00 6149.82 75.69 2.00 156.06 2746.93
   13:13:56.901.18-Jul-2021 4561.00 6149.82 75.69 2.00 156.26 2746.93
   13:13:57.102.18-Jul-2021 4561.00 6150.16 75.69 2.00 156.46 2746.93
   13:13:57.302.18-Jul-2021 4561.00 6150.09 75.69 2.00 156.66 2746.93
   13:13:57.502.18-Jul-2021 4561.00 6150.56 75.69 2.00 156.86 2746.93
   13:13:57.702.18-Jul-2021 4561.00 6149.03 75.69 2.00 157.06 2746.93
   13:13:57.902.18-Jul-2021 4561.00 6149.03 75.69 2.00 157.26 2746.93
   13:13:58.102.18-Jul-2021 4561.00 6150.32 75.69 2.00 157.46 2746.93
   13:13:58.302.18-Jul-2021 4561.00 6148.62 75.69 2.00 157.66 2746.93
   13:13:58.502.18-Jul-2021 4561.00 6151.12 75.68 2.00 157.86 2746.93
   13:13:58.702.18-Jul-2021 4561.00 6149.56 75.68 2.00 158.06 2746.93
   13:13:58.902.18-Jul-2021 4561.00 6149.56 75.68 2.00 158.26 2746.93
   13:13:59.102.18-Jul-2021 4561.00 6150.95 75.68 2.00 158.46 2746.93
   13:13:59.302.18-Jul-2021 4561.00 6150.16 75.68 2.00 158.66 2746.93
   13:13:59.502.18-Jul-2021 4561.00 6149.27 75.68 2.00 158.86 2746.93
   13:13:59.702.18-Jul-2021 4561.00 6150.91 75.68 2.00 159.06 2746.93
   13:13:59.903.18-Jul-2021 4561.00 6150.91 75.68 2.00 159.26 2746.93
   13:14:00.103.18-Jul-2021 4561.00 6148.47 75.68 2.00 159.46 2746.93
   13:14:00.303.18-Jul-2021 4561.00 6151.91 75.68 2.00 159.66 2746.93
   13:14:00.503.18-Jul-2021 4561.00 6150.31 75.68 2.00 159.86 2746.93
   13:14:00.703.18-Jul-2021 4561.00 6150.50 75.68 2.00 160.06 2746.93
   13:14:00.903.18-Jul-2021 4561.00 6150.50 75.68 2.00 160.26 2746.93
   13:14:01.103.18-Jul-2021 4561.00 6150.15 75.68 2.00 160.46 2746.93
   13:14:01.303.18-Jul-2021 4561.00 6150.09 75.68 2.00 160.66 2746.93
   13:14:01.503.18-Jul-2021 4561.00 6150.72 75.68 2.00 160.86 2746.93
