~Version Information
 VERS.                  2.0:   CWLS log ASCII Standard -VERSION 2.0
 WRAP.                   NO:   One line per depth step
~Well Information Block
#MNEM.UNIT     VALUE/NAME     DESCRIPTION
#---------     -----------    ---------------------------
 STRT.S             13:27:26 19-Jul-21: START TIME 13:27:26 19-Jul-21
 STOP.S             13:34:19 19-Jul-21: STOP TIME  13:34:19 19-Jul-21
 STEP.S                   0.00: STEP TIME
 NULL.                 -999.25: NULL VALUE
 MDS .        Operator Entered:  MAG DATA SOURCE
 PDAT.          Mean Sea Level:  PERMANENT DATUM
 UNIT.                     N/A:  LOGGING EQUIPMENT ID
 DCON.         Sperry Drilling:  DIRECTNL CONTR
 DOE .                     N/A:  DOE NUMBER
 RIG .              West Azeri:  RIG NAME
 JOBN.        AZ-XX-0906997913:  JOB TICKET NUMB
 WELL.                     C41:  WELL NAME
 MWDS.                    Baku:  MWD SHOP
 SRVC.          Turan Drilling:  CONTRACTOR
 FLD .                     ACG:  FIELD NAME
 CTRY.              Azerbaijan:  COUNTRY NAME
 PROV.                    Baku:  PROVINCE
 STAT.                    Baku:  STATE NAME
 REGN.                   EESSA:  REGION
 BASE.              Azerbaijan:  LOGGING EQUIPMENT BASE LOCATION
 UWI .                     N/A:  UNIQUE WELL IDENTIFIER
 API .                     N/A:  API NUMBER
 COMP.     BP Exploration (Caspian Sea) Ltd.:  COMPANY
 WTYP.                Deviated:  WELL TYPE
 SON .        AZ-XX-0906997913:  JOB NUMBER
 FTOP.          Formation Tops:  FORM TOPS DESC
 ILTD.               Lithology:  INTERP LTH DESC
 SVYD.                  Survey:  SURVEY DESC
 DMOD.             Drill Model:  DRILL MOD DESC
 HPTY.       Minimum Curvature:  HOLE POS TYPE
 NREF.                    Grid:  NORTH REFERENCE
 SPUD.               16-May-21:  SPUD DATE
 DATE.      21.11.28 17-May-21:  END TIME
 STIM.      21.11.28 17-May-21:  START TIME
 DMF .             Drill Floor:  DRILL MEAS FROM
 DFST.                        :  DIST FSL TEXT
 DFWT.                        :  DIST FWL TEXT
 CNTY.                        :  COUNTY
 LOC .                        :  LOCATION
 LMF .             Drill Floor:  LOG MEASURED FROM
 AGAP.m                  43.42:  AIR GAP
 VSNS.m                  -2.16:  VERT SEC N/S
 VSEW.m                  -6.24:  VERT SEC E/W
 APD .m                  43.42:  DEPTH ABOVE PD
 WDMS.m                 118.27:  WD ELEV
 EGL .m                   0.00:  GROUND ELEVATION
 EPD .m                   0.00:  ELEVATION
 AZTC.deg                 6.29:  AZM TOTAL CORR
 GRDC.deg                 0.18:  GRID CORRECTION
 MDEC.deg                 6.47:  MAGNETIC DECL
 MDIP.deg                59.54:  MAGNETIC DIP
 MFLD.nT              50337.00:  MAGNETIC FIELD
 GVFD.g                   1.00:  GRAVITY FIELD
 VSDR.deg               226.99:  VERT SEC DIRECT
 TDD .m                   0.00:  TOTAL DEPTH (DRILLER)
 SDEP.m                 448.00:  START DEPTH
 DFSL.m                   0.00:  DISTANCE FSL
 DFWL.m                   0.00:  DISTANCE FWL
 UTMY.m             4435799.96:  UTM Y
 UTMX.m              526265.35:  UTM X
 WHEW.m                  -6.24:  WELL HEAD E/W
 WHNS.m                  -2.16:  WELL HEAD N/S
 LONG.deg                51.31:  LONGITUDE
 LATI.deg                40.06:  LATITUDE
 TVDS.m                  43.42:  TVDSS CORRECTN
 EKB .m                  43.42:  KB ELEVATION
 EDF .m                  43.42:  DF ELEVATION
 TDL .m                 288.00:  TOTAL DEPTH (LOGGER)
 MAGU.                 1851863:  MAGUTM CHECKSUM
 VSC .                       0:  VS TO CLOSURE
~Parameter Information Block
#MNEM.UNIT       Value        Description
#---------     -----------    ---------------------------
 AV  .mps                 0.40:  Ann Velocity 
 AVMX.mps                 0.63:  Max Ann Veloc 
 AZIF.deg               158.76:  Azm, Final 
 BHAT.        Rotary Steerable:  BHA Type 
 BROT.°/30m               0.68:  Build Rotating 
 BS  .in                  8.50:  Bit Size 
 BSZ .in                  8.50:  Bit Size 
 BTPL.psig              712.00:  Bit Press Loss 
 CABU.                      No:  Customer Abuse 
 COMM.                     „;b:  Run Comments 1 
 TCS .hr                 90.66:  Time Ciculation Ended 
 CV  .mps                 2.02:  Crit Velocity 
 CVMX.mps                 2.14:  Max Crit Veloc 
 DD1 .            Aziz Aliyevu:  Direct Drillr 1 
 DD2 .             Samir Abbas:  Direct Drillr 2 
 DD3 .           Teymur Aliyev:  Direct Drillr 3 
 DDSV.                 iCruise:  DD Service 
 DEFF.%                  85.10:  % Det Eff 
 DLRX.°/30m               1.05:  Dogleg Rot Max 
 DLSO.°/30m               1.01:  Dogleg Oriented 
 DLSX.°/30m               1.05:  Dogleg Str Max 
 DRET.      07.45.00 18-Jul-21:  Drill End Time 
 DRST.      15.00.00 16-Jul-21:  Drill Start Tim 
 DTIM.hr                 23.46:  Time Drilling 
 EDEP.m                4603.00:  End Depth 
 ENG1.       Seymur Iskandarov:  Engineer 1 
 ENG2.         Yevgeniy Ulikov:  Engineer 2 
 ENG3.         Bahruz Mehdiyev:  Engineer 3 
 ENG4.         Elchin Mammadov:  Engineer 4 
 ETIM.      14.00.00 23-Jul-21:  End Time 
 FLOI.gpm               500.00:  Flow In 
 FLON.gpm               450.00:  Flow In Min 
 FLOS.cptm                0.00:  Fluid Loss 
 FLOX.gpm               560.00:  Flow In Max 
 DFT .        Mineral Oil Base:  Mud Type 
 FTRO.       Formation Presure:  FTWD Run Obj 
 HFLO.                      No:  High Flow 
 HPRE.                      No:  High Pressure 
 HTEM.                      No:  High Temp 
 HYDO.m                   1.80:  Hydro Offset 
 IFIN.deg                40.22:  Inc, Final 
 IMAX.deg                40.54:  Inc Max 
 IMIN.deg                39.44:  Inc Min 
 IMND.m                4361.17:  Inc Min Depth 
 IMXD.m                4417.92:  Inc Max Depth 
 JARR.                      No:  Jarring 
 LETM.      07.45.00 18-Jul-21:  Log End Time 
 LOST.hr                    16:  Lost Rig Time 
 LSTM.      15.00.00 16-Jul-21:  Log Start Time 
 MDCL.ppm             36500.00:  Mud Chlorides 
 MDES.     Inversion Oil/Synthetic:  Mud Desc 
 DFD .sg                  1.42:  Mud Density 
 MDMN.sg                  1.42:  Dens Mud Min 
 MDMX.sg                  1.43:  Dens Mud Max 
 MOIL.                      56:  Run Mud Oil % 
 MOWR.                   71:29:  Run Mud OWR 
 MSND.                     0.5:  Run Mud Sand % 
 MSOL.                      21:  Run Mud Solids% 
 DFV .spqt               78.00:  Mud Viscosity 
 MWOD.in                  6.75:  MWD Tool OD 
 MWSI.                     Yes:  Serv Intrp, MWD 
 OTIM.hr                200.73:  Time Operating 
 PCON.           Look Like New:  Pad Condition 
 PMAX.psia            11069.93:  Press Op, Max 
 PV  .cP                 32.00:  Mud PV 
 RUN .                     700:  Run Number 
 ROPA.m/hr               10.00:  ROP Avg 
 ROPN.m/hr                9.00:  ROP Min 
 ROPX.m/hr               16.00:  ROP Max 
 RPMA.rpm               116.00:  RPM Surface Avg 
 RPMN.rpm                80.00:  RPM Surface Min 
 RPMX.rpm               120.00:  RPM Surface Max 
 RRUN.                    L605:  Rig Run Number 
 RTIM.hr                 45.00:  Time Reaming 
 SAZI.deg               159.86:  Azm, Start 
 SDEP.m                4315.00:  Start Depth 
 SIDD.                      No:  Serv Intrp, DD 
 SINC.deg                39.86:  Inc, Start 
 SPPA.psig             3300.00:  SPP Avg 
 SPPN.psig             3040.00:  SPP Min 
 SPPX.psig             3645.00:  SPP Max 
 STIM.      01.00.00 15-Jul-21:  Start Time 
 SVCS.                 DD, MWD:  Services 
 SVER.                    9.20:  Sperry Version 
 TDAT.m                 288.00:  Tot Depth Attmp 
 TDDF.                      No:  Trip for DD 
 TDLG.m                 288.00:  Tot Depth Loggd 
 TFF .                      No:  Trip for Fail 
 TQAA.f-kp               19.00:  Torque Abs Avg 
 TQAN.f-kp               18.00:  Torque Abs Min 
 TQAX.f-kp               21.00:  Torque Abs Max 
 TRRT.°/30m               0.45:  Turn Rotating 
 MRT .                    HCIM:  Maximum Recorded Temperature 
 TTMX.degC               88.24:  Max Tool Temp 
 VS01.                90649157:  Virtual Str1 SN 
 VS02.                90652483:  Virtual Str2 SN 
 VS03.                11671987:  Virtual Str3 SN 
 VS04.                90643411:  Virtual Str4 SN 
 VS05.                90652478:  Virtual Str5 SN 
 VS06.                    6111:  Virtual Str6 SN 
 WBMN.klb                 9.50:  WOB Min 
 WITN.        Grigoriy Sarayev:  Customer Rep 
 WITN.          Rufat Huseynov:  Customer Rep 2 
 WOBA.klb                11.00:  WOB Avg 
 WOBX.klb                15.00:  WOB Max 
 YP  .lhf2               28.00:  Yield Point 
~Curve Information Block
#MNEM.UNIT                 API CODE     Curve Description
#---------               -----------    ---------------------------
 TIME.HHMMSS            00 000 000 000:  GT Time & Date
 GTDEPTH.m              00 000 000 000:  GT Depth
 GTPQH.psia             00 000 000 000:  GT HR Quartz Pressure
 GTTQ.degC              00 000 000 000:  GT Quartz Temperature
 GTTN.NONE              00 000 000 000:  GT Test Number
 GTET.sec               00 000 000 000:  GT Elapsed Test Time
 GTTVD.m                00 000 000 000:  GT True Vertical Depth
#Other Information
#
#WARRANTY: Halliburton will use its best efforts to furnish customers with 
#accurate information and interpretations that are part of, and incident to, the services 
#provided.  However, Halliburton cannot and does not warrant the accuracy 
#or correctness of such information and interpretations.  Under no circumstances should any 
#such information or interpretation be relied upon as the sole basis for any drilling, 
#completion, production, or financial decision or any procedure involving any risk to the 
#safety of any drilling venture, drilling rig or its crew or any other third party.  The 
#Customer has full responsibility for all drilling, completion and production operation.  
#Halliburton makes no representations or warranties, either expressed or 
#implied, including, but not limited to, the implied warranties of merchantability or fitness 
#for a particular purpose, with respect to the services rendered.  In no event will 
#Halliburton be liable for failure to obtain any particular results or for 
#any damages, including, but not limited to, indirect, special or consequential damages, 
#resulting from the use of any information or interpretation provided by Halliburton.
#
~A           TIME           GTDEPTH  GTPQH  GTTQ  GTTN   GTET   GTTVD  
# ...
   13:28:34.638.19-Jul-2021 4559.00 3613.60 71.08 29.00  67.82 2745.40
   13:28:34.838.19-Jul-2021 4559.00 3613.23 71.08 29.00  68.03 2745.40
   13:28:35.038.19-Jul-2021 4559.00 3613.23 71.08 29.00  68.23 2745.40
   13:28:35.238.19-Jul-2021 4559.00 3612.64 71.08 29.00  68.43 2745.40
   13:28:35.438.19-Jul-2021 4559.00 3613.97 71.08 29.00  68.63 2745.40
   13:28:35.638.19-Jul-2021 4559.00 3613.04 71.08 29.00  68.83 2745.40
   13:28:35.838.19-Jul-2021 4559.00 3613.34 71.08 29.00  69.03 2745.40
   13:28:36.038.19-Jul-2021 4559.00 3613.34 71.08 29.00  69.23 2745.40
   13:28:36.239.19-Jul-2021 4559.00 3613.24 71.08 29.00  69.43 2745.40
   13:28:36.439.19-Jul-2021 4559.00 3613.35 71.08 29.00  69.63 2745.40
   13:28:36.639.19-Jul-2021 4559.00 3613.25 71.08 29.00  69.83 2745.40
   13:28:36.839.19-Jul-2021 4559.00 3613.32 71.08 29.00  70.03 2745.40
   13:28:37.039.19-Jul-2021 4559.00 3613.32 71.08 29.00  70.23 2745.40
   13:28:37.239.19-Jul-2021 4559.00 3613.32 71.08 29.00  70.43 2745.40
   13:28:37.439.19-Jul-2021 4559.00 3613.42 71.08 29.00  70.63 2745.40
   13:28:37.639.19-Jul-2021 4559.00 3613.30 71.08 29.00  70.83 2745.40
   13:28:37.839.19-Jul-2021 4559.00 3613.43 71.08 29.00  71.03 2745.40
   13:28:38.039.19-Jul-2021 4559.00 3613.43 71.08 29.00  71.23 2745.40
   13:28:38.239.19-Jul-2021 4559.00 3613.69 71.08 29.00  71.43 2745.40
   13:28:38.439.19-Jul-2021 4559.00 3613.11 71.08 29.00  71.63 2745.40
   13:28:38.639.19-Jul-2021 4559.00 3613.24 71.08 29.00  71.83 2745.40
   13:28:38.840.19-Jul-2021 4559.00 3613.43 71.08 29.00  72.03 2745.40
   13:28:39.040.19-Jul-2021 4559.00 3613.43 71.08 29.00  72.23 2745.40
   13:28:39.240.19-Jul-2021 4559.00 3613.36 71.08 29.00  72.43 2745.40
   13:28:39.440.19-Jul-2021 4559.00 3613.34 71.08 29.00  72.63 2745.40
   13:28:39.640.19-Jul-2021 4559.00 3613.38 71.08 29.00  72.83 2745.40
   13:28:39.840.19-Jul-2021 4559.00 3613.34 71.08 29.00  73.03 2745.40
   13:28:40.040.19-Jul-2021 4559.00 3613.34 71.08 29.00  73.23 2745.40
   13:28:40.240.19-Jul-2021 4559.00 3613.37 71.08 29.00  73.43 2745.40
   13:28:40.440.19-Jul-2021 4559.00 3613.39 71.08 29.00  73.63 2745.40
   13:28:40.640.19-Jul-2021 4559.00 3612.79 71.08 29.00  73.83 2745.40
   13:28:40.840.19-Jul-2021 4559.00 3614.09 71.08 29.00  74.03 2745.40
   13:28:41.040.19-Jul-2021 4559.00 3614.09 71.08 29.00  74.23 2745.40
   13:28:41.240.19-Jul-2021 4559.00 3613.06 71.08 29.00  74.43 2745.40
   13:28:41.440.19-Jul-2021 4559.00 3613.77 71.08 29.00  74.63 2745.40
   13:28:41.641.19-Jul-2021 4559.00 3613.30 71.08 29.00  74.83 2745.40
   13:28:41.841.19-Jul-2021 4559.00 3612.81 71.08 29.00  75.03 2745.40
   13:28:42.041.19-Jul-2021 4559.00 3612.81 71.08 29.00  75.23 2745.40
   13:28:42.241.19-Jul-2021 4559.00 3613.33 71.08 29.00  75.43 2745.40
   13:28:42.441.19-Jul-2021 4559.00 3613.21 71.08 29.00  75.63 2745.40
   13:28:42.641.19-Jul-2021 4559.00 3613.00 71.08 29.00  75.83 2745.40
   13:28:42.841.19-Jul-2021 4559.00 3613.55 71.08 29.00  76.03 2745.40
   13:28:43.041.19-Jul-2021 4559.00 3613.55 71.08 29.00  76.23 2745.40
   13:28:43.241.19-Jul-2021 4559.00 3613.52 71.08 29.00  76.43 2745.40
   13:28:43.441.19-Jul-2021 4559.00 3613.22 71.08 29.00  76.63 2745.40
   13:28:43.641.19-Jul-2021 4559.00 3613.54 71.08 29.00  76.83 2745.40
   13:28:43.841.19-Jul-2021 4559.00 3613.29 71.08 29.00  77.03 2745.40
   13:28:44.041.19-Jul-2021 4559.00 3613.29 71.08 29.00  77.23 2745.40
   13:28:44.242.19-Jul-2021 4559.00 3613.46 71.08 29.00  77.43 2745.40
   13:28:44.442.19-Jul-2021 4559.00 3613.23 71.08 29.00  77.63 2745.40
   13:28:44.642.19-Jul-2021 4559.00 3613.45 71.08 29.00  77.83 2745.40
   13:28:44.842.19-Jul-2021 4559.00 3613.39 71.08 29.00  78.03 2745.40
   13:28:45.042.19-Jul-2021 4559.00 3613.39 71.08 29.00  78.23 2745.40
   13:28:45.242.19-Jul-2021 4559.00 3613.43 71.08 29.00  78.43 2745.40
   13:28:45.442.19-Jul-2021 4559.00 3613.38 71.08 29.00  78.63 2745.40
   13:28:45.642.19-Jul-2021 4559.00 3613.43 71.08 29.00  78.83 2745.40
   13:28:45.842.19-Jul-2021 4559.00 3613.40 71.08 29.00  79.03 2745.40
   13:28:46.042.19-Jul-2021 4559.00 3613.40 71.08 29.00  79.23 2745.40
   13:28:46.242.19-Jul-2021 4559.00 3613.40 71.08 29.00  79.43 2745.40
   13:28:46.442.19-Jul-2021 4559.00 3613.06 71.09 29.00  79.63 2745.40
   13:28:46.642.19-Jul-2021 4559.00 3613.83 71.09 29.00  79.83 2745.40
   13:28:46.842.19-Jul-2021 4559.00 3613.11 71.09 29.00  80.03 2745.40
   13:28:47.043.19-Jul-2021 4559.00 3613.11 71.09 29.00  80.23 2745.40
   13:28:47.243.19-Jul-2021 4559.00 3613.36 71.09 29.00  80.43 2745.40
   13:28:47.443.19-Jul-2021 4559.00 3613.46 71.09 29.00  80.63 2745.40
   13:28:47.643.19-Jul-2021 4559.00 3613.36 71.09 29.00  80.83 2745.40
   13:28:47.843.19-Jul-2021 4559.00 3613.35 71.09 29.00  81.03 2745.40
   13:28:48.043.19-Jul-2021 4559.00 3613.35 71.09 29.00  81.23 2745.40
   13:28:48.243.19-Jul-2021 4559.00 3613.37 71.09 29.00  81.43 2745.40
   13:28:48.443.19-Jul-2021 4559.00 3613.41 71.09 29.00  81.63 2745.40
   13:28:48.643.19-Jul-2021 4559.00 3613.48 71.09 29.00  81.83 2745.40
   13:28:48.843.19-Jul-2021 4559.00 3613.37 71.09 29.00  82.03 2745.40
   13:28:49.043.19-Jul-2021 4559.00 3613.37 71.09 29.00  82.23 2745.40
   13:28:49.243.19-Jul-2021 4559.00 3613.32 71.09 29.00  82.43 2745.40
   13:28:49.443.19-Jul-2021 4559.00 3612.64 71.09 29.00  82.63 2745.40
   13:28:49.643.19-Jul-2021 4559.00 3614.10 71.09 29.00  82.83 2745.40
   13:28:49.844.19-Jul-2021 4559.00 3613.18 71.09 29.00  83.03 2745.40
   13:28:50.044.19-Jul-2021 4559.00 3613.18 71.09 29.00  83.23 2745.40
   13:28:50.244.19-Jul-2021 4559.00 3614.14 71.09 29.00  83.43 2745.40
   13:28:50.444.19-Jul-2021 4559.00 3613.07 71.09 29.00  83.63 2745.40
   13:28:50.644.19-Jul-2021 4559.00 3613.46 71.09 29.00  83.83 2745.40
   13:28:50.844.19-Jul-2021 4559.00 3612.72 71.09 29.00  84.03 2745.40
   13:28:51.044.19-Jul-2021 4559.00 3612.72 71.09 29.00  84.23 2745.40
   13:28:51.244.19-Jul-2021 4559.00 3613.12 71.09 29.00  84.43 2745.40
   13:28:51.444.19-Jul-2021 4559.00 3613.60 71.09 29.00  84.63 2745.40
   13:28:51.644.19-Jul-2021 4559.00 3613.16 71.09 29.00  84.83 2745.40
   13:28:51.844.19-Jul-2021 4559.00 3613.61 71.09 29.00  85.03 2745.40
   13:28:52.044.19-Jul-2021 4559.00 3613.61 71.09 29.00  85.23 2745.40
   13:28:52.244.19-Jul-2021 4559.00 3613.35 71.09 29.00  85.43 2745.40
   13:28:52.445.19-Jul-2021 4559.00 3613.49 71.09 29.00  85.63 2745.40
   13:28:52.645.19-Jul-2021 4559.00 3613.45 71.09 29.00  85.83 2745.40
   13:28:52.845.19-Jul-2021 4559.00 3613.32 71.09 29.00  86.03 2745.40
   13:28:53.045.19-Jul-2021 4559.00 3613.32 71.09 29.00  86.23 2745.40
   13:28:53.245.19-Jul-2021 4559.00 3613.32 71.09 29.00  86.43 2745.40
   13:28:53.445.19-Jul-2021 4559.00 3613.48 71.09 29.00  86.63 2745.40
   13:28:53.645.19-Jul-2021 4559.00 3613.45 71.09 29.00  86.83 2745.40
   13:28:53.845.19-Jul-2021 4559.00 3613.46 71.09 29.00  87.03 2745.40
   13:28:54.045.19-Jul-2021 4559.00 3613.46 71.09 29.00  87.23 2745.40
   13:28:54.245.19-Jul-2021 4559.00 3613.43 71.09 29.00  87.43 2745.40
   13:28:54.445.19-Jul-2021 4559.00 3613.53 71.09 29.00  87.63 2745.40
   13:28:54.645.19-Jul-2021 4559.00 3613.07 71.09 29.00  87.83 2745.40
   13:28:54.845.19-Jul-2021 4559.00 3613.85 71.09 29.00  88.03 2745.40
   13:28:55.045.19-Jul-2021 4559.00 3613.85 71.09 29.00  88.23 2745.40
   13:28:55.246.19-Jul-2021 4559.00 3613.66 71.09 29.00  88.43 2745.40
   13:28:55.446.19-Jul-2021 4559.00 3613.39 71.09 29.00  88.63 2745.40
   13:28:55.646.19-Jul-2021 4559.00 3613.45 71.09 29.00  88.83 2745.40
   13:28:55.846.19-Jul-2021 4559.00 3613.40 71.09 29.00  89.03 2745.40
   13:28:56.046.19-Jul-2021 4559.00 3613.40 71.09 29.00  89.23 2745.40
   13:28:56.246.19-Jul-2021 4559.00 3613.47 71.09 29.00  89.43 2745.40
   13:28:56.446.19-Jul-2021 4559.00 3613.39 71.09 29.00  89.63 2745.40
   13:28:56.646.19-Jul-2021 4559.00 3613.50 71.09 29.00  89.83 2745.40
   13:28:56.846.19-Jul-2021 4559.00 3613.44 71.09 29.00  90.03 2745.40
   13:28:57.046.19-Jul-2021 4559.00 3613.44 71.09 29.00  90.23 2745.40
