~Version Information
 VERS.                  2.0:   CWLS log ASCII Standard -VERSION 2.0
 WRAP.                   NO:   One line per depth step
~Well Information Block
#MNEM.UNIT     VALUE/NAME     DESCRIPTION
#---------     -----------    ---------------------------
 STRT.S             14:45:19 18-Jul-21: START TIME 14:45:19 18-Jul-21
 STOP.S             14:51:50 18-Jul-21: STOP TIME  14:51:50 18-Jul-21
 STEP.S                   0.00: STEP TIME
 NULL.                 -999.25: NULL VALUE
 MDS .        Operator Entered:  MAG DATA SOURCE
 PDAT.          Mean Sea Level:  PERMANENT DATUM
 UNIT.                     N/A:  LOGGING EQUIPMENT ID
 DCON.         Sperry Drilling:  DIRECTNL CONTR
 DOE .                     N/A:  DOE NUMBER
 RIG .              West Azeri:  RIG NAME
 JOBN.        AZ-XX-0906997913:  JOB TICKET NUMB
 WELL.                     C41:  WELL NAME
 MWDS.                    Baku:  MWD SHOP
 SRVC.          Turan Drilling:  CONTRACTOR
 FLD .                     ACG:  FIELD NAME
 CTRY.              Azerbaijan:  COUNTRY NAME
 PROV.                    Baku:  PROVINCE
 STAT.                    Baku:  STATE NAME
 REGN.                   EESSA:  REGION
 BASE.              Azerbaijan:  LOGGING EQUIPMENT BASE LOCATION
 UWI .                     N/A:  UNIQUE WELL IDENTIFIER
 API .                     N/A:  API NUMBER
 COMP.     BP Exploration (Caspian Sea) Ltd.:  COMPANY
 WTYP.                Deviated:  WELL TYPE
 SON .        AZ-XX-0906997913:  JOB NUMBER
 FTOP.          Formation Tops:  FORM TOPS DESC
 ILTD.               Lithology:  INTERP LTH DESC
 SVYD.                  Survey:  SURVEY DESC
 DMOD.             Drill Model:  DRILL MOD DESC
 HPTY.       Minimum Curvature:  HOLE POS TYPE
 NREF.                    Grid:  NORTH REFERENCE
 SPUD.               16-May-21:  SPUD DATE
 DATE.      21.11.28 17-May-21:  END TIME
 STIM.      21.11.28 17-May-21:  START TIME
 DMF .             Drill Floor:  DRILL MEAS FROM
 DFST.                        :  DIST FSL TEXT
 DFWT.                        :  DIST FWL TEXT
 CNTY.                        :  COUNTY
 LOC .                        :  LOCATION
 LMF .             Drill Floor:  LOG MEASURED FROM
 AGAP.m                  43.42:  AIR GAP
 VSNS.m                  -2.16:  VERT SEC N/S
 VSEW.m                  -6.24:  VERT SEC E/W
 APD .m                  43.42:  DEPTH ABOVE PD
 WDMS.m                 118.27:  WD ELEV
 EGL .m                   0.00:  GROUND ELEVATION
 EPD .m                   0.00:  ELEVATION
 AZTC.deg                 6.29:  AZM TOTAL CORR
 GRDC.deg                 0.18:  GRID CORRECTION
 MDEC.deg                 6.47:  MAGNETIC DECL
 MDIP.deg                59.54:  MAGNETIC DIP
 MFLD.nT              50337.00:  MAGNETIC FIELD
 GVFD.g                   1.00:  GRAVITY FIELD
 VSDR.deg               226.99:  VERT SEC DIRECT
 TDD .m                   0.00:  TOTAL DEPTH (DRILLER)
 SDEP.m                 448.00:  START DEPTH
 DFSL.m                   0.00:  DISTANCE FSL
 DFWL.m                   0.00:  DISTANCE FWL
 UTMY.m             4435799.96:  UTM Y
 UTMX.m              526265.35:  UTM X
 WHEW.m                  -6.24:  WELL HEAD E/W
 WHNS.m                  -2.16:  WELL HEAD N/S
 LONG.deg                51.31:  LONGITUDE
 LATI.deg                40.06:  LATITUDE
 TVDS.m                  43.42:  TVDSS CORRECTN
 EKB .m                  43.42:  KB ELEVATION
 EDF .m                  43.42:  DF ELEVATION
 TDL .m                 288.00:  TOTAL DEPTH (LOGGER)
 MAGU.                 1851863:  MAGUTM CHECKSUM
 VSC .                       0:  VS TO CLOSURE
~Parameter Information Block
#MNEM.UNIT       Value        Description
#---------     -----------    ---------------------------
 AV  .mps                 0.40:  Ann Velocity 
 AVMX.mps                 0.63:  Max Ann Veloc 
 AZIF.deg               158.76:  Azm, Final 
 BHAT.        Rotary Steerable:  BHA Type 
 BROT.°/30m               0.68:  Build Rotating 
 BS  .in                  8.50:  Bit Size 
 BSZ .in                  8.50:  Bit Size 
 BTPL.psig              712.00:  Bit Press Loss 
 CABU.                      No:  Customer Abuse 
 TCS .hr                 90.66:  Time Ciculation Ended 
 CV  .mps                 2.02:  Crit Velocity 
 CVMX.mps                 2.14:  Max Crit Veloc 
 DD1 .            Aziz Aliyevu:  Direct Drillr 1 
 DD2 .             Samir Abbas:  Direct Drillr 2 
 DD3 .           Teymur Aliyev:  Direct Drillr 3 
 DDSV.                 iCruise:  DD Service 
 DEFF.%                  85.10:  % Det Eff 
 DLRX.°/30m               1.05:  Dogleg Rot Max 
 DLSO.°/30m               1.01:  Dogleg Oriented 
 DLSX.°/30m               1.05:  Dogleg Str Max 
 DRET.      07.45.00 18-Jul-21:  Drill End Time 
 DRST.      15.00.00 16-Jul-21:  Drill Start Tim 
 DTIM.hr                 23.46:  Time Drilling 
 EDEP.m                4603.00:  End Depth 
 ENG1.       Seymur Iskandarov:  Engineer 1 
 ENG2.         Yevgeniy Ulikov:  Engineer 2 
 ENG3.         Bahruz Mehdiyev:  Engineer 3 
 ENG4.         Elchin Mammadov:  Engineer 4 
 ETIM.      14.00.00 23-Jul-21:  End Time 
 FLOI.gpm               500.00:  Flow In 
 FLON.gpm               450.00:  Flow In Min 
 FLOS.cptm                0.00:  Fluid Loss 
 FLOX.gpm               560.00:  Flow In Max 
 DFT .        Mineral Oil Base:  Mud Type 
 FTRO.       Formation Presure:  FTWD Run Obj 
 HFLO.                      No:  High Flow 
 HPRE.                      No:  High Pressure 
 HTEM.                      No:  High Temp 
 HYDO.m                   1.80:  Hydro Offset 
 IFIN.deg                40.22:  Inc, Final 
 IMAX.deg                40.54:  Inc Max 
 IMIN.deg                39.44:  Inc Min 
 IMND.m                4361.17:  Inc Min Depth 
 IMXD.m                4417.92:  Inc Max Depth 
 JARR.                      No:  Jarring 
 LETM.      07.45.00 18-Jul-21:  Log End Time 
 LOST.hr                    16:  Lost Rig Time 
 LSTM.      15.00.00 16-Jul-21:  Log Start Time 
 MDCL.ppm             36500.00:  Mud Chlorides 
 MDES.     Inversion Oil/Synthetic:  Mud Desc 
 DFD .sg                  1.42:  Mud Density 
 MDMN.sg                  1.42:  Dens Mud Min 
 MDMX.sg                  1.43:  Dens Mud Max 
 MOIL.                      56:  Run Mud Oil % 
 MOWR.                   71:29:  Run Mud OWR 
 MSND.                     0.5:  Run Mud Sand % 
 MSOL.                      21:  Run Mud Solids% 
 DFV .spqt               78.00:  Mud Viscosity 
 MWOD.in                  6.75:  MWD Tool OD 
 MWSI.                     Yes:  Serv Intrp, MWD 
 OTIM.hr                200.73:  Time Operating 
 PCON.           Look Like New:  Pad Condition 
 PMAX.psia            11069.93:  Press Op, Max 
 PV  .cP                 32.00:  Mud PV 
 RUN .                     700:  Run Number 
 ROPA.m/hr               10.00:  ROP Avg 
 ROPN.m/hr                9.00:  ROP Min 
 ROPX.m/hr               16.00:  ROP Max 
 RPMA.rpm               116.00:  RPM Surface Avg 
 RPMN.rpm                80.00:  RPM Surface Min 
 RPMX.rpm               120.00:  RPM Surface Max 
 RRUN.                    L605:  Rig Run Number 
 RTIM.hr                 45.00:  Time Reaming 
 SAZI.deg               159.86:  Azm, Start 
 SDEP.m                4315.00:  Start Depth 
 SIDD.                      No:  Serv Intrp, DD 
 SINC.deg                39.86:  Inc, Start 
 SPPA.psig             3300.00:  SPP Avg 
 SPPN.psig             3040.00:  SPP Min 
 SPPX.psig             3645.00:  SPP Max 
 STIM.      01.00.00 15-Jul-21:  Start Time 
 SVCS.                 DD, MWD:  Services 
 SVER.                    9.20:  Sperry Version 
 TDAT.m                 288.00:  Tot Depth Attmp 
 TDDF.                      No:  Trip for DD 
 TDLG.m                 288.00:  Tot Depth Loggd 
 TFF .                      No:  Trip for Fail 
 TQAA.f-kp               19.00:  Torque Abs Avg 
 TQAN.f-kp               18.00:  Torque Abs Min 
 TQAX.f-kp               21.00:  Torque Abs Max 
 TRRT.°/30m               0.45:  Turn Rotating 
 MRT .                    HCIM:  Maximum Recorded Temperature 
 TTMX.degC               88.24:  Max Tool Temp 
 VS01.                90649157:  Virtual Str1 SN 
 VS02.                90652483:  Virtual Str2 SN 
 VS03.                11671987:  Virtual Str3 SN 
 VS04.                90643411:  Virtual Str4 SN 
 VS05.                90652478:  Virtual Str5 SN 
 VS06.                    6111:  Virtual Str6 SN 
 WBMN.klb                 9.50:  WOB Min 
 WITN.        Grigoriy Sarayev:  Customer Rep 
 WITN.          Rufat Huseynov:  Customer Rep 2 
 WOBA.klb                11.00:  WOB Avg 
 WOBX.klb                15.00:  WOB Max 
 YP  .lhf2               28.00:  Yield Point 
~Curve Information Block
#MNEM.UNIT                 API CODE     Curve Description
#---------               -----------    ---------------------------
 TIME.HHMMSS            00 000 000 000:  GT Time & Date
 GTDEPTH.m              00 000 000 000:  GT Depth
 GTPQH.psia             00 000 000 000:  GT HR Quartz Pressure
 GTTQ.degC              00 000 000 000:  GT Quartz Temperature
 GTTN.NONE              00 000 000 000:  GT Test Number
 GTET.sec               00 000 000 000:  GT Elapsed Test Time
 GTTVD.m                00 000 000 000:  GT True Vertical Depth
#Other Information
#
#WARRANTY: Halliburton will use its best efforts to furnish customers with 
#accurate information and interpretations that are part of, and incident to, the services 
#provided.  However, Halliburton cannot and does not warrant the accuracy 
#or correctness of such information and interpretations.  Under no circumstances should any 
#such information or interpretation be relied upon as the sole basis for any drilling, 
#completion, production, or financial decision or any procedure involving any risk to the 
#safety of any drilling venture, drilling rig or its crew or any other third party.  The 
#Customer has full responsibility for all drilling, completion and production operation.  
#Halliburton makes no representations or warranties, either expressed or 
#implied, including, but not limited to, the implied warranties of merchantability or fitness 
#for a particular purpose, with respect to the services rendered.  In no event will 
#Halliburton be liable for failure to obtain any particular results or for 
#any damages, including, but not limited to, indirect, special or consequential damages, 
#resulting from the use of any information or interpretation provided by Halliburton.
#
~A           TIME           GTDEPTH  GTPQH  GTTQ  GTTN  GTET   GTTVD  
# ...
   14:51:27.856.18-Jul-2021 4553.00 6664.57 75.28 5.00 368.14 2740.81
   14:51:28.056.18-Jul-2021 4553.00 6664.57 75.28 5.00 368.34 2740.81
   14:51:28.256.18-Jul-2021 4553.00 6685.39 75.28 5.00 368.54 2740.81
   14:51:28.456.18-Jul-2021 4553.00 6672.81 75.28 5.00 368.74 2740.81
   14:51:28.656.18-Jul-2021 4553.00 6689.74 75.28 5.00 368.94 2740.81
   14:51:28.856.18-Jul-2021 4553.00 6667.65 75.28 5.00 369.14 2740.81
   14:51:29.056.18-Jul-2021 4553.00 6667.65 75.28 5.00 369.34 2740.81
   14:51:29.256.18-Jul-2021 4553.00 6670.45 75.28 5.00 369.54 2740.81
   14:51:29.456.18-Jul-2021 4553.00 6665.64 75.28 5.00 369.74 2740.81
   14:51:29.656.18-Jul-2021 4553.00 6665.88 75.28 5.00 369.94 2740.81
   14:51:29.857.18-Jul-2021 4553.00 6665.12 75.28 5.00 370.14 2740.81
   14:51:30.057.18-Jul-2021 4553.00 6665.12 75.28 5.00 370.34 2740.81
   14:51:30.257.18-Jul-2021 4553.00 6665.58 75.28 5.00 370.54 2740.81
   14:51:30.457.18-Jul-2021 4553.00 6665.51 75.28 5.00 370.74 2740.81
   14:51:30.657.18-Jul-2021 4553.00 6665.67 75.28 5.00 370.94 2740.81
   14:51:30.857.18-Jul-2021 4553.00 6665.81 75.28 5.00 371.14 2740.81
   14:51:31.057.18-Jul-2021 4553.00 6665.81 75.28 5.00 371.34 2740.81
   14:51:31.257.18-Jul-2021 4553.00 6666.74 75.28 5.00 371.54 2740.81
   14:51:31.457.18-Jul-2021 4553.00 6685.46 75.28 5.00 371.74 2740.81
   14:51:31.657.18-Jul-2021 4553.00 6671.62 75.28 5.00 371.94 2740.81
   14:51:31.857.18-Jul-2021 4553.00 6661.61 75.28 5.00 372.14 2740.81
   14:51:32.057.18-Jul-2021 4553.00 6661.61 75.28 5.00 372.34 2740.81
   14:51:32.257.18-Jul-2021 4553.00 6665.34 75.28 5.00 372.54 2740.81
   14:51:32.458.18-Jul-2021 4553.00 6662.03 75.28 5.00 372.74 2740.81
   14:51:32.658.18-Jul-2021 4553.00 6661.80 75.28 5.00 372.94 2740.81
   14:51:32.858.18-Jul-2021 4553.00 6662.63 75.28 5.00 373.14 2740.81
   14:51:33.058.18-Jul-2021 4553.00 6662.63 75.28 5.00 373.34 2740.81
   14:51:33.258.18-Jul-2021 4553.00 6662.45 75.28 5.00 373.54 2740.81
   14:51:33.458.18-Jul-2021 4553.00 6662.49 75.28 5.00 373.74 2740.81
   14:51:33.658.18-Jul-2021 4553.00 6664.07 75.28 5.00 373.94 2740.81
   14:51:33.858.18-Jul-2021 4553.00 6665.31 75.28 5.00 374.14 2740.81
   14:51:34.058.18-Jul-2021 4553.00 6665.31 75.28 5.00 374.34 2740.81
   14:51:34.258.18-Jul-2021 4553.00 6673.77 75.28 5.00 374.54 2740.81
   14:51:34.458.18-Jul-2021 4553.00 6664.04 75.28 5.00 374.74 2740.81
   14:51:34.658.18-Jul-2021 4553.00 6691.73 75.28 5.00 374.94 2740.81
   14:51:34.858.18-Jul-2021 4553.00 6674.02 75.28 5.00 375.14 2740.81
   14:51:35.058.18-Jul-2021 4553.00 6674.02 75.28 5.00 375.34 2740.81
   14:51:35.259.18-Jul-2021 4553.00 6691.12 75.28 5.00 375.54 2740.81
   14:51:35.459.18-Jul-2021 4553.00 6666.40 75.28 5.00 375.74 2740.81
   14:51:35.659.18-Jul-2021 4553.00 6661.34 75.28 5.00 375.94 2740.81
   14:51:35.859.18-Jul-2021 4553.00 6688.14 75.28 5.00 376.14 2740.81
   14:51:36.059.18-Jul-2021 4553.00 6688.14 75.28 5.00 376.34 2740.81
   14:51:36.259.18-Jul-2021 4553.00 6664.70 75.28 5.00 376.54 2740.81
   14:51:36.459.18-Jul-2021 4553.00 6670.69 75.28 5.00 376.74 2740.81
   14:51:36.659.18-Jul-2021 4553.00 6682.23 75.28 5.00 376.94 2740.81
   14:51:36.859.18-Jul-2021 4553.00 6674.11 75.28 5.00 377.14 2740.81
   14:51:37.059.18-Jul-2021 4553.00 6674.11 75.28 5.00 377.34 2740.81
   14:51:37.259.18-Jul-2021 4553.00 6665.22 75.28 5.00 377.54 2740.81
   14:51:37.459.18-Jul-2021 4553.00 6668.17 75.28 5.00 377.74 2740.81
   14:51:37.659.18-Jul-2021 4553.00 6663.59 75.28 5.00 377.94 2740.81
   14:51:37.860.18-Jul-2021 4553.00 6664.36 75.28 5.00 378.14 2740.81
   14:51:38.060.18-Jul-2021 4553.00 6664.36 75.28 5.00 378.34 2740.81
   14:51:38.260.18-Jul-2021 4553.00 6664.47 75.28 5.00 378.54 2740.81
   14:51:38.460.18-Jul-2021 4553.00 6664.38 75.28 5.00 378.74 2740.81
   14:51:38.660.18-Jul-2021 4553.00 6664.92 75.28 5.00 378.94 2740.81
   14:51:38.860.18-Jul-2021 4553.00 6665.24 75.28 5.00 379.14 2740.81
   14:51:39.060.18-Jul-2021 4553.00 6665.24 75.28 5.00 379.34 2740.81
   14:51:39.260.18-Jul-2021 4553.00 6665.51 75.28 5.00 379.54 2740.81
   14:51:39.460.18-Jul-2021 4553.00 6664.64 75.28 5.00 379.74 2740.81
   14:51:39.660.18-Jul-2021 4553.00 6688.33 75.28 5.00 379.94 2740.81
   14:51:39.860.18-Jul-2021 4553.00 6676.51 75.28 5.00 380.14 2740.81
   14:51:40.060.18-Jul-2021 4553.00 6676.51 75.28 5.00 380.34 2740.81
   14:51:40.260.18-Jul-2021 4553.00 6667.35 75.28 5.00 380.54 2740.81
   14:51:40.460.18-Jul-2021 4553.00 6663.37 75.28 5.00 380.74 2740.81
   14:51:40.661.18-Jul-2021 4553.00 6663.22 75.28 5.00 380.94 2740.81
   14:51:40.861.18-Jul-2021 4553.00 6663.13 75.28 5.00 381.14 2740.81
   14:51:41.061.18-Jul-2021 4553.00 6663.13 75.28 5.00 381.34 2740.81
   14:51:41.261.18-Jul-2021 4553.00 6661.46 75.28 5.00 381.54 2740.81
   14:51:41.461.18-Jul-2021 4553.00 6660.87 75.28 5.00 381.74 2740.81
   14:51:41.661.18-Jul-2021 4553.00 6661.26 75.28 5.00 381.94 2740.81
   14:51:41.861.18-Jul-2021 4553.00 6661.53 75.28 5.00 382.14 2740.81
   14:51:42.061.18-Jul-2021 4553.00 6661.53 75.28 5.00 382.34 2740.81
   14:51:42.261.18-Jul-2021 4553.00 6685.96 75.28 5.00 382.54 2740.81
   14:51:42.461.18-Jul-2021 4553.00 6674.82 75.28 5.00 382.74 2740.81
   14:51:42.661.18-Jul-2021 4553.00 6671.90 75.28 5.00 382.94 2740.81
   14:51:42.861.18-Jul-2021 4553.00 6689.50 75.28 5.00 383.14 2740.81
   14:51:43.061.18-Jul-2021 4553.00 6689.50 75.28 5.00 383.34 2740.81
   14:51:43.261.18-Jul-2021 4553.00 6688.69 75.28 5.00 383.54 2740.81
   14:51:43.462.18-Jul-2021 4553.00 6677.71 75.28 5.00 383.74 2740.81
   14:51:43.662.18-Jul-2021 4553.00 6662.80 75.28 5.00 383.94 2740.81
   14:51:43.862.18-Jul-2021 4553.00 6682.44 75.28 5.00 384.14 2740.81
   14:51:44.062.18-Jul-2021 4553.00 6682.44 75.28 5.00 384.34 2740.81
   14:51:44.262.18-Jul-2021 4553.00 6662.91 75.28 5.00 384.54 2740.81
   14:51:44.462.18-Jul-2021 4553.00 6662.43 75.28 5.00 384.74 2740.81
   14:51:44.662.18-Jul-2021 4553.00 6665.74 75.28 5.00 384.94 2740.81
   14:51:44.862.18-Jul-2021 4553.00 6662.47 75.28 5.00 385.14 2740.81
   14:51:45.062.18-Jul-2021 4553.00 6662.47 75.28 5.00 385.34 2740.81
   14:51:45.262.18-Jul-2021 4553.00 6674.47 75.28 5.00 385.54 2740.81
   14:51:45.462.18-Jul-2021 4553.00 6661.61 75.28 5.00 385.74 2740.81
   14:51:45.662.18-Jul-2021 4553.00 6668.83 75.28 5.00 385.94 2740.81
   14:51:45.862.18-Jul-2021 4553.00 6664.61 75.28 5.00 386.14 2740.81
   14:51:46.063.18-Jul-2021 4553.00 6664.61 75.28 5.00 386.34 2740.81
   14:51:46.263.18-Jul-2021 4553.00 6666.16 75.28 5.00 386.54 2740.81
   14:51:46.463.18-Jul-2021 4553.00 6665.66 75.28 5.00 386.74 2740.81
   14:51:46.663.18-Jul-2021 4553.00 6665.58 75.28 5.00 386.94 2740.81
   14:51:46.863.18-Jul-2021 4553.00 6665.65 75.28 5.00 387.14 2740.81
   14:51:47.063.18-Jul-2021 4553.00 6665.65 75.28 5.00 387.34 2740.81
   14:51:47.263.18-Jul-2021 4553.00 6665.53 75.28 5.00 387.54 2740.81
   14:51:47.463.18-Jul-2021 4553.00 6664.70 75.28 5.00 387.74 2740.81
   14:51:47.663.18-Jul-2021 4553.00 6664.36 75.28 5.00 387.94 2740.81
   14:51:47.863.18-Jul-2021 4553.00 6689.20 75.28 5.00 388.14 2740.81
   14:51:48.063.18-Jul-2021 4553.00 6689.20 75.28 5.00 388.34 2740.81
   14:51:48.263.18-Jul-2021 4553.00 6660.66 75.28 5.00 388.54 2740.81
   14:51:48.463.18-Jul-2021 4553.00 6664.38 75.28 5.00 388.74 2740.81
   14:51:48.663.18-Jul-2021 4553.00 6666.17 75.28 5.00 388.94 2740.81
   14:51:48.864.18-Jul-2021 4553.00 6661.71 75.28 5.00 389.14 2740.81
   14:51:49.064.18-Jul-2021 4553.00 6661.71 75.28 5.00 389.34 2740.81
   14:51:49.264.18-Jul-2021 4553.00 6661.91 75.28 5.00 389.54 2740.81
   14:51:49.464.18-Jul-2021 4553.00 6660.59 75.28 5.00 389.74 2740.81
   14:51:49.664.18-Jul-2021 4553.00 6660.94 75.28 5.00 389.94 2740.81
   14:51:49.864.18-Jul-2021 4553.00 6660.98 75.28 5.00 390.14 2740.81
   14:51:50.064.18-Jul-2021 4553.00 6660.98 75.28 5.00 390.34 2740.81
   14:51:50.264.18-Jul-2021 4553.00 6661.92 75.28 5.00 390.54 2740.81
   14:51:50.464.18-Jul-2021 4553.00 6688.09 75.28 5.00 390.74 2740.81
   14:51:50.664.18-Jul-2021 4553.00 6672.76 75.28 5.00 390.94 2740.81
