~Version Information
 VERS.                  2.0:   CWLS log ASCII Standard -VERSION 2.0
 WRAP.                   NO:   One line per depth step
~Well Information Block
#MNEM.UNIT     VALUE/NAME     DESCRIPTION
#---------     -----------    ---------------------------
 STRT.S             04:43:18 19-Jul-21: START TIME 04:43:18 19-Jul-21
 STOP.S             04:49:54 19-Jul-21: STOP TIME  04:49:54 19-Jul-21
 STEP.S                   0.00: STEP TIME
 NULL.                 -999.25: NULL VALUE
 MDS .        Operator Entered:  MAG DATA SOURCE
 PDAT.          Mean Sea Level:  PERMANENT DATUM
 UNIT.                     N/A:  LOGGING EQUIPMENT ID
 DCON.         Sperry Drilling:  DIRECTNL CONTR
 DOE .                     N/A:  DOE NUMBER
 RIG .              West Azeri:  RIG NAME
 JOBN.        AZ-XX-0906997913:  JOB TICKET NUMB
 WELL.                     C41:  WELL NAME
 MWDS.                    Baku:  MWD SHOP
 SRVC.          Turan Drilling:  CONTRACTOR
 FLD .                     ACG:  FIELD NAME
 CTRY.              Azerbaijan:  COUNTRY NAME
 PROV.                    Baku:  PROVINCE
 STAT.                    Baku:  STATE NAME
 REGN.                   EESSA:  REGION
 BASE.              Azerbaijan:  LOGGING EQUIPMENT BASE LOCATION
 UWI .                     N/A:  UNIQUE WELL IDENTIFIER
 API .                     N/A:  API NUMBER
 COMP.     BP Exploration (Caspian Sea) Ltd.:  COMPANY
 WTYP.                Deviated:  WELL TYPE
 SON .        AZ-XX-0906997913:  JOB NUMBER
 FTOP.          Formation Tops:  FORM TOPS DESC
 ILTD.               Lithology:  INTERP LTH DESC
 SVYD.                  Survey:  SURVEY DESC
 DMOD.             Drill Model:  DRILL MOD DESC
 HPTY.       Minimum Curvature:  HOLE POS TYPE
 NREF.                    Grid:  NORTH REFERENCE
 SPUD.               16-May-21:  SPUD DATE
 DATE.      21.11.28 17-May-21:  END TIME
 STIM.      21.11.28 17-May-21:  START TIME
 DMF .             Drill Floor:  DRILL MEAS FROM
 DFST.                        :  DIST FSL TEXT
 DFWT.                        :  DIST FWL TEXT
 CNTY.                        :  COUNTY
 LOC .                        :  LOCATION
 LMF .             Drill Floor:  LOG MEASURED FROM
 AGAP.m                  43.42:  AIR GAP
 VSNS.m                  -2.16:  VERT SEC N/S
 VSEW.m                  -6.24:  VERT SEC E/W
 APD .m                  43.42:  DEPTH ABOVE PD
 WDMS.m                 118.27:  WD ELEV
 EGL .m                   0.00:  GROUND ELEVATION
 EPD .m                   0.00:  ELEVATION
 AZTC.deg                 6.29:  AZM TOTAL CORR
 GRDC.deg                 0.18:  GRID CORRECTION
 MDEC.deg                 6.47:  MAGNETIC DECL
 MDIP.deg                59.54:  MAGNETIC DIP
 MFLD.nT              50337.00:  MAGNETIC FIELD
 GVFD.g                   1.00:  GRAVITY FIELD
 VSDR.deg               226.99:  VERT SEC DIRECT
 TDD .m                   0.00:  TOTAL DEPTH (DRILLER)
 SDEP.m                 448.00:  START DEPTH
 DFSL.m                   0.00:  DISTANCE FSL
 DFWL.m                   0.00:  DISTANCE FWL
 UTMY.m             4435799.96:  UTM Y
 UTMX.m              526265.35:  UTM X
 WHEW.m                  -6.24:  WELL HEAD E/W
 WHNS.m                  -2.16:  WELL HEAD N/S
 LONG.deg                51.31:  LONGITUDE
 LATI.deg                40.06:  LATITUDE
 TVDS.m                  43.42:  TVDSS CORRECTN
 EKB .m                  43.42:  KB ELEVATION
 EDF .m                  43.42:  DF ELEVATION
 TDL .m                 288.00:  TOTAL DEPTH (LOGGER)
 MAGU.                 1851863:  MAGUTM CHECKSUM
 VSC .                       0:  VS TO CLOSURE
~Parameter Information Block
#MNEM.UNIT       Value        Description
#---------     -----------    ---------------------------
 AV  .mps                 0.40:  Ann Velocity 
 AVMX.mps                 0.63:  Max Ann Veloc 
 AZIF.deg               158.76:  Azm, Final 
 BHAT.        Rotary Steerable:  BHA Type 
 BROT.°/30m               0.68:  Build Rotating 
 BS  .in                  8.50:  Bit Size 
 BSZ .in                  8.50:  Bit Size 
 BTPL.psig              712.00:  Bit Press Loss 
 CABU.                      No:  Customer Abuse 
 COMM.                     ”™f:  Run Comments 1 
 TCS .hr                 90.66:  Time Ciculation Ended 
 CV  .mps                 2.02:  Crit Velocity 
 CVMX.mps                 2.14:  Max Crit Veloc 
 DD1 .            Aziz Aliyevu:  Direct Drillr 1 
 DD2 .             Samir Abbas:  Direct Drillr 2 
 DD3 .           Teymur Aliyev:  Direct Drillr 3 
 DDSV.                 iCruise:  DD Service 
 DEFF.%                  85.10:  % Det Eff 
 DLRX.°/30m               1.05:  Dogleg Rot Max 
 DLSO.°/30m               1.01:  Dogleg Oriented 
 DLSX.°/30m               1.05:  Dogleg Str Max 
 DRET.      07.45.00 18-Jul-21:  Drill End Time 
 DRST.      15.00.00 16-Jul-21:  Drill Start Tim 
 DTIM.hr                 23.46:  Time Drilling 
 EDEP.m                4603.00:  End Depth 
 ENG1.       Seymur Iskandarov:  Engineer 1 
 ENG2.         Yevgeniy Ulikov:  Engineer 2 
 ENG3.         Bahruz Mehdiyev:  Engineer 3 
 ENG4.         Elchin Mammadov:  Engineer 4 
 ETIM.      14.00.00 23-Jul-21:  End Time 
 FLOI.gpm               500.00:  Flow In 
 FLON.gpm               450.00:  Flow In Min 
 FLOS.cptm                0.00:  Fluid Loss 
 FLOX.gpm               560.00:  Flow In Max 
 DFT .        Mineral Oil Base:  Mud Type 
 FTRO.       Formation Presure:  FTWD Run Obj 
 HFLO.                      No:  High Flow 
 HPRE.                      No:  High Pressure 
 HTEM.                      No:  High Temp 
 HYDO.m                   1.80:  Hydro Offset 
 IFIN.deg                40.22:  Inc, Final 
 IMAX.deg                40.54:  Inc Max 
 IMIN.deg                39.44:  Inc Min 
 IMND.m                4361.17:  Inc Min Depth 
 IMXD.m                4417.92:  Inc Max Depth 
 JARR.                      No:  Jarring 
 LETM.      07.45.00 18-Jul-21:  Log End Time 
 LOST.hr                    16:  Lost Rig Time 
 LSTM.      15.00.00 16-Jul-21:  Log Start Time 
 MDCL.ppm             36500.00:  Mud Chlorides 
 MDES.     Inversion Oil/Synthetic:  Mud Desc 
 DFD .sg                  1.42:  Mud Density 
 MDMN.sg                  1.42:  Dens Mud Min 
 MDMX.sg                  1.43:  Dens Mud Max 
 MOIL.                      56:  Run Mud Oil % 
 MOWR.                   71:29:  Run Mud OWR 
 MSND.                     0.5:  Run Mud Sand % 
 MSOL.                      21:  Run Mud Solids% 
 DFV .spqt               78.00:  Mud Viscosity 
 MWOD.in                  6.75:  MWD Tool OD 
 MWSI.                     Yes:  Serv Intrp, MWD 
 OTIM.hr                200.73:  Time Operating 
 PCON.           Look Like New:  Pad Condition 
 PMAX.psia            11069.93:  Press Op, Max 
 PV  .cP                 32.00:  Mud PV 
 RUN .                     700:  Run Number 
 ROPA.m/hr               10.00:  ROP Avg 
 ROPN.m/hr                9.00:  ROP Min 
 ROPX.m/hr               16.00:  ROP Max 
 RPMA.rpm               116.00:  RPM Surface Avg 
 RPMN.rpm                80.00:  RPM Surface Min 
 RPMX.rpm               120.00:  RPM Surface Max 
 RRUN.                    L605:  Rig Run Number 
 RTIM.hr                 45.00:  Time Reaming 
 SAZI.deg               159.86:  Azm, Start 
 SDEP.m                4315.00:  Start Depth 
 SIDD.                      No:  Serv Intrp, DD 
 SINC.deg                39.86:  Inc, Start 
 SPPA.psig             3300.00:  SPP Avg 
 SPPN.psig             3040.00:  SPP Min 
 SPPX.psig             3645.00:  SPP Max 
 STIM.      01.00.00 15-Jul-21:  Start Time 
 SVCS.                 DD, MWD:  Services 
 SVER.                    9.20:  Sperry Version 
 TDAT.m                 288.00:  Tot Depth Attmp 
 TDDF.                      No:  Trip for DD 
 TDLG.m                 288.00:  Tot Depth Loggd 
 TFF .                      No:  Trip for Fail 
 TQAA.f-kp               19.00:  Torque Abs Avg 
 TQAN.f-kp               18.00:  Torque Abs Min 
 TQAX.f-kp               21.00:  Torque Abs Max 
 TRRT.°/30m               0.45:  Turn Rotating 
 MRT .                    HCIM:  Maximum Recorded Temperature 
 TTMX.degC               88.24:  Max Tool Temp 
 VS01.                90649157:  Virtual Str1 SN 
 VS02.                90652483:  Virtual Str2 SN 
 VS03.                11671987:  Virtual Str3 SN 
 VS04.                90643411:  Virtual Str4 SN 
 VS05.                90652478:  Virtual Str5 SN 
 VS06.                    6111:  Virtual Str6 SN 
 WBMN.klb                 9.50:  WOB Min 
 WITN.        Grigoriy Sarayev:  Customer Rep 
 WITN.          Rufat Huseynov:  Customer Rep 2 
 WOBA.klb                11.00:  WOB Avg 
 WOBX.klb                15.00:  WOB Max 
 YP  .lhf2               28.00:  Yield Point 
~Curve Information Block
#MNEM.UNIT                 API CODE     Curve Description
#---------               -----------    ---------------------------
 TIME.HHMMSS            00 000 000 000:  GT Time & Date
 GTDEPTH.m              00 000 000 000:  GT Depth
 GTPQH.psia             00 000 000 000:  GT HR Quartz Pressure
 GTTQ.degC              00 000 000 000:  GT Quartz Temperature
 GTTN.NONE              00 000 000 000:  GT Test Number
 GTET.sec               00 000 000 000:  GT Elapsed Test Time
 GTTVD.m                00 000 000 000:  GT True Vertical Depth
#Other Information
#
#WARRANTY: Halliburton will use its best efforts to furnish customers with 
#accurate information and interpretations that are part of, and incident to, the services 
#provided.  However, Halliburton cannot and does not warrant the accuracy 
#or correctness of such information and interpretations.  Under no circumstances should any 
#such information or interpretation be relied upon as the sole basis for any drilling, 
#completion, production, or financial decision or any procedure involving any risk to the 
#safety of any drilling venture, drilling rig or its crew or any other third party.  The 
#Customer has full responsibility for all drilling, completion and production operation.  
#Halliburton makes no representations or warranties, either expressed or 
#implied, including, but not limited to, the implied warranties of merchantability or fitness 
#for a particular purpose, with respect to the services rendered.  In no event will 
#Halliburton be liable for failure to obtain any particular results or for 
#any damages, including, but not limited to, indirect, special or consequential damages, 
#resulting from the use of any information or interpretation provided by Halliburton.
#
~A           TIME           GTDEPTH  GTPQH  GTTQ  GTTN   GTET   GTTVD  
# ...
   04:45:11.275.19-Jul-2021 4355.50 1349.48 68.64 11.00 113.04 2589.71
   04:45:11.475.19-Jul-2021 4355.50 1349.48 68.64 11.00 113.24 2589.71
   04:45:11.675.19-Jul-2021 4355.50 1352.28 68.64 11.00 113.44 2589.71
   04:45:11.875.19-Jul-2021 4355.50 1354.32 68.64 11.00 113.64 2589.71
   04:45:12.075.19-Jul-2021 4355.50 1355.22 68.64 11.00 113.84 2589.71
   04:45:12.275.19-Jul-2021 4355.50 1356.68 68.64 11.00 114.04 2589.71
   04:45:12.475.19-Jul-2021 4355.50 1356.68 68.64 11.00 114.24 2589.71
   04:45:12.675.19-Jul-2021 4355.50 1359.09 68.64 11.00 114.44 2589.71
   04:45:12.876.19-Jul-2021 4355.50 1360.29 68.64 11.00 114.64 2589.71
   04:45:13.076.19-Jul-2021 4355.50 1361.45 68.64 11.00 114.84 2589.71
   04:45:13.276.19-Jul-2021 4355.50 1362.50 68.64 11.00 115.04 2589.71
   04:45:13.476.19-Jul-2021 4355.50 1362.50 68.64 11.00 115.24 2589.71
   04:45:13.676.19-Jul-2021 4355.50 1362.50 68.64 11.00 115.44 2589.71
   04:45:13.876.19-Jul-2021 4355.50 1363.75 68.64 11.00 115.64 2589.71
   04:45:14.076.19-Jul-2021 4355.50 1364.23 68.64 11.00 115.84 2589.71
   04:45:14.276.19-Jul-2021 4355.50 1366.18 68.64 11.00 116.04 2589.71
   04:45:14.476.19-Jul-2021 4355.50 1366.18 68.64 11.00 116.24 2589.71
   04:45:14.676.19-Jul-2021 4355.50 1368.11 68.64 11.00 116.44 2589.71
   04:45:14.876.19-Jul-2021 4355.50 1368.88 68.64 11.00 116.64 2589.71
   04:45:15.076.19-Jul-2021 4355.50 1370.49 68.64 11.00 116.84 2589.71
   04:45:15.276.19-Jul-2021 4355.50 1371.98 68.64 11.00 117.04 2589.71
   04:45:15.476.19-Jul-2021 4355.50 1371.98 68.64 11.00 117.24 2589.71
   04:45:15.677.19-Jul-2021 4355.50 1374.52 68.64 11.00 117.44 2589.71
   04:45:15.877.19-Jul-2021 4355.50 1375.91 68.64 11.00 117.64 2589.71
   04:45:16.077.19-Jul-2021 4355.50 1377.88 68.64 11.00 117.84 2589.71
   04:45:16.277.19-Jul-2021 4355.50 1378.14 68.64 11.00 118.04 2589.71
   04:45:16.477.19-Jul-2021 4355.50 1378.14 68.64 11.00 118.24 2589.71
   04:45:16.677.19-Jul-2021 4355.50 1382.14 68.64 11.00 118.44 2589.71
   04:45:16.877.19-Jul-2021 4355.50 1384.57 68.64 11.00 118.64 2589.71
   04:45:17.077.19-Jul-2021 4355.50 1385.73 68.64 11.00 118.84 2589.71
   04:45:17.277.19-Jul-2021 4355.50 1387.34 68.65 11.00 119.04 2589.71
   04:45:17.477.19-Jul-2021 4355.50 1387.34 68.65 11.00 119.24 2589.71
   04:45:17.677.19-Jul-2021 4355.50 1390.00 68.65 11.00 119.44 2589.71
   04:45:17.877.19-Jul-2021 4355.50 1391.31 68.65 11.00 119.64 2589.71
   04:45:18.077.19-Jul-2021 4355.50 1392.44 68.65 11.00 119.84 2589.71
   04:45:18.278.19-Jul-2021 4355.50 1393.76 68.65 11.00 120.04 2589.71
   04:45:18.478.19-Jul-2021 4355.50 1393.76 68.65 11.00 120.24 2589.71
   04:45:18.678.19-Jul-2021 4355.50 1393.76 68.65 11.00 120.44 2589.71
   04:45:18.878.19-Jul-2021 4355.50 1397.30 68.65 11.00 120.64 2589.71
   04:45:19.078.19-Jul-2021 4355.50 1396.63 68.65 11.00 120.84 2589.71
   04:45:19.278.19-Jul-2021 4355.50 1397.28 68.65 11.00 121.04 2589.71
   04:45:19.478.19-Jul-2021 4355.50 1397.28 68.65 11.00 121.24 2589.71
   04:45:19.678.19-Jul-2021 4355.50 1400.62 68.65 11.00 121.44 2589.71
   04:45:19.878.19-Jul-2021 4355.50 1401.44 68.65 11.00 121.64 2589.71
   04:45:20.078.19-Jul-2021 4355.50 1402.73 68.65 11.00 121.84 2589.71
   04:45:20.278.19-Jul-2021 4355.50 1403.85 68.65 11.00 122.04 2589.71
   04:45:20.478.19-Jul-2021 4355.50 1403.85 68.65 11.00 122.25 2589.71
   04:45:20.678.19-Jul-2021 4355.50 1406.08 68.65 11.00 122.45 2589.71
   04:45:20.878.19-Jul-2021 4355.50 1407.19 68.65 11.00 122.65 2589.71
   04:45:21.079.19-Jul-2021 4355.50 1408.19 68.65 11.00 122.85 2589.71
   04:45:21.279.19-Jul-2021 4355.50 1409.24 68.65 11.00 123.05 2589.71
   04:45:21.479.19-Jul-2021 4355.50 1409.24 68.65 11.00 123.25 2589.71
   04:45:21.679.19-Jul-2021 4355.50 1408.67 68.65 11.00 123.45 2589.71
   04:45:21.879.19-Jul-2021 4355.50 1410.50 68.65 11.00 123.65 2589.71
   04:45:22.079.19-Jul-2021 4355.50 1410.97 68.65 11.00 123.85 2589.71
   04:45:22.279.19-Jul-2021 4355.50 1412.74 68.65 11.00 124.05 2589.71
   04:45:22.479.19-Jul-2021 4355.50 1412.74 68.65 11.00 124.25 2589.71
   04:45:22.679.19-Jul-2021 4355.50 1416.35 68.65 11.00 124.45 2589.71
   04:45:22.879.19-Jul-2021 4355.50 1415.80 68.65 11.00 124.65 2589.71
   04:45:23.079.19-Jul-2021 4355.50 1417.89 68.65 11.00 124.85 2589.71
   04:45:23.279.19-Jul-2021 4355.50 1419.76 68.65 11.00 125.05 2589.71
   04:45:23.479.19-Jul-2021 4355.50 1419.76 68.65 11.00 125.25 2589.71
   04:45:23.680.19-Jul-2021 4355.50 1421.43 68.65 11.00 125.45 2589.71
   04:45:23.880.19-Jul-2021 4355.50 1422.85 68.65 11.00 125.65 2589.71
   04:45:24.080.19-Jul-2021 4355.50 1424.93 68.65 11.00 125.85 2589.71
   04:45:24.280.19-Jul-2021 4355.50 1425.38 68.65 11.00 126.05 2589.71
   04:45:24.480.19-Jul-2021 4355.50 1425.38 68.65 11.00 126.25 2589.71
   04:45:24.680.19-Jul-2021 4355.50 1428.67 68.65 11.00 126.45 2589.71
   04:45:24.880.19-Jul-2021 4355.50 1430.90 68.65 11.00 126.65 2589.71
   04:45:25.080.19-Jul-2021 4355.50 1432.43 68.65 11.00 126.85 2589.71
   04:45:25.280.19-Jul-2021 4355.50 1434.06 68.65 11.00 127.05 2589.71
   04:45:25.480.19-Jul-2021 4355.50 1434.06 68.65 11.00 127.25 2589.71
   04:45:25.680.19-Jul-2021 4355.50 1437.08 68.65 11.00 127.45 2589.71
   04:45:25.880.19-Jul-2021 4355.50 1438.42 68.65 11.00 127.65 2589.71
   04:45:26.080.19-Jul-2021 4355.50 1439.73 68.65 11.00 127.85 2589.71
   04:45:26.280.19-Jul-2021 4355.50 1440.87 68.65 11.00 128.05 2589.71
   04:45:26.481.19-Jul-2021 4355.50 1440.87 68.65 11.00 128.25 2589.71
   04:45:26.681.19-Jul-2021 4355.50 1443.14 68.65 11.00 128.45 2589.71
   04:45:26.881.19-Jul-2021 4355.50 1444.33 68.65 11.00 128.65 2589.71
   04:45:27.081.19-Jul-2021 4355.50 1443.04 68.65 11.00 128.85 2589.71
   04:45:27.281.19-Jul-2021 4355.50 1444.15 68.65 11.00 129.05 2589.71
   04:45:27.481.19-Jul-2021 4355.50 1444.15 68.65 11.00 129.25 2589.71
   04:45:27.681.19-Jul-2021 4355.50 1447.48 68.65 11.00 129.45 2589.71
   04:45:27.881.19-Jul-2021 4355.50 1448.47 68.65 11.00 129.65 2589.71
   04:45:28.081.19-Jul-2021 4355.50 1449.79 68.65 11.00 129.85 2589.71
   04:45:28.281.19-Jul-2021 4355.50 1450.94 68.65 11.00 130.05 2589.71
   04:45:28.481.19-Jul-2021 4355.50 1450.94 68.65 11.00 130.25 2589.71
   04:45:28.681.19-Jul-2021 4355.50 1453.27 68.65 11.00 130.45 2589.71
   04:45:28.881.19-Jul-2021 4355.50 1454.42 68.65 11.00 130.65 2589.71
   04:45:29.081.19-Jul-2021 4355.50 1455.43 68.65 11.00 130.85 2589.71
   04:45:29.282.19-Jul-2021 4355.50 1456.60 68.65 11.00 131.05 2589.71
   04:45:29.482.19-Jul-2021 4355.50 1456.60 68.65 11.00 131.25 2589.71
   04:45:29.682.19-Jul-2021 4355.50 1456.64 68.66 11.00 131.45 2589.71
   04:45:29.882.19-Jul-2021 4355.50 1457.20 68.66 11.00 131.65 2589.71
   04:45:30.082.19-Jul-2021 4355.50 1458.89 68.66 11.00 131.85 2589.71
   04:45:30.282.19-Jul-2021 4355.50 1458.39 68.66 11.00 132.05 2589.71
   04:45:30.482.19-Jul-2021 4355.50 1458.39 68.66 11.00 132.25 2589.71
   04:45:30.682.19-Jul-2021 4355.50 1462.08 68.66 11.00 132.45 2589.71
   04:45:30.882.19-Jul-2021 4355.50 1462.41 68.66 11.00 132.65 2589.71
   04:45:31.082.19-Jul-2021 4355.50 1463.37 68.66 11.00 132.85 2589.71
   04:45:31.282.19-Jul-2021 4355.50 1465.24 68.66 11.00 133.05 2589.71
   04:45:31.482.19-Jul-2021 4355.50 1465.24 68.66 11.00 133.25 2589.71
   04:45:31.682.19-Jul-2021 4355.50 1468.09 68.66 11.00 133.45 2589.71
   04:45:31.883.19-Jul-2021 4355.50 1469.23 68.66 11.00 133.65 2589.71
   04:45:32.083.19-Jul-2021 4355.50 1468.41 68.66 11.00 133.85 2589.71
   04:45:32.283.19-Jul-2021 4355.50 1470.19 68.66 11.00 134.05 2589.71
   04:45:32.483.19-Jul-2021 4355.50 1470.19 68.66 11.00 134.25 2589.71
   04:45:32.683.19-Jul-2021 4355.50 1471.31 68.66 11.00 134.45 2589.71
   04:45:32.883.19-Jul-2021 4355.50 1472.49 68.66 11.00 134.65 2589.71
   04:45:33.083.19-Jul-2021 4355.50 1474.85 68.66 11.00 134.85 2589.71
   04:45:33.283.19-Jul-2021 4355.50 1476.25 68.66 11.00 135.05 2589.71
   04:45:33.483.19-Jul-2021 4355.50 1476.25 68.66 11.00 135.25 2589.71
   04:45:33.683.19-Jul-2021 4355.50 1476.25 68.66 11.00 135.45 2589.71
