~Version Information
 VERS.                  2.0:   CWLS log ASCII Standard -VERSION 2.0
 WRAP.                   NO:   One line per depth step
~Well Information Block
#MNEM.UNIT     VALUE/NAME     DESCRIPTION
#---------     -----------    ---------------------------
 STRT.S             13:27:26 19-Jul-21: START TIME 13:27:26 19-Jul-21
 STOP.S             13:34:19 19-Jul-21: STOP TIME  13:34:19 19-Jul-21
 STEP.S                   0.00: STEP TIME
 NULL.                 -999.25: NULL VALUE
 MDS .        Operator Entered:  MAG DATA SOURCE
 PDAT.          Mean Sea Level:  PERMANENT DATUM
 UNIT.                     N/A:  LOGGING EQUIPMENT ID
 DCON.         Sperry Drilling:  DIRECTNL CONTR
 DOE .                     N/A:  DOE NUMBER
 RIG .              West Azeri:  RIG NAME
 JOBN.        AZ-XX-0906997913:  JOB TICKET NUMB
 WELL.                     C41:  WELL NAME
 MWDS.                    Baku:  MWD SHOP
 SRVC.          Turan Drilling:  CONTRACTOR
 FLD .                     ACG:  FIELD NAME
 CTRY.              Azerbaijan:  COUNTRY NAME
 PROV.                    Baku:  PROVINCE
 STAT.                    Baku:  STATE NAME
 REGN.                   EESSA:  REGION
 BASE.              Azerbaijan:  LOGGING EQUIPMENT BASE LOCATION
 UWI .                     N/A:  UNIQUE WELL IDENTIFIER
 API .                     N/A:  API NUMBER
 COMP.     BP Exploration (Caspian Sea) Ltd.:  COMPANY
 WTYP.                Deviated:  WELL TYPE
 SON .        AZ-XX-0906997913:  JOB NUMBER
 FTOP.          Formation Tops:  FORM TOPS DESC
 ILTD.               Lithology:  INTERP LTH DESC
 SVYD.                  Survey:  SURVEY DESC
 DMOD.             Drill Model:  DRILL MOD DESC
 HPTY.       Minimum Curvature:  HOLE POS TYPE
 NREF.                    Grid:  NORTH REFERENCE
 SPUD.               16-May-21:  SPUD DATE
 DATE.      21.11.28 17-May-21:  END TIME
 STIM.      21.11.28 17-May-21:  START TIME
 DMF .             Drill Floor:  DRILL MEAS FROM
 DFST.                        :  DIST FSL TEXT
 DFWT.                        :  DIST FWL TEXT
 CNTY.                        :  COUNTY
 LOC .                        :  LOCATION
 LMF .             Drill Floor:  LOG MEASURED FROM
 AGAP.m                  43.42:  AIR GAP
 VSNS.m                  -2.16:  VERT SEC N/S
 VSEW.m                  -6.24:  VERT SEC E/W
 APD .m                  43.42:  DEPTH ABOVE PD
 WDMS.m                 118.27:  WD ELEV
 EGL .m                   0.00:  GROUND ELEVATION
 EPD .m                   0.00:  ELEVATION
 AZTC.deg                 6.29:  AZM TOTAL CORR
 GRDC.deg                 0.18:  GRID CORRECTION
 MDEC.deg                 6.47:  MAGNETIC DECL
 MDIP.deg                59.54:  MAGNETIC DIP
 MFLD.nT              50337.00:  MAGNETIC FIELD
 GVFD.g                   1.00:  GRAVITY FIELD
 VSDR.deg               226.99:  VERT SEC DIRECT
 TDD .m                   0.00:  TOTAL DEPTH (DRILLER)
 SDEP.m                 448.00:  START DEPTH
 DFSL.m                   0.00:  DISTANCE FSL
 DFWL.m                   0.00:  DISTANCE FWL
 UTMY.m             4435799.96:  UTM Y
 UTMX.m              526265.35:  UTM X
 WHEW.m                  -6.24:  WELL HEAD E/W
 WHNS.m                  -2.16:  WELL HEAD N/S
 LONG.deg                51.31:  LONGITUDE
 LATI.deg                40.06:  LATITUDE
 TVDS.m                  43.42:  TVDSS CORRECTN
 EKB .m                  43.42:  KB ELEVATION
 EDF .m                  43.42:  DF ELEVATION
 TDL .m                 288.00:  TOTAL DEPTH (LOGGER)
 MAGU.                 1851863:  MAGUTM CHECKSUM
 VSC .                       0:  VS TO CLOSURE
~Parameter Information Block
#MNEM.UNIT       Value        Description
#---------     -----------    ---------------------------
 AV  .mps                 0.40:  Ann Velocity 
 AVMX.mps                 0.63:  Max Ann Veloc 
 AZIF.deg               158.76:  Azm, Final 
 BHAT.        Rotary Steerable:  BHA Type 
 BROT.°/30m               0.68:  Build Rotating 
 BS  .in                  8.50:  Bit Size 
 BSZ .in                  8.50:  Bit Size 
 BTPL.psig              712.00:  Bit Press Loss 
 CABU.                      No:  Customer Abuse 
 COMM.                     „;b:  Run Comments 1 
 TCS .hr                 90.66:  Time Ciculation Ended 
 CV  .mps                 2.02:  Crit Velocity 
 CVMX.mps                 2.14:  Max Crit Veloc 
 DD1 .            Aziz Aliyevu:  Direct Drillr 1 
 DD2 .             Samir Abbas:  Direct Drillr 2 
 DD3 .           Teymur Aliyev:  Direct Drillr 3 
 DDSV.                 iCruise:  DD Service 
 DEFF.%                  85.10:  % Det Eff 
 DLRX.°/30m               1.05:  Dogleg Rot Max 
 DLSO.°/30m               1.01:  Dogleg Oriented 
 DLSX.°/30m               1.05:  Dogleg Str Max 
 DRET.      07.45.00 18-Jul-21:  Drill End Time 
 DRST.      15.00.00 16-Jul-21:  Drill Start Tim 
 DTIM.hr                 23.46:  Time Drilling 
 EDEP.m                4603.00:  End Depth 
 ENG1.       Seymur Iskandarov:  Engineer 1 
 ENG2.         Yevgeniy Ulikov:  Engineer 2 
 ENG3.         Bahruz Mehdiyev:  Engineer 3 
 ENG4.         Elchin Mammadov:  Engineer 4 
 ETIM.      14.00.00 23-Jul-21:  End Time 
 FLOI.gpm               500.00:  Flow In 
 FLON.gpm               450.00:  Flow In Min 
 FLOS.cptm                0.00:  Fluid Loss 
 FLOX.gpm               560.00:  Flow In Max 
 DFT .        Mineral Oil Base:  Mud Type 
 FTRO.       Formation Presure:  FTWD Run Obj 
 HFLO.                      No:  High Flow 
 HPRE.                      No:  High Pressure 
 HTEM.                      No:  High Temp 
 HYDO.m                   1.80:  Hydro Offset 
 IFIN.deg                40.22:  Inc, Final 
 IMAX.deg                40.54:  Inc Max 
 IMIN.deg                39.44:  Inc Min 
 IMND.m                4361.17:  Inc Min Depth 
 IMXD.m                4417.92:  Inc Max Depth 
 JARR.                      No:  Jarring 
 LETM.      07.45.00 18-Jul-21:  Log End Time 
 LOST.hr                    16:  Lost Rig Time 
 LSTM.      15.00.00 16-Jul-21:  Log Start Time 
 MDCL.ppm             36500.00:  Mud Chlorides 
 MDES.     Inversion Oil/Synthetic:  Mud Desc 
 DFD .sg                  1.42:  Mud Density 
 MDMN.sg                  1.42:  Dens Mud Min 
 MDMX.sg                  1.43:  Dens Mud Max 
 MOIL.                      56:  Run Mud Oil % 
 MOWR.                   71:29:  Run Mud OWR 
 MSND.                     0.5:  Run Mud Sand % 
 MSOL.                      21:  Run Mud Solids% 
 DFV .spqt               78.00:  Mud Viscosity 
 MWOD.in                  6.75:  MWD Tool OD 
 MWSI.                     Yes:  Serv Intrp, MWD 
 OTIM.hr                200.73:  Time Operating 
 PCON.           Look Like New:  Pad Condition 
 PMAX.psia            11069.93:  Press Op, Max 
 PV  .cP                 32.00:  Mud PV 
 RUN .                     700:  Run Number 
 ROPA.m/hr               10.00:  ROP Avg 
 ROPN.m/hr                9.00:  ROP Min 
 ROPX.m/hr               16.00:  ROP Max 
 RPMA.rpm               116.00:  RPM Surface Avg 
 RPMN.rpm                80.00:  RPM Surface Min 
 RPMX.rpm               120.00:  RPM Surface Max 
 RRUN.                    L605:  Rig Run Number 
 RTIM.hr                 45.00:  Time Reaming 
 SAZI.deg               159.86:  Azm, Start 
 SDEP.m                4315.00:  Start Depth 
 SIDD.                      No:  Serv Intrp, DD 
 SINC.deg                39.86:  Inc, Start 
 SPPA.psig             3300.00:  SPP Avg 
 SPPN.psig             3040.00:  SPP Min 
 SPPX.psig             3645.00:  SPP Max 
 STIM.      01.00.00 15-Jul-21:  Start Time 
 SVCS.                 DD, MWD:  Services 
 SVER.                    9.20:  Sperry Version 
 TDAT.m                 288.00:  Tot Depth Attmp 
 TDDF.                      No:  Trip for DD 
 TDLG.m                 288.00:  Tot Depth Loggd 
 TFF .                      No:  Trip for Fail 
 TQAA.f-kp               19.00:  Torque Abs Avg 
 TQAN.f-kp               18.00:  Torque Abs Min 
 TQAX.f-kp               21.00:  Torque Abs Max 
 TRRT.°/30m               0.45:  Turn Rotating 
 MRT .                    HCIM:  Maximum Recorded Temperature 
 TTMX.degC               88.24:  Max Tool Temp 
 VS01.                90649157:  Virtual Str1 SN 
 VS02.                90652483:  Virtual Str2 SN 
 VS03.                11671987:  Virtual Str3 SN 
 VS04.                90643411:  Virtual Str4 SN 
 VS05.                90652478:  Virtual Str5 SN 
 VS06.                    6111:  Virtual Str6 SN 
 WBMN.klb                 9.50:  WOB Min 
 WITN.        Grigoriy Sarayev:  Customer Rep 
 WITN.          Rufat Huseynov:  Customer Rep 2 
 WOBA.klb                11.00:  WOB Avg 
 WOBX.klb                15.00:  WOB Max 
 YP  .lhf2               28.00:  Yield Point 
~Curve Information Block
#MNEM.UNIT                 API CODE     Curve Description
#---------               -----------    ---------------------------
 TIME.HHMMSS            00 000 000 000:  GT Time & Date
 GTDEPTH.m              00 000 000 000:  GT Depth
 GTPQH.psia             00 000 000 000:  GT HR Quartz Pressure
 GTTQ.degC              00 000 000 000:  GT Quartz Temperature
 GTTN.NONE              00 000 000 000:  GT Test Number
 GTET.sec               00 000 000 000:  GT Elapsed Test Time
 GTTVD.m                00 000 000 000:  GT True Vertical Depth
#Other Information
#
#WARRANTY: Halliburton will use its best efforts to furnish customers with 
#accurate information and interpretations that are part of, and incident to, the services 
#provided.  However, Halliburton cannot and does not warrant the accuracy 
#or correctness of such information and interpretations.  Under no circumstances should any 
#such information or interpretation be relied upon as the sole basis for any drilling, 
#completion, production, or financial decision or any procedure involving any risk to the 
#safety of any drilling venture, drilling rig or its crew or any other third party.  The 
#Customer has full responsibility for all drilling, completion and production operation.  
#Halliburton makes no representations or warranties, either expressed or 
#implied, including, but not limited to, the implied warranties of merchantability or fitness 
#for a particular purpose, with respect to the services rendered.  In no event will 
#Halliburton be liable for failure to obtain any particular results or for 
#any damages, including, but not limited to, indirect, special or consequential damages, 
#resulting from the use of any information or interpretation provided by Halliburton.
#
~A           TIME           GTDEPTH  GTPQH  GTTQ  GTTN   GTET   GTTVD  
# ...
   13:33:51.155.19-Jul-2021 4559.00 6694.14 71.26 29.00 384.34 2745.40
   13:33:51.355.19-Jul-2021 4559.00 6693.66 71.26 29.00 384.54 2745.40
   13:33:51.555.19-Jul-2021 4559.00 6693.13 71.26 29.00 384.74 2745.40
   13:33:51.755.19-Jul-2021 4559.00 6694.01 71.26 29.00 384.94 2745.40
   13:33:51.955.19-Jul-2021 4559.00 6694.00 71.26 29.00 385.14 2745.40
   13:33:52.155.19-Jul-2021 4559.00 6694.00 71.26 29.00 385.34 2745.40
   13:33:52.355.19-Jul-2021 4559.00 6693.90 71.25 29.00 385.54 2745.40
   13:33:52.555.19-Jul-2021 4559.00 6689.55 71.25 29.00 385.74 2745.40
   13:33:52.755.19-Jul-2021 4559.00 6699.47 71.26 29.00 385.94 2745.40
   13:33:52.955.19-Jul-2021 4559.00 6691.93 71.25 29.00 386.14 2745.40
   13:33:53.155.19-Jul-2021 4559.00 6691.93 71.25 29.00 386.34 2745.40
   13:33:53.355.19-Jul-2021 4559.00 6690.08 71.25 29.00 386.54 2745.40
   13:33:53.555.19-Jul-2021 4559.00 6690.34 71.25 29.00 386.74 2745.40
   13:33:53.755.19-Jul-2021 4559.00 6689.77 71.25 29.00 386.94 2745.40
   13:33:53.956.19-Jul-2021 4559.00 6690.40 71.25 29.00 387.14 2745.40
   13:33:54.156.19-Jul-2021 4559.00 6690.40 71.25 29.00 387.34 2745.40
   13:33:54.356.19-Jul-2021 4559.00 6692.65 71.25 29.00 387.54 2745.40
   13:33:54.556.19-Jul-2021 4559.00 6693.67 71.25 29.00 387.74 2745.40
   13:33:54.756.19-Jul-2021 4559.00 6715.58 71.25 29.00 387.94 2745.40
   13:33:54.956.19-Jul-2021 4559.00 6695.95 71.25 29.00 388.14 2745.40
   13:33:55.156.19-Jul-2021 4559.00 6695.95 71.25 29.00 388.34 2745.40
   13:33:55.356.19-Jul-2021 4559.00 6719.65 71.25 29.00 388.54 2745.40
   13:33:55.556.19-Jul-2021 4559.00 6690.59 71.25 29.00 388.74 2745.40
   13:33:55.756.19-Jul-2021 4559.00 6693.85 71.25 29.00 388.94 2745.40
   13:33:55.956.19-Jul-2021 4559.00 6722.49 71.25 29.00 389.14 2745.40
   13:33:56.156.19-Jul-2021 4559.00 6722.49 71.25 29.00 389.34 2745.40
   13:33:56.356.19-Jul-2021 4559.00 6688.47 71.25 29.00 389.54 2745.40
   13:33:56.557.19-Jul-2021 4559.00 6724.14 71.25 29.00 389.74 2745.40
   13:33:56.757.19-Jul-2021 4559.00 6695.44 71.25 29.00 389.94 2745.40
   13:33:56.957.19-Jul-2021 4559.00 6688.81 71.25 29.00 390.14 2745.40
   13:33:57.157.19-Jul-2021 4559.00 6688.81 71.25 29.00 390.34 2745.40
   13:33:57.357.19-Jul-2021 4559.00 6703.67 71.25 29.00 390.54 2745.40
   13:33:57.557.19-Jul-2021 4559.00 6714.33 71.25 29.00 390.74 2745.40
   13:33:57.757.19-Jul-2021 4559.00 6689.95 71.25 29.00 390.94 2745.40
   13:33:57.957.19-Jul-2021 4559.00 6692.43 71.25 29.00 391.14 2745.40
   13:33:58.157.19-Jul-2021 4559.00 6692.43 71.25 29.00 391.34 2745.40
   13:33:58.357.19-Jul-2021 4559.00 6693.26 71.25 29.00 391.54 2745.40
   13:33:58.557.19-Jul-2021 4559.00 6694.30 71.25 29.00 391.74 2745.40
   13:33:58.757.19-Jul-2021 4559.00 6694.73 71.25 29.00 391.94 2745.40
   13:33:58.957.19-Jul-2021 4559.00 6694.11 71.25 29.00 392.14 2745.40
   13:33:59.157.19-Jul-2021 4559.00 6694.11 71.25 29.00 392.34 2745.40
   13:33:59.358.19-Jul-2021 4559.00 6693.51 71.25 29.00 392.54 2745.40
   13:33:59.558.19-Jul-2021 4559.00 6693.46 71.25 29.00 392.74 2745.40
   13:33:59.758.19-Jul-2021 4559.00 6692.51 71.25 29.00 392.94 2745.40
   13:33:59.958.19-Jul-2021 4559.00 6692.64 71.25 29.00 393.14 2745.40
   13:34:00.158.19-Jul-2021 4559.00 6692.64 71.25 29.00 393.34 2745.40
   13:34:00.358.19-Jul-2021 4559.00 6718.68 71.25 29.00 393.54 2745.40
   13:34:00.558.19-Jul-2021 4559.00 6699.57 71.25 29.00 393.74 2745.40
   13:34:00.758.19-Jul-2021 4559.00 6686.34 71.25 29.00 393.95 2745.40
   13:34:00.958.19-Jul-2021 4559.00 6697.09 71.25 29.00 394.15 2745.40
   13:34:01.158.19-Jul-2021 4559.00 6697.09 71.25 29.00 394.35 2745.40
   13:34:01.358.19-Jul-2021 4559.00 6690.56 71.25 29.00 394.55 2745.40
   13:34:01.558.19-Jul-2021 4559.00 6690.83 71.25 29.00 394.75 2745.40
   13:34:01.758.19-Jul-2021 4559.00 6690.63 71.25 29.00 394.95 2745.40
   13:34:01.958.19-Jul-2021 4559.00 6689.64 71.25 29.00 395.15 2745.40
   13:34:02.159.19-Jul-2021 4559.00 6689.64 71.25 29.00 395.35 2745.40
   13:34:02.359.19-Jul-2021 4559.00 6690.43 71.25 29.00 395.55 2745.40
   13:34:02.559.19-Jul-2021 4559.00 6689.68 71.25 29.00 395.75 2745.40
   13:34:02.759.19-Jul-2021 4559.00 6690.12 71.25 29.00 395.95 2745.40
   13:34:02.959.19-Jul-2021 4559.00 6716.83 71.25 29.00 396.15 2745.40
   13:34:03.159.19-Jul-2021 4559.00 6716.83 71.25 29.00 396.35 2745.40
   13:34:03.359.19-Jul-2021 4559.00 6685.70 71.25 29.00 396.55 2745.40
   13:34:03.559.19-Jul-2021 4559.00 6724.03 71.25 29.00 396.75 2745.40
   13:34:03.759.19-Jul-2021 4559.00 6696.87 71.25 29.00 396.95 2745.40
   13:34:03.959.19-Jul-2021 4559.00 6686.90 71.25 29.00 397.15 2745.40
   13:34:04.159.19-Jul-2021 4559.00 6686.90 71.25 29.00 397.35 2745.40
   13:34:04.359.19-Jul-2021 4559.00 6697.34 71.25 29.00 397.55 2745.40
   13:34:04.559.19-Jul-2021 4559.00 6685.82 71.25 29.00 397.75 2745.40
   13:34:04.760.19-Jul-2021 4559.00 6715.42 71.25 29.00 397.95 2745.40
   13:34:04.960.19-Jul-2021 4559.00 6705.61 71.25 29.00 398.15 2745.40
   13:34:05.160.19-Jul-2021 4559.00 6705.61 71.25 29.00 398.35 2745.40
   13:34:05.360.19-Jul-2021 4559.00 6692.34 71.25 29.00 398.55 2745.40
   13:34:05.560.19-Jul-2021 4559.00 6698.27 71.25 29.00 398.75 2745.40
   13:34:05.760.19-Jul-2021 4559.00 6691.92 71.25 29.00 398.95 2745.40
   13:34:05.960.19-Jul-2021 4559.00 6715.40 71.25 29.00 399.15 2745.40
   13:34:06.160.19-Jul-2021 4559.00 6715.40 71.25 29.00 399.35 2745.40
   13:34:06.360.19-Jul-2021 4559.00 6687.75 71.25 29.00 399.55 2745.40
   13:34:06.560.19-Jul-2021 4559.00 6697.94 71.25 29.00 399.75 2745.40
   13:34:06.760.19-Jul-2021 4559.00 6692.86 71.25 29.00 399.95 2745.40
   13:34:06.960.19-Jul-2021 4559.00 6690.79 71.25 29.00 400.15 2745.40
   13:34:07.160.19-Jul-2021 4559.00 6690.79 71.25 29.00 400.35 2745.40
   13:34:07.360.19-Jul-2021 4559.00 6691.16 71.25 29.00 400.55 2745.40
   13:34:07.561.19-Jul-2021 4559.00 6690.39 71.25 29.00 400.75 2745.40
   13:34:07.761.19-Jul-2021 4559.00 6689.96 71.25 29.00 400.95 2745.40
   13:34:07.961.19-Jul-2021 4559.00 6689.96 71.25 29.00 401.15 2745.40
   13:34:08.161.19-Jul-2021 4559.00 6689.96 71.25 29.00 401.35 2745.40
   13:34:08.361.19-Jul-2021 4559.00 6690.02 71.25 29.00 401.55 2745.40
   13:34:08.561.19-Jul-2021 4559.00 6691.00 71.25 29.00 401.75 2745.40
   13:34:08.761.19-Jul-2021 4559.00 6709.83 71.25 29.00 401.95 2745.40
   13:34:08.961.19-Jul-2021 4559.00 6698.48 71.25 29.00 402.15 2745.40
   13:34:09.161.19-Jul-2021 4559.00 6698.48 71.25 29.00 402.35 2745.40
   13:34:09.361.19-Jul-2021 4559.00 6692.58 71.25 29.00 402.55 2745.40
   13:34:09.561.19-Jul-2021 4559.00 6695.82 71.25 29.00 402.75 2745.40
   13:34:09.761.19-Jul-2021 4559.00 6689.10 71.25 29.00 402.95 2745.40
   13:34:09.961.19-Jul-2021 4559.00 6689.23 71.25 29.00 403.15 2745.40
   13:34:10.162.19-Jul-2021 4559.00 6689.23 71.25 29.00 403.35 2745.40
   13:34:10.362.19-Jul-2021 4559.00 6689.04 71.25 29.00 403.55 2745.40
   13:34:10.562.19-Jul-2021 4559.00 6688.82 71.25 29.00 403.75 2745.40
   13:34:10.762.19-Jul-2021 4559.00 6688.37 71.25 29.00 403.95 2745.40
   13:34:10.962.19-Jul-2021 4559.00 6688.82 71.25 29.00 404.15 2745.40
   13:34:11.162.19-Jul-2021 4559.00 6688.82 71.25 29.00 404.35 2745.40
   13:34:11.362.19-Jul-2021 4559.00 6708.98 71.25 29.00 404.55 2745.40
   13:34:11.562.19-Jul-2021 4559.00 6698.17 71.25 29.00 404.75 2745.40
   13:34:11.762.19-Jul-2021 4559.00 6686.27 71.25 29.00 404.95 2745.40
   13:34:11.962.19-Jul-2021 4559.00 6717.92 71.25 29.00 405.15 2745.40
   13:34:12.162.19-Jul-2021 4559.00 6717.92 71.25 29.00 405.35 2745.40
   13:34:12.362.19-Jul-2021 4559.00 6686.24 71.25 29.00 405.55 2745.40
   13:34:12.562.19-Jul-2021 4559.00 6694.31 71.25 29.00 405.75 2745.40
   13:34:12.762.19-Jul-2021 4559.00 6716.52 71.25 29.00 405.95 2745.40
   13:34:12.963.19-Jul-2021 4559.00 6692.98 71.25 29.00 406.15 2745.40
   13:34:13.163.19-Jul-2021 4559.00 6692.98 71.25 29.00 406.35 2745.40
   13:34:13.363.19-Jul-2021 4559.00 6708.76 71.25 29.00 406.55 2745.40
   13:34:13.563.19-Jul-2021 4559.00 6686.46 71.25 29.00 406.75 2745.40
