~Version Information
 VERS.                  2.0:   CWLS log ASCII Standard -VERSION 2.0
 WRAP.                   NO:   One line per depth step
~Well Information Block
#MNEM.UNIT     VALUE/NAME     DESCRIPTION
#---------     -----------    ---------------------------
 STRT.S             13:11:20 18-Jul-21: START TIME 13:11:20 18-Jul-21
 STOP.S             13:17:54 18-Jul-21: STOP TIME  13:17:54 18-Jul-21
 STEP.S                   0.00: STEP TIME
 NULL.                 -999.25: NULL VALUE
 MDS .        Operator Entered:  MAG DATA SOURCE
 PDAT.          Mean Sea Level:  PERMANENT DATUM
 UNIT.                     N/A:  LOGGING EQUIPMENT ID
 DCON.         Sperry Drilling:  DIRECTNL CONTR
 DOE .                     N/A:  DOE NUMBER
 RIG .              West Azeri:  RIG NAME
 JOBN.        AZ-XX-0906997913:  JOB TICKET NUMB
 WELL.                     C41:  WELL NAME
 MWDS.                    Baku:  MWD SHOP
 SRVC.          Turan Drilling:  CONTRACTOR
 FLD .                     ACG:  FIELD NAME
 CTRY.              Azerbaijan:  COUNTRY NAME
 PROV.                    Baku:  PROVINCE
 STAT.                    Baku:  STATE NAME
 REGN.                   EESSA:  REGION
 BASE.              Azerbaijan:  LOGGING EQUIPMENT BASE LOCATION
 UWI .                     N/A:  UNIQUE WELL IDENTIFIER
 API .                     N/A:  API NUMBER
 COMP.     BP Exploration (Caspian Sea) Ltd.:  COMPANY
 WTYP.                Deviated:  WELL TYPE
 SON .        AZ-XX-0906997913:  JOB NUMBER
 FTOP.          Formation Tops:  FORM TOPS DESC
 ILTD.               Lithology:  INTERP LTH DESC
 SVYD.                  Survey:  SURVEY DESC
 DMOD.             Drill Model:  DRILL MOD DESC
 HPTY.       Minimum Curvature:  HOLE POS TYPE
 NREF.                    Grid:  NORTH REFERENCE
 SPUD.               16-May-21:  SPUD DATE
 DATE.      21.11.28 17-May-21:  END TIME
 STIM.      21.11.28 17-May-21:  START TIME
 DMF .             Drill Floor:  DRILL MEAS FROM
 DFST.                        :  DIST FSL TEXT
 DFWT.                        :  DIST FWL TEXT
 CNTY.                        :  COUNTY
 LOC .                        :  LOCATION
 LMF .             Drill Floor:  LOG MEASURED FROM
 AGAP.m                  43.42:  AIR GAP
 VSNS.m                  -2.16:  VERT SEC N/S
 VSEW.m                  -6.24:  VERT SEC E/W
 APD .m                  43.42:  DEPTH ABOVE PD
 WDMS.m                 118.27:  WD ELEV
 EGL .m                   0.00:  GROUND ELEVATION
 EPD .m                   0.00:  ELEVATION
 AZTC.deg                 6.29:  AZM TOTAL CORR
 GRDC.deg                 0.18:  GRID CORRECTION
 MDEC.deg                 6.47:  MAGNETIC DECL
 MDIP.deg                59.54:  MAGNETIC DIP
 MFLD.nT              50337.00:  MAGNETIC FIELD
 GVFD.g                   1.00:  GRAVITY FIELD
 VSDR.deg               226.99:  VERT SEC DIRECT
 TDD .m                   0.00:  TOTAL DEPTH (DRILLER)
 SDEP.m                 448.00:  START DEPTH
 DFSL.m                   0.00:  DISTANCE FSL
 DFWL.m                   0.00:  DISTANCE FWL
 UTMY.m             4435799.96:  UTM Y
 UTMX.m              526265.35:  UTM X
 WHEW.m                  -6.24:  WELL HEAD E/W
 WHNS.m                  -2.16:  WELL HEAD N/S
 LONG.deg                51.31:  LONGITUDE
 LATI.deg                40.06:  LATITUDE
 TVDS.m                  43.42:  TVDSS CORRECTN
 EKB .m                  43.42:  KB ELEVATION
 EDF .m                  43.42:  DF ELEVATION
 TDL .m                 288.00:  TOTAL DEPTH (LOGGER)
 MAGU.                 1851863:  MAGUTM CHECKSUM
 VSC .                       0:  VS TO CLOSURE
~Parameter Information Block
#MNEM.UNIT       Value        Description
#---------     -----------    ---------------------------
 AV  .mps                 0.40:  Ann Velocity 
 AVMX.mps                 0.63:  Max Ann Veloc 
 AZIF.deg               158.76:  Azm, Final 
 BHAT.        Rotary Steerable:  BHA Type 
 BROT.∞/30m               0.68:  Build Rotating 
 BS  .in                  8.50:  Bit Size 
 BSZ .in                  8.50:  Bit Size 
 BTPL.psig              712.00:  Bit Press Loss 
 CABU.                      No:  Customer Abuse 
 COMM.                     §ÁL:  Run Comments 1 
 TCS .hr                 90.66:  Time Ciculation Ended 
 CV  .mps                 2.02:  Crit Velocity 
 CVMX.mps                 2.14:  Max Crit Veloc 
 DD1 .            Aziz Aliyevu:  Direct Drillr 1 
 DD2 .             Samir Abbas:  Direct Drillr 2 
 DD3 .           Teymur Aliyev:  Direct Drillr 3 
 DDSV.                 iCruise:  DD Service 
 DEFF.%                  85.10:  % Det Eff 
 DLRX.∞/30m               1.05:  Dogleg Rot Max 
 DLSO.∞/30m               1.01:  Dogleg Oriented 
 DLSX.∞/30m               1.05:  Dogleg Str Max 
 DRET.      07.45.00 18-Jul-21:  Drill End Time 
 DRST.      15.00.00 16-Jul-21:  Drill Start Tim 
 DTIM.hr                 23.46:  Time Drilling 
 EDEP.m                4603.00:  End Depth 
 ENG1.       Seymur Iskandarov:  Engineer 1 
 ENG2.         Yevgeniy Ulikov:  Engineer 2 
 ENG3.         Bahruz Mehdiyev:  Engineer 3 
 ENG4.         Elchin Mammadov:  Engineer 4 
 ETIM.      14.00.00 23-Jul-21:  End Time 
 FLOI.gpm               500.00:  Flow In 
 FLON.gpm               450.00:  Flow In Min 
 FLOS.cptm                0.00:  Fluid Loss 
 FLOX.gpm               560.00:  Flow In Max 
 DFT .        Mineral Oil Base:  Mud Type 
 FTRO.       Formation Presure:  FTWD Run Obj 
 HFLO.                      No:  High Flow 
 HPRE.                      No:  High Pressure 
 HTEM.                      No:  High Temp 
 HYDO.m                   1.80:  Hydro Offset 
 IFIN.deg                40.22:  Inc, Final 
 IMAX.deg                40.54:  Inc Max 
 IMIN.deg                39.44:  Inc Min 
 IMND.m                4361.17:  Inc Min Depth 
 IMXD.m                4417.92:  Inc Max Depth 
 JARR.                      No:  Jarring 
 LETM.      07.45.00 18-Jul-21:  Log End Time 
 LOST.hr                    16:  Lost Rig Time 
 LSTM.      15.00.00 16-Jul-21:  Log Start Time 
 MDCL.ppm             36500.00:  Mud Chlorides 
 MDES.     Inversion Oil/Synthetic:  Mud Desc 
 DFD .sg                  1.42:  Mud Density 
 MDMN.sg                  1.42:  Dens Mud Min 
 MDMX.sg                  1.43:  Dens Mud Max 
 MOIL.                      56:  Run Mud Oil % 
 MOWR.                   71:29:  Run Mud OWR 
 MSND.                     0.5:  Run Mud Sand % 
 MSOL.                      21:  Run Mud Solids% 
 DFV .spqt               78.00:  Mud Viscosity 
 MWOD.in                  6.75:  MWD Tool OD 
 MWSI.                     Yes:  Serv Intrp, MWD 
 OTIM.hr                200.73:  Time Operating 
 PCON.           Look Like New:  Pad Condition 
 PMAX.psia            11069.93:  Press Op, Max 
 PV  .cP                 32.00:  Mud PV 
 RUN .                     700:  Run Number 
 ROPA.m/hr               10.00:  ROP Avg 
 ROPN.m/hr                9.00:  ROP Min 
 ROPX.m/hr               16.00:  ROP Max 
 RPMA.rpm               116.00:  RPM Surface Avg 
 RPMN.rpm                80.00:  RPM Surface Min 
 RPMX.rpm               120.00:  RPM Surface Max 
 RRUN.                    L605:  Rig Run Number 
 RTIM.hr                 45.00:  Time Reaming 
 SAZI.deg               159.86:  Azm, Start 
 SDEP.m                4315.00:  Start Depth 
 SIDD.                      No:  Serv Intrp, DD 
 SINC.deg                39.86:  Inc, Start 
 SPPA.psig             3300.00:  SPP Avg 
 SPPN.psig             3040.00:  SPP Min 
 SPPX.psig             3645.00:  SPP Max 
 STIM.      01.00.00 15-Jul-21:  Start Time 
 SVCS.                 DD, MWD:  Services 
 SVER.                    9.20:  Sperry Version 
 TDAT.m                 288.00:  Tot Depth Attmp 
 TDDF.                      No:  Trip for DD 
 TDLG.m                 288.00:  Tot Depth Loggd 
 TFF .                      No:  Trip for Fail 
 TQAA.f-kp               19.00:  Torque Abs Avg 
 TQAN.f-kp               18.00:  Torque Abs Min 
 TQAX.f-kp               21.00:  Torque Abs Max 
 TRRT.∞/30m               0.45:  Turn Rotating 
 MRT .                    HCIM:  Maximum Recorded Temperature 
 TTMX.degC               88.24:  Max Tool Temp 
 VS01.                90649157:  Virtual Str1 SN 
 VS02.                90652483:  Virtual Str2 SN 
 VS03.                11671987:  Virtual Str3 SN 
 VS04.                90643411:  Virtual Str4 SN 
 VS05.                90652478:  Virtual Str5 SN 
 VS06.                    6111:  Virtual Str6 SN 
 WBMN.klb                 9.50:  WOB Min 
 WITN.        Grigoriy Sarayev:  Customer Rep 
 WITN.          Rufat Huseynov:  Customer Rep 2 
 WOBA.klb                11.00:  WOB Avg 
 WOBX.klb                15.00:  WOB Max 
 YP  .lhf2               28.00:  Yield Point 
~Curve Information Block
#MNEM.UNIT                 API CODE     Curve Description
#---------               -----------    ---------------------------
 TIME.HHMMSS            00 000 000 000:  GT Time & Date
 GTDEPTH.m              00 000 000 000:  GT Depth
 GTPQH.psia             00 000 000 000:  GT HR Quartz Pressure
 GTTQ.degC              00 000 000 000:  GT Quartz Temperature
 GTTN.NONE              00 000 000 000:  GT Test Number
 GTET.sec               00 000 000 000:  GT Elapsed Test Time
 GTTVD.m                00 000 000 000:  GT True Vertical Depth
#Other Information
#
#WARRANTY: Halliburton will use its best efforts to furnish customers with 
#accurate information and interpretations that are part of, and incident to, the services 
#provided.  However, Halliburton cannot and does not warrant the accuracy 
#or correctness of such information and interpretations.  Under no circumstances should any 
#such information or interpretation be relied upon as the sole basis for any drilling, 
#completion, production, or financial decision or any procedure involving any risk to the 
#safety of any drilling venture, drilling rig or its crew or any other third party.  The 
#Customer has full responsibility for all drilling, completion and production operation.  
#Halliburton makes no representations or warranties, either expressed or 
#implied, including, but not limited to, the implied warranties of merchantability or fitness 
#for a particular purpose, with respect to the services rendered.  In no event will 
#Halliburton be liable for failure to obtain any particular results or for 
#any damages, including, but not limited to, indirect, special or consequential damages, 
#resulting from the use of any information or interpretation provided by Halliburton.
#
~A           TIME           GTDEPTH  GTPQH  GTTQ  GTTN  GTET   GTTVD  
# ...
   13:17:28.779.18-Jul-2021 4561.00 6508.98 75.65 2.00 368.14 2746.93
   13:17:28.980.18-Jul-2021 4561.00 6508.98 75.65 2.00 368.34 2746.93
   13:17:29.180.18-Jul-2021 4561.00 6509.22 75.65 2.00 368.54 2746.93
   13:17:29.380.18-Jul-2021 4561.00 6509.03 75.65 2.00 368.74 2746.93
   13:17:29.580.18-Jul-2021 4561.00 6507.43 75.65 2.00 368.94 2746.93
   13:17:29.780.18-Jul-2021 4561.00 6503.79 75.65 2.00 369.14 2746.93
   13:17:29.980.18-Jul-2021 4561.00 6503.79 75.65 2.00 369.34 2746.93
   13:17:30.180.18-Jul-2021 4561.00 6524.21 75.65 2.00 369.54 2746.93
   13:17:30.380.18-Jul-2021 4561.00 6515.38 75.65 2.00 369.74 2746.93
   13:17:30.580.18-Jul-2021 4561.00 6504.03 75.65 2.00 369.94 2746.93
   13:17:30.780.18-Jul-2021 4561.00 6508.25 75.65 2.00 370.14 2746.93
   13:17:30.980.18-Jul-2021 4561.00 6508.25 75.65 2.00 370.34 2746.93
   13:17:31.180.18-Jul-2021 4561.00 6504.75 75.65 2.00 370.54 2746.93
   13:17:31.380.18-Jul-2021 4561.00 6505.40 75.65 2.00 370.74 2746.93
   13:17:31.580.18-Jul-2021 4561.00 6506.43 75.65 2.00 370.94 2746.93
   13:17:31.781.18-Jul-2021 4561.00 6506.23 75.65 2.00 371.14 2746.93
   13:17:31.981.18-Jul-2021 4561.00 6506.23 75.65 2.00 371.34 2746.93
   13:17:32.181.18-Jul-2021 4561.00 6508.17 75.65 2.00 371.54 2746.93
   13:17:32.381.18-Jul-2021 4561.00 6505.83 75.65 2.00 371.74 2746.93
   13:17:32.581.18-Jul-2021 4561.00 6504.72 75.65 2.00 371.94 2746.93
   13:17:32.781.18-Jul-2021 4561.00 6520.18 75.65 2.00 372.14 2746.93
   13:17:32.981.18-Jul-2021 4561.00 6520.18 75.65 2.00 372.34 2746.93
   13:17:33.181.18-Jul-2021 4561.00 6500.76 75.65 2.00 372.54 2746.93
   13:17:33.381.18-Jul-2021 4561.00 6525.48 75.65 2.00 372.74 2746.93
   13:17:33.581.18-Jul-2021 4561.00 6520.47 75.65 2.00 372.94 2746.93
   13:17:33.781.18-Jul-2021 4561.00 6503.39 75.65 2.00 373.14 2746.93
   13:17:33.981.18-Jul-2021 4561.00 6503.39 75.65 2.00 373.34 2746.93
   13:17:34.181.18-Jul-2021 4561.00 6525.27 75.65 2.00 373.54 2746.93
   13:17:34.382.18-Jul-2021 4561.00 6509.72 75.65 2.00 373.74 2746.93
   13:17:34.582.18-Jul-2021 4561.00 6501.96 75.65 2.00 373.94 2746.93
   13:17:34.782.18-Jul-2021 4561.00 6511.64 75.65 2.00 374.14 2746.93
   13:17:34.982.18-Jul-2021 4561.00 6511.64 75.65 2.00 374.34 2746.93
   13:17:35.182.18-Jul-2021 4561.00 6516.81 75.65 2.00 374.54 2746.93
   13:17:35.382.18-Jul-2021 4561.00 6500.47 75.65 2.00 374.74 2746.93
   13:17:35.582.18-Jul-2021 4561.00 6527.90 75.65 2.00 374.94 2746.93
   13:17:35.782.18-Jul-2021 4561.00 6523.02 75.65 2.00 375.14 2746.93
   13:17:35.982.18-Jul-2021 4561.00 6523.02 75.65 2.00 375.34 2746.93
   13:17:36.182.18-Jul-2021 4561.00 6523.02 75.65 2.00 375.54 2746.93
   13:17:36.382.18-Jul-2021 4561.00 6510.11 75.65 2.00 375.74 2746.93
   13:17:36.582.18-Jul-2021 4561.00 6505.92 75.65 2.00 375.94 2746.93
   13:17:36.782.18-Jul-2021 4561.00 6506.91 75.65 2.00 376.14 2746.93
   13:17:36.982.18-Jul-2021 4561.00 6506.91 75.65 2.00 376.34 2746.93
   13:17:37.183.18-Jul-2021 4561.00 6506.91 75.65 2.00 376.54 2746.93
   13:17:37.383.18-Jul-2021 4561.00 6506.45 75.65 2.00 376.74 2746.93
   13:17:37.583.18-Jul-2021 4561.00 6506.20 75.65 2.00 376.94 2746.93
   13:17:37.783.18-Jul-2021 4561.00 6506.15 75.65 2.00 377.14 2746.93
   13:17:37.983.18-Jul-2021 4561.00 6506.15 75.65 2.00 377.34 2746.93
   13:17:38.183.18-Jul-2021 4561.00 6506.33 75.65 2.00 377.54 2746.93
   13:17:38.383.18-Jul-2021 4561.00 6521.14 75.65 2.00 377.74 2746.93
   13:17:38.583.18-Jul-2021 4561.00 6522.36 75.65 2.00 377.94 2746.93
   13:17:38.783.18-Jul-2021 4561.00 6505.62 75.65 2.00 378.14 2746.93
   13:17:38.983.18-Jul-2021 4561.00 6505.62 75.65 2.00 378.34 2746.93
   13:17:39.183.18-Jul-2021 4561.00 6509.14 75.65 2.00 378.54 2746.93
   13:17:39.383.18-Jul-2021 4561.00 6504.10 75.65 2.00 378.74 2746.93
   13:17:39.583.18-Jul-2021 4561.00 6504.81 75.65 2.00 378.94 2746.93
   13:17:39.784.18-Jul-2021 4561.00 6505.55 75.65 2.00 379.14 2746.93
   13:17:39.984.18-Jul-2021 4561.00 6505.55 75.65 2.00 379.34 2746.93
   13:17:40.184.18-Jul-2021 4561.00 6505.24 75.65 2.00 379.54 2746.93
   13:17:40.384.18-Jul-2021 4561.00 6505.72 75.65 2.00 379.74 2746.93
   13:17:40.584.18-Jul-2021 4561.00 6505.37 75.65 2.00 379.94 2746.93
   13:17:40.784.18-Jul-2021 4561.00 6505.79 75.65 2.00 380.14 2746.93
   13:17:40.984.18-Jul-2021 4561.00 6505.79 75.65 2.00 380.34 2746.93
   13:17:41.184.18-Jul-2021 4561.00 6530.33 75.65 2.00 380.54 2746.93
   13:17:41.384.18-Jul-2021 4561.00 6507.31 75.65 2.00 380.74 2746.93
   13:17:41.584.18-Jul-2021 4561.00 6521.30 75.65 2.00 380.94 2746.93
   13:17:41.784.18-Jul-2021 4561.00 6526.39 75.65 2.00 381.14 2746.93
   13:17:41.984.18-Jul-2021 4561.00 6526.39 75.65 2.00 381.34 2746.93
   13:17:42.184.18-Jul-2021 4561.00 6504.79 75.65 2.00 381.54 2746.93
   13:17:42.384.18-Jul-2021 4561.00 6528.38 75.65 2.00 381.74 2746.93
   13:17:42.585.18-Jul-2021 4561.00 6514.96 75.65 2.00 381.94 2746.93
   13:17:42.785.18-Jul-2021 4561.00 6502.56 75.65 2.00 382.14 2746.93
   13:17:42.985.18-Jul-2021 4561.00 6502.56 75.65 2.00 382.34 2746.93
   13:17:43.185.18-Jul-2021 4561.00 6505.83 75.65 2.00 382.54 2746.93
   13:17:43.385.18-Jul-2021 4561.00 6508.38 75.65 2.00 382.74 2746.93
   13:17:43.585.18-Jul-2021 4561.00 6526.86 75.65 2.00 382.94 2746.93
   13:17:43.785.18-Jul-2021 4561.00 6503.67 75.65 2.00 383.14 2746.93
   13:17:43.985.18-Jul-2021 4561.00 6503.67 75.65 2.00 383.34 2746.93
   13:17:44.185.18-Jul-2021 4561.00 6511.92 75.65 2.00 383.54 2746.93
   13:17:44.385.18-Jul-2021 4561.00 6501.85 75.65 2.00 383.74 2746.93
   13:17:44.585.18-Jul-2021 4561.00 6522.64 75.65 2.00 383.94 2746.93
   13:17:44.785.18-Jul-2021 4561.00 6514.21 75.65 2.00 384.14 2746.93
   13:17:44.985.18-Jul-2021 4561.00 6514.21 75.65 2.00 384.34 2746.93
   13:17:45.186.18-Jul-2021 4561.00 6508.61 75.65 2.00 384.54 2746.93
   13:17:45.386.18-Jul-2021 4561.00 6510.29 75.65 2.00 384.74 2746.93
   13:17:45.586.18-Jul-2021 4561.00 6505.32 75.65 2.00 384.94 2746.93
   13:17:45.786.18-Jul-2021 4561.00 6506.01 75.65 2.00 385.14 2746.93
   13:17:45.986.18-Jul-2021 4561.00 6506.01 75.65 2.00 385.34 2746.93
   13:17:46.186.18-Jul-2021 4561.00 6506.03 75.65 2.00 385.54 2746.93
   13:17:46.386.18-Jul-2021 4561.00 6506.26 75.65 2.00 385.74 2746.93
   13:17:46.586.18-Jul-2021 4561.00 6506.33 75.65 2.00 385.94 2746.93
   13:17:46.786.18-Jul-2021 4561.00 6508.27 75.65 2.00 386.14 2746.93
   13:17:46.986.18-Jul-2021 4561.00 6508.27 75.65 2.00 386.34 2746.93
   13:17:47.186.18-Jul-2021 4561.00 6505.54 75.65 2.00 386.54 2746.93
   13:17:47.386.18-Jul-2021 4561.00 6517.84 75.65 2.00 386.74 2746.93
   13:17:47.586.18-Jul-2021 4561.00 6519.11 75.65 2.00 386.94 2746.93
   13:17:47.786.18-Jul-2021 4561.00 6503.44 75.65 2.00 387.14 2746.93
   13:17:47.987.18-Jul-2021 4561.00 6503.44 75.65 2.00 387.34 2746.93
   13:17:48.187.18-Jul-2021 4561.00 6511.64 75.65 2.00 387.54 2746.93
   13:17:48.387.18-Jul-2021 4561.00 6505.34 75.65 2.00 387.74 2746.93
   13:17:48.587.18-Jul-2021 4561.00 6505.74 75.65 2.00 387.94 2746.93
   13:17:48.787.18-Jul-2021 4561.00 6506.14 75.65 2.00 388.14 2746.93
   13:17:48.987.18-Jul-2021 4561.00 6506.14 75.65 2.00 388.34 2746.93
   13:17:49.187.18-Jul-2021 4561.00 6506.16 75.65 2.00 388.54 2746.93
   13:17:49.387.18-Jul-2021 4561.00 6507.74 75.65 2.00 388.74 2746.93
   13:17:49.587.18-Jul-2021 4561.00 6507.85 75.65 2.00 388.94 2746.93
   13:17:49.787.18-Jul-2021 4561.00 6506.09 75.65 2.00 389.14 2746.93
   13:17:49.987.18-Jul-2021 4561.00 6506.09 75.65 2.00 389.34 2746.93
   13:17:50.187.18-Jul-2021 4561.00 6528.05 75.65 2.00 389.54 2746.93
   13:17:50.387.18-Jul-2021 4561.00 6502.86 75.65 2.00 389.74 2746.93
   13:17:50.587.18-Jul-2021 4561.00 6518.89 75.65 2.00 389.94 2746.93
   13:17:50.788.18-Jul-2021 4561.00 6527.56 75.65 2.00 390.14 2746.93
   13:17:50.988.18-Jul-2021 4561.00 6527.56 75.65 2.00 390.34 2746.93
   13:17:51.188.18-Jul-2021 4561.00 6504.66 75.65 2.00 390.54 2746.93
   13:17:51.388.18-Jul-2021 4561.00 6526.50 75.65 2.00 390.74 2746.93
   13:17:51.588.18-Jul-2021 4561.00 6512.07 75.65 2.00 390.94 2746.93
