~Version Information
 VERS.                  2.0:   CWLS log ASCII Standard -VERSION 2.0
 WRAP.                   NO:   One line per depth step
~Well Information Block
#MNEM.UNIT     VALUE/NAME     DESCRIPTION
#---------     -----------    ---------------------------
 STRT.S             10:23:02 19-Jul-21: START TIME 10:23:02 19-Jul-21
 STOP.S             10:29:56 19-Jul-21: STOP TIME  10:29:56 19-Jul-21
 STEP.S                   0.00: STEP TIME
 NULL.                 -999.25: NULL VALUE
 MDS .        Operator Entered:  MAG DATA SOURCE
 PDAT.          Mean Sea Level:  PERMANENT DATUM
 UNIT.                     N/A:  LOGGING EQUIPMENT ID
 DCON.         Sperry Drilling:  DIRECTNL CONTR
 DOE .                     N/A:  DOE NUMBER
 RIG .              West Azeri:  RIG NAME
 JOBN.        AZ-XX-0906997913:  JOB TICKET NUMB
 WELL.                     C41:  WELL NAME
 MWDS.                    Baku:  MWD SHOP
 SRVC.          Turan Drilling:  CONTRACTOR
 FLD .                     ACG:  FIELD NAME
 CTRY.              Azerbaijan:  COUNTRY NAME
 PROV.                    Baku:  PROVINCE
 STAT.                    Baku:  STATE NAME
 REGN.                   EESSA:  REGION
 BASE.              Azerbaijan:  LOGGING EQUIPMENT BASE LOCATION
 UWI .                     N/A:  UNIQUE WELL IDENTIFIER
 API .                     N/A:  API NUMBER
 COMP.     BP Exploration (Caspian Sea) Ltd.:  COMPANY
 WTYP.                Deviated:  WELL TYPE
 SON .        AZ-XX-0906997913:  JOB NUMBER
 FTOP.          Formation Tops:  FORM TOPS DESC
 ILTD.               Lithology:  INTERP LTH DESC
 SVYD.                  Survey:  SURVEY DESC
 DMOD.             Drill Model:  DRILL MOD DESC
 HPTY.       Minimum Curvature:  HOLE POS TYPE
 NREF.                    Grid:  NORTH REFERENCE
 SPUD.               16-May-21:  SPUD DATE
 DATE.      21.11.28 17-May-21:  END TIME
 STIM.      21.11.28 17-May-21:  START TIME
 DMF .             Drill Floor:  DRILL MEAS FROM
 DFST.                        :  DIST FSL TEXT
 DFWT.                        :  DIST FWL TEXT
 CNTY.                        :  COUNTY
 LOC .                        :  LOCATION
 LMF .             Drill Floor:  LOG MEASURED FROM
 AGAP.m                  43.42:  AIR GAP
 VSNS.m                  -2.16:  VERT SEC N/S
 VSEW.m                  -6.24:  VERT SEC E/W
 APD .m                  43.42:  DEPTH ABOVE PD
 WDMS.m                 118.27:  WD ELEV
 EGL .m                   0.00:  GROUND ELEVATION
 EPD .m                   0.00:  ELEVATION
 AZTC.deg                 6.29:  AZM TOTAL CORR
 GRDC.deg                 0.18:  GRID CORRECTION
 MDEC.deg                 6.47:  MAGNETIC DECL
 MDIP.deg                59.54:  MAGNETIC DIP
 MFLD.nT              50337.00:  MAGNETIC FIELD
 GVFD.g                   1.00:  GRAVITY FIELD
 VSDR.deg               226.99:  VERT SEC DIRECT
 TDD .m                   0.00:  TOTAL DEPTH (DRILLER)
 SDEP.m                 448.00:  START DEPTH
 DFSL.m                   0.00:  DISTANCE FSL
 DFWL.m                   0.00:  DISTANCE FWL
 UTMY.m             4435799.96:  UTM Y
 UTMX.m              526265.35:  UTM X
 WHEW.m                  -6.24:  WELL HEAD E/W
 WHNS.m                  -2.16:  WELL HEAD N/S
 LONG.deg                51.31:  LONGITUDE
 LATI.deg                40.06:  LATITUDE
 TVDS.m                  43.42:  TVDSS CORRECTN
 EKB .m                  43.42:  KB ELEVATION
 EDF .m                  43.42:  DF ELEVATION
 TDL .m                 288.00:  TOTAL DEPTH (LOGGER)
 MAGU.                 1851863:  MAGUTM CHECKSUM
 VSC .                       0:  VS TO CLOSURE
~Parameter Information Block
#MNEM.UNIT       Value        Description
#---------     -----------    ---------------------------
 AV  .mps                 0.40:  Ann Velocity 
 AVMX.mps                 0.63:  Max Ann Veloc 
 AZIF.deg               158.76:  Azm, Final 
 BHAT.        Rotary Steerable:  BHA Type 
 BROT.∞/30m               0.68:  Build Rotating 
 BS  .in                  8.50:  Bit Size 
 BSZ .in                  8.50:  Bit Size 
 BTPL.psig              712.00:  Bit Press Loss 
 CABU.                      No:  Customer Abuse 
 COMM.                     l(ê:  Run Comments 1 
 TCS .hr                 90.66:  Time Ciculation Ended 
 CV  .mps                 2.02:  Crit Velocity 
 CVMX.mps                 2.14:  Max Crit Veloc 
 DD1 .            Aziz Aliyevu:  Direct Drillr 1 
 DD2 .             Samir Abbas:  Direct Drillr 2 
 DD3 .           Teymur Aliyev:  Direct Drillr 3 
 DDSV.                 iCruise:  DD Service 
 DEFF.%                  85.10:  % Det Eff 
 DLRX.∞/30m               1.05:  Dogleg Rot Max 
 DLSO.∞/30m               1.01:  Dogleg Oriented 
 DLSX.∞/30m               1.05:  Dogleg Str Max 
 DRET.      07.45.00 18-Jul-21:  Drill End Time 
 DRST.      15.00.00 16-Jul-21:  Drill Start Tim 
 DTIM.hr                 23.46:  Time Drilling 
 EDEP.m                4603.00:  End Depth 
 ENG1.       Seymur Iskandarov:  Engineer 1 
 ENG2.         Yevgeniy Ulikov:  Engineer 2 
 ENG3.         Bahruz Mehdiyev:  Engineer 3 
 ENG4.         Elchin Mammadov:  Engineer 4 
 ETIM.      14.00.00 23-Jul-21:  End Time 
 FLOI.gpm               500.00:  Flow In 
 FLON.gpm               450.00:  Flow In Min 
 FLOS.cptm                0.00:  Fluid Loss 
 FLOX.gpm               560.00:  Flow In Max 
 DFT .        Mineral Oil Base:  Mud Type 
 FTRO.       Formation Presure:  FTWD Run Obj 
 HFLO.                      No:  High Flow 
 HPRE.                      No:  High Pressure 
 HTEM.                      No:  High Temp 
 HYDO.m                   1.80:  Hydro Offset 
 IFIN.deg                40.22:  Inc, Final 
 IMAX.deg                40.54:  Inc Max 
 IMIN.deg                39.44:  Inc Min 
 IMND.m                4361.17:  Inc Min Depth 
 IMXD.m                4417.92:  Inc Max Depth 
 JARR.                      No:  Jarring 
 LETM.      07.45.00 18-Jul-21:  Log End Time 
 LOST.hr                    16:  Lost Rig Time 
 LSTM.      15.00.00 16-Jul-21:  Log Start Time 
 MDCL.ppm             36500.00:  Mud Chlorides 
 MDES.     Inversion Oil/Synthetic:  Mud Desc 
 DFD .sg                  1.42:  Mud Density 
 MDMN.sg                  1.42:  Dens Mud Min 
 MDMX.sg                  1.43:  Dens Mud Max 
 MOIL.                      56:  Run Mud Oil % 
 MOWR.                   71:29:  Run Mud OWR 
 MSND.                     0.5:  Run Mud Sand % 
 MSOL.                      21:  Run Mud Solids% 
 DFV .spqt               78.00:  Mud Viscosity 
 MWOD.in                  6.75:  MWD Tool OD 
 MWSI.                     Yes:  Serv Intrp, MWD 
 OTIM.hr                200.73:  Time Operating 
 PCON.           Look Like New:  Pad Condition 
 PMAX.psia            11069.93:  Press Op, Max 
 PV  .cP                 32.00:  Mud PV 
 RUN .                     700:  Run Number 
 ROPA.m/hr               10.00:  ROP Avg 
 ROPN.m/hr                9.00:  ROP Min 
 ROPX.m/hr               16.00:  ROP Max 
 RPMA.rpm               116.00:  RPM Surface Avg 
 RPMN.rpm                80.00:  RPM Surface Min 
 RPMX.rpm               120.00:  RPM Surface Max 
 RRUN.                    L605:  Rig Run Number 
 RTIM.hr                 45.00:  Time Reaming 
 SAZI.deg               159.86:  Azm, Start 
 SDEP.m                4315.00:  Start Depth 
 SIDD.                      No:  Serv Intrp, DD 
 SINC.deg                39.86:  Inc, Start 
 SPPA.psig             3300.00:  SPP Avg 
 SPPN.psig             3040.00:  SPP Min 
 SPPX.psig             3645.00:  SPP Max 
 STIM.      01.00.00 15-Jul-21:  Start Time 
 SVCS.                 DD, MWD:  Services 
 SVER.                    9.20:  Sperry Version 
 TDAT.m                 288.00:  Tot Depth Attmp 
 TDDF.                      No:  Trip for DD 
 TDLG.m                 288.00:  Tot Depth Loggd 
 TFF .                      No:  Trip for Fail 
 TQAA.f-kp               19.00:  Torque Abs Avg 
 TQAN.f-kp               18.00:  Torque Abs Min 
 TQAX.f-kp               21.00:  Torque Abs Max 
 TRRT.∞/30m               0.45:  Turn Rotating 
 MRT .                    HCIM:  Maximum Recorded Temperature 
 TTMX.degC               88.24:  Max Tool Temp 
 VS01.                90649157:  Virtual Str1 SN 
 VS02.                90652483:  Virtual Str2 SN 
 VS03.                11671987:  Virtual Str3 SN 
 VS04.                90643411:  Virtual Str4 SN 
 VS05.                90652478:  Virtual Str5 SN 
 VS06.                    6111:  Virtual Str6 SN 
 WBMN.klb                 9.50:  WOB Min 
 WITN.        Grigoriy Sarayev:  Customer Rep 
 WITN.          Rufat Huseynov:  Customer Rep 2 
 WOBA.klb                11.00:  WOB Avg 
 WOBX.klb                15.00:  WOB Max 
 YP  .lhf2               28.00:  Yield Point 
~Curve Information Block
#MNEM.UNIT                 API CODE     Curve Description
#---------               -----------    ---------------------------
 TIME.HHMMSS            00 000 000 000:  GT Time & Date
 GTDEPTH.m              00 000 000 000:  GT Depth
 GTPQH.psia             00 000 000 000:  GT HR Quartz Pressure
 GTTQ.degC              00 000 000 000:  GT Quartz Temperature
 GTTN.NONE              00 000 000 000:  GT Test Number
 GTET.sec               00 000 000 000:  GT Elapsed Test Time
 GTTVD.m                00 000 000 000:  GT True Vertical Depth
#Other Information
#
#WARRANTY: Halliburton will use its best efforts to furnish customers with 
#accurate information and interpretations that are part of, and incident to, the services 
#provided.  However, Halliburton cannot and does not warrant the accuracy 
#or correctness of such information and interpretations.  Under no circumstances should any 
#such information or interpretation be relied upon as the sole basis for any drilling, 
#completion, production, or financial decision or any procedure involving any risk to the 
#safety of any drilling venture, drilling rig or its crew or any other third party.  The 
#Customer has full responsibility for all drilling, completion and production operation.  
#Halliburton makes no representations or warranties, either expressed or 
#implied, including, but not limited to, the implied warranties of merchantability or fitness 
#for a particular purpose, with respect to the services rendered.  In no event will 
#Halliburton be liable for failure to obtain any particular results or for 
#any damages, including, but not limited to, indirect, special or consequential damages, 
#resulting from the use of any information or interpretation provided by Halliburton.
#
~A           TIME           GTDEPTH  GTPQH  GTTQ  GTTN   GTET   GTTVD  
# ...
   10:23:25.347.19-Jul-2021 4487.50 6497.85 70.47 22.00  22.61 2690.71
   10:23:25.547.19-Jul-2021 4487.50 6499.01 70.47 22.00  22.81 2690.71
   10:23:25.748.19-Jul-2021 4487.50 6499.05 70.47 22.00  23.01 2690.71
   10:23:25.948.19-Jul-2021 4487.50 6499.05 70.47 22.00  23.21 2690.71
   10:23:26.148.19-Jul-2021 4487.50 6498.17 70.47 22.00  23.41 2690.71
   10:23:26.348.19-Jul-2021 4487.50 6498.49 70.47 22.00  23.61 2690.71
   10:23:26.548.19-Jul-2021 4487.50 6498.51 70.47 22.00  23.81 2690.71
   10:23:26.748.19-Jul-2021 4487.50 6499.15 70.47 22.00  24.01 2690.71
   10:23:26.948.19-Jul-2021 4487.50 6499.15 70.47 22.00  24.21 2690.71
   10:23:27.148.19-Jul-2021 4487.50 6499.53 70.47 22.00  24.41 2690.71
   10:23:27.348.19-Jul-2021 4487.50 6499.66 70.47 22.00  24.61 2690.71
   10:23:27.548.19-Jul-2021 4487.50 6507.06 70.47 22.00  24.81 2690.71
   10:23:27.748.19-Jul-2021 4487.50 6508.74 70.47 22.00  25.01 2690.71
   10:23:27.948.19-Jul-2021 4487.50 6508.74 70.47 22.00  25.21 2690.71
   10:23:28.148.19-Jul-2021 4487.50 6501.14 70.47 22.00  25.41 2690.71
   10:23:28.349.19-Jul-2021 4487.50 6500.96 70.47 22.00  25.61 2690.71
   10:23:28.549.19-Jul-2021 4487.50 6501.28 70.47 22.00  25.81 2690.71
   10:23:28.749.19-Jul-2021 4487.50 6499.06 70.47 22.00  26.01 2690.71
   10:23:28.949.19-Jul-2021 4487.50 6499.06 70.47 22.00  26.21 2690.71
   10:23:29.149.19-Jul-2021 4487.50 6498.55 70.47 22.00  26.41 2690.71
   10:23:29.349.19-Jul-2021 4487.50 6498.28 70.47 22.00  26.61 2690.71
   10:23:29.549.19-Jul-2021 4487.50 6498.57 70.47 22.00  26.81 2690.71
   10:23:29.749.19-Jul-2021 4487.50 6498.27 70.47 22.00  27.01 2690.71
   10:23:29.949.19-Jul-2021 4487.50 6498.27 70.47 22.00  27.21 2690.71
   10:23:30.149.19-Jul-2021 4487.50 6499.53 70.47 22.00  27.41 2690.71
   10:23:30.349.19-Jul-2021 4487.50 6516.39 70.47 22.00  27.61 2690.71
   10:23:30.549.19-Jul-2021 4487.50 6508.77 70.47 22.00  27.81 2690.71
   10:23:30.749.19-Jul-2021 4487.50 6509.54 70.47 22.00  28.01 2690.71
   10:23:30.949.19-Jul-2021 4487.50 6509.54 70.47 22.00  28.21 2690.71
   10:23:31.150.19-Jul-2021 4487.50 6513.96 70.47 22.00  28.41 2690.71
   10:23:31.350.19-Jul-2021 4487.50 6513.06 70.47 22.00  28.61 2690.71
   10:23:31.550.19-Jul-2021 4487.50 6515.75 70.47 22.00  28.81 2690.71
   10:23:31.750.19-Jul-2021 4487.50 6515.89 70.47 22.00  29.01 2690.71
   10:23:31.950.19-Jul-2021 4487.50 6515.89 70.47 22.00  29.21 2690.71
   10:23:32.150.19-Jul-2021 4487.50 6506.08 70.47 22.00  29.41 2690.71
   10:23:32.350.19-Jul-2021 4487.50 6506.08 70.47 22.00  29.61 2690.71
   10:23:32.550.19-Jul-2021 4487.50 6526.20 70.47 22.00  29.81 2690.71
   10:23:32.750.19-Jul-2021 4487.50 6496.64 70.47 22.00  30.01 2690.71
   10:23:32.950.19-Jul-2021 4487.50 6496.64 70.47 22.00  30.21 2690.71
   10:23:33.150.19-Jul-2021 4487.50 6507.56 70.47 22.00  30.41 2690.71
   10:23:33.350.19-Jul-2021 4487.50 6504.29 70.47 22.00  30.61 2690.71
   10:23:33.550.19-Jul-2021 4487.50 6526.49 70.47 22.00  30.81 2690.71
   10:23:33.751.19-Jul-2021 4487.50 6487.09 70.47 22.00  31.01 2690.71
   10:23:33.951.19-Jul-2021 4487.50 6487.09 70.47 22.00  31.21 2690.71
   10:23:34.151.19-Jul-2021 4487.50 6455.12 70.47 22.00  31.41 2690.71
   10:23:34.351.19-Jul-2021 4487.50 6430.50 70.47 22.00  31.61 2690.71
   10:23:34.551.19-Jul-2021 4487.50 6400.46 70.47 22.00  31.81 2690.71
   10:23:34.751.19-Jul-2021 4487.50 6367.96 70.47 22.00  32.01 2690.71
   10:23:34.951.19-Jul-2021 4487.50 6367.96 70.47 22.00  32.21 2690.71
   10:23:35.151.19-Jul-2021 4487.50 6332.68 70.47 22.00  32.41 2690.71
   10:23:35.351.19-Jul-2021 4487.50 6326.25 70.47 22.00  32.61 2690.71
   10:23:35.551.19-Jul-2021 4487.50 6324.12 70.47 22.00  32.81 2690.71
   10:23:35.751.19-Jul-2021 4487.50 6322.70 70.47 22.00  33.01 2690.71
   10:23:35.951.19-Jul-2021 4487.50 6322.70 70.47 22.00  33.21 2690.71
   10:23:36.151.19-Jul-2021 4487.50 6321.40 70.47 22.00  33.41 2690.71
   10:23:36.351.19-Jul-2021 4487.50 6322.06 70.47 22.00  33.61 2690.71
   10:23:36.552.19-Jul-2021 4487.50 6328.91 70.47 22.00  33.81 2690.71
   10:23:36.752.19-Jul-2021 4487.50 6332.00 70.47 22.00  34.01 2690.71
   10:23:36.952.19-Jul-2021 4487.50 6332.00 70.47 22.00  34.21 2690.71
   10:23:37.152.19-Jul-2021 4487.50 6332.41 70.47 22.00  34.41 2690.71
   10:23:37.352.19-Jul-2021 4487.50 6333.00 70.47 22.00  34.61 2690.71
   10:23:37.552.19-Jul-2021 4487.50 6333.75 70.47 22.00  34.81 2690.71
   10:23:37.752.19-Jul-2021 4487.50 6334.46 70.47 22.00  35.01 2690.71
   10:23:37.952.19-Jul-2021 4487.50 6334.46 70.47 22.00  35.21 2690.71
   10:23:38.152.19-Jul-2021 4487.50 6336.00 70.47 22.00  35.41 2690.71
   10:23:38.352.19-Jul-2021 4487.50 6336.74 70.47 22.00  35.61 2690.71
   10:23:38.552.19-Jul-2021 4487.50 6337.17 70.47 22.00  35.81 2690.71
   10:23:38.752.19-Jul-2021 4487.50 6337.41 70.47 22.00  36.01 2690.71
   10:23:38.952.19-Jul-2021 4487.50 6337.41 70.47 22.00  36.21 2690.71
   10:23:39.153.19-Jul-2021 4487.50 6337.63 70.47 22.00  36.41 2690.71
   10:23:39.353.19-Jul-2021 4487.50 6290.95 70.47 22.00  36.61 2690.71
   10:23:39.553.19-Jul-2021 4487.50 5661.03 70.47 22.00  36.81 2690.71
   10:23:39.753.19-Jul-2021 4487.50 4619.63 70.47 22.00  37.01 2690.71
   10:23:39.953.19-Jul-2021 4487.50 4619.63 70.47 22.00  37.21 2690.71
   10:23:40.153.19-Jul-2021 4487.50 3712.08 70.47 22.00  37.41 2690.71
   10:23:40.353.19-Jul-2021 4487.50 3541.59 70.47 22.00  37.61 2690.71
   10:23:40.553.19-Jul-2021 4487.50 3541.35 70.47 22.00  37.81 2690.71
   10:23:40.753.19-Jul-2021 4487.50 3541.15 70.47 22.00  38.01 2690.71
   10:23:40.953.19-Jul-2021 4487.50 3541.15 70.47 22.00  38.21 2690.71
   10:23:41.153.19-Jul-2021 4487.50 3540.59 70.47 22.00  38.41 2690.71
   10:23:41.353.19-Jul-2021 4487.50 3539.39 70.47 22.00  38.61 2690.71
   10:23:41.553.19-Jul-2021 4487.50 3538.82 70.46 22.00  38.81 2690.71
   10:23:41.753.19-Jul-2021 4487.50 3538.24 70.46 22.00  39.01 2690.71
   10:23:41.954.19-Jul-2021 4487.50 3538.24 70.46 22.00  39.21 2690.71
   10:23:42.154.19-Jul-2021 4487.50 3537.62 70.46 22.00  39.41 2690.71
   10:23:42.354.19-Jul-2021 4487.50 3537.48 70.46 22.00  39.61 2690.71
   10:23:42.554.19-Jul-2021 4487.50 3537.26 70.46 22.00  39.81 2690.71
   10:23:42.754.19-Jul-2021 4487.50 3537.00 70.45 22.00  40.01 2690.71
   10:23:42.954.19-Jul-2021 4487.50 3537.00 70.45 22.00  40.21 2690.71
   10:23:43.154.19-Jul-2021 4487.50 3536.70 70.45 22.00  40.41 2690.71
   10:23:43.354.19-Jul-2021 4487.50 3536.68 70.45 22.00  40.61 2690.71
   10:23:43.554.19-Jul-2021 4487.50 3536.57 70.45 22.00  40.82 2690.71
   10:23:43.754.19-Jul-2021 4487.50 3536.49 70.45 22.00  41.02 2690.71
   10:23:43.954.19-Jul-2021 4487.50 3536.49 70.45 22.00  41.22 2690.71
   10:23:44.154.19-Jul-2021 4487.50 3536.34 70.44 22.00  41.42 2690.71
   10:23:44.354.19-Jul-2021 4487.50 3536.29 70.44 22.00  41.62 2690.71
   10:23:44.554.19-Jul-2021 4487.50 3536.20 70.44 22.00  41.82 2690.71
   10:23:44.755.19-Jul-2021 4487.50 3536.23 70.44 22.00  42.02 2690.71
   10:23:44.955.19-Jul-2021 4487.50 3536.23 70.44 22.00  42.22 2690.71
   10:23:45.155.19-Jul-2021 4487.50 3536.03 70.44 22.00  42.42 2690.71
   10:23:45.355.19-Jul-2021 4487.50 3536.08 70.43 22.00  42.62 2690.71
   10:23:45.555.19-Jul-2021 4487.50 3536.01 70.43 22.00  42.82 2690.71
   10:23:45.755.19-Jul-2021 4487.50 3536.02 70.43 22.00  43.02 2690.71
   10:23:45.955.19-Jul-2021 4487.50 3536.02 70.43 22.00  43.22 2690.71
   10:23:46.155.19-Jul-2021 4487.50 3536.06 70.43 22.00  43.42 2690.71
   10:23:46.355.19-Jul-2021 4487.50 3535.98 70.43 22.00  43.62 2690.71
   10:23:46.555.19-Jul-2021 4487.50 3535.99 70.43 22.00  43.82 2690.71
   10:23:46.755.19-Jul-2021 4487.50 3535.97 70.43 22.00  44.02 2690.71
   10:23:46.955.19-Jul-2021 4487.50 3535.97 70.43 22.00  44.22 2690.71
   10:23:47.155.19-Jul-2021 4487.50 3536.00 70.42 22.00  44.42 2690.71
   10:23:47.356.19-Jul-2021 4487.50 3535.97 70.42 22.00  44.62 2690.71
   10:23:47.556.19-Jul-2021 4487.50 3535.97 70.42 22.00  44.82 2690.71
   10:23:47.756.19-Jul-2021 4487.50 3535.96 70.42 22.00  45.02 2690.71
