~Version Information
 VERS.                  2.0:   CWLS log ASCII Standard -VERSION 2.0
 WRAP.                   NO:   One line per depth step
~Well Information Block
#MNEM.UNIT     VALUE/NAME     DESCRIPTION
#---------     -----------    ---------------------------
 STRT.S             04:43:18 19-Jul-21: START TIME 04:43:18 19-Jul-21
 STOP.S             04:49:54 19-Jul-21: STOP TIME  04:49:54 19-Jul-21
 STEP.S                   0.00: STEP TIME
 NULL.                 -999.25: NULL VALUE
 MDS .        Operator Entered:  MAG DATA SOURCE
 PDAT.          Mean Sea Level:  PERMANENT DATUM
 UNIT.                     N/A:  LOGGING EQUIPMENT ID
 DCON.         Sperry Drilling:  DIRECTNL CONTR
 DOE .                     N/A:  DOE NUMBER
 RIG .              West Azeri:  RIG NAME
 JOBN.        AZ-XX-0906997913:  JOB TICKET NUMB
 WELL.                     C41:  WELL NAME
 MWDS.                    Baku:  MWD SHOP
 SRVC.          Turan Drilling:  CONTRACTOR
 FLD .                     ACG:  FIELD NAME
 CTRY.              Azerbaijan:  COUNTRY NAME
 PROV.                    Baku:  PROVINCE
 STAT.                    Baku:  STATE NAME
 REGN.                   EESSA:  REGION
 BASE.              Azerbaijan:  LOGGING EQUIPMENT BASE LOCATION
 UWI .                     N/A:  UNIQUE WELL IDENTIFIER
 API .                     N/A:  API NUMBER
 COMP.     BP Exploration (Caspian Sea) Ltd.:  COMPANY
 WTYP.                Deviated:  WELL TYPE
 SON .        AZ-XX-0906997913:  JOB NUMBER
 FTOP.          Formation Tops:  FORM TOPS DESC
 ILTD.               Lithology:  INTERP LTH DESC
 SVYD.                  Survey:  SURVEY DESC
 DMOD.             Drill Model:  DRILL MOD DESC
 HPTY.       Minimum Curvature:  HOLE POS TYPE
 NREF.                    Grid:  NORTH REFERENCE
 SPUD.               16-May-21:  SPUD DATE
 DATE.      21.11.28 17-May-21:  END TIME
 STIM.      21.11.28 17-May-21:  START TIME
 DMF .             Drill Floor:  DRILL MEAS FROM
 DFST.                        :  DIST FSL TEXT
 DFWT.                        :  DIST FWL TEXT
 CNTY.                        :  COUNTY
 LOC .                        :  LOCATION
 LMF .             Drill Floor:  LOG MEASURED FROM
 AGAP.m                  43.42:  AIR GAP
 VSNS.m                  -2.16:  VERT SEC N/S
 VSEW.m                  -6.24:  VERT SEC E/W
 APD .m                  43.42:  DEPTH ABOVE PD
 WDMS.m                 118.27:  WD ELEV
 EGL .m                   0.00:  GROUND ELEVATION
 EPD .m                   0.00:  ELEVATION
 AZTC.deg                 6.29:  AZM TOTAL CORR
 GRDC.deg                 0.18:  GRID CORRECTION
 MDEC.deg                 6.47:  MAGNETIC DECL
 MDIP.deg                59.54:  MAGNETIC DIP
 MFLD.nT              50337.00:  MAGNETIC FIELD
 GVFD.g                   1.00:  GRAVITY FIELD
 VSDR.deg               226.99:  VERT SEC DIRECT
 TDD .m                   0.00:  TOTAL DEPTH (DRILLER)
 SDEP.m                 448.00:  START DEPTH
 DFSL.m                   0.00:  DISTANCE FSL
 DFWL.m                   0.00:  DISTANCE FWL
 UTMY.m             4435799.96:  UTM Y
 UTMX.m              526265.35:  UTM X
 WHEW.m                  -6.24:  WELL HEAD E/W
 WHNS.m                  -2.16:  WELL HEAD N/S
 LONG.deg                51.31:  LONGITUDE
 LATI.deg                40.06:  LATITUDE
 TVDS.m                  43.42:  TVDSS CORRECTN
 EKB .m                  43.42:  KB ELEVATION
 EDF .m                  43.42:  DF ELEVATION
 TDL .m                 288.00:  TOTAL DEPTH (LOGGER)
 MAGU.                 1851863:  MAGUTM CHECKSUM
 VSC .                       0:  VS TO CLOSURE
~Parameter Information Block
#MNEM.UNIT       Value        Description
#---------     -----------    ---------------------------
 AV  .mps                 0.40:  Ann Velocity 
 AVMX.mps                 0.63:  Max Ann Veloc 
 AZIF.deg               158.76:  Azm, Final 
 BHAT.        Rotary Steerable:  BHA Type 
 BROT.°/30m               0.68:  Build Rotating 
 BS  .in                  8.50:  Bit Size 
 BSZ .in                  8.50:  Bit Size 
 BTPL.psig              712.00:  Bit Press Loss 
 CABU.                      No:  Customer Abuse 
 COMM.                     ”™f:  Run Comments 1 
 TCS .hr                 90.66:  Time Ciculation Ended 
 CV  .mps                 2.02:  Crit Velocity 
 CVMX.mps                 2.14:  Max Crit Veloc 
 DD1 .            Aziz Aliyevu:  Direct Drillr 1 
 DD2 .             Samir Abbas:  Direct Drillr 2 
 DD3 .           Teymur Aliyev:  Direct Drillr 3 
 DDSV.                 iCruise:  DD Service 
 DEFF.%                  85.10:  % Det Eff 
 DLRX.°/30m               1.05:  Dogleg Rot Max 
 DLSO.°/30m               1.01:  Dogleg Oriented 
 DLSX.°/30m               1.05:  Dogleg Str Max 
 DRET.      07.45.00 18-Jul-21:  Drill End Time 
 DRST.      15.00.00 16-Jul-21:  Drill Start Tim 
 DTIM.hr                 23.46:  Time Drilling 
 EDEP.m                4603.00:  End Depth 
 ENG1.       Seymur Iskandarov:  Engineer 1 
 ENG2.         Yevgeniy Ulikov:  Engineer 2 
 ENG3.         Bahruz Mehdiyev:  Engineer 3 
 ENG4.         Elchin Mammadov:  Engineer 4 
 ETIM.      14.00.00 23-Jul-21:  End Time 
 FLOI.gpm               500.00:  Flow In 
 FLON.gpm               450.00:  Flow In Min 
 FLOS.cptm                0.00:  Fluid Loss 
 FLOX.gpm               560.00:  Flow In Max 
 DFT .        Mineral Oil Base:  Mud Type 
 FTRO.       Formation Presure:  FTWD Run Obj 
 HFLO.                      No:  High Flow 
 HPRE.                      No:  High Pressure 
 HTEM.                      No:  High Temp 
 HYDO.m                   1.80:  Hydro Offset 
 IFIN.deg                40.22:  Inc, Final 
 IMAX.deg                40.54:  Inc Max 
 IMIN.deg                39.44:  Inc Min 
 IMND.m                4361.17:  Inc Min Depth 
 IMXD.m                4417.92:  Inc Max Depth 
 JARR.                      No:  Jarring 
 LETM.      07.45.00 18-Jul-21:  Log End Time 
 LOST.hr                    16:  Lost Rig Time 
 LSTM.      15.00.00 16-Jul-21:  Log Start Time 
 MDCL.ppm             36500.00:  Mud Chlorides 
 MDES.     Inversion Oil/Synthetic:  Mud Desc 
 DFD .sg                  1.42:  Mud Density 
 MDMN.sg                  1.42:  Dens Mud Min 
 MDMX.sg                  1.43:  Dens Mud Max 
 MOIL.                      56:  Run Mud Oil % 
 MOWR.                   71:29:  Run Mud OWR 
 MSND.                     0.5:  Run Mud Sand % 
 MSOL.                      21:  Run Mud Solids% 
 DFV .spqt               78.00:  Mud Viscosity 
 MWOD.in                  6.75:  MWD Tool OD 
 MWSI.                     Yes:  Serv Intrp, MWD 
 OTIM.hr                200.73:  Time Operating 
 PCON.           Look Like New:  Pad Condition 
 PMAX.psia            11069.93:  Press Op, Max 
 PV  .cP                 32.00:  Mud PV 
 RUN .                     700:  Run Number 
 ROPA.m/hr               10.00:  ROP Avg 
 ROPN.m/hr                9.00:  ROP Min 
 ROPX.m/hr               16.00:  ROP Max 
 RPMA.rpm               116.00:  RPM Surface Avg 
 RPMN.rpm                80.00:  RPM Surface Min 
 RPMX.rpm               120.00:  RPM Surface Max 
 RRUN.                    L605:  Rig Run Number 
 RTIM.hr                 45.00:  Time Reaming 
 SAZI.deg               159.86:  Azm, Start 
 SDEP.m                4315.00:  Start Depth 
 SIDD.                      No:  Serv Intrp, DD 
 SINC.deg                39.86:  Inc, Start 
 SPPA.psig             3300.00:  SPP Avg 
 SPPN.psig             3040.00:  SPP Min 
 SPPX.psig             3645.00:  SPP Max 
 STIM.      01.00.00 15-Jul-21:  Start Time 
 SVCS.                 DD, MWD:  Services 
 SVER.                    9.20:  Sperry Version 
 TDAT.m                 288.00:  Tot Depth Attmp 
 TDDF.                      No:  Trip for DD 
 TDLG.m                 288.00:  Tot Depth Loggd 
 TFF .                      No:  Trip for Fail 
 TQAA.f-kp               19.00:  Torque Abs Avg 
 TQAN.f-kp               18.00:  Torque Abs Min 
 TQAX.f-kp               21.00:  Torque Abs Max 
 TRRT.°/30m               0.45:  Turn Rotating 
 MRT .                    HCIM:  Maximum Recorded Temperature 
 TTMX.degC               88.24:  Max Tool Temp 
 VS01.                90649157:  Virtual Str1 SN 
 VS02.                90652483:  Virtual Str2 SN 
 VS03.                11671987:  Virtual Str3 SN 
 VS04.                90643411:  Virtual Str4 SN 
 VS05.                90652478:  Virtual Str5 SN 
 VS06.                    6111:  Virtual Str6 SN 
 WBMN.klb                 9.50:  WOB Min 
 WITN.        Grigoriy Sarayev:  Customer Rep 
 WITN.          Rufat Huseynov:  Customer Rep 2 
 WOBA.klb                11.00:  WOB Avg 
 WOBX.klb                15.00:  WOB Max 
 YP  .lhf2               28.00:  Yield Point 
~Curve Information Block
#MNEM.UNIT                 API CODE     Curve Description
#---------               -----------    ---------------------------
 TIME.HHMMSS            00 000 000 000:  GT Time & Date
 GTDEPTH.m              00 000 000 000:  GT Depth
 GTPQH.psia             00 000 000 000:  GT HR Quartz Pressure
 GTTQ.degC              00 000 000 000:  GT Quartz Temperature
 GTTN.NONE              00 000 000 000:  GT Test Number
 GTET.sec               00 000 000 000:  GT Elapsed Test Time
 GTTVD.m                00 000 000 000:  GT True Vertical Depth
#Other Information
#
#WARRANTY: Halliburton will use its best efforts to furnish customers with 
#accurate information and interpretations that are part of, and incident to, the services 
#provided.  However, Halliburton cannot and does not warrant the accuracy 
#or correctness of such information and interpretations.  Under no circumstances should any 
#such information or interpretation be relied upon as the sole basis for any drilling, 
#completion, production, or financial decision or any procedure involving any risk to the 
#safety of any drilling venture, drilling rig or its crew or any other third party.  The 
#Customer has full responsibility for all drilling, completion and production operation.  
#Halliburton makes no representations or warranties, either expressed or 
#implied, including, but not limited to, the implied warranties of merchantability or fitness 
#for a particular purpose, with respect to the services rendered.  In no event will 
#Halliburton be liable for failure to obtain any particular results or for 
#any damages, including, but not limited to, indirect, special or consequential damages, 
#resulting from the use of any information or interpretation provided by Halliburton.
#
~A           TIME           GTDEPTH  GTPQH  GTTQ  GTTN   GTET   GTTVD  
# ...
   04:47:49.533.19-Jul-2021 4355.50  643.93 68.70 11.00 271.30 2589.71
   04:47:49.733.19-Jul-2021 4355.50  645.82 68.70 11.00 271.50 2589.71
   04:47:49.933.19-Jul-2021 4355.50  646.58 68.70 11.00 271.70 2589.71
   04:47:50.133.19-Jul-2021 4355.50  647.19 68.70 11.00 271.90 2589.71
   04:47:50.334.19-Jul-2021 4355.50  648.11 68.70 11.00 272.10 2589.71
   04:47:50.534.19-Jul-2021 4355.50  648.11 68.70 11.00 272.30 2589.71
   04:47:50.734.19-Jul-2021 4355.50  649.83 68.70 11.00 272.50 2589.71
   04:47:50.934.19-Jul-2021 4355.50  650.54 68.70 11.00 272.70 2589.71
   04:47:51.134.19-Jul-2021 4355.50  651.37 68.70 11.00 272.90 2589.71
   04:47:51.334.19-Jul-2021 4355.50  650.82 68.70 11.00 273.10 2589.71
   04:47:51.534.19-Jul-2021 4355.50  650.82 68.70 11.00 273.30 2589.71
   04:47:51.734.19-Jul-2021 4355.50  652.73 68.70 11.00 273.50 2589.71
   04:47:51.934.19-Jul-2021 4355.50  653.07 68.70 11.00 273.70 2589.71
   04:47:52.134.19-Jul-2021 4355.50  652.89 68.70 11.00 273.90 2589.71
   04:47:52.334.19-Jul-2021 4355.50  654.12 68.70 11.00 274.10 2589.71
   04:47:52.534.19-Jul-2021 4355.50  654.12 68.70 11.00 274.30 2589.71
   04:47:52.734.19-Jul-2021 4355.50  655.77 68.70 11.00 274.50 2589.71
   04:47:52.934.19-Jul-2021 4355.50  656.42 68.70 11.00 274.70 2589.71
   04:47:53.135.19-Jul-2021 4355.50  657.54 68.70 11.00 274.90 2589.71
   04:47:53.335.19-Jul-2021 4355.50  658.29 68.70 11.00 275.10 2589.71
   04:47:53.535.19-Jul-2021 4355.50  658.29 68.70 11.00 275.30 2589.71
   04:47:53.735.19-Jul-2021 4355.50  659.34 68.70 11.00 275.50 2589.71
   04:47:53.935.19-Jul-2021 4355.50  660.38 68.70 11.00 275.70 2589.71
   04:47:54.135.19-Jul-2021 4355.50  661.57 68.70 11.00 275.90 2589.71
   04:47:54.335.19-Jul-2021 4355.50  661.93 68.70 11.00 276.10 2589.71
   04:47:54.535.19-Jul-2021 4355.50  661.93 68.70 11.00 276.30 2589.71
   04:47:54.735.19-Jul-2021 4355.50  663.10 68.70 11.00 276.50 2589.71
   04:47:54.935.19-Jul-2021 4355.50  664.19 68.70 11.00 276.70 2589.71
   04:47:55.135.19-Jul-2021 4355.50  665.56 68.70 11.00 276.90 2589.71
   04:47:55.335.19-Jul-2021 4355.50  665.93 68.70 11.00 277.10 2589.71
   04:47:55.535.19-Jul-2021 4355.50  665.93 68.70 11.00 277.30 2589.71
   04:47:55.735.19-Jul-2021 4355.50  667.73 68.70 11.00 277.50 2589.71
   04:47:55.936.19-Jul-2021 4355.50  668.57 68.70 11.00 277.70 2589.71
   04:47:56.136.19-Jul-2021 4355.50  669.37 68.70 11.00 277.90 2589.71
   04:47:56.336.19-Jul-2021 4355.50  670.09 68.70 11.00 278.10 2589.71
   04:47:56.536.19-Jul-2021 4355.50  670.09 68.70 11.00 278.30 2589.71
   04:47:56.736.19-Jul-2021 4355.50  671.81 68.70 11.00 278.50 2589.71
   04:47:56.936.19-Jul-2021 4355.50  672.52 68.70 11.00 278.70 2589.71
   04:47:57.136.19-Jul-2021 4355.50  673.17 68.70 11.00 278.90 2589.71
   04:47:57.336.19-Jul-2021 4355.50  673.03 68.70 11.00 279.10 2589.71
   04:47:57.536.19-Jul-2021 4355.50  673.03 68.70 11.00 279.30 2589.71
   04:47:57.736.19-Jul-2021 4355.50  674.90 68.70 11.00 279.50 2589.71
   04:47:57.936.19-Jul-2021 4355.50  676.14 68.70 11.00 279.70 2589.71
   04:47:58.136.19-Jul-2021 4355.50  676.59 68.70 11.00 279.90 2589.71
   04:47:58.336.19-Jul-2021 4355.50  677.35 68.70 11.00 280.10 2589.71
   04:47:58.537.19-Jul-2021 4355.50  677.35 68.70 11.00 280.30 2589.71
   04:47:58.737.19-Jul-2021 4355.50  678.88 68.70 11.00 280.50 2589.71
   04:47:58.937.19-Jul-2021 4355.50  679.67 68.70 11.00 280.70 2589.71
   04:47:59.137.19-Jul-2021 4355.50  680.51 68.70 11.00 280.90 2589.71
   04:47:59.337.19-Jul-2021 4355.50  681.23 68.70 11.00 281.10 2589.71
   04:47:59.537.19-Jul-2021 4355.50  681.23 68.70 11.00 281.30 2589.71
   04:47:59.737.19-Jul-2021 4355.50  681.84 68.70 11.00 281.50 2589.71
   04:47:59.937.19-Jul-2021 4355.50  682.41 68.70 11.00 281.70 2589.71
   04:48:00.137.19-Jul-2021 4355.50  683.14 68.70 11.00 281.90 2589.71
   04:48:00.337.19-Jul-2021 4355.50  683.54 68.70 11.00 282.10 2589.71
   04:48:00.537.19-Jul-2021 4355.50  683.54 68.70 11.00 282.30 2589.71
   04:48:00.737.19-Jul-2021 4355.50  685.03 68.70 11.00 282.50 2589.71
   04:48:00.937.19-Jul-2021 4355.50  686.16 68.71 11.00 282.70 2589.71
   04:48:01.137.19-Jul-2021 4355.50  685.57 68.71 11.00 282.90 2589.71
   04:48:01.338.19-Jul-2021 4355.50  687.57 68.71 11.00 283.10 2589.71
   04:48:01.538.19-Jul-2021 4355.50  687.57 68.71 11.00 283.30 2589.71
   04:48:01.738.19-Jul-2021 4355.50  688.30 68.71 11.00 283.50 2589.71
   04:48:01.938.19-Jul-2021 4355.50  688.59 68.71 11.00 283.70 2589.71
   04:48:02.138.19-Jul-2021 4355.50  690.20 68.71 11.00 283.90 2589.71
   04:48:02.338.19-Jul-2021 4355.50  691.71 68.71 11.00 284.10 2589.71
   04:48:02.538.19-Jul-2021 4355.50  691.71 68.71 11.00 284.30 2589.71
   04:48:02.738.19-Jul-2021 4355.50  692.11 68.71 11.00 284.50 2589.71
   04:48:02.938.19-Jul-2021 4355.50  692.99 68.71 11.00 284.70 2589.71
   04:48:03.138.19-Jul-2021 4355.50  694.29 68.71 11.00 284.90 2589.71
   04:48:03.338.19-Jul-2021 4355.50  695.85 68.71 11.00 285.10 2589.71
   04:48:03.538.19-Jul-2021 4355.50  695.85 68.71 11.00 285.31 2589.71
   04:48:03.738.19-Jul-2021 4355.50  697.17 68.71 11.00 285.51 2589.71
   04:48:03.939.19-Jul-2021 4355.50  697.93 68.71 11.00 285.71 2589.71
   04:48:04.139.19-Jul-2021 4355.50  698.81 68.71 11.00 285.91 2589.71
   04:48:04.339.19-Jul-2021 4355.50  699.60 68.71 11.00 286.11 2589.71
   04:48:04.539.19-Jul-2021 4355.50  699.60 68.71 11.00 286.31 2589.71
   04:48:04.739.19-Jul-2021 4355.50  701.21 68.71 11.00 286.51 2589.71
   04:48:04.939.19-Jul-2021 4355.50  702.02 68.71 11.00 286.71 2589.71
   04:48:05.139.19-Jul-2021 4355.50  702.86 68.71 11.00 286.91 2589.71
   04:48:05.339.19-Jul-2021 4355.50  703.47 68.71 11.00 287.11 2589.71
   04:48:05.539.19-Jul-2021 4355.50  703.47 68.71 11.00 287.31 2589.71
   04:48:05.739.19-Jul-2021 4355.50  704.19 68.71 11.00 287.51 2589.71
   04:48:05.939.19-Jul-2021 4355.50  705.10 68.71 11.00 287.71 2589.71
   04:48:06.139.19-Jul-2021 4355.50  706.42 68.71 11.00 287.91 2589.71
   04:48:06.339.19-Jul-2021 4355.50  706.77 68.71 11.00 288.11 2589.71
   04:48:06.539.19-Jul-2021 4355.50  706.77 68.71 11.00 288.31 2589.71
   04:48:06.740.19-Jul-2021 4355.50  708.37 68.71 11.00 288.51 2589.71
   04:48:06.940.19-Jul-2021 4355.50  709.20 68.71 11.00 288.71 2589.71
   04:48:07.140.19-Jul-2021 4355.50  709.89 68.71 11.00 288.91 2589.71
   04:48:07.340.19-Jul-2021 4355.50  710.66 68.71 11.00 289.11 2589.71
   04:48:07.540.19-Jul-2021 4355.50  710.66 68.71 11.00 289.31 2589.71
   04:48:07.740.19-Jul-2021 4355.50  712.12 68.71 11.00 289.51 2589.71
   04:48:07.940.19-Jul-2021 4355.50  711.50 68.71 11.00 289.71 2589.71
   04:48:08.140.19-Jul-2021 4355.50  713.41 68.71 11.00 289.91 2589.71
   04:48:08.340.19-Jul-2021 4355.50  713.54 68.71 11.00 290.11 2589.71
   04:48:08.540.19-Jul-2021 4355.50  713.54 68.71 11.00 290.31 2589.71
   04:48:08.740.19-Jul-2021 4355.50  713.77 68.71 11.00 290.51 2589.71
   04:48:08.940.19-Jul-2021 4355.50  715.02 68.71 11.00 290.71 2589.71
   04:48:09.140.19-Jul-2021 4355.50  716.45 68.71 11.00 290.91 2589.71
   04:48:09.341.19-Jul-2021 4355.50  716.88 68.71 11.00 291.11 2589.71
   04:48:09.541.19-Jul-2021 4355.50  716.88 68.71 11.00 291.31 2589.71
   04:48:09.741.19-Jul-2021 4355.50  716.52 68.71 11.00 291.51 2589.71
   04:48:09.941.19-Jul-2021 4355.50  718.74 68.71 11.00 291.71 2589.71
   04:48:10.141.19-Jul-2021 4355.50  718.99 68.71 11.00 291.91 2589.71
   04:48:10.341.19-Jul-2021 4355.50  719.87 68.71 11.00 292.11 2589.71
   04:48:10.541.19-Jul-2021 4355.50  719.87 68.71 11.00 292.31 2589.71
   04:48:10.741.19-Jul-2021 4355.50  722.51 68.71 11.00 292.51 2589.71
   04:48:10.941.19-Jul-2021 4355.50  722.92 68.71 11.00 292.71 2589.71
   04:48:11.141.19-Jul-2021 4355.50  722.89 68.71 11.00 292.91 2589.71
   04:48:11.341.19-Jul-2021 4355.50  724.33 68.71 11.00 293.11 2589.71
   04:48:11.541.19-Jul-2021 4355.50  724.33 68.71 11.00 293.31 2589.71
   04:48:11.741.19-Jul-2021 4355.50  726.37 68.71 11.00 293.51 2589.71
   04:48:11.941.19-Jul-2021 4355.50  726.92 68.71 11.00 293.71 2589.71
