~Version Information
 VERS.                  2.0:   CWLS log ASCII Standard -VERSION 2.0
 WRAP.                   NO:   One line per depth step
~Well Information Block
#MNEM.UNIT     VALUE/NAME     DESCRIPTION
#---------     -----------    ---------------------------
 STRT.S             13:11:20 18-Jul-21: START TIME 13:11:20 18-Jul-21
 STOP.S             13:17:54 18-Jul-21: STOP TIME  13:17:54 18-Jul-21
 STEP.S                   0.00: STEP TIME
 NULL.                 -999.25: NULL VALUE
 MDS .        Operator Entered:  MAG DATA SOURCE
 PDAT.          Mean Sea Level:  PERMANENT DATUM
 UNIT.                     N/A:  LOGGING EQUIPMENT ID
 DCON.         Sperry Drilling:  DIRECTNL CONTR
 DOE .                     N/A:  DOE NUMBER
 RIG .              West Azeri:  RIG NAME
 JOBN.        AZ-XX-0906997913:  JOB TICKET NUMB
 WELL.                     C41:  WELL NAME
 MWDS.                    Baku:  MWD SHOP
 SRVC.          Turan Drilling:  CONTRACTOR
 FLD .                     ACG:  FIELD NAME
 CTRY.              Azerbaijan:  COUNTRY NAME
 PROV.                    Baku:  PROVINCE
 STAT.                    Baku:  STATE NAME
 REGN.                   EESSA:  REGION
 BASE.              Azerbaijan:  LOGGING EQUIPMENT BASE LOCATION
 UWI .                     N/A:  UNIQUE WELL IDENTIFIER
 API .                     N/A:  API NUMBER
 COMP.     BP Exploration (Caspian Sea) Ltd.:  COMPANY
 WTYP.                Deviated:  WELL TYPE
 SON .        AZ-XX-0906997913:  JOB NUMBER
 FTOP.          Formation Tops:  FORM TOPS DESC
 ILTD.               Lithology:  INTERP LTH DESC
 SVYD.                  Survey:  SURVEY DESC
 DMOD.             Drill Model:  DRILL MOD DESC
 HPTY.       Minimum Curvature:  HOLE POS TYPE
 NREF.                    Grid:  NORTH REFERENCE
 SPUD.               16-May-21:  SPUD DATE
 DATE.      21.11.28 17-May-21:  END TIME
 STIM.      21.11.28 17-May-21:  START TIME
 DMF .             Drill Floor:  DRILL MEAS FROM
 DFST.                        :  DIST FSL TEXT
 DFWT.                        :  DIST FWL TEXT
 CNTY.                        :  COUNTY
 LOC .                        :  LOCATION
 LMF .             Drill Floor:  LOG MEASURED FROM
 AGAP.m                  43.42:  AIR GAP
 VSNS.m                  -2.16:  VERT SEC N/S
 VSEW.m                  -6.24:  VERT SEC E/W
 APD .m                  43.42:  DEPTH ABOVE PD
 WDMS.m                 118.27:  WD ELEV
 EGL .m                   0.00:  GROUND ELEVATION
 EPD .m                   0.00:  ELEVATION
 AZTC.deg                 6.29:  AZM TOTAL CORR
 GRDC.deg                 0.18:  GRID CORRECTION
 MDEC.deg                 6.47:  MAGNETIC DECL
 MDIP.deg                59.54:  MAGNETIC DIP
 MFLD.nT              50337.00:  MAGNETIC FIELD
 GVFD.g                   1.00:  GRAVITY FIELD
 VSDR.deg               226.99:  VERT SEC DIRECT
 TDD .m                   0.00:  TOTAL DEPTH (DRILLER)
 SDEP.m                 448.00:  START DEPTH
 DFSL.m                   0.00:  DISTANCE FSL
 DFWL.m                   0.00:  DISTANCE FWL
 UTMY.m             4435799.96:  UTM Y
 UTMX.m              526265.35:  UTM X
 WHEW.m                  -6.24:  WELL HEAD E/W
 WHNS.m                  -2.16:  WELL HEAD N/S
 LONG.deg                51.31:  LONGITUDE
 LATI.deg                40.06:  LATITUDE
 TVDS.m                  43.42:  TVDSS CORRECTN
 EKB .m                  43.42:  KB ELEVATION
 EDF .m                  43.42:  DF ELEVATION
 TDL .m                 288.00:  TOTAL DEPTH (LOGGER)
 MAGU.                 1851863:  MAGUTM CHECKSUM
 VSC .                       0:  VS TO CLOSURE
~Parameter Information Block
#MNEM.UNIT       Value        Description
#---------     -----------    ---------------------------
 AV  .mps                 0.40:  Ann Velocity 
 AVMX.mps                 0.63:  Max Ann Veloc 
 AZIF.deg               158.76:  Azm, Final 
 BHAT.        Rotary Steerable:  BHA Type 
 BROT.∞/30m               0.68:  Build Rotating 
 BS  .in                  8.50:  Bit Size 
 BSZ .in                  8.50:  Bit Size 
 BTPL.psig              712.00:  Bit Press Loss 
 CABU.                      No:  Customer Abuse 
 COMM.                     §ÁL:  Run Comments 1 
 TCS .hr                 90.66:  Time Ciculation Ended 
 CV  .mps                 2.02:  Crit Velocity 
 CVMX.mps                 2.14:  Max Crit Veloc 
 DD1 .            Aziz Aliyevu:  Direct Drillr 1 
 DD2 .             Samir Abbas:  Direct Drillr 2 
 DD3 .           Teymur Aliyev:  Direct Drillr 3 
 DDSV.                 iCruise:  DD Service 
 DEFF.%                  85.10:  % Det Eff 
 DLRX.∞/30m               1.05:  Dogleg Rot Max 
 DLSO.∞/30m               1.01:  Dogleg Oriented 
 DLSX.∞/30m               1.05:  Dogleg Str Max 
 DRET.      07.45.00 18-Jul-21:  Drill End Time 
 DRST.      15.00.00 16-Jul-21:  Drill Start Tim 
 DTIM.hr                 23.46:  Time Drilling 
 EDEP.m                4603.00:  End Depth 
 ENG1.       Seymur Iskandarov:  Engineer 1 
 ENG2.         Yevgeniy Ulikov:  Engineer 2 
 ENG3.         Bahruz Mehdiyev:  Engineer 3 
 ENG4.         Elchin Mammadov:  Engineer 4 
 ETIM.      14.00.00 23-Jul-21:  End Time 
 FLOI.gpm               500.00:  Flow In 
 FLON.gpm               450.00:  Flow In Min 
 FLOS.cptm                0.00:  Fluid Loss 
 FLOX.gpm               560.00:  Flow In Max 
 DFT .        Mineral Oil Base:  Mud Type 
 FTRO.       Formation Presure:  FTWD Run Obj 
 HFLO.                      No:  High Flow 
 HPRE.                      No:  High Pressure 
 HTEM.                      No:  High Temp 
 HYDO.m                   1.80:  Hydro Offset 
 IFIN.deg                40.22:  Inc, Final 
 IMAX.deg                40.54:  Inc Max 
 IMIN.deg                39.44:  Inc Min 
 IMND.m                4361.17:  Inc Min Depth 
 IMXD.m                4417.92:  Inc Max Depth 
 JARR.                      No:  Jarring 
 LETM.      07.45.00 18-Jul-21:  Log End Time 
 LOST.hr                    16:  Lost Rig Time 
 LSTM.      15.00.00 16-Jul-21:  Log Start Time 
 MDCL.ppm             36500.00:  Mud Chlorides 
 MDES.     Inversion Oil/Synthetic:  Mud Desc 
 DFD .sg                  1.42:  Mud Density 
 MDMN.sg                  1.42:  Dens Mud Min 
 MDMX.sg                  1.43:  Dens Mud Max 
 MOIL.                      56:  Run Mud Oil % 
 MOWR.                   71:29:  Run Mud OWR 
 MSND.                     0.5:  Run Mud Sand % 
 MSOL.                      21:  Run Mud Solids% 
 DFV .spqt               78.00:  Mud Viscosity 
 MWOD.in                  6.75:  MWD Tool OD 
 MWSI.                     Yes:  Serv Intrp, MWD 
 OTIM.hr                200.73:  Time Operating 
 PCON.           Look Like New:  Pad Condition 
 PMAX.psia            11069.93:  Press Op, Max 
 PV  .cP                 32.00:  Mud PV 
 RUN .                     700:  Run Number 
 ROPA.m/hr               10.00:  ROP Avg 
 ROPN.m/hr                9.00:  ROP Min 
 ROPX.m/hr               16.00:  ROP Max 
 RPMA.rpm               116.00:  RPM Surface Avg 
 RPMN.rpm                80.00:  RPM Surface Min 
 RPMX.rpm               120.00:  RPM Surface Max 
 RRUN.                    L605:  Rig Run Number 
 RTIM.hr                 45.00:  Time Reaming 
 SAZI.deg               159.86:  Azm, Start 
 SDEP.m                4315.00:  Start Depth 
 SIDD.                      No:  Serv Intrp, DD 
 SINC.deg                39.86:  Inc, Start 
 SPPA.psig             3300.00:  SPP Avg 
 SPPN.psig             3040.00:  SPP Min 
 SPPX.psig             3645.00:  SPP Max 
 STIM.      01.00.00 15-Jul-21:  Start Time 
 SVCS.                 DD, MWD:  Services 
 SVER.                    9.20:  Sperry Version 
 TDAT.m                 288.00:  Tot Depth Attmp 
 TDDF.                      No:  Trip for DD 
 TDLG.m                 288.00:  Tot Depth Loggd 
 TFF .                      No:  Trip for Fail 
 TQAA.f-kp               19.00:  Torque Abs Avg 
 TQAN.f-kp               18.00:  Torque Abs Min 
 TQAX.f-kp               21.00:  Torque Abs Max 
 TRRT.∞/30m               0.45:  Turn Rotating 
 MRT .                    HCIM:  Maximum Recorded Temperature 
 TTMX.degC               88.24:  Max Tool Temp 
 VS01.                90649157:  Virtual Str1 SN 
 VS02.                90652483:  Virtual Str2 SN 
 VS03.                11671987:  Virtual Str3 SN 
 VS04.                90643411:  Virtual Str4 SN 
 VS05.                90652478:  Virtual Str5 SN 
 VS06.                    6111:  Virtual Str6 SN 
 WBMN.klb                 9.50:  WOB Min 
 WITN.        Grigoriy Sarayev:  Customer Rep 
 WITN.          Rufat Huseynov:  Customer Rep 2 
 WOBA.klb                11.00:  WOB Avg 
 WOBX.klb                15.00:  WOB Max 
 YP  .lhf2               28.00:  Yield Point 
~Curve Information Block
#MNEM.UNIT                 API CODE     Curve Description
#---------               -----------    ---------------------------
 TIME.HHMMSS            00 000 000 000:  GT Time & Date
 GTDEPTH.m              00 000 000 000:  GT Depth
 GTPQH.psia             00 000 000 000:  GT HR Quartz Pressure
 GTTQ.degC              00 000 000 000:  GT Quartz Temperature
 GTTN.NONE              00 000 000 000:  GT Test Number
 GTET.sec               00 000 000 000:  GT Elapsed Test Time
 GTTVD.m                00 000 000 000:  GT True Vertical Depth
#Other Information
#
#WARRANTY: Halliburton will use its best efforts to furnish customers with 
#accurate information and interpretations that are part of, and incident to, the services 
#provided.  However, Halliburton cannot and does not warrant the accuracy 
#or correctness of such information and interpretations.  Under no circumstances should any 
#such information or interpretation be relied upon as the sole basis for any drilling, 
#completion, production, or financial decision or any procedure involving any risk to the 
#safety of any drilling venture, drilling rig or its crew or any other third party.  The 
#Customer has full responsibility for all drilling, completion and production operation.  
#Halliburton makes no representations or warranties, either expressed or 
#implied, including, but not limited to, the implied warranties of merchantability or fitness 
#for a particular purpose, with respect to the services rendered.  In no event will 
#Halliburton be liable for failure to obtain any particular results or for 
#any damages, including, but not limited to, indirect, special or consequential damages, 
#resulting from the use of any information or interpretation provided by Halliburton.
#
~A           TIME           GTDEPTH  GTPQH  GTTQ  GTTN  GTET   GTTVD  
   13:11:20.644.18-Jul-2021 4561.00 6466.88 75.74 2.00   0.00 2746.93
   13:11:20.844.18-Jul-2021 4561.00 6466.88 75.74 2.00   0.20 2746.93
   13:11:21.044.18-Jul-2021 4561.00 6452.21 75.74 2.00   0.40 2746.93
   13:11:21.244.18-Jul-2021 4561.00 6457.19 75.74 2.00   0.60 2746.93
   13:11:21.444.18-Jul-2021 4561.00 6475.89 75.74 2.00   0.80 2746.93
   13:11:21.644.18-Jul-2021 4561.00 6458.59 75.74 2.00   1.00 2746.93
   13:11:21.844.18-Jul-2021 4561.00 6458.59 75.74 2.00   1.20 2746.93
   13:11:22.044.18-Jul-2021 4561.00 6460.85 75.74 2.00   1.40 2746.93
   13:11:22.245.18-Jul-2021 4561.00 6457.75 75.74 2.00   1.60 2746.93
   13:11:22.445.18-Jul-2021 4561.00 6457.08 75.74 2.00   1.80 2746.93
   13:11:22.645.18-Jul-2021 4561.00 6473.36 75.74 2.00   2.00 2746.93
   13:11:22.845.18-Jul-2021 4561.00 6473.36 75.74 2.00   2.20 2746.93
   13:11:23.045.18-Jul-2021 4561.00 6455.96 75.74 2.00   2.40 2746.93
   13:11:23.245.18-Jul-2021 4561.00 6477.35 75.74 2.00   2.60 2746.93
   13:11:23.445.18-Jul-2021 4561.00 6469.12 75.74 2.00   2.80 2746.93
   13:11:23.645.18-Jul-2021 4561.00 6455.42 75.74 2.00   3.00 2746.93
   13:11:23.845.18-Jul-2021 4561.00 6455.42 75.74 2.00   3.20 2746.93
   13:11:24.045.18-Jul-2021 4561.00 6465.69 75.74 2.00   3.40 2746.93
   13:11:24.245.18-Jul-2021 4561.00 6460.72 75.74 2.00   3.60 2746.93
   13:11:24.445.18-Jul-2021 4561.00 6460.88 75.74 2.00   3.80 2746.93
   13:11:24.645.18-Jul-2021 4561.00 6457.48 75.74 2.00   4.00 2746.93
   13:11:24.845.18-Jul-2021 4561.00 6457.48 75.74 2.00   4.20 2746.93
   13:11:25.046.18-Jul-2021 4561.00 6459.54 75.74 2.00   4.40 2746.93
   13:11:25.246.18-Jul-2021 4561.00 6458.30 75.74 2.00   4.60 2746.93
   13:11:25.446.18-Jul-2021 4561.00 6455.63 75.74 2.00   4.80 2746.93
   13:11:25.646.18-Jul-2021 4561.00 6457.60 75.74 2.00   5.00 2746.93
   13:11:25.846.18-Jul-2021 4561.00 6457.60 75.74 2.00   5.20 2746.93
   13:11:26.046.18-Jul-2021 4561.00 6474.90 75.74 2.00   5.40 2746.93
   13:11:26.246.18-Jul-2021 4561.00 6464.92 75.74 2.00   5.60 2746.93
   13:11:26.446.18-Jul-2021 4561.00 6454.99 75.74 2.00   5.80 2746.93
   13:11:26.646.18-Jul-2021 4561.00 6456.24 75.74 2.00   6.00 2746.93
   13:11:26.846.18-Jul-2021 4561.00 6456.24 75.74 2.00   6.20 2746.93
   13:11:27.046.18-Jul-2021 4561.00 6456.67 75.74 2.00   6.40 2746.93
   13:11:27.246.18-Jul-2021 4561.00 6457.27 75.74 2.00   6.60 2746.93
   13:11:27.446.18-Jul-2021 4561.00 6456.96 75.74 2.00   6.80 2746.93
   13:11:27.646.18-Jul-2021 4561.00 6456.50 75.74 2.00   7.00 2746.93
   13:11:27.847.18-Jul-2021 4561.00 6456.50 75.74 2.00   7.20 2746.93
   13:11:28.047.18-Jul-2021 4561.00 6454.71 75.74 2.00   7.40 2746.93
   13:11:28.247.18-Jul-2021 4561.00 6457.80 75.74 2.00   7.60 2746.93
   13:11:28.447.18-Jul-2021 4561.00 6457.87 75.74 2.00   7.80 2746.93
   13:11:28.647.18-Jul-2021 4561.00 6460.43 75.74 2.00   8.00 2746.93
   13:11:28.847.18-Jul-2021 4561.00 6460.43 75.74 2.00   8.20 2746.93
   13:11:29.047.18-Jul-2021 4561.00 6456.31 75.74 2.00   8.40 2746.93
   13:11:29.247.18-Jul-2021 4561.00 6458.14 75.74 2.00   8.60 2746.93
   13:11:29.447.18-Jul-2021 4561.00 6464.00 75.74 2.00   8.80 2746.93
   13:11:29.647.18-Jul-2021 4561.00 6472.46 75.74 2.00   9.00 2746.93
   13:11:29.847.18-Jul-2021 4561.00 6472.46 75.74 2.00   9.20 2746.93
   13:11:30.047.18-Jul-2021 4561.00 6456.20 75.74 2.00   9.40 2746.93
   13:11:30.247.18-Jul-2021 4561.00 6458.51 75.74 2.00   9.60 2746.93
   13:11:30.448.18-Jul-2021 4561.00 6464.82 75.74 2.00   9.80 2746.93
   13:11:30.648.18-Jul-2021 4561.00 6476.93 75.74 2.00  10.00 2746.93
   13:11:30.848.18-Jul-2021 4561.00 6476.93 75.74 2.00  10.20 2746.93
   13:11:31.048.18-Jul-2021 4561.00 6461.54 75.74 2.00  10.40 2746.93
   13:11:31.248.18-Jul-2021 4561.00 6466.27 75.74 2.00  10.60 2746.93
   13:11:31.448.18-Jul-2021 4561.00 6475.29 75.74 2.00  10.80 2746.93
   13:11:31.648.18-Jul-2021 4561.00 6466.80 75.74 2.00  11.00 2746.93
   13:11:31.848.18-Jul-2021 4561.00 6466.80 75.74 2.00  11.20 2746.93
   13:11:32.048.18-Jul-2021 4561.00 6488.99 75.74 2.00  11.40 2746.93
   13:11:32.248.18-Jul-2021 4561.00 6458.47 75.74 2.00  11.60 2746.93
   13:11:32.448.18-Jul-2021 4561.00 6461.61 75.74 2.00  11.80 2746.93
   13:11:32.648.18-Jul-2021 4561.00 6468.54 75.74 2.00  12.00 2746.93
   13:11:32.848.18-Jul-2021 4561.00 6468.54 75.74 2.00  12.20 2746.93
   13:11:33.048.18-Jul-2021 4561.00 6482.30 75.74 2.00  12.40 2746.93
   13:11:33.249.18-Jul-2021 4561.00 6470.14 75.74 2.00  12.60 2746.93
   13:11:33.449.18-Jul-2021 4561.00 6461.89 75.74 2.00  12.80 2746.93
   13:11:33.649.18-Jul-2021 4561.00 6467.68 75.74 2.00  13.00 2746.93
   13:11:33.849.18-Jul-2021 4561.00 6467.68 75.74 2.00  13.20 2746.93
   13:11:34.049.18-Jul-2021 4561.00 6463.37 75.74 2.00  13.40 2746.93
   13:11:34.249.18-Jul-2021 4561.00 6464.22 75.74 2.00  13.61 2746.93
   13:11:34.449.18-Jul-2021 4561.00 6466.65 75.74 2.00  13.81 2746.93
   13:11:34.649.18-Jul-2021 4561.00 6466.37 75.74 2.00  14.01 2746.93
   13:11:34.849.18-Jul-2021 4561.00 6466.37 75.74 2.00  14.21 2746.93
   13:11:35.049.18-Jul-2021 4561.00 6466.37 75.74 2.00  14.41 2746.93
   13:11:35.249.18-Jul-2021 4561.00 6461.94 75.74 2.00  14.61 2746.93
   13:11:35.449.18-Jul-2021 4561.00 6464.04 75.73 2.00  14.81 2746.93
   13:11:35.649.18-Jul-2021 4561.00 6464.97 75.73 2.00  15.01 2746.93
   13:11:35.850.18-Jul-2021 4561.00 6464.97 75.73 2.00  15.21 2746.93
   13:11:36.050.18-Jul-2021 4561.00 6474.47 75.73 2.00  15.41 2746.93
   13:11:36.250.18-Jul-2021 4561.00 6463.99 75.73 2.00  15.61 2746.93
   13:11:36.450.18-Jul-2021 4561.00 6469.35 75.73 2.00  15.81 2746.93
   13:11:36.650.18-Jul-2021 4561.00 6471.18 75.73 2.00  16.01 2746.93
   13:11:36.850.18-Jul-2021 4561.00 6471.18 75.73 2.00  16.21 2746.93
   13:11:37.050.18-Jul-2021 4561.00 6468.37 75.73 2.00  16.41 2746.93
   13:11:37.250.18-Jul-2021 4561.00 6469.60 75.73 2.00  16.61 2746.93
   13:11:37.450.18-Jul-2021 4561.00 6467.24 75.73 2.00  16.81 2746.93
   13:11:37.650.18-Jul-2021 4561.00 6463.42 75.73 2.00  17.01 2746.93
   13:11:37.850.18-Jul-2021 4561.00 6463.42 75.73 2.00  17.21 2746.93
   13:11:38.050.18-Jul-2021 4561.00 6466.81 75.73 2.00  17.41 2746.93
   13:11:38.250.18-Jul-2021 4561.00 6467.16 75.73 2.00  17.61 2746.93
   13:11:38.450.18-Jul-2021 4561.00 6478.80 75.73 2.00  17.81 2746.93
   13:11:38.651.18-Jul-2021 4561.00 6476.30 75.73 2.00  18.01 2746.93
   13:11:38.851.18-Jul-2021 4561.00 6476.30 75.73 2.00  18.21 2746.93
   13:11:39.051.18-Jul-2021 4561.00 6488.19 75.73 2.00  18.41 2746.93
   13:11:39.251.18-Jul-2021 4561.00 6481.74 75.73 2.00  18.61 2746.93
   13:11:39.451.18-Jul-2021 4561.00 6461.06 75.73 2.00  18.81 2746.93
   13:11:39.651.18-Jul-2021 4561.00 6468.48 75.73 2.00  19.01 2746.93
   13:11:39.851.18-Jul-2021 4561.00 6468.48 75.73 2.00  19.21 2746.93
   13:11:40.051.18-Jul-2021 4561.00 6476.75 75.73 2.00  19.41 2746.93
   13:11:40.251.18-Jul-2021 4561.00 6466.51 75.73 2.00  19.61 2746.93
   13:11:40.451.18-Jul-2021 4561.00 6488.63 75.73 2.00  19.81 2746.93
   13:11:40.651.18-Jul-2021 4561.00 6483.06 75.73 2.00  20.01 2746.93
   13:11:40.851.18-Jul-2021 4561.00 6483.06 75.73 2.00  20.21 2746.93
   13:11:41.051.18-Jul-2021 4561.00 6469.61 75.73 2.00  20.41 2746.93
   13:11:41.252.18-Jul-2021 4561.00 6474.93 75.73 2.00  20.61 2746.93
   13:11:41.452.18-Jul-2021 4561.00 6488.80 75.73 2.00  20.81 2746.93
   13:11:41.652.18-Jul-2021 4561.00 6477.40 75.73 2.00  21.01 2746.93
   13:11:41.852.18-Jul-2021 4561.00 6477.40 75.73 2.00  21.21 2746.93
   13:11:42.052.18-Jul-2021 4561.00 6471.65 75.73 2.00  21.41 2746.93
   13:11:42.252.18-Jul-2021 4561.00 6469.53 75.73 2.00  21.61 2746.93
   13:11:42.452.18-Jul-2021 4561.00 6468.21 75.73 2.00  21.81 2746.93
   13:11:42.652.18-Jul-2021 4561.00 6469.83 75.73 2.00  22.01 2746.93
   13:11:42.852.18-Jul-2021 4561.00 6469.83 75.73 2.00  22.21 2746.93
   13:11:43.052.18-Jul-2021 4561.00 6469.68 75.73 2.00  22.41 2746.93
   13:11:43.252.18-Jul-2021 4561.00 6470.18 75.73 2.00  22.61 2746.93
   13:11:43.452.18-Jul-2021 4561.00 6470.60 75.73 2.00  22.81 2746.93
