~Version Information
 VERS.                  2.0:   CWLS log ASCII Standard -VERSION 2.0
 WRAP.                   NO:   One line per depth step
~Well Information Block
#MNEM.UNIT     VALUE/NAME     DESCRIPTION
#---------     -----------    ---------------------------
 STRT.S             05:46:28 19-Jul-21: START TIME 05:46:28 19-Jul-21
 STOP.S             05:53:09 19-Jul-21: STOP TIME  05:53:09 19-Jul-21
 STEP.S                   0.00: STEP TIME
 NULL.                 -999.25: NULL VALUE
 MDS .        Operator Entered:  MAG DATA SOURCE
 PDAT.          Mean Sea Level:  PERMANENT DATUM
 UNIT.                     N/A:  LOGGING EQUIPMENT ID
 DCON.         Sperry Drilling:  DIRECTNL CONTR
 DOE .                     N/A:  DOE NUMBER
 RIG .              West Azeri:  RIG NAME
 JOBN.        AZ-XX-0906997913:  JOB TICKET NUMB
 WELL.                     C41:  WELL NAME
 MWDS.                    Baku:  MWD SHOP
 SRVC.          Turan Drilling:  CONTRACTOR
 FLD .                     ACG:  FIELD NAME
 CTRY.              Azerbaijan:  COUNTRY NAME
 PROV.                    Baku:  PROVINCE
 STAT.                    Baku:  STATE NAME
 REGN.                   EESSA:  REGION
 BASE.              Azerbaijan:  LOGGING EQUIPMENT BASE LOCATION
 UWI .                     N/A:  UNIQUE WELL IDENTIFIER
 API .                     N/A:  API NUMBER
 COMP.     BP Exploration (Caspian Sea) Ltd.:  COMPANY
 WTYP.                Deviated:  WELL TYPE
 SON .        AZ-XX-0906997913:  JOB NUMBER
 FTOP.          Formation Tops:  FORM TOPS DESC
 ILTD.               Lithology:  INTERP LTH DESC
 SVYD.                  Survey:  SURVEY DESC
 DMOD.             Drill Model:  DRILL MOD DESC
 HPTY.       Minimum Curvature:  HOLE POS TYPE
 NREF.                    Grid:  NORTH REFERENCE
 SPUD.               16-May-21:  SPUD DATE
 DATE.      21.11.28 17-May-21:  END TIME
 STIM.      21.11.28 17-May-21:  START TIME
 DMF .             Drill Floor:  DRILL MEAS FROM
 DFST.                        :  DIST FSL TEXT
 DFWT.                        :  DIST FWL TEXT
 CNTY.                        :  COUNTY
 LOC .                        :  LOCATION
 LMF .             Drill Floor:  LOG MEASURED FROM
 AGAP.m                  43.42:  AIR GAP
 VSNS.m                  -2.16:  VERT SEC N/S
 VSEW.m                  -6.24:  VERT SEC E/W
 APD .m                  43.42:  DEPTH ABOVE PD
 WDMS.m                 118.27:  WD ELEV
 EGL .m                   0.00:  GROUND ELEVATION
 EPD .m                   0.00:  ELEVATION
 AZTC.deg                 6.29:  AZM TOTAL CORR
 GRDC.deg                 0.18:  GRID CORRECTION
 MDEC.deg                 6.47:  MAGNETIC DECL
 MDIP.deg                59.54:  MAGNETIC DIP
 MFLD.nT              50337.00:  MAGNETIC FIELD
 GVFD.g                   1.00:  GRAVITY FIELD
 VSDR.deg               226.99:  VERT SEC DIRECT
 TDD .m                   0.00:  TOTAL DEPTH (DRILLER)
 SDEP.m                 448.00:  START DEPTH
 DFSL.m                   0.00:  DISTANCE FSL
 DFWL.m                   0.00:  DISTANCE FWL
 UTMY.m             4435799.96:  UTM Y
 UTMX.m              526265.35:  UTM X
 WHEW.m                  -6.24:  WELL HEAD E/W
 WHNS.m                  -2.16:  WELL HEAD N/S
 LONG.deg                51.31:  LONGITUDE
 LATI.deg                40.06:  LATITUDE
 TVDS.m                  43.42:  TVDSS CORRECTN
 EKB .m                  43.42:  KB ELEVATION
 EDF .m                  43.42:  DF ELEVATION
 TDL .m                 288.00:  TOTAL DEPTH (LOGGER)
 MAGU.                 1851863:  MAGUTM CHECKSUM
 VSC .                       0:  VS TO CLOSURE
~Parameter Information Block
#MNEM.UNIT       Value        Description
#---------     -----------    ---------------------------
 AV  .mps                 0.40:  Ann Velocity 
 AVMX.mps                 0.63:  Max Ann Veloc 
 AZIF.deg               158.76:  Azm, Final 
 BHAT.        Rotary Steerable:  BHA Type 
 BROT.°/30m               0.68:  Build Rotating 
 BS  .in                  8.50:  Bit Size 
 BSZ .in                  8.50:  Bit Size 
 BTPL.psig              712.00:  Bit Press Loss 
 CABU.                      No:  Customer Abuse 
 COMM.                     l%v:  Run Comments 1 
 TCS .hr                 90.66:  Time Ciculation Ended 
 CV  .mps                 2.02:  Crit Velocity 
 CVMX.mps                 2.14:  Max Crit Veloc 
 DD1 .            Aziz Aliyevu:  Direct Drillr 1 
 DD2 .             Samir Abbas:  Direct Drillr 2 
 DD3 .           Teymur Aliyev:  Direct Drillr 3 
 DDSV.                 iCruise:  DD Service 
 DEFF.%                  85.10:  % Det Eff 
 DLRX.°/30m               1.05:  Dogleg Rot Max 
 DLSO.°/30m               1.01:  Dogleg Oriented 
 DLSX.°/30m               1.05:  Dogleg Str Max 
 DRET.      07.45.00 18-Jul-21:  Drill End Time 
 DRST.      15.00.00 16-Jul-21:  Drill Start Tim 
 DTIM.hr                 23.46:  Time Drilling 
 EDEP.m                4603.00:  End Depth 
 ENG1.       Seymur Iskandarov:  Engineer 1 
 ENG2.         Yevgeniy Ulikov:  Engineer 2 
 ENG3.         Bahruz Mehdiyev:  Engineer 3 
 ENG4.         Elchin Mammadov:  Engineer 4 
 ETIM.      14.00.00 23-Jul-21:  End Time 
 FLOI.gpm               500.00:  Flow In 
 FLON.gpm               450.00:  Flow In Min 
 FLOS.cptm                0.00:  Fluid Loss 
 FLOX.gpm               560.00:  Flow In Max 
 DFT .        Mineral Oil Base:  Mud Type 
 FTRO.       Formation Presure:  FTWD Run Obj 
 HFLO.                      No:  High Flow 
 HPRE.                      No:  High Pressure 
 HTEM.                      No:  High Temp 
 HYDO.m                   1.80:  Hydro Offset 
 IFIN.deg                40.22:  Inc, Final 
 IMAX.deg                40.54:  Inc Max 
 IMIN.deg                39.44:  Inc Min 
 IMND.m                4361.17:  Inc Min Depth 
 IMXD.m                4417.92:  Inc Max Depth 
 JARR.                      No:  Jarring 
 LETM.      07.45.00 18-Jul-21:  Log End Time 
 LOST.hr                    16:  Lost Rig Time 
 LSTM.      15.00.00 16-Jul-21:  Log Start Time 
 MDCL.ppm             36500.00:  Mud Chlorides 
 MDES.     Inversion Oil/Synthetic:  Mud Desc 
 DFD .sg                  1.42:  Mud Density 
 MDMN.sg                  1.42:  Dens Mud Min 
 MDMX.sg                  1.43:  Dens Mud Max 
 MOIL.                      56:  Run Mud Oil % 
 MOWR.                   71:29:  Run Mud OWR 
 MSND.                     0.5:  Run Mud Sand % 
 MSOL.                      21:  Run Mud Solids% 
 DFV .spqt               78.00:  Mud Viscosity 
 MWOD.in                  6.75:  MWD Tool OD 
 MWSI.                     Yes:  Serv Intrp, MWD 
 OTIM.hr                200.73:  Time Operating 
 PCON.           Look Like New:  Pad Condition 
 PMAX.psia            11069.93:  Press Op, Max 
 PV  .cP                 32.00:  Mud PV 
 RUN .                     700:  Run Number 
 ROPA.m/hr               10.00:  ROP Avg 
 ROPN.m/hr                9.00:  ROP Min 
 ROPX.m/hr               16.00:  ROP Max 
 RPMA.rpm               116.00:  RPM Surface Avg 
 RPMN.rpm                80.00:  RPM Surface Min 
 RPMX.rpm               120.00:  RPM Surface Max 
 RRUN.                    L605:  Rig Run Number 
 RTIM.hr                 45.00:  Time Reaming 
 SAZI.deg               159.86:  Azm, Start 
 SDEP.m                4315.00:  Start Depth 
 SIDD.                      No:  Serv Intrp, DD 
 SINC.deg                39.86:  Inc, Start 
 SPPA.psig             3300.00:  SPP Avg 
 SPPN.psig             3040.00:  SPP Min 
 SPPX.psig             3645.00:  SPP Max 
 STIM.      01.00.00 15-Jul-21:  Start Time 
 SVCS.                 DD, MWD:  Services 
 SVER.                    9.20:  Sperry Version 
 TDAT.m                 288.00:  Tot Depth Attmp 
 TDDF.                      No:  Trip for DD 
 TDLG.m                 288.00:  Tot Depth Loggd 
 TFF .                      No:  Trip for Fail 
 TQAA.f-kp               19.00:  Torque Abs Avg 
 TQAN.f-kp               18.00:  Torque Abs Min 
 TQAX.f-kp               21.00:  Torque Abs Max 
 TRRT.°/30m               0.45:  Turn Rotating 
 MRT .                    HCIM:  Maximum Recorded Temperature 
 TTMX.degC               88.24:  Max Tool Temp 
 VS01.                90649157:  Virtual Str1 SN 
 VS02.                90652483:  Virtual Str2 SN 
 VS03.                11671987:  Virtual Str3 SN 
 VS04.                90643411:  Virtual Str4 SN 
 VS05.                90652478:  Virtual Str5 SN 
 VS06.                    6111:  Virtual Str6 SN 
 WBMN.klb                 9.50:  WOB Min 
 WITN.        Grigoriy Sarayev:  Customer Rep 
 WITN.          Rufat Huseynov:  Customer Rep 2 
 WOBA.klb                11.00:  WOB Avg 
 WOBX.klb                15.00:  WOB Max 
 YP  .lhf2               28.00:  Yield Point 
~Curve Information Block
#MNEM.UNIT                 API CODE     Curve Description
#---------               -----------    ---------------------------
 TIME.HHMMSS            00 000 000 000:  GT Time & Date
 GTDEPTH.m              00 000 000 000:  GT Depth
 GTPQH.psia             00 000 000 000:  GT HR Quartz Pressure
 GTTQ.degC              00 000 000 000:  GT Quartz Temperature
 GTTN.NONE              00 000 000 000:  GT Test Number
 GTET.sec               00 000 000 000:  GT Elapsed Test Time
 GTTVD.m                00 000 000 000:  GT True Vertical Depth
#Other Information
#
#WARRANTY: Halliburton will use its best efforts to furnish customers with 
#accurate information and interpretations that are part of, and incident to, the services 
#provided.  However, Halliburton cannot and does not warrant the accuracy 
#or correctness of such information and interpretations.  Under no circumstances should any 
#such information or interpretation be relied upon as the sole basis for any drilling, 
#completion, production, or financial decision or any procedure involving any risk to the 
#safety of any drilling venture, drilling rig or its crew or any other third party.  The 
#Customer has full responsibility for all drilling, completion and production operation.  
#Halliburton makes no representations or warranties, either expressed or 
#implied, including, but not limited to, the implied warranties of merchantability or fitness 
#for a particular purpose, with respect to the services rendered.  In no event will 
#Halliburton be liable for failure to obtain any particular results or for 
#any damages, including, but not limited to, indirect, special or consequential damages, 
#resulting from the use of any information or interpretation provided by Halliburton.
#
~A           TIME           GTDEPTH  GTPQH  GTTQ  GTTN   GTET   GTTVD  
# ...
   05:52:30.362.19-Jul-2021 4380.50 6323.95 69.37 13.00 361.73 2608.98
   05:52:30.562.19-Jul-2021 4380.50 6324.69 69.37 13.00 361.93 2608.98
   05:52:30.762.19-Jul-2021 4380.50 6325.05 69.37 13.00 362.13 2608.98
   05:52:30.962.19-Jul-2021 4380.50 6325.05 69.37 13.00 362.33 2608.98
   05:52:31.162.19-Jul-2021 4380.50 6326.80 69.38 13.00 362.53 2608.98
   05:52:31.363.19-Jul-2021 4380.50 6327.71 69.38 13.00 362.73 2608.98
   05:52:31.563.19-Jul-2021 4380.50 6356.38 69.38 13.00 362.93 2608.98
   05:52:31.763.19-Jul-2021 4380.50 6343.79 69.38 13.00 363.13 2608.98
   05:52:31.963.19-Jul-2021 4380.50 6343.79 69.38 13.00 363.33 2608.98
   05:52:32.163.19-Jul-2021 4380.50 6367.08 69.38 13.00 363.53 2608.98
   05:52:32.363.19-Jul-2021 4380.50 6338.08 69.38 13.00 363.73 2608.98
   05:52:32.563.19-Jul-2021 4380.50 6335.23 69.38 13.00 363.93 2608.98
   05:52:32.763.19-Jul-2021 4380.50 6371.99 69.39 13.00 364.13 2608.98
   05:52:32.963.19-Jul-2021 4380.50 6371.99 69.39 13.00 364.33 2608.98
   05:52:33.163.19-Jul-2021 4380.50 6340.11 69.39 13.00 364.53 2608.98
   05:52:33.363.19-Jul-2021 4380.50 6343.35 69.39 13.00 364.73 2608.98
   05:52:33.563.19-Jul-2021 4380.50 6332.49 69.39 13.00 364.93 2608.98
   05:52:33.763.19-Jul-2021 4380.50 6345.70 69.39 13.00 365.13 2608.98
   05:52:33.963.19-Jul-2021 4380.50 6345.70 69.39 13.00 365.33 2608.98
   05:52:34.164.19-Jul-2021 4380.50 6335.99 69.39 13.00 365.53 2608.98
   05:52:34.364.19-Jul-2021 4380.50 6333.49 69.40 13.00 365.73 2608.98
   05:52:34.564.19-Jul-2021 4380.50 6329.36 69.40 13.00 365.93 2608.98
   05:52:34.764.19-Jul-2021 4380.50 6360.60 69.40 13.00 366.13 2608.98
   05:52:34.964.19-Jul-2021 4380.50 6360.60 69.40 13.00 366.33 2608.98
   05:52:35.164.19-Jul-2021 4380.50 6336.13 69.40 13.00 366.53 2608.98
   05:52:35.364.19-Jul-2021 4380.50 6331.69 69.40 13.00 366.74 2608.98
   05:52:35.564.19-Jul-2021 4380.50 6326.43 69.40 13.00 366.94 2608.98
   05:52:35.764.19-Jul-2021 4380.50 6330.09 69.40 13.00 367.14 2608.98
   05:52:35.964.19-Jul-2021 4380.50 6330.09 69.40 13.00 367.34 2608.98
   05:52:36.164.19-Jul-2021 4380.50 6343.11 69.41 13.00 367.54 2608.98
   05:52:36.364.19-Jul-2021 4380.50 6343.40 69.41 13.00 367.74 2608.98
   05:52:36.564.19-Jul-2021 4380.50 6341.98 69.41 13.00 367.94 2608.98
   05:52:36.765.19-Jul-2021 4380.50 6337.68 69.41 13.00 368.14 2608.98
   05:52:36.965.19-Jul-2021 4380.50 6337.68 69.41 13.00 368.34 2608.98
   05:52:37.165.19-Jul-2021 4380.50 6333.03 69.41 13.00 368.54 2608.98
   05:52:37.365.19-Jul-2021 4380.50 6332.83 69.41 13.00 368.74 2608.98
   05:52:37.565.19-Jul-2021 4380.50 6347.33 69.41 13.00 368.94 2608.98
   05:52:37.765.19-Jul-2021 4380.50 6356.85 69.41 13.00 369.14 2608.98
   05:52:37.965.19-Jul-2021 4380.50 6356.85 69.41 13.00 369.34 2608.98
   05:52:38.165.19-Jul-2021 4380.50 6329.43 69.41 13.00 369.54 2608.98
   05:52:38.365.19-Jul-2021 4380.50 6325.05 69.41 13.00 369.74 2608.98
   05:52:38.565.19-Jul-2021 4380.50 6329.48 69.42 13.00 369.94 2608.98
   05:52:38.765.19-Jul-2021 4380.50 6331.36 69.42 13.00 370.14 2608.98
   05:52:38.965.19-Jul-2021 4380.50 6331.36 69.42 13.00 370.34 2608.98
   05:52:39.165.19-Jul-2021 4380.50 6329.58 69.42 13.00 370.54 2608.98
   05:52:39.365.19-Jul-2021 4380.50 6330.57 69.42 13.00 370.74 2608.98
   05:52:39.566.19-Jul-2021 4380.50 6330.78 69.42 13.00 370.94 2608.98
   05:52:39.766.19-Jul-2021 4380.50 6326.77 69.42 13.00 371.14 2608.98
   05:52:39.966.19-Jul-2021 4380.50 6326.77 69.42 13.00 371.34 2608.98
   05:52:40.166.19-Jul-2021 4380.50 6339.79 69.42 13.00 371.54 2608.98
   05:52:40.366.19-Jul-2021 4380.50 6349.02 69.42 13.00 371.74 2608.98
   05:52:40.566.19-Jul-2021 4380.50 6326.88 69.42 13.00 371.94 2608.98
   05:52:40.766.19-Jul-2021 4380.50 6368.99 69.42 13.00 372.14 2608.98
   05:52:40.966.19-Jul-2021 4380.50 6368.99 69.42 13.00 372.34 2608.98
   05:52:41.166.19-Jul-2021 4380.50 6339.32 69.42 13.00 372.54 2608.98
   05:52:41.366.19-Jul-2021 4380.50 6338.54 69.42 13.00 372.74 2608.98
   05:52:41.566.19-Jul-2021 4380.50 6333.08 69.42 13.00 372.94 2608.98
   05:52:41.766.19-Jul-2021 4380.50 6352.84 69.42 13.00 373.14 2608.98
   05:52:41.966.19-Jul-2021 4380.50 6352.84 69.42 13.00 373.34 2608.98
   05:52:42.167.19-Jul-2021 4380.50 6337.04 69.42 13.00 373.54 2608.98
   05:52:42.367.19-Jul-2021 4380.50 6335.35 69.42 13.00 373.74 2608.98
   05:52:42.567.19-Jul-2021 4380.50 6367.75 69.42 13.00 373.94 2608.98
   05:52:42.767.19-Jul-2021 4380.50 6346.18 69.42 13.00 374.14 2608.98
   05:52:42.967.19-Jul-2021 4380.50 6346.18 69.42 13.00 374.34 2608.98
   05:52:43.167.19-Jul-2021 4380.50 6346.18 69.42 13.00 374.54 2608.98
   05:52:43.367.19-Jul-2021 4380.50 6368.59 69.42 13.00 374.74 2608.98
   05:52:43.567.19-Jul-2021 4380.50 6345.99 69.42 13.00 374.94 2608.98
   05:52:43.767.19-Jul-2021 4380.50 6336.94 69.42 13.00 375.14 2608.98
   05:52:43.967.19-Jul-2021 4380.50 6336.94 69.42 13.00 375.34 2608.98
   05:52:44.167.19-Jul-2021 4380.50 6334.70 69.43 13.00 375.54 2608.98
   05:52:44.367.19-Jul-2021 4380.50 6337.34 69.43 13.00 375.74 2608.98
   05:52:44.567.19-Jul-2021 4380.50 6335.91 69.43 13.00 375.94 2608.98
   05:52:44.767.19-Jul-2021 4380.50 6336.73 69.43 13.00 376.14 2608.98
   05:52:44.968.19-Jul-2021 4380.50 6336.73 69.43 13.00 376.34 2608.98
   05:52:45.168.19-Jul-2021 4380.50 6334.44 69.43 13.00 376.54 2608.98
   05:52:45.368.19-Jul-2021 4380.50 6334.84 69.43 13.00 376.74 2608.98
   05:52:45.568.19-Jul-2021 4380.50 6335.45 69.43 13.00 376.94 2608.98
   05:52:45.768.19-Jul-2021 4380.50 6335.35 69.43 13.00 377.14 2608.98
   05:52:45.968.19-Jul-2021 4380.50 6335.35 69.43 13.00 377.34 2608.98
   05:52:46.168.19-Jul-2021 4380.50 6361.81 69.43 13.00 377.54 2608.98
   05:52:46.368.19-Jul-2021 4380.50 6350.23 69.43 13.00 377.74 2608.98
   05:52:46.568.19-Jul-2021 4380.50 6338.00 69.43 13.00 377.94 2608.98
   05:52:46.768.19-Jul-2021 4380.50 6338.06 69.43 13.00 378.14 2608.98
   05:52:46.968.19-Jul-2021 4380.50 6338.06 69.43 13.00 378.34 2608.98
   05:52:47.168.19-Jul-2021 4380.50 6335.69 69.43 13.00 378.54 2608.98
   05:52:47.368.19-Jul-2021 4380.50 6334.97 69.43 13.00 378.74 2608.98
   05:52:47.569.19-Jul-2021 4380.50 6335.56 69.43 13.00 378.94 2608.98
   05:52:47.769.19-Jul-2021 4380.50 6336.37 69.43 13.00 379.14 2608.98
   05:52:47.969.19-Jul-2021 4380.50 6336.37 69.43 13.00 379.34 2608.98
   05:52:48.169.19-Jul-2021 4380.50 6346.86 69.43 13.00 379.54 2608.98
   05:52:48.369.19-Jul-2021 4380.50 6348.35 69.43 13.00 379.74 2608.98
   05:52:48.569.19-Jul-2021 4380.50 6346.30 69.43 13.00 379.94 2608.98
   05:52:48.769.19-Jul-2021 4380.50 6373.82 69.43 13.00 380.14 2608.98
   05:52:48.969.19-Jul-2021 4380.50 6373.82 69.43 13.00 380.34 2608.98
   05:52:49.169.19-Jul-2021 4380.50 6344.80 69.43 13.00 380.54 2608.98
   05:52:49.369.19-Jul-2021 4380.50 6380.01 69.43 13.00 380.74 2608.98
   05:52:49.569.19-Jul-2021 4380.50 6349.73 69.43 13.00 380.94 2608.98
   05:52:49.769.19-Jul-2021 4380.50 6344.57 69.43 13.00 381.14 2608.98
   05:52:49.969.19-Jul-2021 4380.50 6344.57 69.43 13.00 381.34 2608.98
   05:52:50.169.19-Jul-2021 4380.50 6339.16 69.43 13.00 381.54 2608.98
   05:52:50.370.19-Jul-2021 4380.50 6347.74 69.43 13.00 381.74 2608.98
   05:52:50.570.19-Jul-2021 4380.50 6376.08 69.43 13.00 381.94 2608.98
   05:52:50.770.19-Jul-2021 4380.50 6346.64 69.43 13.00 382.14 2608.98
   05:52:50.970.19-Jul-2021 4380.50 6346.64 69.43 13.00 382.34 2608.98
   05:52:51.170.19-Jul-2021 4380.50 6369.17 69.43 13.00 382.54 2608.98
   05:52:51.370.19-Jul-2021 4380.50 6355.66 69.43 13.00 382.74 2608.98
   05:52:51.570.19-Jul-2021 4380.50 6343.72 69.43 13.00 382.94 2608.98
   05:52:51.770.19-Jul-2021 4380.50 6342.63 69.43 13.00 383.14 2608.98
   05:52:51.970.19-Jul-2021 4380.50 6342.63 69.43 13.00 383.34 2608.98
   05:52:52.170.19-Jul-2021 4380.50 6341.58 69.43 13.00 383.54 2608.98
   05:52:52.370.19-Jul-2021 4380.50 6378.68 69.43 13.00 383.74 2608.98
   05:52:52.570.19-Jul-2021 4380.50 6349.77 69.43 13.00 383.94 2608.98
   05:52:52.770.19-Jul-2021 4380.50 6342.43 69.43 13.00 384.14 2608.98
