~Version Information
 VERS.                  2.0:   CWLS log ASCII Standard -VERSION 2.0
 WRAP.                   NO:   One line per depth step
~Well Information Block
#MNEM.UNIT     VALUE/NAME     DESCRIPTION
#---------     -----------    ---------------------------
 STRT.S             10:59:18 19-Jul-21: START TIME 10:59:18 19-Jul-21
 STOP.S             11:06:11 19-Jul-21: STOP TIME  11:06:11 19-Jul-21
 STEP.S                   0.00: STEP TIME
 NULL.                 -999.25: NULL VALUE
 MDS .        Operator Entered:  MAG DATA SOURCE
 PDAT.          Mean Sea Level:  PERMANENT DATUM
 UNIT.                     N/A:  LOGGING EQUIPMENT ID
 DCON.         Sperry Drilling:  DIRECTNL CONTR
 DOE .                     N/A:  DOE NUMBER
 RIG .              West Azeri:  RIG NAME
 JOBN.        AZ-XX-0906997913:  JOB TICKET NUMB
 WELL.                     C41:  WELL NAME
 MWDS.                    Baku:  MWD SHOP
 SRVC.          Turan Drilling:  CONTRACTOR
 FLD .                     ACG:  FIELD NAME
 CTRY.              Azerbaijan:  COUNTRY NAME
 PROV.                    Baku:  PROVINCE
 STAT.                    Baku:  STATE NAME
 REGN.                   EESSA:  REGION
 BASE.              Azerbaijan:  LOGGING EQUIPMENT BASE LOCATION
 UWI .                     N/A:  UNIQUE WELL IDENTIFIER
 API .                     N/A:  API NUMBER
 COMP.     BP Exploration (Caspian Sea) Ltd.:  COMPANY
 WTYP.                Deviated:  WELL TYPE
 SON .        AZ-XX-0906997913:  JOB NUMBER
 FTOP.          Formation Tops:  FORM TOPS DESC
 ILTD.               Lithology:  INTERP LTH DESC
 SVYD.                  Survey:  SURVEY DESC
 DMOD.             Drill Model:  DRILL MOD DESC
 HPTY.       Minimum Curvature:  HOLE POS TYPE
 NREF.                    Grid:  NORTH REFERENCE
 SPUD.               16-May-21:  SPUD DATE
 DATE.      21.11.28 17-May-21:  END TIME
 STIM.      21.11.28 17-May-21:  START TIME
 DMF .             Drill Floor:  DRILL MEAS FROM
 DFST.                        :  DIST FSL TEXT
 DFWT.                        :  DIST FWL TEXT
 CNTY.                        :  COUNTY
 LOC .                        :  LOCATION
 LMF .             Drill Floor:  LOG MEASURED FROM
 AGAP.m                  43.42:  AIR GAP
 VSNS.m                  -2.16:  VERT SEC N/S
 VSEW.m                  -6.24:  VERT SEC E/W
 APD .m                  43.42:  DEPTH ABOVE PD
 WDMS.m                 118.27:  WD ELEV
 EGL .m                   0.00:  GROUND ELEVATION
 EPD .m                   0.00:  ELEVATION
 AZTC.deg                 6.29:  AZM TOTAL CORR
 GRDC.deg                 0.18:  GRID CORRECTION
 MDEC.deg                 6.47:  MAGNETIC DECL
 MDIP.deg                59.54:  MAGNETIC DIP
 MFLD.nT              50337.00:  MAGNETIC FIELD
 GVFD.g                   1.00:  GRAVITY FIELD
 VSDR.deg               226.99:  VERT SEC DIRECT
 TDD .m                   0.00:  TOTAL DEPTH (DRILLER)
 SDEP.m                 448.00:  START DEPTH
 DFSL.m                   0.00:  DISTANCE FSL
 DFWL.m                   0.00:  DISTANCE FWL
 UTMY.m             4435799.96:  UTM Y
 UTMX.m              526265.35:  UTM X
 WHEW.m                  -6.24:  WELL HEAD E/W
 WHNS.m                  -2.16:  WELL HEAD N/S
 LONG.deg                51.31:  LONGITUDE
 LATI.deg                40.06:  LATITUDE
 TVDS.m                  43.42:  TVDSS CORRECTN
 EKB .m                  43.42:  KB ELEVATION
 EDF .m                  43.42:  DF ELEVATION
 TDL .m                 288.00:  TOTAL DEPTH (LOGGER)
 MAGU.                 1851863:  MAGUTM CHECKSUM
 VSC .                       0:  VS TO CLOSURE
~Parameter Information Block
#MNEM.UNIT       Value        Description
#---------     -----------    ---------------------------
 AV  .mps                 0.40:  Ann Velocity 
 AVMX.mps                 0.63:  Max Ann Veloc 
 AZIF.deg               158.76:  Azm, Final 
 BHAT.        Rotary Steerable:  BHA Type 
 BROT.°/30m               0.68:  Build Rotating 
 BS  .in                  8.50:  Bit Size 
 BSZ .in                  8.50:  Bit Size 
 BTPL.psig              712.00:  Bit Press Loss 
 CABU.                      No:  Customer Abuse 
 COMM.                     ô:x:  Run Comments 1 
 TCS .hr                 90.66:  Time Ciculation Ended 
 CV  .mps                 2.02:  Crit Velocity 
 CVMX.mps                 2.14:  Max Crit Veloc 
 DD1 .            Aziz Aliyevu:  Direct Drillr 1 
 DD2 .             Samir Abbas:  Direct Drillr 2 
 DD3 .           Teymur Aliyev:  Direct Drillr 3 
 DDSV.                 iCruise:  DD Service 
 DEFF.%                  85.10:  % Det Eff 
 DLRX.°/30m               1.05:  Dogleg Rot Max 
 DLSO.°/30m               1.01:  Dogleg Oriented 
 DLSX.°/30m               1.05:  Dogleg Str Max 
 DRET.      07.45.00 18-Jul-21:  Drill End Time 
 DRST.      15.00.00 16-Jul-21:  Drill Start Tim 
 DTIM.hr                 23.46:  Time Drilling 
 EDEP.m                4603.00:  End Depth 
 ENG1.       Seymur Iskandarov:  Engineer 1 
 ENG2.         Yevgeniy Ulikov:  Engineer 2 
 ENG3.         Bahruz Mehdiyev:  Engineer 3 
 ENG4.         Elchin Mammadov:  Engineer 4 
 ETIM.      14.00.00 23-Jul-21:  End Time 
 FLOI.gpm               500.00:  Flow In 
 FLON.gpm               450.00:  Flow In Min 
 FLOS.cptm                0.00:  Fluid Loss 
 FLOX.gpm               560.00:  Flow In Max 
 DFT .        Mineral Oil Base:  Mud Type 
 FTRO.       Formation Presure:  FTWD Run Obj 
 HFLO.                      No:  High Flow 
 HPRE.                      No:  High Pressure 
 HTEM.                      No:  High Temp 
 HYDO.m                   1.80:  Hydro Offset 
 IFIN.deg                40.22:  Inc, Final 
 IMAX.deg                40.54:  Inc Max 
 IMIN.deg                39.44:  Inc Min 
 IMND.m                4361.17:  Inc Min Depth 
 IMXD.m                4417.92:  Inc Max Depth 
 JARR.                      No:  Jarring 
 LETM.      07.45.00 18-Jul-21:  Log End Time 
 LOST.hr                    16:  Lost Rig Time 
 LSTM.      15.00.00 16-Jul-21:  Log Start Time 
 MDCL.ppm             36500.00:  Mud Chlorides 
 MDES.     Inversion Oil/Synthetic:  Mud Desc 
 DFD .sg                  1.42:  Mud Density 
 MDMN.sg                  1.42:  Dens Mud Min 
 MDMX.sg                  1.43:  Dens Mud Max 
 MOIL.                      56:  Run Mud Oil % 
 MOWR.                   71:29:  Run Mud OWR 
 MSND.                     0.5:  Run Mud Sand % 
 MSOL.                      21:  Run Mud Solids% 
 DFV .spqt               78.00:  Mud Viscosity 
 MWOD.in                  6.75:  MWD Tool OD 
 MWSI.                     Yes:  Serv Intrp, MWD 
 OTIM.hr                200.73:  Time Operating 
 PCON.           Look Like New:  Pad Condition 
 PMAX.psia            11069.93:  Press Op, Max 
 PV  .cP                 32.00:  Mud PV 
 RUN .                     700:  Run Number 
 ROPA.m/hr               10.00:  ROP Avg 
 ROPN.m/hr                9.00:  ROP Min 
 ROPX.m/hr               16.00:  ROP Max 
 RPMA.rpm               116.00:  RPM Surface Avg 
 RPMN.rpm                80.00:  RPM Surface Min 
 RPMX.rpm               120.00:  RPM Surface Max 
 RRUN.                    L605:  Rig Run Number 
 RTIM.hr                 45.00:  Time Reaming 
 SAZI.deg               159.86:  Azm, Start 
 SDEP.m                4315.00:  Start Depth 
 SIDD.                      No:  Serv Intrp, DD 
 SINC.deg                39.86:  Inc, Start 
 SPPA.psig             3300.00:  SPP Avg 
 SPPN.psig             3040.00:  SPP Min 
 SPPX.psig             3645.00:  SPP Max 
 STIM.      01.00.00 15-Jul-21:  Start Time 
 SVCS.                 DD, MWD:  Services 
 SVER.                    9.20:  Sperry Version 
 TDAT.m                 288.00:  Tot Depth Attmp 
 TDDF.                      No:  Trip for DD 
 TDLG.m                 288.00:  Tot Depth Loggd 
 TFF .                      No:  Trip for Fail 
 TQAA.f-kp               19.00:  Torque Abs Avg 
 TQAN.f-kp               18.00:  Torque Abs Min 
 TQAX.f-kp               21.00:  Torque Abs Max 
 TRRT.°/30m               0.45:  Turn Rotating 
 MRT .                    HCIM:  Maximum Recorded Temperature 
 TTMX.degC               88.24:  Max Tool Temp 
 VS01.                90649157:  Virtual Str1 SN 
 VS02.                90652483:  Virtual Str2 SN 
 VS03.                11671987:  Virtual Str3 SN 
 VS04.                90643411:  Virtual Str4 SN 
 VS05.                90652478:  Virtual Str5 SN 
 VS06.                    6111:  Virtual Str6 SN 
 WBMN.klb                 9.50:  WOB Min 
 WITN.        Grigoriy Sarayev:  Customer Rep 
 WITN.          Rufat Huseynov:  Customer Rep 2 
 WOBA.klb                11.00:  WOB Avg 
 WOBX.klb                15.00:  WOB Max 
 YP  .lhf2               28.00:  Yield Point 
~Curve Information Block
#MNEM.UNIT                 API CODE     Curve Description
#---------               -----------    ---------------------------
 TIME.HHMMSS            00 000 000 000:  GT Time & Date
 GTDEPTH.m              00 000 000 000:  GT Depth
 GTPQH.psia             00 000 000 000:  GT HR Quartz Pressure
 GTTQ.degC              00 000 000 000:  GT Quartz Temperature
 GTTN.NONE              00 000 000 000:  GT Test Number
 GTET.sec               00 000 000 000:  GT Elapsed Test Time
 GTTVD.m                00 000 000 000:  GT True Vertical Depth
#Other Information
#
#WARRANTY: Halliburton will use its best efforts to furnish customers with 
#accurate information and interpretations that are part of, and incident to, the services 
#provided.  However, Halliburton cannot and does not warrant the accuracy 
#or correctness of such information and interpretations.  Under no circumstances should any 
#such information or interpretation be relied upon as the sole basis for any drilling, 
#completion, production, or financial decision or any procedure involving any risk to the 
#safety of any drilling venture, drilling rig or its crew or any other third party.  The 
#Customer has full responsibility for all drilling, completion and production operation.  
#Halliburton makes no representations or warranties, either expressed or 
#implied, including, but not limited to, the implied warranties of merchantability or fitness 
#for a particular purpose, with respect to the services rendered.  In no event will 
#Halliburton be liable for failure to obtain any particular results or for 
#any damages, including, but not limited to, indirect, special or consequential damages, 
#resulting from the use of any information or interpretation provided by Halliburton.
#
~A           TIME           GTDEPTH  GTPQH  GTTQ  GTTN   GTET   GTTVD  
# ...
   10:59:41.149.19-Jul-2021 4503.50 6535.57 70.63 24.00  22.61 2702.92
   10:59:41.349.19-Jul-2021 4503.50 6535.65 70.63 24.00  22.81 2702.92
   10:59:41.549.19-Jul-2021 4503.50 6536.23 70.63 24.00  23.01 2702.92
   10:59:41.749.19-Jul-2021 4503.50 6536.23 70.63 24.00  23.21 2702.92
   10:59:41.949.19-Jul-2021 4503.50 6538.11 70.63 24.00  23.41 2702.92
   10:59:42.149.19-Jul-2021 4503.50 6556.26 70.63 24.00  23.61 2702.92
   10:59:42.349.19-Jul-2021 4503.50 6538.53 70.63 24.00  23.81 2702.92
   10:59:42.549.19-Jul-2021 4503.50 6542.16 70.63 24.00  24.01 2702.92
   10:59:42.749.19-Jul-2021 4503.50 6542.16 70.63 24.00  24.21 2702.92
   10:59:42.949.19-Jul-2021 4503.50 6539.44 70.63 24.00  24.41 2702.92
   10:59:43.149.19-Jul-2021 4503.50 6536.91 70.63 24.00  24.61 2702.92
   10:59:43.349.19-Jul-2021 4503.50 6535.22 70.63 24.00  24.81 2702.92
   10:59:43.549.19-Jul-2021 4503.50 6534.67 70.63 24.00  25.01 2702.92
   10:59:43.750.19-Jul-2021 4503.50 6534.67 70.63 24.00  25.21 2702.92
   10:59:43.950.19-Jul-2021 4503.50 6533.06 70.63 24.00  25.41 2702.92
   10:59:44.150.19-Jul-2021 4503.50 6532.77 70.63 24.00  25.61 2702.92
   10:59:44.350.19-Jul-2021 4503.50 6532.93 70.63 24.00  25.81 2702.92
   10:59:44.550.19-Jul-2021 4503.50 6533.75 70.63 24.00  26.01 2702.92
   10:59:44.750.19-Jul-2021 4503.50 6533.75 70.63 24.00  26.21 2702.92
   10:59:44.950.19-Jul-2021 4503.50 6545.36 70.63 24.00  26.41 2702.92
   10:59:45.150.19-Jul-2021 4503.50 6538.37 70.63 24.00  26.61 2702.92
   10:59:45.350.19-Jul-2021 4503.50 6554.80 70.63 24.00  26.81 2702.92
   10:59:45.550.19-Jul-2021 4503.50 6536.12 70.63 24.00  27.01 2702.92
   10:59:45.750.19-Jul-2021 4503.50 6536.12 70.63 24.00  27.21 2702.92
   10:59:45.950.19-Jul-2021 4503.50 6535.09 70.63 24.00  27.41 2702.92
   10:59:46.150.19-Jul-2021 4503.50 6542.46 70.63 24.00  27.61 2702.92
   10:59:46.350.19-Jul-2021 4503.50 6545.04 70.63 24.00  27.81 2702.92
   10:59:46.551.19-Jul-2021 4503.50 6536.79 70.63 24.00  28.01 2702.92
   10:59:46.751.19-Jul-2021 4503.50 6536.79 70.63 24.00  28.21 2702.92
   10:59:46.951.19-Jul-2021 4503.50 6539.98 70.63 24.00  28.41 2702.92
   10:59:47.151.19-Jul-2021 4503.50 6542.90 70.63 24.00  28.61 2702.92
   10:59:47.351.19-Jul-2021 4503.50 6536.58 70.63 24.00  28.81 2702.92
   10:59:47.551.19-Jul-2021 4503.50 6544.92 70.63 24.00  29.01 2702.92
   10:59:47.751.19-Jul-2021 4503.50 6544.92 70.63 24.00  29.21 2702.92
   10:59:47.951.19-Jul-2021 4503.50 6535.33 70.63 24.00  29.41 2702.92
   10:59:48.151.19-Jul-2021 4503.50 6537.64 70.63 24.00  29.61 2702.92
   10:59:48.351.19-Jul-2021 4503.50 6532.18 70.63 24.00  29.81 2702.92
   10:59:48.551.19-Jul-2021 4503.50 6528.65 70.63 24.00  30.01 2702.92
   10:59:48.751.19-Jul-2021 4503.50 6528.65 70.63 24.00  30.21 2702.92
   10:59:48.951.19-Jul-2021 4503.50 6521.67 70.63 24.00  30.41 2702.92
   10:59:49.152.19-Jul-2021 4503.50 6518.30 70.63 24.00  30.61 2702.92
   10:59:49.352.19-Jul-2021 4503.50 6500.55 70.63 24.00  30.81 2702.92
   10:59:49.552.19-Jul-2021 4503.50 6468.42 70.63 24.00  31.01 2702.92
   10:59:49.752.19-Jul-2021 4503.50 6468.42 70.63 24.00  31.21 2702.92
   10:59:49.952.19-Jul-2021 4503.50 6404.80 70.63 24.00  31.41 2702.92
   10:59:50.152.19-Jul-2021 4503.50 6382.36 70.63 24.00  31.61 2702.92
   10:59:50.352.19-Jul-2021 4503.50 6366.68 70.63 24.00  31.81 2702.92
   10:59:50.552.19-Jul-2021 4503.50 6355.73 70.63 24.00  32.01 2702.92
   10:59:50.752.19-Jul-2021 4503.50 6355.73 70.63 24.00  32.21 2702.92
   10:59:50.952.19-Jul-2021 4503.50 6333.75 70.63 24.00  32.41 2702.92
   10:59:51.152.19-Jul-2021 4503.50 6325.28 70.63 24.00  32.61 2702.92
   10:59:51.352.19-Jul-2021 4503.50 6320.48 70.63 24.00  32.81 2702.92
   10:59:51.552.19-Jul-2021 4503.50 6315.65 70.63 24.00  33.01 2702.92
   10:59:51.752.19-Jul-2021 4503.50 6315.65 70.63 24.00  33.21 2702.92
   10:59:51.953.19-Jul-2021 4503.50 6309.84 70.63 24.00  33.41 2702.92
   10:59:52.153.19-Jul-2021 4503.50 6307.84 70.63 24.00  33.61 2702.92
   10:59:52.353.19-Jul-2021 4503.50 6306.21 70.63 24.00  33.81 2702.92
   10:59:52.553.19-Jul-2021 4503.50 6304.21 70.63 24.00  34.01 2702.92
   10:59:52.753.19-Jul-2021 4503.50 6304.21 70.63 24.00  34.21 2702.92
   10:59:52.953.19-Jul-2021 4503.50 6301.37 70.63 24.00  34.41 2702.92
   10:59:53.153.19-Jul-2021 4503.50 6298.42 70.63 24.00  34.61 2702.92
   10:59:53.353.19-Jul-2021 4503.50 6299.74 70.63 24.00  34.81 2702.92
   10:59:53.553.19-Jul-2021 4503.50 6294.68 70.63 24.00  35.01 2702.92
   10:59:53.753.19-Jul-2021 4503.50 6294.68 70.63 24.00  35.21 2702.92
   10:59:53.953.19-Jul-2021 4503.50 6286.73 70.63 24.00  35.41 2702.92
   10:59:54.153.19-Jul-2021 4503.50 6297.55 70.62 24.00  35.61 2702.92
   10:59:54.353.19-Jul-2021 4503.50 6093.77 70.62 24.00  35.81 2702.92
   10:59:54.554.19-Jul-2021 4503.50 5127.46 70.62 24.00  36.01 2702.92
   10:59:54.754.19-Jul-2021 4503.50 5127.46 70.62 24.00  36.21 2702.92
   10:59:54.954.19-Jul-2021 4503.50 3558.36 70.62 24.00  36.41 2702.92
   10:59:55.154.19-Jul-2021 4503.50 3533.88 70.62 24.00  36.61 2702.92
   10:59:55.354.19-Jul-2021 4503.50 3532.45 70.62 24.00  36.81 2702.92
   10:59:55.554.19-Jul-2021 4503.50 3532.32 70.62 24.00  37.01 2702.92
   10:59:55.754.19-Jul-2021 4503.50 3532.32 70.62 24.00  37.21 2702.92
   10:59:55.954.19-Jul-2021 4503.50 3530.03 70.62 24.00  37.41 2702.92
   10:59:56.154.19-Jul-2021 4503.50 3529.57 70.62 24.00  37.61 2702.92
   10:59:56.354.19-Jul-2021 4503.50 3529.27 70.62 24.00  37.81 2702.92
   10:59:56.554.19-Jul-2021 4503.50 3528.91 70.61 24.00  38.01 2702.92
   10:59:56.754.19-Jul-2021 4503.50 3528.91 70.61 24.00  38.21 2702.92
   10:59:56.954.19-Jul-2021 4503.50 3528.46 70.61 24.00  38.41 2702.92
   10:59:57.154.19-Jul-2021 4503.50 3527.97 70.61 24.00  38.61 2702.92
   10:59:57.355.19-Jul-2021 4503.50 3528.00 70.61 24.00  38.81 2702.92
   10:59:57.555.19-Jul-2021 4503.50 3527.64 70.61 24.00  39.01 2702.92
   10:59:57.755.19-Jul-2021 4503.50 3527.64 70.61 24.00  39.21 2702.92
   10:59:57.955.19-Jul-2021 4503.50 3527.33 70.60 24.00  39.41 2702.92
   10:59:58.155.19-Jul-2021 4503.50 3527.32 70.60 24.00  39.61 2702.92
   10:59:58.355.19-Jul-2021 4503.50 3527.34 70.60 24.00  39.81 2702.92
   10:59:58.555.19-Jul-2021 4503.50 3527.45 70.60 24.00  40.01 2702.92
   10:59:58.755.19-Jul-2021 4503.50 3527.45 70.60 24.00  40.21 2702.92
   10:59:58.955.19-Jul-2021 4503.50 3526.89 70.60 24.00  40.41 2702.92
   10:59:59.155.19-Jul-2021 4503.50 3526.75 70.59 24.00  40.61 2702.92
   10:59:59.355.19-Jul-2021 4503.50 3527.03 70.59 24.00  40.82 2702.92
   10:59:59.555.19-Jul-2021 4503.50 3526.87 70.59 24.00  41.02 2702.92
   10:59:59.755.19-Jul-2021 4503.50 3526.87 70.59 24.00  41.22 2702.92
   10:59:59.955.19-Jul-2021 4503.50 3527.01 70.59 24.00  41.42 2702.92
   11:00:00.156.19-Jul-2021 4503.50 3527.11 70.59 24.00  41.62 2702.92
   11:00:00.356.19-Jul-2021 4503.50 3527.19 70.58 24.00  41.82 2702.92
   11:00:00.556.19-Jul-2021 4503.50 3527.43 70.58 24.00  42.02 2702.92
   11:00:00.756.19-Jul-2021 4503.50 3527.43 70.58 24.00  42.22 2702.92
   11:00:00.956.19-Jul-2021 4503.50 3527.31 70.58 24.00  42.42 2702.92
   11:00:01.156.19-Jul-2021 4503.50 3528.70 70.58 24.00  42.62 2702.92
   11:00:01.356.19-Jul-2021 4503.50 3527.46 70.58 24.00  42.82 2702.92
   11:00:01.556.19-Jul-2021 4503.50 3527.26 70.58 24.00  43.02 2702.92
   11:00:01.756.19-Jul-2021 4503.50 3527.26 70.58 24.00  43.22 2702.92
   11:00:01.956.19-Jul-2021 4503.50 3527.08 70.57 24.00  43.42 2702.92
   11:00:02.156.19-Jul-2021 4503.50 3527.49 70.57 24.00  43.62 2702.92
   11:00:02.356.19-Jul-2021 4503.50 3526.72 70.57 24.00  43.82 2702.92
   11:00:02.556.19-Jul-2021 4503.50 3527.10 70.57 24.00  44.02 2702.92
   11:00:02.757.19-Jul-2021 4503.50 3527.10 70.57 24.00  44.22 2702.92
   11:00:02.957.19-Jul-2021 4503.50 3527.34 70.57 24.00  44.42 2702.92
   11:00:03.157.19-Jul-2021 4503.50 3526.88 70.57 24.00  44.62 2702.92
   11:00:03.357.19-Jul-2021 4503.50 3527.12 70.57 24.00  44.82 2702.92
   11:00:03.557.19-Jul-2021 4503.50 3527.22 70.57 24.00  45.02 2702.92
