~Version Information
 VERS.                  2.0:   CWLS log ASCII Standard -VERSION 2.0
 WRAP.                   NO:   One line per depth step
~Well Information Block
#MNEM.UNIT     VALUE/NAME     DESCRIPTION
#---------     -----------    ---------------------------
 STRT.S             13:27:26 19-Jul-21: START TIME 13:27:26 19-Jul-21
 STOP.S             13:34:19 19-Jul-21: STOP TIME  13:34:19 19-Jul-21
 STEP.S                   0.00: STEP TIME
 NULL.                 -999.25: NULL VALUE
 MDS .        Operator Entered:  MAG DATA SOURCE
 PDAT.          Mean Sea Level:  PERMANENT DATUM
 UNIT.                     N/A:  LOGGING EQUIPMENT ID
 DCON.         Sperry Drilling:  DIRECTNL CONTR
 DOE .                     N/A:  DOE NUMBER
 RIG .              West Azeri:  RIG NAME
 JOBN.        AZ-XX-0906997913:  JOB TICKET NUMB
 WELL.                     C41:  WELL NAME
 MWDS.                    Baku:  MWD SHOP
 SRVC.          Turan Drilling:  CONTRACTOR
 FLD .                     ACG:  FIELD NAME
 CTRY.              Azerbaijan:  COUNTRY NAME
 PROV.                    Baku:  PROVINCE
 STAT.                    Baku:  STATE NAME
 REGN.                   EESSA:  REGION
 BASE.              Azerbaijan:  LOGGING EQUIPMENT BASE LOCATION
 UWI .                     N/A:  UNIQUE WELL IDENTIFIER
 API .                     N/A:  API NUMBER
 COMP.     BP Exploration (Caspian Sea) Ltd.:  COMPANY
 WTYP.                Deviated:  WELL TYPE
 SON .        AZ-XX-0906997913:  JOB NUMBER
 FTOP.          Formation Tops:  FORM TOPS DESC
 ILTD.               Lithology:  INTERP LTH DESC
 SVYD.                  Survey:  SURVEY DESC
 DMOD.             Drill Model:  DRILL MOD DESC
 HPTY.       Minimum Curvature:  HOLE POS TYPE
 NREF.                    Grid:  NORTH REFERENCE
 SPUD.               16-May-21:  SPUD DATE
 DATE.      21.11.28 17-May-21:  END TIME
 STIM.      21.11.28 17-May-21:  START TIME
 DMF .             Drill Floor:  DRILL MEAS FROM
 DFST.                        :  DIST FSL TEXT
 DFWT.                        :  DIST FWL TEXT
 CNTY.                        :  COUNTY
 LOC .                        :  LOCATION
 LMF .             Drill Floor:  LOG MEASURED FROM
 AGAP.m                  43.42:  AIR GAP
 VSNS.m                  -2.16:  VERT SEC N/S
 VSEW.m                  -6.24:  VERT SEC E/W
 APD .m                  43.42:  DEPTH ABOVE PD
 WDMS.m                 118.27:  WD ELEV
 EGL .m                   0.00:  GROUND ELEVATION
 EPD .m                   0.00:  ELEVATION
 AZTC.deg                 6.29:  AZM TOTAL CORR
 GRDC.deg                 0.18:  GRID CORRECTION
 MDEC.deg                 6.47:  MAGNETIC DECL
 MDIP.deg                59.54:  MAGNETIC DIP
 MFLD.nT              50337.00:  MAGNETIC FIELD
 GVFD.g                   1.00:  GRAVITY FIELD
 VSDR.deg               226.99:  VERT SEC DIRECT
 TDD .m                   0.00:  TOTAL DEPTH (DRILLER)
 SDEP.m                 448.00:  START DEPTH
 DFSL.m                   0.00:  DISTANCE FSL
 DFWL.m                   0.00:  DISTANCE FWL
 UTMY.m             4435799.96:  UTM Y
 UTMX.m              526265.35:  UTM X
 WHEW.m                  -6.24:  WELL HEAD E/W
 WHNS.m                  -2.16:  WELL HEAD N/S
 LONG.deg                51.31:  LONGITUDE
 LATI.deg                40.06:  LATITUDE
 TVDS.m                  43.42:  TVDSS CORRECTN
 EKB .m                  43.42:  KB ELEVATION
 EDF .m                  43.42:  DF ELEVATION
 TDL .m                 288.00:  TOTAL DEPTH (LOGGER)
 MAGU.                 1851863:  MAGUTM CHECKSUM
 VSC .                       0:  VS TO CLOSURE
~Parameter Information Block
#MNEM.UNIT       Value        Description
#---------     -----------    ---------------------------
 AV  .mps                 0.40:  Ann Velocity 
 AVMX.mps                 0.63:  Max Ann Veloc 
 AZIF.deg               158.76:  Azm, Final 
 BHAT.        Rotary Steerable:  BHA Type 
 BROT.°/30m               0.68:  Build Rotating 
 BS  .in                  8.50:  Bit Size 
 BSZ .in                  8.50:  Bit Size 
 BTPL.psig              712.00:  Bit Press Loss 
 CABU.                      No:  Customer Abuse 
 COMM.                     „;b:  Run Comments 1 
 TCS .hr                 90.66:  Time Ciculation Ended 
 CV  .mps                 2.02:  Crit Velocity 
 CVMX.mps                 2.14:  Max Crit Veloc 
 DD1 .            Aziz Aliyevu:  Direct Drillr 1 
 DD2 .             Samir Abbas:  Direct Drillr 2 
 DD3 .           Teymur Aliyev:  Direct Drillr 3 
 DDSV.                 iCruise:  DD Service 
 DEFF.%                  85.10:  % Det Eff 
 DLRX.°/30m               1.05:  Dogleg Rot Max 
 DLSO.°/30m               1.01:  Dogleg Oriented 
 DLSX.°/30m               1.05:  Dogleg Str Max 
 DRET.      07.45.00 18-Jul-21:  Drill End Time 
 DRST.      15.00.00 16-Jul-21:  Drill Start Tim 
 DTIM.hr                 23.46:  Time Drilling 
 EDEP.m                4603.00:  End Depth 
 ENG1.       Seymur Iskandarov:  Engineer 1 
 ENG2.         Yevgeniy Ulikov:  Engineer 2 
 ENG3.         Bahruz Mehdiyev:  Engineer 3 
 ENG4.         Elchin Mammadov:  Engineer 4 
 ETIM.      14.00.00 23-Jul-21:  End Time 
 FLOI.gpm               500.00:  Flow In 
 FLON.gpm               450.00:  Flow In Min 
 FLOS.cptm                0.00:  Fluid Loss 
 FLOX.gpm               560.00:  Flow In Max 
 DFT .        Mineral Oil Base:  Mud Type 
 FTRO.       Formation Presure:  FTWD Run Obj 
 HFLO.                      No:  High Flow 
 HPRE.                      No:  High Pressure 
 HTEM.                      No:  High Temp 
 HYDO.m                   1.80:  Hydro Offset 
 IFIN.deg                40.22:  Inc, Final 
 IMAX.deg                40.54:  Inc Max 
 IMIN.deg                39.44:  Inc Min 
 IMND.m                4361.17:  Inc Min Depth 
 IMXD.m                4417.92:  Inc Max Depth 
 JARR.                      No:  Jarring 
 LETM.      07.45.00 18-Jul-21:  Log End Time 
 LOST.hr                    16:  Lost Rig Time 
 LSTM.      15.00.00 16-Jul-21:  Log Start Time 
 MDCL.ppm             36500.00:  Mud Chlorides 
 MDES.     Inversion Oil/Synthetic:  Mud Desc 
 DFD .sg                  1.42:  Mud Density 
 MDMN.sg                  1.42:  Dens Mud Min 
 MDMX.sg                  1.43:  Dens Mud Max 
 MOIL.                      56:  Run Mud Oil % 
 MOWR.                   71:29:  Run Mud OWR 
 MSND.                     0.5:  Run Mud Sand % 
 MSOL.                      21:  Run Mud Solids% 
 DFV .spqt               78.00:  Mud Viscosity 
 MWOD.in                  6.75:  MWD Tool OD 
 MWSI.                     Yes:  Serv Intrp, MWD 
 OTIM.hr                200.73:  Time Operating 
 PCON.           Look Like New:  Pad Condition 
 PMAX.psia            11069.93:  Press Op, Max 
 PV  .cP                 32.00:  Mud PV 
 RUN .                     700:  Run Number 
 ROPA.m/hr               10.00:  ROP Avg 
 ROPN.m/hr                9.00:  ROP Min 
 ROPX.m/hr               16.00:  ROP Max 
 RPMA.rpm               116.00:  RPM Surface Avg 
 RPMN.rpm                80.00:  RPM Surface Min 
 RPMX.rpm               120.00:  RPM Surface Max 
 RRUN.                    L605:  Rig Run Number 
 RTIM.hr                 45.00:  Time Reaming 
 SAZI.deg               159.86:  Azm, Start 
 SDEP.m                4315.00:  Start Depth 
 SIDD.                      No:  Serv Intrp, DD 
 SINC.deg                39.86:  Inc, Start 
 SPPA.psig             3300.00:  SPP Avg 
 SPPN.psig             3040.00:  SPP Min 
 SPPX.psig             3645.00:  SPP Max 
 STIM.      01.00.00 15-Jul-21:  Start Time 
 SVCS.                 DD, MWD:  Services 
 SVER.                    9.20:  Sperry Version 
 TDAT.m                 288.00:  Tot Depth Attmp 
 TDDF.                      No:  Trip for DD 
 TDLG.m                 288.00:  Tot Depth Loggd 
 TFF .                      No:  Trip for Fail 
 TQAA.f-kp               19.00:  Torque Abs Avg 
 TQAN.f-kp               18.00:  Torque Abs Min 
 TQAX.f-kp               21.00:  Torque Abs Max 
 TRRT.°/30m               0.45:  Turn Rotating 
 MRT .                    HCIM:  Maximum Recorded Temperature 
 TTMX.degC               88.24:  Max Tool Temp 
 VS01.                90649157:  Virtual Str1 SN 
 VS02.                90652483:  Virtual Str2 SN 
 VS03.                11671987:  Virtual Str3 SN 
 VS04.                90643411:  Virtual Str4 SN 
 VS05.                90652478:  Virtual Str5 SN 
 VS06.                    6111:  Virtual Str6 SN 
 WBMN.klb                 9.50:  WOB Min 
 WITN.        Grigoriy Sarayev:  Customer Rep 
 WITN.          Rufat Huseynov:  Customer Rep 2 
 WOBA.klb                11.00:  WOB Avg 
 WOBX.klb                15.00:  WOB Max 
 YP  .lhf2               28.00:  Yield Point 
~Curve Information Block
#MNEM.UNIT                 API CODE     Curve Description
#---------               -----------    ---------------------------
 TIME.HHMMSS            00 000 000 000:  GT Time & Date
 GTDEPTH.m              00 000 000 000:  GT Depth
 GTPQH.psia             00 000 000 000:  GT HR Quartz Pressure
 GTTQ.degC              00 000 000 000:  GT Quartz Temperature
 GTTN.NONE              00 000 000 000:  GT Test Number
 GTET.sec               00 000 000 000:  GT Elapsed Test Time
 GTTVD.m                00 000 000 000:  GT True Vertical Depth
#Other Information
#
#WARRANTY: Halliburton will use its best efforts to furnish customers with 
#accurate information and interpretations that are part of, and incident to, the services 
#provided.  However, Halliburton cannot and does not warrant the accuracy 
#or correctness of such information and interpretations.  Under no circumstances should any 
#such information or interpretation be relied upon as the sole basis for any drilling, 
#completion, production, or financial decision or any procedure involving any risk to the 
#safety of any drilling venture, drilling rig or its crew or any other third party.  The 
#Customer has full responsibility for all drilling, completion and production operation.  
#Halliburton makes no representations or warranties, either expressed or 
#implied, including, but not limited to, the implied warranties of merchantability or fitness 
#for a particular purpose, with respect to the services rendered.  In no event will 
#Halliburton be liable for failure to obtain any particular results or for 
#any damages, including, but not limited to, indirect, special or consequential damages, 
#resulting from the use of any information or interpretation provided by Halliburton.
#
~A           TIME           GTDEPTH  GTPQH  GTTQ  GTTN   GTET   GTTVD  
# ...
   13:27:49.421.19-Jul-2021 4559.00 6640.09 71.15 29.00  22.61 2745.40
   13:27:49.621.19-Jul-2021 4559.00 6648.74 71.15 29.00  22.81 2745.40
   13:27:49.821.19-Jul-2021 4559.00 6653.20 71.15 29.00  23.01 2745.40
   13:27:50.022.19-Jul-2021 4559.00 6653.20 71.15 29.00  23.21 2745.40
   13:27:50.222.19-Jul-2021 4559.00 6668.32 71.15 29.00  23.41 2745.40
   13:27:50.422.19-Jul-2021 4559.00 6652.90 71.15 29.00  23.61 2745.40
   13:27:50.622.19-Jul-2021 4559.00 6641.90 71.15 29.00  23.81 2745.40
   13:27:50.822.19-Jul-2021 4559.00 6652.21 71.15 29.00  24.01 2745.40
   13:27:51.022.19-Jul-2021 4559.00 6652.21 71.15 29.00  24.21 2745.40
   13:27:51.222.19-Jul-2021 4559.00 6654.27 71.15 29.00  24.41 2745.40
   13:27:51.422.19-Jul-2021 4559.00 6646.87 71.15 29.00  24.61 2745.40
   13:27:51.622.19-Jul-2021 4559.00 6652.19 71.15 29.00  24.81 2745.40
   13:27:51.822.19-Jul-2021 4559.00 6672.89 71.15 29.00  25.01 2745.40
   13:27:52.022.19-Jul-2021 4559.00 6672.89 71.15 29.00  25.21 2745.40
   13:27:52.222.19-Jul-2021 4559.00 6648.47 71.15 29.00  25.41 2745.40
   13:27:52.422.19-Jul-2021 4559.00 6659.54 71.15 29.00  25.61 2745.40
   13:27:52.622.19-Jul-2021 4559.00 6650.66 71.15 29.00  25.81 2745.40
   13:27:52.823.19-Jul-2021 4559.00 6649.82 71.15 29.00  26.01 2745.40
   13:27:53.023.19-Jul-2021 4559.00 6649.82 71.15 29.00  26.21 2745.40
   13:27:53.223.19-Jul-2021 4559.00 6651.83 71.15 29.00  26.41 2745.40
   13:27:53.423.19-Jul-2021 4559.00 6651.20 71.15 29.00  26.61 2745.40
   13:27:53.623.19-Jul-2021 4559.00 6651.47 71.15 29.00  26.81 2745.40
   13:27:53.823.19-Jul-2021 4559.00 6652.70 71.15 29.00  27.01 2745.40
   13:27:54.023.19-Jul-2021 4559.00 6652.70 71.15 29.00  27.21 2745.40
   13:27:54.223.19-Jul-2021 4559.00 6655.52 71.15 29.00  27.41 2745.40
   13:27:54.423.19-Jul-2021 4559.00 6653.30 71.15 29.00  27.61 2745.40
   13:27:54.623.19-Jul-2021 4559.00 6673.57 71.15 29.00  27.81 2745.40
   13:27:54.823.19-Jul-2021 4559.00 6659.76 71.15 29.00  28.01 2745.40
   13:27:55.023.19-Jul-2021 4559.00 6659.76 71.15 29.00  28.21 2745.40
   13:27:55.223.19-Jul-2021 4559.00 6662.20 71.15 29.00  28.41 2745.40
   13:27:55.424.19-Jul-2021 4559.00 6656.15 71.15 29.00  28.61 2745.40
   13:27:55.624.19-Jul-2021 4559.00 6634.54 71.14 29.00  28.81 2745.40
   13:27:55.824.19-Jul-2021 4559.00 6554.64 71.15 29.00  29.01 2745.40
   13:27:56.024.19-Jul-2021 4559.00 6554.64 71.15 29.00  29.21 2745.40
   13:27:56.224.19-Jul-2021 4559.00 6474.54 71.14 29.00  29.41 2745.40
   13:27:56.424.19-Jul-2021 4559.00 6443.32 71.14 29.00  29.61 2745.40
   13:27:56.624.19-Jul-2021 4559.00 6424.55 71.14 29.00  29.81 2745.40
   13:27:56.824.19-Jul-2021 4559.00 6395.96 71.14 29.00  30.01 2745.40
   13:27:57.024.19-Jul-2021 4559.00 6395.96 71.14 29.00  30.21 2745.40
   13:27:57.224.19-Jul-2021 4559.00 6326.90 71.14 29.00  30.41 2745.40
   13:27:57.424.19-Jul-2021 4559.00 6291.55 71.14 29.00  30.61 2745.40
   13:27:57.624.19-Jul-2021 4559.00 6251.10 71.14 29.00  30.81 2745.40
   13:27:57.824.19-Jul-2021 4559.00 6225.59 71.14 29.00  31.01 2745.40
   13:27:58.024.19-Jul-2021 4559.00 6225.59 71.14 29.00  31.21 2745.40
   13:27:58.225.19-Jul-2021 4559.00 6177.44 71.14 29.00  31.41 2745.40
   13:27:58.425.19-Jul-2021 4559.00 6162.72 71.14 29.00  31.61 2745.40
   13:27:58.625.19-Jul-2021 4559.00 6145.17 71.14 29.00  31.81 2745.40
   13:27:58.825.19-Jul-2021 4559.00 6130.58 71.14 29.00  32.01 2745.40
   13:27:59.025.19-Jul-2021 4559.00 6130.58 71.14 29.00  32.21 2745.40
   13:27:59.225.19-Jul-2021 4559.00 6106.86 71.14 29.00  32.41 2745.40
   13:27:59.425.19-Jul-2021 4559.00 6098.84 71.14 29.00  32.61 2745.40
   13:27:59.625.19-Jul-2021 4559.00 6090.99 71.14 29.00  32.81 2745.40
   13:27:59.825.19-Jul-2021 4559.00 6085.58 71.14 29.00  33.01 2745.40
   13:28:00.025.19-Jul-2021 4559.00 6085.58 71.14 29.00  33.21 2745.40
   13:28:00.225.19-Jul-2021 4559.00 6071.32 71.14 29.00  33.41 2745.40
   13:28:00.425.19-Jul-2021 4559.00 6066.76 71.14 29.00  33.61 2745.40
   13:28:00.625.19-Jul-2021 4559.00 6061.68 71.14 29.00  33.81 2745.40
   13:28:00.826.19-Jul-2021 4559.00 6055.87 71.14 29.00  34.01 2745.40
   13:28:01.026.19-Jul-2021 4559.00 6055.87 71.14 29.00  34.21 2745.40
   13:28:01.226.19-Jul-2021 4559.00 6049.93 71.14 29.00  34.41 2745.40
   13:28:01.426.19-Jul-2021 4559.00 6046.75 71.14 29.00  34.61 2745.40
   13:28:01.626.19-Jul-2021 4559.00 6043.91 71.14 29.00  34.81 2745.40
   13:28:01.826.19-Jul-2021 4559.00 6043.34 71.14 29.00  35.01 2745.40
   13:28:02.026.19-Jul-2021 4559.00 6043.34 71.14 29.00  35.21 2745.40
   13:28:02.226.19-Jul-2021 4559.00 5336.26 71.14 29.00  35.41 2745.40
   13:28:02.426.19-Jul-2021 4559.00 4316.28 71.14 29.00  35.61 2745.40
   13:28:02.626.19-Jul-2021 4559.00 3495.04 71.14 29.00  35.81 2745.40
   13:28:02.826.19-Jul-2021 4559.00 3250.41 71.14 29.00  36.01 2745.40
   13:28:03.026.19-Jul-2021 4559.00 3250.41 71.14 29.00  36.21 2745.40
   13:28:03.226.19-Jul-2021 4559.00 3346.97 71.13 29.00  36.41 2745.40
   13:28:03.426.19-Jul-2021 4559.00 3342.20 71.13 29.00  36.61 2745.40
   13:28:03.627.19-Jul-2021 4559.00 3376.79 71.13 29.00  36.81 2745.40
   13:28:03.827.19-Jul-2021 4559.00 3373.28 71.13 29.00  37.01 2745.40
   13:28:04.027.19-Jul-2021 4559.00 3373.28 71.13 29.00  37.21 2745.40
   13:28:04.227.19-Jul-2021 4559.00 3348.67 71.13 29.00  37.41 2745.40
   13:28:04.427.19-Jul-2021 4559.00 3334.93 71.13 29.00  37.61 2745.40
   13:28:04.627.19-Jul-2021 4559.00 3323.71 71.12 29.00  37.81 2745.40
   13:28:04.827.19-Jul-2021 4559.00 3320.42 71.12 29.00  38.01 2745.40
   13:28:05.027.19-Jul-2021 4559.00 3320.42 71.12 29.00  38.21 2745.40
   13:28:05.227.19-Jul-2021 4559.00 3315.27 71.12 29.00  38.41 2745.40
   13:28:05.427.19-Jul-2021 4559.00 3315.14 71.12 29.00  38.61 2745.40
   13:28:05.627.19-Jul-2021 4559.00 3317.09 71.11 29.00  38.81 2745.40
   13:28:05.827.19-Jul-2021 4559.00 3315.73 71.11 29.00  39.01 2745.40
   13:28:06.027.19-Jul-2021 4559.00 3315.73 71.11 29.00  39.21 2745.40
   13:28:06.228.19-Jul-2021 4559.00 3308.64 71.11 29.00  39.41 2745.40
   13:28:06.428.19-Jul-2021 4559.00 3306.78 71.11 29.00  39.61 2745.40
   13:28:06.628.19-Jul-2021 4559.00 3312.10 71.11 29.00  39.81 2745.40
   13:28:06.828.19-Jul-2021 4559.00 3312.58 71.10 29.00  40.01 2745.40
   13:28:07.028.19-Jul-2021 4559.00 3312.58 71.10 29.00  40.21 2745.40
   13:28:07.228.19-Jul-2021 4559.00 3304.36 71.10 29.00  40.41 2745.40
   13:28:07.428.19-Jul-2021 4559.00 3305.33 71.10 29.00  40.61 2745.40
   13:28:07.628.19-Jul-2021 4559.00 3311.72 71.10 29.00  40.82 2745.40
   13:28:07.828.19-Jul-2021 4559.00 3314.99 71.10 29.00  41.02 2745.40
   13:28:08.028.19-Jul-2021 4559.00 3314.99 71.10 29.00  41.22 2745.40
   13:28:08.228.19-Jul-2021 4559.00 3307.73 71.09 29.00  41.42 2745.40
   13:28:08.428.19-Jul-2021 4559.00 3313.20 71.09 29.00  41.62 2745.40
   13:28:08.628.19-Jul-2021 4559.00 3315.19 71.09 29.00  41.82 2745.40
   13:28:08.828.19-Jul-2021 4559.00 3310.83 71.09 29.00  42.02 2745.40
   13:28:09.029.19-Jul-2021 4559.00 3310.83 71.09 29.00  42.22 2745.40
   13:28:09.229.19-Jul-2021 4559.00 3312.61 71.09 29.00  42.42 2745.40
   13:28:09.429.19-Jul-2021 4559.00 3308.81 71.09 29.00  42.62 2745.40
   13:28:09.629.19-Jul-2021 4559.00 3301.75 71.08 29.00  42.82 2745.40
   13:28:09.829.19-Jul-2021 4559.00 3309.12 71.08 29.00  43.02 2745.40
   13:28:10.029.19-Jul-2021 4559.00 3309.12 71.08 29.00  43.22 2745.40
   13:28:10.229.19-Jul-2021 4559.00 3306.89 71.08 29.00  43.42 2745.40
   13:28:10.429.19-Jul-2021 4559.00 3309.37 71.08 29.00  43.62 2745.40
   13:28:10.629.19-Jul-2021 4559.00 3301.98 71.08 29.00  43.82 2745.40
   13:28:10.829.19-Jul-2021 4559.00 3306.86 71.08 29.00  44.02 2745.40
   13:28:11.029.19-Jul-2021 4559.00 3306.86 71.08 29.00  44.22 2745.40
   13:28:11.229.19-Jul-2021 4559.00 3305.95 71.08 29.00  44.42 2745.40
   13:28:11.429.19-Jul-2021 4559.00 3304.51 71.08 29.00  44.62 2745.40
   13:28:11.629.19-Jul-2021 4559.00 3306.69 71.07 29.00  44.82 2745.40
   13:28:11.830.19-Jul-2021 4559.00 3307.12 71.07 29.00  45.02 2745.40
