~Version Information
 VERS.                  2.0:   CWLS log ASCII Standard -VERSION 2.0
 WRAP.                   NO:   One line per depth step
~Well Information Block
#MNEM.UNIT     VALUE/NAME     DESCRIPTION
#---------     -----------    ---------------------------
 STRT.S             03:40:15 19-Jul-21: START TIME 03:40:15 19-Jul-21
 STOP.S             03:47:11 19-Jul-21: STOP TIME  03:47:11 19-Jul-21
 STEP.S                   0.00: STEP TIME
 NULL.                 -999.25: NULL VALUE
 MDS .        Operator Entered:  MAG DATA SOURCE
 PDAT.          Mean Sea Level:  PERMANENT DATUM
 UNIT.                     N/A:  LOGGING EQUIPMENT ID
 DCON.         Sperry Drilling:  DIRECTNL CONTR
 DOE .                     N/A:  DOE NUMBER
 RIG .              West Azeri:  RIG NAME
 JOBN.        AZ-XX-0906997913:  JOB TICKET NUMB
 WELL.                     C41:  WELL NAME
 MWDS.                    Baku:  MWD SHOP
 SRVC.          Turan Drilling:  CONTRACTOR
 FLD .                     ACG:  FIELD NAME
 CTRY.              Azerbaijan:  COUNTRY NAME
 PROV.                    Baku:  PROVINCE
 STAT.                    Baku:  STATE NAME
 REGN.                   EESSA:  REGION
 BASE.              Azerbaijan:  LOGGING EQUIPMENT BASE LOCATION
 UWI .                     N/A:  UNIQUE WELL IDENTIFIER
 API .                     N/A:  API NUMBER
 COMP.     BP Exploration (Caspian Sea) Ltd.:  COMPANY
 WTYP.                Deviated:  WELL TYPE
 SON .        AZ-XX-0906997913:  JOB NUMBER
 FTOP.          Formation Tops:  FORM TOPS DESC
 ILTD.               Lithology:  INTERP LTH DESC
 SVYD.                  Survey:  SURVEY DESC
 DMOD.             Drill Model:  DRILL MOD DESC
 HPTY.       Minimum Curvature:  HOLE POS TYPE
 NREF.                    Grid:  NORTH REFERENCE
 SPUD.               16-May-21:  SPUD DATE
 DATE.      21.11.28 17-May-21:  END TIME
 STIM.      21.11.28 17-May-21:  START TIME
 DMF .             Drill Floor:  DRILL MEAS FROM
 DFST.                        :  DIST FSL TEXT
 DFWT.                        :  DIST FWL TEXT
 CNTY.                        :  COUNTY
 LOC .                        :  LOCATION
 LMF .             Drill Floor:  LOG MEASURED FROM
 AGAP.m                  43.42:  AIR GAP
 VSNS.m                  -2.16:  VERT SEC N/S
 VSEW.m                  -6.24:  VERT SEC E/W
 APD .m                  43.42:  DEPTH ABOVE PD
 WDMS.m                 118.27:  WD ELEV
 EGL .m                   0.00:  GROUND ELEVATION
 EPD .m                   0.00:  ELEVATION
 AZTC.deg                 6.29:  AZM TOTAL CORR
 GRDC.deg                 0.18:  GRID CORRECTION
 MDEC.deg                 6.47:  MAGNETIC DECL
 MDIP.deg                59.54:  MAGNETIC DIP
 MFLD.nT              50337.00:  MAGNETIC FIELD
 GVFD.g                   1.00:  GRAVITY FIELD
 VSDR.deg               226.99:  VERT SEC DIRECT
 TDD .m                   0.00:  TOTAL DEPTH (DRILLER)
 SDEP.m                 448.00:  START DEPTH
 DFSL.m                   0.00:  DISTANCE FSL
 DFWL.m                   0.00:  DISTANCE FWL
 UTMY.m             4435799.96:  UTM Y
 UTMX.m              526265.35:  UTM X
 WHEW.m                  -6.24:  WELL HEAD E/W
 WHNS.m                  -2.16:  WELL HEAD N/S
 LONG.deg                51.31:  LONGITUDE
 LATI.deg                40.06:  LATITUDE
 TVDS.m                  43.42:  TVDSS CORRECTN
 EKB .m                  43.42:  KB ELEVATION
 EDF .m                  43.42:  DF ELEVATION
 TDL .m                 288.00:  TOTAL DEPTH (LOGGER)
 MAGU.                 1851863:  MAGUTM CHECKSUM
 VSC .                       0:  VS TO CLOSURE
~Parameter Information Block
#MNEM.UNIT       Value        Description
#---------     -----------    ---------------------------
 AV  .mps                 0.40:  Ann Velocity 
 AVMX.mps                 0.63:  Max Ann Veloc 
 AZIF.deg               158.76:  Azm, Final 
 BHAT.        Rotary Steerable:  BHA Type 
 BROT.∞/30m               0.68:  Build Rotating 
 BS  .in                  8.50:  Bit Size 
 BSZ .in                  8.50:  Bit Size 
 BTPL.psig              712.00:  Bit Press Loss 
 CABU.                      No:  Customer Abuse 
 COMM.                     ÙZ]:  Run Comments 1 
 TCS .hr                 90.66:  Time Ciculation Ended 
 CV  .mps                 2.02:  Crit Velocity 
 CVMX.mps                 2.14:  Max Crit Veloc 
 DD1 .            Aziz Aliyevu:  Direct Drillr 1 
 DD2 .             Samir Abbas:  Direct Drillr 2 
 DD3 .           Teymur Aliyev:  Direct Drillr 3 
 DDSV.                 iCruise:  DD Service 
 DEFF.%                  85.10:  % Det Eff 
 DLRX.∞/30m               1.05:  Dogleg Rot Max 
 DLSO.∞/30m               1.01:  Dogleg Oriented 
 DLSX.∞/30m               1.05:  Dogleg Str Max 
 DRET.      07.45.00 18-Jul-21:  Drill End Time 
 DRST.      15.00.00 16-Jul-21:  Drill Start Tim 
 DTIM.hr                 23.46:  Time Drilling 
 EDEP.m                4603.00:  End Depth 
 ENG1.       Seymur Iskandarov:  Engineer 1 
 ENG2.         Yevgeniy Ulikov:  Engineer 2 
 ENG3.         Bahruz Mehdiyev:  Engineer 3 
 ENG4.         Elchin Mammadov:  Engineer 4 
 ETIM.      14.00.00 23-Jul-21:  End Time 
 FLOI.gpm               500.00:  Flow In 
 FLON.gpm               450.00:  Flow In Min 
 FLOS.cptm                0.00:  Fluid Loss 
 FLOX.gpm               560.00:  Flow In Max 
 DFT .        Mineral Oil Base:  Mud Type 
 FTRO.       Formation Presure:  FTWD Run Obj 
 HFLO.                      No:  High Flow 
 HPRE.                      No:  High Pressure 
 HTEM.                      No:  High Temp 
 HYDO.m                   1.80:  Hydro Offset 
 IFIN.deg                40.22:  Inc, Final 
 IMAX.deg                40.54:  Inc Max 
 IMIN.deg                39.44:  Inc Min 
 IMND.m                4361.17:  Inc Min Depth 
 IMXD.m                4417.92:  Inc Max Depth 
 JARR.                      No:  Jarring 
 LETM.      07.45.00 18-Jul-21:  Log End Time 
 LOST.hr                    16:  Lost Rig Time 
 LSTM.      15.00.00 16-Jul-21:  Log Start Time 
 MDCL.ppm             36500.00:  Mud Chlorides 
 MDES.     Inversion Oil/Synthetic:  Mud Desc 
 DFD .sg                  1.42:  Mud Density 
 MDMN.sg                  1.42:  Dens Mud Min 
 MDMX.sg                  1.43:  Dens Mud Max 
 MOIL.                      56:  Run Mud Oil % 
 MOWR.                   71:29:  Run Mud OWR 
 MSND.                     0.5:  Run Mud Sand % 
 MSOL.                      21:  Run Mud Solids% 
 DFV .spqt               78.00:  Mud Viscosity 
 MWOD.in                  6.75:  MWD Tool OD 
 MWSI.                     Yes:  Serv Intrp, MWD 
 OTIM.hr                200.73:  Time Operating 
 PCON.           Look Like New:  Pad Condition 
 PMAX.psia            11069.93:  Press Op, Max 
 PV  .cP                 32.00:  Mud PV 
 RUN .                     700:  Run Number 
 ROPA.m/hr               10.00:  ROP Avg 
 ROPN.m/hr                9.00:  ROP Min 
 ROPX.m/hr               16.00:  ROP Max 
 RPMA.rpm               116.00:  RPM Surface Avg 
 RPMN.rpm                80.00:  RPM Surface Min 
 RPMX.rpm               120.00:  RPM Surface Max 
 RRUN.                    L605:  Rig Run Number 
 RTIM.hr                 45.00:  Time Reaming 
 SAZI.deg               159.86:  Azm, Start 
 SDEP.m                4315.00:  Start Depth 
 SIDD.                      No:  Serv Intrp, DD 
 SINC.deg                39.86:  Inc, Start 
 SPPA.psig             3300.00:  SPP Avg 
 SPPN.psig             3040.00:  SPP Min 
 SPPX.psig             3645.00:  SPP Max 
 STIM.      01.00.00 15-Jul-21:  Start Time 
 SVCS.                 DD, MWD:  Services 
 SVER.                    9.20:  Sperry Version 
 TDAT.m                 288.00:  Tot Depth Attmp 
 TDDF.                      No:  Trip for DD 
 TDLG.m                 288.00:  Tot Depth Loggd 
 TFF .                      No:  Trip for Fail 
 TQAA.f-kp               19.00:  Torque Abs Avg 
 TQAN.f-kp               18.00:  Torque Abs Min 
 TQAX.f-kp               21.00:  Torque Abs Max 
 TRRT.∞/30m               0.45:  Turn Rotating 
 MRT .                    HCIM:  Maximum Recorded Temperature 
 TTMX.degC               88.24:  Max Tool Temp 
 VS01.                90649157:  Virtual Str1 SN 
 VS02.                90652483:  Virtual Str2 SN 
 VS03.                11671987:  Virtual Str3 SN 
 VS04.                90643411:  Virtual Str4 SN 
 VS05.                90652478:  Virtual Str5 SN 
 VS06.                    6111:  Virtual Str6 SN 
 WBMN.klb                 9.50:  WOB Min 
 WITN.        Grigoriy Sarayev:  Customer Rep 
 WITN.          Rufat Huseynov:  Customer Rep 2 
 WOBA.klb                11.00:  WOB Avg 
 WOBX.klb                15.00:  WOB Max 
 YP  .lhf2               28.00:  Yield Point 
~Curve Information Block
#MNEM.UNIT                 API CODE     Curve Description
#---------               -----------    ---------------------------
 TIME.HHMMSS            00 000 000 000:  GT Time & Date
 GTDEPTH.m              00 000 000 000:  GT Depth
 GTPQH.psia             00 000 000 000:  GT HR Quartz Pressure
 GTTQ.degC              00 000 000 000:  GT Quartz Temperature
 GTTN.NONE              00 000 000 000:  GT Test Number
 GTET.sec               00 000 000 000:  GT Elapsed Test Time
 GTTVD.m                00 000 000 000:  GT True Vertical Depth
#Other Information
#
#WARRANTY: Halliburton will use its best efforts to furnish customers with 
#accurate information and interpretations that are part of, and incident to, the services 
#provided.  However, Halliburton cannot and does not warrant the accuracy 
#or correctness of such information and interpretations.  Under no circumstances should any 
#such information or interpretation be relied upon as the sole basis for any drilling, 
#completion, production, or financial decision or any procedure involving any risk to the 
#safety of any drilling venture, drilling rig or its crew or any other third party.  The 
#Customer has full responsibility for all drilling, completion and production operation.  
#Halliburton makes no representations or warranties, either expressed or 
#implied, including, but not limited to, the implied warranties of merchantability or fitness 
#for a particular purpose, with respect to the services rendered.  In no event will 
#Halliburton be liable for failure to obtain any particular results or for 
#any damages, including, but not limited to, indirect, special or consequential damages, 
#resulting from the use of any information or interpretation provided by Halliburton.
#
~A           TIME           GTDEPTH  GTPQH  GTTQ  GTTN   GTET   GTTVD  
# ...
   03:46:40.182.19-Jul-2021 4323.50 6293.60 69.09 10.00 384.34 2565.11
   03:46:40.382.19-Jul-2021 4323.50 6301.36 69.09 10.00 384.54 2565.11
   03:46:40.582.19-Jul-2021 4323.50 6314.30 69.09 10.00 384.74 2565.11
   03:46:40.782.19-Jul-2021 4323.50 6290.77 69.09 10.00 384.94 2565.11
   03:46:40.982.19-Jul-2021 4323.50 6289.83 69.09 10.00 385.14 2565.11
   03:46:41.182.19-Jul-2021 4323.50 6289.83 69.09 10.00 385.34 2565.11
   03:46:41.383.19-Jul-2021 4323.50 6316.08 69.09 10.00 385.54 2565.11
   03:46:41.583.19-Jul-2021 4323.50 6287.91 69.09 10.00 385.74 2565.11
   03:46:41.783.19-Jul-2021 4323.50 6292.21 69.09 10.00 385.94 2565.11
   03:46:41.983.19-Jul-2021 4323.50 6299.69 69.09 10.00 386.14 2565.11
   03:46:42.183.19-Jul-2021 4323.50 6299.69 69.09 10.00 386.34 2565.11
   03:46:42.383.19-Jul-2021 4323.50 6292.30 69.09 10.00 386.54 2565.11
   03:46:42.583.19-Jul-2021 4323.50 6293.18 69.09 10.00 386.74 2565.11
   03:46:42.783.19-Jul-2021 4323.50 6301.35 69.09 10.00 386.94 2565.11
   03:46:42.983.19-Jul-2021 4323.50 6294.95 69.09 10.00 387.14 2565.11
   03:46:43.183.19-Jul-2021 4323.50 6294.95 69.09 10.00 387.34 2565.11
   03:46:43.383.19-Jul-2021 4323.50 6294.60 69.09 10.00 387.54 2565.11
   03:46:43.583.19-Jul-2021 4323.50 6293.56 69.09 10.00 387.74 2565.11
   03:46:43.783.19-Jul-2021 4323.50 6294.25 69.09 10.00 387.94 2565.11
   03:46:43.984.19-Jul-2021 4323.50 6293.20 69.09 10.00 388.14 2565.11
   03:46:44.184.19-Jul-2021 4323.50 6293.20 69.09 10.00 388.34 2565.11
   03:46:44.384.19-Jul-2021 4323.50 6293.23 69.09 10.00 388.54 2565.11
   03:46:44.584.19-Jul-2021 4323.50 6291.95 69.09 10.00 388.74 2565.11
   03:46:44.784.19-Jul-2021 4323.50 6290.54 69.09 10.00 388.94 2565.11
   03:46:44.984.19-Jul-2021 4323.50 6311.92 69.09 10.00 389.14 2565.11
   03:46:45.184.19-Jul-2021 4323.50 6311.92 69.09 10.00 389.34 2565.11
   03:46:45.384.19-Jul-2021 4323.50 6289.38 69.09 10.00 389.54 2565.11
   03:46:45.584.19-Jul-2021 4323.50 6298.54 69.09 10.00 389.74 2565.11
   03:46:45.784.19-Jul-2021 4323.50 6292.41 69.09 10.00 389.94 2565.11
   03:46:45.984.19-Jul-2021 4323.50 6292.00 69.09 10.00 390.14 2565.11
   03:46:46.184.19-Jul-2021 4323.50 6292.00 69.09 10.00 390.34 2565.11
   03:46:46.384.19-Jul-2021 4323.50 6291.59 69.09 10.00 390.54 2565.11
   03:46:46.584.19-Jul-2021 4323.50 6291.97 69.09 10.00 390.74 2565.11
   03:46:46.785.19-Jul-2021 4323.50 6292.26 69.09 10.00 390.94 2565.11
   03:46:46.985.19-Jul-2021 4323.50 6292.38 69.09 10.00 391.14 2565.11
   03:46:47.185.19-Jul-2021 4323.50 6292.38 69.09 10.00 391.34 2565.11
   03:46:47.385.19-Jul-2021 4323.50 6291.04 69.09 10.00 391.54 2565.11
   03:46:47.585.19-Jul-2021 4323.50 6312.75 69.09 10.00 391.74 2565.11
   03:46:47.785.19-Jul-2021 4323.50 6286.40 69.09 10.00 391.94 2565.11
   03:46:47.985.19-Jul-2021 4323.50 6288.12 69.09 10.00 392.14 2565.11
   03:46:48.185.19-Jul-2021 4323.50 6288.12 69.09 10.00 392.34 2565.11
   03:46:48.385.19-Jul-2021 4323.50 6292.67 69.09 10.00 392.54 2565.11
   03:46:48.585.19-Jul-2021 4323.50 6288.16 69.09 10.00 392.74 2565.11
   03:46:48.785.19-Jul-2021 4323.50 6300.53 69.09 10.00 392.94 2565.11
   03:46:48.985.19-Jul-2021 4323.50 6317.40 69.09 10.00 393.14 2565.11
   03:46:49.185.19-Jul-2021 4323.50 6317.40 69.09 10.00 393.34 2565.11
   03:46:49.386.19-Jul-2021 4323.50 6290.20 69.09 10.00 393.54 2565.11
   03:46:49.586.19-Jul-2021 4323.50 6307.48 69.09 10.00 393.74 2565.11
   03:46:49.786.19-Jul-2021 4323.50 6303.32 69.09 10.00 393.95 2565.11
   03:46:49.986.19-Jul-2021 4323.50 6292.60 69.09 10.00 394.15 2565.11
   03:46:50.186.19-Jul-2021 4323.50 6292.60 69.09 10.00 394.35 2565.11
   03:46:50.386.19-Jul-2021 4323.50 6318.23 69.09 10.00 394.55 2565.11
   03:46:50.586.19-Jul-2021 4323.50 6290.89 69.09 10.00 394.75 2565.11
   03:46:50.786.19-Jul-2021 4323.50 6295.35 69.09 10.00 394.95 2565.11
   03:46:50.986.19-Jul-2021 4323.50 6300.52 69.09 10.00 395.15 2565.11
   03:46:51.186.19-Jul-2021 4323.50 6300.52 69.09 10.00 395.35 2565.11
   03:46:51.386.19-Jul-2021 4323.50 6294.98 69.09 10.00 395.55 2565.11
   03:46:51.586.19-Jul-2021 4323.50 6296.62 69.09 10.00 395.75 2565.11
   03:46:51.786.19-Jul-2021 4323.50 6295.12 69.09 10.00 395.95 2565.11
   03:46:51.986.19-Jul-2021 4323.50 6295.29 69.09 10.00 396.15 2565.11
   03:46:52.187.19-Jul-2021 4323.50 6295.29 69.09 10.00 396.35 2565.11
   03:46:52.387.19-Jul-2021 4323.50 6294.22 69.09 10.00 396.55 2565.11
   03:46:52.587.19-Jul-2021 4323.50 6293.89 69.09 10.00 396.75 2565.11
   03:46:52.787.19-Jul-2021 4323.50 6293.69 69.09 10.00 396.95 2565.11
   03:46:52.987.19-Jul-2021 4323.50 6292.49 69.09 10.00 397.15 2565.11
   03:46:53.187.19-Jul-2021 4323.50 6292.49 69.09 10.00 397.35 2565.11
   03:46:53.387.19-Jul-2021 4323.50 6284.67 69.09 10.00 397.55 2565.11
   03:46:53.587.19-Jul-2021 4323.50 6290.15 69.09 10.00 397.75 2565.11
   03:46:53.787.19-Jul-2021 4323.50 6298.93 69.09 10.00 397.95 2565.11
   03:46:53.987.19-Jul-2021 4323.50 6290.41 69.09 10.00 398.15 2565.11
   03:46:54.187.19-Jul-2021 4323.50 6290.41 69.09 10.00 398.35 2565.11
   03:46:54.387.19-Jul-2021 4323.50 6293.82 69.09 10.00 398.55 2565.11
   03:46:54.587.19-Jul-2021 4323.50 6290.68 69.09 10.00 398.75 2565.11
   03:46:54.788.19-Jul-2021 4323.50 6291.47 69.08 10.00 398.95 2565.11
   03:46:54.988.19-Jul-2021 4323.50 6291.26 69.08 10.00 399.15 2565.11
   03:46:55.188.19-Jul-2021 4323.50 6291.26 69.08 10.00 399.35 2565.11
   03:46:55.388.19-Jul-2021 4323.50 6292.56 69.08 10.00 399.55 2565.11
   03:46:55.588.19-Jul-2021 4323.50 6291.56 69.08 10.00 399.75 2565.11
   03:46:55.788.19-Jul-2021 4323.50 6316.51 69.08 10.00 399.95 2565.11
   03:46:55.988.19-Jul-2021 4323.50 6285.55 69.08 10.00 400.15 2565.11
   03:46:56.188.19-Jul-2021 4323.50 6285.55 69.08 10.00 400.35 2565.11
   03:46:56.388.19-Jul-2021 4323.50 6320.78 69.08 10.00 400.55 2565.11
   03:46:56.588.19-Jul-2021 4323.50 6287.36 69.08 10.00 400.75 2565.11
   03:46:56.788.19-Jul-2021 4323.50 6289.03 69.08 10.00 400.95 2565.11
   03:46:56.988.19-Jul-2021 4323.50 6302.35 69.08 10.00 401.15 2565.11
   03:46:57.188.19-Jul-2021 4323.50 6302.35 69.08 10.00 401.35 2565.11
   03:46:57.388.19-Jul-2021 4323.50 6285.05 69.08 10.00 401.55 2565.11
   03:46:57.589.19-Jul-2021 4323.50 6293.02 69.08 10.00 401.75 2565.11
   03:46:57.789.19-Jul-2021 4323.50 6298.56 69.08 10.00 401.95 2565.11
   03:46:57.989.19-Jul-2021 4323.50 6309.55 69.08 10.00 402.15 2565.11
   03:46:58.189.19-Jul-2021 4323.50 6309.55 69.08 10.00 402.35 2565.11
   03:46:58.389.19-Jul-2021 4323.50 6293.35 69.08 10.00 402.55 2565.11
   03:46:58.589.19-Jul-2021 4323.50 6317.27 69.08 10.00 402.75 2565.11
   03:46:58.789.19-Jul-2021 4323.50 6294.44 69.08 10.00 402.95 2565.11
   03:46:58.989.19-Jul-2021 4323.50 6293.47 69.08 10.00 403.15 2565.11
   03:46:59.189.19-Jul-2021 4323.50 6293.47 69.08 10.00 403.35 2565.11
   03:46:59.389.19-Jul-2021 4323.50 6294.67 69.08 10.00 403.55 2565.11
   03:46:59.589.19-Jul-2021 4323.50 6296.53 69.08 10.00 403.75 2565.11
   03:46:59.789.19-Jul-2021 4323.50 6294.99 69.08 10.00 403.95 2565.11
   03:46:59.989.19-Jul-2021 4323.50 6294.38 69.08 10.00 404.15 2565.11
   03:47:00.189.19-Jul-2021 4323.50 6294.38 69.08 10.00 404.35 2565.11
   03:47:00.390.19-Jul-2021 4323.50 6293.81 69.08 10.00 404.55 2565.11
   03:47:00.590.19-Jul-2021 4323.50 6293.15 69.08 10.00 404.75 2565.11
   03:47:00.790.19-Jul-2021 4323.50 6293.13 69.08 10.00 404.95 2565.11
   03:47:00.990.19-Jul-2021 4323.50 6293.37 69.08 10.00 405.15 2565.11
   03:47:01.190.19-Jul-2021 4323.50 6293.37 69.08 10.00 405.35 2565.11
   03:47:01.390.19-Jul-2021 4323.50 6312.23 69.08 10.00 405.55 2565.11
   03:47:01.590.19-Jul-2021 4323.50 6287.80 69.08 10.00 405.75 2565.11
   03:47:01.790.19-Jul-2021 4323.50 6290.28 69.08 10.00 405.95 2565.11
   03:47:01.990.19-Jul-2021 4323.50 6298.18 69.08 10.00 406.15 2565.11
   03:47:02.190.19-Jul-2021 4323.50 6298.18 69.08 10.00 406.35 2565.11
   03:47:02.390.19-Jul-2021 4323.50 6290.54 69.08 10.00 406.55 2565.11
   03:47:02.590.19-Jul-2021 4323.50 6292.92 69.08 10.00 406.75 2565.11
