~Version Information
 VERS.                  2.0:   CWLS log ASCII Standard -VERSION 2.0
 WRAP.                   NO:   One line per depth step
~Well Information Block
#MNEM.UNIT     VALUE/NAME     DESCRIPTION
#---------     -----------    ---------------------------
 STRT.S             05:02:49 19-Jul-21: START TIME 05:02:49 19-Jul-21
 STOP.S             05:09:40 19-Jul-21: STOP TIME  05:09:40 19-Jul-21
 STEP.S                   0.00: STEP TIME
 NULL.                 -999.25: NULL VALUE
 MDS .        Operator Entered:  MAG DATA SOURCE
 PDAT.          Mean Sea Level:  PERMANENT DATUM
 UNIT.                     N/A:  LOGGING EQUIPMENT ID
 DCON.         Sperry Drilling:  DIRECTNL CONTR
 DOE .                     N/A:  DOE NUMBER
 RIG .              West Azeri:  RIG NAME
 JOBN.        AZ-XX-0906997913:  JOB TICKET NUMB
 WELL.                     C41:  WELL NAME
 MWDS.                    Baku:  MWD SHOP
 SRVC.          Turan Drilling:  CONTRACTOR
 FLD .                     ACG:  FIELD NAME
 CTRY.              Azerbaijan:  COUNTRY NAME
 PROV.                    Baku:  PROVINCE
 STAT.                    Baku:  STATE NAME
 REGN.                   EESSA:  REGION
 BASE.              Azerbaijan:  LOGGING EQUIPMENT BASE LOCATION
 UWI .                     N/A:  UNIQUE WELL IDENTIFIER
 API .                     N/A:  API NUMBER
 COMP.     BP Exploration (Caspian Sea) Ltd.:  COMPANY
 WTYP.                Deviated:  WELL TYPE
 SON .        AZ-XX-0906997913:  JOB NUMBER
 FTOP.          Formation Tops:  FORM TOPS DESC
 ILTD.               Lithology:  INTERP LTH DESC
 SVYD.                  Survey:  SURVEY DESC
 DMOD.             Drill Model:  DRILL MOD DESC
 HPTY.       Minimum Curvature:  HOLE POS TYPE
 NREF.                    Grid:  NORTH REFERENCE
 SPUD.               16-May-21:  SPUD DATE
 DATE.      21.11.28 17-May-21:  END TIME
 STIM.      21.11.28 17-May-21:  START TIME
 DMF .             Drill Floor:  DRILL MEAS FROM
 DFST.                        :  DIST FSL TEXT
 DFWT.                        :  DIST FWL TEXT
 CNTY.                        :  COUNTY
 LOC .                        :  LOCATION
 LMF .             Drill Floor:  LOG MEASURED FROM
 AGAP.m                  43.42:  AIR GAP
 VSNS.m                  -2.16:  VERT SEC N/S
 VSEW.m                  -6.24:  VERT SEC E/W
 APD .m                  43.42:  DEPTH ABOVE PD
 WDMS.m                 118.27:  WD ELEV
 EGL .m                   0.00:  GROUND ELEVATION
 EPD .m                   0.00:  ELEVATION
 AZTC.deg                 6.29:  AZM TOTAL CORR
 GRDC.deg                 0.18:  GRID CORRECTION
 MDEC.deg                 6.47:  MAGNETIC DECL
 MDIP.deg                59.54:  MAGNETIC DIP
 MFLD.nT              50337.00:  MAGNETIC FIELD
 GVFD.g                   1.00:  GRAVITY FIELD
 VSDR.deg               226.99:  VERT SEC DIRECT
 TDD .m                   0.00:  TOTAL DEPTH (DRILLER)
 SDEP.m                 448.00:  START DEPTH
 DFSL.m                   0.00:  DISTANCE FSL
 DFWL.m                   0.00:  DISTANCE FWL
 UTMY.m             4435799.96:  UTM Y
 UTMX.m              526265.35:  UTM X
 WHEW.m                  -6.24:  WELL HEAD E/W
 WHNS.m                  -2.16:  WELL HEAD N/S
 LONG.deg                51.31:  LONGITUDE
 LATI.deg                40.06:  LATITUDE
 TVDS.m                  43.42:  TVDSS CORRECTN
 EKB .m                  43.42:  KB ELEVATION
 EDF .m                  43.42:  DF ELEVATION
 TDL .m                 288.00:  TOTAL DEPTH (LOGGER)
 MAGU.                 1851863:  MAGUTM CHECKSUM
 VSC .                       0:  VS TO CLOSURE
~Parameter Information Block
#MNEM.UNIT       Value        Description
#---------     -----------    ---------------------------
 AV  .mps                 0.40:  Ann Velocity 
 AVMX.mps                 0.63:  Max Ann Veloc 
 AZIF.deg               158.76:  Azm, Final 
 BHAT.        Rotary Steerable:  BHA Type 
 BROT.°/30m               0.68:  Build Rotating 
 BS  .in                  8.50:  Bit Size 
 BSZ .in                  8.50:  Bit Size 
 BTPL.psig              712.00:  Bit Press Loss 
 CABU.                      No:  Customer Abuse 
 COMM.                     'i:  Run Comments 1 
 TCS .hr                 90.66:  Time Ciculation Ended 
 CV  .mps                 2.02:  Crit Velocity 
 CVMX.mps                 2.14:  Max Crit Veloc 
 DD1 .            Aziz Aliyevu:  Direct Drillr 1 
 DD2 .             Samir Abbas:  Direct Drillr 2 
 DD3 .           Teymur Aliyev:  Direct Drillr 3 
 DDSV.                 iCruise:  DD Service 
 DEFF.%                  85.10:  % Det Eff 
 DLRX.°/30m               1.05:  Dogleg Rot Max 
 DLSO.°/30m               1.01:  Dogleg Oriented 
 DLSX.°/30m               1.05:  Dogleg Str Max 
 DRET.      07.45.00 18-Jul-21:  Drill End Time 
 DRST.      15.00.00 16-Jul-21:  Drill Start Tim 
 DTIM.hr                 23.46:  Time Drilling 
 EDEP.m                4603.00:  End Depth 
 ENG1.       Seymur Iskandarov:  Engineer 1 
 ENG2.         Yevgeniy Ulikov:  Engineer 2 
 ENG3.         Bahruz Mehdiyev:  Engineer 3 
 ENG4.         Elchin Mammadov:  Engineer 4 
 ETIM.      14.00.00 23-Jul-21:  End Time 
 FLOI.gpm               500.00:  Flow In 
 FLON.gpm               450.00:  Flow In Min 
 FLOS.cptm                0.00:  Fluid Loss 
 FLOX.gpm               560.00:  Flow In Max 
 DFT .        Mineral Oil Base:  Mud Type 
 FTRO.       Formation Presure:  FTWD Run Obj 
 HFLO.                      No:  High Flow 
 HPRE.                      No:  High Pressure 
 HTEM.                      No:  High Temp 
 HYDO.m                   1.80:  Hydro Offset 
 IFIN.deg                40.22:  Inc, Final 
 IMAX.deg                40.54:  Inc Max 
 IMIN.deg                39.44:  Inc Min 
 IMND.m                4361.17:  Inc Min Depth 
 IMXD.m                4417.92:  Inc Max Depth 
 JARR.                      No:  Jarring 
 LETM.      07.45.00 18-Jul-21:  Log End Time 
 LOST.hr                    16:  Lost Rig Time 
 LSTM.      15.00.00 16-Jul-21:  Log Start Time 
 MDCL.ppm             36500.00:  Mud Chlorides 
 MDES.     Inversion Oil/Synthetic:  Mud Desc 
 DFD .sg                  1.42:  Mud Density 
 MDMN.sg                  1.42:  Dens Mud Min 
 MDMX.sg                  1.43:  Dens Mud Max 
 MOIL.                      56:  Run Mud Oil % 
 MOWR.                   71:29:  Run Mud OWR 
 MSND.                     0.5:  Run Mud Sand % 
 MSOL.                      21:  Run Mud Solids% 
 DFV .spqt               78.00:  Mud Viscosity 
 MWOD.in                  6.75:  MWD Tool OD 
 MWSI.                     Yes:  Serv Intrp, MWD 
 OTIM.hr                200.73:  Time Operating 
 PCON.           Look Like New:  Pad Condition 
 PMAX.psia            11069.93:  Press Op, Max 
 PV  .cP                 32.00:  Mud PV 
 RUN .                     700:  Run Number 
 ROPA.m/hr               10.00:  ROP Avg 
 ROPN.m/hr                9.00:  ROP Min 
 ROPX.m/hr               16.00:  ROP Max 
 RPMA.rpm               116.00:  RPM Surface Avg 
 RPMN.rpm                80.00:  RPM Surface Min 
 RPMX.rpm               120.00:  RPM Surface Max 
 RRUN.                    L605:  Rig Run Number 
 RTIM.hr                 45.00:  Time Reaming 
 SAZI.deg               159.86:  Azm, Start 
 SDEP.m                4315.00:  Start Depth 
 SIDD.                      No:  Serv Intrp, DD 
 SINC.deg                39.86:  Inc, Start 
 SPPA.psig             3300.00:  SPP Avg 
 SPPN.psig             3040.00:  SPP Min 
 SPPX.psig             3645.00:  SPP Max 
 STIM.      01.00.00 15-Jul-21:  Start Time 
 SVCS.                 DD, MWD:  Services 
 SVER.                    9.20:  Sperry Version 
 TDAT.m                 288.00:  Tot Depth Attmp 
 TDDF.                      No:  Trip for DD 
 TDLG.m                 288.00:  Tot Depth Loggd 
 TFF .                      No:  Trip for Fail 
 TQAA.f-kp               19.00:  Torque Abs Avg 
 TQAN.f-kp               18.00:  Torque Abs Min 
 TQAX.f-kp               21.00:  Torque Abs Max 
 TRRT.°/30m               0.45:  Turn Rotating 
 MRT .                    HCIM:  Maximum Recorded Temperature 
 TTMX.degC               88.24:  Max Tool Temp 
 VS01.                90649157:  Virtual Str1 SN 
 VS02.                90652483:  Virtual Str2 SN 
 VS03.                11671987:  Virtual Str3 SN 
 VS04.                90643411:  Virtual Str4 SN 
 VS05.                90652478:  Virtual Str5 SN 
 VS06.                    6111:  Virtual Str6 SN 
 WBMN.klb                 9.50:  WOB Min 
 WITN.        Grigoriy Sarayev:  Customer Rep 
 WITN.          Rufat Huseynov:  Customer Rep 2 
 WOBA.klb                11.00:  WOB Avg 
 WOBX.klb                15.00:  WOB Max 
 YP  .lhf2               28.00:  Yield Point 
~Curve Information Block
#MNEM.UNIT                 API CODE     Curve Description
#---------               -----------    ---------------------------
 TIME.HHMMSS            00 000 000 000:  GT Time & Date
 GTDEPTH.m              00 000 000 000:  GT Depth
 GTPQH.psia             00 000 000 000:  GT HR Quartz Pressure
 GTTQ.degC              00 000 000 000:  GT Quartz Temperature
 GTTN.NONE              00 000 000 000:  GT Test Number
 GTET.sec               00 000 000 000:  GT Elapsed Test Time
 GTTVD.m                00 000 000 000:  GT True Vertical Depth
#Other Information
#
#WARRANTY: Halliburton will use its best efforts to furnish customers with 
#accurate information and interpretations that are part of, and incident to, the services 
#provided.  However, Halliburton cannot and does not warrant the accuracy 
#or correctness of such information and interpretations.  Under no circumstances should any 
#such information or interpretation be relied upon as the sole basis for any drilling, 
#completion, production, or financial decision or any procedure involving any risk to the 
#safety of any drilling venture, drilling rig or its crew or any other third party.  The 
#Customer has full responsibility for all drilling, completion and production operation.  
#Halliburton makes no representations or warranties, either expressed or 
#implied, including, but not limited to, the implied warranties of merchantability or fitness 
#for a particular purpose, with respect to the services rendered.  In no event will 
#Halliburton be liable for failure to obtain any particular results or for 
#any damages, including, but not limited to, indirect, special or consequential damages, 
#resulting from the use of any information or interpretation provided by Halliburton.
#
~A           TIME           GTDEPTH  GTPQH  GTTQ  GTTN   GTET   GTTVD  
# ...
   05:07:20.965.19-Jul-2021 4356.00 4002.99 68.79 12.00 271.30 2590.09
   05:07:21.165.19-Jul-2021 4356.00 4017.60 68.79 12.00 271.50 2590.09
   05:07:21.365.19-Jul-2021 4356.00 4023.76 68.79 12.00 271.70 2590.09
   05:07:21.565.19-Jul-2021 4356.00 4029.21 68.79 12.00 271.90 2590.09
   05:07:21.765.19-Jul-2021 4356.00 4034.52 68.80 12.00 272.10 2590.09
   05:07:21.965.19-Jul-2021 4356.00 4034.52 68.80 12.00 272.30 2590.09
   05:07:22.165.19-Jul-2021 4356.00 4045.43 68.80 12.00 272.50 2590.09
   05:07:22.365.19-Jul-2021 4356.00 4050.69 68.80 12.00 272.70 2590.09
   05:07:22.565.19-Jul-2021 4356.00 4055.64 68.80 12.00 272.90 2590.09
   05:07:22.765.19-Jul-2021 4356.00 4060.24 68.80 12.00 273.10 2590.09
   05:07:22.965.19-Jul-2021 4356.00 4060.24 68.80 12.00 273.30 2590.09
   05:07:23.165.19-Jul-2021 4356.00 4068.69 68.80 12.00 273.50 2590.09
   05:07:23.365.19-Jul-2021 4356.00 4072.58 68.80 12.00 273.70 2590.09
   05:07:23.566.19-Jul-2021 4356.00 4076.17 68.81 12.00 273.90 2590.09
   05:07:23.766.19-Jul-2021 4356.00 4079.31 68.81 12.00 274.10 2590.09
   05:07:23.966.19-Jul-2021 4356.00 4079.31 68.81 12.00 274.30 2590.09
   05:07:24.166.19-Jul-2021 4356.00 4084.74 68.81 12.00 274.50 2590.09
   05:07:24.366.19-Jul-2021 4356.00 4086.37 68.81 12.00 274.70 2590.09
   05:07:24.566.19-Jul-2021 4356.00 4087.72 68.81 12.00 274.90 2590.09
   05:07:24.766.19-Jul-2021 4356.00 4090.50 68.81 12.00 275.10 2590.09
   05:07:24.966.19-Jul-2021 4356.00 4090.50 68.81 12.00 275.30 2590.09
   05:07:25.166.19-Jul-2021 4356.00 4095.20 68.81 12.00 275.50 2590.09
   05:07:25.366.19-Jul-2021 4356.00 4097.75 68.81 12.00 275.70 2590.09
   05:07:25.566.19-Jul-2021 4356.00 4100.01 68.81 12.00 275.90 2590.09
   05:07:25.766.19-Jul-2021 4356.00 4102.23 68.82 12.00 276.10 2590.09
   05:07:25.966.19-Jul-2021 4356.00 4102.23 68.82 12.00 276.30 2590.09
   05:07:26.166.19-Jul-2021 4356.00 4106.26 68.82 12.00 276.50 2590.09
   05:07:26.367.19-Jul-2021 4356.00 4107.96 68.82 12.00 276.70 2590.09
   05:07:26.567.19-Jul-2021 4356.00 4109.85 68.82 12.00 276.90 2590.09
   05:07:26.767.19-Jul-2021 4356.00 4110.65 68.82 12.00 277.10 2590.09
   05:07:26.967.19-Jul-2021 4356.00 4110.65 68.82 12.00 277.30 2590.09
   05:07:27.167.19-Jul-2021 4356.00 4111.68 68.82 12.00 277.50 2590.09
   05:07:27.367.19-Jul-2021 4356.00 4112.10 68.82 12.00 277.70 2590.09
   05:07:27.567.19-Jul-2021 4356.00 4111.55 68.82 12.00 277.90 2590.09
   05:07:27.767.19-Jul-2021 4356.00 4112.19 68.82 12.00 278.10 2590.09
   05:07:27.967.19-Jul-2021 4356.00 4112.19 68.82 12.00 278.30 2590.09
   05:07:28.167.19-Jul-2021 4356.00 4114.91 68.82 12.00 278.50 2590.09
   05:07:28.367.19-Jul-2021 4356.00 4116.06 68.82 12.00 278.70 2590.09
   05:07:28.567.19-Jul-2021 4356.00 4116.49 68.82 12.00 278.90 2590.09
   05:07:28.767.19-Jul-2021 4356.00 4116.66 68.82 12.00 279.10 2590.09
   05:07:28.967.19-Jul-2021 4356.00 4116.66 68.82 12.00 279.30 2590.09
   05:07:29.168.19-Jul-2021 4356.00 4119.69 68.83 12.00 279.50 2590.09
   05:07:29.368.19-Jul-2021 4356.00 4120.27 68.83 12.00 279.70 2590.09
   05:07:29.568.19-Jul-2021 4356.00 4120.40 68.83 12.00 279.90 2590.09
   05:07:29.768.19-Jul-2021 4356.00 4120.98 68.83 12.00 280.10 2590.09
   05:07:29.968.19-Jul-2021 4356.00 4120.98 68.83 12.00 280.30 2590.09
   05:07:30.168.19-Jul-2021 4356.00 4119.91 68.83 12.00 280.50 2590.09
   05:07:30.368.19-Jul-2021 4356.00 4120.55 68.83 12.00 280.70 2590.09
   05:07:30.568.19-Jul-2021 4356.00 4122.31 68.83 12.00 280.90 2590.09
   05:07:30.768.19-Jul-2021 4356.00 4123.26 68.83 12.00 281.10 2590.09
   05:07:30.968.19-Jul-2021 4356.00 4123.26 68.83 12.00 281.30 2590.09
   05:07:31.168.19-Jul-2021 4356.00 4126.44 68.83 12.00 281.50 2590.09
   05:07:31.368.19-Jul-2021 4356.00 4127.81 68.83 12.00 281.70 2590.09
   05:07:31.568.19-Jul-2021 4356.00 4129.06 68.83 12.00 281.90 2590.09
   05:07:31.769.19-Jul-2021 4356.00 4130.27 68.83 12.00 282.10 2590.09
   05:07:31.969.19-Jul-2021 4356.00 4130.27 68.83 12.00 282.30 2590.09
   05:07:32.169.19-Jul-2021 4356.00 4132.54 68.83 12.00 282.50 2590.09
   05:07:32.369.19-Jul-2021 4356.00 4133.43 68.83 12.00 282.70 2590.09
   05:07:32.569.19-Jul-2021 4356.00 4134.33 68.83 12.00 282.90 2590.09
   05:07:32.769.19-Jul-2021 4356.00 4134.61 68.83 12.00 283.10 2590.09
   05:07:32.969.19-Jul-2021 4356.00 4134.61 68.83 12.00 283.30 2590.09
   05:07:33.169.19-Jul-2021 4356.00 4133.85 68.83 12.00 283.50 2590.09
   05:07:33.369.19-Jul-2021 4356.00 4135.14 68.83 12.00 283.70 2590.09
   05:07:33.569.19-Jul-2021 4356.00 4135.69 68.83 12.00 283.90 2590.09
   05:07:33.769.19-Jul-2021 4356.00 4136.46 68.83 12.00 284.10 2590.09
   05:07:33.969.19-Jul-2021 4356.00 4136.46 68.83 12.00 284.30 2590.09
   05:07:34.169.19-Jul-2021 4356.00 4137.95 68.83 12.00 284.50 2590.09
   05:07:34.369.19-Jul-2021 4356.00 4138.76 68.83 12.00 284.70 2590.09
   05:07:34.570.19-Jul-2021 4356.00 4139.63 68.83 12.00 284.90 2590.09
   05:07:34.770.19-Jul-2021 4356.00 4140.42 68.83 12.00 285.10 2590.09
   05:07:34.970.19-Jul-2021 4356.00 4140.42 68.83 12.00 285.31 2590.09
   05:07:35.170.19-Jul-2021 4356.00 4141.79 68.83 12.00 285.51 2590.09
   05:07:35.370.19-Jul-2021 4356.00 4141.67 68.83 12.00 285.71 2590.09
   05:07:35.570.19-Jul-2021 4356.00 4140.81 68.83 12.00 285.91 2590.09
   05:07:35.770.19-Jul-2021 4356.00 4140.82 68.83 12.00 286.11 2590.09
   05:07:35.970.19-Jul-2021 4356.00 4140.82 68.83 12.00 286.31 2590.09
   05:07:36.170.19-Jul-2021 4356.00 4138.70 68.83 12.00 286.51 2590.09
   05:07:36.370.19-Jul-2021 4356.00 4138.95 68.83 12.00 286.71 2590.09
   05:07:36.570.19-Jul-2021 4356.00 4140.10 68.83 12.00 286.91 2590.09
   05:07:36.770.19-Jul-2021 4356.00 4140.26 68.83 12.00 287.11 2590.09
   05:07:36.970.19-Jul-2021 4356.00 4140.26 68.83 12.00 287.31 2590.09
   05:07:37.171.19-Jul-2021 4356.00 4140.34 68.83 12.00 287.51 2590.09
   05:07:37.371.19-Jul-2021 4356.00 4140.25 68.83 12.00 287.71 2590.09
   05:07:37.571.19-Jul-2021 4356.00 4140.91 68.83 12.00 287.91 2590.09
   05:07:37.771.19-Jul-2021 4356.00 4141.92 68.83 12.00 288.11 2590.09
   05:07:37.971.19-Jul-2021 4356.00 4141.92 68.83 12.00 288.31 2590.09
   05:07:38.171.19-Jul-2021 4356.00 4142.49 68.84 12.00 288.51 2590.09
   05:07:38.371.19-Jul-2021 4356.00 4141.68 68.84 12.00 288.71 2590.09
   05:07:38.571.19-Jul-2021 4356.00 4141.91 68.84 12.00 288.91 2590.09
   05:07:38.771.19-Jul-2021 4356.00 4142.77 68.84 12.00 289.11 2590.09
   05:07:38.971.19-Jul-2021 4356.00 4142.77 68.84 12.00 289.31 2590.09
   05:07:39.171.19-Jul-2021 4356.00 4144.11 68.84 12.00 289.51 2590.09
   05:07:39.371.19-Jul-2021 4356.00 4143.87 68.84 12.00 289.71 2590.09
   05:07:39.571.19-Jul-2021 4356.00 4142.67 68.84 12.00 289.91 2590.09
   05:07:39.771.19-Jul-2021 4356.00 4143.61 68.84 12.00 290.11 2590.09
   05:07:39.972.19-Jul-2021 4356.00 4143.61 68.84 12.00 290.31 2590.09
   05:07:40.172.19-Jul-2021 4356.00 4145.20 68.84 12.00 290.51 2590.09
   05:07:40.372.19-Jul-2021 4356.00 4145.97 68.84 12.00 290.71 2590.09
   05:07:40.572.19-Jul-2021 4356.00 4146.75 68.84 12.00 290.91 2590.09
   05:07:40.772.19-Jul-2021 4356.00 4147.45 68.84 12.00 291.11 2590.09
   05:07:40.972.19-Jul-2021 4356.00 4147.45 68.84 12.00 291.31 2590.09
   05:07:41.172.19-Jul-2021 4356.00 4148.73 68.84 12.00 291.51 2590.09
   05:07:41.372.19-Jul-2021 4356.00 4149.42 68.84 12.00 291.71 2590.09
   05:07:41.572.19-Jul-2021 4356.00 4150.04 68.84 12.00 291.91 2590.09
   05:07:41.772.19-Jul-2021 4356.00 4150.61 68.84 12.00 292.11 2590.09
   05:07:41.972.19-Jul-2021 4356.00 4150.61 68.84 12.00 292.31 2590.09
   05:07:42.172.19-Jul-2021 4356.00 4149.80 68.84 12.00 292.51 2590.09
   05:07:42.372.19-Jul-2021 4356.00 4148.95 68.84 12.00 292.71 2590.09
   05:07:42.573.19-Jul-2021 4356.00 4149.39 68.84 12.00 292.91 2590.09
   05:07:42.773.19-Jul-2021 4356.00 4150.03 68.84 12.00 293.11 2590.09
   05:07:42.973.19-Jul-2021 4356.00 4150.03 68.84 12.00 293.31 2590.09
   05:07:43.173.19-Jul-2021 4356.00 4150.94 68.84 12.00 293.51 2590.09
   05:07:43.373.19-Jul-2021 4356.00 4151.45 68.84 12.00 293.71 2590.09
