~Version Information
 VERS.                  2.0:   CWLS log ASCII Standard -VERSION 2.0
 WRAP.                   NO:   One line per depth step
~Well Information Block
#MNEM.UNIT     VALUE/NAME     DESCRIPTION
#---------     -----------    ---------------------------
 STRT.S             13:11:20 18-Jul-21: START TIME 13:11:20 18-Jul-21
 STOP.S             13:17:54 18-Jul-21: STOP TIME  13:17:54 18-Jul-21
 STEP.S                   0.00: STEP TIME
 NULL.                 -999.25: NULL VALUE
 MDS .        Operator Entered:  MAG DATA SOURCE
 PDAT.          Mean Sea Level:  PERMANENT DATUM
 UNIT.                     N/A:  LOGGING EQUIPMENT ID
 DCON.         Sperry Drilling:  DIRECTNL CONTR
 DOE .                     N/A:  DOE NUMBER
 RIG .              West Azeri:  RIG NAME
 JOBN.        AZ-XX-0906997913:  JOB TICKET NUMB
 WELL.                     C41:  WELL NAME
 MWDS.                    Baku:  MWD SHOP
 SRVC.          Turan Drilling:  CONTRACTOR
 FLD .                     ACG:  FIELD NAME
 CTRY.              Azerbaijan:  COUNTRY NAME
 PROV.                    Baku:  PROVINCE
 STAT.                    Baku:  STATE NAME
 REGN.                   EESSA:  REGION
 BASE.              Azerbaijan:  LOGGING EQUIPMENT BASE LOCATION
 UWI .                     N/A:  UNIQUE WELL IDENTIFIER
 API .                     N/A:  API NUMBER
 COMP.     BP Exploration (Caspian Sea) Ltd.:  COMPANY
 WTYP.                Deviated:  WELL TYPE
 SON .        AZ-XX-0906997913:  JOB NUMBER
 FTOP.          Formation Tops:  FORM TOPS DESC
 ILTD.               Lithology:  INTERP LTH DESC
 SVYD.                  Survey:  SURVEY DESC
 DMOD.             Drill Model:  DRILL MOD DESC
 HPTY.       Minimum Curvature:  HOLE POS TYPE
 NREF.                    Grid:  NORTH REFERENCE
 SPUD.               16-May-21:  SPUD DATE
 DATE.      21.11.28 17-May-21:  END TIME
 STIM.      21.11.28 17-May-21:  START TIME
 DMF .             Drill Floor:  DRILL MEAS FROM
 DFST.                        :  DIST FSL TEXT
 DFWT.                        :  DIST FWL TEXT
 CNTY.                        :  COUNTY
 LOC .                        :  LOCATION
 LMF .             Drill Floor:  LOG MEASURED FROM
 AGAP.m                  43.42:  AIR GAP
 VSNS.m                  -2.16:  VERT SEC N/S
 VSEW.m                  -6.24:  VERT SEC E/W
 APD .m                  43.42:  DEPTH ABOVE PD
 WDMS.m                 118.27:  WD ELEV
 EGL .m                   0.00:  GROUND ELEVATION
 EPD .m                   0.00:  ELEVATION
 AZTC.deg                 6.29:  AZM TOTAL CORR
 GRDC.deg                 0.18:  GRID CORRECTION
 MDEC.deg                 6.47:  MAGNETIC DECL
 MDIP.deg                59.54:  MAGNETIC DIP
 MFLD.nT              50337.00:  MAGNETIC FIELD
 GVFD.g                   1.00:  GRAVITY FIELD
 VSDR.deg               226.99:  VERT SEC DIRECT
 TDD .m                   0.00:  TOTAL DEPTH (DRILLER)
 SDEP.m                 448.00:  START DEPTH
 DFSL.m                   0.00:  DISTANCE FSL
 DFWL.m                   0.00:  DISTANCE FWL
 UTMY.m             4435799.96:  UTM Y
 UTMX.m              526265.35:  UTM X
 WHEW.m                  -6.24:  WELL HEAD E/W
 WHNS.m                  -2.16:  WELL HEAD N/S
 LONG.deg                51.31:  LONGITUDE
 LATI.deg                40.06:  LATITUDE
 TVDS.m                  43.42:  TVDSS CORRECTN
 EKB .m                  43.42:  KB ELEVATION
 EDF .m                  43.42:  DF ELEVATION
 TDL .m                 288.00:  TOTAL DEPTH (LOGGER)
 MAGU.                 1851863:  MAGUTM CHECKSUM
 VSC .                       0:  VS TO CLOSURE
~Parameter Information Block
#MNEM.UNIT       Value        Description
#---------     -----------    ---------------------------
 AV  .mps                 0.40:  Ann Velocity 
 AVMX.mps                 0.63:  Max Ann Veloc 
 AZIF.deg               158.76:  Azm, Final 
 BHAT.        Rotary Steerable:  BHA Type 
 BROT.∞/30m               0.68:  Build Rotating 
 BS  .in                  8.50:  Bit Size 
 BSZ .in                  8.50:  Bit Size 
 BTPL.psig              712.00:  Bit Press Loss 
 CABU.                      No:  Customer Abuse 
 COMM.                     §ÁL:  Run Comments 1 
 TCS .hr                 90.66:  Time Ciculation Ended 
 CV  .mps                 2.02:  Crit Velocity 
 CVMX.mps                 2.14:  Max Crit Veloc 
 DD1 .            Aziz Aliyevu:  Direct Drillr 1 
 DD2 .             Samir Abbas:  Direct Drillr 2 
 DD3 .           Teymur Aliyev:  Direct Drillr 3 
 DDSV.                 iCruise:  DD Service 
 DEFF.%                  85.10:  % Det Eff 
 DLRX.∞/30m               1.05:  Dogleg Rot Max 
 DLSO.∞/30m               1.01:  Dogleg Oriented 
 DLSX.∞/30m               1.05:  Dogleg Str Max 
 DRET.      07.45.00 18-Jul-21:  Drill End Time 
 DRST.      15.00.00 16-Jul-21:  Drill Start Tim 
 DTIM.hr                 23.46:  Time Drilling 
 EDEP.m                4603.00:  End Depth 
 ENG1.       Seymur Iskandarov:  Engineer 1 
 ENG2.         Yevgeniy Ulikov:  Engineer 2 
 ENG3.         Bahruz Mehdiyev:  Engineer 3 
 ENG4.         Elchin Mammadov:  Engineer 4 
 ETIM.      14.00.00 23-Jul-21:  End Time 
 FLOI.gpm               500.00:  Flow In 
 FLON.gpm               450.00:  Flow In Min 
 FLOS.cptm                0.00:  Fluid Loss 
 FLOX.gpm               560.00:  Flow In Max 
 DFT .        Mineral Oil Base:  Mud Type 
 FTRO.       Formation Presure:  FTWD Run Obj 
 HFLO.                      No:  High Flow 
 HPRE.                      No:  High Pressure 
 HTEM.                      No:  High Temp 
 HYDO.m                   1.80:  Hydro Offset 
 IFIN.deg                40.22:  Inc, Final 
 IMAX.deg                40.54:  Inc Max 
 IMIN.deg                39.44:  Inc Min 
 IMND.m                4361.17:  Inc Min Depth 
 IMXD.m                4417.92:  Inc Max Depth 
 JARR.                      No:  Jarring 
 LETM.      07.45.00 18-Jul-21:  Log End Time 
 LOST.hr                    16:  Lost Rig Time 
 LSTM.      15.00.00 16-Jul-21:  Log Start Time 
 MDCL.ppm             36500.00:  Mud Chlorides 
 MDES.     Inversion Oil/Synthetic:  Mud Desc 
 DFD .sg                  1.42:  Mud Density 
 MDMN.sg                  1.42:  Dens Mud Min 
 MDMX.sg                  1.43:  Dens Mud Max 
 MOIL.                      56:  Run Mud Oil % 
 MOWR.                   71:29:  Run Mud OWR 
 MSND.                     0.5:  Run Mud Sand % 
 MSOL.                      21:  Run Mud Solids% 
 DFV .spqt               78.00:  Mud Viscosity 
 MWOD.in                  6.75:  MWD Tool OD 
 MWSI.                     Yes:  Serv Intrp, MWD 
 OTIM.hr                200.73:  Time Operating 
 PCON.           Look Like New:  Pad Condition 
 PMAX.psia            11069.93:  Press Op, Max 
 PV  .cP                 32.00:  Mud PV 
 RUN .                     700:  Run Number 
 ROPA.m/hr               10.00:  ROP Avg 
 ROPN.m/hr                9.00:  ROP Min 
 ROPX.m/hr               16.00:  ROP Max 
 RPMA.rpm               116.00:  RPM Surface Avg 
 RPMN.rpm                80.00:  RPM Surface Min 
 RPMX.rpm               120.00:  RPM Surface Max 
 RRUN.                    L605:  Rig Run Number 
 RTIM.hr                 45.00:  Time Reaming 
 SAZI.deg               159.86:  Azm, Start 
 SDEP.m                4315.00:  Start Depth 
 SIDD.                      No:  Serv Intrp, DD 
 SINC.deg                39.86:  Inc, Start 
 SPPA.psig             3300.00:  SPP Avg 
 SPPN.psig             3040.00:  SPP Min 
 SPPX.psig             3645.00:  SPP Max 
 STIM.      01.00.00 15-Jul-21:  Start Time 
 SVCS.                 DD, MWD:  Services 
 SVER.                    9.20:  Sperry Version 
 TDAT.m                 288.00:  Tot Depth Attmp 
 TDDF.                      No:  Trip for DD 
 TDLG.m                 288.00:  Tot Depth Loggd 
 TFF .                      No:  Trip for Fail 
 TQAA.f-kp               19.00:  Torque Abs Avg 
 TQAN.f-kp               18.00:  Torque Abs Min 
 TQAX.f-kp               21.00:  Torque Abs Max 
 TRRT.∞/30m               0.45:  Turn Rotating 
 MRT .                    HCIM:  Maximum Recorded Temperature 
 TTMX.degC               88.24:  Max Tool Temp 
 VS01.                90649157:  Virtual Str1 SN 
 VS02.                90652483:  Virtual Str2 SN 
 VS03.                11671987:  Virtual Str3 SN 
 VS04.                90643411:  Virtual Str4 SN 
 VS05.                90652478:  Virtual Str5 SN 
 VS06.                    6111:  Virtual Str6 SN 
 WBMN.klb                 9.50:  WOB Min 
 WITN.        Grigoriy Sarayev:  Customer Rep 
 WITN.          Rufat Huseynov:  Customer Rep 2 
 WOBA.klb                11.00:  WOB Avg 
 WOBX.klb                15.00:  WOB Max 
 YP  .lhf2               28.00:  Yield Point 
~Curve Information Block
#MNEM.UNIT                 API CODE     Curve Description
#---------               -----------    ---------------------------
 TIME.HHMMSS            00 000 000 000:  GT Time & Date
 GTDEPTH.m              00 000 000 000:  GT Depth
 GTPQH.psia             00 000 000 000:  GT HR Quartz Pressure
 GTTQ.degC              00 000 000 000:  GT Quartz Temperature
 GTTN.NONE              00 000 000 000:  GT Test Number
 GTET.sec               00 000 000 000:  GT Elapsed Test Time
 GTTVD.m                00 000 000 000:  GT True Vertical Depth
#Other Information
#
#WARRANTY: Halliburton will use its best efforts to furnish customers with 
#accurate information and interpretations that are part of, and incident to, the services 
#provided.  However, Halliburton cannot and does not warrant the accuracy 
#or correctness of such information and interpretations.  Under no circumstances should any 
#such information or interpretation be relied upon as the sole basis for any drilling, 
#completion, production, or financial decision or any procedure involving any risk to the 
#safety of any drilling venture, drilling rig or its crew or any other third party.  The 
#Customer has full responsibility for all drilling, completion and production operation.  
#Halliburton makes no representations or warranties, either expressed or 
#implied, including, but not limited to, the implied warranties of merchantability or fitness 
#for a particular purpose, with respect to the services rendered.  In no event will 
#Halliburton be liable for failure to obtain any particular results or for 
#any damages, including, but not limited to, indirect, special or consequential damages, 
#resulting from the use of any information or interpretation provided by Halliburton.
#
~A           TIME           GTDEPTH  GTPQH  GTTQ  GTTN  GTET   GTTVD  
# ...
   13:12:06.661.18-Jul-2021 4561.00 6152.45 75.72 2.00  46.02 2746.93
   13:12:06.861.18-Jul-2021 4561.00 6152.45 75.72 2.00  46.22 2746.93
   13:12:07.061.18-Jul-2021 4561.00 6153.35 75.71 2.00  46.42 2746.93
   13:12:07.261.18-Jul-2021 4561.00 6152.27 75.71 2.00  46.62 2746.93
   13:12:07.461.18-Jul-2021 4561.00 6152.62 75.71 2.00  46.82 2746.93
   13:12:07.661.18-Jul-2021 4561.00 6152.62 75.71 2.00  47.02 2746.93
   13:12:07.861.18-Jul-2021 4561.00 6152.62 75.71 2.00  47.22 2746.93
   13:12:08.061.18-Jul-2021 4561.00 6153.10 75.71 2.00  47.42 2746.93
   13:12:08.261.18-Jul-2021 4561.00 6152.65 75.71 2.00  47.62 2746.93
   13:12:08.462.18-Jul-2021 4561.00 6153.22 75.71 2.00  47.82 2746.93
   13:12:08.662.18-Jul-2021 4561.00 6153.76 75.71 2.00  48.02 2746.93
   13:12:08.862.18-Jul-2021 4561.00 6153.76 75.71 2.00  48.22 2746.93
   13:12:09.062.18-Jul-2021 4561.00 6154.05 75.71 2.00  48.42 2746.93
   13:12:09.262.18-Jul-2021 4561.00 6154.11 75.71 2.00  48.62 2746.93
   13:12:09.462.18-Jul-2021 4561.00 6155.00 75.71 2.00  48.82 2746.93
   13:12:09.662.18-Jul-2021 4561.00 6155.63 75.71 2.00  49.02 2746.93
   13:12:09.862.18-Jul-2021 4561.00 6155.63 75.71 2.00  49.22 2746.93
   13:12:10.062.18-Jul-2021 4561.00 6155.56 75.71 2.00  49.42 2746.93
   13:12:10.262.18-Jul-2021 4561.00 6156.31 75.71 2.00  49.62 2746.93
   13:12:10.462.18-Jul-2021 4561.00 6156.05 75.71 2.00  49.82 2746.93
   13:12:10.662.18-Jul-2021 4561.00 6156.33 75.71 2.00  50.02 2746.93
   13:12:10.862.18-Jul-2021 4561.00 6156.33 75.71 2.00  50.22 2746.93
   13:12:11.062.18-Jul-2021 4561.00 6156.82 75.71 2.00  50.42 2746.93
   13:12:11.263.18-Jul-2021 4561.00 6156.65 75.71 2.00  50.62 2746.93
   13:12:11.463.18-Jul-2021 4561.00 6157.46 75.71 2.00  50.82 2746.93
   13:12:11.663.18-Jul-2021 4561.00 6156.73 75.71 2.00  51.02 2746.93
   13:12:11.863.18-Jul-2021 4561.00 6156.73 75.71 2.00  51.22 2746.93
   13:12:12.063.18-Jul-2021 4561.00 6157.23 75.71 2.00  51.42 2746.93
   13:12:12.263.18-Jul-2021 4561.00 6157.12 75.71 2.00  51.62 2746.93
   13:12:12.463.18-Jul-2021 4561.00 6157.26 75.71 2.00  51.82 2746.93
   13:12:12.663.18-Jul-2021 4561.00 6157.48 75.71 2.00  52.02 2746.93
   13:12:12.863.18-Jul-2021 4561.00 6157.48 75.71 2.00  52.22 2746.93
   13:12:13.063.18-Jul-2021 4561.00 6158.46 75.71 2.00  52.42 2746.93
   13:12:13.263.18-Jul-2021 4561.00 6157.73 75.71 2.00  52.62 2746.93
   13:12:13.463.18-Jul-2021 4561.00 6157.04 75.71 2.00  52.82 2746.93
   13:12:13.663.18-Jul-2021 4561.00 6158.72 75.71 2.00  53.02 2746.93
   13:12:13.864.18-Jul-2021 4561.00 6158.72 75.71 2.00  53.22 2746.93
   13:12:14.064.18-Jul-2021 4561.00 6159.41 75.71 2.00  53.42 2746.93
   13:12:14.264.18-Jul-2021 4561.00 6158.17 75.71 2.00  53.62 2746.93
   13:12:14.464.18-Jul-2021 4561.00 6157.47 75.71 2.00  53.82 2746.93
   13:12:14.664.18-Jul-2021 4561.00 6159.86 75.71 2.00  54.02 2746.93
   13:12:14.864.18-Jul-2021 4561.00 6159.86 75.71 2.00  54.22 2746.93
   13:12:15.064.18-Jul-2021 4561.00 6157.45 75.71 2.00  54.42 2746.93
   13:12:15.264.18-Jul-2021 4561.00 6160.09 75.71 2.00  54.62 2746.93
   13:12:15.464.18-Jul-2021 4561.00 6158.40 75.71 2.00  54.82 2746.93
   13:12:15.664.18-Jul-2021 4561.00 6157.68 75.71 2.00  55.02 2746.93
   13:12:15.864.18-Jul-2021 4561.00 6157.68 75.71 2.00  55.22 2746.93
   13:12:16.064.18-Jul-2021 4561.00 6158.51 75.71 2.00  55.42 2746.93
   13:12:16.264.18-Jul-2021 4561.00 6159.43 75.71 2.00  55.62 2746.93
   13:12:16.464.18-Jul-2021 4561.00 6159.18 75.71 2.00  55.82 2746.93
   13:12:16.665.18-Jul-2021 4561.00 6159.52 75.71 2.00  56.02 2746.93
   13:12:16.865.18-Jul-2021 4561.00 6159.52 75.71 2.00  56.22 2746.93
   13:12:17.065.18-Jul-2021 4561.00 6159.16 75.71 2.00  56.42 2746.93
   13:12:17.265.18-Jul-2021 4561.00 6159.56 75.71 2.00  56.62 2746.93
   13:12:17.465.18-Jul-2021 4561.00 6159.52 75.71 2.00  56.82 2746.93
   13:12:17.665.18-Jul-2021 4561.00 6159.27 75.71 2.00  57.02 2746.93
   13:12:17.865.18-Jul-2021 4561.00 6159.27 75.71 2.00  57.22 2746.93
   13:12:18.065.18-Jul-2021 4561.00 6159.80 75.71 2.00  57.42 2746.93
   13:12:18.265.18-Jul-2021 4561.00 6159.86 75.71 2.00  57.62 2746.93
   13:12:18.465.18-Jul-2021 4561.00 6158.61 75.71 2.00  57.82 2746.93
   13:12:18.665.18-Jul-2021 4561.00 6161.14 75.71 2.00  58.02 2746.93
   13:12:18.865.18-Jul-2021 4561.00 6161.14 75.71 2.00  58.22 2746.93
   13:12:19.065.18-Jul-2021 4561.00 6161.12 75.71 2.00  58.42 2746.93
   13:12:19.265.18-Jul-2021 4561.00 6161.04 75.71 2.00  58.62 2746.93
   13:12:19.466.18-Jul-2021 4561.00 6160.38 75.71 2.00  58.82 2746.93
   13:12:19.666.18-Jul-2021 4561.00 6160.74 75.71 2.00  59.02 2746.93
   13:12:19.866.18-Jul-2021 4561.00 6160.74 75.71 2.00  59.22 2746.93
   13:12:20.066.18-Jul-2021 4561.00 6160.59 75.71 2.00  59.42 2746.93
   13:12:20.266.18-Jul-2021 4561.00 6160.79 75.71 2.00  59.62 2746.93
   13:12:20.466.18-Jul-2021 4561.00 6161.43 75.71 2.00  59.82 2746.93
   13:12:20.666.18-Jul-2021 4561.00 6161.02 75.71 2.00  60.02 2746.93
   13:12:20.866.18-Jul-2021 4561.00 6161.02 75.71 2.00  60.22 2746.93
   13:12:21.066.18-Jul-2021 4561.00 6160.09 75.71 2.00  60.42 2746.93
   13:12:21.266.18-Jul-2021 4561.00 6162.63 75.71 2.00  60.62 2746.93
   13:12:21.466.18-Jul-2021 4561.00 6161.70 75.71 2.00  60.82 2746.93
   13:12:21.666.18-Jul-2021 4561.00 6161.74 75.71 2.00  61.02 2746.93
   13:12:21.866.18-Jul-2021 4561.00 6161.74 75.71 2.00  61.22 2746.93
   13:12:22.067.18-Jul-2021 4561.00 6161.80 75.71 2.00  61.42 2746.93
   13:12:22.267.18-Jul-2021 4561.00 6161.47 75.71 2.00  61.62 2746.93
   13:12:22.467.18-Jul-2021 4561.00 6163.76 75.71 2.00  61.82 2746.93
   13:12:22.667.18-Jul-2021 4561.00 6161.85 75.71 2.00  62.02 2746.93
   13:12:22.867.18-Jul-2021 4561.00 6161.85 75.71 2.00  62.22 2746.93
   13:12:23.067.18-Jul-2021 4561.00 6162.83 75.71 2.00  62.42 2746.93
   13:12:23.267.18-Jul-2021 4561.00 6161.11 75.71 2.00  62.62 2746.93
   13:12:23.467.18-Jul-2021 4561.00 6160.71 75.71 2.00  62.82 2746.93
   13:12:23.667.18-Jul-2021 4561.00 6163.39 75.71 2.00  63.02 2746.93
   13:12:23.867.18-Jul-2021 4561.00 6163.39 75.71 2.00  63.22 2746.93
   13:12:24.067.18-Jul-2021 4561.00 6162.15 75.71 2.00  63.42 2746.93
   13:12:24.267.18-Jul-2021 4561.00 6162.87 75.71 2.00  63.62 2746.93
   13:12:24.467.18-Jul-2021 4561.00 6161.79 75.71 2.00  63.82 2746.93
   13:12:24.667.18-Jul-2021 4561.00 6162.08 75.71 2.00  64.02 2746.93
   13:12:24.868.18-Jul-2021 4561.00 6162.08 75.71 2.00  64.22 2746.93
   13:12:25.068.18-Jul-2021 4561.00 6162.34 75.71 2.00  64.42 2746.93
   13:12:25.268.18-Jul-2021 4561.00 6162.51 75.71 2.00  64.62 2746.93
   13:12:25.468.18-Jul-2021 4561.00 6163.24 75.71 2.00  64.82 2746.93
   13:12:25.668.18-Jul-2021 4561.00 6162.75 75.71 2.00  65.02 2746.93
   13:12:25.868.18-Jul-2021 4561.00 6162.75 75.71 2.00  65.22 2746.93
   13:12:26.068.18-Jul-2021 4561.00 6163.18 75.71 2.00  65.42 2746.93
   13:12:26.268.18-Jul-2021 4561.00 6162.32 75.71 2.00  65.62 2746.93
   13:12:26.468.18-Jul-2021 4561.00 6163.16 75.71 2.00  65.82 2746.93
   13:12:26.668.18-Jul-2021 4561.00 6163.24 75.71 2.00  66.02 2746.93
   13:12:26.868.18-Jul-2021 4561.00 6163.24 75.71 2.00  66.22 2746.93
   13:12:27.068.18-Jul-2021 4561.00 6163.67 75.71 2.00  66.42 2746.93
   13:12:27.268.18-Jul-2021 4561.00 6163.05 75.71 2.00  66.62 2746.93
   13:12:27.469.18-Jul-2021 4561.00 6163.30 75.71 2.00  66.82 2746.93
   13:12:27.669.18-Jul-2021 4561.00 6163.16 75.71 2.00  67.02 2746.93
   13:12:27.869.18-Jul-2021 4561.00 6163.16 75.71 2.00  67.22 2746.93
   13:12:28.069.18-Jul-2021 4561.00 6163.58 75.71 2.00  67.42 2746.93
   13:12:28.269.18-Jul-2021 4561.00 6163.65 75.71 2.00  67.62 2746.93
   13:12:28.469.18-Jul-2021 4561.00 6163.29 75.71 2.00  67.82 2746.93
   13:12:28.669.18-Jul-2021 4561.00 6163.85 75.71 2.00  68.03 2746.93
   13:12:28.869.18-Jul-2021 4561.00 6163.85 75.71 2.00  68.23 2746.93
   13:12:29.069.18-Jul-2021 4561.00 6163.96 75.71 2.00  68.43 2746.93
   13:12:29.269.18-Jul-2021 4561.00 6163.86 75.71 2.00  68.63 2746.93
   13:12:29.469.18-Jul-2021 4561.00 6163.30 75.71 2.00  68.83 2746.93
