~Version Information
 VERS.                  2.0:   CWLS log ASCII Standard -VERSION 2.0
 WRAP.                   NO:   One line per depth step
~Well Information Block
#MNEM.UNIT     VALUE/NAME     DESCRIPTION
#---------     -----------    ---------------------------
 STRT.S             12:06:52 19-Jul-21: START TIME 12:06:52 19-Jul-21
 STOP.S             12:13:44 19-Jul-21: STOP TIME  12:13:44 19-Jul-21
 STEP.S                   0.00: STEP TIME
 NULL.                 -999.25: NULL VALUE
 MDS .        Operator Entered:  MAG DATA SOURCE
 PDAT.          Mean Sea Level:  PERMANENT DATUM
 UNIT.                     N/A:  LOGGING EQUIPMENT ID
 DCON.         Sperry Drilling:  DIRECTNL CONTR
 DOE .                     N/A:  DOE NUMBER
 RIG .              West Azeri:  RIG NAME
 JOBN.        AZ-XX-0906997913:  JOB TICKET NUMB
 WELL.                     C41:  WELL NAME
 MWDS.                    Baku:  MWD SHOP
 SRVC.          Turan Drilling:  CONTRACTOR
 FLD .                     ACG:  FIELD NAME
 CTRY.              Azerbaijan:  COUNTRY NAME
 PROV.                    Baku:  PROVINCE
 STAT.                    Baku:  STATE NAME
 REGN.                   EESSA:  REGION
 BASE.              Azerbaijan:  LOGGING EQUIPMENT BASE LOCATION
 UWI .                     N/A:  UNIQUE WELL IDENTIFIER
 API .                     N/A:  API NUMBER
 COMP.     BP Exploration (Caspian Sea) Ltd.:  COMPANY
 WTYP.                Deviated:  WELL TYPE
 SON .        AZ-XX-0906997913:  JOB NUMBER
 FTOP.          Formation Tops:  FORM TOPS DESC
 ILTD.               Lithology:  INTERP LTH DESC
 SVYD.                  Survey:  SURVEY DESC
 DMOD.             Drill Model:  DRILL MOD DESC
 HPTY.       Minimum Curvature:  HOLE POS TYPE
 NREF.                    Grid:  NORTH REFERENCE
 SPUD.               16-May-21:  SPUD DATE
 DATE.      21.11.28 17-May-21:  END TIME
 STIM.      21.11.28 17-May-21:  START TIME
 DMF .             Drill Floor:  DRILL MEAS FROM
 DFST.                        :  DIST FSL TEXT
 DFWT.                        :  DIST FWL TEXT
 CNTY.                        :  COUNTY
 LOC .                        :  LOCATION
 LMF .             Drill Floor:  LOG MEASURED FROM
 AGAP.m                  43.42:  AIR GAP
 VSNS.m                  -2.16:  VERT SEC N/S
 VSEW.m                  -6.24:  VERT SEC E/W
 APD .m                  43.42:  DEPTH ABOVE PD
 WDMS.m                 118.27:  WD ELEV
 EGL .m                   0.00:  GROUND ELEVATION
 EPD .m                   0.00:  ELEVATION
 AZTC.deg                 6.29:  AZM TOTAL CORR
 GRDC.deg                 0.18:  GRID CORRECTION
 MDEC.deg                 6.47:  MAGNETIC DECL
 MDIP.deg                59.54:  MAGNETIC DIP
 MFLD.nT              50337.00:  MAGNETIC FIELD
 GVFD.g                   1.00:  GRAVITY FIELD
 VSDR.deg               226.99:  VERT SEC DIRECT
 TDD .m                   0.00:  TOTAL DEPTH (DRILLER)
 SDEP.m                 448.00:  START DEPTH
 DFSL.m                   0.00:  DISTANCE FSL
 DFWL.m                   0.00:  DISTANCE FWL
 UTMY.m             4435799.96:  UTM Y
 UTMX.m              526265.35:  UTM X
 WHEW.m                  -6.24:  WELL HEAD E/W
 WHNS.m                  -2.16:  WELL HEAD N/S
 LONG.deg                51.31:  LONGITUDE
 LATI.deg                40.06:  LATITUDE
 TVDS.m                  43.42:  TVDSS CORRECTN
 EKB .m                  43.42:  KB ELEVATION
 EDF .m                  43.42:  DF ELEVATION
 TDL .m                 288.00:  TOTAL DEPTH (LOGGER)
 MAGU.                 1851863:  MAGUTM CHECKSUM
 VSC .                       0:  VS TO CLOSURE
~Parameter Information Block
#MNEM.UNIT       Value        Description
#---------     -----------    ---------------------------
 AV  .mps                 0.40:  Ann Velocity 
 AVMX.mps                 0.63:  Max Ann Veloc 
 AZIF.deg               158.76:  Azm, Final 
 BHAT.        Rotary Steerable:  BHA Type 
 BROT.°/30m               0.68:  Build Rotating 
 BS  .in                  8.50:  Bit Size 
 BSZ .in                  8.50:  Bit Size 
 BTPL.psig              712.00:  Bit Press Loss 
 CABU.                      No:  Customer Abuse 
 COMM.                     {J:  Run Comments 1 
 TCS .hr                 90.66:  Time Ciculation Ended 
 CV  .mps                 2.02:  Crit Velocity 
 CVMX.mps                 2.14:  Max Crit Veloc 
 DD1 .            Aziz Aliyevu:  Direct Drillr 1 
 DD2 .             Samir Abbas:  Direct Drillr 2 
 DD3 .           Teymur Aliyev:  Direct Drillr 3 
 DDSV.                 iCruise:  DD Service 
 DEFF.%                  85.10:  % Det Eff 
 DLRX.°/30m               1.05:  Dogleg Rot Max 
 DLSO.°/30m               1.01:  Dogleg Oriented 
 DLSX.°/30m               1.05:  Dogleg Str Max 
 DRET.      07.45.00 18-Jul-21:  Drill End Time 
 DRST.      15.00.00 16-Jul-21:  Drill Start Tim 
 DTIM.hr                 23.46:  Time Drilling 
 EDEP.m                4603.00:  End Depth 
 ENG1.       Seymur Iskandarov:  Engineer 1 
 ENG2.         Yevgeniy Ulikov:  Engineer 2 
 ENG3.         Bahruz Mehdiyev:  Engineer 3 
 ENG4.         Elchin Mammadov:  Engineer 4 
 ETIM.      14.00.00 23-Jul-21:  End Time 
 FLOI.gpm               500.00:  Flow In 
 FLON.gpm               450.00:  Flow In Min 
 FLOS.cptm                0.00:  Fluid Loss 
 FLOX.gpm               560.00:  Flow In Max 
 DFT .        Mineral Oil Base:  Mud Type 
 FTRO.       Formation Presure:  FTWD Run Obj 
 HFLO.                      No:  High Flow 
 HPRE.                      No:  High Pressure 
 HTEM.                      No:  High Temp 
 HYDO.m                   1.80:  Hydro Offset 
 IFIN.deg                40.22:  Inc, Final 
 IMAX.deg                40.54:  Inc Max 
 IMIN.deg                39.44:  Inc Min 
 IMND.m                4361.17:  Inc Min Depth 
 IMXD.m                4417.92:  Inc Max Depth 
 JARR.                      No:  Jarring 
 LETM.      07.45.00 18-Jul-21:  Log End Time 
 LOST.hr                    16:  Lost Rig Time 
 LSTM.      15.00.00 16-Jul-21:  Log Start Time 
 MDCL.ppm             36500.00:  Mud Chlorides 
 MDES.     Inversion Oil/Synthetic:  Mud Desc 
 DFD .sg                  1.42:  Mud Density 
 MDMN.sg                  1.42:  Dens Mud Min 
 MDMX.sg                  1.43:  Dens Mud Max 
 MOIL.                      56:  Run Mud Oil % 
 MOWR.                   71:29:  Run Mud OWR 
 MSND.                     0.5:  Run Mud Sand % 
 MSOL.                      21:  Run Mud Solids% 
 DFV .spqt               78.00:  Mud Viscosity 
 MWOD.in                  6.75:  MWD Tool OD 
 MWSI.                     Yes:  Serv Intrp, MWD 
 OTIM.hr                200.73:  Time Operating 
 PCON.           Look Like New:  Pad Condition 
 PMAX.psia            11069.93:  Press Op, Max 
 PV  .cP                 32.00:  Mud PV 
 RUN .                     700:  Run Number 
 ROPA.m/hr               10.00:  ROP Avg 
 ROPN.m/hr                9.00:  ROP Min 
 ROPX.m/hr               16.00:  ROP Max 
 RPMA.rpm               116.00:  RPM Surface Avg 
 RPMN.rpm                80.00:  RPM Surface Min 
 RPMX.rpm               120.00:  RPM Surface Max 
 RRUN.                    L605:  Rig Run Number 
 RTIM.hr                 45.00:  Time Reaming 
 SAZI.deg               159.86:  Azm, Start 
 SDEP.m                4315.00:  Start Depth 
 SIDD.                      No:  Serv Intrp, DD 
 SINC.deg                39.86:  Inc, Start 
 SPPA.psig             3300.00:  SPP Avg 
 SPPN.psig             3040.00:  SPP Min 
 SPPX.psig             3645.00:  SPP Max 
 STIM.      01.00.00 15-Jul-21:  Start Time 
 SVCS.                 DD, MWD:  Services 
 SVER.                    9.20:  Sperry Version 
 TDAT.m                 288.00:  Tot Depth Attmp 
 TDDF.                      No:  Trip for DD 
 TDLG.m                 288.00:  Tot Depth Loggd 
 TFF .                      No:  Trip for Fail 
 TQAA.f-kp               19.00:  Torque Abs Avg 
 TQAN.f-kp               18.00:  Torque Abs Min 
 TQAX.f-kp               21.00:  Torque Abs Max 
 TRRT.°/30m               0.45:  Turn Rotating 
 MRT .                    HCIM:  Maximum Recorded Temperature 
 TTMX.degC               88.24:  Max Tool Temp 
 VS01.                90649157:  Virtual Str1 SN 
 VS02.                90652483:  Virtual Str2 SN 
 VS03.                11671987:  Virtual Str3 SN 
 VS04.                90643411:  Virtual Str4 SN 
 VS05.                90652478:  Virtual Str5 SN 
 VS06.                    6111:  Virtual Str6 SN 
 WBMN.klb                 9.50:  WOB Min 
 WITN.        Grigoriy Sarayev:  Customer Rep 
 WITN.          Rufat Huseynov:  Customer Rep 2 
 WOBA.klb                11.00:  WOB Avg 
 WOBX.klb                15.00:  WOB Max 
 YP  .lhf2               28.00:  Yield Point 
~Curve Information Block
#MNEM.UNIT                 API CODE     Curve Description
#---------               -----------    ---------------------------
 TIME.HHMMSS            00 000 000 000:  GT Time & Date
 GTDEPTH.m              00 000 000 000:  GT Depth
 GTPQH.psia             00 000 000 000:  GT HR Quartz Pressure
 GTTQ.degC              00 000 000 000:  GT Quartz Temperature
 GTTN.NONE              00 000 000 000:  GT Test Number
 GTET.sec               00 000 000 000:  GT Elapsed Test Time
 GTTVD.m                00 000 000 000:  GT True Vertical Depth
#Other Information
#
#WARRANTY: Halliburton will use its best efforts to furnish customers with 
#accurate information and interpretations that are part of, and incident to, the services 
#provided.  However, Halliburton cannot and does not warrant the accuracy 
#or correctness of such information and interpretations.  Under no circumstances should any 
#such information or interpretation be relied upon as the sole basis for any drilling, 
#completion, production, or financial decision or any procedure involving any risk to the 
#safety of any drilling venture, drilling rig or its crew or any other third party.  The 
#Customer has full responsibility for all drilling, completion and production operation.  
#Halliburton makes no representations or warranties, either expressed or 
#implied, including, but not limited to, the implied warranties of merchantability or fitness 
#for a particular purpose, with respect to the services rendered.  In no event will 
#Halliburton be liable for failure to obtain any particular results or for 
#any damages, including, but not limited to, indirect, special or consequential damages, 
#resulting from the use of any information or interpretation provided by Halliburton.
#
~A           TIME           GTDEPTH  GTPQH  GTTQ  GTTN   GTET   GTTVD  
# ...
   12:09:07.683.19-Jul-2021 4522.00 3611.80 70.79 26.00 135.65 2717.06
   12:09:07.883.19-Jul-2021 4522.00 3611.93 70.79 26.00 135.85 2717.06
   12:09:08.083.19-Jul-2021 4522.00 3611.80 70.79 26.00 136.05 2717.06
   12:09:08.283.19-Jul-2021 4522.00 3611.80 70.79 26.00 136.25 2717.06
   12:09:08.483.19-Jul-2021 4522.00 3612.00 70.79 26.00 136.45 2717.06
   12:09:08.683.19-Jul-2021 4522.00 3611.65 70.79 26.00 136.65 2717.06
   12:09:08.883.19-Jul-2021 4522.00 3612.00 70.79 26.00 136.85 2717.06
   12:09:09.083.19-Jul-2021 4522.00 3611.97 70.79 26.00 137.05 2717.06
   12:09:09.283.19-Jul-2021 4522.00 3611.97 70.79 26.00 137.25 2717.06
   12:09:09.483.19-Jul-2021 4522.00 3612.07 70.79 26.00 137.45 2717.06
   12:09:09.683.19-Jul-2021 4522.00 3611.96 70.79 26.00 137.65 2717.06
   12:09:09.884.19-Jul-2021 4522.00 3612.00 70.79 26.00 137.85 2717.06
   12:09:10.084.19-Jul-2021 4522.00 3612.00 70.79 26.00 138.05 2717.06
   12:09:10.284.19-Jul-2021 4522.00 3612.00 70.79 26.00 138.25 2717.06
   12:09:10.484.19-Jul-2021 4522.00 3612.01 70.79 26.00 138.45 2717.06
   12:09:10.684.19-Jul-2021 4522.00 3612.00 70.79 26.00 138.65 2717.06
   12:09:10.884.19-Jul-2021 4522.00 3612.01 70.79 26.00 138.85 2717.06
   12:09:11.084.19-Jul-2021 4522.00 3611.99 70.79 26.00 139.05 2717.06
   12:09:11.284.19-Jul-2021 4522.00 3611.99 70.79 26.00 139.25 2717.06
   12:09:11.484.19-Jul-2021 4522.00 3611.91 70.79 26.00 139.45 2717.06
   12:09:11.684.19-Jul-2021 4522.00 3611.92 70.79 26.00 139.65 2717.06
   12:09:11.884.19-Jul-2021 4522.00 3611.93 70.79 26.00 139.85 2717.06
   12:09:12.084.19-Jul-2021 4522.00 3611.96 70.79 26.00 140.05 2717.06
   12:09:12.284.19-Jul-2021 4522.00 3611.96 70.79 26.00 140.25 2717.06
   12:09:12.484.19-Jul-2021 4522.00 3611.92 70.79 26.00 140.45 2717.06
   12:09:12.685.19-Jul-2021 4522.00 3612.03 70.79 26.00 140.65 2717.06
   12:09:12.885.19-Jul-2021 4522.00 3611.94 70.79 26.00 140.85 2717.06
   12:09:13.085.19-Jul-2021 4522.00 3611.98 70.79 26.00 141.05 2717.06
   12:09:13.285.19-Jul-2021 4522.00 3611.98 70.79 26.00 141.25 2717.06
   12:09:13.485.19-Jul-2021 4522.00 3611.96 70.79 26.00 141.45 2717.06
   12:09:13.685.19-Jul-2021 4522.00 3612.03 70.79 26.00 141.65 2717.06
   12:09:13.885.19-Jul-2021 4522.00 3611.86 70.79 26.00 141.85 2717.06
   12:09:14.085.19-Jul-2021 4522.00 3612.31 70.79 26.00 142.05 2717.06
   12:09:14.285.19-Jul-2021 4522.00 3612.31 70.79 26.00 142.25 2717.06
   12:09:14.485.19-Jul-2021 4522.00 3528.15 70.79 26.00 142.45 2717.06
   12:09:14.685.19-Jul-2021 4522.00 3517.99 70.79 26.00 142.65 2717.06
   12:09:14.885.19-Jul-2021 4522.00 3519.21 70.79 26.00 142.85 2717.06
   12:09:15.085.19-Jul-2021 4522.00 3521.24 70.79 26.00 143.05 2717.06
   12:09:15.286.19-Jul-2021 4522.00 3521.24 70.79 26.00 143.25 2717.06
   12:09:15.486.19-Jul-2021 4522.00 3519.84 70.79 26.00 143.45 2717.06
   12:09:15.686.19-Jul-2021 4522.00 3520.38 70.79 26.00 143.65 2717.06
   12:09:15.886.19-Jul-2021 4522.00 3521.34 70.79 26.00 143.85 2717.06
   12:09:16.086.19-Jul-2021 4522.00 3518.61 70.79 26.00 144.05 2717.06
   12:09:16.286.19-Jul-2021 4522.00 3518.61 70.79 26.00 144.25 2717.06
   12:09:16.486.19-Jul-2021 4522.00 3520.40 70.79 26.00 144.45 2717.06
   12:09:16.686.19-Jul-2021 4522.00 3518.95 70.79 26.00 144.65 2717.06
   12:09:16.886.19-Jul-2021 4522.00 3518.74 70.79 26.00 144.85 2717.06
   12:09:17.086.19-Jul-2021 4522.00 3520.46 70.79 26.00 145.05 2717.06
   12:09:17.286.19-Jul-2021 4522.00 3520.46 70.79 26.00 145.25 2717.06
   12:09:17.486.19-Jul-2021 4522.00 3520.82 70.79 26.00 145.45 2717.06
   12:09:17.686.19-Jul-2021 4522.00 3519.61 70.79 26.00 145.65 2717.06
   12:09:17.886.19-Jul-2021 4522.00 3519.83 70.79 26.00 145.85 2717.06
   12:09:18.087.19-Jul-2021 4522.00 3520.35 70.79 26.00 146.05 2717.06
   12:09:18.287.19-Jul-2021 4522.00 3520.35 70.79 26.00 146.25 2717.06
   12:09:18.487.19-Jul-2021 4522.00 3518.67 70.79 26.00 146.45 2717.06
   12:09:18.687.19-Jul-2021 4522.00 3519.29 70.79 26.00 146.65 2717.06
   12:09:18.887.19-Jul-2021 4522.00 3520.42 70.79 26.00 146.85 2717.06
   12:09:19.087.19-Jul-2021 4522.00 3520.19 70.79 26.00 147.05 2717.06
   12:09:19.287.19-Jul-2021 4522.00 3520.19 70.79 26.00 147.25 2717.06
   12:09:19.487.19-Jul-2021 4522.00 3519.15 70.79 26.00 147.45 2717.06
   12:09:19.687.19-Jul-2021 4522.00 3522.18 70.79 26.00 147.65 2717.06
   12:09:19.887.19-Jul-2021 4522.00 3517.42 70.79 26.00 147.85 2717.06
   12:09:20.087.19-Jul-2021 4522.00 3520.63 70.79 26.00 148.05 2717.06
   12:09:20.287.19-Jul-2021 4522.00 3520.63 70.79 26.00 148.25 2717.06
   12:09:20.487.19-Jul-2021 4522.00 3521.22 70.79 26.00 148.45 2717.06
   12:09:20.688.19-Jul-2021 4522.00 3520.32 70.79 26.00 148.65 2717.06
   12:09:20.888.19-Jul-2021 4522.00 3519.56 70.79 26.00 148.85 2717.06
   12:09:21.088.19-Jul-2021 4522.00 3520.24 70.79 26.00 149.05 2717.06
   12:09:21.288.19-Jul-2021 4522.00 3520.24 70.79 26.00 149.25 2717.06
   12:09:21.488.19-Jul-2021 4522.00 3520.39 70.79 26.00 149.46 2717.06
   12:09:21.688.19-Jul-2021 4522.00 3520.57 70.79 26.00 149.66 2717.06
   12:09:21.888.19-Jul-2021 4522.00 3520.34 70.79 26.00 149.86 2717.06
   12:09:22.088.19-Jul-2021 4522.00 3520.89 70.79 26.00 150.06 2717.06
   12:09:22.288.19-Jul-2021 4522.00 3520.89 70.79 26.00 150.26 2717.06
   12:09:22.488.19-Jul-2021 4522.00 3517.69 70.79 26.00 150.46 2717.06
   12:09:22.688.19-Jul-2021 4522.00 3522.37 70.79 26.00 150.66 2717.06
   12:09:22.888.19-Jul-2021 4522.00 3518.37 70.79 26.00 150.86 2717.06
   12:09:23.088.19-Jul-2021 4522.00 3520.84 70.79 26.00 151.06 2717.06
   12:09:23.288.19-Jul-2021 4522.00 3520.84 70.79 26.00 151.26 2717.06
   12:09:23.489.19-Jul-2021 4522.00 3519.82 70.79 26.00 151.46 2717.06
   12:09:23.689.19-Jul-2021 4522.00 3521.66 70.79 26.00 151.66 2717.06
   12:09:23.889.19-Jul-2021 4522.00 3522.36 70.79 26.00 151.86 2717.06
   12:09:24.089.19-Jul-2021 4522.00 3524.20 70.79 26.00 152.06 2717.06
   12:09:24.289.19-Jul-2021 4522.00 3524.20 70.79 26.00 152.26 2717.06
   12:09:24.489.19-Jul-2021 4522.00 3603.36 70.79 26.00 152.46 2717.06
   12:09:24.689.19-Jul-2021 4522.00 3610.64 70.79 26.00 152.66 2717.06
   12:09:24.889.19-Jul-2021 4522.00 3611.32 70.79 26.00 152.86 2717.06
   12:09:25.089.19-Jul-2021 4522.00 3610.99 70.79 26.00 153.06 2717.06
   12:09:25.289.19-Jul-2021 4522.00 3610.99 70.79 26.00 153.26 2717.06
   12:09:25.489.19-Jul-2021 4522.00 3611.18 70.79 26.00 153.46 2717.06
   12:09:25.689.19-Jul-2021 4522.00 3611.23 70.79 26.00 153.66 2717.06
   12:09:25.889.19-Jul-2021 4522.00 3611.34 70.79 26.00 153.86 2717.06
   12:09:26.090.19-Jul-2021 4522.00 3611.34 70.79 26.00 154.06 2717.06
   12:09:26.290.19-Jul-2021 4522.00 3611.34 70.79 26.00 154.26 2717.06
   12:09:26.490.19-Jul-2021 4522.00 3611.43 70.79 26.00 154.46 2717.06
   12:09:26.690.19-Jul-2021 4522.00 3611.44 70.79 26.00 154.66 2717.06
   12:09:26.890.19-Jul-2021 4522.00 3611.47 70.79 26.00 154.86 2717.06
   12:09:27.090.19-Jul-2021 4522.00 3611.51 70.79 26.00 155.06 2717.06
   12:09:27.290.19-Jul-2021 4522.00 3611.51 70.79 26.00 155.26 2717.06
   12:09:27.490.19-Jul-2021 4522.00 3611.55 70.79 26.00 155.46 2717.06
   12:09:27.690.19-Jul-2021 4522.00 3611.31 70.79 26.00 155.66 2717.06
   12:09:27.890.19-Jul-2021 4522.00 3611.75 70.79 26.00 155.86 2717.06
   12:09:28.090.19-Jul-2021 4522.00 3611.52 70.79 26.00 156.06 2717.06
   12:09:28.290.19-Jul-2021 4522.00 3611.52 70.79 26.00 156.26 2717.06
   12:09:28.490.19-Jul-2021 4522.00 3611.58 70.79 26.00 156.46 2717.06
   12:09:28.690.19-Jul-2021 4522.00 3611.65 70.79 26.00 156.66 2717.06
   12:09:28.891.19-Jul-2021 4522.00 3611.69 70.79 26.00 156.86 2717.06
   12:09:29.091.19-Jul-2021 4522.00 3611.67 70.79 26.00 157.06 2717.06
   12:09:29.291.19-Jul-2021 4522.00 3611.67 70.79 26.00 157.26 2717.06
   12:09:29.491.19-Jul-2021 4522.00 3611.69 70.79 26.00 157.46 2717.06
   12:09:29.691.19-Jul-2021 4522.00 3611.71 70.79 26.00 157.66 2717.06
   12:09:29.891.19-Jul-2021 4522.00 3611.68 70.79 26.00 157.86 2717.06
   12:09:30.091.19-Jul-2021 4522.00 3611.73 70.79 26.00 158.06 2717.06
