~Version Information
 VERS.                  2.0:   CWLS log ASCII Standard -VERSION 2.0
 WRAP.                   NO:   One line per depth step
~Well Information Block
#MNEM.UNIT     VALUE/NAME     DESCRIPTION
#---------     -----------    ---------------------------
 STRT.S             13:27:26 19-Jul-21: START TIME 13:27:26 19-Jul-21
 STOP.S             13:34:19 19-Jul-21: STOP TIME  13:34:19 19-Jul-21
 STEP.S                   0.00: STEP TIME
 NULL.                 -999.25: NULL VALUE
 MDS .        Operator Entered:  MAG DATA SOURCE
 PDAT.          Mean Sea Level:  PERMANENT DATUM
 UNIT.                     N/A:  LOGGING EQUIPMENT ID
 DCON.         Sperry Drilling:  DIRECTNL CONTR
 DOE .                     N/A:  DOE NUMBER
 RIG .              West Azeri:  RIG NAME
 JOBN.        AZ-XX-0906997913:  JOB TICKET NUMB
 WELL.                     C41:  WELL NAME
 MWDS.                    Baku:  MWD SHOP
 SRVC.          Turan Drilling:  CONTRACTOR
 FLD .                     ACG:  FIELD NAME
 CTRY.              Azerbaijan:  COUNTRY NAME
 PROV.                    Baku:  PROVINCE
 STAT.                    Baku:  STATE NAME
 REGN.                   EESSA:  REGION
 BASE.              Azerbaijan:  LOGGING EQUIPMENT BASE LOCATION
 UWI .                     N/A:  UNIQUE WELL IDENTIFIER
 API .                     N/A:  API NUMBER
 COMP.     BP Exploration (Caspian Sea) Ltd.:  COMPANY
 WTYP.                Deviated:  WELL TYPE
 SON .        AZ-XX-0906997913:  JOB NUMBER
 FTOP.          Formation Tops:  FORM TOPS DESC
 ILTD.               Lithology:  INTERP LTH DESC
 SVYD.                  Survey:  SURVEY DESC
 DMOD.             Drill Model:  DRILL MOD DESC
 HPTY.       Minimum Curvature:  HOLE POS TYPE
 NREF.                    Grid:  NORTH REFERENCE
 SPUD.               16-May-21:  SPUD DATE
 DATE.      21.11.28 17-May-21:  END TIME
 STIM.      21.11.28 17-May-21:  START TIME
 DMF .             Drill Floor:  DRILL MEAS FROM
 DFST.                        :  DIST FSL TEXT
 DFWT.                        :  DIST FWL TEXT
 CNTY.                        :  COUNTY
 LOC .                        :  LOCATION
 LMF .             Drill Floor:  LOG MEASURED FROM
 AGAP.m                  43.42:  AIR GAP
 VSNS.m                  -2.16:  VERT SEC N/S
 VSEW.m                  -6.24:  VERT SEC E/W
 APD .m                  43.42:  DEPTH ABOVE PD
 WDMS.m                 118.27:  WD ELEV
 EGL .m                   0.00:  GROUND ELEVATION
 EPD .m                   0.00:  ELEVATION
 AZTC.deg                 6.29:  AZM TOTAL CORR
 GRDC.deg                 0.18:  GRID CORRECTION
 MDEC.deg                 6.47:  MAGNETIC DECL
 MDIP.deg                59.54:  MAGNETIC DIP
 MFLD.nT              50337.00:  MAGNETIC FIELD
 GVFD.g                   1.00:  GRAVITY FIELD
 VSDR.deg               226.99:  VERT SEC DIRECT
 TDD .m                   0.00:  TOTAL DEPTH (DRILLER)
 SDEP.m                 448.00:  START DEPTH
 DFSL.m                   0.00:  DISTANCE FSL
 DFWL.m                   0.00:  DISTANCE FWL
 UTMY.m             4435799.96:  UTM Y
 UTMX.m              526265.35:  UTM X
 WHEW.m                  -6.24:  WELL HEAD E/W
 WHNS.m                  -2.16:  WELL HEAD N/S
 LONG.deg                51.31:  LONGITUDE
 LATI.deg                40.06:  LATITUDE
 TVDS.m                  43.42:  TVDSS CORRECTN
 EKB .m                  43.42:  KB ELEVATION
 EDF .m                  43.42:  DF ELEVATION
 TDL .m                 288.00:  TOTAL DEPTH (LOGGER)
 MAGU.                 1851863:  MAGUTM CHECKSUM
 VSC .                       0:  VS TO CLOSURE
~Parameter Information Block
#MNEM.UNIT       Value        Description
#---------     -----------    ---------------------------
 AV  .mps                 0.40:  Ann Velocity 
 AVMX.mps                 0.63:  Max Ann Veloc 
 AZIF.deg               158.76:  Azm, Final 
 BHAT.        Rotary Steerable:  BHA Type 
 BROT.°/30m               0.68:  Build Rotating 
 BS  .in                  8.50:  Bit Size 
 BSZ .in                  8.50:  Bit Size 
 BTPL.psig              712.00:  Bit Press Loss 
 CABU.                      No:  Customer Abuse 
 COMM.                     „;b:  Run Comments 1 
 TCS .hr                 90.66:  Time Ciculation Ended 
 CV  .mps                 2.02:  Crit Velocity 
 CVMX.mps                 2.14:  Max Crit Veloc 
 DD1 .            Aziz Aliyevu:  Direct Drillr 1 
 DD2 .             Samir Abbas:  Direct Drillr 2 
 DD3 .           Teymur Aliyev:  Direct Drillr 3 
 DDSV.                 iCruise:  DD Service 
 DEFF.%                  85.10:  % Det Eff 
 DLRX.°/30m               1.05:  Dogleg Rot Max 
 DLSO.°/30m               1.01:  Dogleg Oriented 
 DLSX.°/30m               1.05:  Dogleg Str Max 
 DRET.      07.45.00 18-Jul-21:  Drill End Time 
 DRST.      15.00.00 16-Jul-21:  Drill Start Tim 
 DTIM.hr                 23.46:  Time Drilling 
 EDEP.m                4603.00:  End Depth 
 ENG1.       Seymur Iskandarov:  Engineer 1 
 ENG2.         Yevgeniy Ulikov:  Engineer 2 
 ENG3.         Bahruz Mehdiyev:  Engineer 3 
 ENG4.         Elchin Mammadov:  Engineer 4 
 ETIM.      14.00.00 23-Jul-21:  End Time 
 FLOI.gpm               500.00:  Flow In 
 FLON.gpm               450.00:  Flow In Min 
 FLOS.cptm                0.00:  Fluid Loss 
 FLOX.gpm               560.00:  Flow In Max 
 DFT .        Mineral Oil Base:  Mud Type 
 FTRO.       Formation Presure:  FTWD Run Obj 
 HFLO.                      No:  High Flow 
 HPRE.                      No:  High Pressure 
 HTEM.                      No:  High Temp 
 HYDO.m                   1.80:  Hydro Offset 
 IFIN.deg                40.22:  Inc, Final 
 IMAX.deg                40.54:  Inc Max 
 IMIN.deg                39.44:  Inc Min 
 IMND.m                4361.17:  Inc Min Depth 
 IMXD.m                4417.92:  Inc Max Depth 
 JARR.                      No:  Jarring 
 LETM.      07.45.00 18-Jul-21:  Log End Time 
 LOST.hr                    16:  Lost Rig Time 
 LSTM.      15.00.00 16-Jul-21:  Log Start Time 
 MDCL.ppm             36500.00:  Mud Chlorides 
 MDES.     Inversion Oil/Synthetic:  Mud Desc 
 DFD .sg                  1.42:  Mud Density 
 MDMN.sg                  1.42:  Dens Mud Min 
 MDMX.sg                  1.43:  Dens Mud Max 
 MOIL.                      56:  Run Mud Oil % 
 MOWR.                   71:29:  Run Mud OWR 
 MSND.                     0.5:  Run Mud Sand % 
 MSOL.                      21:  Run Mud Solids% 
 DFV .spqt               78.00:  Mud Viscosity 
 MWOD.in                  6.75:  MWD Tool OD 
 MWSI.                     Yes:  Serv Intrp, MWD 
 OTIM.hr                200.73:  Time Operating 
 PCON.           Look Like New:  Pad Condition 
 PMAX.psia            11069.93:  Press Op, Max 
 PV  .cP                 32.00:  Mud PV 
 RUN .                     700:  Run Number 
 ROPA.m/hr               10.00:  ROP Avg 
 ROPN.m/hr                9.00:  ROP Min 
 ROPX.m/hr               16.00:  ROP Max 
 RPMA.rpm               116.00:  RPM Surface Avg 
 RPMN.rpm                80.00:  RPM Surface Min 
 RPMX.rpm               120.00:  RPM Surface Max 
 RRUN.                    L605:  Rig Run Number 
 RTIM.hr                 45.00:  Time Reaming 
 SAZI.deg               159.86:  Azm, Start 
 SDEP.m                4315.00:  Start Depth 
 SIDD.                      No:  Serv Intrp, DD 
 SINC.deg                39.86:  Inc, Start 
 SPPA.psig             3300.00:  SPP Avg 
 SPPN.psig             3040.00:  SPP Min 
 SPPX.psig             3645.00:  SPP Max 
 STIM.      01.00.00 15-Jul-21:  Start Time 
 SVCS.                 DD, MWD:  Services 
 SVER.                    9.20:  Sperry Version 
 TDAT.m                 288.00:  Tot Depth Attmp 
 TDDF.                      No:  Trip for DD 
 TDLG.m                 288.00:  Tot Depth Loggd 
 TFF .                      No:  Trip for Fail 
 TQAA.f-kp               19.00:  Torque Abs Avg 
 TQAN.f-kp               18.00:  Torque Abs Min 
 TQAX.f-kp               21.00:  Torque Abs Max 
 TRRT.°/30m               0.45:  Turn Rotating 
 MRT .                    HCIM:  Maximum Recorded Temperature 
 TTMX.degC               88.24:  Max Tool Temp 
 VS01.                90649157:  Virtual Str1 SN 
 VS02.                90652483:  Virtual Str2 SN 
 VS03.                11671987:  Virtual Str3 SN 
 VS04.                90643411:  Virtual Str4 SN 
 VS05.                90652478:  Virtual Str5 SN 
 VS06.                    6111:  Virtual Str6 SN 
 WBMN.klb                 9.50:  WOB Min 
 WITN.        Grigoriy Sarayev:  Customer Rep 
 WITN.          Rufat Huseynov:  Customer Rep 2 
 WOBA.klb                11.00:  WOB Avg 
 WOBX.klb                15.00:  WOB Max 
 YP  .lhf2               28.00:  Yield Point 
~Curve Information Block
#MNEM.UNIT                 API CODE     Curve Description
#---------               -----------    ---------------------------
 TIME.HHMMSS            00 000 000 000:  GT Time & Date
 GTDEPTH.m              00 000 000 000:  GT Depth
 GTPQH.psia             00 000 000 000:  GT HR Quartz Pressure
 GTTQ.degC              00 000 000 000:  GT Quartz Temperature
 GTTN.NONE              00 000 000 000:  GT Test Number
 GTET.sec               00 000 000 000:  GT Elapsed Test Time
 GTTVD.m                00 000 000 000:  GT True Vertical Depth
#Other Information
#
#WARRANTY: Halliburton will use its best efforts to furnish customers with 
#accurate information and interpretations that are part of, and incident to, the services 
#provided.  However, Halliburton cannot and does not warrant the accuracy 
#or correctness of such information and interpretations.  Under no circumstances should any 
#such information or interpretation be relied upon as the sole basis for any drilling, 
#completion, production, or financial decision or any procedure involving any risk to the 
#safety of any drilling venture, drilling rig or its crew or any other third party.  The 
#Customer has full responsibility for all drilling, completion and production operation.  
#Halliburton makes no representations or warranties, either expressed or 
#implied, including, but not limited to, the implied warranties of merchantability or fitness 
#for a particular purpose, with respect to the services rendered.  In no event will 
#Halliburton be liable for failure to obtain any particular results or for 
#any damages, including, but not limited to, indirect, special or consequential damages, 
#resulting from the use of any information or interpretation provided by Halliburton.
#
~A           TIME           GTDEPTH  GTPQH  GTTQ  GTTN   GTET   GTTVD  
# ...
   13:33:28.546.19-Jul-2021 4559.00 6690.40 71.21 29.00 361.73 2745.40
   13:33:28.746.19-Jul-2021 4559.00 6689.46 71.22 29.00 361.93 2745.40
   13:33:28.946.19-Jul-2021 4559.00 6689.46 71.22 29.00 362.13 2745.40
   13:33:29.146.19-Jul-2021 4559.00 6689.46 71.22 29.00 362.33 2745.40
   13:33:29.346.19-Jul-2021 4559.00 6689.84 71.22 29.00 362.53 2745.40
   13:33:29.547.19-Jul-2021 4559.00 6717.88 71.22 29.00 362.73 2745.40
   13:33:29.747.19-Jul-2021 4559.00 6699.35 71.22 29.00 362.93 2745.40
   13:33:29.947.19-Jul-2021 4559.00 6688.70 71.23 29.00 363.13 2745.40
   13:33:30.147.19-Jul-2021 4559.00 6688.70 71.23 29.00 363.33 2745.40
   13:33:30.347.19-Jul-2021 4559.00 6705.10 71.23 29.00 363.53 2745.40
   13:33:30.547.19-Jul-2021 4559.00 6689.30 71.23 29.00 363.73 2745.40
   13:33:30.747.19-Jul-2021 4559.00 6726.82 71.23 29.00 363.93 2745.40
   13:33:30.947.19-Jul-2021 4559.00 6703.82 71.23 29.00 364.13 2745.40
   13:33:31.147.19-Jul-2021 4559.00 6703.82 71.23 29.00 364.33 2745.40
   13:33:31.347.19-Jul-2021 4559.00 6698.28 71.24 29.00 364.53 2745.40
   13:33:31.547.19-Jul-2021 4559.00 6720.24 71.24 29.00 364.73 2745.40
   13:33:31.747.19-Jul-2021 4559.00 6698.76 71.24 29.00 364.93 2745.40
   13:33:31.947.19-Jul-2021 4559.00 6688.13 71.24 29.00 365.13 2745.40
   13:33:32.148.19-Jul-2021 4559.00 6688.13 71.24 29.00 365.33 2745.40
   13:33:32.348.19-Jul-2021 4559.00 6720.91 71.24 29.00 365.53 2745.40
   13:33:32.548.19-Jul-2021 4559.00 6699.83 71.24 29.00 365.73 2745.40
   13:33:32.748.19-Jul-2021 4559.00 6689.48 71.24 29.00 365.93 2745.40
   13:33:32.948.19-Jul-2021 4559.00 6697.92 71.24 29.00 366.13 2745.40
   13:33:33.148.19-Jul-2021 4559.00 6697.92 71.24 29.00 366.33 2745.40
   13:33:33.348.19-Jul-2021 4559.00 6693.27 71.24 29.00 366.53 2745.40
   13:33:33.548.19-Jul-2021 4559.00 6695.28 71.25 29.00 366.74 2745.40
   13:33:33.748.19-Jul-2021 4559.00 6695.92 71.25 29.00 366.94 2745.40
   13:33:33.948.19-Jul-2021 4559.00 6695.06 71.25 29.00 367.14 2745.40
   13:33:34.148.19-Jul-2021 4559.00 6695.06 71.25 29.00 367.34 2745.40
   13:33:34.348.19-Jul-2021 4559.00 6695.05 71.25 29.00 367.54 2745.40
   13:33:34.548.19-Jul-2021 4559.00 6695.33 71.25 29.00 367.74 2745.40
   13:33:34.748.19-Jul-2021 4559.00 6695.07 71.25 29.00 367.94 2745.40
   13:33:34.949.19-Jul-2021 4559.00 6695.03 71.25 29.00 368.14 2745.40
   13:33:35.149.19-Jul-2021 4559.00 6695.03 71.25 29.00 368.34 2745.40
   13:33:35.349.19-Jul-2021 4559.00 6716.98 71.25 29.00 368.54 2745.40
   13:33:35.549.19-Jul-2021 4559.00 6693.18 71.25 29.00 368.74 2745.40
   13:33:35.749.19-Jul-2021 4559.00 6692.39 71.25 29.00 368.94 2745.40
   13:33:35.949.19-Jul-2021 4559.00 6700.62 71.25 29.00 369.14 2745.40
   13:33:36.149.19-Jul-2021 4559.00 6700.62 71.25 29.00 369.34 2745.40
   13:33:36.349.19-Jul-2021 4559.00 6693.73 71.25 29.00 369.54 2745.40
   13:33:36.549.19-Jul-2021 4559.00 6693.91 71.25 29.00 369.74 2745.40
   13:33:36.749.19-Jul-2021 4559.00 6692.84 71.25 29.00 369.94 2745.40
   13:33:36.949.19-Jul-2021 4559.00 6691.73 71.25 29.00 370.14 2745.40
   13:33:37.149.19-Jul-2021 4559.00 6691.73 71.25 29.00 370.34 2745.40
   13:33:37.349.19-Jul-2021 4559.00 6692.07 71.25 29.00 370.54 2745.40
   13:33:37.550.19-Jul-2021 4559.00 6692.97 71.26 29.00 370.74 2745.40
   13:33:37.750.19-Jul-2021 4559.00 6704.06 71.26 29.00 370.94 2745.40
   13:33:37.950.19-Jul-2021 4559.00 6716.03 71.26 29.00 371.14 2745.40
   13:33:38.150.19-Jul-2021 4559.00 6716.03 71.26 29.00 371.34 2745.40
   13:33:38.350.19-Jul-2021 4559.00 6716.03 71.26 29.00 371.54 2745.40
   13:33:38.550.19-Jul-2021 4559.00 6713.89 71.26 29.00 371.74 2745.40
   13:33:38.750.19-Jul-2021 4559.00 6690.60 71.26 29.00 371.94 2745.40
   13:33:38.950.19-Jul-2021 4559.00 6697.66 71.26 29.00 372.14 2745.40
   13:33:39.150.19-Jul-2021 4559.00 6697.66 71.26 29.00 372.34 2745.40
   13:33:39.350.19-Jul-2021 4559.00 6696.86 71.26 29.00 372.54 2745.40
   13:33:39.550.19-Jul-2021 4559.00 6689.50 71.26 29.00 372.74 2745.40
   13:33:39.750.19-Jul-2021 4559.00 6727.51 71.26 29.00 372.94 2745.40
   13:33:39.950.19-Jul-2021 4559.00 6702.01 71.26 29.00 373.14 2745.40
   13:33:40.150.19-Jul-2021 4559.00 6702.01 71.26 29.00 373.34 2745.40
   13:33:40.351.19-Jul-2021 4559.00 6697.03 71.26 29.00 373.54 2745.40
   13:33:40.551.19-Jul-2021 4559.00 6699.90 71.26 29.00 373.74 2745.40
   13:33:40.751.19-Jul-2021 4559.00 6719.04 71.26 29.00 373.94 2745.40
   13:33:40.951.19-Jul-2021 4559.00 6700.05 71.26 29.00 374.14 2745.40
   13:33:41.151.19-Jul-2021 4559.00 6700.05 71.26 29.00 374.34 2745.40
   13:33:41.351.19-Jul-2021 4559.00 6701.53 71.26 29.00 374.54 2745.40
   13:33:41.551.19-Jul-2021 4559.00 6697.16 71.26 29.00 374.74 2745.40
   13:33:41.751.19-Jul-2021 4559.00 6695.08 71.26 29.00 374.94 2745.40
   13:33:41.951.19-Jul-2021 4559.00 6696.02 71.26 29.00 375.14 2745.40
   13:33:42.151.19-Jul-2021 4559.00 6696.02 71.26 29.00 375.34 2745.40
   13:33:42.351.19-Jul-2021 4559.00 6695.38 71.26 29.00 375.54 2745.40
   13:33:42.551.19-Jul-2021 4559.00 6695.35 71.26 29.00 375.74 2745.40
   13:33:42.751.19-Jul-2021 4559.00 6695.26 71.26 29.00 375.94 2745.40
   13:33:42.951.19-Jul-2021 4559.00 6695.13 71.26 29.00 376.14 2745.40
   13:33:43.152.19-Jul-2021 4559.00 6695.13 71.26 29.00 376.34 2745.40
   13:33:43.352.19-Jul-2021 4559.00 6695.52 71.26 29.00 376.54 2745.40
   13:33:43.552.19-Jul-2021 4559.00 6714.98 71.26 29.00 376.74 2745.40
   13:33:43.752.19-Jul-2021 4559.00 6704.28 71.26 29.00 376.94 2745.40
   13:33:43.952.19-Jul-2021 4559.00 6689.32 71.26 29.00 377.14 2745.40
   13:33:44.152.19-Jul-2021 4559.00 6689.32 71.26 29.00 377.34 2745.40
   13:33:44.352.19-Jul-2021 4559.00 6698.76 71.26 29.00 377.54 2745.40
   13:33:44.552.19-Jul-2021 4559.00 6692.33 71.26 29.00 377.74 2745.40
   13:33:44.752.19-Jul-2021 4559.00 6692.15 71.26 29.00 377.94 2745.40
   13:33:44.952.19-Jul-2021 4559.00 6691.82 71.26 29.00 378.14 2745.40
   13:33:45.152.19-Jul-2021 4559.00 6691.82 71.26 29.00 378.34 2745.40
   13:33:45.352.19-Jul-2021 4559.00 6690.66 71.26 29.00 378.54 2745.40
   13:33:45.552.19-Jul-2021 4559.00 6690.69 71.26 29.00 378.74 2745.40
   13:33:45.753.19-Jul-2021 4559.00 6690.96 71.26 29.00 378.94 2745.40
   13:33:45.953.19-Jul-2021 4559.00 6692.96 71.26 29.00 379.14 2745.40
   13:33:46.153.19-Jul-2021 4559.00 6692.96 71.26 29.00 379.34 2745.40
   13:33:46.353.19-Jul-2021 4559.00 6702.64 71.26 29.00 379.54 2745.40
   13:33:46.553.19-Jul-2021 4559.00 6688.19 71.26 29.00 379.74 2745.40
   13:33:46.753.19-Jul-2021 4559.00 6721.33 71.26 29.00 379.94 2745.40
   13:33:46.953.19-Jul-2021 4559.00 6702.56 71.26 29.00 380.14 2745.40
   13:33:47.153.19-Jul-2021 4559.00 6702.56 71.26 29.00 380.34 2745.40
   13:33:47.353.19-Jul-2021 4559.00 6706.98 71.26 29.00 380.54 2745.40
   13:33:47.553.19-Jul-2021 4559.00 6717.03 71.26 29.00 380.74 2745.40
   13:33:47.753.19-Jul-2021 4559.00 6686.15 71.26 29.00 380.94 2745.40
   13:33:47.953.19-Jul-2021 4559.00 6691.45 71.26 29.00 381.14 2745.40
   13:33:48.153.19-Jul-2021 4559.00 6691.45 71.26 29.00 381.34 2745.40
   13:33:48.353.19-Jul-2021 4559.00 6692.75 71.26 29.00 381.54 2745.40
   13:33:48.554.19-Jul-2021 4559.00 6687.37 71.26 29.00 381.74 2745.40
   13:33:48.754.19-Jul-2021 4559.00 6699.72 71.26 29.00 381.94 2745.40
   13:33:48.954.19-Jul-2021 4559.00 6694.14 71.26 29.00 382.14 2745.40
   13:33:49.154.19-Jul-2021 4559.00 6694.14 71.26 29.00 382.34 2745.40
   13:33:49.354.19-Jul-2021 4559.00 6701.23 71.26 29.00 382.54 2745.40
   13:33:49.554.19-Jul-2021 4559.00 6689.61 71.26 29.00 382.74 2745.40
   13:33:49.754.19-Jul-2021 4559.00 6695.49 71.26 29.00 382.94 2745.40
   13:33:49.954.19-Jul-2021 4559.00 6700.14 71.26 29.00 383.14 2745.40
   13:33:50.154.19-Jul-2021 4559.00 6700.14 71.26 29.00 383.34 2745.40
   13:33:50.354.19-Jul-2021 4559.00 6693.81 71.26 29.00 383.54 2745.40
   13:33:50.554.19-Jul-2021 4559.00 6694.87 71.26 29.00 383.74 2745.40
   13:33:50.754.19-Jul-2021 4559.00 6693.88 71.26 29.00 383.94 2745.40
   13:33:50.954.19-Jul-2021 4559.00 6694.14 71.26 29.00 384.14 2745.40
