~Version Information
 VERS.                  2.0:   CWLS log ASCII Standard -VERSION 2.0
 WRAP.                   NO:   One line per depth step
~Well Information Block
#MNEM.UNIT     VALUE/NAME     DESCRIPTION
#---------     -----------    ---------------------------
 STRT.S             06:08:07 19-Jul-21: START TIME 06:08:07 19-Jul-21
 STOP.S             06:15:04 19-Jul-21: STOP TIME  06:15:04 19-Jul-21
 STEP.S                   0.00: STEP TIME
 NULL.                 -999.25: NULL VALUE
 MDS .        Operator Entered:  MAG DATA SOURCE
 PDAT.          Mean Sea Level:  PERMANENT DATUM
 UNIT.                     N/A:  LOGGING EQUIPMENT ID
 DCON.         Sperry Drilling:  DIRECTNL CONTR
 DOE .                     N/A:  DOE NUMBER
 RIG .              West Azeri:  RIG NAME
 JOBN.        AZ-XX-0906997913:  JOB TICKET NUMB
 WELL.                     C41:  WELL NAME
 MWDS.                    Baku:  MWD SHOP
 SRVC.          Turan Drilling:  CONTRACTOR
 FLD .                     ACG:  FIELD NAME
 CTRY.              Azerbaijan:  COUNTRY NAME
 PROV.                    Baku:  PROVINCE
 STAT.                    Baku:  STATE NAME
 REGN.                   EESSA:  REGION
 BASE.              Azerbaijan:  LOGGING EQUIPMENT BASE LOCATION
 UWI .                     N/A:  UNIQUE WELL IDENTIFIER
 API .                     N/A:  API NUMBER
 COMP.     BP Exploration (Caspian Sea) Ltd.:  COMPANY
 WTYP.                Deviated:  WELL TYPE
 SON .        AZ-XX-0906997913:  JOB NUMBER
 FTOP.          Formation Tops:  FORM TOPS DESC
 ILTD.               Lithology:  INTERP LTH DESC
 SVYD.                  Survey:  SURVEY DESC
 DMOD.             Drill Model:  DRILL MOD DESC
 HPTY.       Minimum Curvature:  HOLE POS TYPE
 NREF.                    Grid:  NORTH REFERENCE
 SPUD.               16-May-21:  SPUD DATE
 DATE.      21.11.28 17-May-21:  END TIME
 STIM.      21.11.28 17-May-21:  START TIME
 DMF .             Drill Floor:  DRILL MEAS FROM
 DFST.                        :  DIST FSL TEXT
 DFWT.                        :  DIST FWL TEXT
 CNTY.                        :  COUNTY
 LOC .                        :  LOCATION
 LMF .             Drill Floor:  LOG MEASURED FROM
 AGAP.m                  43.42:  AIR GAP
 VSNS.m                  -2.16:  VERT SEC N/S
 VSEW.m                  -6.24:  VERT SEC E/W
 APD .m                  43.42:  DEPTH ABOVE PD
 WDMS.m                 118.27:  WD ELEV
 EGL .m                   0.00:  GROUND ELEVATION
 EPD .m                   0.00:  ELEVATION
 AZTC.deg                 6.29:  AZM TOTAL CORR
 GRDC.deg                 0.18:  GRID CORRECTION
 MDEC.deg                 6.47:  MAGNETIC DECL
 MDIP.deg                59.54:  MAGNETIC DIP
 MFLD.nT              50337.00:  MAGNETIC FIELD
 GVFD.g                   1.00:  GRAVITY FIELD
 VSDR.deg               226.99:  VERT SEC DIRECT
 TDD .m                   0.00:  TOTAL DEPTH (DRILLER)
 SDEP.m                 448.00:  START DEPTH
 DFSL.m                   0.00:  DISTANCE FSL
 DFWL.m                   0.00:  DISTANCE FWL
 UTMY.m             4435799.96:  UTM Y
 UTMX.m              526265.35:  UTM X
 WHEW.m                  -6.24:  WELL HEAD E/W
 WHNS.m                  -2.16:  WELL HEAD N/S
 LONG.deg                51.31:  LONGITUDE
 LATI.deg                40.06:  LATITUDE
 TVDS.m                  43.42:  TVDSS CORRECTN
 EKB .m                  43.42:  KB ELEVATION
 EDF .m                  43.42:  DF ELEVATION
 TDL .m                 288.00:  TOTAL DEPTH (LOGGER)
 MAGU.                 1851863:  MAGUTM CHECKSUM
 VSC .                       0:  VS TO CLOSURE
~Parameter Information Block
#MNEM.UNIT       Value        Description
#---------     -----------    ---------------------------
 AV  .mps                 0.40:  Ann Velocity 
 AVMX.mps                 0.63:  Max Ann Veloc 
 AZIF.deg               158.76:  Azm, Final 
 BHAT.        Rotary Steerable:  BHA Type 
 BROT.°/30m               0.68:  Build Rotating 
 BS  .in                  8.50:  Bit Size 
 BSZ .in                  8.50:  Bit Size 
 BTPL.psig              712.00:  Bit Press Loss 
 CABU.                      No:  Customer Abuse 
 TCS .hr                 90.66:  Time Ciculation Ended 
 CV  .mps                 2.02:  Crit Velocity 
 CVMX.mps                 2.14:  Max Crit Veloc 
 DD1 .            Aziz Aliyevu:  Direct Drillr 1 
 DD2 .             Samir Abbas:  Direct Drillr 2 
 DD3 .           Teymur Aliyev:  Direct Drillr 3 
 DDSV.                 iCruise:  DD Service 
 DEFF.%                  85.10:  % Det Eff 
 DLRX.°/30m               1.05:  Dogleg Rot Max 
 DLSO.°/30m               1.01:  Dogleg Oriented 
 DLSX.°/30m               1.05:  Dogleg Str Max 
 DRET.      07.45.00 18-Jul-21:  Drill End Time 
 DRST.      15.00.00 16-Jul-21:  Drill Start Tim 
 DTIM.hr                 23.46:  Time Drilling 
 EDEP.m                4603.00:  End Depth 
 ENG1.       Seymur Iskandarov:  Engineer 1 
 ENG2.         Yevgeniy Ulikov:  Engineer 2 
 ENG3.         Bahruz Mehdiyev:  Engineer 3 
 ENG4.         Elchin Mammadov:  Engineer 4 
 ETIM.      14.00.00 23-Jul-21:  End Time 
 FLOI.gpm               500.00:  Flow In 
 FLON.gpm               450.00:  Flow In Min 
 FLOS.cptm                0.00:  Fluid Loss 
 FLOX.gpm               560.00:  Flow In Max 
 DFT .        Mineral Oil Base:  Mud Type 
 FTRO.       Formation Presure:  FTWD Run Obj 
 HFLO.                      No:  High Flow 
 HPRE.                      No:  High Pressure 
 HTEM.                      No:  High Temp 
 HYDO.m                   1.80:  Hydro Offset 
 IFIN.deg                40.22:  Inc, Final 
 IMAX.deg                40.54:  Inc Max 
 IMIN.deg                39.44:  Inc Min 
 IMND.m                4361.17:  Inc Min Depth 
 IMXD.m                4417.92:  Inc Max Depth 
 JARR.                      No:  Jarring 
 LETM.      07.45.00 18-Jul-21:  Log End Time 
 LOST.hr                    16:  Lost Rig Time 
 LSTM.      15.00.00 16-Jul-21:  Log Start Time 
 MDCL.ppm             36500.00:  Mud Chlorides 
 MDES.     Inversion Oil/Synthetic:  Mud Desc 
 DFD .sg                  1.42:  Mud Density 
 MDMN.sg                  1.42:  Dens Mud Min 
 MDMX.sg                  1.43:  Dens Mud Max 
 MOIL.                      56:  Run Mud Oil % 
 MOWR.                   71:29:  Run Mud OWR 
 MSND.                     0.5:  Run Mud Sand % 
 MSOL.                      21:  Run Mud Solids% 
 DFV .spqt               78.00:  Mud Viscosity 
 MWOD.in                  6.75:  MWD Tool OD 
 MWSI.                     Yes:  Serv Intrp, MWD 
 OTIM.hr                200.73:  Time Operating 
 PCON.           Look Like New:  Pad Condition 
 PMAX.psia            11069.93:  Press Op, Max 
 PV  .cP                 32.00:  Mud PV 
 RUN .                     700:  Run Number 
 ROPA.m/hr               10.00:  ROP Avg 
 ROPN.m/hr                9.00:  ROP Min 
 ROPX.m/hr               16.00:  ROP Max 
 RPMA.rpm               116.00:  RPM Surface Avg 
 RPMN.rpm                80.00:  RPM Surface Min 
 RPMX.rpm               120.00:  RPM Surface Max 
 RRUN.                    L605:  Rig Run Number 
 RTIM.hr                 45.00:  Time Reaming 
 SAZI.deg               159.86:  Azm, Start 
 SDEP.m                4315.00:  Start Depth 
 SIDD.                      No:  Serv Intrp, DD 
 SINC.deg                39.86:  Inc, Start 
 SPPA.psig             3300.00:  SPP Avg 
 SPPN.psig             3040.00:  SPP Min 
 SPPX.psig             3645.00:  SPP Max 
 STIM.      01.00.00 15-Jul-21:  Start Time 
 SVCS.                 DD, MWD:  Services 
 SVER.                    9.20:  Sperry Version 
 TDAT.m                 288.00:  Tot Depth Attmp 
 TDDF.                      No:  Trip for DD 
 TDLG.m                 288.00:  Tot Depth Loggd 
 TFF .                      No:  Trip for Fail 
 TQAA.f-kp               19.00:  Torque Abs Avg 
 TQAN.f-kp               18.00:  Torque Abs Min 
 TQAX.f-kp               21.00:  Torque Abs Max 
 TRRT.°/30m               0.45:  Turn Rotating 
 MRT .                    HCIM:  Maximum Recorded Temperature 
 TTMX.degC               88.24:  Max Tool Temp 
 VS01.                90649157:  Virtual Str1 SN 
 VS02.                90652483:  Virtual Str2 SN 
 VS03.                11671987:  Virtual Str3 SN 
 VS04.                90643411:  Virtual Str4 SN 
 VS05.                90652478:  Virtual Str5 SN 
 VS06.                    6111:  Virtual Str6 SN 
 WBMN.klb                 9.50:  WOB Min 
 WITN.        Grigoriy Sarayev:  Customer Rep 
 WITN.          Rufat Huseynov:  Customer Rep 2 
 WOBA.klb                11.00:  WOB Avg 
 WOBX.klb                15.00:  WOB Max 
 YP  .lhf2               28.00:  Yield Point 
~Curve Information Block
#MNEM.UNIT                 API CODE     Curve Description
#---------               -----------    ---------------------------
 TIME.HHMMSS            00 000 000 000:  GT Time & Date
 GTDEPTH.m              00 000 000 000:  GT Depth
 GTPQH.psia             00 000 000 000:  GT HR Quartz Pressure
 GTTQ.degC              00 000 000 000:  GT Quartz Temperature
 GTTN.NONE              00 000 000 000:  GT Test Number
 GTET.sec               00 000 000 000:  GT Elapsed Test Time
 GTTVD.m                00 000 000 000:  GT True Vertical Depth
#Other Information
#
#WARRANTY: Halliburton will use its best efforts to furnish customers with 
#accurate information and interpretations that are part of, and incident to, the services 
#provided.  However, Halliburton cannot and does not warrant the accuracy 
#or correctness of such information and interpretations.  Under no circumstances should any 
#such information or interpretation be relied upon as the sole basis for any drilling, 
#completion, production, or financial decision or any procedure involving any risk to the 
#safety of any drilling venture, drilling rig or its crew or any other third party.  The 
#Customer has full responsibility for all drilling, completion and production operation.  
#Halliburton makes no representations or warranties, either expressed or 
#implied, including, but not limited to, the implied warranties of merchantability or fitness 
#for a particular purpose, with respect to the services rendered.  In no event will 
#Halliburton be liable for failure to obtain any particular results or for 
#any damages, including, but not limited to, indirect, special or consequential damages, 
#resulting from the use of any information or interpretation provided by Halliburton.
#
~A           TIME           GTDEPTH  GTPQH  GTTQ  GTTN   GTET   GTTVD  
# ...
   06:13:46.232.19-Jul-2021 4380.90 4156.91 69.31 14.00 339.12 2609.29
   06:13:46.432.19-Jul-2021 4380.90 4156.91 69.31 14.00 339.32 2609.29
   06:13:46.632.19-Jul-2021 4380.90 4156.84 69.31 14.00 339.53 2609.29
   06:13:46.832.19-Jul-2021 4380.90 4156.87 69.31 14.00 339.73 2609.29
   06:13:47.032.19-Jul-2021 4380.90 4156.90 69.31 14.00 339.93 2609.29
   06:13:47.232.19-Jul-2021 4380.90 4156.88 69.31 14.00 340.13 2609.29
   06:13:47.432.19-Jul-2021 4380.90 4156.88 69.31 14.00 340.33 2609.29
   06:13:47.632.19-Jul-2021 4380.90 4156.83 69.31 14.00 340.53 2609.29
   06:13:47.833.19-Jul-2021 4380.90 4156.61 69.31 14.00 340.73 2609.29
   06:13:48.033.19-Jul-2021 4380.90 4156.74 69.31 14.00 340.93 2609.29
   06:13:48.233.19-Jul-2021 4380.90 4156.74 69.31 14.00 341.13 2609.29
   06:13:48.433.19-Jul-2021 4380.90 4156.74 69.31 14.00 341.33 2609.29
   06:13:48.633.19-Jul-2021 4380.90 4156.70 69.31 14.00 341.53 2609.29
   06:13:48.833.19-Jul-2021 4380.90 4156.97 69.31 14.00 341.73 2609.29
   06:13:49.033.19-Jul-2021 4380.90 4156.88 69.31 14.00 341.93 2609.29
   06:13:49.233.19-Jul-2021 4380.90 4156.87 69.31 14.00 342.13 2609.29
   06:13:49.433.19-Jul-2021 4380.90 4156.87 69.31 14.00 342.33 2609.29
   06:13:49.633.19-Jul-2021 4380.90 4156.90 69.31 14.00 342.53 2609.29
   06:13:49.833.19-Jul-2021 4380.90 4156.91 69.31 14.00 342.73 2609.29
   06:13:50.033.19-Jul-2021 4380.90 4156.91 69.31 14.00 342.93 2609.29
   06:13:50.233.19-Jul-2021 4380.90 4156.88 69.31 14.00 343.13 2609.29
   06:13:50.434.19-Jul-2021 4380.90 4156.88 69.31 14.00 343.33 2609.29
   06:13:50.634.19-Jul-2021 4380.90 4156.89 69.31 14.00 343.53 2609.29
   06:13:50.834.19-Jul-2021 4380.90 4156.67 69.31 14.00 343.73 2609.29
   06:13:51.034.19-Jul-2021 4380.90 4157.62 69.31 14.00 343.93 2609.29
   06:13:51.234.19-Jul-2021 4380.90 4156.06 69.31 14.00 344.13 2609.29
   06:13:51.434.19-Jul-2021 4380.90 4156.06 69.31 14.00 344.33 2609.29
   06:13:51.634.19-Jul-2021 4380.90 4156.94 69.31 14.00 344.53 2609.29
   06:13:51.834.19-Jul-2021 4380.90 4156.96 69.31 14.00 344.73 2609.29
   06:13:52.034.19-Jul-2021 4380.90 4156.71 69.31 14.00 344.93 2609.29
   06:13:52.234.19-Jul-2021 4380.90 4156.83 69.31 14.00 345.13 2609.29
   06:13:52.434.19-Jul-2021 4380.90 4156.83 69.31 14.00 345.33 2609.29
   06:13:52.634.19-Jul-2021 4380.90 4157.21 69.31 14.00 345.53 2609.29
   06:13:52.834.19-Jul-2021 4380.90 4156.68 69.31 14.00 345.73 2609.29
   06:13:53.034.19-Jul-2021 4380.90 4157.16 69.31 14.00 345.93 2609.29
   06:13:53.235.19-Jul-2021 4380.90 4156.68 69.31 14.00 346.13 2609.29
   06:13:53.435.19-Jul-2021 4380.90 4156.68 69.31 14.00 346.33 2609.29
   06:13:53.635.19-Jul-2021 4380.90 4157.19 69.31 14.00 346.53 2609.29
   06:13:53.835.19-Jul-2021 4380.90 4156.86 69.31 14.00 346.73 2609.29
   06:13:54.035.19-Jul-2021 4380.90 4157.13 69.31 14.00 346.93 2609.29
   06:13:54.235.19-Jul-2021 4380.90 4156.65 69.31 14.00 347.13 2609.29
   06:13:54.435.19-Jul-2021 4380.90 4156.65 69.31 14.00 347.33 2609.29
   06:13:54.635.19-Jul-2021 4380.90 4156.89 69.31 14.00 347.53 2609.29
   06:13:54.835.19-Jul-2021 4380.90 4156.87 69.31 14.00 347.73 2609.29
   06:13:55.035.19-Jul-2021 4380.90 4156.92 69.31 14.00 347.93 2609.29
   06:13:55.235.19-Jul-2021 4380.90 4156.88 69.31 14.00 348.13 2609.29
   06:13:55.435.19-Jul-2021 4380.90 4156.88 69.31 14.00 348.33 2609.29
   06:13:55.635.19-Jul-2021 4380.90 4156.89 69.31 14.00 348.53 2609.29
   06:13:55.835.19-Jul-2021 4380.90 4156.91 69.31 14.00 348.73 2609.29
   06:13:56.036.19-Jul-2021 4380.90 4156.83 69.31 14.00 348.93 2609.29
   06:13:56.236.19-Jul-2021 4380.90 4156.77 69.31 14.00 349.13 2609.29
   06:13:56.436.19-Jul-2021 4380.90 4156.77 69.31 14.00 349.33 2609.29
   06:13:56.636.19-Jul-2021 4380.90 4156.75 69.31 14.00 349.53 2609.29
   06:13:56.836.19-Jul-2021 4380.90 4157.13 69.31 14.00 349.73 2609.29
   06:13:57.036.19-Jul-2021 4380.90 4156.69 69.31 14.00 349.93 2609.29
   06:13:57.236.19-Jul-2021 4380.90 4156.89 69.31 14.00 350.13 2609.29
   06:13:57.436.19-Jul-2021 4380.90 4156.89 69.31 14.00 350.33 2609.29
   06:13:57.636.19-Jul-2021 4380.90 4156.86 69.31 14.00 350.53 2609.29
   06:13:57.836.19-Jul-2021 4380.90 4156.86 69.31 14.00 350.73 2609.29
   06:13:58.036.19-Jul-2021 4380.90 4156.90 69.31 14.00 350.93 2609.29
   06:13:58.236.19-Jul-2021 4380.90 4156.93 69.31 14.00 351.13 2609.29
   06:13:58.436.19-Jul-2021 4380.90 4156.93 69.31 14.00 351.33 2609.29
   06:13:58.637.19-Jul-2021 4380.90 4156.83 69.31 14.00 351.53 2609.29
   06:13:58.837.19-Jul-2021 4380.90 4156.75 69.31 14.00 351.73 2609.29
   06:13:59.037.19-Jul-2021 4380.90 4156.79 69.31 14.00 351.93 2609.29
   06:13:59.237.19-Jul-2021 4380.90 4156.64 69.31 14.00 352.13 2609.29
   06:13:59.437.19-Jul-2021 4380.90 4156.64 69.31 14.00 352.33 2609.29
   06:13:59.637.19-Jul-2021 4380.90 4156.01 69.31 14.00 352.53 2609.29
   06:13:59.837.19-Jul-2021 4380.90 4156.91 69.31 14.00 352.73 2609.29
   06:14:00.037.19-Jul-2021 4380.90 4156.98 69.31 14.00 352.93 2609.29
   06:14:00.237.19-Jul-2021 4380.90 4156.98 69.31 14.00 353.13 2609.29
   06:14:00.437.19-Jul-2021 4380.90 4156.98 69.31 14.00 353.33 2609.29
   06:14:00.637.19-Jul-2021 4380.90 4156.86 69.31 14.00 353.53 2609.29
   06:14:00.837.19-Jul-2021 4380.90 4156.53 69.31 14.00 353.73 2609.29
   06:14:01.037.19-Jul-2021 4380.90 4157.25 69.31 14.00 353.93 2609.29
   06:14:01.237.19-Jul-2021 4380.90 4156.71 69.31 14.00 354.13 2609.29
   06:14:01.438.19-Jul-2021 4380.90 4156.71 69.31 14.00 354.33 2609.29
   06:14:01.638.19-Jul-2021 4380.90 4157.18 69.31 14.00 354.53 2609.29
   06:14:01.838.19-Jul-2021 4380.90 4156.57 69.31 14.00 354.73 2609.29
   06:14:02.038.19-Jul-2021 4380.90 4157.15 69.31 14.00 354.93 2609.29
   06:14:02.238.19-Jul-2021 4380.90 4156.82 69.31 14.00 355.13 2609.29
   06:14:02.438.19-Jul-2021 4380.90 4156.82 69.31 14.00 355.33 2609.29
   06:14:02.638.19-Jul-2021 4380.90 4156.67 69.31 14.00 355.53 2609.29
   06:14:02.838.19-Jul-2021 4380.90 4156.90 69.31 14.00 355.73 2609.29
   06:14:03.038.19-Jul-2021 4380.90 4156.92 69.31 14.00 355.93 2609.29
   06:14:03.238.19-Jul-2021 4380.90 4156.93 69.31 14.00 356.13 2609.29
   06:14:03.438.19-Jul-2021 4380.90 4156.93 69.31 14.00 356.33 2609.29
   06:14:03.638.19-Jul-2021 4380.90 4156.90 69.31 14.00 356.53 2609.29
   06:14:03.838.19-Jul-2021 4380.90 4156.89 69.31 14.00 356.73 2609.29
   06:14:04.039.19-Jul-2021 4380.90 4156.92 69.31 14.00 356.93 2609.29
   06:14:04.239.19-Jul-2021 4380.90 4156.91 69.31 14.00 357.13 2609.29
   06:14:04.439.19-Jul-2021 4380.90 4156.91 69.31 14.00 357.33 2609.29
   06:14:04.639.19-Jul-2021 4380.90 4156.85 69.31 14.00 357.53 2609.29
   06:14:04.839.19-Jul-2021 4380.90 4156.99 69.31 14.00 357.73 2609.29
   06:14:05.039.19-Jul-2021 4380.90 4156.77 69.31 14.00 357.93 2609.29
   06:14:05.239.19-Jul-2021 4380.90 4157.13 69.31 14.00 358.13 2609.29
   06:14:05.439.19-Jul-2021 4380.90 4157.13 69.31 14.00 358.33 2609.29
   06:14:05.639.19-Jul-2021 4380.90 4156.93 69.31 14.00 358.53 2609.29
   06:14:05.839.19-Jul-2021 4380.90 4156.89 69.31 14.00 358.73 2609.29
   06:14:06.039.19-Jul-2021 4380.90 4156.88 69.31 14.00 358.93 2609.29
   06:14:06.239.19-Jul-2021 4380.90 4156.87 69.31 14.00 359.13 2609.29
   06:14:06.439.19-Jul-2021 4380.90 4156.87 69.31 14.00 359.33 2609.29
   06:14:06.639.19-Jul-2021 4380.90 4156.93 69.31 14.00 359.53 2609.29
   06:14:06.840.19-Jul-2021 4380.90 4156.32 69.31 14.00 359.73 2609.29
   06:14:07.040.19-Jul-2021 4380.90 4160.70 69.31 14.00 359.93 2609.29
   06:14:07.240.19-Jul-2021 4380.90 4240.79 69.31 14.00 360.13 2609.29
   06:14:07.440.19-Jul-2021 4380.90 4240.79 69.31 14.00 360.33 2609.29
   06:14:07.640.19-Jul-2021 4380.90 6355.72 69.31 14.00 360.53 2609.29
   06:14:07.840.19-Jul-2021 4380.90 6386.13 69.31 14.00 360.73 2609.29
   06:14:08.040.19-Jul-2021 4380.90 6354.71 69.31 14.00 360.93 2609.29
   06:14:08.240.19-Jul-2021 4380.90 6358.92 69.31 14.00 361.13 2609.29
   06:14:08.440.19-Jul-2021 4380.90 6358.92 69.31 14.00 361.33 2609.29
   06:14:08.640.19-Jul-2021 4380.90 6379.19 69.32 14.00 361.53 2609.29
