~Version Information
 VERS.                  2.0:   CWLS log ASCII Standard -VERSION 2.0
 WRAP.                   NO:   One line per depth step
~Well Information Block
#MNEM.UNIT     VALUE/NAME     DESCRIPTION
#---------     -----------    ---------------------------
 STRT.S             07:16:19 19-Jul-21: START TIME 07:16:19 19-Jul-21
 STOP.S             07:23:16 19-Jul-21: STOP TIME  07:23:16 19-Jul-21
 STEP.S                   0.00: STEP TIME
 NULL.                 -999.25: NULL VALUE
 MDS .        Operator Entered:  MAG DATA SOURCE
 PDAT.          Mean Sea Level:  PERMANENT DATUM
 UNIT.                     N/A:  LOGGING EQUIPMENT ID
 DCON.         Sperry Drilling:  DIRECTNL CONTR
 DOE .                     N/A:  DOE NUMBER
 RIG .              West Azeri:  RIG NAME
 JOBN.        AZ-XX-0906997913:  JOB TICKET NUMB
 WELL.                     C41:  WELL NAME
 MWDS.                    Baku:  MWD SHOP
 SRVC.          Turan Drilling:  CONTRACTOR
 FLD .                     ACG:  FIELD NAME
 CTRY.              Azerbaijan:  COUNTRY NAME
 PROV.                    Baku:  PROVINCE
 STAT.                    Baku:  STATE NAME
 REGN.                   EESSA:  REGION
 BASE.              Azerbaijan:  LOGGING EQUIPMENT BASE LOCATION
 UWI .                     N/A:  UNIQUE WELL IDENTIFIER
 API .                     N/A:  API NUMBER
 COMP.     BP Exploration (Caspian Sea) Ltd.:  COMPANY
 WTYP.                Deviated:  WELL TYPE
 SON .        AZ-XX-0906997913:  JOB NUMBER
 FTOP.          Formation Tops:  FORM TOPS DESC
 ILTD.               Lithology:  INTERP LTH DESC
 SVYD.                  Survey:  SURVEY DESC
 DMOD.             Drill Model:  DRILL MOD DESC
 HPTY.       Minimum Curvature:  HOLE POS TYPE
 NREF.                    Grid:  NORTH REFERENCE
 SPUD.               16-May-21:  SPUD DATE
 DATE.      21.11.28 17-May-21:  END TIME
 STIM.      21.11.28 17-May-21:  START TIME
 DMF .             Drill Floor:  DRILL MEAS FROM
 DFST.                        :  DIST FSL TEXT
 DFWT.                        :  DIST FWL TEXT
 CNTY.                        :  COUNTY
 LOC .                        :  LOCATION
 LMF .             Drill Floor:  LOG MEASURED FROM
 AGAP.m                  43.42:  AIR GAP
 VSNS.m                  -2.16:  VERT SEC N/S
 VSEW.m                  -6.24:  VERT SEC E/W
 APD .m                  43.42:  DEPTH ABOVE PD
 WDMS.m                 118.27:  WD ELEV
 EGL .m                   0.00:  GROUND ELEVATION
 EPD .m                   0.00:  ELEVATION
 AZTC.deg                 6.29:  AZM TOTAL CORR
 GRDC.deg                 0.18:  GRID CORRECTION
 MDEC.deg                 6.47:  MAGNETIC DECL
 MDIP.deg                59.54:  MAGNETIC DIP
 MFLD.nT              50337.00:  MAGNETIC FIELD
 GVFD.g                   1.00:  GRAVITY FIELD
 VSDR.deg               226.99:  VERT SEC DIRECT
 TDD .m                   0.00:  TOTAL DEPTH (DRILLER)
 SDEP.m                 448.00:  START DEPTH
 DFSL.m                   0.00:  DISTANCE FSL
 DFWL.m                   0.00:  DISTANCE FWL
 UTMY.m             4435799.96:  UTM Y
 UTMX.m              526265.35:  UTM X
 WHEW.m                  -6.24:  WELL HEAD E/W
 WHNS.m                  -2.16:  WELL HEAD N/S
 LONG.deg                51.31:  LONGITUDE
 LATI.deg                40.06:  LATITUDE
 TVDS.m                  43.42:  TVDSS CORRECTN
 EKB .m                  43.42:  KB ELEVATION
 EDF .m                  43.42:  DF ELEVATION
 TDL .m                 288.00:  TOTAL DEPTH (LOGGER)
 MAGU.                 1851863:  MAGUTM CHECKSUM
 VSC .                       0:  VS TO CLOSURE
~Parameter Information Block
#MNEM.UNIT       Value        Description
#---------     -----------    ---------------------------
 AV  .mps                 0.40:  Ann Velocity 
 AVMX.mps                 0.63:  Max Ann Veloc 
 AZIF.deg               158.76:  Azm, Final 
 BHAT.        Rotary Steerable:  BHA Type 
 BROT.°/30m               0.68:  Build Rotating 
 BS  .in                  8.50:  Bit Size 
 BSZ .in                  8.50:  Bit Size 
 BTPL.psig              712.00:  Bit Press Loss 
 CABU.                      No:  Customer Abuse 
 COMM.                     ôK:  Run Comments 1 
 TCS .hr                 90.66:  Time Ciculation Ended 
 CV  .mps                 2.02:  Crit Velocity 
 CVMX.mps                 2.14:  Max Crit Veloc 
 DD1 .            Aziz Aliyevu:  Direct Drillr 1 
 DD2 .             Samir Abbas:  Direct Drillr 2 
 DD3 .           Teymur Aliyev:  Direct Drillr 3 
 DDSV.                 iCruise:  DD Service 
 DEFF.%                  85.10:  % Det Eff 
 DLRX.°/30m               1.05:  Dogleg Rot Max 
 DLSO.°/30m               1.01:  Dogleg Oriented 
 DLSX.°/30m               1.05:  Dogleg Str Max 
 DRET.      07.45.00 18-Jul-21:  Drill End Time 
 DRST.      15.00.00 16-Jul-21:  Drill Start Tim 
 DTIM.hr                 23.46:  Time Drilling 
 EDEP.m                4603.00:  End Depth 
 ENG1.       Seymur Iskandarov:  Engineer 1 
 ENG2.         Yevgeniy Ulikov:  Engineer 2 
 ENG3.         Bahruz Mehdiyev:  Engineer 3 
 ENG4.         Elchin Mammadov:  Engineer 4 
 ETIM.      14.00.00 23-Jul-21:  End Time 
 FLOI.gpm               500.00:  Flow In 
 FLON.gpm               450.00:  Flow In Min 
 FLOS.cptm                0.00:  Fluid Loss 
 FLOX.gpm               560.00:  Flow In Max 
 DFT .        Mineral Oil Base:  Mud Type 
 FTRO.       Formation Presure:  FTWD Run Obj 
 HFLO.                      No:  High Flow 
 HPRE.                      No:  High Pressure 
 HTEM.                      No:  High Temp 
 HYDO.m                   1.80:  Hydro Offset 
 IFIN.deg                40.22:  Inc, Final 
 IMAX.deg                40.54:  Inc Max 
 IMIN.deg                39.44:  Inc Min 
 IMND.m                4361.17:  Inc Min Depth 
 IMXD.m                4417.92:  Inc Max Depth 
 JARR.                      No:  Jarring 
 LETM.      07.45.00 18-Jul-21:  Log End Time 
 LOST.hr                    16:  Lost Rig Time 
 LSTM.      15.00.00 16-Jul-21:  Log Start Time 
 MDCL.ppm             36500.00:  Mud Chlorides 
 MDES.     Inversion Oil/Synthetic:  Mud Desc 
 DFD .sg                  1.42:  Mud Density 
 MDMN.sg                  1.42:  Dens Mud Min 
 MDMX.sg                  1.43:  Dens Mud Max 
 MOIL.                      56:  Run Mud Oil % 
 MOWR.                   71:29:  Run Mud OWR 
 MSND.                     0.5:  Run Mud Sand % 
 MSOL.                      21:  Run Mud Solids% 
 DFV .spqt               78.00:  Mud Viscosity 
 MWOD.in                  6.75:  MWD Tool OD 
 MWSI.                     Yes:  Serv Intrp, MWD 
 OTIM.hr                200.73:  Time Operating 
 PCON.           Look Like New:  Pad Condition 
 PMAX.psia            11069.93:  Press Op, Max 
 PV  .cP                 32.00:  Mud PV 
 RUN .                     700:  Run Number 
 ROPA.m/hr               10.00:  ROP Avg 
 ROPN.m/hr                9.00:  ROP Min 
 ROPX.m/hr               16.00:  ROP Max 
 RPMA.rpm               116.00:  RPM Surface Avg 
 RPMN.rpm                80.00:  RPM Surface Min 
 RPMX.rpm               120.00:  RPM Surface Max 
 RRUN.                    L605:  Rig Run Number 
 RTIM.hr                 45.00:  Time Reaming 
 SAZI.deg               159.86:  Azm, Start 
 SDEP.m                4315.00:  Start Depth 
 SIDD.                      No:  Serv Intrp, DD 
 SINC.deg                39.86:  Inc, Start 
 SPPA.psig             3300.00:  SPP Avg 
 SPPN.psig             3040.00:  SPP Min 
 SPPX.psig             3645.00:  SPP Max 
 STIM.      01.00.00 15-Jul-21:  Start Time 
 SVCS.                 DD, MWD:  Services 
 SVER.                    9.20:  Sperry Version 
 TDAT.m                 288.00:  Tot Depth Attmp 
 TDDF.                      No:  Trip for DD 
 TDLG.m                 288.00:  Tot Depth Loggd 
 TFF .                      No:  Trip for Fail 
 TQAA.f-kp               19.00:  Torque Abs Avg 
 TQAN.f-kp               18.00:  Torque Abs Min 
 TQAX.f-kp               21.00:  Torque Abs Max 
 TRRT.°/30m               0.45:  Turn Rotating 
 MRT .                    HCIM:  Maximum Recorded Temperature 
 TTMX.degC               88.24:  Max Tool Temp 
 VS01.                90649157:  Virtual Str1 SN 
 VS02.                90652483:  Virtual Str2 SN 
 VS03.                11671987:  Virtual Str3 SN 
 VS04.                90643411:  Virtual Str4 SN 
 VS05.                90652478:  Virtual Str5 SN 
 VS06.                    6111:  Virtual Str6 SN 
 WBMN.klb                 9.50:  WOB Min 
 WITN.        Grigoriy Sarayev:  Customer Rep 
 WITN.          Rufat Huseynov:  Customer Rep 2 
 WOBA.klb                11.00:  WOB Avg 
 WOBX.klb                15.00:  WOB Max 
 YP  .lhf2               28.00:  Yield Point 
~Curve Information Block
#MNEM.UNIT                 API CODE     Curve Description
#---------               -----------    ---------------------------
 TIME.HHMMSS            00 000 000 000:  GT Time & Date
 GTDEPTH.m              00 000 000 000:  GT Depth
 GTPQH.psia             00 000 000 000:  GT HR Quartz Pressure
 GTTQ.degC              00 000 000 000:  GT Quartz Temperature
 GTTN.NONE              00 000 000 000:  GT Test Number
 GTET.sec               00 000 000 000:  GT Elapsed Test Time
 GTTVD.m                00 000 000 000:  GT True Vertical Depth
#Other Information
#
#WARRANTY: Halliburton will use its best efforts to furnish customers with 
#accurate information and interpretations that are part of, and incident to, the services 
#provided.  However, Halliburton cannot and does not warrant the accuracy 
#or correctness of such information and interpretations.  Under no circumstances should any 
#such information or interpretation be relied upon as the sole basis for any drilling, 
#completion, production, or financial decision or any procedure involving any risk to the 
#safety of any drilling venture, drilling rig or its crew or any other third party.  The 
#Customer has full responsibility for all drilling, completion and production operation.  
#Halliburton makes no representations or warranties, either expressed or 
#implied, including, but not limited to, the implied warranties of merchantability or fitness 
#for a particular purpose, with respect to the services rendered.  In no event will 
#Halliburton be liable for failure to obtain any particular results or for 
#any damages, including, but not limited to, indirect, special or consequential damages, 
#resulting from the use of any information or interpretation provided by Halliburton.
#
~A           TIME           GTDEPTH  GTPQH  GTTQ  GTTN   GTET   GTTVD  
# ...
   07:18:57.872.19-Jul-2021 4406.50 4330.37 69.77 15.00 158.26 2628.90
   07:18:58.072.19-Jul-2021 4406.50 4330.37 69.77 15.00 158.46 2628.90
   07:18:58.272.19-Jul-2021 4406.50 4330.23 69.77 15.00 158.66 2628.90
   07:18:58.472.19-Jul-2021 4406.50 4330.48 69.77 15.00 158.86 2628.90
   07:18:58.673.19-Jul-2021 4406.50 4330.48 69.77 15.00 159.06 2628.90
   07:18:58.873.19-Jul-2021 4406.50 4330.48 69.77 15.00 159.26 2628.90
   07:18:59.073.19-Jul-2021 4406.50 4330.78 69.77 15.00 159.46 2628.90
   07:18:59.273.19-Jul-2021 4406.50 4330.44 69.77 15.00 159.66 2628.90
   07:18:59.473.19-Jul-2021 4406.50 4330.56 69.77 15.00 159.86 2628.90
   07:18:59.673.19-Jul-2021 4406.50 4330.56 69.77 15.00 160.06 2628.90
   07:18:59.873.19-Jul-2021 4406.50 4330.56 69.77 15.00 160.26 2628.90
   07:19:00.073.19-Jul-2021 4406.50 4330.48 69.77 15.00 160.46 2628.90
   07:19:00.273.19-Jul-2021 4406.50 4330.48 69.77 15.00 160.66 2628.90
   07:19:00.473.19-Jul-2021 4406.50 4330.64 69.77 15.00 160.86 2628.90
   07:19:00.673.19-Jul-2021 4406.50 4330.58 69.77 15.00 161.06 2628.90
   07:19:00.873.19-Jul-2021 4406.50 4330.58 69.77 15.00 161.26 2628.90
   07:19:01.073.19-Jul-2021 4406.50 4330.61 69.77 15.00 161.46 2628.90
   07:19:01.274.19-Jul-2021 4406.50 4330.62 69.77 15.00 161.66 2628.90
   07:19:01.474.19-Jul-2021 4406.50 4330.58 69.77 15.00 161.86 2628.90
   07:19:01.674.19-Jul-2021 4406.50 4330.70 69.77 15.00 162.06 2628.90
   07:19:01.874.19-Jul-2021 4406.50 4330.70 69.77 15.00 162.26 2628.90
   07:19:02.074.19-Jul-2021 4406.50 4330.68 69.77 15.00 162.46 2628.90
   07:19:02.274.19-Jul-2021 4406.50 4330.92 69.77 15.00 162.66 2628.90
   07:19:02.474.19-Jul-2021 4406.50 4330.41 69.77 15.00 162.86 2628.90
   07:19:02.674.19-Jul-2021 4406.50 4330.72 69.77 15.00 163.06 2628.90
   07:19:02.874.19-Jul-2021 4406.50 4330.72 69.77 15.00 163.26 2628.90
   07:19:03.074.19-Jul-2021 4406.50 4330.55 69.77 15.00 163.46 2628.90
   07:19:03.274.19-Jul-2021 4406.50 4330.73 69.77 15.00 163.66 2628.90
   07:19:03.474.19-Jul-2021 4406.50 4330.64 69.77 15.00 163.86 2628.90
   07:19:03.674.19-Jul-2021 4406.50 4330.78 69.77 15.00 164.06 2628.90
   07:19:03.874.19-Jul-2021 4406.50 4330.78 69.77 15.00 164.26 2628.90
   07:19:04.075.19-Jul-2021 4406.50 4330.77 69.77 15.00 164.46 2628.90
   07:19:04.275.19-Jul-2021 4406.50 4330.74 69.77 15.00 164.66 2628.90
   07:19:04.475.19-Jul-2021 4406.50 4330.71 69.77 15.00 164.86 2628.90
   07:19:04.675.19-Jul-2021 4406.50 4330.73 69.77 15.00 165.06 2628.90
   07:19:04.875.19-Jul-2021 4406.50 4330.73 69.77 15.00 165.26 2628.90
   07:19:05.075.19-Jul-2021 4406.50 4330.54 69.77 15.00 165.46 2628.90
   07:19:05.275.19-Jul-2021 4406.50 4330.86 69.77 15.00 165.66 2628.90
   07:19:05.475.19-Jul-2021 4406.50 4331.10 69.77 15.00 165.86 2628.90
   07:19:05.675.19-Jul-2021 4406.50 4330.28 69.77 15.00 166.06 2628.90
   07:19:05.875.19-Jul-2021 4406.50 4330.28 69.77 15.00 166.26 2628.90
   07:19:06.075.19-Jul-2021 4406.50 4330.74 69.77 15.00 166.46 2628.90
   07:19:06.275.19-Jul-2021 4406.50 4330.82 69.77 15.00 166.66 2628.90
   07:19:06.475.19-Jul-2021 4406.50 4330.76 69.77 15.00 166.86 2628.90
   07:19:06.676.19-Jul-2021 4406.50 4330.74 69.77 15.00 167.06 2628.90
   07:19:06.876.19-Jul-2021 4406.50 4330.74 69.77 15.00 167.26 2628.90
   07:19:07.076.19-Jul-2021 4406.50 4331.50 69.77 15.00 167.46 2628.90
   07:19:07.276.19-Jul-2021 4406.50 4330.13 69.77 15.00 167.66 2628.90
   07:19:07.476.19-Jul-2021 4406.50 4331.01 69.77 15.00 167.86 2628.90
   07:19:07.676.19-Jul-2021 4406.50 4330.55 69.77 15.00 168.06 2628.90
   07:19:07.876.19-Jul-2021 4406.50 4330.55 69.77 15.00 168.26 2628.90
   07:19:08.076.19-Jul-2021 4406.50 4330.59 69.77 15.00 168.46 2628.90
   07:19:08.276.19-Jul-2021 4406.50 4330.64 69.77 15.00 168.66 2628.90
   07:19:08.476.19-Jul-2021 4406.50 4331.06 69.77 15.00 168.86 2628.90
   07:19:08.676.19-Jul-2021 4406.50 4330.60 69.77 15.00 169.06 2628.90
   07:19:08.876.19-Jul-2021 4406.50 4330.60 69.77 15.00 169.26 2628.90
   07:19:09.076.19-Jul-2021 4406.50 4330.91 69.77 15.00 169.46 2628.90
   07:19:09.276.19-Jul-2021 4406.50 4330.77 69.77 15.00 169.66 2628.90
   07:19:09.477.19-Jul-2021 4406.50 4330.71 69.77 15.00 169.86 2628.90
   07:19:09.677.19-Jul-2021 4406.50 4330.88 69.77 15.00 170.06 2628.90
   07:19:09.877.19-Jul-2021 4406.50 4330.88 69.77 15.00 170.26 2628.90
   07:19:10.077.19-Jul-2021 4406.50 4330.85 69.77 15.00 170.46 2628.90
   07:19:10.277.19-Jul-2021 4406.50 4330.82 69.77 15.00 170.66 2628.90
   07:19:10.477.19-Jul-2021 4406.50 4330.79 69.77 15.00 170.86 2628.90
   07:19:10.677.19-Jul-2021 4406.50 4331.02 69.77 15.00 171.06 2628.90
   07:19:10.877.19-Jul-2021 4406.50 4331.02 69.77 15.00 171.26 2628.90
   07:19:11.077.19-Jul-2021 4406.50 4330.92 69.77 15.00 171.46 2628.90
   07:19:11.277.19-Jul-2021 4406.50 4330.85 69.77 15.00 171.66 2628.90
   07:19:11.477.19-Jul-2021 4406.50 4330.67 69.77 15.00 171.86 2628.90
   07:19:11.677.19-Jul-2021 4406.50 4330.85 69.77 15.00 172.06 2628.90
   07:19:11.877.19-Jul-2021 4406.50 4330.85 69.77 15.00 172.26 2628.90
   07:19:12.077.19-Jul-2021 4406.50 4330.76 69.77 15.00 172.46 2628.90
   07:19:12.278.19-Jul-2021 4406.50 4330.83 69.77 15.00 172.66 2628.90
   07:19:12.478.19-Jul-2021 4406.50 4330.83 69.77 15.00 172.86 2628.90
   07:19:12.678.19-Jul-2021 4406.50 4330.82 69.77 15.00 173.06 2628.90
   07:19:12.878.19-Jul-2021 4406.50 4330.82 69.77 15.00 173.26 2628.90
   07:19:13.078.19-Jul-2021 4406.50 4330.78 69.77 15.00 173.46 2628.90
   07:19:13.278.19-Jul-2021 4406.50 4331.15 69.77 15.00 173.66 2628.90
   07:19:13.478.19-Jul-2021 4406.50 4330.65 69.77 15.00 173.86 2628.90
   07:19:13.678.19-Jul-2021 4406.50 4330.76 69.77 15.00 174.06 2628.90
   07:19:13.878.19-Jul-2021 4406.50 4330.76 69.77 15.00 174.26 2628.90
   07:19:14.078.19-Jul-2021 4406.50 4330.54 69.77 15.00 174.46 2628.90
   07:19:14.278.19-Jul-2021 4406.50 4330.86 69.77 15.00 174.66 2628.90
   07:19:14.478.19-Jul-2021 4406.50 4330.76 69.77 15.00 174.86 2628.90
   07:19:14.678.19-Jul-2021 4406.50 4330.79 69.77 15.00 175.06 2628.90
   07:19:14.879.19-Jul-2021 4406.50 4330.79 69.77 15.00 175.26 2628.90
   07:19:15.079.19-Jul-2021 4406.50 4330.87 69.77 15.00 175.46 2628.90
   07:19:15.279.19-Jul-2021 4406.50 4330.68 69.77 15.00 175.66 2628.90
   07:19:15.479.19-Jul-2021 4406.50 4330.91 69.77 15.00 175.86 2628.90
   07:19:15.679.19-Jul-2021 4406.50 4330.96 69.77 15.00 176.06 2628.90
   07:19:15.879.19-Jul-2021 4406.50 4330.96 69.77 15.00 176.26 2628.90
   07:19:16.079.19-Jul-2021 4406.50 4331.52 69.77 15.00 176.46 2628.90
   07:19:16.279.19-Jul-2021 4406.50 4330.69 69.77 15.00 176.67 2628.90
   07:19:16.479.19-Jul-2021 4406.50 4331.05 69.77 15.00 176.87 2628.90
   07:19:16.679.19-Jul-2021 4406.50 4330.63 69.77 15.00 177.07 2628.90
   07:19:16.879.19-Jul-2021 4406.50 4330.63 69.77 15.00 177.27 2628.90
   07:19:17.079.19-Jul-2021 4406.50 4330.78 69.77 15.00 177.47 2628.90
   07:19:17.279.19-Jul-2021 4406.50 4330.97 69.77 15.00 177.67 2628.90
   07:19:17.479.19-Jul-2021 4406.50 4330.85 69.77 15.00 177.87 2628.90
   07:19:17.680.19-Jul-2021 4406.50 4330.92 69.77 15.00 178.07 2628.90
   07:19:17.880.19-Jul-2021 4406.50 4330.92 69.77 15.00 178.27 2628.90
   07:19:18.080.19-Jul-2021 4406.50 4330.89 69.77 15.00 178.47 2628.90
   07:19:18.280.19-Jul-2021 4406.50 4330.92 69.77 15.00 178.67 2628.90
   07:19:18.480.19-Jul-2021 4406.50 4330.92 69.77 15.00 178.87 2628.90
   07:19:18.680.19-Jul-2021 4406.50 4331.00 69.77 15.00 179.07 2628.90
   07:19:18.880.19-Jul-2021 4406.50 4331.00 69.77 15.00 179.27 2628.90
   07:19:19.080.19-Jul-2021 4406.50 4331.12 69.77 15.00 179.47 2628.90
   07:19:19.280.19-Jul-2021 4406.50 4330.76 69.77 15.00 179.67 2628.90
   07:19:19.480.19-Jul-2021 4406.50 4330.95 69.77 15.00 179.87 2628.90
   07:19:19.680.19-Jul-2021 4406.50 4330.91 69.77 15.00 180.07 2628.90
   07:19:19.880.19-Jul-2021 4406.50 4330.91 69.77 15.00 180.27 2628.90
   07:19:20.080.19-Jul-2021 4406.50 4330.84 69.77 15.00 180.47 2628.90
   07:19:20.281.19-Jul-2021 4406.50 4330.88 69.77 15.00 180.67 2628.90
