~Version Information
 VERS.                  2.0:   CWLS log ASCII Standard -VERSION 2.0
 WRAP.                   NO:   One line per depth step
~Well Information Block
#MNEM.UNIT     VALUE/NAME     DESCRIPTION
#---------     -----------    ---------------------------
 STRT.S             10:41:06 19-Jul-21: START TIME 10:41:06 19-Jul-21
 STOP.S             10:48:00 19-Jul-21: STOP TIME  10:48:00 19-Jul-21
 STEP.S                   0.00: STEP TIME
 NULL.                 -999.25: NULL VALUE
 MDS .        Operator Entered:  MAG DATA SOURCE
 PDAT.          Mean Sea Level:  PERMANENT DATUM
 UNIT.                     N/A:  LOGGING EQUIPMENT ID
 DCON.         Sperry Drilling:  DIRECTNL CONTR
 DOE .                     N/A:  DOE NUMBER
 RIG .              West Azeri:  RIG NAME
 JOBN.        AZ-XX-0906997913:  JOB TICKET NUMB
 WELL.                     C41:  WELL NAME
 MWDS.                    Baku:  MWD SHOP
 SRVC.          Turan Drilling:  CONTRACTOR
 FLD .                     ACG:  FIELD NAME
 CTRY.              Azerbaijan:  COUNTRY NAME
 PROV.                    Baku:  PROVINCE
 STAT.                    Baku:  STATE NAME
 REGN.                   EESSA:  REGION
 BASE.              Azerbaijan:  LOGGING EQUIPMENT BASE LOCATION
 UWI .                     N/A:  UNIQUE WELL IDENTIFIER
 API .                     N/A:  API NUMBER
 COMP.     BP Exploration (Caspian Sea) Ltd.:  COMPANY
 WTYP.                Deviated:  WELL TYPE
 SON .        AZ-XX-0906997913:  JOB NUMBER
 FTOP.          Formation Tops:  FORM TOPS DESC
 ILTD.               Lithology:  INTERP LTH DESC
 SVYD.                  Survey:  SURVEY DESC
 DMOD.             Drill Model:  DRILL MOD DESC
 HPTY.       Minimum Curvature:  HOLE POS TYPE
 NREF.                    Grid:  NORTH REFERENCE
 SPUD.               16-May-21:  SPUD DATE
 DATE.      21.11.28 17-May-21:  END TIME
 STIM.      21.11.28 17-May-21:  START TIME
 DMF .             Drill Floor:  DRILL MEAS FROM
 DFST.                        :  DIST FSL TEXT
 DFWT.                        :  DIST FWL TEXT
 CNTY.                        :  COUNTY
 LOC .                        :  LOCATION
 LMF .             Drill Floor:  LOG MEASURED FROM
 AGAP.m                  43.42:  AIR GAP
 VSNS.m                  -2.16:  VERT SEC N/S
 VSEW.m                  -6.24:  VERT SEC E/W
 APD .m                  43.42:  DEPTH ABOVE PD
 WDMS.m                 118.27:  WD ELEV
 EGL .m                   0.00:  GROUND ELEVATION
 EPD .m                   0.00:  ELEVATION
 AZTC.deg                 6.29:  AZM TOTAL CORR
 GRDC.deg                 0.18:  GRID CORRECTION
 MDEC.deg                 6.47:  MAGNETIC DECL
 MDIP.deg                59.54:  MAGNETIC DIP
 MFLD.nT              50337.00:  MAGNETIC FIELD
 GVFD.g                   1.00:  GRAVITY FIELD
 VSDR.deg               226.99:  VERT SEC DIRECT
 TDD .m                   0.00:  TOTAL DEPTH (DRILLER)
 SDEP.m                 448.00:  START DEPTH
 DFSL.m                   0.00:  DISTANCE FSL
 DFWL.m                   0.00:  DISTANCE FWL
 UTMY.m             4435799.96:  UTM Y
 UTMX.m              526265.35:  UTM X
 WHEW.m                  -6.24:  WELL HEAD E/W
 WHNS.m                  -2.16:  WELL HEAD N/S
 LONG.deg                51.31:  LONGITUDE
 LATI.deg                40.06:  LATITUDE
 TVDS.m                  43.42:  TVDSS CORRECTN
 EKB .m                  43.42:  KB ELEVATION
 EDF .m                  43.42:  DF ELEVATION
 TDL .m                 288.00:  TOTAL DEPTH (LOGGER)
 MAGU.                 1851863:  MAGUTM CHECKSUM
 VSC .                       0:  VS TO CLOSURE
~Parameter Information Block
#MNEM.UNIT       Value        Description
#---------     -----------    ---------------------------
 AV  .mps                 0.40:  Ann Velocity 
 AVMX.mps                 0.63:  Max Ann Veloc 
 AZIF.deg               158.76:  Azm, Final 
 BHAT.        Rotary Steerable:  BHA Type 
 BROT.°/30m               0.68:  Build Rotating 
 BS  .in                  8.50:  Bit Size 
 BSZ .in                  8.50:  Bit Size 
 BTPL.psig              712.00:  Bit Press Loss 
 CABU.                      No:  Customer Abuse 
 COMM.                     ÄòJ:  Run Comments 1 
 TCS .hr                 90.66:  Time Ciculation Ended 
 CV  .mps                 2.02:  Crit Velocity 
 CVMX.mps                 2.14:  Max Crit Veloc 
 DD1 .            Aziz Aliyevu:  Direct Drillr 1 
 DD2 .             Samir Abbas:  Direct Drillr 2 
 DD3 .           Teymur Aliyev:  Direct Drillr 3 
 DDSV.                 iCruise:  DD Service 
 DEFF.%                  85.10:  % Det Eff 
 DLRX.°/30m               1.05:  Dogleg Rot Max 
 DLSO.°/30m               1.01:  Dogleg Oriented 
 DLSX.°/30m               1.05:  Dogleg Str Max 
 DRET.      07.45.00 18-Jul-21:  Drill End Time 
 DRST.      15.00.00 16-Jul-21:  Drill Start Tim 
 DTIM.hr                 23.46:  Time Drilling 
 EDEP.m                4603.00:  End Depth 
 ENG1.       Seymur Iskandarov:  Engineer 1 
 ENG2.         Yevgeniy Ulikov:  Engineer 2 
 ENG3.         Bahruz Mehdiyev:  Engineer 3 
 ENG4.         Elchin Mammadov:  Engineer 4 
 ETIM.      14.00.00 23-Jul-21:  End Time 
 FLOI.gpm               500.00:  Flow In 
 FLON.gpm               450.00:  Flow In Min 
 FLOS.cptm                0.00:  Fluid Loss 
 FLOX.gpm               560.00:  Flow In Max 
 DFT .        Mineral Oil Base:  Mud Type 
 FTRO.       Formation Presure:  FTWD Run Obj 
 HFLO.                      No:  High Flow 
 HPRE.                      No:  High Pressure 
 HTEM.                      No:  High Temp 
 HYDO.m                   1.80:  Hydro Offset 
 IFIN.deg                40.22:  Inc, Final 
 IMAX.deg                40.54:  Inc Max 
 IMIN.deg                39.44:  Inc Min 
 IMND.m                4361.17:  Inc Min Depth 
 IMXD.m                4417.92:  Inc Max Depth 
 JARR.                      No:  Jarring 
 LETM.      07.45.00 18-Jul-21:  Log End Time 
 LOST.hr                    16:  Lost Rig Time 
 LSTM.      15.00.00 16-Jul-21:  Log Start Time 
 MDCL.ppm             36500.00:  Mud Chlorides 
 MDES.     Inversion Oil/Synthetic:  Mud Desc 
 DFD .sg                  1.42:  Mud Density 
 MDMN.sg                  1.42:  Dens Mud Min 
 MDMX.sg                  1.43:  Dens Mud Max 
 MOIL.                      56:  Run Mud Oil % 
 MOWR.                   71:29:  Run Mud OWR 
 MSND.                     0.5:  Run Mud Sand % 
 MSOL.                      21:  Run Mud Solids% 
 DFV .spqt               78.00:  Mud Viscosity 
 MWOD.in                  6.75:  MWD Tool OD 
 MWSI.                     Yes:  Serv Intrp, MWD 
 OTIM.hr                200.73:  Time Operating 
 PCON.           Look Like New:  Pad Condition 
 PMAX.psia            11069.93:  Press Op, Max 
 PV  .cP                 32.00:  Mud PV 
 RUN .                     700:  Run Number 
 ROPA.m/hr               10.00:  ROP Avg 
 ROPN.m/hr                9.00:  ROP Min 
 ROPX.m/hr               16.00:  ROP Max 
 RPMA.rpm               116.00:  RPM Surface Avg 
 RPMN.rpm                80.00:  RPM Surface Min 
 RPMX.rpm               120.00:  RPM Surface Max 
 RRUN.                    L605:  Rig Run Number 
 RTIM.hr                 45.00:  Time Reaming 
 SAZI.deg               159.86:  Azm, Start 
 SDEP.m                4315.00:  Start Depth 
 SIDD.                      No:  Serv Intrp, DD 
 SINC.deg                39.86:  Inc, Start 
 SPPA.psig             3300.00:  SPP Avg 
 SPPN.psig             3040.00:  SPP Min 
 SPPX.psig             3645.00:  SPP Max 
 STIM.      01.00.00 15-Jul-21:  Start Time 
 SVCS.                 DD, MWD:  Services 
 SVER.                    9.20:  Sperry Version 
 TDAT.m                 288.00:  Tot Depth Attmp 
 TDDF.                      No:  Trip for DD 
 TDLG.m                 288.00:  Tot Depth Loggd 
 TFF .                      No:  Trip for Fail 
 TQAA.f-kp               19.00:  Torque Abs Avg 
 TQAN.f-kp               18.00:  Torque Abs Min 
 TQAX.f-kp               21.00:  Torque Abs Max 
 TRRT.°/30m               0.45:  Turn Rotating 
 MRT .                    HCIM:  Maximum Recorded Temperature 
 TTMX.degC               88.24:  Max Tool Temp 
 VS01.                90649157:  Virtual Str1 SN 
 VS02.                90652483:  Virtual Str2 SN 
 VS03.                11671987:  Virtual Str3 SN 
 VS04.                90643411:  Virtual Str4 SN 
 VS05.                90652478:  Virtual Str5 SN 
 VS06.                    6111:  Virtual Str6 SN 
 WBMN.klb                 9.50:  WOB Min 
 WITN.        Grigoriy Sarayev:  Customer Rep 
 WITN.          Rufat Huseynov:  Customer Rep 2 
 WOBA.klb                11.00:  WOB Avg 
 WOBX.klb                15.00:  WOB Max 
 YP  .lhf2               28.00:  Yield Point 
~Curve Information Block
#MNEM.UNIT                 API CODE     Curve Description
#---------               -----------    ---------------------------
 TIME.HHMMSS            00 000 000 000:  GT Time & Date
 GTDEPTH.m              00 000 000 000:  GT Depth
 GTPQH.psia             00 000 000 000:  GT HR Quartz Pressure
 GTTQ.degC              00 000 000 000:  GT Quartz Temperature
 GTTN.NONE              00 000 000 000:  GT Test Number
 GTET.sec               00 000 000 000:  GT Elapsed Test Time
 GTTVD.m                00 000 000 000:  GT True Vertical Depth
#Other Information
#
#WARRANTY: Halliburton will use its best efforts to furnish customers with 
#accurate information and interpretations that are part of, and incident to, the services 
#provided.  However, Halliburton cannot and does not warrant the accuracy 
#or correctness of such information and interpretations.  Under no circumstances should any 
#such information or interpretation be relied upon as the sole basis for any drilling, 
#completion, production, or financial decision or any procedure involving any risk to the 
#safety of any drilling venture, drilling rig or its crew or any other third party.  The 
#Customer has full responsibility for all drilling, completion and production operation.  
#Halliburton makes no representations or warranties, either expressed or 
#implied, including, but not limited to, the implied warranties of merchantability or fitness 
#for a particular purpose, with respect to the services rendered.  In no event will 
#Halliburton be liable for failure to obtain any particular results or for 
#any damages, including, but not limited to, indirect, special or consequential damages, 
#resulting from the use of any information or interpretation provided by Halliburton.
#
~A           TIME           GTDEPTH  GTPQH  GTTQ  GTTN   GTET   GTTVD  
# ...
   10:43:44.396.19-Jul-2021 4492.50 3545.03 70.55 23.00 158.26 2694.52
   10:43:44.596.19-Jul-2021 4492.50 3545.04 70.55 23.00 158.46 2694.52
   10:43:44.796.19-Jul-2021 4492.50 3545.06 70.55 23.00 158.66 2694.52
   10:43:44.997.19-Jul-2021 4492.50 3544.87 70.55 23.00 158.86 2694.52
   10:43:45.197.19-Jul-2021 4492.50 3545.08 70.55 23.00 159.06 2694.52
   10:43:45.397.19-Jul-2021 4492.50 3545.08 70.55 23.00 159.26 2694.52
   10:43:45.597.19-Jul-2021 4492.50 3545.06 70.55 23.00 159.46 2694.52
   10:43:45.797.19-Jul-2021 4492.50 3544.97 70.55 23.00 159.66 2694.52
   10:43:45.997.19-Jul-2021 4492.50 3545.01 70.55 23.00 159.86 2694.52
   10:43:46.197.19-Jul-2021 4492.50 3544.98 70.55 23.00 160.06 2694.52
   10:43:46.397.19-Jul-2021 4492.50 3544.98 70.55 23.00 160.26 2694.52
   10:43:46.597.19-Jul-2021 4492.50 3545.03 70.55 23.00 160.46 2694.52
   10:43:46.797.19-Jul-2021 4492.50 3544.97 70.55 23.00 160.66 2694.52
   10:43:46.997.19-Jul-2021 4492.50 3545.07 70.55 23.00 160.86 2694.52
   10:43:47.197.19-Jul-2021 4492.50 3544.99 70.55 23.00 161.06 2694.52
   10:43:47.397.19-Jul-2021 4492.50 3544.99 70.55 23.00 161.26 2694.52
   10:43:47.597.19-Jul-2021 4492.50 3545.04 70.55 23.00 161.46 2694.52
   10:43:47.798.19-Jul-2021 4492.50 3544.94 70.55 23.00 161.66 2694.52
   10:43:47.998.19-Jul-2021 4492.50 3545.26 70.55 23.00 161.86 2694.52
   10:43:48.198.19-Jul-2021 4492.50 3544.93 70.55 23.00 162.06 2694.52
   10:43:48.398.19-Jul-2021 4492.50 3544.93 70.55 23.00 162.26 2694.52
   10:43:48.598.19-Jul-2021 4492.50 3545.02 70.55 23.00 162.46 2694.52
   10:43:48.798.19-Jul-2021 4492.50 3545.09 70.55 23.00 162.66 2694.52
   10:43:48.998.19-Jul-2021 4492.50 3545.10 70.55 23.00 162.86 2694.52
   10:43:49.198.19-Jul-2021 4492.50 3544.85 70.55 23.00 163.06 2694.52
   10:43:49.398.19-Jul-2021 4492.50 3544.85 70.55 23.00 163.26 2694.52
   10:43:49.598.19-Jul-2021 4492.50 3545.15 70.55 23.00 163.46 2694.52
   10:43:49.798.19-Jul-2021 4492.50 3544.83 70.55 23.00 163.66 2694.52
   10:43:49.998.19-Jul-2021 4492.50 3545.16 70.55 23.00 163.86 2694.52
   10:43:50.198.19-Jul-2021 4492.50 3545.15 70.55 23.00 164.06 2694.52
   10:43:50.398.19-Jul-2021 4492.50 3545.15 70.55 23.00 164.26 2694.52
   10:43:50.599.19-Jul-2021 4492.50 3545.13 70.55 23.00 164.46 2694.52
   10:43:50.799.19-Jul-2021 4492.50 3545.06 70.55 23.00 164.66 2694.52
   10:43:50.999.19-Jul-2021 4492.50 3545.00 70.55 23.00 164.86 2694.52
   10:43:51.199.19-Jul-2021 4492.50 3545.05 70.55 23.00 165.06 2694.52
   10:43:51.399.19-Jul-2021 4492.50 3545.05 70.55 23.00 165.26 2694.52
   10:43:51.599.19-Jul-2021 4492.50 3545.03 70.55 23.00 165.46 2694.52
   10:43:51.799.19-Jul-2021 4492.50 3545.02 70.55 23.00 165.66 2694.52
   10:43:51.999.19-Jul-2021 4492.50 3545.08 70.55 23.00 165.86 2694.52
   10:43:52.199.19-Jul-2021 4492.50 3545.06 70.55 23.00 166.06 2694.52
   10:43:52.399.19-Jul-2021 4492.50 3545.06 70.55 23.00 166.26 2694.52
   10:43:52.599.19-Jul-2021 4492.50 3545.08 70.55 23.00 166.46 2694.52
   10:43:52.799.19-Jul-2021 4492.50 3545.04 70.55 23.00 166.66 2694.52
   10:43:52.999.19-Jul-2021 4492.50 3544.98 70.55 23.00 166.86 2694.52
   10:43:53.200.19-Jul-2021 4492.50 3545.18 70.55 23.00 167.06 2694.52
   10:43:53.400.19-Jul-2021 4492.50 3545.18 70.55 23.00 167.26 2694.52
   10:43:53.600.19-Jul-2021 4492.50 3545.10 70.55 23.00 167.46 2694.52
   10:43:53.800.19-Jul-2021 4492.50 3544.99 70.55 23.00 167.66 2694.52
   10:43:54.000.19-Jul-2021 4492.50 3545.03 70.55 23.00 167.86 2694.52
   10:43:54.200.19-Jul-2021 4492.50 3545.08 70.55 23.00 168.06 2694.52
   10:43:54.400.19-Jul-2021 4492.50 3545.08 70.55 23.00 168.26 2694.52
   10:43:54.600.19-Jul-2021 4492.50 3545.09 70.55 23.00 168.46 2694.52
   10:43:54.800.19-Jul-2021 4492.50 3545.09 70.55 23.00 168.66 2694.52
   10:43:55.000.19-Jul-2021 4492.50 3545.01 70.55 23.00 168.86 2694.52
   10:43:55.200.19-Jul-2021 4492.50 3545.13 70.55 23.00 169.06 2694.52
   10:43:55.400.19-Jul-2021 4492.50 3545.13 70.55 23.00 169.26 2694.52
   10:43:55.600.19-Jul-2021 4492.50 3545.01 70.55 23.00 169.46 2694.52
   10:43:55.800.19-Jul-2021 4492.50 3544.94 70.55 23.00 169.66 2694.52
   10:43:56.001.19-Jul-2021 4492.50 3545.04 70.55 23.00 169.86 2694.52
   10:43:56.201.19-Jul-2021 4492.50 3545.16 70.55 23.00 170.06 2694.52
   10:43:56.401.19-Jul-2021 4492.50 3545.16 70.55 23.00 170.26 2694.52
   10:43:56.601.19-Jul-2021 4492.50 3544.96 70.55 23.00 170.46 2694.52
   10:43:56.801.19-Jul-2021 4492.50 3545.14 70.55 23.00 170.66 2694.52
   10:43:57.001.19-Jul-2021 4492.50 3545.00 70.55 23.00 170.86 2694.52
   10:43:57.201.19-Jul-2021 4492.50 3544.95 70.55 23.00 171.06 2694.52
   10:43:57.401.19-Jul-2021 4492.50 3544.95 70.55 23.00 171.26 2694.52
   10:43:57.601.19-Jul-2021 4492.50 3545.00 70.55 23.00 171.46 2694.52
   10:43:57.801.19-Jul-2021 4492.50 3545.01 70.55 23.00 171.66 2694.52
   10:43:58.001.19-Jul-2021 4492.50 3545.09 70.55 23.00 171.86 2694.52
   10:43:58.201.19-Jul-2021 4492.50 3545.16 70.55 23.00 172.06 2694.52
   10:43:58.401.19-Jul-2021 4492.50 3545.16 70.55 23.00 172.26 2694.52
   10:43:58.602.19-Jul-2021 4492.50 3545.02 70.55 23.00 172.46 2694.52
   10:43:58.802.19-Jul-2021 4492.50 3545.08 70.55 23.00 172.66 2694.52
   10:43:59.002.19-Jul-2021 4492.50 3545.01 70.55 23.00 172.86 2694.52
   10:43:59.202.19-Jul-2021 4492.50 3545.21 70.55 23.00 173.06 2694.52
   10:43:59.402.19-Jul-2021 4492.50 3545.21 70.55 23.00 173.26 2694.52
   10:43:59.602.19-Jul-2021 4492.50 3544.95 70.55 23.00 173.46 2694.52
   10:43:59.802.19-Jul-2021 4492.50 3545.16 70.55 23.00 173.66 2694.52
   10:44:00.002.19-Jul-2021 4492.50 3544.97 70.55 23.00 173.86 2694.52
   10:44:00.202.19-Jul-2021 4492.50 3545.09 70.55 23.00 174.06 2694.52
   10:44:00.402.19-Jul-2021 4492.50 3545.09 70.55 23.00 174.26 2694.52
   10:44:00.602.19-Jul-2021 4492.50 3545.03 70.55 23.00 174.46 2694.52
   10:44:00.802.19-Jul-2021 4492.50 3545.10 70.55 23.00 174.66 2694.52
   10:44:01.002.19-Jul-2021 4492.50 3545.01 70.55 23.00 174.86 2694.52
   10:44:01.202.19-Jul-2021 4492.50 3545.11 70.55 23.00 175.06 2694.52
   10:44:01.403.19-Jul-2021 4492.50 3545.11 70.55 23.00 175.26 2694.52
   10:44:01.603.19-Jul-2021 4492.50 3545.01 70.55 23.00 175.46 2694.52
   10:44:01.803.19-Jul-2021 4492.50 3545.09 70.55 23.00 175.66 2694.52
   10:44:02.003.19-Jul-2021 4492.50 3545.11 70.55 23.00 175.86 2694.52
   10:44:02.203.19-Jul-2021 4492.50 3545.06 70.55 23.00 176.06 2694.52
   10:44:02.403.19-Jul-2021 4492.50 3545.06 70.55 23.00 176.26 2694.52
   10:44:02.603.19-Jul-2021 4492.50 3545.13 70.55 23.00 176.46 2694.52
   10:44:02.803.19-Jul-2021 4492.50 3545.00 70.55 23.00 176.67 2694.52
   10:44:03.003.19-Jul-2021 4492.50 3545.02 70.55 23.00 176.87 2694.52
   10:44:03.203.19-Jul-2021 4492.50 3545.11 70.55 23.00 177.07 2694.52
   10:44:03.403.19-Jul-2021 4492.50 3545.11 70.55 23.00 177.27 2694.52
   10:44:03.603.19-Jul-2021 4492.50 3545.05 70.55 23.00 177.47 2694.52
   10:44:03.803.19-Jul-2021 4492.50 3545.11 70.55 23.00 177.67 2694.52
   10:44:04.004.19-Jul-2021 4492.50 3545.03 70.55 23.00 177.87 2694.52
   10:44:04.204.19-Jul-2021 4492.50 3545.07 70.55 23.00 178.07 2694.52
   10:44:04.404.19-Jul-2021 4492.50 3545.07 70.55 23.00 178.27 2694.52
   10:44:04.604.19-Jul-2021 4492.50 3545.16 70.55 23.00 178.47 2694.52
   10:44:04.804.19-Jul-2021 4492.50 3544.98 70.55 23.00 178.67 2694.52
   10:44:05.004.19-Jul-2021 4492.50 3544.95 70.55 23.00 178.87 2694.52
   10:44:05.204.19-Jul-2021 4492.50 3544.98 70.55 23.00 179.07 2694.52
   10:44:05.404.19-Jul-2021 4492.50 3544.98 70.55 23.00 179.27 2694.52
   10:44:05.604.19-Jul-2021 4492.50 3545.01 70.55 23.00 179.47 2694.52
   10:44:05.804.19-Jul-2021 4492.50 3544.99 70.55 23.00 179.67 2694.52
   10:44:06.004.19-Jul-2021 4492.50 3545.23 70.55 23.00 179.87 2694.52
   10:44:06.204.19-Jul-2021 4492.50 3544.88 70.55 23.00 180.07 2694.52
   10:44:06.404.19-Jul-2021 4492.50 3544.88 70.55 23.00 180.27 2694.52
   10:44:06.604.19-Jul-2021 4492.50 3545.01 70.55 23.00 180.47 2694.52
   10:44:06.805.19-Jul-2021 4492.50 3545.03 70.55 23.00 180.67 2694.52
