~Version Information
 VERS.                  2.0:   CWLS log ASCII Standard -VERSION 2.0
 WRAP.                   NO:   One line per depth step
~Well Information Block
#MNEM.UNIT     VALUE/NAME     DESCRIPTION
#---------     -----------    ---------------------------
 STRT.S             12:06:52 19-Jul-21: START TIME 12:06:52 19-Jul-21
 STOP.S             12:13:44 19-Jul-21: STOP TIME  12:13:44 19-Jul-21
 STEP.S                   0.00: STEP TIME
 NULL.                 -999.25: NULL VALUE
 MDS .        Operator Entered:  MAG DATA SOURCE
 PDAT.          Mean Sea Level:  PERMANENT DATUM
 UNIT.                     N/A:  LOGGING EQUIPMENT ID
 DCON.         Sperry Drilling:  DIRECTNL CONTR
 DOE .                     N/A:  DOE NUMBER
 RIG .              West Azeri:  RIG NAME
 JOBN.        AZ-XX-0906997913:  JOB TICKET NUMB
 WELL.                     C41:  WELL NAME
 MWDS.                    Baku:  MWD SHOP
 SRVC.          Turan Drilling:  CONTRACTOR
 FLD .                     ACG:  FIELD NAME
 CTRY.              Azerbaijan:  COUNTRY NAME
 PROV.                    Baku:  PROVINCE
 STAT.                    Baku:  STATE NAME
 REGN.                   EESSA:  REGION
 BASE.              Azerbaijan:  LOGGING EQUIPMENT BASE LOCATION
 UWI .                     N/A:  UNIQUE WELL IDENTIFIER
 API .                     N/A:  API NUMBER
 COMP.     BP Exploration (Caspian Sea) Ltd.:  COMPANY
 WTYP.                Deviated:  WELL TYPE
 SON .        AZ-XX-0906997913:  JOB NUMBER
 FTOP.          Formation Tops:  FORM TOPS DESC
 ILTD.               Lithology:  INTERP LTH DESC
 SVYD.                  Survey:  SURVEY DESC
 DMOD.             Drill Model:  DRILL MOD DESC
 HPTY.       Minimum Curvature:  HOLE POS TYPE
 NREF.                    Grid:  NORTH REFERENCE
 SPUD.               16-May-21:  SPUD DATE
 DATE.      21.11.28 17-May-21:  END TIME
 STIM.      21.11.28 17-May-21:  START TIME
 DMF .             Drill Floor:  DRILL MEAS FROM
 DFST.                        :  DIST FSL TEXT
 DFWT.                        :  DIST FWL TEXT
 CNTY.                        :  COUNTY
 LOC .                        :  LOCATION
 LMF .             Drill Floor:  LOG MEASURED FROM
 AGAP.m                  43.42:  AIR GAP
 VSNS.m                  -2.16:  VERT SEC N/S
 VSEW.m                  -6.24:  VERT SEC E/W
 APD .m                  43.42:  DEPTH ABOVE PD
 WDMS.m                 118.27:  WD ELEV
 EGL .m                   0.00:  GROUND ELEVATION
 EPD .m                   0.00:  ELEVATION
 AZTC.deg                 6.29:  AZM TOTAL CORR
 GRDC.deg                 0.18:  GRID CORRECTION
 MDEC.deg                 6.47:  MAGNETIC DECL
 MDIP.deg                59.54:  MAGNETIC DIP
 MFLD.nT              50337.00:  MAGNETIC FIELD
 GVFD.g                   1.00:  GRAVITY FIELD
 VSDR.deg               226.99:  VERT SEC DIRECT
 TDD .m                   0.00:  TOTAL DEPTH (DRILLER)
 SDEP.m                 448.00:  START DEPTH
 DFSL.m                   0.00:  DISTANCE FSL
 DFWL.m                   0.00:  DISTANCE FWL
 UTMY.m             4435799.96:  UTM Y
 UTMX.m              526265.35:  UTM X
 WHEW.m                  -6.24:  WELL HEAD E/W
 WHNS.m                  -2.16:  WELL HEAD N/S
 LONG.deg                51.31:  LONGITUDE
 LATI.deg                40.06:  LATITUDE
 TVDS.m                  43.42:  TVDSS CORRECTN
 EKB .m                  43.42:  KB ELEVATION
 EDF .m                  43.42:  DF ELEVATION
 TDL .m                 288.00:  TOTAL DEPTH (LOGGER)
 MAGU.                 1851863:  MAGUTM CHECKSUM
 VSC .                       0:  VS TO CLOSURE
~Parameter Information Block
#MNEM.UNIT       Value        Description
#---------     -----------    ---------------------------
 AV  .mps                 0.40:  Ann Velocity 
 AVMX.mps                 0.63:  Max Ann Veloc 
 AZIF.deg               158.76:  Azm, Final 
 BHAT.        Rotary Steerable:  BHA Type 
 BROT.°/30m               0.68:  Build Rotating 
 BS  .in                  8.50:  Bit Size 
 BSZ .in                  8.50:  Bit Size 
 BTPL.psig              712.00:  Bit Press Loss 
 CABU.                      No:  Customer Abuse 
 COMM.                     {J:  Run Comments 1 
 TCS .hr                 90.66:  Time Ciculation Ended 
 CV  .mps                 2.02:  Crit Velocity 
 CVMX.mps                 2.14:  Max Crit Veloc 
 DD1 .            Aziz Aliyevu:  Direct Drillr 1 
 DD2 .             Samir Abbas:  Direct Drillr 2 
 DD3 .           Teymur Aliyev:  Direct Drillr 3 
 DDSV.                 iCruise:  DD Service 
 DEFF.%                  85.10:  % Det Eff 
 DLRX.°/30m               1.05:  Dogleg Rot Max 
 DLSO.°/30m               1.01:  Dogleg Oriented 
 DLSX.°/30m               1.05:  Dogleg Str Max 
 DRET.      07.45.00 18-Jul-21:  Drill End Time 
 DRST.      15.00.00 16-Jul-21:  Drill Start Tim 
 DTIM.hr                 23.46:  Time Drilling 
 EDEP.m                4603.00:  End Depth 
 ENG1.       Seymur Iskandarov:  Engineer 1 
 ENG2.         Yevgeniy Ulikov:  Engineer 2 
 ENG3.         Bahruz Mehdiyev:  Engineer 3 
 ENG4.         Elchin Mammadov:  Engineer 4 
 ETIM.      14.00.00 23-Jul-21:  End Time 
 FLOI.gpm               500.00:  Flow In 
 FLON.gpm               450.00:  Flow In Min 
 FLOS.cptm                0.00:  Fluid Loss 
 FLOX.gpm               560.00:  Flow In Max 
 DFT .        Mineral Oil Base:  Mud Type 
 FTRO.       Formation Presure:  FTWD Run Obj 
 HFLO.                      No:  High Flow 
 HPRE.                      No:  High Pressure 
 HTEM.                      No:  High Temp 
 HYDO.m                   1.80:  Hydro Offset 
 IFIN.deg                40.22:  Inc, Final 
 IMAX.deg                40.54:  Inc Max 
 IMIN.deg                39.44:  Inc Min 
 IMND.m                4361.17:  Inc Min Depth 
 IMXD.m                4417.92:  Inc Max Depth 
 JARR.                      No:  Jarring 
 LETM.      07.45.00 18-Jul-21:  Log End Time 
 LOST.hr                    16:  Lost Rig Time 
 LSTM.      15.00.00 16-Jul-21:  Log Start Time 
 MDCL.ppm             36500.00:  Mud Chlorides 
 MDES.     Inversion Oil/Synthetic:  Mud Desc 
 DFD .sg                  1.42:  Mud Density 
 MDMN.sg                  1.42:  Dens Mud Min 
 MDMX.sg                  1.43:  Dens Mud Max 
 MOIL.                      56:  Run Mud Oil % 
 MOWR.                   71:29:  Run Mud OWR 
 MSND.                     0.5:  Run Mud Sand % 
 MSOL.                      21:  Run Mud Solids% 
 DFV .spqt               78.00:  Mud Viscosity 
 MWOD.in                  6.75:  MWD Tool OD 
 MWSI.                     Yes:  Serv Intrp, MWD 
 OTIM.hr                200.73:  Time Operating 
 PCON.           Look Like New:  Pad Condition 
 PMAX.psia            11069.93:  Press Op, Max 
 PV  .cP                 32.00:  Mud PV 
 RUN .                     700:  Run Number 
 ROPA.m/hr               10.00:  ROP Avg 
 ROPN.m/hr                9.00:  ROP Min 
 ROPX.m/hr               16.00:  ROP Max 
 RPMA.rpm               116.00:  RPM Surface Avg 
 RPMN.rpm                80.00:  RPM Surface Min 
 RPMX.rpm               120.00:  RPM Surface Max 
 RRUN.                    L605:  Rig Run Number 
 RTIM.hr                 45.00:  Time Reaming 
 SAZI.deg               159.86:  Azm, Start 
 SDEP.m                4315.00:  Start Depth 
 SIDD.                      No:  Serv Intrp, DD 
 SINC.deg                39.86:  Inc, Start 
 SPPA.psig             3300.00:  SPP Avg 
 SPPN.psig             3040.00:  SPP Min 
 SPPX.psig             3645.00:  SPP Max 
 STIM.      01.00.00 15-Jul-21:  Start Time 
 SVCS.                 DD, MWD:  Services 
 SVER.                    9.20:  Sperry Version 
 TDAT.m                 288.00:  Tot Depth Attmp 
 TDDF.                      No:  Trip for DD 
 TDLG.m                 288.00:  Tot Depth Loggd 
 TFF .                      No:  Trip for Fail 
 TQAA.f-kp               19.00:  Torque Abs Avg 
 TQAN.f-kp               18.00:  Torque Abs Min 
 TQAX.f-kp               21.00:  Torque Abs Max 
 TRRT.°/30m               0.45:  Turn Rotating 
 MRT .                    HCIM:  Maximum Recorded Temperature 
 TTMX.degC               88.24:  Max Tool Temp 
 VS01.                90649157:  Virtual Str1 SN 
 VS02.                90652483:  Virtual Str2 SN 
 VS03.                11671987:  Virtual Str3 SN 
 VS04.                90643411:  Virtual Str4 SN 
 VS05.                90652478:  Virtual Str5 SN 
 VS06.                    6111:  Virtual Str6 SN 
 WBMN.klb                 9.50:  WOB Min 
 WITN.        Grigoriy Sarayev:  Customer Rep 
 WITN.          Rufat Huseynov:  Customer Rep 2 
 WOBA.klb                11.00:  WOB Avg 
 WOBX.klb                15.00:  WOB Max 
 YP  .lhf2               28.00:  Yield Point 
~Curve Information Block
#MNEM.UNIT                 API CODE     Curve Description
#---------               -----------    ---------------------------
 TIME.HHMMSS            00 000 000 000:  GT Time & Date
 GTDEPTH.m              00 000 000 000:  GT Depth
 GTPQH.psia             00 000 000 000:  GT HR Quartz Pressure
 GTTQ.degC              00 000 000 000:  GT Quartz Temperature
 GTTN.NONE              00 000 000 000:  GT Test Number
 GTET.sec               00 000 000 000:  GT Elapsed Test Time
 GTTVD.m                00 000 000 000:  GT True Vertical Depth
#Other Information
#
#WARRANTY: Halliburton will use its best efforts to furnish customers with 
#accurate information and interpretations that are part of, and incident to, the services 
#provided.  However, Halliburton cannot and does not warrant the accuracy 
#or correctness of such information and interpretations.  Under no circumstances should any 
#such information or interpretation be relied upon as the sole basis for any drilling, 
#completion, production, or financial decision or any procedure involving any risk to the 
#safety of any drilling venture, drilling rig or its crew or any other third party.  The 
#Customer has full responsibility for all drilling, completion and production operation.  
#Halliburton makes no representations or warranties, either expressed or 
#implied, including, but not limited to, the implied warranties of merchantability or fitness 
#for a particular purpose, with respect to the services rendered.  In no event will 
#Halliburton be liable for failure to obtain any particular results or for 
#any damages, including, but not limited to, indirect, special or consequential damages, 
#resulting from the use of any information or interpretation provided by Halliburton.
#
~A           TIME           GTDEPTH  GTPQH  GTTQ  GTTN   GTET   GTTVD  
# ...
   12:11:23.333.19-Jul-2021 4522.00 3611.84 70.80 26.00 271.30 2717.06
   12:11:23.533.19-Jul-2021 4522.00 3611.86 70.80 26.00 271.50 2717.06
   12:11:23.733.19-Jul-2021 4522.00 3611.72 70.80 26.00 271.70 2717.06
   12:11:23.933.19-Jul-2021 4522.00 3611.80 70.80 26.00 271.90 2717.06
   12:11:24.133.19-Jul-2021 4522.00 3611.80 70.80 26.00 272.10 2717.06
   12:11:24.333.19-Jul-2021 4522.00 3611.80 70.80 26.00 272.30 2717.06
   12:11:24.533.19-Jul-2021 4522.00 3611.80 70.80 26.00 272.50 2717.06
   12:11:24.733.19-Jul-2021 4522.00 3611.80 70.80 26.00 272.70 2717.06
   12:11:24.933.19-Jul-2021 4522.00 3611.77 70.80 26.00 272.90 2717.06
   12:11:25.133.19-Jul-2021 4522.00 3611.83 70.80 26.00 273.10 2717.06
   12:11:25.333.19-Jul-2021 4522.00 3611.83 70.80 26.00 273.30 2717.06
   12:11:25.533.19-Jul-2021 4522.00 3611.80 70.80 26.00 273.50 2717.06
   12:11:25.734.19-Jul-2021 4522.00 3612.09 70.80 26.00 273.70 2717.06
   12:11:25.934.19-Jul-2021 4522.00 3611.47 70.80 26.00 273.90 2717.06
   12:11:26.134.19-Jul-2021 4522.00 3611.81 70.80 26.00 274.10 2717.06
   12:11:26.334.19-Jul-2021 4522.00 3611.81 70.80 26.00 274.30 2717.06
   12:11:26.534.19-Jul-2021 4522.00 3611.97 70.80 26.00 274.50 2717.06
   12:11:26.734.19-Jul-2021 4522.00 3611.75 70.80 26.00 274.70 2717.06
   12:11:26.934.19-Jul-2021 4522.00 3612.07 70.80 26.00 274.90 2717.06
   12:11:27.134.19-Jul-2021 4522.00 3611.31 70.80 26.00 275.10 2717.06
   12:11:27.334.19-Jul-2021 4522.00 3611.31 70.80 26.00 275.30 2717.06
   12:11:27.534.19-Jul-2021 4522.00 3611.69 70.80 26.00 275.50 2717.06
   12:11:27.734.19-Jul-2021 4522.00 3611.96 70.80 26.00 275.70 2717.06
   12:11:27.934.19-Jul-2021 4522.00 3611.72 70.80 26.00 275.90 2717.06
   12:11:28.134.19-Jul-2021 4522.00 3611.92 70.80 26.00 276.10 2717.06
   12:11:28.335.19-Jul-2021 4522.00 3611.92 70.80 26.00 276.30 2717.06
   12:11:28.535.19-Jul-2021 4522.00 3611.68 70.80 26.00 276.50 2717.06
   12:11:28.735.19-Jul-2021 4522.00 3611.96 70.80 26.00 276.70 2717.06
   12:11:28.935.19-Jul-2021 4522.00 3611.79 70.80 26.00 276.90 2717.06
   12:11:29.135.19-Jul-2021 4522.00 3611.82 70.80 26.00 277.10 2717.06
   12:11:29.335.19-Jul-2021 4522.00 3611.82 70.80 26.00 277.30 2717.06
   12:11:29.535.19-Jul-2021 4522.00 3611.83 70.80 26.00 277.50 2717.06
   12:11:29.735.19-Jul-2021 4522.00 3611.84 70.80 26.00 277.70 2717.06
   12:11:29.935.19-Jul-2021 4522.00 3611.86 70.80 26.00 277.90 2717.06
   12:11:30.135.19-Jul-2021 4522.00 3611.82 70.80 26.00 278.10 2717.06
   12:11:30.335.19-Jul-2021 4522.00 3611.82 70.80 26.00 278.30 2717.06
   12:11:30.535.19-Jul-2021 4522.00 3611.82 70.80 26.00 278.50 2717.06
   12:11:30.735.19-Jul-2021 4522.00 3611.82 70.80 26.00 278.70 2717.06
   12:11:30.935.19-Jul-2021 4522.00 3611.85 70.80 26.00 278.90 2717.06
   12:11:31.136.19-Jul-2021 4522.00 3611.80 70.80 26.00 279.10 2717.06
   12:11:31.336.19-Jul-2021 4522.00 3611.80 70.80 26.00 279.30 2717.06
   12:11:31.536.19-Jul-2021 4522.00 3611.54 70.80 26.00 279.50 2717.06
   12:11:31.736.19-Jul-2021 4522.00 3611.60 70.80 26.00 279.70 2717.06
   12:11:31.936.19-Jul-2021 4522.00 3611.85 70.80 26.00 279.90 2717.06
   12:11:32.136.19-Jul-2021 4522.00 3611.89 70.80 26.00 280.10 2717.06
   12:11:32.336.19-Jul-2021 4522.00 3611.89 70.80 26.00 280.30 2717.06
   12:11:32.536.19-Jul-2021 4522.00 3611.82 70.80 26.00 280.50 2717.06
   12:11:32.736.19-Jul-2021 4522.00 3611.85 70.80 26.00 280.70 2717.06
   12:11:32.936.19-Jul-2021 4522.00 3611.80 70.80 26.00 280.90 2717.06
   12:11:33.136.19-Jul-2021 4522.00 3611.86 70.80 26.00 281.10 2717.06
   12:11:33.336.19-Jul-2021 4522.00 3611.86 70.80 26.00 281.30 2717.06
   12:11:33.536.19-Jul-2021 4522.00 3611.82 70.80 26.00 281.50 2717.06
   12:11:33.737.19-Jul-2021 4522.00 3611.88 70.80 26.00 281.70 2717.06
   12:11:33.937.19-Jul-2021 4522.00 3611.63 70.80 26.00 281.90 2717.06
   12:11:34.137.19-Jul-2021 4522.00 3611.90 70.80 26.00 282.10 2717.06
   12:11:34.337.19-Jul-2021 4522.00 3611.90 70.80 26.00 282.30 2717.06
   12:11:34.537.19-Jul-2021 4522.00 3611.85 70.80 26.00 282.50 2717.06
   12:11:34.737.19-Jul-2021 4522.00 3611.68 70.80 26.00 282.70 2717.06
   12:11:34.937.19-Jul-2021 4522.00 3611.93 70.80 26.00 282.90 2717.06
   12:11:35.137.19-Jul-2021 4522.00 3611.53 70.80 26.00 283.10 2717.06
   12:11:35.337.19-Jul-2021 4522.00 3611.53 70.80 26.00 283.30 2717.06
   12:11:35.537.19-Jul-2021 4522.00 3611.85 70.80 26.00 283.50 2717.06
   12:11:35.737.19-Jul-2021 4522.00 3611.91 70.81 26.00 283.70 2717.06
   12:11:35.937.19-Jul-2021 4522.00 3611.68 70.80 26.00 283.90 2717.06
   12:11:36.137.19-Jul-2021 4522.00 3611.77 70.81 26.00 284.10 2717.06
   12:11:36.337.19-Jul-2021 4522.00 3611.77 70.81 26.00 284.30 2717.06
   12:11:36.538.19-Jul-2021 4522.00 3611.67 70.81 26.00 284.50 2717.06
   12:11:36.738.19-Jul-2021 4522.00 3611.98 70.81 26.00 284.70 2717.06
   12:11:36.938.19-Jul-2021 4522.00 3611.85 70.81 26.00 284.90 2717.06
   12:11:37.138.19-Jul-2021 4522.00 3611.90 70.81 26.00 285.10 2717.06
   12:11:37.338.19-Jul-2021 4522.00 3611.90 70.81 26.00 285.31 2717.06
   12:11:37.538.19-Jul-2021 4522.00 3611.85 70.81 26.00 285.51 2717.06
   12:11:37.738.19-Jul-2021 4522.00 3611.87 70.81 26.00 285.71 2717.06
   12:11:37.938.19-Jul-2021 4522.00 3611.87 70.81 26.00 285.91 2717.06
   12:11:38.138.19-Jul-2021 4522.00 3611.87 70.81 26.00 286.11 2717.06
   12:11:38.338.19-Jul-2021 4522.00 3611.87 70.81 26.00 286.31 2717.06
   12:11:38.538.19-Jul-2021 4522.00 3611.86 70.81 26.00 286.51 2717.06
   12:11:38.738.19-Jul-2021 4522.00 3611.88 70.81 26.00 286.71 2717.06
   12:11:38.938.19-Jul-2021 4522.00 3611.84 70.81 26.00 286.91 2717.06
   12:11:39.138.19-Jul-2021 4522.00 3611.87 70.81 26.00 287.11 2717.06
   12:11:39.339.19-Jul-2021 4522.00 3611.87 70.81 26.00 287.31 2717.06
   12:11:39.539.19-Jul-2021 4522.00 3612.11 70.81 26.00 287.51 2717.06
   12:11:39.739.19-Jul-2021 4522.00 3611.48 70.81 26.00 287.71 2717.06
   12:11:39.939.19-Jul-2021 4522.00 3611.78 70.81 26.00 287.91 2717.06
   12:11:40.139.19-Jul-2021 4522.00 3611.89 70.81 26.00 288.11 2717.06
   12:11:40.339.19-Jul-2021 4522.00 3611.89 70.81 26.00 288.31 2717.06
   12:11:40.539.19-Jul-2021 4522.00 3611.84 70.81 26.00 288.51 2717.06
   12:11:40.739.19-Jul-2021 4522.00 3611.85 70.81 26.00 288.71 2717.06
   12:11:40.939.19-Jul-2021 4522.00 3611.85 70.81 26.00 288.91 2717.06
   12:11:41.139.19-Jul-2021 4522.00 3611.85 70.81 26.00 289.11 2717.06
   12:11:41.339.19-Jul-2021 4522.00 3611.85 70.81 26.00 289.31 2717.06
   12:11:41.539.19-Jul-2021 4522.00 3611.89 70.81 26.00 289.51 2717.06
   12:11:41.739.19-Jul-2021 4522.00 3611.83 70.81 26.00 289.71 2717.06
   12:11:41.940.19-Jul-2021 4522.00 3611.70 70.81 26.00 289.91 2717.06
   12:11:42.140.19-Jul-2021 4522.00 3611.83 70.81 26.00 290.11 2717.06
   12:11:42.340.19-Jul-2021 4522.00 3611.83 70.81 26.00 290.31 2717.06
   12:11:42.540.19-Jul-2021 4522.00 3612.04 70.81 26.00 290.51 2717.06
   12:11:42.740.19-Jul-2021 4522.00 3611.39 70.81 26.00 290.71 2717.06
   12:11:42.940.19-Jul-2021 4522.00 3611.80 70.81 26.00 290.91 2717.06
   12:11:43.140.19-Jul-2021 4522.00 3611.69 70.81 26.00 291.11 2717.06
   12:11:43.340.19-Jul-2021 4522.00 3611.69 70.81 26.00 291.31 2717.06
   12:11:43.540.19-Jul-2021 4522.00 3611.79 70.81 26.00 291.51 2717.06
   12:11:43.740.19-Jul-2021 4522.00 3611.97 70.81 26.00 291.71 2717.06
   12:11:43.940.19-Jul-2021 4522.00 3611.89 70.81 26.00 291.91 2717.06
   12:11:44.140.19-Jul-2021 4522.00 3611.72 70.81 26.00 292.11 2717.06
   12:11:44.340.19-Jul-2021 4522.00 3611.72 70.81 26.00 292.31 2717.06
   12:11:44.540.19-Jul-2021 4522.00 3611.93 70.81 26.00 292.51 2717.06
   12:11:44.741.19-Jul-2021 4522.00 3612.03 70.81 26.00 292.71 2717.06
   12:11:44.941.19-Jul-2021 4522.00 3611.67 70.81 26.00 292.91 2717.06
   12:11:45.141.19-Jul-2021 4522.00 3611.92 70.81 26.00 293.11 2717.06
   12:11:45.341.19-Jul-2021 4522.00 3611.92 70.81 26.00 293.31 2717.06
   12:11:45.541.19-Jul-2021 4522.00 3611.88 70.81 26.00 293.51 2717.06
   12:11:45.741.19-Jul-2021 4522.00 3611.93 70.81 26.00 293.71 2717.06
