~Version Information
 VERS.                  2.0:   CWLS log ASCII Standard -VERSION 2.0
 WRAP.                   NO:   One line per depth step
~Well Information Block
#MNEM.UNIT     VALUE/NAME     DESCRIPTION
#---------     -----------    ---------------------------
 STRT.S             16:45:59 18-Jul-21: START TIME 16:45:59 18-Jul-21
 STOP.S             16:52:30 18-Jul-21: STOP TIME  16:52:30 18-Jul-21
 STEP.S                   0.00: STEP TIME
 NULL.                 -999.25: NULL VALUE
 MDS .        Operator Entered:  MAG DATA SOURCE
 PDAT.          Mean Sea Level:  PERMANENT DATUM
 UNIT.                     N/A:  LOGGING EQUIPMENT ID
 DCON.         Sperry Drilling:  DIRECTNL CONTR
 DOE .                     N/A:  DOE NUMBER
 RIG .              West Azeri:  RIG NAME
 JOBN.        AZ-XX-0906997913:  JOB TICKET NUMB
 WELL.                     C41:  WELL NAME
 MWDS.                    Baku:  MWD SHOP
 SRVC.          Turan Drilling:  CONTRACTOR
 FLD .                     ACG:  FIELD NAME
 CTRY.              Azerbaijan:  COUNTRY NAME
 PROV.                    Baku:  PROVINCE
 STAT.                    Baku:  STATE NAME
 REGN.                   EESSA:  REGION
 BASE.              Azerbaijan:  LOGGING EQUIPMENT BASE LOCATION
 UWI .                     N/A:  UNIQUE WELL IDENTIFIER
 API .                     N/A:  API NUMBER
 COMP.     BP Exploration (Caspian Sea) Ltd.:  COMPANY
 WTYP.                Deviated:  WELL TYPE
 SON .        AZ-XX-0906997913:  JOB NUMBER
 FTOP.          Formation Tops:  FORM TOPS DESC
 ILTD.               Lithology:  INTERP LTH DESC
 SVYD.                  Survey:  SURVEY DESC
 DMOD.             Drill Model:  DRILL MOD DESC
 HPTY.       Minimum Curvature:  HOLE POS TYPE
 NREF.                    Grid:  NORTH REFERENCE
 SPUD.               16-May-21:  SPUD DATE
 DATE.      21.11.28 17-May-21:  END TIME
 STIM.      21.11.28 17-May-21:  START TIME
 DMF .             Drill Floor:  DRILL MEAS FROM
 DFST.                        :  DIST FSL TEXT
 DFWT.                        :  DIST FWL TEXT
 CNTY.                        :  COUNTY
 LOC .                        :  LOCATION
 LMF .             Drill Floor:  LOG MEASURED FROM
 AGAP.m                  43.42:  AIR GAP
 VSNS.m                  -2.16:  VERT SEC N/S
 VSEW.m                  -6.24:  VERT SEC E/W
 APD .m                  43.42:  DEPTH ABOVE PD
 WDMS.m                 118.27:  WD ELEV
 EGL .m                   0.00:  GROUND ELEVATION
 EPD .m                   0.00:  ELEVATION
 AZTC.deg                 6.29:  AZM TOTAL CORR
 GRDC.deg                 0.18:  GRID CORRECTION
 MDEC.deg                 6.47:  MAGNETIC DECL
 MDIP.deg                59.54:  MAGNETIC DIP
 MFLD.nT              50337.00:  MAGNETIC FIELD
 GVFD.g                   1.00:  GRAVITY FIELD
 VSDR.deg               226.99:  VERT SEC DIRECT
 TDD .m                   0.00:  TOTAL DEPTH (DRILLER)
 SDEP.m                 448.00:  START DEPTH
 DFSL.m                   0.00:  DISTANCE FSL
 DFWL.m                   0.00:  DISTANCE FWL
 UTMY.m             4435799.96:  UTM Y
 UTMX.m              526265.35:  UTM X
 WHEW.m                  -6.24:  WELL HEAD E/W
 WHNS.m                  -2.16:  WELL HEAD N/S
 LONG.deg                51.31:  LONGITUDE
 LATI.deg                40.06:  LATITUDE
 TVDS.m                  43.42:  TVDSS CORRECTN
 EKB .m                  43.42:  KB ELEVATION
 EDF .m                  43.42:  DF ELEVATION
 TDL .m                 288.00:  TOTAL DEPTH (LOGGER)
 MAGU.                 1851863:  MAGUTM CHECKSUM
 VSC .                       0:  VS TO CLOSURE
~Parameter Information Block
#MNEM.UNIT       Value        Description
#---------     -----------    ---------------------------
 AV  .mps                 0.40:  Ann Velocity 
 AVMX.mps                 0.63:  Max Ann Veloc 
 AZIF.deg               158.76:  Azm, Final 
 BHAT.        Rotary Steerable:  BHA Type 
 BROT.∞/30m               0.68:  Build Rotating 
 BS  .in                  8.50:  Bit Size 
 BSZ .in                  8.50:  Bit Size 
 BTPL.psig              712.00:  Bit Press Loss 
 CABU.                      No:  Customer Abuse 
 COMM.                     ,èr:  Run Comments 1 
 TCS .hr                 90.66:  Time Ciculation Ended 
 CV  .mps                 2.02:  Crit Velocity 
 CVMX.mps                 2.14:  Max Crit Veloc 
 DD1 .            Aziz Aliyevu:  Direct Drillr 1 
 DD2 .             Samir Abbas:  Direct Drillr 2 
 DD3 .           Teymur Aliyev:  Direct Drillr 3 
 DDSV.                 iCruise:  DD Service 
 DEFF.%                  85.10:  % Det Eff 
 DLRX.∞/30m               1.05:  Dogleg Rot Max 
 DLSO.∞/30m               1.01:  Dogleg Oriented 
 DLSX.∞/30m               1.05:  Dogleg Str Max 
 DRET.      07.45.00 18-Jul-21:  Drill End Time 
 DRST.      15.00.00 16-Jul-21:  Drill Start Tim 
 DTIM.hr                 23.46:  Time Drilling 
 EDEP.m                4603.00:  End Depth 
 ENG1.       Seymur Iskandarov:  Engineer 1 
 ENG2.         Yevgeniy Ulikov:  Engineer 2 
 ENG3.         Bahruz Mehdiyev:  Engineer 3 
 ENG4.         Elchin Mammadov:  Engineer 4 
 ETIM.      14.00.00 23-Jul-21:  End Time 
 FLOI.gpm               500.00:  Flow In 
 FLON.gpm               450.00:  Flow In Min 
 FLOS.cptm                0.00:  Fluid Loss 
 FLOX.gpm               560.00:  Flow In Max 
 DFT .        Mineral Oil Base:  Mud Type 
 FTRO.       Formation Presure:  FTWD Run Obj 
 HFLO.                      No:  High Flow 
 HPRE.                      No:  High Pressure 
 HTEM.                      No:  High Temp 
 HYDO.m                   1.80:  Hydro Offset 
 IFIN.deg                40.22:  Inc, Final 
 IMAX.deg                40.54:  Inc Max 
 IMIN.deg                39.44:  Inc Min 
 IMND.m                4361.17:  Inc Min Depth 
 IMXD.m                4417.92:  Inc Max Depth 
 JARR.                      No:  Jarring 
 LETM.      07.45.00 18-Jul-21:  Log End Time 
 LOST.hr                    16:  Lost Rig Time 
 LSTM.      15.00.00 16-Jul-21:  Log Start Time 
 MDCL.ppm             36500.00:  Mud Chlorides 
 MDES.     Inversion Oil/Synthetic:  Mud Desc 
 DFD .sg                  1.42:  Mud Density 
 MDMN.sg                  1.42:  Dens Mud Min 
 MDMX.sg                  1.43:  Dens Mud Max 
 MOIL.                      56:  Run Mud Oil % 
 MOWR.                   71:29:  Run Mud OWR 
 MSND.                     0.5:  Run Mud Sand % 
 MSOL.                      21:  Run Mud Solids% 
 DFV .spqt               78.00:  Mud Viscosity 
 MWOD.in                  6.75:  MWD Tool OD 
 MWSI.                     Yes:  Serv Intrp, MWD 
 OTIM.hr                200.73:  Time Operating 
 PCON.           Look Like New:  Pad Condition 
 PMAX.psia            11069.93:  Press Op, Max 
 PV  .cP                 32.00:  Mud PV 
 RUN .                     700:  Run Number 
 ROPA.m/hr               10.00:  ROP Avg 
 ROPN.m/hr                9.00:  ROP Min 
 ROPX.m/hr               16.00:  ROP Max 
 RPMA.rpm               116.00:  RPM Surface Avg 
 RPMN.rpm                80.00:  RPM Surface Min 
 RPMX.rpm               120.00:  RPM Surface Max 
 RRUN.                    L605:  Rig Run Number 
 RTIM.hr                 45.00:  Time Reaming 
 SAZI.deg               159.86:  Azm, Start 
 SDEP.m                4315.00:  Start Depth 
 SIDD.                      No:  Serv Intrp, DD 
 SINC.deg                39.86:  Inc, Start 
 SPPA.psig             3300.00:  SPP Avg 
 SPPN.psig             3040.00:  SPP Min 
 SPPX.psig             3645.00:  SPP Max 
 STIM.      01.00.00 15-Jul-21:  Start Time 
 SVCS.                 DD, MWD:  Services 
 SVER.                    9.20:  Sperry Version 
 TDAT.m                 288.00:  Tot Depth Attmp 
 TDDF.                      No:  Trip for DD 
 TDLG.m                 288.00:  Tot Depth Loggd 
 TFF .                      No:  Trip for Fail 
 TQAA.f-kp               19.00:  Torque Abs Avg 
 TQAN.f-kp               18.00:  Torque Abs Min 
 TQAX.f-kp               21.00:  Torque Abs Max 
 TRRT.∞/30m               0.45:  Turn Rotating 
 MRT .                    HCIM:  Maximum Recorded Temperature 
 TTMX.degC               88.24:  Max Tool Temp 
 VS01.                90649157:  Virtual Str1 SN 
 VS02.                90652483:  Virtual Str2 SN 
 VS03.                11671987:  Virtual Str3 SN 
 VS04.                90643411:  Virtual Str4 SN 
 VS05.                90652478:  Virtual Str5 SN 
 VS06.                    6111:  Virtual Str6 SN 
 WBMN.klb                 9.50:  WOB Min 
 WITN.        Grigoriy Sarayev:  Customer Rep 
 WITN.          Rufat Huseynov:  Customer Rep 2 
 WOBA.klb                11.00:  WOB Avg 
 WOBX.klb                15.00:  WOB Max 
 YP  .lhf2               28.00:  Yield Point 
~Curve Information Block
#MNEM.UNIT                 API CODE     Curve Description
#---------               -----------    ---------------------------
 TIME.HHMMSS            00 000 000 000:  GT Time & Date
 GTDEPTH.m              00 000 000 000:  GT Depth
 GTPQH.psia             00 000 000 000:  GT HR Quartz Pressure
 GTTQ.degC              00 000 000 000:  GT Quartz Temperature
 GTTN.NONE              00 000 000 000:  GT Test Number
 GTET.sec               00 000 000 000:  GT Elapsed Test Time
 GTTVD.m                00 000 000 000:  GT True Vertical Depth
#Other Information
#
#WARRANTY: Halliburton will use its best efforts to furnish customers with 
#accurate information and interpretations that are part of, and incident to, the services 
#provided.  However, Halliburton cannot and does not warrant the accuracy 
#or correctness of such information and interpretations.  Under no circumstances should any 
#such information or interpretation be relied upon as the sole basis for any drilling, 
#completion, production, or financial decision or any procedure involving any risk to the 
#safety of any drilling venture, drilling rig or its crew or any other third party.  The 
#Customer has full responsibility for all drilling, completion and production operation.  
#Halliburton makes no representations or warranties, either expressed or 
#implied, including, but not limited to, the implied warranties of merchantability or fitness 
#for a particular purpose, with respect to the services rendered.  In no event will 
#Halliburton be liable for failure to obtain any particular results or for 
#any damages, including, but not limited to, indirect, special or consequential damages, 
#resulting from the use of any information or interpretation provided by Halliburton.
#
~A           TIME           GTDEPTH  GTPQH  GTTQ  GTTN  GTET   GTTVD  
# ...
   16:51:44.513.18-Jul-2021 4545.00 5632.25 74.86 6.00 345.13 2734.68
   16:51:44.713.18-Jul-2021 4545.00 5632.25 74.86 6.00 345.33 2734.68
   16:51:44.913.18-Jul-2021 4545.00 5631.87 74.86 6.00 345.53 2734.68
   16:51:45.113.18-Jul-2021 4545.00 5632.34 74.86 6.00 345.73 2734.68
   16:51:45.313.18-Jul-2021 4545.00 5631.96 74.86 6.00 345.93 2734.68
   16:51:45.513.18-Jul-2021 4545.00 5632.08 74.86 6.00 346.13 2734.68
   16:51:45.714.18-Jul-2021 4545.00 5632.08 74.86 6.00 346.33 2734.68
   16:51:45.914.18-Jul-2021 4545.00 5631.05 74.86 6.00 346.53 2734.68
   16:51:46.114.18-Jul-2021 4545.00 5632.23 74.86 6.00 346.73 2734.68
   16:51:46.314.18-Jul-2021 4545.00 5632.13 74.86 6.00 346.93 2734.68
   16:51:46.514.18-Jul-2021 4545.00 5632.43 74.86 6.00 347.13 2734.68
   16:51:46.714.18-Jul-2021 4545.00 5632.43 74.86 6.00 347.33 2734.68
   16:51:46.914.18-Jul-2021 4545.00 5632.10 74.86 6.00 347.53 2734.68
   16:51:47.114.18-Jul-2021 4545.00 5632.20 74.86 6.00 347.73 2734.68
   16:51:47.314.18-Jul-2021 4545.00 5632.20 74.86 6.00 347.93 2734.68
   16:51:47.514.18-Jul-2021 4545.00 5632.25 74.86 6.00 348.13 2734.68
   16:51:47.714.18-Jul-2021 4545.00 5632.25 74.86 6.00 348.33 2734.68
   16:51:47.914.18-Jul-2021 4545.00 5632.17 74.86 6.00 348.53 2734.68
   16:51:48.114.18-Jul-2021 4545.00 5631.97 74.86 6.00 348.73 2734.68
   16:51:48.314.18-Jul-2021 4545.00 5632.04 74.86 6.00 348.93 2734.68
   16:51:48.515.18-Jul-2021 4545.00 5632.06 74.86 6.00 349.13 2734.68
   16:51:48.715.18-Jul-2021 4545.00 5632.06 74.86 6.00 349.33 2734.68
   16:51:48.915.18-Jul-2021 4545.00 5632.35 74.86 6.00 349.53 2734.68
   16:51:49.115.18-Jul-2021 4545.00 5632.25 74.86 6.00 349.73 2734.68
   16:51:49.315.18-Jul-2021 4545.00 5632.59 74.86 6.00 349.93 2734.68
   16:51:49.515.18-Jul-2021 4545.00 5632.46 74.86 6.00 350.13 2734.68
   16:51:49.715.18-Jul-2021 4545.00 5632.46 74.86 6.00 350.33 2734.68
   16:51:49.915.18-Jul-2021 4545.00 5632.34 74.86 6.00 350.53 2734.68
   16:51:50.115.18-Jul-2021 4545.00 5632.37 74.86 6.00 350.73 2734.68
   16:51:50.315.18-Jul-2021 4545.00 5632.42 74.86 6.00 350.93 2734.68
   16:51:50.515.18-Jul-2021 4545.00 5632.35 74.86 6.00 351.13 2734.68
   16:51:50.715.18-Jul-2021 4545.00 5632.35 74.86 6.00 351.33 2734.68
   16:51:50.915.18-Jul-2021 4545.00 5632.17 74.86 6.00 351.53 2734.68
   16:51:51.116.18-Jul-2021 4545.00 5632.18 74.86 6.00 351.73 2734.68
   16:51:51.316.18-Jul-2021 4545.00 5632.01 74.86 6.00 351.93 2734.68
   16:51:51.516.18-Jul-2021 4545.00 5631.02 74.86 6.00 352.13 2734.68
   16:51:51.716.18-Jul-2021 4545.00 5631.02 74.86 6.00 352.33 2734.68
   16:51:51.916.18-Jul-2021 4545.00 5632.07 74.86 6.00 352.53 2734.68
   16:51:52.116.18-Jul-2021 4545.00 5632.06 74.86 6.00 352.73 2734.68
   16:51:52.316.18-Jul-2021 4545.00 5632.77 74.86 6.00 352.93 2734.68
   16:51:52.516.18-Jul-2021 4545.00 5630.83 74.86 6.00 353.13 2734.68
   16:51:52.716.18-Jul-2021 4545.00 5630.83 74.86 6.00 353.33 2734.68
   16:51:52.916.18-Jul-2021 4545.00 5632.22 74.86 6.00 353.53 2734.68
   16:51:53.116.18-Jul-2021 4545.00 5631.27 74.86 6.00 353.73 2734.68
   16:51:53.316.18-Jul-2021 4545.00 5632.61 74.86 6.00 353.93 2734.68
   16:51:53.516.18-Jul-2021 4545.00 5631.89 74.86 6.00 354.13 2734.68
   16:51:53.716.18-Jul-2021 4545.00 5631.89 74.86 6.00 354.33 2734.68
   16:51:53.917.18-Jul-2021 4545.00 5632.15 74.86 6.00 354.53 2734.68
   16:51:54.117.18-Jul-2021 4545.00 5631.06 74.86 6.00 354.73 2734.68
   16:51:54.317.18-Jul-2021 4545.00 5632.55 74.86 6.00 354.93 2734.68
   16:51:54.517.18-Jul-2021 4545.00 5632.11 74.86 6.00 355.13 2734.68
   16:51:54.717.18-Jul-2021 4545.00 5632.11 74.86 6.00 355.33 2734.68
   16:51:54.917.18-Jul-2021 4545.00 5632.01 74.86 6.00 355.53 2734.68
   16:51:55.117.18-Jul-2021 4545.00 5632.06 74.86 6.00 355.73 2734.68
   16:51:55.317.18-Jul-2021 4545.00 5632.05 74.86 6.00 355.93 2734.68
   16:51:55.517.18-Jul-2021 4545.00 5632.05 74.86 6.00 356.13 2734.68
   16:51:55.717.18-Jul-2021 4545.00 5632.05 74.86 6.00 356.33 2734.68
   16:51:55.917.18-Jul-2021 4545.00 5632.02 74.86 6.00 356.53 2734.68
   16:51:56.117.18-Jul-2021 4545.00 5631.96 74.86 6.00 356.73 2734.68
   16:51:56.317.18-Jul-2021 4545.00 5634.27 74.86 6.00 356.93 2734.68
   16:51:56.517.18-Jul-2021 4545.00 5637.65 74.86 6.00 357.13 2734.68
   16:51:56.718.18-Jul-2021 4545.00 5637.65 74.86 6.00 357.33 2734.68
   16:51:56.918.18-Jul-2021 4545.00 5952.04 74.86 6.00 357.53 2734.68
   16:51:57.118.18-Jul-2021 4545.00 6678.13 74.86 6.00 357.73 2734.68
   16:51:57.318.18-Jul-2021 4545.00 6669.25 74.86 6.00 357.93 2734.68
   16:51:57.518.18-Jul-2021 4545.00 6666.09 74.86 6.00 358.13 2734.68
   16:51:57.718.18-Jul-2021 4545.00 6666.09 74.86 6.00 358.33 2734.68
   16:51:57.918.18-Jul-2021 4545.00 6665.28 74.86 6.00 358.53 2734.68
   16:51:58.118.18-Jul-2021 4545.00 6667.20 74.86 6.00 358.73 2734.68
   16:51:58.318.18-Jul-2021 4545.00 6667.00 74.86 6.00 358.93 2734.68
   16:51:58.518.18-Jul-2021 4545.00 6665.45 74.86 6.00 359.13 2734.68
   16:51:58.718.18-Jul-2021 4545.00 6665.45 74.86 6.00 359.33 2734.68
   16:51:58.918.18-Jul-2021 4545.00 6664.35 74.86 6.00 359.53 2734.68
   16:51:59.118.18-Jul-2021 4545.00 6664.92 74.86 6.00 359.73 2734.68
   16:51:59.319.18-Jul-2021 4545.00 6664.69 74.86 6.00 359.93 2734.68
   16:51:59.519.18-Jul-2021 4545.00 6664.51 74.86 6.00 360.13 2734.68
   16:51:59.719.18-Jul-2021 4545.00 6664.51 74.86 6.00 360.33 2734.68
   16:51:59.919.18-Jul-2021 4545.00 6677.62 74.86 6.00 360.53 2734.68
   16:52:00.119.18-Jul-2021 4545.00 6676.17 74.86 6.00 360.73 2734.68
   16:52:00.319.18-Jul-2021 4545.00 6687.12 74.86 6.00 360.93 2734.68
   16:52:00.519.18-Jul-2021 4545.00 6673.24 74.86 6.00 361.13 2734.68
   16:52:00.719.18-Jul-2021 4545.00 6673.24 74.86 6.00 361.33 2734.68
   16:52:00.919.18-Jul-2021 4545.00 6694.74 74.87 6.00 361.53 2734.68
   16:52:01.119.18-Jul-2021 4545.00 6667.65 74.87 6.00 361.73 2734.68
   16:52:01.319.18-Jul-2021 4545.00 6691.87 74.87 6.00 361.93 2734.68
   16:52:01.519.18-Jul-2021 4545.00 6685.15 74.87 6.00 362.13 2734.68
   16:52:01.719.18-Jul-2021 4545.00 6685.15 74.87 6.00 362.33 2734.68
   16:52:01.919.18-Jul-2021 4545.00 6671.94 74.87 6.00 362.53 2734.68
   16:52:02.120.18-Jul-2021 4545.00 6669.63 74.87 6.00 362.73 2734.68
   16:52:02.320.18-Jul-2021 4545.00 6696.95 74.87 6.00 362.93 2734.68
   16:52:02.520.18-Jul-2021 4545.00 6676.98 74.87 6.00 363.13 2734.68
   16:52:02.720.18-Jul-2021 4545.00 6676.98 74.87 6.00 363.33 2734.68
   16:52:02.920.18-Jul-2021 4545.00 6670.54 74.87 6.00 363.53 2734.68
   16:52:03.120.18-Jul-2021 4545.00 6672.79 74.87 6.00 363.73 2734.68
   16:52:03.320.18-Jul-2021 4545.00 6669.78 74.87 6.00 363.93 2734.68
   16:52:03.520.18-Jul-2021 4545.00 6670.39 74.87 6.00 364.13 2734.68
   16:52:03.720.18-Jul-2021 4545.00 6670.39 74.87 6.00 364.33 2734.68
   16:52:03.920.18-Jul-2021 4545.00 6669.45 74.87 6.00 364.53 2734.68
   16:52:04.120.18-Jul-2021 4545.00 6669.11 74.87 6.00 364.73 2734.68
   16:52:04.320.18-Jul-2021 4545.00 6669.84 74.87 6.00 364.93 2734.68
   16:52:04.520.18-Jul-2021 4545.00 6669.75 74.87 6.00 365.13 2734.68
   16:52:04.721.18-Jul-2021 4545.00 6669.75 74.87 6.00 365.33 2734.68
   16:52:04.921.18-Jul-2021 4545.00 6669.25 74.87 6.00 365.53 2734.68
   16:52:05.121.18-Jul-2021 4545.00 6697.46 74.87 6.00 365.73 2734.68
   16:52:05.321.18-Jul-2021 4545.00 6676.65 74.87 6.00 365.93 2734.68
   16:52:05.521.18-Jul-2021 4545.00 6669.09 74.87 6.00 366.13 2734.68
   16:52:05.721.18-Jul-2021 4545.00 6669.09 74.87 6.00 366.33 2734.68
   16:52:05.921.18-Jul-2021 4545.00 6672.57 74.87 6.00 366.53 2734.68
   16:52:06.121.18-Jul-2021 4545.00 6668.62 74.87 6.00 366.74 2734.68
   16:52:06.321.18-Jul-2021 4545.00 6669.07 74.87 6.00 366.94 2734.68
   16:52:06.521.18-Jul-2021 4545.00 6668.19 74.87 6.00 367.14 2734.68
   16:52:06.721.18-Jul-2021 4545.00 6668.19 74.87 6.00 367.34 2734.68
   16:52:06.921.18-Jul-2021 4545.00 6666.15 74.87 6.00 367.54 2734.68
   16:52:07.121.18-Jul-2021 4545.00 6666.32 74.88 6.00 367.74 2734.68
   16:52:07.321.18-Jul-2021 4545.00 6666.89 74.88 6.00 367.94 2734.68
