~Version Information
 VERS.                  2.0:   CWLS log ASCII Standard -VERSION 2.0
 WRAP.                   NO:   One line per depth step
~Well Information Block
#MNEM.UNIT     VALUE/NAME     DESCRIPTION
#---------     -----------    ---------------------------
 STRT.S             06:08:07 19-Jul-21: START TIME 06:08:07 19-Jul-21
 STOP.S             06:15:04 19-Jul-21: STOP TIME  06:15:04 19-Jul-21
 STEP.S                   0.00: STEP TIME
 NULL.                 -999.25: NULL VALUE
 MDS .        Operator Entered:  MAG DATA SOURCE
 PDAT.          Mean Sea Level:  PERMANENT DATUM
 UNIT.                     N/A:  LOGGING EQUIPMENT ID
 DCON.         Sperry Drilling:  DIRECTNL CONTR
 DOE .                     N/A:  DOE NUMBER
 RIG .              West Azeri:  RIG NAME
 JOBN.        AZ-XX-0906997913:  JOB TICKET NUMB
 WELL.                     C41:  WELL NAME
 MWDS.                    Baku:  MWD SHOP
 SRVC.          Turan Drilling:  CONTRACTOR
 FLD .                     ACG:  FIELD NAME
 CTRY.              Azerbaijan:  COUNTRY NAME
 PROV.                    Baku:  PROVINCE
 STAT.                    Baku:  STATE NAME
 REGN.                   EESSA:  REGION
 BASE.              Azerbaijan:  LOGGING EQUIPMENT BASE LOCATION
 UWI .                     N/A:  UNIQUE WELL IDENTIFIER
 API .                     N/A:  API NUMBER
 COMP.     BP Exploration (Caspian Sea) Ltd.:  COMPANY
 WTYP.                Deviated:  WELL TYPE
 SON .        AZ-XX-0906997913:  JOB NUMBER
 FTOP.          Formation Tops:  FORM TOPS DESC
 ILTD.               Lithology:  INTERP LTH DESC
 SVYD.                  Survey:  SURVEY DESC
 DMOD.             Drill Model:  DRILL MOD DESC
 HPTY.       Minimum Curvature:  HOLE POS TYPE
 NREF.                    Grid:  NORTH REFERENCE
 SPUD.               16-May-21:  SPUD DATE
 DATE.      21.11.28 17-May-21:  END TIME
 STIM.      21.11.28 17-May-21:  START TIME
 DMF .             Drill Floor:  DRILL MEAS FROM
 DFST.                        :  DIST FSL TEXT
 DFWT.                        :  DIST FWL TEXT
 CNTY.                        :  COUNTY
 LOC .                        :  LOCATION
 LMF .             Drill Floor:  LOG MEASURED FROM
 AGAP.m                  43.42:  AIR GAP
 VSNS.m                  -2.16:  VERT SEC N/S
 VSEW.m                  -6.24:  VERT SEC E/W
 APD .m                  43.42:  DEPTH ABOVE PD
 WDMS.m                 118.27:  WD ELEV
 EGL .m                   0.00:  GROUND ELEVATION
 EPD .m                   0.00:  ELEVATION
 AZTC.deg                 6.29:  AZM TOTAL CORR
 GRDC.deg                 0.18:  GRID CORRECTION
 MDEC.deg                 6.47:  MAGNETIC DECL
 MDIP.deg                59.54:  MAGNETIC DIP
 MFLD.nT              50337.00:  MAGNETIC FIELD
 GVFD.g                   1.00:  GRAVITY FIELD
 VSDR.deg               226.99:  VERT SEC DIRECT
 TDD .m                   0.00:  TOTAL DEPTH (DRILLER)
 SDEP.m                 448.00:  START DEPTH
 DFSL.m                   0.00:  DISTANCE FSL
 DFWL.m                   0.00:  DISTANCE FWL
 UTMY.m             4435799.96:  UTM Y
 UTMX.m              526265.35:  UTM X
 WHEW.m                  -6.24:  WELL HEAD E/W
 WHNS.m                  -2.16:  WELL HEAD N/S
 LONG.deg                51.31:  LONGITUDE
 LATI.deg                40.06:  LATITUDE
 TVDS.m                  43.42:  TVDSS CORRECTN
 EKB .m                  43.42:  KB ELEVATION
 EDF .m                  43.42:  DF ELEVATION
 TDL .m                 288.00:  TOTAL DEPTH (LOGGER)
 MAGU.                 1851863:  MAGUTM CHECKSUM
 VSC .                       0:  VS TO CLOSURE
~Parameter Information Block
#MNEM.UNIT       Value        Description
#---------     -----------    ---------------------------
 AV  .mps                 0.40:  Ann Velocity 
 AVMX.mps                 0.63:  Max Ann Veloc 
 AZIF.deg               158.76:  Azm, Final 
 BHAT.        Rotary Steerable:  BHA Type 
 BROT.°/30m               0.68:  Build Rotating 
 BS  .in                  8.50:  Bit Size 
 BSZ .in                  8.50:  Bit Size 
 BTPL.psig              712.00:  Bit Press Loss 
 CABU.                      No:  Customer Abuse 
 TCS .hr                 90.66:  Time Ciculation Ended 
 CV  .mps                 2.02:  Crit Velocity 
 CVMX.mps                 2.14:  Max Crit Veloc 
 DD1 .            Aziz Aliyevu:  Direct Drillr 1 
 DD2 .             Samir Abbas:  Direct Drillr 2 
 DD3 .           Teymur Aliyev:  Direct Drillr 3 
 DDSV.                 iCruise:  DD Service 
 DEFF.%                  85.10:  % Det Eff 
 DLRX.°/30m               1.05:  Dogleg Rot Max 
 DLSO.°/30m               1.01:  Dogleg Oriented 
 DLSX.°/30m               1.05:  Dogleg Str Max 
 DRET.      07.45.00 18-Jul-21:  Drill End Time 
 DRST.      15.00.00 16-Jul-21:  Drill Start Tim 
 DTIM.hr                 23.46:  Time Drilling 
 EDEP.m                4603.00:  End Depth 
 ENG1.       Seymur Iskandarov:  Engineer 1 
 ENG2.         Yevgeniy Ulikov:  Engineer 2 
 ENG3.         Bahruz Mehdiyev:  Engineer 3 
 ENG4.         Elchin Mammadov:  Engineer 4 
 ETIM.      14.00.00 23-Jul-21:  End Time 
 FLOI.gpm               500.00:  Flow In 
 FLON.gpm               450.00:  Flow In Min 
 FLOS.cptm                0.00:  Fluid Loss 
 FLOX.gpm               560.00:  Flow In Max 
 DFT .        Mineral Oil Base:  Mud Type 
 FTRO.       Formation Presure:  FTWD Run Obj 
 HFLO.                      No:  High Flow 
 HPRE.                      No:  High Pressure 
 HTEM.                      No:  High Temp 
 HYDO.m                   1.80:  Hydro Offset 
 IFIN.deg                40.22:  Inc, Final 
 IMAX.deg                40.54:  Inc Max 
 IMIN.deg                39.44:  Inc Min 
 IMND.m                4361.17:  Inc Min Depth 
 IMXD.m                4417.92:  Inc Max Depth 
 JARR.                      No:  Jarring 
 LETM.      07.45.00 18-Jul-21:  Log End Time 
 LOST.hr                    16:  Lost Rig Time 
 LSTM.      15.00.00 16-Jul-21:  Log Start Time 
 MDCL.ppm             36500.00:  Mud Chlorides 
 MDES.     Inversion Oil/Synthetic:  Mud Desc 
 DFD .sg                  1.42:  Mud Density 
 MDMN.sg                  1.42:  Dens Mud Min 
 MDMX.sg                  1.43:  Dens Mud Max 
 MOIL.                      56:  Run Mud Oil % 
 MOWR.                   71:29:  Run Mud OWR 
 MSND.                     0.5:  Run Mud Sand % 
 MSOL.                      21:  Run Mud Solids% 
 DFV .spqt               78.00:  Mud Viscosity 
 MWOD.in                  6.75:  MWD Tool OD 
 MWSI.                     Yes:  Serv Intrp, MWD 
 OTIM.hr                200.73:  Time Operating 
 PCON.           Look Like New:  Pad Condition 
 PMAX.psia            11069.93:  Press Op, Max 
 PV  .cP                 32.00:  Mud PV 
 RUN .                     700:  Run Number 
 ROPA.m/hr               10.00:  ROP Avg 
 ROPN.m/hr                9.00:  ROP Min 
 ROPX.m/hr               16.00:  ROP Max 
 RPMA.rpm               116.00:  RPM Surface Avg 
 RPMN.rpm                80.00:  RPM Surface Min 
 RPMX.rpm               120.00:  RPM Surface Max 
 RRUN.                    L605:  Rig Run Number 
 RTIM.hr                 45.00:  Time Reaming 
 SAZI.deg               159.86:  Azm, Start 
 SDEP.m                4315.00:  Start Depth 
 SIDD.                      No:  Serv Intrp, DD 
 SINC.deg                39.86:  Inc, Start 
 SPPA.psig             3300.00:  SPP Avg 
 SPPN.psig             3040.00:  SPP Min 
 SPPX.psig             3645.00:  SPP Max 
 STIM.      01.00.00 15-Jul-21:  Start Time 
 SVCS.                 DD, MWD:  Services 
 SVER.                    9.20:  Sperry Version 
 TDAT.m                 288.00:  Tot Depth Attmp 
 TDDF.                      No:  Trip for DD 
 TDLG.m                 288.00:  Tot Depth Loggd 
 TFF .                      No:  Trip for Fail 
 TQAA.f-kp               19.00:  Torque Abs Avg 
 TQAN.f-kp               18.00:  Torque Abs Min 
 TQAX.f-kp               21.00:  Torque Abs Max 
 TRRT.°/30m               0.45:  Turn Rotating 
 MRT .                    HCIM:  Maximum Recorded Temperature 
 TTMX.degC               88.24:  Max Tool Temp 
 VS01.                90649157:  Virtual Str1 SN 
 VS02.                90652483:  Virtual Str2 SN 
 VS03.                11671987:  Virtual Str3 SN 
 VS04.                90643411:  Virtual Str4 SN 
 VS05.                90652478:  Virtual Str5 SN 
 VS06.                    6111:  Virtual Str6 SN 
 WBMN.klb                 9.50:  WOB Min 
 WITN.        Grigoriy Sarayev:  Customer Rep 
 WITN.          Rufat Huseynov:  Customer Rep 2 
 WOBA.klb                11.00:  WOB Avg 
 WOBX.klb                15.00:  WOB Max 
 YP  .lhf2               28.00:  Yield Point 
~Curve Information Block
#MNEM.UNIT                 API CODE     Curve Description
#---------               -----------    ---------------------------
 TIME.HHMMSS            00 000 000 000:  GT Time & Date
 GTDEPTH.m              00 000 000 000:  GT Depth
 GTPQH.psia             00 000 000 000:  GT HR Quartz Pressure
 GTTQ.degC              00 000 000 000:  GT Quartz Temperature
 GTTN.NONE              00 000 000 000:  GT Test Number
 GTET.sec               00 000 000 000:  GT Elapsed Test Time
 GTTVD.m                00 000 000 000:  GT True Vertical Depth
#Other Information
#
#WARRANTY: Halliburton will use its best efforts to furnish customers with 
#accurate information and interpretations that are part of, and incident to, the services 
#provided.  However, Halliburton cannot and does not warrant the accuracy 
#or correctness of such information and interpretations.  Under no circumstances should any 
#such information or interpretation be relied upon as the sole basis for any drilling, 
#completion, production, or financial decision or any procedure involving any risk to the 
#safety of any drilling venture, drilling rig or its crew or any other third party.  The 
#Customer has full responsibility for all drilling, completion and production operation.  
#Halliburton makes no representations or warranties, either expressed or 
#implied, including, but not limited to, the implied warranties of merchantability or fitness 
#for a particular purpose, with respect to the services rendered.  In no event will 
#Halliburton be liable for failure to obtain any particular results or for 
#any damages, including, but not limited to, indirect, special or consequential damages, 
#resulting from the use of any information or interpretation provided by Halliburton.
#
~A           TIME           GTDEPTH  GTPQH  GTTQ  GTTN   GTET   GTTVD  
# ...
   06:10:45.365.19-Jul-2021 4380.90 4155.32 69.29 14.00 158.26 2609.29
   06:10:45.565.19-Jul-2021 4380.90 4155.52 69.29 14.00 158.46 2609.29
   06:10:45.766.19-Jul-2021 4380.90 4155.56 69.29 14.00 158.66 2609.29
   06:10:45.966.19-Jul-2021 4380.90 4155.61 69.29 14.00 158.86 2609.29
   06:10:46.166.19-Jul-2021 4380.90 4155.70 69.29 14.00 159.06 2609.29
   06:10:46.366.19-Jul-2021 4380.90 4155.70 69.29 14.00 159.26 2609.29
   06:10:46.566.19-Jul-2021 4380.90 4155.68 69.29 14.00 159.46 2609.29
   06:10:46.766.19-Jul-2021 4380.90 4154.71 69.29 14.00 159.66 2609.29
   06:10:46.966.19-Jul-2021 4380.90 4155.54 69.29 14.00 159.86 2609.29
   06:10:47.166.19-Jul-2021 4380.90 4155.80 69.29 14.00 160.06 2609.29
   06:10:47.366.19-Jul-2021 4380.90 4155.80 69.29 14.00 160.26 2609.29
   06:10:47.566.19-Jul-2021 4380.90 4155.36 69.29 14.00 160.46 2609.29
   06:10:47.766.19-Jul-2021 4380.90 4155.68 69.29 14.00 160.66 2609.29
   06:10:47.966.19-Jul-2021 4380.90 4156.48 69.29 14.00 160.86 2609.29
   06:10:48.166.19-Jul-2021 4380.90 4156.17 69.29 14.00 161.06 2609.29
   06:10:48.366.19-Jul-2021 4380.90 4156.17 69.29 14.00 161.26 2609.29
   06:10:48.567.19-Jul-2021 4380.90 4155.74 69.29 14.00 161.46 2609.29
   06:10:48.767.19-Jul-2021 4380.90 4156.42 69.29 14.00 161.66 2609.29
   06:10:48.967.19-Jul-2021 4380.90 4156.35 69.29 14.00 161.86 2609.29
   06:10:49.167.19-Jul-2021 4380.90 4156.75 69.29 14.00 162.06 2609.29
   06:10:49.367.19-Jul-2021 4380.90 4156.75 69.29 14.00 162.26 2609.29
   06:10:49.567.19-Jul-2021 4380.90 4156.17 69.29 14.00 162.46 2609.29
   06:10:49.767.19-Jul-2021 4380.90 4156.48 69.29 14.00 162.66 2609.29
   06:10:49.967.19-Jul-2021 4380.90 4156.63 69.29 14.00 162.86 2609.29
   06:10:50.167.19-Jul-2021 4380.90 4156.54 69.29 14.00 163.06 2609.29
   06:10:50.367.19-Jul-2021 4380.90 4156.54 69.29 14.00 163.26 2609.29
   06:10:50.567.19-Jul-2021 4380.90 4156.59 69.29 14.00 163.46 2609.29
   06:10:50.767.19-Jul-2021 4380.90 4156.57 69.29 14.00 163.66 2609.29
   06:10:50.967.19-Jul-2021 4380.90 4156.60 69.29 14.00 163.86 2609.29
   06:10:51.167.19-Jul-2021 4380.90 4156.60 69.29 14.00 164.06 2609.29
   06:10:51.368.19-Jul-2021 4380.90 4156.60 69.29 14.00 164.26 2609.29
   06:10:51.568.19-Jul-2021 4380.90 4156.55 69.29 14.00 164.46 2609.29
   06:10:51.768.19-Jul-2021 4380.90 4156.54 69.29 14.00 164.66 2609.29
   06:10:51.968.19-Jul-2021 4380.90 4156.11 69.29 14.00 164.86 2609.29
   06:10:52.168.19-Jul-2021 4380.90 4156.79 69.29 14.00 165.06 2609.29
   06:10:52.368.19-Jul-2021 4380.90 4156.79 69.29 14.00 165.26 2609.29
   06:10:52.568.19-Jul-2021 4380.90 4156.74 69.30 14.00 165.46 2609.29
   06:10:52.768.19-Jul-2021 4380.90 4156.54 69.30 14.00 165.66 2609.29
   06:10:52.968.19-Jul-2021 4380.90 4156.57 69.30 14.00 165.86 2609.29
   06:10:53.168.19-Jul-2021 4380.90 4156.67 69.30 14.00 166.06 2609.29
   06:10:53.368.19-Jul-2021 4380.90 4156.67 69.30 14.00 166.26 2609.29
   06:10:53.568.19-Jul-2021 4380.90 4156.61 69.30 14.00 166.46 2609.29
   06:10:53.768.19-Jul-2021 4380.90 4156.62 69.30 14.00 166.66 2609.29
   06:10:53.969.19-Jul-2021 4380.90 4156.63 69.30 14.00 166.86 2609.29
   06:10:54.169.19-Jul-2021 4380.90 4156.65 69.30 14.00 167.06 2609.29
   06:10:54.369.19-Jul-2021 4380.90 4156.65 69.30 14.00 167.26 2609.29
   06:10:54.569.19-Jul-2021 4380.90 4156.19 69.30 14.00 167.46 2609.29
   06:10:54.769.19-Jul-2021 4380.90 4156.84 69.30 14.00 167.66 2609.29
   06:10:54.969.19-Jul-2021 4380.90 4156.31 69.30 14.00 167.86 2609.29
   06:10:55.169.19-Jul-2021 4380.90 4156.33 69.30 14.00 168.06 2609.29
   06:10:55.369.19-Jul-2021 4380.90 4156.33 69.30 14.00 168.26 2609.29
   06:10:55.569.19-Jul-2021 4380.90 4156.56 69.30 14.00 168.46 2609.29
   06:10:55.769.19-Jul-2021 4380.90 4156.95 69.30 14.00 168.66 2609.29
   06:10:55.969.19-Jul-2021 4380.90 4155.98 69.30 14.00 168.86 2609.29
   06:10:56.169.19-Jul-2021 4380.90 4156.76 69.30 14.00 169.06 2609.29
   06:10:56.369.19-Jul-2021 4380.90 4156.76 69.30 14.00 169.26 2609.29
   06:10:56.569.19-Jul-2021 4380.90 4156.88 69.30 14.00 169.46 2609.29
   06:10:56.770.19-Jul-2021 4380.90 4156.82 69.30 14.00 169.66 2609.29
   06:10:56.970.19-Jul-2021 4380.90 4156.72 69.30 14.00 169.86 2609.29
   06:10:57.170.19-Jul-2021 4380.90 4156.80 69.30 14.00 170.06 2609.29
   06:10:57.370.19-Jul-2021 4380.90 4156.80 69.30 14.00 170.26 2609.29
   06:10:57.570.19-Jul-2021 4380.90 4156.15 69.30 14.00 170.46 2609.29
   06:10:57.770.19-Jul-2021 4380.90 4156.85 69.30 14.00 170.66 2609.29
   06:10:57.970.19-Jul-2021 4380.90 4156.54 69.30 14.00 170.86 2609.29
   06:10:58.170.19-Jul-2021 4380.90 4157.03 69.30 14.00 171.06 2609.29
   06:10:58.370.19-Jul-2021 4380.90 4157.03 69.30 14.00 171.26 2609.29
   06:10:58.570.19-Jul-2021 4380.90 4156.78 69.30 14.00 171.46 2609.29
   06:10:58.770.19-Jul-2021 4380.90 4156.86 69.30 14.00 171.66 2609.29
   06:10:58.970.19-Jul-2021 4380.90 4156.90 69.30 14.00 171.86 2609.29
   06:10:59.170.19-Jul-2021 4380.90 4156.97 69.30 14.00 172.06 2609.29
   06:10:59.371.19-Jul-2021 4380.90 4156.97 69.30 14.00 172.26 2609.29
   06:10:59.571.19-Jul-2021 4380.90 4156.81 69.30 14.00 172.46 2609.29
   06:10:59.771.19-Jul-2021 4380.90 4156.82 69.30 14.00 172.66 2609.29
   06:10:59.971.19-Jul-2021 4380.90 4156.79 69.30 14.00 172.86 2609.29
   06:11:00.171.19-Jul-2021 4380.90 4156.80 69.30 14.00 173.06 2609.29
   06:11:00.371.19-Jul-2021 4380.90 4156.80 69.30 14.00 173.26 2609.29
   06:11:00.571.19-Jul-2021 4380.90 4156.62 69.30 14.00 173.46 2609.29
   06:11:00.771.19-Jul-2021 4380.90 4156.70 69.30 14.00 173.66 2609.29
   06:11:00.971.19-Jul-2021 4380.90 4156.94 69.30 14.00 173.86 2609.29
   06:11:01.171.19-Jul-2021 4380.90 4156.63 69.30 14.00 174.06 2609.29
   06:11:01.371.19-Jul-2021 4380.90 4156.63 69.30 14.00 174.26 2609.29
   06:11:01.571.19-Jul-2021 4380.90 4156.84 69.30 14.00 174.46 2609.29
   06:11:01.771.19-Jul-2021 4380.90 4156.84 69.30 14.00 174.66 2609.29
   06:11:01.971.19-Jul-2021 4380.90 4156.80 69.30 14.00 174.86 2609.29
   06:11:02.172.19-Jul-2021 4380.90 4156.83 69.30 14.00 175.06 2609.29
   06:11:02.372.19-Jul-2021 4380.90 4156.83 69.30 14.00 175.26 2609.29
   06:11:02.572.19-Jul-2021 4380.90 4156.90 69.30 14.00 175.46 2609.29
   06:11:02.772.19-Jul-2021 4380.90 4156.81 69.30 14.00 175.66 2609.29
   06:11:02.972.19-Jul-2021 4380.90 4156.29 69.30 14.00 175.86 2609.29
   06:11:03.172.19-Jul-2021 4380.90 4156.88 69.30 14.00 176.06 2609.29
   06:11:03.372.19-Jul-2021 4380.90 4156.88 69.30 14.00 176.26 2609.29
   06:11:03.572.19-Jul-2021 4380.90 4156.58 69.30 14.00 176.46 2609.29
   06:11:03.772.19-Jul-2021 4380.90 4156.48 69.30 14.00 176.67 2609.29
   06:11:03.972.19-Jul-2021 4380.90 4156.71 69.30 14.00 176.87 2609.29
   06:11:04.172.19-Jul-2021 4380.90 4157.02 69.30 14.00 177.07 2609.29
   06:11:04.372.19-Jul-2021 4380.90 4157.02 69.30 14.00 177.27 2609.29
   06:11:04.572.19-Jul-2021 4380.90 4156.36 69.30 14.00 177.47 2609.29
   06:11:04.773.19-Jul-2021 4380.90 4156.78 69.30 14.00 177.67 2609.29
   06:11:04.973.19-Jul-2021 4380.90 4157.00 69.30 14.00 177.87 2609.29
   06:11:05.173.19-Jul-2021 4380.90 4156.64 69.30 14.00 178.07 2609.29
   06:11:05.373.19-Jul-2021 4380.90 4156.64 69.30 14.00 178.27 2609.29
   06:11:05.573.19-Jul-2021 4380.90 4156.80 69.30 14.00 178.47 2609.29
   06:11:05.773.19-Jul-2021 4380.90 4156.94 69.30 14.00 178.67 2609.29
   06:11:05.973.19-Jul-2021 4380.90 4156.27 69.30 14.00 178.87 2609.29
   06:11:06.173.19-Jul-2021 4380.90 4157.10 69.30 14.00 179.07 2609.29
   06:11:06.373.19-Jul-2021 4380.90 4157.10 69.30 14.00 179.27 2609.29
   06:11:06.573.19-Jul-2021 4380.90 4157.07 69.30 14.00 179.47 2609.29
   06:11:06.773.19-Jul-2021 4380.90 4156.75 69.30 14.00 179.67 2609.29
   06:11:06.973.19-Jul-2021 4380.90 4156.84 69.30 14.00 179.87 2609.29
   06:11:07.173.19-Jul-2021 4380.90 4156.91 69.30 14.00 180.07 2609.29
   06:11:07.373.19-Jul-2021 4380.90 4156.91 69.30 14.00 180.27 2609.29
   06:11:07.574.19-Jul-2021 4380.90 4156.88 69.30 14.00 180.47 2609.29
   06:11:07.774.19-Jul-2021 4380.90 4156.90 69.30 14.00 180.67 2609.29
