~Version Information
 VERS.                  2.0:   CWLS log ASCII Standard -VERSION 2.0
 WRAP.                   NO:   One line per depth step
~Well Information Block
#MNEM.UNIT     VALUE/NAME     DESCRIPTION
#---------     -----------    ---------------------------
 STRT.S             08:29:33 19-Jul-21: START TIME 08:29:33 19-Jul-21
 STOP.S             08:36:27 19-Jul-21: STOP TIME  08:36:27 19-Jul-21
 STEP.S                   0.00: STEP TIME
 NULL.                 -999.25: NULL VALUE
 MDS .        Operator Entered:  MAG DATA SOURCE
 PDAT.          Mean Sea Level:  PERMANENT DATUM
 UNIT.                     N/A:  LOGGING EQUIPMENT ID
 DCON.         Sperry Drilling:  DIRECTNL CONTR
 DOE .                     N/A:  DOE NUMBER
 RIG .              West Azeri:  RIG NAME
 JOBN.        AZ-XX-0906997913:  JOB TICKET NUMB
 WELL.                     C41:  WELL NAME
 MWDS.                    Baku:  MWD SHOP
 SRVC.          Turan Drilling:  CONTRACTOR
 FLD .                     ACG:  FIELD NAME
 CTRY.              Azerbaijan:  COUNTRY NAME
 PROV.                    Baku:  PROVINCE
 STAT.                    Baku:  STATE NAME
 REGN.                   EESSA:  REGION
 BASE.              Azerbaijan:  LOGGING EQUIPMENT BASE LOCATION
 UWI .                     N/A:  UNIQUE WELL IDENTIFIER
 API .                     N/A:  API NUMBER
 COMP.     BP Exploration (Caspian Sea) Ltd.:  COMPANY
 WTYP.                Deviated:  WELL TYPE
 SON .        AZ-XX-0906997913:  JOB NUMBER
 FTOP.          Formation Tops:  FORM TOPS DESC
 ILTD.               Lithology:  INTERP LTH DESC
 SVYD.                  Survey:  SURVEY DESC
 DMOD.             Drill Model:  DRILL MOD DESC
 HPTY.       Minimum Curvature:  HOLE POS TYPE
 NREF.                    Grid:  NORTH REFERENCE
 SPUD.               16-May-21:  SPUD DATE
 DATE.      21.11.28 17-May-21:  END TIME
 STIM.      21.11.28 17-May-21:  START TIME
 DMF .             Drill Floor:  DRILL MEAS FROM
 DFST.                        :  DIST FSL TEXT
 DFWT.                        :  DIST FWL TEXT
 CNTY.                        :  COUNTY
 LOC .                        :  LOCATION
 LMF .             Drill Floor:  LOG MEASURED FROM
 AGAP.m                  43.42:  AIR GAP
 VSNS.m                  -2.16:  VERT SEC N/S
 VSEW.m                  -6.24:  VERT SEC E/W
 APD .m                  43.42:  DEPTH ABOVE PD
 WDMS.m                 118.27:  WD ELEV
 EGL .m                   0.00:  GROUND ELEVATION
 EPD .m                   0.00:  ELEVATION
 AZTC.deg                 6.29:  AZM TOTAL CORR
 GRDC.deg                 0.18:  GRID CORRECTION
 MDEC.deg                 6.47:  MAGNETIC DECL
 MDIP.deg                59.54:  MAGNETIC DIP
 MFLD.nT              50337.00:  MAGNETIC FIELD
 GVFD.g                   1.00:  GRAVITY FIELD
 VSDR.deg               226.99:  VERT SEC DIRECT
 TDD .m                   0.00:  TOTAL DEPTH (DRILLER)
 SDEP.m                 448.00:  START DEPTH
 DFSL.m                   0.00:  DISTANCE FSL
 DFWL.m                   0.00:  DISTANCE FWL
 UTMY.m             4435799.96:  UTM Y
 UTMX.m              526265.35:  UTM X
 WHEW.m                  -6.24:  WELL HEAD E/W
 WHNS.m                  -2.16:  WELL HEAD N/S
 LONG.deg                51.31:  LONGITUDE
 LATI.deg                40.06:  LATITUDE
 TVDS.m                  43.42:  TVDSS CORRECTN
 EKB .m                  43.42:  KB ELEVATION
 EDF .m                  43.42:  DF ELEVATION
 TDL .m                 288.00:  TOTAL DEPTH (LOGGER)
 MAGU.                 1851863:  MAGUTM CHECKSUM
 VSC .                       0:  VS TO CLOSURE
~Parameter Information Block
#MNEM.UNIT       Value        Description
#---------     -----------    ---------------------------
 AV  .mps                 0.40:  Ann Velocity 
 AVMX.mps                 0.63:  Max Ann Veloc 
 AZIF.deg               158.76:  Azm, Final 
 BHAT.        Rotary Steerable:  BHA Type 
 BROT.°/30m               0.68:  Build Rotating 
 BS  .in                  8.50:  Bit Size 
 BSZ .in                  8.50:  Bit Size 
 BTPL.psig              712.00:  Bit Press Loss 
 CABU.                      No:  Customer Abuse 
 COMM.                     ìk:  Run Comments 1 
 TCS .hr                 90.66:  Time Ciculation Ended 
 CV  .mps                 2.02:  Crit Velocity 
 CVMX.mps                 2.14:  Max Crit Veloc 
 DD1 .            Aziz Aliyevu:  Direct Drillr 1 
 DD2 .             Samir Abbas:  Direct Drillr 2 
 DD3 .           Teymur Aliyev:  Direct Drillr 3 
 DDSV.                 iCruise:  DD Service 
 DEFF.%                  85.10:  % Det Eff 
 DLRX.°/30m               1.05:  Dogleg Rot Max 
 DLSO.°/30m               1.01:  Dogleg Oriented 
 DLSX.°/30m               1.05:  Dogleg Str Max 
 DRET.      07.45.00 18-Jul-21:  Drill End Time 
 DRST.      15.00.00 16-Jul-21:  Drill Start Tim 
 DTIM.hr                 23.46:  Time Drilling 
 EDEP.m                4603.00:  End Depth 
 ENG1.       Seymur Iskandarov:  Engineer 1 
 ENG2.         Yevgeniy Ulikov:  Engineer 2 
 ENG3.         Bahruz Mehdiyev:  Engineer 3 
 ENG4.         Elchin Mammadov:  Engineer 4 
 ETIM.      14.00.00 23-Jul-21:  End Time 
 FLOI.gpm               500.00:  Flow In 
 FLON.gpm               450.00:  Flow In Min 
 FLOS.cptm                0.00:  Fluid Loss 
 FLOX.gpm               560.00:  Flow In Max 
 DFT .        Mineral Oil Base:  Mud Type 
 FTRO.       Formation Presure:  FTWD Run Obj 
 HFLO.                      No:  High Flow 
 HPRE.                      No:  High Pressure 
 HTEM.                      No:  High Temp 
 HYDO.m                   1.80:  Hydro Offset 
 IFIN.deg                40.22:  Inc, Final 
 IMAX.deg                40.54:  Inc Max 
 IMIN.deg                39.44:  Inc Min 
 IMND.m                4361.17:  Inc Min Depth 
 IMXD.m                4417.92:  Inc Max Depth 
 JARR.                      No:  Jarring 
 LETM.      07.45.00 18-Jul-21:  Log End Time 
 LOST.hr                    16:  Lost Rig Time 
 LSTM.      15.00.00 16-Jul-21:  Log Start Time 
 MDCL.ppm             36500.00:  Mud Chlorides 
 MDES.     Inversion Oil/Synthetic:  Mud Desc 
 DFD .sg                  1.42:  Mud Density 
 MDMN.sg                  1.42:  Dens Mud Min 
 MDMX.sg                  1.43:  Dens Mud Max 
 MOIL.                      56:  Run Mud Oil % 
 MOWR.                   71:29:  Run Mud OWR 
 MSND.                     0.5:  Run Mud Sand % 
 MSOL.                      21:  Run Mud Solids% 
 DFV .spqt               78.00:  Mud Viscosity 
 MWOD.in                  6.75:  MWD Tool OD 
 MWSI.                     Yes:  Serv Intrp, MWD 
 OTIM.hr                200.73:  Time Operating 
 PCON.           Look Like New:  Pad Condition 
 PMAX.psia            11069.93:  Press Op, Max 
 PV  .cP                 32.00:  Mud PV 
 RUN .                     700:  Run Number 
 ROPA.m/hr               10.00:  ROP Avg 
 ROPN.m/hr                9.00:  ROP Min 
 ROPX.m/hr               16.00:  ROP Max 
 RPMA.rpm               116.00:  RPM Surface Avg 
 RPMN.rpm                80.00:  RPM Surface Min 
 RPMX.rpm               120.00:  RPM Surface Max 
 RRUN.                    L605:  Rig Run Number 
 RTIM.hr                 45.00:  Time Reaming 
 SAZI.deg               159.86:  Azm, Start 
 SDEP.m                4315.00:  Start Depth 
 SIDD.                      No:  Serv Intrp, DD 
 SINC.deg                39.86:  Inc, Start 
 SPPA.psig             3300.00:  SPP Avg 
 SPPN.psig             3040.00:  SPP Min 
 SPPX.psig             3645.00:  SPP Max 
 STIM.      01.00.00 15-Jul-21:  Start Time 
 SVCS.                 DD, MWD:  Services 
 SVER.                    9.20:  Sperry Version 
 TDAT.m                 288.00:  Tot Depth Attmp 
 TDDF.                      No:  Trip for DD 
 TDLG.m                 288.00:  Tot Depth Loggd 
 TFF .                      No:  Trip for Fail 
 TQAA.f-kp               19.00:  Torque Abs Avg 
 TQAN.f-kp               18.00:  Torque Abs Min 
 TQAX.f-kp               21.00:  Torque Abs Max 
 TRRT.°/30m               0.45:  Turn Rotating 
 MRT .                    HCIM:  Maximum Recorded Temperature 
 TTMX.degC               88.24:  Max Tool Temp 
 VS01.                90649157:  Virtual Str1 SN 
 VS02.                90652483:  Virtual Str2 SN 
 VS03.                11671987:  Virtual Str3 SN 
 VS04.                90643411:  Virtual Str4 SN 
 VS05.                90652478:  Virtual Str5 SN 
 VS06.                    6111:  Virtual Str6 SN 
 WBMN.klb                 9.50:  WOB Min 
 WITN.        Grigoriy Sarayev:  Customer Rep 
 WITN.          Rufat Huseynov:  Customer Rep 2 
 WOBA.klb                11.00:  WOB Avg 
 WOBX.klb                15.00:  WOB Max 
 YP  .lhf2               28.00:  Yield Point 
~Curve Information Block
#MNEM.UNIT                 API CODE     Curve Description
#---------               -----------    ---------------------------
 TIME.HHMMSS            00 000 000 000:  GT Time & Date
 GTDEPTH.m              00 000 000 000:  GT Depth
 GTPQH.psia             00 000 000 000:  GT HR Quartz Pressure
 GTTQ.degC              00 000 000 000:  GT Quartz Temperature
 GTTN.NONE              00 000 000 000:  GT Test Number
 GTET.sec               00 000 000 000:  GT Elapsed Test Time
 GTTVD.m                00 000 000 000:  GT True Vertical Depth
#Other Information
#
#WARRANTY: Halliburton will use its best efforts to furnish customers with 
#accurate information and interpretations that are part of, and incident to, the services 
#provided.  However, Halliburton cannot and does not warrant the accuracy 
#or correctness of such information and interpretations.  Under no circumstances should any 
#such information or interpretation be relied upon as the sole basis for any drilling, 
#completion, production, or financial decision or any procedure involving any risk to the 
#safety of any drilling venture, drilling rig or its crew or any other third party.  The 
#Customer has full responsibility for all drilling, completion and production operation.  
#Halliburton makes no representations or warranties, either expressed or 
#implied, including, but not limited to, the implied warranties of merchantability or fitness 
#for a particular purpose, with respect to the services rendered.  In no event will 
#Halliburton be liable for failure to obtain any particular results or for 
#any damages, including, but not limited to, indirect, special or consequential damages, 
#resulting from the use of any information or interpretation provided by Halliburton.
#
~A           TIME           GTDEPTH  GTPQH  GTTQ  GTTN   GTET   GTTVD  
   08:29:33.232.19-Jul-2021 4431.00 6365.58 70.28 18.00   0.00 2647.54
   08:29:33.432.19-Jul-2021 4431.00 6365.58 70.28 18.00   0.20 2647.54
   08:29:33.632.19-Jul-2021 4431.00 6370.69 70.28 18.00   0.40 2647.54
   08:29:33.832.19-Jul-2021 4431.00 6383.40 70.28 18.00   0.60 2647.54
   08:29:34.032.19-Jul-2021 4431.00 6371.45 70.28 18.00   0.80 2647.54
   08:29:34.232.19-Jul-2021 4431.00 6374.12 70.28 18.00   1.00 2647.54
   08:29:34.432.19-Jul-2021 4431.00 6374.12 70.28 18.00   1.20 2647.54
   08:29:34.632.19-Jul-2021 4431.00 6381.07 70.28 18.00   1.40 2647.54
   08:29:34.832.19-Jul-2021 4431.00 6376.29 70.28 18.00   1.60 2647.54
   08:29:35.032.19-Jul-2021 4431.00 6376.12 70.28 18.00   1.80 2647.54
   08:29:35.233.19-Jul-2021 4431.00 6373.63 70.28 18.00   2.00 2647.54
   08:29:35.433.19-Jul-2021 4431.00 6373.63 70.28 18.00   2.20 2647.54
   08:29:35.633.19-Jul-2021 4431.00 6374.23 70.28 18.00   2.40 2647.54
   08:29:35.833.19-Jul-2021 4431.00 6378.33 70.28 18.00   2.60 2647.54
   08:29:36.033.19-Jul-2021 4431.00 6398.39 70.28 18.00   2.80 2647.54
   08:29:36.233.19-Jul-2021 4431.00 6373.35 70.28 18.00   3.00 2647.54
   08:29:36.433.19-Jul-2021 4431.00 6373.35 70.28 18.00   3.20 2647.54
   08:29:36.633.19-Jul-2021 4431.00 6379.50 70.28 18.00   3.40 2647.54
   08:29:36.833.19-Jul-2021 4431.00 6395.61 70.28 18.00   3.60 2647.54
   08:29:37.033.19-Jul-2021 4431.00 6383.05 70.28 18.00   3.80 2647.54
   08:29:37.233.19-Jul-2021 4431.00 6384.57 70.28 18.00   4.00 2647.54
   08:29:37.433.19-Jul-2021 4431.00 6384.57 70.28 18.00   4.20 2647.54
   08:29:37.633.19-Jul-2021 4431.00 6380.91 70.28 18.00   4.40 2647.54
   08:29:37.833.19-Jul-2021 4431.00 6381.24 70.28 18.00   4.60 2647.54
   08:29:38.034.19-Jul-2021 4431.00 6381.80 70.28 18.00   4.80 2647.54
   08:29:38.234.19-Jul-2021 4431.00 6380.85 70.28 18.00   5.00 2647.54
   08:29:38.434.19-Jul-2021 4431.00 6380.85 70.28 18.00   5.20 2647.54
   08:29:38.634.19-Jul-2021 4431.00 6379.85 70.28 18.00   5.40 2647.54
   08:29:38.834.19-Jul-2021 4431.00 6378.97 70.28 18.00   5.60 2647.54
   08:29:39.034.19-Jul-2021 4431.00 6378.46 70.28 18.00   5.80 2647.54
   08:29:39.234.19-Jul-2021 4431.00 6378.75 70.28 18.00   6.00 2647.54
   08:29:39.434.19-Jul-2021 4431.00 6378.75 70.28 18.00   6.20 2647.54
   08:29:39.634.19-Jul-2021 4431.00 6394.15 70.28 18.00   6.40 2647.54
   08:29:39.834.19-Jul-2021 4431.00 6383.72 70.28 18.00   6.60 2647.54
   08:29:40.034.19-Jul-2021 4431.00 6383.38 70.28 18.00   6.80 2647.54
   08:29:40.234.19-Jul-2021 4431.00 6385.61 70.28 18.00   7.00 2647.54
   08:29:40.434.19-Jul-2021 4431.00 6385.61 70.28 18.00   7.20 2647.54
   08:29:40.634.19-Jul-2021 4431.00 6380.12 70.28 18.00   7.40 2647.54
   08:29:40.835.19-Jul-2021 4431.00 6381.77 70.28 18.00   7.60 2647.54
   08:29:41.035.19-Jul-2021 4431.00 6381.24 70.28 18.00   7.80 2647.54
   08:29:41.235.19-Jul-2021 4431.00 6381.20 70.28 18.00   8.00 2647.54
   08:29:41.435.19-Jul-2021 4431.00 6381.20 70.28 18.00   8.20 2647.54
   08:29:41.635.19-Jul-2021 4431.00 6380.15 70.28 18.00   8.40 2647.54
   08:29:41.835.19-Jul-2021 4431.00 6379.84 70.28 18.00   8.60 2647.54
   08:29:42.035.19-Jul-2021 4431.00 6379.84 70.28 18.00   8.80 2647.54
   08:29:42.235.19-Jul-2021 4431.00 6400.18 70.28 18.00   9.00 2647.54
   08:29:42.435.19-Jul-2021 4431.00 6400.18 70.28 18.00   9.20 2647.54
   08:29:42.635.19-Jul-2021 4431.00 6385.28 70.28 18.00   9.40 2647.54
   08:29:42.835.19-Jul-2021 4431.00 6384.41 70.28 18.00   9.60 2647.54
   08:29:43.035.19-Jul-2021 4431.00 6381.48 70.28 18.00   9.80 2647.54
   08:29:43.235.19-Jul-2021 4431.00 6397.78 70.28 18.00  10.00 2647.54
   08:29:43.436.19-Jul-2021 4431.00 6397.78 70.28 18.00  10.20 2647.54
   08:29:43.636.19-Jul-2021 4431.00 6384.93 70.28 18.00  10.40 2647.54
   08:29:43.836.19-Jul-2021 4431.00 6387.40 70.28 18.00  10.60 2647.54
   08:29:44.036.19-Jul-2021 4431.00 6407.03 70.28 18.00  10.80 2647.54
   08:29:44.236.19-Jul-2021 4431.00 6380.22 70.28 18.00  11.00 2647.54
   08:29:44.436.19-Jul-2021 4431.00 6380.22 70.28 18.00  11.20 2647.54
   08:29:44.636.19-Jul-2021 4431.00 6388.88 70.28 18.00  11.40 2647.54
   08:29:44.836.19-Jul-2021 4431.00 6402.58 70.28 18.00  11.60 2647.54
   08:29:45.036.19-Jul-2021 4431.00 6387.11 70.28 18.00  11.80 2647.54
   08:29:45.236.19-Jul-2021 4431.00 6394.08 70.28 18.00  12.00 2647.54
   08:29:45.436.19-Jul-2021 4431.00 6394.08 70.28 18.00  12.20 2647.54
   08:29:45.636.19-Jul-2021 4431.00 6384.05 70.28 18.00  12.40 2647.54
   08:29:45.836.19-Jul-2021 4431.00 6395.82 70.28 18.00  12.60 2647.54
   08:29:46.036.19-Jul-2021 4431.00 6392.07 70.28 18.00  12.80 2647.54
   08:29:46.237.19-Jul-2021 4431.00 6387.83 70.28 18.00  13.00 2647.54
   08:29:46.437.19-Jul-2021 4431.00 6387.83 70.28 18.00  13.20 2647.54
   08:29:46.637.19-Jul-2021 4431.00 6387.83 70.28 18.00  13.40 2647.54
   08:29:46.837.19-Jul-2021 4431.00 6396.14 70.28 18.00  13.61 2647.54
   08:29:47.037.19-Jul-2021 4431.00 6396.14 70.28 18.00  13.81 2647.54
   08:29:47.237.19-Jul-2021 4431.00 6395.27 70.28 18.00  14.01 2647.54
   08:29:47.437.19-Jul-2021 4431.00 6395.27 70.28 18.00  14.21 2647.54
   08:29:47.637.19-Jul-2021 4431.00 6393.31 70.28 18.00  14.41 2647.54
   08:29:47.837.19-Jul-2021 4431.00 6394.67 70.28 18.00  14.61 2647.54
   08:29:48.037.19-Jul-2021 4431.00 6393.18 70.28 18.00  14.81 2647.54
   08:29:48.237.19-Jul-2021 4431.00 6391.34 70.28 18.00  15.01 2647.54
   08:29:48.437.19-Jul-2021 4431.00 6391.34 70.28 18.00  15.21 2647.54
   08:29:48.637.19-Jul-2021 4431.00 6391.10 70.28 18.00  15.41 2647.54
   08:29:48.838.19-Jul-2021 4431.00 6390.86 70.28 18.00  15.61 2647.54
   08:29:49.038.19-Jul-2021 4431.00 6391.02 70.28 18.00  15.81 2647.54
   08:29:49.238.19-Jul-2021 4431.00 6392.51 70.28 18.00  16.01 2647.54
   08:29:49.438.19-Jul-2021 4431.00 6392.51 70.28 18.00  16.21 2647.54
   08:29:49.638.19-Jul-2021 4431.00 6396.23 70.28 18.00  16.41 2647.54
   08:29:49.838.19-Jul-2021 4431.00 6395.17 70.28 18.00  16.61 2647.54
   08:29:50.038.19-Jul-2021 4431.00 6398.26 70.28 18.00  16.81 2647.54
   08:29:50.238.19-Jul-2021 4431.00 6395.47 70.28 18.00  17.01 2647.54
   08:29:50.438.19-Jul-2021 4431.00 6395.47 70.28 18.00  17.21 2647.54
   08:29:50.638.19-Jul-2021 4431.00 6393.88 70.28 18.00  17.41 2647.54
   08:29:50.838.19-Jul-2021 4431.00 6392.23 70.28 18.00  17.61 2647.54
   08:29:51.038.19-Jul-2021 4431.00 6392.19 70.28 18.00  17.81 2647.54
   08:29:51.238.19-Jul-2021 4431.00 6392.86 70.28 18.00  18.01 2647.54
   08:29:51.438.19-Jul-2021 4431.00 6392.86 70.28 18.00  18.21 2647.54
   08:29:51.639.19-Jul-2021 4431.00 6391.89 70.28 18.00  18.41 2647.54
   08:29:51.839.19-Jul-2021 4431.00 6392.99 70.28 18.00  18.61 2647.54
   08:29:52.039.19-Jul-2021 4431.00 6406.80 70.28 18.00  18.81 2647.54
   08:29:52.239.19-Jul-2021 4431.00 6397.30 70.28 18.00  19.01 2647.54
   08:29:52.439.19-Jul-2021 4431.00 6397.30 70.28 18.00  19.21 2647.54
   08:29:52.639.19-Jul-2021 4431.00 6403.92 70.28 18.00  19.41 2647.54
   08:29:52.839.19-Jul-2021 4431.00 6400.98 70.28 18.00  19.61 2647.54
   08:29:53.039.19-Jul-2021 4431.00 6396.91 70.28 18.00  19.81 2647.54
   08:29:53.239.19-Jul-2021 4431.00 6399.02 70.28 18.00  20.01 2647.54
   08:29:53.439.19-Jul-2021 4431.00 6399.02 70.28 18.00  20.21 2647.54
   08:29:53.639.19-Jul-2021 4431.00 6411.97 70.28 18.00  20.41 2647.54
   08:29:53.839.19-Jul-2021 4431.00 6396.39 70.28 18.00  20.61 2647.54
   08:29:54.039.19-Jul-2021 4431.00 6400.71 70.28 18.00  20.81 2647.54
   08:29:54.240.19-Jul-2021 4431.00 6399.85 70.28 18.00  21.01 2647.54
   08:29:54.440.19-Jul-2021 4431.00 6399.85 70.28 18.00  21.21 2647.54
   08:29:54.640.19-Jul-2021 4431.00 6414.21 70.28 18.00  21.41 2647.54
   08:29:54.840.19-Jul-2021 4431.00 6403.13 70.28 18.00  21.61 2647.54
   08:29:55.040.19-Jul-2021 4431.00 6401.86 70.28 18.00  21.81 2647.54
   08:29:55.240.19-Jul-2021 4431.00 6415.82 70.28 18.00  22.01 2647.54
   08:29:55.440.19-Jul-2021 4431.00 6415.82 70.28 18.00  22.21 2647.54
   08:29:55.640.19-Jul-2021 4431.00 6405.65 70.28 18.00  22.41 2647.54
