~Version Information
 VERS.                  2.0:   CWLS log ASCII Standard -VERSION 2.0
 WRAP.                   NO:   One line per depth step
~Well Information Block
#MNEM.UNIT     VALUE/NAME     DESCRIPTION
#---------     -----------    ---------------------------
 STRT.S             12:46:21 18-Jul-21: START TIME 12:46:21 18-Jul-21
 STOP.S             12:52:54 18-Jul-21: STOP TIME  12:52:54 18-Jul-21
 STEP.S                   0.00: STEP TIME
 NULL.                 -999.25: NULL VALUE
 MDS .        Operator Entered:  MAG DATA SOURCE
 PDAT.          Mean Sea Level:  PERMANENT DATUM
 UNIT.                     N/A:  LOGGING EQUIPMENT ID
 DCON.         Sperry Drilling:  DIRECTNL CONTR
 DOE .                     N/A:  DOE NUMBER
 RIG .              West Azeri:  RIG NAME
 JOBN.        AZ-XX-0906997913:  JOB TICKET NUMB
 WELL.                     C41:  WELL NAME
 MWDS.                    Baku:  MWD SHOP
 SRVC.          Turan Drilling:  CONTRACTOR
 FLD .                     ACG:  FIELD NAME
 CTRY.              Azerbaijan:  COUNTRY NAME
 PROV.                    Baku:  PROVINCE
 STAT.                    Baku:  STATE NAME
 REGN.                   EESSA:  REGION
 BASE.              Azerbaijan:  LOGGING EQUIPMENT BASE LOCATION
 UWI .                     N/A:  UNIQUE WELL IDENTIFIER
 API .                     N/A:  API NUMBER
 COMP.     BP Exploration (Caspian Sea) Ltd.:  COMPANY
 WTYP.                Deviated:  WELL TYPE
 SON .        AZ-XX-0906997913:  JOB NUMBER
 FTOP.          Formation Tops:  FORM TOPS DESC
 ILTD.               Lithology:  INTERP LTH DESC
 SVYD.                  Survey:  SURVEY DESC
 DMOD.             Drill Model:  DRILL MOD DESC
 HPTY.       Minimum Curvature:  HOLE POS TYPE
 NREF.                    Grid:  NORTH REFERENCE
 SPUD.               16-May-21:  SPUD DATE
 DATE.      21.11.28 17-May-21:  END TIME
 STIM.      21.11.28 17-May-21:  START TIME
 DMF .             Drill Floor:  DRILL MEAS FROM
 DFST.                        :  DIST FSL TEXT
 DFWT.                        :  DIST FWL TEXT
 CNTY.                        :  COUNTY
 LOC .                        :  LOCATION
 LMF .             Drill Floor:  LOG MEASURED FROM
 AGAP.m                  43.42:  AIR GAP
 VSNS.m                  -2.16:  VERT SEC N/S
 VSEW.m                  -6.24:  VERT SEC E/W
 APD .m                  43.42:  DEPTH ABOVE PD
 WDMS.m                 118.27:  WD ELEV
 EGL .m                   0.00:  GROUND ELEVATION
 EPD .m                   0.00:  ELEVATION
 AZTC.deg                 6.29:  AZM TOTAL CORR
 GRDC.deg                 0.18:  GRID CORRECTION
 MDEC.deg                 6.47:  MAGNETIC DECL
 MDIP.deg                59.54:  MAGNETIC DIP
 MFLD.nT              50337.00:  MAGNETIC FIELD
 GVFD.g                   1.00:  GRAVITY FIELD
 VSDR.deg               226.99:  VERT SEC DIRECT
 TDD .m                   0.00:  TOTAL DEPTH (DRILLER)
 SDEP.m                 448.00:  START DEPTH
 DFSL.m                   0.00:  DISTANCE FSL
 DFWL.m                   0.00:  DISTANCE FWL
 UTMY.m             4435799.96:  UTM Y
 UTMX.m              526265.35:  UTM X
 WHEW.m                  -6.24:  WELL HEAD E/W
 WHNS.m                  -2.16:  WELL HEAD N/S
 LONG.deg                51.31:  LONGITUDE
 LATI.deg                40.06:  LATITUDE
 TVDS.m                  43.42:  TVDSS CORRECTN
 EKB .m                  43.42:  KB ELEVATION
 EDF .m                  43.42:  DF ELEVATION
 TDL .m                 288.00:  TOTAL DEPTH (LOGGER)
 MAGU.                 1851863:  MAGUTM CHECKSUM
 VSC .                       0:  VS TO CLOSURE
~Parameter Information Block
#MNEM.UNIT       Value        Description
#---------     -----------    ---------------------------
 AV  .mps                 0.40:  Ann Velocity 
 AVMX.mps                 0.63:  Max Ann Veloc 
 AZIF.deg               158.76:  Azm, Final 
 BHAT.        Rotary Steerable:  BHA Type 
 BROT.°/30m               0.68:  Build Rotating 
 BS  .in                  8.50:  Bit Size 
 BSZ .in                  8.50:  Bit Size 
 BTPL.psig              712.00:  Bit Press Loss 
 CABU.                      No:  Customer Abuse 
 COMM.                     üëZ:  Run Comments 1 
 TCS .hr                 90.66:  Time Ciculation Ended 
 CV  .mps                 2.02:  Crit Velocity 
 CVMX.mps                 2.14:  Max Crit Veloc 
 DD1 .            Aziz Aliyevu:  Direct Drillr 1 
 DD2 .             Samir Abbas:  Direct Drillr 2 
 DD3 .           Teymur Aliyev:  Direct Drillr 3 
 DDSV.                 iCruise:  DD Service 
 DEFF.%                  85.10:  % Det Eff 
 DLRX.°/30m               1.05:  Dogleg Rot Max 
 DLSO.°/30m               1.01:  Dogleg Oriented 
 DLSX.°/30m               1.05:  Dogleg Str Max 
 DRET.      07.45.00 18-Jul-21:  Drill End Time 
 DRST.      15.00.00 16-Jul-21:  Drill Start Tim 
 DTIM.hr                 23.46:  Time Drilling 
 EDEP.m                4603.00:  End Depth 
 ENG1.       Seymur Iskandarov:  Engineer 1 
 ENG2.         Yevgeniy Ulikov:  Engineer 2 
 ENG3.         Bahruz Mehdiyev:  Engineer 3 
 ENG4.         Elchin Mammadov:  Engineer 4 
 ETIM.      14.00.00 23-Jul-21:  End Time 
 FLOI.gpm               500.00:  Flow In 
 FLON.gpm               450.00:  Flow In Min 
 FLOS.cptm                0.00:  Fluid Loss 
 FLOX.gpm               560.00:  Flow In Max 
 DFT .        Mineral Oil Base:  Mud Type 
 FTRO.       Formation Presure:  FTWD Run Obj 
 HFLO.                      No:  High Flow 
 HPRE.                      No:  High Pressure 
 HTEM.                      No:  High Temp 
 HYDO.m                   1.80:  Hydro Offset 
 IFIN.deg                40.22:  Inc, Final 
 IMAX.deg                40.54:  Inc Max 
 IMIN.deg                39.44:  Inc Min 
 IMND.m                4361.17:  Inc Min Depth 
 IMXD.m                4417.92:  Inc Max Depth 
 JARR.                      No:  Jarring 
 LETM.      07.45.00 18-Jul-21:  Log End Time 
 LOST.hr                    16:  Lost Rig Time 
 LSTM.      15.00.00 16-Jul-21:  Log Start Time 
 MDCL.ppm             36500.00:  Mud Chlorides 
 MDES.     Inversion Oil/Synthetic:  Mud Desc 
 DFD .sg                  1.42:  Mud Density 
 MDMN.sg                  1.42:  Dens Mud Min 
 MDMX.sg                  1.43:  Dens Mud Max 
 MOIL.                      56:  Run Mud Oil % 
 MOWR.                   71:29:  Run Mud OWR 
 MSND.                     0.5:  Run Mud Sand % 
 MSOL.                      21:  Run Mud Solids% 
 DFV .spqt               78.00:  Mud Viscosity 
 MWOD.in                  6.75:  MWD Tool OD 
 MWSI.                     Yes:  Serv Intrp, MWD 
 OTIM.hr                200.73:  Time Operating 
 PCON.           Look Like New:  Pad Condition 
 PMAX.psia            11069.93:  Press Op, Max 
 PV  .cP                 32.00:  Mud PV 
 RUN .                     700:  Run Number 
 ROPA.m/hr               10.00:  ROP Avg 
 ROPN.m/hr                9.00:  ROP Min 
 ROPX.m/hr               16.00:  ROP Max 
 RPMA.rpm               116.00:  RPM Surface Avg 
 RPMN.rpm                80.00:  RPM Surface Min 
 RPMX.rpm               120.00:  RPM Surface Max 
 RRUN.                    L605:  Rig Run Number 
 RTIM.hr                 45.00:  Time Reaming 
 SAZI.deg               159.86:  Azm, Start 
 SDEP.m                4315.00:  Start Depth 
 SIDD.                      No:  Serv Intrp, DD 
 SINC.deg                39.86:  Inc, Start 
 SPPA.psig             3300.00:  SPP Avg 
 SPPN.psig             3040.00:  SPP Min 
 SPPX.psig             3645.00:  SPP Max 
 STIM.      01.00.00 15-Jul-21:  Start Time 
 SVCS.                 DD, MWD:  Services 
 SVER.                    9.20:  Sperry Version 
 TDAT.m                 288.00:  Tot Depth Attmp 
 TDDF.                      No:  Trip for DD 
 TDLG.m                 288.00:  Tot Depth Loggd 
 TFF .                      No:  Trip for Fail 
 TQAA.f-kp               19.00:  Torque Abs Avg 
 TQAN.f-kp               18.00:  Torque Abs Min 
 TQAX.f-kp               21.00:  Torque Abs Max 
 TRRT.°/30m               0.45:  Turn Rotating 
 MRT .                    HCIM:  Maximum Recorded Temperature 
 TTMX.degC               88.24:  Max Tool Temp 
 VS01.                90649157:  Virtual Str1 SN 
 VS02.                90652483:  Virtual Str2 SN 
 VS03.                11671987:  Virtual Str3 SN 
 VS04.                90643411:  Virtual Str4 SN 
 VS05.                90652478:  Virtual Str5 SN 
 VS06.                    6111:  Virtual Str6 SN 
 WBMN.klb                 9.50:  WOB Min 
 WITN.        Grigoriy Sarayev:  Customer Rep 
 WITN.          Rufat Huseynov:  Customer Rep 2 
 WOBA.klb                11.00:  WOB Avg 
 WOBX.klb                15.00:  WOB Max 
 YP  .lhf2               28.00:  Yield Point 
~Curve Information Block
#MNEM.UNIT                 API CODE     Curve Description
#---------               -----------    ---------------------------
 TIME.HHMMSS            00 000 000 000:  GT Time & Date
 GTDEPTH.m              00 000 000 000:  GT Depth
 GTPQH.psia             00 000 000 000:  GT HR Quartz Pressure
 GTTQ.degC              00 000 000 000:  GT Quartz Temperature
 GTTN.NONE              00 000 000 000:  GT Test Number
 GTET.sec               00 000 000 000:  GT Elapsed Test Time
 GTTVD.m                00 000 000 000:  GT True Vertical Depth
#Other Information
#
#WARRANTY: Halliburton will use its best efforts to furnish customers with 
#accurate information and interpretations that are part of, and incident to, the services 
#provided.  However, Halliburton cannot and does not warrant the accuracy 
#or correctness of such information and interpretations.  Under no circumstances should any 
#such information or interpretation be relied upon as the sole basis for any drilling, 
#completion, production, or financial decision or any procedure involving any risk to the 
#safety of any drilling venture, drilling rig or its crew or any other third party.  The 
#Customer has full responsibility for all drilling, completion and production operation.  
#Halliburton makes no representations or warranties, either expressed or 
#implied, including, but not limited to, the implied warranties of merchantability or fitness 
#for a particular purpose, with respect to the services rendered.  In no event will 
#Halliburton be liable for failure to obtain any particular results or for 
#any damages, including, but not limited to, indirect, special or consequential damages, 
#resulting from the use of any information or interpretation provided by Halliburton.
#
~A           TIME           GTDEPTH  GTPQH  GTTQ  GTTN  GTET   GTTVD  
# ...
   12:48:16.134.18-Jul-2021 4561.50 6672.40 76.55 1.00 115.04 2747.31
   12:48:16.334.18-Jul-2021 4561.50 6672.40 76.55 1.00 115.24 2747.31
   12:48:16.534.18-Jul-2021 4561.50 6674.70 76.55 1.00 115.44 2747.31
   12:48:16.734.18-Jul-2021 4561.50 6671.75 76.55 1.00 115.64 2747.31
   12:48:16.934.18-Jul-2021 4561.50 6674.01 76.55 1.00 115.84 2747.31
   12:48:17.134.18-Jul-2021 4561.50 6672.94 76.55 1.00 116.04 2747.31
   12:48:17.335.18-Jul-2021 4561.50 6672.94 76.55 1.00 116.24 2747.31
   12:48:17.535.18-Jul-2021 4561.50 6672.27 76.55 1.00 116.44 2747.31
   12:48:17.735.18-Jul-2021 4561.50 6673.16 76.55 1.00 116.64 2747.31
   12:48:17.935.18-Jul-2021 4561.50 6671.82 76.55 1.00 116.84 2747.31
   12:48:18.135.18-Jul-2021 4561.50 6674.25 76.55 1.00 117.04 2747.31
   12:48:18.335.18-Jul-2021 4561.50 6674.25 76.55 1.00 117.24 2747.31
   12:48:18.535.18-Jul-2021 4561.50 6672.35 76.55 1.00 117.44 2747.31
   12:48:18.735.18-Jul-2021 4561.50 6681.78 76.55 1.00 117.64 2747.31
   12:48:18.935.18-Jul-2021 4561.50 6679.59 76.55 1.00 117.84 2747.31
   12:48:19.135.18-Jul-2021 4561.50 6674.11 76.55 1.00 118.04 2747.31
   12:48:19.335.18-Jul-2021 4561.50 6674.11 76.55 1.00 118.24 2747.31
   12:48:19.535.18-Jul-2021 4561.50 6674.80 76.55 1.00 118.44 2747.31
   12:48:19.735.18-Jul-2021 4561.50 6672.50 76.55 1.00 118.64 2747.31
   12:48:19.936.18-Jul-2021 4561.50 6674.51 76.55 1.00 118.84 2747.31
   12:48:20.136.18-Jul-2021 4561.50 6674.96 76.55 1.00 119.04 2747.31
   12:48:20.336.18-Jul-2021 4561.50 6674.96 76.55 1.00 119.24 2747.31
   12:48:20.536.18-Jul-2021 4561.50 6673.78 76.55 1.00 119.44 2747.31
   12:48:20.736.18-Jul-2021 4561.50 6673.59 76.55 1.00 119.64 2747.31
   12:48:20.936.18-Jul-2021 4561.50 6672.81 76.55 1.00 119.84 2747.31
   12:48:21.136.18-Jul-2021 4561.50 6672.63 76.55 1.00 120.04 2747.31
   12:48:21.336.18-Jul-2021 4561.50 6672.63 76.55 1.00 120.24 2747.31
   12:48:21.536.18-Jul-2021 4561.50 6678.67 76.55 1.00 120.44 2747.31
   12:48:21.736.18-Jul-2021 4561.50 6675.68 76.55 1.00 120.64 2747.31
   12:48:21.936.18-Jul-2021 4561.50 6684.35 76.54 1.00 120.84 2747.31
   12:48:22.136.18-Jul-2021 4561.50 6673.58 76.54 1.00 121.04 2747.31
   12:48:22.336.18-Jul-2021 4561.50 6673.58 76.54 1.00 121.24 2747.31
   12:48:22.536.18-Jul-2021 4561.50 6682.67 76.54 1.00 121.44 2747.31
   12:48:22.737.18-Jul-2021 4561.50 6670.30 76.54 1.00 121.64 2747.31
   12:48:22.937.18-Jul-2021 4561.50 6671.96 76.54 1.00 121.84 2747.31
   12:48:23.137.18-Jul-2021 4561.50 6674.04 76.54 1.00 122.04 2747.31
   12:48:23.337.18-Jul-2021 4561.50 6674.04 76.54 1.00 122.25 2747.31
   12:48:23.537.18-Jul-2021 4561.50 6671.84 76.54 1.00 122.45 2747.31
   12:48:23.737.18-Jul-2021 4561.50 6670.97 76.54 1.00 122.65 2747.31
   12:48:23.937.18-Jul-2021 4561.50 6674.12 76.54 1.00 122.85 2747.31
   12:48:24.137.18-Jul-2021 4561.50 6670.93 76.54 1.00 123.05 2747.31
   12:48:24.337.18-Jul-2021 4561.50 6670.93 76.54 1.00 123.25 2747.31
   12:48:24.537.18-Jul-2021 4561.50 6673.49 76.54 1.00 123.45 2747.31
   12:48:24.737.18-Jul-2021 4561.50 6670.33 76.54 1.00 123.65 2747.31
   12:48:24.937.18-Jul-2021 4561.50 6672.86 76.54 1.00 123.85 2747.31
   12:48:25.137.18-Jul-2021 4561.50 6670.72 76.54 1.00 124.05 2747.31
   12:48:25.338.18-Jul-2021 4561.50 6670.72 76.54 1.00 124.25 2747.31
   12:48:25.538.18-Jul-2021 4561.50 6669.43 76.54 1.00 124.45 2747.31
   12:48:25.738.18-Jul-2021 4561.50 6671.26 76.54 1.00 124.65 2747.31
   12:48:25.938.18-Jul-2021 4561.50 6669.17 76.54 1.00 124.85 2747.31
   12:48:26.138.18-Jul-2021 4561.50 6671.52 76.54 1.00 125.05 2747.31
   12:48:26.338.18-Jul-2021 4561.50 6671.52 76.54 1.00 125.25 2747.31
   12:48:26.538.18-Jul-2021 4561.50 6669.02 76.54 1.00 125.45 2747.31
   12:48:26.738.18-Jul-2021 4561.50 6671.04 76.54 1.00 125.65 2747.31
   12:48:26.938.18-Jul-2021 4561.50 6671.81 76.54 1.00 125.85 2747.31
   12:48:27.138.18-Jul-2021 4561.50 6673.98 76.54 1.00 126.05 2747.31
   12:48:27.338.18-Jul-2021 4561.50 6673.98 76.54 1.00 126.25 2747.31
   12:48:27.538.18-Jul-2021 4561.50 6669.64 76.54 1.00 126.45 2747.31
   12:48:27.738.18-Jul-2021 4561.50 6669.58 76.54 1.00 126.65 2747.31
   12:48:27.938.18-Jul-2021 4561.50 6674.47 76.54 1.00 126.85 2747.31
   12:48:28.139.18-Jul-2021 4561.50 6670.69 76.54 1.00 127.05 2747.31
   12:48:28.339.18-Jul-2021 4561.50 6670.69 76.54 1.00 127.25 2747.31
   12:48:28.539.18-Jul-2021 4561.50 6670.43 76.54 1.00 127.45 2747.31
   12:48:28.739.18-Jul-2021 4561.50 6669.19 76.54 1.00 127.65 2747.31
   12:48:28.939.18-Jul-2021 4561.50 6669.01 76.54 1.00 127.85 2747.31
   12:48:29.139.18-Jul-2021 4561.50 6669.08 76.54 1.00 128.05 2747.31
   12:48:29.339.18-Jul-2021 4561.50 6669.08 76.54 1.00 128.25 2747.31
   12:48:29.539.18-Jul-2021 4561.50 6670.02 76.54 1.00 128.45 2747.31
   12:48:29.739.18-Jul-2021 4561.50 6675.69 76.54 1.00 128.65 2747.31
   12:48:29.939.18-Jul-2021 4561.50 6676.40 76.54 1.00 128.85 2747.31
   12:48:30.139.18-Jul-2021 4561.50 6667.95 76.54 1.00 129.05 2747.31
   12:48:30.339.18-Jul-2021 4561.50 6667.95 76.54 1.00 129.25 2747.31
   12:48:30.539.18-Jul-2021 4561.50 6675.68 76.54 1.00 129.45 2747.31
   12:48:30.739.18-Jul-2021 4561.50 6666.17 76.54 1.00 129.65 2747.31
   12:48:30.940.18-Jul-2021 4561.50 6678.44 76.54 1.00 129.85 2747.31
   12:48:31.140.18-Jul-2021 4561.50 6672.21 76.54 1.00 130.05 2747.31
   12:48:31.340.18-Jul-2021 4561.50 6672.21 76.54 1.00 130.25 2747.31
   12:48:31.540.18-Jul-2021 4561.50 6673.70 76.54 1.00 130.45 2747.31
   12:48:31.740.18-Jul-2021 4561.50 6674.90 76.54 1.00 130.65 2747.31
   12:48:31.940.18-Jul-2021 4561.50 6664.13 76.54 1.00 130.85 2747.31
   12:48:32.140.18-Jul-2021 4561.50 6664.81 76.54 1.00 131.05 2747.31
   12:48:32.340.18-Jul-2021 4561.50 6664.81 76.54 1.00 131.25 2747.31
   12:48:32.540.18-Jul-2021 4561.50 6666.72 76.54 1.00 131.45 2747.31
   12:48:32.740.18-Jul-2021 4561.50 6666.68 76.54 1.00 131.65 2747.31
   12:48:32.940.18-Jul-2021 4561.50 6670.62 76.54 1.00 131.85 2747.31
   12:48:33.140.18-Jul-2021 4561.50 6664.41 76.54 1.00 132.05 2747.31
   12:48:33.340.18-Jul-2021 4561.50 6664.41 76.54 1.00 132.25 2747.31
   12:48:33.541.18-Jul-2021 4561.50 6665.12 76.54 1.00 132.45 2747.31
   12:48:33.741.18-Jul-2021 4561.50 6665.09 76.54 1.00 132.65 2747.31
   12:48:33.941.18-Jul-2021 4561.50 6665.48 76.54 1.00 132.85 2747.31
   12:48:34.141.18-Jul-2021 4561.50 6667.19 76.54 1.00 133.05 2747.31
   12:48:34.341.18-Jul-2021 4561.50 6667.19 76.54 1.00 133.25 2747.31
   12:48:34.541.18-Jul-2021 4561.50 6666.45 76.54 1.00 133.45 2747.31
   12:48:34.741.18-Jul-2021 4561.50 6667.27 76.54 1.00 133.65 2747.31
   12:48:34.941.18-Jul-2021 4561.50 6664.54 76.54 1.00 133.85 2747.31
   12:48:35.141.18-Jul-2021 4561.50 6672.38 76.54 1.00 134.05 2747.31
   12:48:35.341.18-Jul-2021 4561.50 6672.38 76.54 1.00 134.25 2747.31
   12:48:35.541.18-Jul-2021 4561.50 6665.84 76.54 1.00 134.45 2747.31
   12:48:35.741.18-Jul-2021 4561.50 6669.16 76.54 1.00 134.65 2747.31
   12:48:35.941.18-Jul-2021 4561.50 6670.29 76.54 1.00 134.85 2747.31
   12:48:36.141.18-Jul-2021 4561.50 6664.47 76.54 1.00 135.05 2747.31
   12:48:36.342.18-Jul-2021 4561.50 6664.47 76.54 1.00 135.25 2747.31
   12:48:36.542.18-Jul-2021 4561.50 6667.21 76.54 1.00 135.45 2747.31
   12:48:36.742.18-Jul-2021 4561.50 6664.86 76.54 1.00 135.65 2747.31
   12:48:36.942.18-Jul-2021 4561.50 6665.43 76.54 1.00 135.85 2747.31
   12:48:37.142.18-Jul-2021 4561.50 6667.24 76.54 1.00 136.05 2747.31
   12:48:37.342.18-Jul-2021 4561.50 6667.24 76.54 1.00 136.25 2747.31
   12:48:37.542.18-Jul-2021 4561.50 6664.20 76.54 1.00 136.45 2747.31
   12:48:37.742.18-Jul-2021 4561.50 6671.59 76.54 1.00 136.65 2747.31
   12:48:37.942.18-Jul-2021 4561.50 6671.38 76.53 1.00 136.85 2747.31
   12:48:38.142.18-Jul-2021 4561.50 6664.52 76.53 1.00 137.05 2747.31
   12:48:38.342.18-Jul-2021 4561.50 6664.52 76.53 1.00 137.25 2747.31
   12:48:38.542.18-Jul-2021 4561.50 6666.90 76.53 1.00 137.45 2747.31
   12:48:38.742.18-Jul-2021 4561.50 6662.88 76.53 1.00 137.65 2747.31
   12:48:38.943.18-Jul-2021 4561.50 6676.07 76.53 1.00 137.85 2747.31
