~Version Information
 VERS.                  2.0:   CWLS log ASCII Standard -VERSION 2.0
 WRAP.                   NO:   One line per depth step
~Well Information Block
#MNEM.UNIT     VALUE/NAME     DESCRIPTION
#---------     -----------    ---------------------------
 STRT.S             04:43:18 19-Jul-21: START TIME 04:43:18 19-Jul-21
 STOP.S             04:49:54 19-Jul-21: STOP TIME  04:49:54 19-Jul-21
 STEP.S                   0.00: STEP TIME
 NULL.                 -999.25: NULL VALUE
 MDS .        Operator Entered:  MAG DATA SOURCE
 PDAT.          Mean Sea Level:  PERMANENT DATUM
 UNIT.                     N/A:  LOGGING EQUIPMENT ID
 DCON.         Sperry Drilling:  DIRECTNL CONTR
 DOE .                     N/A:  DOE NUMBER
 RIG .              West Azeri:  RIG NAME
 JOBN.        AZ-XX-0906997913:  JOB TICKET NUMB
 WELL.                     C41:  WELL NAME
 MWDS.                    Baku:  MWD SHOP
 SRVC.          Turan Drilling:  CONTRACTOR
 FLD .                     ACG:  FIELD NAME
 CTRY.              Azerbaijan:  COUNTRY NAME
 PROV.                    Baku:  PROVINCE
 STAT.                    Baku:  STATE NAME
 REGN.                   EESSA:  REGION
 BASE.              Azerbaijan:  LOGGING EQUIPMENT BASE LOCATION
 UWI .                     N/A:  UNIQUE WELL IDENTIFIER
 API .                     N/A:  API NUMBER
 COMP.     BP Exploration (Caspian Sea) Ltd.:  COMPANY
 WTYP.                Deviated:  WELL TYPE
 SON .        AZ-XX-0906997913:  JOB NUMBER
 FTOP.          Formation Tops:  FORM TOPS DESC
 ILTD.               Lithology:  INTERP LTH DESC
 SVYD.                  Survey:  SURVEY DESC
 DMOD.             Drill Model:  DRILL MOD DESC
 HPTY.       Minimum Curvature:  HOLE POS TYPE
 NREF.                    Grid:  NORTH REFERENCE
 SPUD.               16-May-21:  SPUD DATE
 DATE.      21.11.28 17-May-21:  END TIME
 STIM.      21.11.28 17-May-21:  START TIME
 DMF .             Drill Floor:  DRILL MEAS FROM
 DFST.                        :  DIST FSL TEXT
 DFWT.                        :  DIST FWL TEXT
 CNTY.                        :  COUNTY
 LOC .                        :  LOCATION
 LMF .             Drill Floor:  LOG MEASURED FROM
 AGAP.m                  43.42:  AIR GAP
 VSNS.m                  -2.16:  VERT SEC N/S
 VSEW.m                  -6.24:  VERT SEC E/W
 APD .m                  43.42:  DEPTH ABOVE PD
 WDMS.m                 118.27:  WD ELEV
 EGL .m                   0.00:  GROUND ELEVATION
 EPD .m                   0.00:  ELEVATION
 AZTC.deg                 6.29:  AZM TOTAL CORR
 GRDC.deg                 0.18:  GRID CORRECTION
 MDEC.deg                 6.47:  MAGNETIC DECL
 MDIP.deg                59.54:  MAGNETIC DIP
 MFLD.nT              50337.00:  MAGNETIC FIELD
 GVFD.g                   1.00:  GRAVITY FIELD
 VSDR.deg               226.99:  VERT SEC DIRECT
 TDD .m                   0.00:  TOTAL DEPTH (DRILLER)
 SDEP.m                 448.00:  START DEPTH
 DFSL.m                   0.00:  DISTANCE FSL
 DFWL.m                   0.00:  DISTANCE FWL
 UTMY.m             4435799.96:  UTM Y
 UTMX.m              526265.35:  UTM X
 WHEW.m                  -6.24:  WELL HEAD E/W
 WHNS.m                  -2.16:  WELL HEAD N/S
 LONG.deg                51.31:  LONGITUDE
 LATI.deg                40.06:  LATITUDE
 TVDS.m                  43.42:  TVDSS CORRECTN
 EKB .m                  43.42:  KB ELEVATION
 EDF .m                  43.42:  DF ELEVATION
 TDL .m                 288.00:  TOTAL DEPTH (LOGGER)
 MAGU.                 1851863:  MAGUTM CHECKSUM
 VSC .                       0:  VS TO CLOSURE
~Parameter Information Block
#MNEM.UNIT       Value        Description
#---------     -----------    ---------------------------
 AV  .mps                 0.40:  Ann Velocity 
 AVMX.mps                 0.63:  Max Ann Veloc 
 AZIF.deg               158.76:  Azm, Final 
 BHAT.        Rotary Steerable:  BHA Type 
 BROT.°/30m               0.68:  Build Rotating 
 BS  .in                  8.50:  Bit Size 
 BSZ .in                  8.50:  Bit Size 
 BTPL.psig              712.00:  Bit Press Loss 
 CABU.                      No:  Customer Abuse 
 COMM.                     ”™f:  Run Comments 1 
 TCS .hr                 90.66:  Time Ciculation Ended 
 CV  .mps                 2.02:  Crit Velocity 
 CVMX.mps                 2.14:  Max Crit Veloc 
 DD1 .            Aziz Aliyevu:  Direct Drillr 1 
 DD2 .             Samir Abbas:  Direct Drillr 2 
 DD3 .           Teymur Aliyev:  Direct Drillr 3 
 DDSV.                 iCruise:  DD Service 
 DEFF.%                  85.10:  % Det Eff 
 DLRX.°/30m               1.05:  Dogleg Rot Max 
 DLSO.°/30m               1.01:  Dogleg Oriented 
 DLSX.°/30m               1.05:  Dogleg Str Max 
 DRET.      07.45.00 18-Jul-21:  Drill End Time 
 DRST.      15.00.00 16-Jul-21:  Drill Start Tim 
 DTIM.hr                 23.46:  Time Drilling 
 EDEP.m                4603.00:  End Depth 
 ENG1.       Seymur Iskandarov:  Engineer 1 
 ENG2.         Yevgeniy Ulikov:  Engineer 2 
 ENG3.         Bahruz Mehdiyev:  Engineer 3 
 ENG4.         Elchin Mammadov:  Engineer 4 
 ETIM.      14.00.00 23-Jul-21:  End Time 
 FLOI.gpm               500.00:  Flow In 
 FLON.gpm               450.00:  Flow In Min 
 FLOS.cptm                0.00:  Fluid Loss 
 FLOX.gpm               560.00:  Flow In Max 
 DFT .        Mineral Oil Base:  Mud Type 
 FTRO.       Formation Presure:  FTWD Run Obj 
 HFLO.                      No:  High Flow 
 HPRE.                      No:  High Pressure 
 HTEM.                      No:  High Temp 
 HYDO.m                   1.80:  Hydro Offset 
 IFIN.deg                40.22:  Inc, Final 
 IMAX.deg                40.54:  Inc Max 
 IMIN.deg                39.44:  Inc Min 
 IMND.m                4361.17:  Inc Min Depth 
 IMXD.m                4417.92:  Inc Max Depth 
 JARR.                      No:  Jarring 
 LETM.      07.45.00 18-Jul-21:  Log End Time 
 LOST.hr                    16:  Lost Rig Time 
 LSTM.      15.00.00 16-Jul-21:  Log Start Time 
 MDCL.ppm             36500.00:  Mud Chlorides 
 MDES.     Inversion Oil/Synthetic:  Mud Desc 
 DFD .sg                  1.42:  Mud Density 
 MDMN.sg                  1.42:  Dens Mud Min 
 MDMX.sg                  1.43:  Dens Mud Max 
 MOIL.                      56:  Run Mud Oil % 
 MOWR.                   71:29:  Run Mud OWR 
 MSND.                     0.5:  Run Mud Sand % 
 MSOL.                      21:  Run Mud Solids% 
 DFV .spqt               78.00:  Mud Viscosity 
 MWOD.in                  6.75:  MWD Tool OD 
 MWSI.                     Yes:  Serv Intrp, MWD 
 OTIM.hr                200.73:  Time Operating 
 PCON.           Look Like New:  Pad Condition 
 PMAX.psia            11069.93:  Press Op, Max 
 PV  .cP                 32.00:  Mud PV 
 RUN .                     700:  Run Number 
 ROPA.m/hr               10.00:  ROP Avg 
 ROPN.m/hr                9.00:  ROP Min 
 ROPX.m/hr               16.00:  ROP Max 
 RPMA.rpm               116.00:  RPM Surface Avg 
 RPMN.rpm                80.00:  RPM Surface Min 
 RPMX.rpm               120.00:  RPM Surface Max 
 RRUN.                    L605:  Rig Run Number 
 RTIM.hr                 45.00:  Time Reaming 
 SAZI.deg               159.86:  Azm, Start 
 SDEP.m                4315.00:  Start Depth 
 SIDD.                      No:  Serv Intrp, DD 
 SINC.deg                39.86:  Inc, Start 
 SPPA.psig             3300.00:  SPP Avg 
 SPPN.psig             3040.00:  SPP Min 
 SPPX.psig             3645.00:  SPP Max 
 STIM.      01.00.00 15-Jul-21:  Start Time 
 SVCS.                 DD, MWD:  Services 
 SVER.                    9.20:  Sperry Version 
 TDAT.m                 288.00:  Tot Depth Attmp 
 TDDF.                      No:  Trip for DD 
 TDLG.m                 288.00:  Tot Depth Loggd 
 TFF .                      No:  Trip for Fail 
 TQAA.f-kp               19.00:  Torque Abs Avg 
 TQAN.f-kp               18.00:  Torque Abs Min 
 TQAX.f-kp               21.00:  Torque Abs Max 
 TRRT.°/30m               0.45:  Turn Rotating 
 MRT .                    HCIM:  Maximum Recorded Temperature 
 TTMX.degC               88.24:  Max Tool Temp 
 VS01.                90649157:  Virtual Str1 SN 
 VS02.                90652483:  Virtual Str2 SN 
 VS03.                11671987:  Virtual Str3 SN 
 VS04.                90643411:  Virtual Str4 SN 
 VS05.                90652478:  Virtual Str5 SN 
 VS06.                    6111:  Virtual Str6 SN 
 WBMN.klb                 9.50:  WOB Min 
 WITN.        Grigoriy Sarayev:  Customer Rep 
 WITN.          Rufat Huseynov:  Customer Rep 2 
 WOBA.klb                11.00:  WOB Avg 
 WOBX.klb                15.00:  WOB Max 
 YP  .lhf2               28.00:  Yield Point 
~Curve Information Block
#MNEM.UNIT                 API CODE     Curve Description
#---------               -----------    ---------------------------
 TIME.HHMMSS            00 000 000 000:  GT Time & Date
 GTDEPTH.m              00 000 000 000:  GT Depth
 GTPQH.psia             00 000 000 000:  GT HR Quartz Pressure
 GTTQ.degC              00 000 000 000:  GT Quartz Temperature
 GTTN.NONE              00 000 000 000:  GT Test Number
 GTET.sec               00 000 000 000:  GT Elapsed Test Time
 GTTVD.m                00 000 000 000:  GT True Vertical Depth
#Other Information
#
#WARRANTY: Halliburton will use its best efforts to furnish customers with 
#accurate information and interpretations that are part of, and incident to, the services 
#provided.  However, Halliburton cannot and does not warrant the accuracy 
#or correctness of such information and interpretations.  Under no circumstances should any 
#such information or interpretation be relied upon as the sole basis for any drilling, 
#completion, production, or financial decision or any procedure involving any risk to the 
#safety of any drilling venture, drilling rig or its crew or any other third party.  The 
#Customer has full responsibility for all drilling, completion and production operation.  
#Halliburton makes no representations or warranties, either expressed or 
#implied, including, but not limited to, the implied warranties of merchantability or fitness 
#for a particular purpose, with respect to the services rendered.  In no event will 
#Halliburton be liable for failure to obtain any particular results or for 
#any damages, including, but not limited to, indirect, special or consequential damages, 
#resulting from the use of any information or interpretation provided by Halliburton.
#
~A           TIME           GTDEPTH  GTPQH  GTTQ  GTTN   GTET   GTTVD  
   04:43:18.233.19-Jul-2021 4355.50 6297.31 68.70 11.00   0.00 2589.71
   04:43:18.433.19-Jul-2021 4355.50 6297.31 68.70 11.00   0.20 2589.71
   04:43:18.633.19-Jul-2021 4355.50 6285.27 68.70 11.00   0.40 2589.71
   04:43:18.834.19-Jul-2021 4355.50 6288.92 68.70 11.00   0.60 2589.71
   04:43:19.034.19-Jul-2021 4355.50 6299.02 68.70 11.00   0.80 2589.71
   04:43:19.234.19-Jul-2021 4355.50 6284.68 68.70 11.00   1.00 2589.71
   04:43:19.434.19-Jul-2021 4355.50 6284.68 68.70 11.00   1.20 2589.71
   04:43:19.634.19-Jul-2021 4355.50 6284.32 68.70 11.00   1.40 2589.71
   04:43:19.834.19-Jul-2021 4355.50 6309.27 68.70 11.00   1.60 2589.71
   04:43:20.034.19-Jul-2021 4355.50 6283.75 68.70 11.00   1.80 2589.71
   04:43:20.234.19-Jul-2021 4355.50 6281.97 68.70 11.00   2.00 2589.71
   04:43:20.434.19-Jul-2021 4355.50 6281.97 68.70 11.00   2.20 2589.71
   04:43:20.634.19-Jul-2021 4355.50 6310.84 68.70 11.00   2.40 2589.71
   04:43:20.834.19-Jul-2021 4355.50 6288.17 68.70 11.00   2.60 2589.71
   04:43:21.034.19-Jul-2021 4355.50 6286.32 68.70 11.00   2.80 2589.71
   04:43:21.234.19-Jul-2021 4355.50 6290.42 68.70 11.00   3.00 2589.71
   04:43:21.434.19-Jul-2021 4355.50 6290.42 68.70 11.00   3.20 2589.71
   04:43:21.635.19-Jul-2021 4355.50 6288.06 68.70 11.00   3.40 2589.71
   04:43:21.835.19-Jul-2021 4355.50 6286.65 68.70 11.00   3.60 2589.71
   04:43:22.035.19-Jul-2021 4355.50 6294.20 68.70 11.00   3.80 2589.71
   04:43:22.235.19-Jul-2021 4355.50 6288.87 68.70 11.00   4.00 2589.71
   04:43:22.435.19-Jul-2021 4355.50 6288.87 68.70 11.00   4.20 2589.71
   04:43:22.635.19-Jul-2021 4355.50 6307.11 68.70 11.00   4.40 2589.71
   04:43:22.835.19-Jul-2021 4355.50 6289.18 68.70 11.00   4.60 2589.71
   04:43:23.035.19-Jul-2021 4355.50 6293.58 68.70 11.00   4.80 2589.71
   04:43:23.235.19-Jul-2021 4355.50 6291.13 68.70 11.00   5.00 2589.71
   04:43:23.435.19-Jul-2021 4355.50 6291.13 68.70 11.00   5.20 2589.71
   04:43:23.635.19-Jul-2021 4355.50 6319.95 68.70 11.00   5.40 2589.71
   04:43:23.835.19-Jul-2021 4355.50 6288.89 68.70 11.00   5.60 2589.71
   04:43:24.035.19-Jul-2021 4355.50 6291.69 68.70 11.00   5.80 2589.71
   04:43:24.236.19-Jul-2021 4355.50 6298.10 68.70 11.00   6.00 2589.71
   04:43:24.436.19-Jul-2021 4355.50 6298.10 68.70 11.00   6.20 2589.71
   04:43:24.636.19-Jul-2021 4355.50 6294.43 68.70 11.00   6.40 2589.71
   04:43:24.836.19-Jul-2021 4355.50 6292.42 68.70 11.00   6.60 2589.71
   04:43:25.036.19-Jul-2021 4355.50 6293.46 68.70 11.00   6.80 2589.71
   04:43:25.236.19-Jul-2021 4355.50 6300.95 68.70 11.00   7.00 2589.71
   04:43:25.436.19-Jul-2021 4355.50 6300.95 68.70 11.00   7.20 2589.71
   04:43:25.636.19-Jul-2021 4355.50 6294.06 68.70 11.00   7.40 2589.71
   04:43:25.836.19-Jul-2021 4355.50 6298.87 68.70 11.00   7.60 2589.71
   04:43:26.036.19-Jul-2021 4355.50 6296.52 68.70 11.00   7.80 2589.71
   04:43:26.236.19-Jul-2021 4355.50 6296.11 68.70 11.00   8.00 2589.71
   04:43:26.436.19-Jul-2021 4355.50 6296.11 68.70 11.00   8.20 2589.71
   04:43:26.636.19-Jul-2021 4355.50 6296.38 68.70 11.00   8.40 2589.71
   04:43:26.836.19-Jul-2021 4355.50 6296.63 68.70 11.00   8.60 2589.71
   04:43:27.037.19-Jul-2021 4355.50 6295.26 68.70 11.00   8.80 2589.71
   04:43:27.237.19-Jul-2021 4355.50 6294.51 68.70 11.00   9.00 2589.71
   04:43:27.437.19-Jul-2021 4355.50 6294.51 68.70 11.00   9.20 2589.71
   04:43:27.637.19-Jul-2021 4355.50 6294.78 68.70 11.00   9.40 2589.71
   04:43:27.837.19-Jul-2021 4355.50 6294.61 68.70 11.00   9.60 2589.71
   04:43:28.037.19-Jul-2021 4355.50 6310.33 68.70 11.00   9.80 2589.71
   04:43:28.237.19-Jul-2021 4355.50 6301.70 68.70 11.00  10.00 2589.71
   04:43:28.437.19-Jul-2021 4355.50 6301.70 68.70 11.00  10.20 2589.71
   04:43:28.637.19-Jul-2021 4355.50 6300.47 68.70 11.00  10.40 2589.71
   04:43:28.837.19-Jul-2021 4355.50 6294.98 68.70 11.00  10.60 2589.71
   04:43:29.037.19-Jul-2021 4355.50 6296.44 68.70 11.00  10.80 2589.71
   04:43:29.237.19-Jul-2021 4355.50 6298.90 68.70 11.00  11.00 2589.71
   04:43:29.437.19-Jul-2021 4355.50 6298.90 68.70 11.00  11.20 2589.71
   04:43:29.638.19-Jul-2021 4355.50 6295.83 68.70 11.00  11.40 2589.71
   04:43:29.838.19-Jul-2021 4355.50 6295.23 68.70 11.00  11.60 2589.71
   04:43:30.038.19-Jul-2021 4355.50 6295.53 68.70 11.00  11.80 2589.71
   04:43:30.238.19-Jul-2021 4355.50 6295.53 68.70 11.00  12.00 2589.71
   04:43:30.438.19-Jul-2021 4355.50 6295.53 68.70 11.00  12.20 2589.71
   04:43:30.638.19-Jul-2021 4355.50 6295.33 68.70 11.00  12.40 2589.71
   04:43:30.838.19-Jul-2021 4355.50 6320.01 68.70 11.00  12.60 2589.71
   04:43:31.038.19-Jul-2021 4355.50 6295.74 68.70 11.00  12.80 2589.71
   04:43:31.238.19-Jul-2021 4355.50 6296.14 68.70 11.00  13.00 2589.71
   04:43:31.438.19-Jul-2021 4355.50 6296.14 68.70 11.00  13.20 2589.71
   04:43:31.638.19-Jul-2021 4355.50 6314.67 68.70 11.00  13.40 2589.71
   04:43:31.838.19-Jul-2021 4355.50 6306.19 68.70 11.00  13.61 2589.71
   04:43:32.038.19-Jul-2021 4355.50 6297.06 68.70 11.00  13.81 2589.71
   04:43:32.238.19-Jul-2021 4355.50 6302.58 68.70 11.00  14.01 2589.71
   04:43:32.439.19-Jul-2021 4355.50 6302.58 68.70 11.00  14.21 2589.71
   04:43:32.639.19-Jul-2021 4355.50 6302.58 68.70 11.00  14.41 2589.71
   04:43:32.839.19-Jul-2021 4355.50 6300.64 68.70 11.00  14.61 2589.71
   04:43:33.039.19-Jul-2021 4355.50 6300.67 68.70 11.00  14.81 2589.71
   04:43:33.239.19-Jul-2021 4355.50 6306.92 68.70 11.00  15.01 2589.71
   04:43:33.439.19-Jul-2021 4355.50 6306.92 68.70 11.00  15.21 2589.71
   04:43:33.639.19-Jul-2021 4355.50 6306.92 68.70 11.00  15.41 2589.71
   04:43:33.839.19-Jul-2021 4355.50 6301.59 68.70 11.00  15.61 2589.71
   04:43:34.039.19-Jul-2021 4355.50 6335.41 68.70 11.00  15.81 2589.71
   04:43:34.239.19-Jul-2021 4355.50 6303.97 68.70 11.00  16.01 2589.71
   04:43:34.439.19-Jul-2021 4355.50 6303.97 68.70 11.00  16.21 2589.71
   04:43:34.639.19-Jul-2021 4355.50 6309.08 68.70 11.00  16.41 2589.71
   04:43:34.839.19-Jul-2021 4355.50 6305.44 68.70 11.00  16.61 2589.71
   04:43:35.040.19-Jul-2021 4355.50 6333.92 68.70 11.00  16.81 2589.71
   04:43:35.240.19-Jul-2021 4355.50 6304.77 68.70 11.00  17.01 2589.71
   04:43:35.440.19-Jul-2021 4355.50 6304.77 68.70 11.00  17.21 2589.71
   04:43:35.640.19-Jul-2021 4355.50 6313.68 68.70 11.00  17.41 2589.71
   04:43:35.840.19-Jul-2021 4355.50 6308.41 68.70 11.00  17.61 2589.71
   04:43:36.040.19-Jul-2021 4355.50 6310.97 68.70 11.00  17.81 2589.71
   04:43:36.240.19-Jul-2021 4355.50 6309.59 68.70 11.00  18.01 2589.71
   04:43:36.440.19-Jul-2021 4355.50 6309.59 68.70 11.00  18.21 2589.71
   04:43:36.640.19-Jul-2021 4355.50 6309.40 68.70 11.00  18.41 2589.71
   04:43:36.840.19-Jul-2021 4355.50 6308.12 68.70 11.00  18.61 2589.71
   04:43:37.040.19-Jul-2021 4355.50 6308.19 68.70 11.00  18.81 2589.71
   04:43:37.240.19-Jul-2021 4355.50 6307.49 68.70 11.00  19.01 2589.71
   04:43:37.440.19-Jul-2021 4355.50 6307.49 68.70 11.00  19.21 2589.71
   04:43:37.640.19-Jul-2021 4355.50 6307.57 68.70 11.00  19.41 2589.71
   04:43:37.841.19-Jul-2021 4355.50 6324.83 68.70 11.00  19.61 2589.71
   04:43:38.041.19-Jul-2021 4355.50 6315.70 68.70 11.00  19.81 2589.71
   04:43:38.241.19-Jul-2021 4355.50 6309.92 68.70 11.00  20.01 2589.71
   04:43:38.441.19-Jul-2021 4355.50 6309.92 68.70 11.00  20.21 2589.71
   04:43:38.641.19-Jul-2021 4355.50 6310.49 68.70 11.00  20.41 2589.71
   04:43:38.841.19-Jul-2021 4355.50 6310.88 68.70 11.00  20.61 2589.71
   04:43:39.041.19-Jul-2021 4355.50 6311.16 68.70 11.00  20.81 2589.71
   04:43:39.241.19-Jul-2021 4355.50 6309.72 68.70 11.00  21.01 2589.71
   04:43:39.441.19-Jul-2021 4355.50 6309.72 68.70 11.00  21.21 2589.71
   04:43:39.641.19-Jul-2021 4355.50 6310.21 68.70 11.00  21.41 2589.71
   04:43:39.841.19-Jul-2021 4355.50 6309.74 68.70 11.00  21.61 2589.71
   04:43:40.041.19-Jul-2021 4355.50 6308.68 68.70 11.00  21.81 2589.71
   04:43:40.241.19-Jul-2021 4355.50 6309.96 68.70 11.00  22.01 2589.71
   04:43:40.441.19-Jul-2021 4355.50 6309.96 68.70 11.00  22.21 2589.71
   04:43:40.642.19-Jul-2021 4355.50 6317.41 68.70 11.00  22.41 2589.71
