~Version Information
 VERS.                  2.0:   CWLS log ASCII Standard -VERSION 2.0
 WRAP.                   NO:   One line per depth step
~Well Information Block
#MNEM.UNIT     VALUE/NAME     DESCRIPTION
#---------     -----------    ---------------------------
 STRT.S             07:16:19 19-Jul-21: START TIME 07:16:19 19-Jul-21
 STOP.S             07:23:16 19-Jul-21: STOP TIME  07:23:16 19-Jul-21
 STEP.S                   0.00: STEP TIME
 NULL.                 -999.25: NULL VALUE
 MDS .        Operator Entered:  MAG DATA SOURCE
 PDAT.          Mean Sea Level:  PERMANENT DATUM
 UNIT.                     N/A:  LOGGING EQUIPMENT ID
 DCON.         Sperry Drilling:  DIRECTNL CONTR
 DOE .                     N/A:  DOE NUMBER
 RIG .              West Azeri:  RIG NAME
 JOBN.        AZ-XX-0906997913:  JOB TICKET NUMB
 WELL.                     C41:  WELL NAME
 MWDS.                    Baku:  MWD SHOP
 SRVC.          Turan Drilling:  CONTRACTOR
 FLD .                     ACG:  FIELD NAME
 CTRY.              Azerbaijan:  COUNTRY NAME
 PROV.                    Baku:  PROVINCE
 STAT.                    Baku:  STATE NAME
 REGN.                   EESSA:  REGION
 BASE.              Azerbaijan:  LOGGING EQUIPMENT BASE LOCATION
 UWI .                     N/A:  UNIQUE WELL IDENTIFIER
 API .                     N/A:  API NUMBER
 COMP.     BP Exploration (Caspian Sea) Ltd.:  COMPANY
 WTYP.                Deviated:  WELL TYPE
 SON .        AZ-XX-0906997913:  JOB NUMBER
 FTOP.          Formation Tops:  FORM TOPS DESC
 ILTD.               Lithology:  INTERP LTH DESC
 SVYD.                  Survey:  SURVEY DESC
 DMOD.             Drill Model:  DRILL MOD DESC
 HPTY.       Minimum Curvature:  HOLE POS TYPE
 NREF.                    Grid:  NORTH REFERENCE
 SPUD.               16-May-21:  SPUD DATE
 DATE.      21.11.28 17-May-21:  END TIME
 STIM.      21.11.28 17-May-21:  START TIME
 DMF .             Drill Floor:  DRILL MEAS FROM
 DFST.                        :  DIST FSL TEXT
 DFWT.                        :  DIST FWL TEXT
 CNTY.                        :  COUNTY
 LOC .                        :  LOCATION
 LMF .             Drill Floor:  LOG MEASURED FROM
 AGAP.m                  43.42:  AIR GAP
 VSNS.m                  -2.16:  VERT SEC N/S
 VSEW.m                  -6.24:  VERT SEC E/W
 APD .m                  43.42:  DEPTH ABOVE PD
 WDMS.m                 118.27:  WD ELEV
 EGL .m                   0.00:  GROUND ELEVATION
 EPD .m                   0.00:  ELEVATION
 AZTC.deg                 6.29:  AZM TOTAL CORR
 GRDC.deg                 0.18:  GRID CORRECTION
 MDEC.deg                 6.47:  MAGNETIC DECL
 MDIP.deg                59.54:  MAGNETIC DIP
 MFLD.nT              50337.00:  MAGNETIC FIELD
 GVFD.g                   1.00:  GRAVITY FIELD
 VSDR.deg               226.99:  VERT SEC DIRECT
 TDD .m                   0.00:  TOTAL DEPTH (DRILLER)
 SDEP.m                 448.00:  START DEPTH
 DFSL.m                   0.00:  DISTANCE FSL
 DFWL.m                   0.00:  DISTANCE FWL
 UTMY.m             4435799.96:  UTM Y
 UTMX.m              526265.35:  UTM X
 WHEW.m                  -6.24:  WELL HEAD E/W
 WHNS.m                  -2.16:  WELL HEAD N/S
 LONG.deg                51.31:  LONGITUDE
 LATI.deg                40.06:  LATITUDE
 TVDS.m                  43.42:  TVDSS CORRECTN
 EKB .m                  43.42:  KB ELEVATION
 EDF .m                  43.42:  DF ELEVATION
 TDL .m                 288.00:  TOTAL DEPTH (LOGGER)
 MAGU.                 1851863:  MAGUTM CHECKSUM
 VSC .                       0:  VS TO CLOSURE
~Parameter Information Block
#MNEM.UNIT       Value        Description
#---------     -----------    ---------------------------
 AV  .mps                 0.40:  Ann Velocity 
 AVMX.mps                 0.63:  Max Ann Veloc 
 AZIF.deg               158.76:  Azm, Final 
 BHAT.        Rotary Steerable:  BHA Type 
 BROT.°/30m               0.68:  Build Rotating 
 BS  .in                  8.50:  Bit Size 
 BSZ .in                  8.50:  Bit Size 
 BTPL.psig              712.00:  Bit Press Loss 
 CABU.                      No:  Customer Abuse 
 COMM.                     ôK:  Run Comments 1 
 TCS .hr                 90.66:  Time Ciculation Ended 
 CV  .mps                 2.02:  Crit Velocity 
 CVMX.mps                 2.14:  Max Crit Veloc 
 DD1 .            Aziz Aliyevu:  Direct Drillr 1 
 DD2 .             Samir Abbas:  Direct Drillr 2 
 DD3 .           Teymur Aliyev:  Direct Drillr 3 
 DDSV.                 iCruise:  DD Service 
 DEFF.%                  85.10:  % Det Eff 
 DLRX.°/30m               1.05:  Dogleg Rot Max 
 DLSO.°/30m               1.01:  Dogleg Oriented 
 DLSX.°/30m               1.05:  Dogleg Str Max 
 DRET.      07.45.00 18-Jul-21:  Drill End Time 
 DRST.      15.00.00 16-Jul-21:  Drill Start Tim 
 DTIM.hr                 23.46:  Time Drilling 
 EDEP.m                4603.00:  End Depth 
 ENG1.       Seymur Iskandarov:  Engineer 1 
 ENG2.         Yevgeniy Ulikov:  Engineer 2 
 ENG3.         Bahruz Mehdiyev:  Engineer 3 
 ENG4.         Elchin Mammadov:  Engineer 4 
 ETIM.      14.00.00 23-Jul-21:  End Time 
 FLOI.gpm               500.00:  Flow In 
 FLON.gpm               450.00:  Flow In Min 
 FLOS.cptm                0.00:  Fluid Loss 
 FLOX.gpm               560.00:  Flow In Max 
 DFT .        Mineral Oil Base:  Mud Type 
 FTRO.       Formation Presure:  FTWD Run Obj 
 HFLO.                      No:  High Flow 
 HPRE.                      No:  High Pressure 
 HTEM.                      No:  High Temp 
 HYDO.m                   1.80:  Hydro Offset 
 IFIN.deg                40.22:  Inc, Final 
 IMAX.deg                40.54:  Inc Max 
 IMIN.deg                39.44:  Inc Min 
 IMND.m                4361.17:  Inc Min Depth 
 IMXD.m                4417.92:  Inc Max Depth 
 JARR.                      No:  Jarring 
 LETM.      07.45.00 18-Jul-21:  Log End Time 
 LOST.hr                    16:  Lost Rig Time 
 LSTM.      15.00.00 16-Jul-21:  Log Start Time 
 MDCL.ppm             36500.00:  Mud Chlorides 
 MDES.     Inversion Oil/Synthetic:  Mud Desc 
 DFD .sg                  1.42:  Mud Density 
 MDMN.sg                  1.42:  Dens Mud Min 
 MDMX.sg                  1.43:  Dens Mud Max 
 MOIL.                      56:  Run Mud Oil % 
 MOWR.                   71:29:  Run Mud OWR 
 MSND.                     0.5:  Run Mud Sand % 
 MSOL.                      21:  Run Mud Solids% 
 DFV .spqt               78.00:  Mud Viscosity 
 MWOD.in                  6.75:  MWD Tool OD 
 MWSI.                     Yes:  Serv Intrp, MWD 
 OTIM.hr                200.73:  Time Operating 
 PCON.           Look Like New:  Pad Condition 
 PMAX.psia            11069.93:  Press Op, Max 
 PV  .cP                 32.00:  Mud PV 
 RUN .                     700:  Run Number 
 ROPA.m/hr               10.00:  ROP Avg 
 ROPN.m/hr                9.00:  ROP Min 
 ROPX.m/hr               16.00:  ROP Max 
 RPMA.rpm               116.00:  RPM Surface Avg 
 RPMN.rpm                80.00:  RPM Surface Min 
 RPMX.rpm               120.00:  RPM Surface Max 
 RRUN.                    L605:  Rig Run Number 
 RTIM.hr                 45.00:  Time Reaming 
 SAZI.deg               159.86:  Azm, Start 
 SDEP.m                4315.00:  Start Depth 
 SIDD.                      No:  Serv Intrp, DD 
 SINC.deg                39.86:  Inc, Start 
 SPPA.psig             3300.00:  SPP Avg 
 SPPN.psig             3040.00:  SPP Min 
 SPPX.psig             3645.00:  SPP Max 
 STIM.      01.00.00 15-Jul-21:  Start Time 
 SVCS.                 DD, MWD:  Services 
 SVER.                    9.20:  Sperry Version 
 TDAT.m                 288.00:  Tot Depth Attmp 
 TDDF.                      No:  Trip for DD 
 TDLG.m                 288.00:  Tot Depth Loggd 
 TFF .                      No:  Trip for Fail 
 TQAA.f-kp               19.00:  Torque Abs Avg 
 TQAN.f-kp               18.00:  Torque Abs Min 
 TQAX.f-kp               21.00:  Torque Abs Max 
 TRRT.°/30m               0.45:  Turn Rotating 
 MRT .                    HCIM:  Maximum Recorded Temperature 
 TTMX.degC               88.24:  Max Tool Temp 
 VS01.                90649157:  Virtual Str1 SN 
 VS02.                90652483:  Virtual Str2 SN 
 VS03.                11671987:  Virtual Str3 SN 
 VS04.                90643411:  Virtual Str4 SN 
 VS05.                90652478:  Virtual Str5 SN 
 VS06.                    6111:  Virtual Str6 SN 
 WBMN.klb                 9.50:  WOB Min 
 WITN.        Grigoriy Sarayev:  Customer Rep 
 WITN.          Rufat Huseynov:  Customer Rep 2 
 WOBA.klb                11.00:  WOB Avg 
 WOBX.klb                15.00:  WOB Max 
 YP  .lhf2               28.00:  Yield Point 
~Curve Information Block
#MNEM.UNIT                 API CODE     Curve Description
#---------               -----------    ---------------------------
 TIME.HHMMSS            00 000 000 000:  GT Time & Date
 GTDEPTH.m              00 000 000 000:  GT Depth
 GTPQH.psia             00 000 000 000:  GT HR Quartz Pressure
 GTTQ.degC              00 000 000 000:  GT Quartz Temperature
 GTTN.NONE              00 000 000 000:  GT Test Number
 GTET.sec               00 000 000 000:  GT Elapsed Test Time
 GTTVD.m                00 000 000 000:  GT True Vertical Depth
#Other Information
#
#WARRANTY: Halliburton will use its best efforts to furnish customers with 
#accurate information and interpretations that are part of, and incident to, the services 
#provided.  However, Halliburton cannot and does not warrant the accuracy 
#or correctness of such information and interpretations.  Under no circumstances should any 
#such information or interpretation be relied upon as the sole basis for any drilling, 
#completion, production, or financial decision or any procedure involving any risk to the 
#safety of any drilling venture, drilling rig or its crew or any other third party.  The 
#Customer has full responsibility for all drilling, completion and production operation.  
#Halliburton makes no representations or warranties, either expressed or 
#implied, including, but not limited to, the implied warranties of merchantability or fitness 
#for a particular purpose, with respect to the services rendered.  In no event will 
#Halliburton be liable for failure to obtain any particular results or for 
#any damages, including, but not limited to, indirect, special or consequential damages, 
#resulting from the use of any information or interpretation provided by Halliburton.
#
~A           TIME           GTDEPTH  GTPQH  GTTQ  GTTN   GTET   GTTVD  
# ...
   07:21:58.739.19-Jul-2021 4406.50 4330.95 69.79 15.00 339.12 2628.90
   07:21:58.939.19-Jul-2021 4406.50 4330.95 69.79 15.00 339.32 2628.90
   07:21:59.139.19-Jul-2021 4406.50 4331.36 69.79 15.00 339.53 2628.90
   07:21:59.339.19-Jul-2021 4406.50 4330.83 69.79 15.00 339.73 2628.90
   07:21:59.539.19-Jul-2021 4406.50 4330.94 69.79 15.00 339.93 2628.90
   07:21:59.739.19-Jul-2021 4406.50 4331.04 69.79 15.00 340.13 2628.90
   07:21:59.939.19-Jul-2021 4406.50 4331.04 69.79 15.00 340.33 2628.90
   07:22:00.139.19-Jul-2021 4406.50 4330.88 69.79 15.00 340.53 2628.90
   07:22:00.339.19-Jul-2021 4406.50 4330.93 69.79 15.00 340.73 2628.90
   07:22:00.540.19-Jul-2021 4406.50 4330.98 69.79 15.00 340.93 2628.90
   07:22:00.740.19-Jul-2021 4406.50 4330.99 69.79 15.00 341.13 2628.90
   07:22:00.940.19-Jul-2021 4406.50 4330.99 69.79 15.00 341.33 2628.90
   07:22:01.140.19-Jul-2021 4406.50 4331.01 69.79 15.00 341.53 2628.90
   07:22:01.340.19-Jul-2021 4406.50 4330.99 69.79 15.00 341.73 2628.90
   07:22:01.540.19-Jul-2021 4406.50 4330.96 69.79 15.00 341.93 2628.90
   07:22:01.740.19-Jul-2021 4406.50 4331.46 69.79 15.00 342.13 2628.90
   07:22:01.940.19-Jul-2021 4406.50 4331.46 69.79 15.00 342.33 2628.90
   07:22:02.140.19-Jul-2021 4406.50 4330.87 69.79 15.00 342.53 2628.90
   07:22:02.340.19-Jul-2021 4406.50 4331.66 69.79 15.00 342.73 2628.90
   07:22:02.540.19-Jul-2021 4406.50 4330.24 69.79 15.00 342.93 2628.90
   07:22:02.740.19-Jul-2021 4406.50 4331.18 69.79 15.00 343.13 2628.90
   07:22:02.940.19-Jul-2021 4406.50 4331.18 69.79 15.00 343.33 2628.90
   07:22:03.140.19-Jul-2021 4406.50 4330.83 69.79 15.00 343.53 2628.90
   07:22:03.341.19-Jul-2021 4406.50 4330.75 69.79 15.00 343.73 2628.90
   07:22:03.541.19-Jul-2021 4406.50 4331.29 69.79 15.00 343.93 2628.90
   07:22:03.741.19-Jul-2021 4406.50 4330.93 69.79 15.00 344.13 2628.90
   07:22:03.941.19-Jul-2021 4406.50 4330.93 69.79 15.00 344.33 2628.90
   07:22:04.141.19-Jul-2021 4406.50 4331.28 69.79 15.00 344.53 2628.90
   07:22:04.341.19-Jul-2021 4406.50 4331.12 69.79 15.00 344.73 2628.90
   07:22:04.541.19-Jul-2021 4406.50 4330.85 69.79 15.00 344.93 2628.90
   07:22:04.741.19-Jul-2021 4406.50 4331.31 69.79 15.00 345.13 2628.90
   07:22:04.941.19-Jul-2021 4406.50 4331.31 69.79 15.00 345.33 2628.90
   07:22:05.141.19-Jul-2021 4406.50 4331.04 69.79 15.00 345.53 2628.90
   07:22:05.341.19-Jul-2021 4406.50 4331.04 69.79 15.00 345.73 2628.90
   07:22:05.541.19-Jul-2021 4406.50 4330.91 69.79 15.00 345.93 2628.90
   07:22:05.741.19-Jul-2021 4406.50 4330.98 69.79 15.00 346.13 2628.90
   07:22:05.942.19-Jul-2021 4406.50 4330.98 69.79 15.00 346.33 2628.90
   07:22:06.142.19-Jul-2021 4406.50 4330.97 69.79 15.00 346.53 2628.90
   07:22:06.342.19-Jul-2021 4406.50 4330.97 69.79 15.00 346.73 2628.90
   07:22:06.542.19-Jul-2021 4406.50 4330.98 69.79 15.00 346.93 2628.90
   07:22:06.742.19-Jul-2021 4406.50 4330.98 69.79 15.00 347.13 2628.90
   07:22:06.942.19-Jul-2021 4406.50 4330.98 69.79 15.00 347.33 2628.90
   07:22:07.142.19-Jul-2021 4406.50 4331.00 69.79 15.00 347.53 2628.90
   07:22:07.342.19-Jul-2021 4406.50 4330.93 69.79 15.00 347.73 2628.90
   07:22:07.542.19-Jul-2021 4406.50 4331.39 69.79 15.00 347.93 2628.90
   07:22:07.742.19-Jul-2021 4406.50 4330.76 69.79 15.00 348.13 2628.90
   07:22:07.942.19-Jul-2021 4406.50 4330.76 69.79 15.00 348.33 2628.90
   07:22:08.142.19-Jul-2021 4406.50 4330.95 69.79 15.00 348.53 2628.90
   07:22:08.342.19-Jul-2021 4406.50 4330.87 69.79 15.00 348.73 2628.90
   07:22:08.542.19-Jul-2021 4406.50 4331.03 69.79 15.00 348.93 2628.90
   07:22:08.743.19-Jul-2021 4406.50 4330.92 69.79 15.00 349.13 2628.90
   07:22:08.943.19-Jul-2021 4406.50 4330.92 69.79 15.00 349.33 2628.90
   07:22:09.143.19-Jul-2021 4406.50 4330.93 69.79 15.00 349.53 2628.90
   07:22:09.343.19-Jul-2021 4406.50 4330.98 69.79 15.00 349.73 2628.90
   07:22:09.543.19-Jul-2021 4406.50 4331.02 69.79 15.00 349.93 2628.90
   07:22:09.743.19-Jul-2021 4406.50 4331.01 69.79 15.00 350.13 2628.90
   07:22:09.943.19-Jul-2021 4406.50 4331.01 69.79 15.00 350.33 2628.90
   07:22:10.143.19-Jul-2021 4406.50 4331.44 69.79 15.00 350.53 2628.90
   07:22:10.343.19-Jul-2021 4406.50 4330.78 69.79 15.00 350.73 2628.90
   07:22:10.543.19-Jul-2021 4406.50 4330.88 69.79 15.00 350.93 2628.90
   07:22:10.743.19-Jul-2021 4406.50 4331.73 69.79 15.00 351.13 2628.90
   07:22:10.943.19-Jul-2021 4406.50 4331.73 69.79 15.00 351.33 2628.90
   07:22:11.143.19-Jul-2021 4406.50 4331.18 69.79 15.00 351.53 2628.90
   07:22:11.344.19-Jul-2021 4406.50 4330.83 69.79 15.00 351.73 2628.90
   07:22:11.544.19-Jul-2021 4406.50 4330.89 69.79 15.00 351.93 2628.90
   07:22:11.744.19-Jul-2021 4406.50 4330.77 69.79 15.00 352.13 2628.90
   07:22:11.944.19-Jul-2021 4406.50 4330.77 69.79 15.00 352.33 2628.90
   07:22:12.144.19-Jul-2021 4406.50 4330.90 69.79 15.00 352.53 2628.90
   07:22:12.344.19-Jul-2021 4406.50 4331.24 69.79 15.00 352.73 2628.90
   07:22:12.544.19-Jul-2021 4406.50 4330.74 69.79 15.00 352.93 2628.90
   07:22:12.744.19-Jul-2021 4406.50 4331.22 69.79 15.00 353.13 2628.90
   07:22:12.944.19-Jul-2021 4406.50 4331.22 69.79 15.00 353.33 2628.90
   07:22:13.144.19-Jul-2021 4406.50 4331.36 69.79 15.00 353.53 2628.90
   07:22:13.344.19-Jul-2021 4406.50 4330.72 69.79 15.00 353.73 2628.90
   07:22:13.544.19-Jul-2021 4406.50 4330.94 69.79 15.00 353.93 2628.90
   07:22:13.744.19-Jul-2021 4406.50 4331.06 69.79 15.00 354.13 2628.90
   07:22:13.944.19-Jul-2021 4406.50 4331.06 69.79 15.00 354.33 2628.90
   07:22:14.145.19-Jul-2021 4406.50 4330.97 69.79 15.00 354.53 2628.90
   07:22:14.345.19-Jul-2021 4406.50 4330.92 69.79 15.00 354.73 2628.90
   07:22:14.545.19-Jul-2021 4406.50 4330.97 69.79 15.00 354.93 2628.90
   07:22:14.745.19-Jul-2021 4406.50 4330.96 69.79 15.00 355.13 2628.90
   07:22:14.945.19-Jul-2021 4406.50 4330.96 69.79 15.00 355.33 2628.90
   07:22:15.145.19-Jul-2021 4406.50 4331.00 69.79 15.00 355.53 2628.90
   07:22:15.345.19-Jul-2021 4406.50 4331.00 69.79 15.00 355.73 2628.90
   07:22:15.545.19-Jul-2021 4406.50 4331.01 69.79 15.00 355.93 2628.90
   07:22:15.745.19-Jul-2021 4406.50 4330.98 69.79 15.00 356.13 2628.90
   07:22:15.945.19-Jul-2021 4406.50 4330.98 69.79 15.00 356.33 2628.90
   07:22:16.145.19-Jul-2021 4406.50 4331.42 69.79 15.00 356.53 2628.90
   07:22:16.345.19-Jul-2021 4406.50 4330.84 69.79 15.00 356.73 2628.90
   07:22:16.545.19-Jul-2021 4406.50 4331.03 69.79 15.00 356.93 2628.90
   07:22:16.745.19-Jul-2021 4406.50 4330.91 69.79 15.00 357.13 2628.90
   07:22:16.946.19-Jul-2021 4406.50 4330.91 69.79 15.00 357.33 2628.90
   07:22:17.146.19-Jul-2021 4406.50 4330.93 69.79 15.00 357.53 2628.90
   07:22:17.346.19-Jul-2021 4406.50 4330.98 69.79 15.00 357.73 2628.90
   07:22:17.546.19-Jul-2021 4406.50 4330.99 69.79 15.00 357.93 2628.90
   07:22:17.746.19-Jul-2021 4406.50 4330.95 69.79 15.00 358.13 2628.90
   07:22:17.946.19-Jul-2021 4406.50 4330.95 69.79 15.00 358.33 2628.90
   07:22:18.146.19-Jul-2021 4406.50 4331.01 69.79 15.00 358.53 2628.90
   07:22:18.346.19-Jul-2021 4406.50 4330.97 69.79 15.00 358.73 2628.90
   07:22:18.546.19-Jul-2021 4406.50 4331.48 69.79 15.00 358.93 2628.90
   07:22:18.746.19-Jul-2021 4406.50 4330.77 69.79 15.00 359.13 2628.90
   07:22:18.946.19-Jul-2021 4406.50 4330.77 69.79 15.00 359.33 2628.90
   07:22:19.146.19-Jul-2021 4406.50 4331.78 69.79 15.00 359.53 2628.90
   07:22:19.346.19-Jul-2021 4406.50 4330.23 69.79 15.00 359.73 2628.90
   07:22:19.547.19-Jul-2021 4406.50 4330.68 69.79 15.00 359.93 2628.90
   07:22:19.747.19-Jul-2021 4406.50 4335.59 69.79 15.00 360.13 2628.90
   07:22:19.947.19-Jul-2021 4406.50 4335.59 69.79 15.00 360.33 2628.90
   07:22:20.147.19-Jul-2021 4406.50 4377.90 69.79 15.00 360.53 2628.90
   07:22:20.347.19-Jul-2021 4406.50 6180.80 69.79 15.00 360.73 2628.90
   07:22:20.547.19-Jul-2021 4406.50 6393.44 69.79 15.00 360.93 2628.90
   07:22:20.747.19-Jul-2021 4406.50 6397.36 69.79 15.00 361.13 2628.90
   07:22:20.947.19-Jul-2021 4406.50 6397.36 69.79 15.00 361.33 2628.90
   07:22:21.147.19-Jul-2021 4406.50 6412.10 69.79 15.00 361.53 2628.90
