~Version Information
 VERS.                  2.0:   CWLS log ASCII Standard -VERSION 2.0
 WRAP.                   NO:   One line per depth step
~Well Information Block
#MNEM.UNIT     VALUE/NAME     DESCRIPTION
#---------     -----------    ---------------------------
 STRT.S             13:11:20 18-Jul-21: START TIME 13:11:20 18-Jul-21
 STOP.S             13:17:54 18-Jul-21: STOP TIME  13:17:54 18-Jul-21
 STEP.S                   0.00: STEP TIME
 NULL.                 -999.25: NULL VALUE
 MDS .        Operator Entered:  MAG DATA SOURCE
 PDAT.          Mean Sea Level:  PERMANENT DATUM
 UNIT.                     N/A:  LOGGING EQUIPMENT ID
 DCON.         Sperry Drilling:  DIRECTNL CONTR
 DOE .                     N/A:  DOE NUMBER
 RIG .              West Azeri:  RIG NAME
 JOBN.        AZ-XX-0906997913:  JOB TICKET NUMB
 WELL.                     C41:  WELL NAME
 MWDS.                    Baku:  MWD SHOP
 SRVC.          Turan Drilling:  CONTRACTOR
 FLD .                     ACG:  FIELD NAME
 CTRY.              Azerbaijan:  COUNTRY NAME
 PROV.                    Baku:  PROVINCE
 STAT.                    Baku:  STATE NAME
 REGN.                   EESSA:  REGION
 BASE.              Azerbaijan:  LOGGING EQUIPMENT BASE LOCATION
 UWI .                     N/A:  UNIQUE WELL IDENTIFIER
 API .                     N/A:  API NUMBER
 COMP.     BP Exploration (Caspian Sea) Ltd.:  COMPANY
 WTYP.                Deviated:  WELL TYPE
 SON .        AZ-XX-0906997913:  JOB NUMBER
 FTOP.          Formation Tops:  FORM TOPS DESC
 ILTD.               Lithology:  INTERP LTH DESC
 SVYD.                  Survey:  SURVEY DESC
 DMOD.             Drill Model:  DRILL MOD DESC
 HPTY.       Minimum Curvature:  HOLE POS TYPE
 NREF.                    Grid:  NORTH REFERENCE
 SPUD.               16-May-21:  SPUD DATE
 DATE.      21.11.28 17-May-21:  END TIME
 STIM.      21.11.28 17-May-21:  START TIME
 DMF .             Drill Floor:  DRILL MEAS FROM
 DFST.                        :  DIST FSL TEXT
 DFWT.                        :  DIST FWL TEXT
 CNTY.                        :  COUNTY
 LOC .                        :  LOCATION
 LMF .             Drill Floor:  LOG MEASURED FROM
 AGAP.m                  43.42:  AIR GAP
 VSNS.m                  -2.16:  VERT SEC N/S
 VSEW.m                  -6.24:  VERT SEC E/W
 APD .m                  43.42:  DEPTH ABOVE PD
 WDMS.m                 118.27:  WD ELEV
 EGL .m                   0.00:  GROUND ELEVATION
 EPD .m                   0.00:  ELEVATION
 AZTC.deg                 6.29:  AZM TOTAL CORR
 GRDC.deg                 0.18:  GRID CORRECTION
 MDEC.deg                 6.47:  MAGNETIC DECL
 MDIP.deg                59.54:  MAGNETIC DIP
 MFLD.nT              50337.00:  MAGNETIC FIELD
 GVFD.g                   1.00:  GRAVITY FIELD
 VSDR.deg               226.99:  VERT SEC DIRECT
 TDD .m                   0.00:  TOTAL DEPTH (DRILLER)
 SDEP.m                 448.00:  START DEPTH
 DFSL.m                   0.00:  DISTANCE FSL
 DFWL.m                   0.00:  DISTANCE FWL
 UTMY.m             4435799.96:  UTM Y
 UTMX.m              526265.35:  UTM X
 WHEW.m                  -6.24:  WELL HEAD E/W
 WHNS.m                  -2.16:  WELL HEAD N/S
 LONG.deg                51.31:  LONGITUDE
 LATI.deg                40.06:  LATITUDE
 TVDS.m                  43.42:  TVDSS CORRECTN
 EKB .m                  43.42:  KB ELEVATION
 EDF .m                  43.42:  DF ELEVATION
 TDL .m                 288.00:  TOTAL DEPTH (LOGGER)
 MAGU.                 1851863:  MAGUTM CHECKSUM
 VSC .                       0:  VS TO CLOSURE
~Parameter Information Block
#MNEM.UNIT       Value        Description
#---------     -----------    ---------------------------
 AV  .mps                 0.40:  Ann Velocity 
 AVMX.mps                 0.63:  Max Ann Veloc 
 AZIF.deg               158.76:  Azm, Final 
 BHAT.        Rotary Steerable:  BHA Type 
 BROT.∞/30m               0.68:  Build Rotating 
 BS  .in                  8.50:  Bit Size 
 BSZ .in                  8.50:  Bit Size 
 BTPL.psig              712.00:  Bit Press Loss 
 CABU.                      No:  Customer Abuse 
 COMM.                     §ÁL:  Run Comments 1 
 TCS .hr                 90.66:  Time Ciculation Ended 
 CV  .mps                 2.02:  Crit Velocity 
 CVMX.mps                 2.14:  Max Crit Veloc 
 DD1 .            Aziz Aliyevu:  Direct Drillr 1 
 DD2 .             Samir Abbas:  Direct Drillr 2 
 DD3 .           Teymur Aliyev:  Direct Drillr 3 
 DDSV.                 iCruise:  DD Service 
 DEFF.%                  85.10:  % Det Eff 
 DLRX.∞/30m               1.05:  Dogleg Rot Max 
 DLSO.∞/30m               1.01:  Dogleg Oriented 
 DLSX.∞/30m               1.05:  Dogleg Str Max 
 DRET.      07.45.00 18-Jul-21:  Drill End Time 
 DRST.      15.00.00 16-Jul-21:  Drill Start Tim 
 DTIM.hr                 23.46:  Time Drilling 
 EDEP.m                4603.00:  End Depth 
 ENG1.       Seymur Iskandarov:  Engineer 1 
 ENG2.         Yevgeniy Ulikov:  Engineer 2 
 ENG3.         Bahruz Mehdiyev:  Engineer 3 
 ENG4.         Elchin Mammadov:  Engineer 4 
 ETIM.      14.00.00 23-Jul-21:  End Time 
 FLOI.gpm               500.00:  Flow In 
 FLON.gpm               450.00:  Flow In Min 
 FLOS.cptm                0.00:  Fluid Loss 
 FLOX.gpm               560.00:  Flow In Max 
 DFT .        Mineral Oil Base:  Mud Type 
 FTRO.       Formation Presure:  FTWD Run Obj 
 HFLO.                      No:  High Flow 
 HPRE.                      No:  High Pressure 
 HTEM.                      No:  High Temp 
 HYDO.m                   1.80:  Hydro Offset 
 IFIN.deg                40.22:  Inc, Final 
 IMAX.deg                40.54:  Inc Max 
 IMIN.deg                39.44:  Inc Min 
 IMND.m                4361.17:  Inc Min Depth 
 IMXD.m                4417.92:  Inc Max Depth 
 JARR.                      No:  Jarring 
 LETM.      07.45.00 18-Jul-21:  Log End Time 
 LOST.hr                    16:  Lost Rig Time 
 LSTM.      15.00.00 16-Jul-21:  Log Start Time 
 MDCL.ppm             36500.00:  Mud Chlorides 
 MDES.     Inversion Oil/Synthetic:  Mud Desc 
 DFD .sg                  1.42:  Mud Density 
 MDMN.sg                  1.42:  Dens Mud Min 
 MDMX.sg                  1.43:  Dens Mud Max 
 MOIL.                      56:  Run Mud Oil % 
 MOWR.                   71:29:  Run Mud OWR 
 MSND.                     0.5:  Run Mud Sand % 
 MSOL.                      21:  Run Mud Solids% 
 DFV .spqt               78.00:  Mud Viscosity 
 MWOD.in                  6.75:  MWD Tool OD 
 MWSI.                     Yes:  Serv Intrp, MWD 
 OTIM.hr                200.73:  Time Operating 
 PCON.           Look Like New:  Pad Condition 
 PMAX.psia            11069.93:  Press Op, Max 
 PV  .cP                 32.00:  Mud PV 
 RUN .                     700:  Run Number 
 ROPA.m/hr               10.00:  ROP Avg 
 ROPN.m/hr                9.00:  ROP Min 
 ROPX.m/hr               16.00:  ROP Max 
 RPMA.rpm               116.00:  RPM Surface Avg 
 RPMN.rpm                80.00:  RPM Surface Min 
 RPMX.rpm               120.00:  RPM Surface Max 
 RRUN.                    L605:  Rig Run Number 
 RTIM.hr                 45.00:  Time Reaming 
 SAZI.deg               159.86:  Azm, Start 
 SDEP.m                4315.00:  Start Depth 
 SIDD.                      No:  Serv Intrp, DD 
 SINC.deg                39.86:  Inc, Start 
 SPPA.psig             3300.00:  SPP Avg 
 SPPN.psig             3040.00:  SPP Min 
 SPPX.psig             3645.00:  SPP Max 
 STIM.      01.00.00 15-Jul-21:  Start Time 
 SVCS.                 DD, MWD:  Services 
 SVER.                    9.20:  Sperry Version 
 TDAT.m                 288.00:  Tot Depth Attmp 
 TDDF.                      No:  Trip for DD 
 TDLG.m                 288.00:  Tot Depth Loggd 
 TFF .                      No:  Trip for Fail 
 TQAA.f-kp               19.00:  Torque Abs Avg 
 TQAN.f-kp               18.00:  Torque Abs Min 
 TQAX.f-kp               21.00:  Torque Abs Max 
 TRRT.∞/30m               0.45:  Turn Rotating 
 MRT .                    HCIM:  Maximum Recorded Temperature 
 TTMX.degC               88.24:  Max Tool Temp 
 VS01.                90649157:  Virtual Str1 SN 
 VS02.                90652483:  Virtual Str2 SN 
 VS03.                11671987:  Virtual Str3 SN 
 VS04.                90643411:  Virtual Str4 SN 
 VS05.                90652478:  Virtual Str5 SN 
 VS06.                    6111:  Virtual Str6 SN 
 WBMN.klb                 9.50:  WOB Min 
 WITN.        Grigoriy Sarayev:  Customer Rep 
 WITN.          Rufat Huseynov:  Customer Rep 2 
 WOBA.klb                11.00:  WOB Avg 
 WOBX.klb                15.00:  WOB Max 
 YP  .lhf2               28.00:  Yield Point 
~Curve Information Block
#MNEM.UNIT                 API CODE     Curve Description
#---------               -----------    ---------------------------
 TIME.HHMMSS            00 000 000 000:  GT Time & Date
 GTDEPTH.m              00 000 000 000:  GT Depth
 GTPQH.psia             00 000 000 000:  GT HR Quartz Pressure
 GTTQ.degC              00 000 000 000:  GT Quartz Temperature
 GTTN.NONE              00 000 000 000:  GT Test Number
 GTET.sec               00 000 000 000:  GT Elapsed Test Time
 GTTVD.m                00 000 000 000:  GT True Vertical Depth
#Other Information
#
#WARRANTY: Halliburton will use its best efforts to furnish customers with 
#accurate information and interpretations that are part of, and incident to, the services 
#provided.  However, Halliburton cannot and does not warrant the accuracy 
#or correctness of such information and interpretations.  Under no circumstances should any 
#such information or interpretation be relied upon as the sole basis for any drilling, 
#completion, production, or financial decision or any procedure involving any risk to the 
#safety of any drilling venture, drilling rig or its crew or any other third party.  The 
#Customer has full responsibility for all drilling, completion and production operation.  
#Halliburton makes no representations or warranties, either expressed or 
#implied, including, but not limited to, the implied warranties of merchantability or fitness 
#for a particular purpose, with respect to the services rendered.  In no event will 
#Halliburton be liable for failure to obtain any particular results or for 
#any damages, including, but not limited to, indirect, special or consequential damages, 
#resulting from the use of any information or interpretation provided by Halliburton.
#
~A           TIME           GTDEPTH  GTPQH  GTTQ  GTTN  GTET   GTTVD  
# ...
   13:12:52.678.18-Jul-2021 4561.00 6166.42 75.70 2.00  92.03 2746.93
   13:12:52.878.18-Jul-2021 4561.00 6166.42 75.70 2.00  92.23 2746.93
   13:12:53.078.18-Jul-2021 4561.00 6168.00 75.70 2.00  92.43 2746.93
   13:12:53.278.18-Jul-2021 4561.00 6166.82 75.70 2.00  92.63 2746.93
   13:12:53.478.18-Jul-2021 4561.00 6168.42 75.70 2.00  92.83 2746.93
   13:12:53.678.18-Jul-2021 4561.00 6166.80 75.70 2.00  93.03 2746.93
   13:12:53.878.18-Jul-2021 4561.00 6166.80 75.70 2.00  93.23 2746.93
   13:12:54.078.18-Jul-2021 4561.00 6167.55 75.70 2.00  93.43 2746.93
   13:12:54.278.18-Jul-2021 4561.00 6166.86 75.70 2.00  93.63 2746.93
   13:12:54.478.18-Jul-2021 4561.00 6166.90 75.70 2.00  93.83 2746.93
   13:12:54.679.18-Jul-2021 4561.00 6167.60 75.70 2.00  94.03 2746.93
   13:12:54.879.18-Jul-2021 4561.00 6167.60 75.70 2.00  94.23 2746.93
   13:12:55.079.18-Jul-2021 4561.00 6167.41 75.70 2.00  94.43 2746.93
   13:12:55.279.18-Jul-2021 4561.00 6166.70 75.70 2.00  94.63 2746.93
   13:12:55.479.18-Jul-2021 4561.00 6167.60 75.70 2.00  94.83 2746.93
   13:12:55.679.18-Jul-2021 4561.00 6167.46 75.70 2.00  95.03 2746.93
   13:12:55.879.18-Jul-2021 4561.00 6167.46 75.70 2.00  95.24 2746.93
   13:12:56.079.18-Jul-2021 4561.00 6167.46 75.70 2.00  95.44 2746.93
   13:12:56.279.18-Jul-2021 4561.00 6167.16 75.70 2.00  95.64 2746.93
   13:12:56.479.18-Jul-2021 4561.00 6167.66 75.70 2.00  95.84 2746.93
   13:12:56.679.18-Jul-2021 4561.00 6167.67 75.70 2.00  96.04 2746.93
   13:12:56.879.18-Jul-2021 4561.00 6167.67 75.70 2.00  96.24 2746.93
   13:12:57.079.18-Jul-2021 4561.00 6167.96 75.70 2.00  96.44 2746.93
   13:12:57.279.18-Jul-2021 4561.00 6167.59 75.70 2.00  96.64 2746.93
   13:12:57.480.18-Jul-2021 4561.00 6167.74 75.70 2.00  96.84 2746.93
   13:12:57.680.18-Jul-2021 4561.00 6168.12 75.70 2.00  97.04 2746.93
   13:12:57.880.18-Jul-2021 4561.00 6168.12 75.70 2.00  97.24 2746.93
   13:12:58.080.18-Jul-2021 4561.00 6166.97 75.70 2.00  97.44 2746.93
   13:12:58.280.18-Jul-2021 4561.00 6168.64 75.70 2.00  97.64 2746.93
   13:12:58.480.18-Jul-2021 4561.00 6168.12 75.70 2.00  97.84 2746.93
   13:12:58.680.18-Jul-2021 4561.00 6167.93 75.70 2.00  98.04 2746.93
   13:12:58.880.18-Jul-2021 4561.00 6167.93 75.70 2.00  98.24 2746.93
   13:12:59.080.18-Jul-2021 4561.00 6167.79 75.70 2.00  98.44 2746.93
   13:12:59.280.18-Jul-2021 4561.00 6167.59 75.70 2.00  98.64 2746.93
   13:12:59.480.18-Jul-2021 4561.00 6167.99 75.70 2.00  98.84 2746.93
   13:12:59.680.18-Jul-2021 4561.00 6167.91 75.70 2.00  99.04 2746.93
   13:12:59.880.18-Jul-2021 4561.00 6167.91 75.70 2.00  99.24 2746.93
   13:13:00.081.18-Jul-2021 4561.00 6168.34 75.70 2.00  99.44 2746.93
   13:13:00.281.18-Jul-2021 4561.00 6168.19 75.70 2.00  99.64 2746.93
   13:13:00.481.18-Jul-2021 4561.00 6167.90 75.70 2.00  99.84 2746.93
   13:13:00.681.18-Jul-2021 4561.00 6167.63 75.70 2.00 100.04 2746.93
   13:13:00.881.18-Jul-2021 4561.00 6167.63 75.70 2.00 100.24 2746.93
   13:13:01.081.18-Jul-2021 4561.00 6167.63 75.70 2.00 100.44 2746.93
   13:13:01.281.18-Jul-2021 4561.00 6167.42 75.70 2.00 100.64 2746.93
   13:13:01.481.18-Jul-2021 4561.00 6169.89 75.70 2.00 100.84 2746.93
   13:13:01.681.18-Jul-2021 4561.00 6167.24 75.70 2.00 101.04 2746.93
   13:13:01.881.18-Jul-2021 4561.00 6167.24 75.70 2.00 101.24 2746.93
   13:13:02.081.18-Jul-2021 4561.00 6169.90 75.70 2.00 101.44 2746.93
   13:13:02.281.18-Jul-2021 4561.00 6167.47 75.70 2.00 101.64 2746.93
   13:13:02.481.18-Jul-2021 4561.00 6167.83 75.70 2.00 101.84 2746.93
   13:13:02.681.18-Jul-2021 4561.00 6166.55 75.70 2.00 102.04 2746.93
   13:13:02.882.18-Jul-2021 4561.00 6166.55 75.70 2.00 102.24 2746.93
   13:13:03.082.18-Jul-2021 4561.00 6167.64 75.70 2.00 102.44 2746.93
   13:13:03.282.18-Jul-2021 4561.00 6168.05 75.70 2.00 102.64 2746.93
   13:13:03.482.18-Jul-2021 4561.00 6168.12 75.70 2.00 102.84 2746.93
   13:13:03.682.18-Jul-2021 4561.00 6167.16 75.70 2.00 103.04 2746.93
   13:13:03.882.18-Jul-2021 4561.00 6167.16 75.70 2.00 103.24 2746.93
   13:13:04.082.18-Jul-2021 4561.00 6167.81 75.70 2.00 103.44 2746.93
   13:13:04.282.18-Jul-2021 4561.00 6167.17 75.70 2.00 103.64 2746.93
   13:13:04.482.18-Jul-2021 4561.00 6167.86 75.70 2.00 103.84 2746.93
   13:13:04.682.18-Jul-2021 4561.00 6167.94 75.70 2.00 104.04 2746.93
   13:13:04.882.18-Jul-2021 4561.00 6167.94 75.70 2.00 104.24 2746.93
   13:13:05.082.18-Jul-2021 4561.00 6168.09 75.70 2.00 104.44 2746.93
   13:13:05.282.18-Jul-2021 4561.00 6168.12 75.70 2.00 104.64 2746.93
   13:13:05.483.18-Jul-2021 4561.00 6167.56 75.70 2.00 104.84 2746.93
   13:13:05.683.18-Jul-2021 4561.00 6168.11 75.70 2.00 105.04 2746.93
   13:13:05.883.18-Jul-2021 4561.00 6168.11 75.70 2.00 105.24 2746.93
   13:13:06.083.18-Jul-2021 4561.00 6166.70 75.70 2.00 105.44 2746.93
   13:13:06.283.18-Jul-2021 4561.00 6168.46 75.70 2.00 105.64 2746.93
   13:13:06.483.18-Jul-2021 4561.00 6168.22 75.70 2.00 105.84 2746.93
   13:13:06.683.18-Jul-2021 4561.00 6168.72 75.70 2.00 106.04 2746.93
   13:13:06.883.18-Jul-2021 4561.00 6168.72 75.70 2.00 106.24 2746.93
   13:13:07.083.18-Jul-2021 4561.00 6168.15 75.70 2.00 106.44 2746.93
   13:13:07.283.18-Jul-2021 4561.00 6168.10 75.70 2.00 106.64 2746.93
   13:13:07.483.18-Jul-2021 4561.00 6168.22 75.70 2.00 106.84 2746.93
   13:13:07.683.18-Jul-2021 4561.00 6167.97 75.70 2.00 107.04 2746.93
   13:13:07.883.18-Jul-2021 4561.00 6167.97 75.70 2.00 107.24 2746.93
   13:13:08.083.18-Jul-2021 4561.00 6168.32 75.70 2.00 107.44 2746.93
   13:13:08.284.18-Jul-2021 4561.00 6168.49 75.70 2.00 107.64 2746.93
   13:13:08.484.18-Jul-2021 4561.00 6168.04 75.70 2.00 107.84 2746.93
   13:13:08.684.18-Jul-2021 4561.00 6167.58 75.70 2.00 108.04 2746.93
   13:13:08.884.18-Jul-2021 4561.00 6167.58 75.70 2.00 108.24 2746.93
   13:13:09.084.18-Jul-2021 4561.00 6168.20 75.70 2.00 108.44 2746.93
   13:13:09.284.18-Jul-2021 4561.00 6168.96 75.70 2.00 108.64 2746.93
   13:13:09.484.18-Jul-2021 4561.00 6169.33 75.70 2.00 108.84 2746.93
   13:13:09.684.18-Jul-2021 4561.00 6168.31 75.70 2.00 109.04 2746.93
   13:13:09.884.18-Jul-2021 4561.00 6168.31 75.70 2.00 109.24 2746.93
   13:13:10.084.18-Jul-2021 4561.00 6168.73 75.70 2.00 109.44 2746.93
   13:13:10.284.18-Jul-2021 4561.00 6167.99 75.70 2.00 109.64 2746.93
   13:13:10.484.18-Jul-2021 4561.00 6167.88 75.70 2.00 109.84 2746.93
   13:13:10.684.18-Jul-2021 4561.00 6169.89 75.70 2.00 110.04 2746.93
   13:13:10.885.18-Jul-2021 4561.00 6169.89 75.70 2.00 110.24 2746.93
   13:13:11.085.18-Jul-2021 4561.00 6169.06 75.70 2.00 110.44 2746.93
   13:13:11.285.18-Jul-2021 4561.00 6168.98 75.70 2.00 110.64 2746.93
   13:13:11.485.18-Jul-2021 4561.00 6167.44 75.70 2.00 110.84 2746.93
   13:13:11.685.18-Jul-2021 4561.00 6168.44 75.70 2.00 111.04 2746.93
   13:13:11.885.18-Jul-2021 4561.00 6168.44 75.70 2.00 111.24 2746.93
   13:13:12.085.18-Jul-2021 4561.00 6168.61 75.70 2.00 111.44 2746.93
   13:13:12.285.18-Jul-2021 4561.00 6168.15 75.70 2.00 111.64 2746.93
   13:13:12.485.18-Jul-2021 4561.00 6168.75 75.70 2.00 111.84 2746.93
   13:13:12.685.18-Jul-2021 4561.00 6168.28 75.70 2.00 112.04 2746.93
   13:13:12.885.18-Jul-2021 4561.00 6168.28 75.70 2.00 112.24 2746.93
   13:13:13.085.18-Jul-2021 4561.00 6168.59 75.70 2.00 112.44 2746.93
   13:13:13.285.18-Jul-2021 4561.00 6168.65 75.70 2.00 112.64 2746.93
   13:13:13.485.18-Jul-2021 4561.00 6168.32 75.70 2.00 112.84 2746.93
   13:13:13.686.18-Jul-2021 4561.00 6168.62 75.70 2.00 113.04 2746.93
   13:13:13.886.18-Jul-2021 4561.00 6168.62 75.70 2.00 113.24 2746.93
   13:13:14.086.18-Jul-2021 4561.00 6168.49 75.70 2.00 113.44 2746.93
   13:13:14.286.18-Jul-2021 4561.00 6168.00 75.70 2.00 113.64 2746.93
   13:13:14.486.18-Jul-2021 4561.00 6169.42 75.70 2.00 113.84 2746.93
   13:13:14.686.18-Jul-2021 4561.00 6168.85 75.70 2.00 114.04 2746.93
   13:13:14.886.18-Jul-2021 4561.00 6168.85 75.70 2.00 114.24 2746.93
   13:13:15.086.18-Jul-2021 4561.00 6168.55 75.70 2.00 114.44 2746.93
   13:13:15.286.18-Jul-2021 4561.00 6169.08 75.70 2.00 114.64 2746.93
   13:13:15.486.18-Jul-2021 4561.00 6168.33 75.70 2.00 114.84 2746.93
