~Version Information
 VERS.                  2.0:   CWLS log ASCII Standard -VERSION 2.0
 WRAP.                   NO:   One line per depth step
~Well Information Block
#MNEM.UNIT     VALUE/NAME     DESCRIPTION
#---------     -----------    ---------------------------
 STRT.S             09:24:43 19-Jul-21: START TIME 09:24:43 19-Jul-21
 STOP.S             09:31:38 19-Jul-21: STOP TIME  09:31:38 19-Jul-21
 STEP.S                   0.00: STEP TIME
 NULL.                 -999.25: NULL VALUE
 MDS .        Operator Entered:  MAG DATA SOURCE
 PDAT.          Mean Sea Level:  PERMANENT DATUM
 UNIT.                     N/A:  LOGGING EQUIPMENT ID
 DCON.         Sperry Drilling:  DIRECTNL CONTR
 DOE .                     N/A:  DOE NUMBER
 RIG .              West Azeri:  RIG NAME
 JOBN.        AZ-XX-0906997913:  JOB TICKET NUMB
 WELL.                     C41:  WELL NAME
 MWDS.                    Baku:  MWD SHOP
 SRVC.          Turan Drilling:  CONTRACTOR
 FLD .                     ACG:  FIELD NAME
 CTRY.              Azerbaijan:  COUNTRY NAME
 PROV.                    Baku:  PROVINCE
 STAT.                    Baku:  STATE NAME
 REGN.                   EESSA:  REGION
 BASE.              Azerbaijan:  LOGGING EQUIPMENT BASE LOCATION
 UWI .                     N/A:  UNIQUE WELL IDENTIFIER
 API .                     N/A:  API NUMBER
 COMP.     BP Exploration (Caspian Sea) Ltd.:  COMPANY
 WTYP.                Deviated:  WELL TYPE
 SON .        AZ-XX-0906997913:  JOB NUMBER
 FTOP.          Formation Tops:  FORM TOPS DESC
 ILTD.               Lithology:  INTERP LTH DESC
 SVYD.                  Survey:  SURVEY DESC
 DMOD.             Drill Model:  DRILL MOD DESC
 HPTY.       Minimum Curvature:  HOLE POS TYPE
 NREF.                    Grid:  NORTH REFERENCE
 SPUD.               16-May-21:  SPUD DATE
 DATE.      21.11.28 17-May-21:  END TIME
 STIM.      21.11.28 17-May-21:  START TIME
 DMF .             Drill Floor:  DRILL MEAS FROM
 DFST.                        :  DIST FSL TEXT
 DFWT.                        :  DIST FWL TEXT
 CNTY.                        :  COUNTY
 LOC .                        :  LOCATION
 LMF .             Drill Floor:  LOG MEASURED FROM
 AGAP.m                  43.42:  AIR GAP
 VSNS.m                  -2.16:  VERT SEC N/S
 VSEW.m                  -6.24:  VERT SEC E/W
 APD .m                  43.42:  DEPTH ABOVE PD
 WDMS.m                 118.27:  WD ELEV
 EGL .m                   0.00:  GROUND ELEVATION
 EPD .m                   0.00:  ELEVATION
 AZTC.deg                 6.29:  AZM TOTAL CORR
 GRDC.deg                 0.18:  GRID CORRECTION
 MDEC.deg                 6.47:  MAGNETIC DECL
 MDIP.deg                59.54:  MAGNETIC DIP
 MFLD.nT              50337.00:  MAGNETIC FIELD
 GVFD.g                   1.00:  GRAVITY FIELD
 VSDR.deg               226.99:  VERT SEC DIRECT
 TDD .m                   0.00:  TOTAL DEPTH (DRILLER)
 SDEP.m                 448.00:  START DEPTH
 DFSL.m                   0.00:  DISTANCE FSL
 DFWL.m                   0.00:  DISTANCE FWL
 UTMY.m             4435799.96:  UTM Y
 UTMX.m              526265.35:  UTM X
 WHEW.m                  -6.24:  WELL HEAD E/W
 WHNS.m                  -2.16:  WELL HEAD N/S
 LONG.deg                51.31:  LONGITUDE
 LATI.deg                40.06:  LATITUDE
 TVDS.m                  43.42:  TVDSS CORRECTN
 EKB .m                  43.42:  KB ELEVATION
 EDF .m                  43.42:  DF ELEVATION
 TDL .m                 288.00:  TOTAL DEPTH (LOGGER)
 MAGU.                 1851863:  MAGUTM CHECKSUM
 VSC .                       0:  VS TO CLOSURE
~Parameter Information Block
#MNEM.UNIT       Value        Description
#---------     -----------    ---------------------------
 AV  .mps                 0.40:  Ann Velocity 
 AVMX.mps                 0.63:  Max Ann Veloc 
 AZIF.deg               158.76:  Azm, Final 
 BHAT.        Rotary Steerable:  BHA Type 
 BROT.°/30m               0.68:  Build Rotating 
 BS  .in                  8.50:  Bit Size 
 BSZ .in                  8.50:  Bit Size 
 BTPL.psig              712.00:  Bit Press Loss 
 CABU.                      No:  Customer Abuse 
 COMM.                     L1h:  Run Comments 1 
 TCS .hr                 90.66:  Time Ciculation Ended 
 CV  .mps                 2.02:  Crit Velocity 
 CVMX.mps                 2.14:  Max Crit Veloc 
 DD1 .            Aziz Aliyevu:  Direct Drillr 1 
 DD2 .             Samir Abbas:  Direct Drillr 2 
 DD3 .           Teymur Aliyev:  Direct Drillr 3 
 DDSV.                 iCruise:  DD Service 
 DEFF.%                  85.10:  % Det Eff 
 DLRX.°/30m               1.05:  Dogleg Rot Max 
 DLSO.°/30m               1.01:  Dogleg Oriented 
 DLSX.°/30m               1.05:  Dogleg Str Max 
 DRET.      07.45.00 18-Jul-21:  Drill End Time 
 DRST.      15.00.00 16-Jul-21:  Drill Start Tim 
 DTIM.hr                 23.46:  Time Drilling 
 EDEP.m                4603.00:  End Depth 
 ENG1.       Seymur Iskandarov:  Engineer 1 
 ENG2.         Yevgeniy Ulikov:  Engineer 2 
 ENG3.         Bahruz Mehdiyev:  Engineer 3 
 ENG4.         Elchin Mammadov:  Engineer 4 
 ETIM.      14.00.00 23-Jul-21:  End Time 
 FLOI.gpm               500.00:  Flow In 
 FLON.gpm               450.00:  Flow In Min 
 FLOS.cptm                0.00:  Fluid Loss 
 FLOX.gpm               560.00:  Flow In Max 
 DFT .        Mineral Oil Base:  Mud Type 
 FTRO.       Formation Presure:  FTWD Run Obj 
 HFLO.                      No:  High Flow 
 HPRE.                      No:  High Pressure 
 HTEM.                      No:  High Temp 
 HYDO.m                   1.80:  Hydro Offset 
 IFIN.deg                40.22:  Inc, Final 
 IMAX.deg                40.54:  Inc Max 
 IMIN.deg                39.44:  Inc Min 
 IMND.m                4361.17:  Inc Min Depth 
 IMXD.m                4417.92:  Inc Max Depth 
 JARR.                      No:  Jarring 
 LETM.      07.45.00 18-Jul-21:  Log End Time 
 LOST.hr                    16:  Lost Rig Time 
 LSTM.      15.00.00 16-Jul-21:  Log Start Time 
 MDCL.ppm             36500.00:  Mud Chlorides 
 MDES.     Inversion Oil/Synthetic:  Mud Desc 
 DFD .sg                  1.42:  Mud Density 
 MDMN.sg                  1.42:  Dens Mud Min 
 MDMX.sg                  1.43:  Dens Mud Max 
 MOIL.                      56:  Run Mud Oil % 
 MOWR.                   71:29:  Run Mud OWR 
 MSND.                     0.5:  Run Mud Sand % 
 MSOL.                      21:  Run Mud Solids% 
 DFV .spqt               78.00:  Mud Viscosity 
 MWOD.in                  6.75:  MWD Tool OD 
 MWSI.                     Yes:  Serv Intrp, MWD 
 OTIM.hr                200.73:  Time Operating 
 PCON.           Look Like New:  Pad Condition 
 PMAX.psia            11069.93:  Press Op, Max 
 PV  .cP                 32.00:  Mud PV 
 RUN .                     700:  Run Number 
 ROPA.m/hr               10.00:  ROP Avg 
 ROPN.m/hr                9.00:  ROP Min 
 ROPX.m/hr               16.00:  ROP Max 
 RPMA.rpm               116.00:  RPM Surface Avg 
 RPMN.rpm                80.00:  RPM Surface Min 
 RPMX.rpm               120.00:  RPM Surface Max 
 RRUN.                    L605:  Rig Run Number 
 RTIM.hr                 45.00:  Time Reaming 
 SAZI.deg               159.86:  Azm, Start 
 SDEP.m                4315.00:  Start Depth 
 SIDD.                      No:  Serv Intrp, DD 
 SINC.deg                39.86:  Inc, Start 
 SPPA.psig             3300.00:  SPP Avg 
 SPPN.psig             3040.00:  SPP Min 
 SPPX.psig             3645.00:  SPP Max 
 STIM.      01.00.00 15-Jul-21:  Start Time 
 SVCS.                 DD, MWD:  Services 
 SVER.                    9.20:  Sperry Version 
 TDAT.m                 288.00:  Tot Depth Attmp 
 TDDF.                      No:  Trip for DD 
 TDLG.m                 288.00:  Tot Depth Loggd 
 TFF .                      No:  Trip for Fail 
 TQAA.f-kp               19.00:  Torque Abs Avg 
 TQAN.f-kp               18.00:  Torque Abs Min 
 TQAX.f-kp               21.00:  Torque Abs Max 
 TRRT.°/30m               0.45:  Turn Rotating 
 MRT .                    HCIM:  Maximum Recorded Temperature 
 TTMX.degC               88.24:  Max Tool Temp 
 VS01.                90649157:  Virtual Str1 SN 
 VS02.                90652483:  Virtual Str2 SN 
 VS03.                11671987:  Virtual Str3 SN 
 VS04.                90643411:  Virtual Str4 SN 
 VS05.                90652478:  Virtual Str5 SN 
 VS06.                    6111:  Virtual Str6 SN 
 WBMN.klb                 9.50:  WOB Min 
 WITN.        Grigoriy Sarayev:  Customer Rep 
 WITN.          Rufat Huseynov:  Customer Rep 2 
 WOBA.klb                11.00:  WOB Avg 
 WOBX.klb                15.00:  WOB Max 
 YP  .lhf2               28.00:  Yield Point 
~Curve Information Block
#MNEM.UNIT                 API CODE     Curve Description
#---------               -----------    ---------------------------
 TIME.HHMMSS            00 000 000 000:  GT Time & Date
 GTDEPTH.m              00 000 000 000:  GT Depth
 GTPQH.psia             00 000 000 000:  GT HR Quartz Pressure
 GTTQ.degC              00 000 000 000:  GT Quartz Temperature
 GTTN.NONE              00 000 000 000:  GT Test Number
 GTET.sec               00 000 000 000:  GT Elapsed Test Time
 GTTVD.m                00 000 000 000:  GT True Vertical Depth
#Other Information
#
#WARRANTY: Halliburton will use its best efforts to furnish customers with 
#accurate information and interpretations that are part of, and incident to, the services 
#provided.  However, Halliburton cannot and does not warrant the accuracy 
#or correctness of such information and interpretations.  Under no circumstances should any 
#such information or interpretation be relied upon as the sole basis for any drilling, 
#completion, production, or financial decision or any procedure involving any risk to the 
#safety of any drilling venture, drilling rig or its crew or any other third party.  The 
#Customer has full responsibility for all drilling, completion and production operation.  
#Halliburton makes no representations or warranties, either expressed or 
#implied, including, but not limited to, the implied warranties of merchantability or fitness 
#for a particular purpose, with respect to the services rendered.  In no event will 
#Halliburton be liable for failure to obtain any particular results or for 
#any damages, including, but not limited to, indirect, special or consequential damages, 
#resulting from the use of any information or interpretation provided by Halliburton.
#
~A           TIME           GTDEPTH  GTPQH  GTTQ  GTTN   GTET   GTTVD  
# ...
   09:26:36.492.19-Jul-2021 4454.00 3560.15 70.28 20.00 113.04 2665.10
   09:26:36.692.19-Jul-2021 4454.00 3560.15 70.28 20.00 113.24 2665.10
   09:26:36.892.19-Jul-2021 4454.00 3560.18 70.28 20.00 113.44 2665.10
   09:26:37.092.19-Jul-2021 4454.00 3560.23 70.28 20.00 113.64 2665.10
   09:26:37.293.19-Jul-2021 4454.00 3560.18 70.28 20.00 113.84 2665.10
   09:26:37.493.19-Jul-2021 4454.00 3560.30 70.28 20.00 114.04 2665.10
   09:26:37.693.19-Jul-2021 4454.00 3560.30 70.28 20.00 114.24 2665.10
   09:26:37.893.19-Jul-2021 4454.00 3560.13 70.29 20.00 114.44 2665.10
   09:26:38.093.19-Jul-2021 4454.00 3560.08 70.29 20.00 114.64 2665.10
   09:26:38.293.19-Jul-2021 4454.00 3559.65 70.29 20.00 114.84 2665.10
   09:26:38.493.19-Jul-2021 4454.00 3559.68 70.29 20.00 115.04 2665.10
   09:26:38.693.19-Jul-2021 4454.00 3559.68 70.29 20.00 115.24 2665.10
   09:26:38.893.19-Jul-2021 4454.00 3560.22 70.29 20.00 115.44 2665.10
   09:26:39.093.19-Jul-2021 4454.00 3560.28 70.29 20.00 115.64 2665.10
   09:26:39.293.19-Jul-2021 4454.00 3560.12 70.29 20.00 115.84 2665.10
   09:26:39.493.19-Jul-2021 4454.00 3560.25 70.29 20.00 116.04 2665.10
   09:26:39.693.19-Jul-2021 4454.00 3560.25 70.29 20.00 116.24 2665.10
   09:26:39.893.19-Jul-2021 4454.00 3559.57 70.29 20.00 116.44 2665.10
   09:26:40.094.19-Jul-2021 4454.00 3560.28 70.29 20.00 116.64 2665.10
   09:26:40.294.19-Jul-2021 4454.00 3560.44 70.29 20.00 116.84 2665.10
   09:26:40.494.19-Jul-2021 4454.00 3560.00 70.29 20.00 117.04 2665.10
   09:26:40.694.19-Jul-2021 4454.00 3560.00 70.29 20.00 117.24 2665.10
   09:26:40.894.19-Jul-2021 4454.00 3560.59 70.29 20.00 117.44 2665.10
   09:26:41.094.19-Jul-2021 4454.00 3560.37 70.29 20.00 117.64 2665.10
   09:26:41.294.19-Jul-2021 4454.00 3559.91 70.29 20.00 117.84 2665.10
   09:26:41.494.19-Jul-2021 4454.00 3560.12 70.29 20.00 118.04 2665.10
   09:26:41.694.19-Jul-2021 4454.00 3560.12 70.29 20.00 118.24 2665.10
   09:26:41.894.19-Jul-2021 4454.00 3560.38 70.29 20.00 118.44 2665.10
   09:26:42.094.19-Jul-2021 4454.00 3560.00 70.29 20.00 118.64 2665.10
   09:26:42.294.19-Jul-2021 4454.00 3560.26 70.29 20.00 118.84 2665.10
   09:26:42.494.19-Jul-2021 4454.00 3560.26 70.29 20.00 119.04 2665.10
   09:26:42.695.19-Jul-2021 4454.00 3560.26 70.29 20.00 119.24 2665.10
   09:26:42.895.19-Jul-2021 4454.00 3560.30 70.29 20.00 119.44 2665.10
   09:26:43.095.19-Jul-2021 4454.00 3560.17 70.29 20.00 119.64 2665.10
   09:26:43.295.19-Jul-2021 4454.00 3560.27 70.29 20.00 119.84 2665.10
   09:26:43.495.19-Jul-2021 4454.00 3560.15 70.29 20.00 120.04 2665.10
   09:26:43.695.19-Jul-2021 4454.00 3560.15 70.29 20.00 120.24 2665.10
   09:26:43.895.19-Jul-2021 4454.00 3560.14 70.29 20.00 120.44 2665.10
   09:26:44.095.19-Jul-2021 4454.00 3559.86 70.29 20.00 120.64 2665.10
   09:26:44.295.19-Jul-2021 4454.00 3559.91 70.29 20.00 120.84 2665.10
   09:26:44.495.19-Jul-2021 4454.00 3560.55 70.29 20.00 121.04 2665.10
   09:26:44.695.19-Jul-2021 4454.00 3560.55 70.29 20.00 121.24 2665.10
   09:26:44.895.19-Jul-2021 4454.00 3559.90 70.29 20.00 121.44 2665.10
   09:26:45.095.19-Jul-2021 4454.00 3560.30 70.29 20.00 121.64 2665.10
   09:26:45.295.19-Jul-2021 4454.00 3560.25 70.29 20.00 121.84 2665.10
   09:26:45.496.19-Jul-2021 4454.00 3560.16 70.29 20.00 122.04 2665.10
   09:26:45.696.19-Jul-2021 4454.00 3560.16 70.29 20.00 122.25 2665.10
   09:26:45.896.19-Jul-2021 4454.00 3560.18 70.29 20.00 122.45 2665.10
   09:26:46.096.19-Jul-2021 4454.00 3560.23 70.29 20.00 122.65 2665.10
   09:26:46.296.19-Jul-2021 4454.00 3560.20 70.29 20.00 122.85 2665.10
   09:26:46.496.19-Jul-2021 4454.00 3560.04 70.29 20.00 123.05 2665.10
   09:26:46.696.19-Jul-2021 4454.00 3560.04 70.29 20.00 123.25 2665.10
   09:26:46.896.19-Jul-2021 4454.00 3559.58 70.29 20.00 123.45 2665.10
   09:26:47.096.19-Jul-2021 4454.00 3560.49 70.29 20.00 123.65 2665.10
   09:26:47.296.19-Jul-2021 4454.00 3560.39 70.29 20.00 123.85 2665.10
   09:26:47.496.19-Jul-2021 4454.00 3559.42 70.29 20.00 124.05 2665.10
   09:26:47.696.19-Jul-2021 4454.00 3559.42 70.29 20.00 124.25 2665.10
   09:26:47.896.19-Jul-2021 4454.00 3560.59 70.29 20.00 124.45 2665.10
   09:26:48.097.19-Jul-2021 4454.00 3560.11 70.29 20.00 124.65 2665.10
   09:26:48.297.19-Jul-2021 4454.00 3559.93 70.29 20.00 124.85 2665.10
   09:26:48.497.19-Jul-2021 4454.00 3560.13 70.29 20.00 125.05 2665.10
   09:26:48.697.19-Jul-2021 4454.00 3560.13 70.29 20.00 125.25 2665.10
   09:26:48.897.19-Jul-2021 4454.00 3560.43 70.29 20.00 125.45 2665.10
   09:26:49.097.19-Jul-2021 4454.00 3559.56 70.29 20.00 125.65 2665.10
   09:26:49.297.19-Jul-2021 4454.00 3560.41 70.29 20.00 125.85 2665.10
   09:26:49.497.19-Jul-2021 4454.00 3560.22 70.29 20.00 126.05 2665.10
   09:26:49.697.19-Jul-2021 4454.00 3560.22 70.29 20.00 126.25 2665.10
   09:26:49.897.19-Jul-2021 4454.00 3559.81 70.29 20.00 126.45 2665.10
   09:26:50.097.19-Jul-2021 4454.00 3560.29 70.29 20.00 126.65 2665.10
   09:26:50.297.19-Jul-2021 4454.00 3560.34 70.29 20.00 126.85 2665.10
   09:26:50.497.19-Jul-2021 4454.00 3560.54 70.29 20.00 127.05 2665.10
   09:26:50.697.19-Jul-2021 4454.00 3560.54 70.29 20.00 127.25 2665.10
   09:26:50.898.19-Jul-2021 4454.00 3560.41 70.29 20.00 127.45 2665.10
   09:26:51.098.19-Jul-2021 4454.00 3560.22 70.29 20.00 127.65 2665.10
   09:26:51.298.19-Jul-2021 4454.00 3560.40 70.29 20.00 127.85 2665.10
   09:26:51.498.19-Jul-2021 4454.00 3560.21 70.29 20.00 128.05 2665.10
   09:26:51.698.19-Jul-2021 4454.00 3560.21 70.29 20.00 128.25 2665.10
   09:26:51.898.19-Jul-2021 4454.00 3560.27 70.29 20.00 128.45 2665.10
   09:26:52.098.19-Jul-2021 4454.00 3560.37 70.29 20.00 128.65 2665.10
   09:26:52.298.19-Jul-2021 4454.00 3560.23 70.29 20.00 128.85 2665.10
   09:26:52.498.19-Jul-2021 4454.00 3560.19 70.29 20.00 129.05 2665.10
   09:26:52.698.19-Jul-2021 4454.00 3560.19 70.29 20.00 129.25 2665.10
   09:26:52.898.19-Jul-2021 4454.00 3560.28 70.29 20.00 129.45 2665.10
   09:26:53.098.19-Jul-2021 4454.00 3559.82 70.29 20.00 129.65 2665.10
   09:26:53.298.19-Jul-2021 4454.00 3560.19 70.29 20.00 129.85 2665.10
   09:26:53.499.19-Jul-2021 4454.00 3560.31 70.29 20.00 130.05 2665.10
   09:26:53.699.19-Jul-2021 4454.00 3560.31 70.29 20.00 130.25 2665.10
   09:26:53.899.19-Jul-2021 4454.00 3560.14 70.29 20.00 130.45 2665.10
   09:26:54.099.19-Jul-2021 4454.00 3560.34 70.29 20.00 130.65 2665.10
   09:26:54.299.19-Jul-2021 4454.00 3560.17 70.29 20.00 130.85 2665.10
   09:26:54.499.19-Jul-2021 4454.00 3560.25 70.30 20.00 131.05 2665.10
   09:26:54.699.19-Jul-2021 4454.00 3560.25 70.30 20.00 131.25 2665.10
   09:26:54.899.19-Jul-2021 4454.00 3560.32 70.30 20.00 131.45 2665.10
   09:26:55.099.19-Jul-2021 4454.00 3560.10 70.30 20.00 131.65 2665.10
   09:26:55.299.19-Jul-2021 4454.00 3559.99 70.30 20.00 131.85 2665.10
   09:26:55.499.19-Jul-2021 4454.00 3560.04 70.30 20.00 132.05 2665.10
   09:26:55.699.19-Jul-2021 4454.00 3560.04 70.30 20.00 132.25 2665.10
   09:26:55.899.19-Jul-2021 4454.00 3559.78 70.30 20.00 132.45 2665.10
   09:26:56.099.19-Jul-2021 4454.00 3559.91 70.30 20.00 132.65 2665.10
   09:26:56.300.19-Jul-2021 4454.00 3560.83 70.30 20.00 132.85 2665.10
   09:26:56.500.19-Jul-2021 4454.00 3560.33 70.30 20.00 133.05 2665.10
   09:26:56.700.19-Jul-2021 4454.00 3560.33 70.30 20.00 133.25 2665.10
   09:26:56.900.19-Jul-2021 4454.00 3560.35 70.30 20.00 133.45 2665.10
   09:26:57.100.19-Jul-2021 4454.00 3560.03 70.30 20.00 133.65 2665.10
   09:26:57.300.19-Jul-2021 4454.00 3559.85 70.30 20.00 133.85 2665.10
   09:26:57.500.19-Jul-2021 4454.00 3560.34 70.30 20.00 134.05 2665.10
   09:26:57.700.19-Jul-2021 4454.00 3560.34 70.30 20.00 134.25 2665.10
   09:26:57.900.19-Jul-2021 4454.00 3560.42 70.30 20.00 134.45 2665.10
   09:26:58.100.19-Jul-2021 4454.00 3559.71 70.30 20.00 134.65 2665.10
   09:26:58.300.19-Jul-2021 4454.00 3560.36 70.30 20.00 134.85 2665.10
   09:26:58.500.19-Jul-2021 4454.00 3560.70 70.30 20.00 135.05 2665.10
   09:26:58.700.19-Jul-2021 4454.00 3560.70 70.30 20.00 135.25 2665.10
   09:26:58.900.19-Jul-2021 4454.00 3559.77 70.30 20.00 135.45 2665.10
