~Version Information
 VERS.                  2.0:   CWLS log ASCII Standard -VERSION 2.0
 WRAP.                   NO:   One line per depth step
~Well Information Block
#MNEM.UNIT     VALUE/NAME     DESCRIPTION
#---------     -----------    ---------------------------
 STRT.S             23:00:58 18-Jul-21: START TIME 23:00:58 18-Jul-21
 STOP.S             23:07:34 18-Jul-21: STOP TIME  23:07:34 18-Jul-21
 STEP.S                   0.00: STEP TIME
 NULL.                 -999.25: NULL VALUE
 MDS .        Operator Entered:  MAG DATA SOURCE
 PDAT.          Mean Sea Level:  PERMANENT DATUM
 UNIT.                     N/A:  LOGGING EQUIPMENT ID
 DCON.         Sperry Drilling:  DIRECTNL CONTR
 DOE .                     N/A:  DOE NUMBER
 RIG .              West Azeri:  RIG NAME
 JOBN.        AZ-XX-0906997913:  JOB TICKET NUMB
 WELL.                     C41:  WELL NAME
 MWDS.                    Baku:  MWD SHOP
 SRVC.          Turan Drilling:  CONTRACTOR
 FLD .                     ACG:  FIELD NAME
 CTRY.              Azerbaijan:  COUNTRY NAME
 PROV.                    Baku:  PROVINCE
 STAT.                    Baku:  STATE NAME
 REGN.                   EESSA:  REGION
 BASE.              Azerbaijan:  LOGGING EQUIPMENT BASE LOCATION
 UWI .                     N/A:  UNIQUE WELL IDENTIFIER
 API .                     N/A:  API NUMBER
 COMP.     BP Exploration (Caspian Sea) Ltd.:  COMPANY
 WTYP.                Deviated:  WELL TYPE
 SON .        AZ-XX-0906997913:  JOB NUMBER
 FTOP.          Formation Tops:  FORM TOPS DESC
 ILTD.               Lithology:  INTERP LTH DESC
 SVYD.                  Survey:  SURVEY DESC
 DMOD.             Drill Model:  DRILL MOD DESC
 HPTY.       Minimum Curvature:  HOLE POS TYPE
 NREF.                    Grid:  NORTH REFERENCE
 SPUD.               16-May-21:  SPUD DATE
 DATE.      21.11.28 17-May-21:  END TIME
 STIM.      21.11.28 17-May-21:  START TIME
 DMF .             Drill Floor:  DRILL MEAS FROM
 DFST.                        :  DIST FSL TEXT
 DFWT.                        :  DIST FWL TEXT
 CNTY.                        :  COUNTY
 LOC .                        :  LOCATION
 LMF .             Drill Floor:  LOG MEASURED FROM
 AGAP.m                  43.42:  AIR GAP
 VSNS.m                  -2.16:  VERT SEC N/S
 VSEW.m                  -6.24:  VERT SEC E/W
 APD .m                  43.42:  DEPTH ABOVE PD
 WDMS.m                 118.27:  WD ELEV
 EGL .m                   0.00:  GROUND ELEVATION
 EPD .m                   0.00:  ELEVATION
 AZTC.deg                 6.29:  AZM TOTAL CORR
 GRDC.deg                 0.18:  GRID CORRECTION
 MDEC.deg                 6.47:  MAGNETIC DECL
 MDIP.deg                59.54:  MAGNETIC DIP
 MFLD.nT              50337.00:  MAGNETIC FIELD
 GVFD.g                   1.00:  GRAVITY FIELD
 VSDR.deg               226.99:  VERT SEC DIRECT
 TDD .m                   0.00:  TOTAL DEPTH (DRILLER)
 SDEP.m                 448.00:  START DEPTH
 DFSL.m                   0.00:  DISTANCE FSL
 DFWL.m                   0.00:  DISTANCE FWL
 UTMY.m             4435799.96:  UTM Y
 UTMX.m              526265.35:  UTM X
 WHEW.m                  -6.24:  WELL HEAD E/W
 WHNS.m                  -2.16:  WELL HEAD N/S
 LONG.deg                51.31:  LONGITUDE
 LATI.deg                40.06:  LATITUDE
 TVDS.m                  43.42:  TVDSS CORRECTN
 EKB .m                  43.42:  KB ELEVATION
 EDF .m                  43.42:  DF ELEVATION
 TDL .m                 288.00:  TOTAL DEPTH (LOGGER)
 MAGU.                 1851863:  MAGUTM CHECKSUM
 VSC .                       0:  VS TO CLOSURE
~Parameter Information Block
#MNEM.UNIT       Value        Description
#---------     -----------    ---------------------------
 AV  .mps                 0.40:  Ann Velocity 
 AVMX.mps                 0.63:  Max Ann Veloc 
 AZIF.deg               158.76:  Azm, Final 
 BHAT.        Rotary Steerable:  BHA Type 
 BROT.°/30m               0.68:  Build Rotating 
 BS  .in                  8.50:  Bit Size 
 BSZ .in                  8.50:  Bit Size 
 BTPL.psig              712.00:  Bit Press Loss 
 CABU.                      No:  Customer Abuse 
 COMM.                     ¼2`:  Run Comments 1 
 TCS .hr                 90.66:  Time Ciculation Ended 
 CV  .mps                 2.02:  Crit Velocity 
 CVMX.mps                 2.14:  Max Crit Veloc 
 DD1 .            Aziz Aliyevu:  Direct Drillr 1 
 DD2 .             Samir Abbas:  Direct Drillr 2 
 DD3 .           Teymur Aliyev:  Direct Drillr 3 
 DDSV.                 iCruise:  DD Service 
 DEFF.%                  85.10:  % Det Eff 
 DLRX.°/30m               1.05:  Dogleg Rot Max 
 DLSO.°/30m               1.01:  Dogleg Oriented 
 DLSX.°/30m               1.05:  Dogleg Str Max 
 DRET.      07.45.00 18-Jul-21:  Drill End Time 
 DRST.      15.00.00 16-Jul-21:  Drill Start Tim 
 DTIM.hr                 23.46:  Time Drilling 
 EDEP.m                4603.00:  End Depth 
 ENG1.       Seymur Iskandarov:  Engineer 1 
 ENG2.         Yevgeniy Ulikov:  Engineer 2 
 ENG3.         Bahruz Mehdiyev:  Engineer 3 
 ENG4.         Elchin Mammadov:  Engineer 4 
 ETIM.      14.00.00 23-Jul-21:  End Time 
 FLOI.gpm               500.00:  Flow In 
 FLON.gpm               450.00:  Flow In Min 
 FLOS.cptm                0.00:  Fluid Loss 
 FLOX.gpm               560.00:  Flow In Max 
 DFT .        Mineral Oil Base:  Mud Type 
 FTRO.       Formation Presure:  FTWD Run Obj 
 HFLO.                      No:  High Flow 
 HPRE.                      No:  High Pressure 
 HTEM.                      No:  High Temp 
 HYDO.m                   1.80:  Hydro Offset 
 IFIN.deg                40.22:  Inc, Final 
 IMAX.deg                40.54:  Inc Max 
 IMIN.deg                39.44:  Inc Min 
 IMND.m                4361.17:  Inc Min Depth 
 IMXD.m                4417.92:  Inc Max Depth 
 JARR.                      No:  Jarring 
 LETM.      07.45.00 18-Jul-21:  Log End Time 
 LOST.hr                    16:  Lost Rig Time 
 LSTM.      15.00.00 16-Jul-21:  Log Start Time 
 MDCL.ppm             36500.00:  Mud Chlorides 
 MDES.     Inversion Oil/Synthetic:  Mud Desc 
 DFD .sg                  1.42:  Mud Density 
 MDMN.sg                  1.42:  Dens Mud Min 
 MDMX.sg                  1.43:  Dens Mud Max 
 MOIL.                      56:  Run Mud Oil % 
 MOWR.                   71:29:  Run Mud OWR 
 MSND.                     0.5:  Run Mud Sand % 
 MSOL.                      21:  Run Mud Solids% 
 DFV .spqt               78.00:  Mud Viscosity 
 MWOD.in                  6.75:  MWD Tool OD 
 MWSI.                     Yes:  Serv Intrp, MWD 
 OTIM.hr                200.73:  Time Operating 
 PCON.           Look Like New:  Pad Condition 
 PMAX.psia            11069.93:  Press Op, Max 
 PV  .cP                 32.00:  Mud PV 
 RUN .                     700:  Run Number 
 ROPA.m/hr               10.00:  ROP Avg 
 ROPN.m/hr                9.00:  ROP Min 
 ROPX.m/hr               16.00:  ROP Max 
 RPMA.rpm               116.00:  RPM Surface Avg 
 RPMN.rpm                80.00:  RPM Surface Min 
 RPMX.rpm               120.00:  RPM Surface Max 
 RRUN.                    L605:  Rig Run Number 
 RTIM.hr                 45.00:  Time Reaming 
 SAZI.deg               159.86:  Azm, Start 
 SDEP.m                4315.00:  Start Depth 
 SIDD.                      No:  Serv Intrp, DD 
 SINC.deg                39.86:  Inc, Start 
 SPPA.psig             3300.00:  SPP Avg 
 SPPN.psig             3040.00:  SPP Min 
 SPPX.psig             3645.00:  SPP Max 
 STIM.      01.00.00 15-Jul-21:  Start Time 
 SVCS.                 DD, MWD:  Services 
 SVER.                    9.20:  Sperry Version 
 TDAT.m                 288.00:  Tot Depth Attmp 
 TDDF.                      No:  Trip for DD 
 TDLG.m                 288.00:  Tot Depth Loggd 
 TFF .                      No:  Trip for Fail 
 TQAA.f-kp               19.00:  Torque Abs Avg 
 TQAN.f-kp               18.00:  Torque Abs Min 
 TQAX.f-kp               21.00:  Torque Abs Max 
 TRRT.°/30m               0.45:  Turn Rotating 
 MRT .                    HCIM:  Maximum Recorded Temperature 
 TTMX.degC               88.24:  Max Tool Temp 
 VS01.                90649157:  Virtual Str1 SN 
 VS02.                90652483:  Virtual Str2 SN 
 VS03.                11671987:  Virtual Str3 SN 
 VS04.                90643411:  Virtual Str4 SN 
 VS05.                90652478:  Virtual Str5 SN 
 VS06.                    6111:  Virtual Str6 SN 
 WBMN.klb                 9.50:  WOB Min 
 WITN.        Grigoriy Sarayev:  Customer Rep 
 WITN.          Rufat Huseynov:  Customer Rep 2 
 WOBA.klb                11.00:  WOB Avg 
 WOBX.klb                15.00:  WOB Max 
 YP  .lhf2               28.00:  Yield Point 
~Curve Information Block
#MNEM.UNIT                 API CODE     Curve Description
#---------               -----------    ---------------------------
 TIME.HHMMSS            00 000 000 000:  GT Time & Date
 GTDEPTH.m              00 000 000 000:  GT Depth
 GTPQH.psia             00 000 000 000:  GT HR Quartz Pressure
 GTTQ.degC              00 000 000 000:  GT Quartz Temperature
 GTTN.NONE              00 000 000 000:  GT Test Number
 GTET.sec               00 000 000 000:  GT Elapsed Test Time
 GTTVD.m                00 000 000 000:  GT True Vertical Depth
#Other Information
#
#WARRANTY: Halliburton will use its best efforts to furnish customers with 
#accurate information and interpretations that are part of, and incident to, the services 
#provided.  However, Halliburton cannot and does not warrant the accuracy 
#or correctness of such information and interpretations.  Under no circumstances should any 
#such information or interpretation be relied upon as the sole basis for any drilling, 
#completion, production, or financial decision or any procedure involving any risk to the 
#safety of any drilling venture, drilling rig or its crew or any other third party.  The 
#Customer has full responsibility for all drilling, completion and production operation.  
#Halliburton makes no representations or warranties, either expressed or 
#implied, including, but not limited to, the implied warranties of merchantability or fitness 
#for a particular purpose, with respect to the services rendered.  In no event will 
#Halliburton be liable for failure to obtain any particular results or for 
#any damages, including, but not limited to, indirect, special or consequential damages, 
#resulting from the use of any information or interpretation provided by Halliburton.
#
~A           TIME           GTDEPTH  GTPQH  GTTQ  GTTN  GTET   GTTVD  
# ...
   23:04:25.747.18-Jul-2021 4247.58 5977.68 69.66 8.00 207.08 2507.04
   23:04:25.947.18-Jul-2021 4247.58 5977.68 69.66 8.00 207.28 2507.04
   23:04:26.147.18-Jul-2021 4247.58 5982.77 69.66 8.00 207.48 2507.04
   23:04:26.347.18-Jul-2021 4247.58 5983.72 69.66 8.00 207.68 2507.04
   23:04:26.547.18-Jul-2021 4247.58 5985.68 69.66 8.00 207.88 2507.04
   23:04:26.747.18-Jul-2021 4247.58 5981.48 69.66 8.00 208.08 2507.04
   23:04:26.947.18-Jul-2021 4247.58 5981.48 69.66 8.00 208.28 2507.04
   23:04:27.147.18-Jul-2021 4247.58 5980.18 69.66 8.00 208.48 2507.04
   23:04:27.347.18-Jul-2021 4247.58 5983.40 69.66 8.00 208.68 2507.04
   23:04:27.547.18-Jul-2021 4247.58 5981.84 69.66 8.00 208.88 2507.04
   23:04:27.747.18-Jul-2021 4247.58 5981.97 69.66 8.00 209.08 2507.04
   23:04:27.948.18-Jul-2021 4247.58 5981.97 69.66 8.00 209.28 2507.04
   23:04:28.148.18-Jul-2021 4247.58 5982.52 69.66 8.00 209.48 2507.04
   23:04:28.348.18-Jul-2021 4247.58 5981.43 69.66 8.00 209.68 2507.04
   23:04:28.548.18-Jul-2021 4247.58 5981.55 69.66 8.00 209.88 2507.04
   23:04:28.748.18-Jul-2021 4247.58 5981.44 69.66 8.00 210.08 2507.04
   23:04:28.948.18-Jul-2021 4247.58 5981.44 69.66 8.00 210.28 2507.04
   23:04:29.148.18-Jul-2021 4247.58 5982.62 69.66 8.00 210.48 2507.04
   23:04:29.348.18-Jul-2021 4247.58 5984.12 69.66 8.00 210.68 2507.04
   23:04:29.548.18-Jul-2021 4247.58 5979.29 69.66 8.00 210.88 2507.04
   23:04:29.748.18-Jul-2021 4247.58 5979.34 69.66 8.00 211.08 2507.04
   23:04:29.948.18-Jul-2021 4247.58 5979.34 69.66 8.00 211.28 2507.04
   23:04:30.148.18-Jul-2021 4247.58 5982.39 69.66 8.00 211.48 2507.04
   23:04:30.348.18-Jul-2021 4247.58 5981.11 69.66 8.00 211.68 2507.04
   23:04:30.548.18-Jul-2021 4247.58 5981.48 69.66 8.00 211.88 2507.04
   23:04:30.749.18-Jul-2021 4247.58 5982.45 69.66 8.00 212.08 2507.04
   23:04:30.949.18-Jul-2021 4247.58 5982.45 69.66 8.00 212.28 2507.04
   23:04:31.149.18-Jul-2021 4247.58 5980.62 69.66 8.00 212.48 2507.04
   23:04:31.349.18-Jul-2021 4247.58 5980.63 69.66 8.00 212.68 2507.04
   23:04:31.549.18-Jul-2021 4247.58 5981.81 69.66 8.00 212.88 2507.04
   23:04:31.749.18-Jul-2021 4247.58 5981.61 69.66 8.00 213.08 2507.04
   23:04:31.949.18-Jul-2021 4247.58 5981.61 69.66 8.00 213.28 2507.04
   23:04:32.149.18-Jul-2021 4247.58 5984.12 69.66 8.00 213.48 2507.04
   23:04:32.349.18-Jul-2021 4247.58 5975.59 69.66 8.00 213.68 2507.04
   23:04:32.549.18-Jul-2021 4247.58 5977.86 69.66 8.00 213.88 2507.04
   23:04:32.749.18-Jul-2021 4247.58 5982.81 69.66 8.00 214.08 2507.04
   23:04:32.949.18-Jul-2021 4247.58 5982.81 69.66 8.00 214.28 2507.04
   23:04:33.149.18-Jul-2021 4247.58 5978.17 69.66 8.00 214.48 2507.04
   23:04:33.349.18-Jul-2021 4247.58 5983.93 69.66 8.00 214.68 2507.04
   23:04:33.550.18-Jul-2021 4247.58 5976.81 69.66 8.00 214.88 2507.04
   23:04:33.750.18-Jul-2021 4247.58 5978.21 69.66 8.00 215.08 2507.04
   23:04:33.950.18-Jul-2021 4247.58 5978.21 69.66 8.00 215.28 2507.04
   23:04:34.150.18-Jul-2021 4247.58 5982.79 69.66 8.00 215.48 2507.04
   23:04:34.350.18-Jul-2021 4247.58 5984.78 69.66 8.00 215.68 2507.04
   23:04:34.550.18-Jul-2021 4247.58 5977.69 69.66 8.00 215.88 2507.04
   23:04:34.750.18-Jul-2021 4247.58 5978.04 69.66 8.00 216.08 2507.04
   23:04:34.950.18-Jul-2021 4247.58 5978.04 69.66 8.00 216.28 2507.04
   23:04:35.150.18-Jul-2021 4247.58 5981.03 69.66 8.00 216.48 2507.04
   23:04:35.350.18-Jul-2021 4247.58 5981.47 69.66 8.00 216.68 2507.04
   23:04:35.550.18-Jul-2021 4247.58 5981.15 69.66 8.00 216.88 2507.04
   23:04:35.750.18-Jul-2021 4247.58 5978.15 69.66 8.00 217.08 2507.04
   23:04:35.950.18-Jul-2021 4247.58 5978.15 69.66 8.00 217.28 2507.04
   23:04:36.151.18-Jul-2021 4247.58 5981.12 69.66 8.00 217.48 2507.04
   23:04:36.351.18-Jul-2021 4247.58 5982.86 69.66 8.00 217.68 2507.04
   23:04:36.551.18-Jul-2021 4247.58 5979.90 69.66 8.00 217.88 2507.04
   23:04:36.751.18-Jul-2021 4247.58 5981.62 69.66 8.00 218.08 2507.04
   23:04:36.951.18-Jul-2021 4247.58 5981.62 69.66 8.00 218.28 2507.04
   23:04:37.151.18-Jul-2021 4247.58 5981.36 69.66 8.00 218.48 2507.04
   23:04:37.351.18-Jul-2021 4247.58 5980.83 69.66 8.00 218.68 2507.04
   23:04:37.551.18-Jul-2021 4247.58 5979.94 69.66 8.00 218.88 2507.04
   23:04:37.751.18-Jul-2021 4247.58 5981.36 69.66 8.00 219.08 2507.04
   23:04:37.951.18-Jul-2021 4247.58 5981.36 69.66 8.00 219.28 2507.04
   23:04:38.151.18-Jul-2021 4247.58 5980.38 69.66 8.00 219.48 2507.04
   23:04:38.351.18-Jul-2021 4247.58 5980.81 69.66 8.00 219.68 2507.04
   23:04:38.551.18-Jul-2021 4247.58 5976.24 69.66 8.00 219.88 2507.04
   23:04:38.751.18-Jul-2021 4247.58 5978.00 69.66 8.00 220.08 2507.04
   23:04:38.952.18-Jul-2021 4247.58 5978.00 69.66 8.00 220.28 2507.04
   23:04:39.152.18-Jul-2021 4247.58 5980.32 69.66 8.00 220.48 2507.04
   23:04:39.352.18-Jul-2021 4247.58 5979.84 69.66 8.00 220.68 2507.04
   23:04:39.552.18-Jul-2021 4247.58 5979.87 69.66 8.00 220.88 2507.04
   23:04:39.752.18-Jul-2021 4247.58 5981.21 69.66 8.00 221.08 2507.04
   23:04:39.952.18-Jul-2021 4247.58 5981.21 69.66 8.00 221.28 2507.04
   23:04:40.152.18-Jul-2021 4247.58 5980.21 69.66 8.00 221.48 2507.04
   23:04:40.352.18-Jul-2021 4247.58 5979.91 69.66 8.00 221.68 2507.04
   23:04:40.552.18-Jul-2021 4247.58 5979.27 69.66 8.00 221.88 2507.04
   23:04:40.752.18-Jul-2021 4247.58 5979.44 69.66 8.00 222.08 2507.04
   23:04:40.952.18-Jul-2021 4247.58 5979.44 69.66 8.00 222.28 2507.04
   23:04:41.152.18-Jul-2021 4247.58 5976.06 69.66 8.00 222.48 2507.04
   23:04:41.352.18-Jul-2021 4247.58 5975.37 69.66 8.00 222.68 2507.04
   23:04:41.553.18-Jul-2021 4247.58 5979.82 69.66 8.00 222.88 2507.04
   23:04:41.753.18-Jul-2021 4247.58 5973.62 69.66 8.00 223.08 2507.04
   23:04:41.953.18-Jul-2021 4247.58 5973.62 69.66 8.00 223.28 2507.04
   23:04:42.153.18-Jul-2021 4247.58 5979.32 69.66 8.00 223.48 2507.04
   23:04:42.353.18-Jul-2021 4247.58 5975.13 69.66 8.00 223.68 2507.04
   23:04:42.553.18-Jul-2021 4247.58 5975.91 69.66 8.00 223.88 2507.04
   23:04:42.753.18-Jul-2021 4247.58 5976.33 69.66 8.00 224.08 2507.04
   23:04:42.953.18-Jul-2021 4247.58 5976.33 69.66 8.00 224.28 2507.04
   23:04:43.153.18-Jul-2021 4247.58 5977.69 69.66 8.00 224.48 2507.04
   23:04:43.353.18-Jul-2021 4247.58 5976.22 69.66 8.00 224.68 2507.04
   23:04:43.553.18-Jul-2021 4247.58 5973.48 69.66 8.00 224.88 2507.04
   23:04:43.753.18-Jul-2021 4247.58 5973.90 69.66 8.00 225.08 2507.04
   23:04:43.953.18-Jul-2021 4247.58 5973.90 69.66 8.00 225.28 2507.04
   23:04:44.153.18-Jul-2021 4247.58 5980.86 69.66 8.00 225.48 2507.04
   23:04:44.354.18-Jul-2021 4247.58 5971.74 69.66 8.00 225.68 2507.04
   23:04:44.554.18-Jul-2021 4247.58 5974.17 69.66 8.00 225.88 2507.04
   23:04:44.754.18-Jul-2021 4247.58 5974.56 69.66 8.00 226.08 2507.04
   23:04:44.954.18-Jul-2021 4247.58 5974.56 69.66 8.00 226.28 2507.04
   23:04:45.154.18-Jul-2021 4247.58 5976.63 69.66 8.00 226.48 2507.04
   23:04:45.354.18-Jul-2021 4247.58 5975.91 69.66 8.00 226.68 2507.04
   23:04:45.554.18-Jul-2021 4247.58 5976.24 69.66 8.00 226.88 2507.04
   23:04:45.754.18-Jul-2021 4247.58 5976.53 69.66 8.00 227.08 2507.04
   23:04:45.954.18-Jul-2021 4247.58 5976.53 69.66 8.00 227.28 2507.04
   23:04:46.154.18-Jul-2021 4247.58 5976.48 69.66 8.00 227.48 2507.04
   23:04:46.354.18-Jul-2021 4247.58 5975.79 69.66 8.00 227.68 2507.04
   23:04:46.554.18-Jul-2021 4247.58 5976.19 69.66 8.00 227.88 2507.04
   23:04:46.754.18-Jul-2021 4247.58 5976.17 69.66 8.00 228.08 2507.04
   23:04:46.955.18-Jul-2021 4247.58 5976.17 69.66 8.00 228.28 2507.04
   23:04:47.155.18-Jul-2021 4247.58 5970.14 69.66 8.00 228.48 2507.04
   23:04:47.355.18-Jul-2021 4247.58 5973.95 69.66 8.00 228.68 2507.04
   23:04:47.555.18-Jul-2021 4247.58 5975.76 69.66 8.00 228.88 2507.04
   23:04:47.755.18-Jul-2021 4247.58 5976.65 69.66 8.00 229.08 2507.04
   23:04:47.955.18-Jul-2021 4247.58 5976.65 69.66 8.00 229.28 2507.04
   23:04:48.155.18-Jul-2021 4247.58 5975.38 69.67 8.00 229.48 2507.04
   23:04:48.355.18-Jul-2021 4247.58 5976.66 69.66 8.00 229.68 2507.04
   23:04:48.555.18-Jul-2021 4247.58 5975.75 69.66 8.00 229.88 2507.04
