~Version Information
 VERS.                  2.0:   CWLS log ASCII Standard -VERSION 2.0
 WRAP.                   NO:   One line per depth step
~Well Information Block
#MNEM.UNIT     VALUE/NAME     DESCRIPTION
#---------     -----------    ---------------------------
 STRT.S             05:46:28 19-Jul-21: START TIME 05:46:28 19-Jul-21
 STOP.S             05:53:09 19-Jul-21: STOP TIME  05:53:09 19-Jul-21
 STEP.S                   0.00: STEP TIME
 NULL.                 -999.25: NULL VALUE
 MDS .        Operator Entered:  MAG DATA SOURCE
 PDAT.          Mean Sea Level:  PERMANENT DATUM
 UNIT.                     N/A:  LOGGING EQUIPMENT ID
 DCON.         Sperry Drilling:  DIRECTNL CONTR
 DOE .                     N/A:  DOE NUMBER
 RIG .              West Azeri:  RIG NAME
 JOBN.        AZ-XX-0906997913:  JOB TICKET NUMB
 WELL.                     C41:  WELL NAME
 MWDS.                    Baku:  MWD SHOP
 SRVC.          Turan Drilling:  CONTRACTOR
 FLD .                     ACG:  FIELD NAME
 CTRY.              Azerbaijan:  COUNTRY NAME
 PROV.                    Baku:  PROVINCE
 STAT.                    Baku:  STATE NAME
 REGN.                   EESSA:  REGION
 BASE.              Azerbaijan:  LOGGING EQUIPMENT BASE LOCATION
 UWI .                     N/A:  UNIQUE WELL IDENTIFIER
 API .                     N/A:  API NUMBER
 COMP.     BP Exploration (Caspian Sea) Ltd.:  COMPANY
 WTYP.                Deviated:  WELL TYPE
 SON .        AZ-XX-0906997913:  JOB NUMBER
 FTOP.          Formation Tops:  FORM TOPS DESC
 ILTD.               Lithology:  INTERP LTH DESC
 SVYD.                  Survey:  SURVEY DESC
 DMOD.             Drill Model:  DRILL MOD DESC
 HPTY.       Minimum Curvature:  HOLE POS TYPE
 NREF.                    Grid:  NORTH REFERENCE
 SPUD.               16-May-21:  SPUD DATE
 DATE.      21.11.28 17-May-21:  END TIME
 STIM.      21.11.28 17-May-21:  START TIME
 DMF .             Drill Floor:  DRILL MEAS FROM
 DFST.                        :  DIST FSL TEXT
 DFWT.                        :  DIST FWL TEXT
 CNTY.                        :  COUNTY
 LOC .                        :  LOCATION
 LMF .             Drill Floor:  LOG MEASURED FROM
 AGAP.m                  43.42:  AIR GAP
 VSNS.m                  -2.16:  VERT SEC N/S
 VSEW.m                  -6.24:  VERT SEC E/W
 APD .m                  43.42:  DEPTH ABOVE PD
 WDMS.m                 118.27:  WD ELEV
 EGL .m                   0.00:  GROUND ELEVATION
 EPD .m                   0.00:  ELEVATION
 AZTC.deg                 6.29:  AZM TOTAL CORR
 GRDC.deg                 0.18:  GRID CORRECTION
 MDEC.deg                 6.47:  MAGNETIC DECL
 MDIP.deg                59.54:  MAGNETIC DIP
 MFLD.nT              50337.00:  MAGNETIC FIELD
 GVFD.g                   1.00:  GRAVITY FIELD
 VSDR.deg               226.99:  VERT SEC DIRECT
 TDD .m                   0.00:  TOTAL DEPTH (DRILLER)
 SDEP.m                 448.00:  START DEPTH
 DFSL.m                   0.00:  DISTANCE FSL
 DFWL.m                   0.00:  DISTANCE FWL
 UTMY.m             4435799.96:  UTM Y
 UTMX.m              526265.35:  UTM X
 WHEW.m                  -6.24:  WELL HEAD E/W
 WHNS.m                  -2.16:  WELL HEAD N/S
 LONG.deg                51.31:  LONGITUDE
 LATI.deg                40.06:  LATITUDE
 TVDS.m                  43.42:  TVDSS CORRECTN
 EKB .m                  43.42:  KB ELEVATION
 EDF .m                  43.42:  DF ELEVATION
 TDL .m                 288.00:  TOTAL DEPTH (LOGGER)
 MAGU.                 1851863:  MAGUTM CHECKSUM
 VSC .                       0:  VS TO CLOSURE
~Parameter Information Block
#MNEM.UNIT       Value        Description
#---------     -----------    ---------------------------
 AV  .mps                 0.40:  Ann Velocity 
 AVMX.mps                 0.63:  Max Ann Veloc 
 AZIF.deg               158.76:  Azm, Final 
 BHAT.        Rotary Steerable:  BHA Type 
 BROT.°/30m               0.68:  Build Rotating 
 BS  .in                  8.50:  Bit Size 
 BSZ .in                  8.50:  Bit Size 
 BTPL.psig              712.00:  Bit Press Loss 
 CABU.                      No:  Customer Abuse 
 COMM.                     l%v:  Run Comments 1 
 TCS .hr                 90.66:  Time Ciculation Ended 
 CV  .mps                 2.02:  Crit Velocity 
 CVMX.mps                 2.14:  Max Crit Veloc 
 DD1 .            Aziz Aliyevu:  Direct Drillr 1 
 DD2 .             Samir Abbas:  Direct Drillr 2 
 DD3 .           Teymur Aliyev:  Direct Drillr 3 
 DDSV.                 iCruise:  DD Service 
 DEFF.%                  85.10:  % Det Eff 
 DLRX.°/30m               1.05:  Dogleg Rot Max 
 DLSO.°/30m               1.01:  Dogleg Oriented 
 DLSX.°/30m               1.05:  Dogleg Str Max 
 DRET.      07.45.00 18-Jul-21:  Drill End Time 
 DRST.      15.00.00 16-Jul-21:  Drill Start Tim 
 DTIM.hr                 23.46:  Time Drilling 
 EDEP.m                4603.00:  End Depth 
 ENG1.       Seymur Iskandarov:  Engineer 1 
 ENG2.         Yevgeniy Ulikov:  Engineer 2 
 ENG3.         Bahruz Mehdiyev:  Engineer 3 
 ENG4.         Elchin Mammadov:  Engineer 4 
 ETIM.      14.00.00 23-Jul-21:  End Time 
 FLOI.gpm               500.00:  Flow In 
 FLON.gpm               450.00:  Flow In Min 
 FLOS.cptm                0.00:  Fluid Loss 
 FLOX.gpm               560.00:  Flow In Max 
 DFT .        Mineral Oil Base:  Mud Type 
 FTRO.       Formation Presure:  FTWD Run Obj 
 HFLO.                      No:  High Flow 
 HPRE.                      No:  High Pressure 
 HTEM.                      No:  High Temp 
 HYDO.m                   1.80:  Hydro Offset 
 IFIN.deg                40.22:  Inc, Final 
 IMAX.deg                40.54:  Inc Max 
 IMIN.deg                39.44:  Inc Min 
 IMND.m                4361.17:  Inc Min Depth 
 IMXD.m                4417.92:  Inc Max Depth 
 JARR.                      No:  Jarring 
 LETM.      07.45.00 18-Jul-21:  Log End Time 
 LOST.hr                    16:  Lost Rig Time 
 LSTM.      15.00.00 16-Jul-21:  Log Start Time 
 MDCL.ppm             36500.00:  Mud Chlorides 
 MDES.     Inversion Oil/Synthetic:  Mud Desc 
 DFD .sg                  1.42:  Mud Density 
 MDMN.sg                  1.42:  Dens Mud Min 
 MDMX.sg                  1.43:  Dens Mud Max 
 MOIL.                      56:  Run Mud Oil % 
 MOWR.                   71:29:  Run Mud OWR 
 MSND.                     0.5:  Run Mud Sand % 
 MSOL.                      21:  Run Mud Solids% 
 DFV .spqt               78.00:  Mud Viscosity 
 MWOD.in                  6.75:  MWD Tool OD 
 MWSI.                     Yes:  Serv Intrp, MWD 
 OTIM.hr                200.73:  Time Operating 
 PCON.           Look Like New:  Pad Condition 
 PMAX.psia            11069.93:  Press Op, Max 
 PV  .cP                 32.00:  Mud PV 
 RUN .                     700:  Run Number 
 ROPA.m/hr               10.00:  ROP Avg 
 ROPN.m/hr                9.00:  ROP Min 
 ROPX.m/hr               16.00:  ROP Max 
 RPMA.rpm               116.00:  RPM Surface Avg 
 RPMN.rpm                80.00:  RPM Surface Min 
 RPMX.rpm               120.00:  RPM Surface Max 
 RRUN.                    L605:  Rig Run Number 
 RTIM.hr                 45.00:  Time Reaming 
 SAZI.deg               159.86:  Azm, Start 
 SDEP.m                4315.00:  Start Depth 
 SIDD.                      No:  Serv Intrp, DD 
 SINC.deg                39.86:  Inc, Start 
 SPPA.psig             3300.00:  SPP Avg 
 SPPN.psig             3040.00:  SPP Min 
 SPPX.psig             3645.00:  SPP Max 
 STIM.      01.00.00 15-Jul-21:  Start Time 
 SVCS.                 DD, MWD:  Services 
 SVER.                    9.20:  Sperry Version 
 TDAT.m                 288.00:  Tot Depth Attmp 
 TDDF.                      No:  Trip for DD 
 TDLG.m                 288.00:  Tot Depth Loggd 
 TFF .                      No:  Trip for Fail 
 TQAA.f-kp               19.00:  Torque Abs Avg 
 TQAN.f-kp               18.00:  Torque Abs Min 
 TQAX.f-kp               21.00:  Torque Abs Max 
 TRRT.°/30m               0.45:  Turn Rotating 
 MRT .                    HCIM:  Maximum Recorded Temperature 
 TTMX.degC               88.24:  Max Tool Temp 
 VS01.                90649157:  Virtual Str1 SN 
 VS02.                90652483:  Virtual Str2 SN 
 VS03.                11671987:  Virtual Str3 SN 
 VS04.                90643411:  Virtual Str4 SN 
 VS05.                90652478:  Virtual Str5 SN 
 VS06.                    6111:  Virtual Str6 SN 
 WBMN.klb                 9.50:  WOB Min 
 WITN.        Grigoriy Sarayev:  Customer Rep 
 WITN.          Rufat Huseynov:  Customer Rep 2 
 WOBA.klb                11.00:  WOB Avg 
 WOBX.klb                15.00:  WOB Max 
 YP  .lhf2               28.00:  Yield Point 
~Curve Information Block
#MNEM.UNIT                 API CODE     Curve Description
#---------               -----------    ---------------------------
 TIME.HHMMSS            00 000 000 000:  GT Time & Date
 GTDEPTH.m              00 000 000 000:  GT Depth
 GTPQH.psia             00 000 000 000:  GT HR Quartz Pressure
 GTTQ.degC              00 000 000 000:  GT Quartz Temperature
 GTTN.NONE              00 000 000 000:  GT Test Number
 GTET.sec               00 000 000 000:  GT Elapsed Test Time
 GTTVD.m                00 000 000 000:  GT True Vertical Depth
#Other Information
#
#WARRANTY: Halliburton will use its best efforts to furnish customers with 
#accurate information and interpretations that are part of, and incident to, the services 
#provided.  However, Halliburton cannot and does not warrant the accuracy 
#or correctness of such information and interpretations.  Under no circumstances should any 
#such information or interpretation be relied upon as the sole basis for any drilling, 
#completion, production, or financial decision or any procedure involving any risk to the 
#safety of any drilling venture, drilling rig or its crew or any other third party.  The 
#Customer has full responsibility for all drilling, completion and production operation.  
#Halliburton makes no representations or warranties, either expressed or 
#implied, including, but not limited to, the implied warranties of merchantability or fitness 
#for a particular purpose, with respect to the services rendered.  In no event will 
#Halliburton be liable for failure to obtain any particular results or for 
#any damages, including, but not limited to, indirect, special or consequential damages, 
#resulting from the use of any information or interpretation provided by Halliburton.
#
~A           TIME           GTDEPTH  GTPQH  GTTQ  GTTN   GTET   GTTVD  
# ...
   05:50:59.929.19-Jul-2021 4380.50 3090.54 69.29 13.00 271.30 2608.98
   05:51:00.129.19-Jul-2021 4380.50 3147.29 69.29 13.00 271.50 2608.98
   05:51:00.329.19-Jul-2021 4380.50 3174.34 69.30 13.00 271.70 2608.98
   05:51:00.529.19-Jul-2021 4380.50 3199.87 69.30 13.00 271.90 2608.98
   05:51:00.729.19-Jul-2021 4380.50 3224.64 69.30 13.00 272.10 2608.98
   05:51:00.929.19-Jul-2021 4380.50 3224.64 69.30 13.00 272.30 2608.98
   05:51:01.129.19-Jul-2021 4380.50 3272.85 69.30 13.00 272.50 2608.98
   05:51:01.329.19-Jul-2021 4380.50 3296.06 69.30 13.00 272.70 2608.98
   05:51:01.529.19-Jul-2021 4380.50 3318.27 69.30 13.00 272.90 2608.98
   05:51:01.730.19-Jul-2021 4380.50 3339.29 69.30 13.00 273.10 2608.98
   05:51:01.930.19-Jul-2021 4380.50 3339.29 69.30 13.00 273.30 2608.98
   05:51:02.130.19-Jul-2021 4380.50 3380.92 69.31 13.00 273.50 2608.98
   05:51:02.330.19-Jul-2021 4380.50 3400.98 69.31 13.00 273.70 2608.98
   05:51:02.530.19-Jul-2021 4380.50 3420.38 69.31 13.00 273.90 2608.98
   05:51:02.730.19-Jul-2021 4380.50 3437.75 69.31 13.00 274.10 2608.98
   05:51:02.930.19-Jul-2021 4380.50 3437.75 69.31 13.00 274.30 2608.98
   05:51:03.130.19-Jul-2021 4380.50 3474.85 69.31 13.00 274.50 2608.98
   05:51:03.330.19-Jul-2021 4380.50 3492.44 69.31 13.00 274.70 2608.98
   05:51:03.530.19-Jul-2021 4380.50 3508.99 69.31 13.00 274.90 2608.98
   05:51:03.730.19-Jul-2021 4380.50 3525.56 69.32 13.00 275.10 2608.98
   05:51:03.930.19-Jul-2021 4380.50 3525.56 69.32 13.00 275.30 2608.98
   05:51:04.130.19-Jul-2021 4380.50 3557.05 69.32 13.00 275.50 2608.98
   05:51:04.330.19-Jul-2021 4380.50 3572.15 69.32 13.00 275.70 2608.98
   05:51:04.531.19-Jul-2021 4380.50 3586.88 69.32 13.00 275.90 2608.98
   05:51:04.731.19-Jul-2021 4380.50 3601.15 69.32 13.00 276.10 2608.98
   05:51:04.931.19-Jul-2021 4380.50 3601.15 69.32 13.00 276.30 2608.98
   05:51:05.131.19-Jul-2021 4380.50 3628.39 69.32 13.00 276.50 2608.98
   05:51:05.331.19-Jul-2021 4380.50 3641.61 69.32 13.00 276.70 2608.98
   05:51:05.531.19-Jul-2021 4380.50 3653.92 69.33 13.00 276.90 2608.98
   05:51:05.731.19-Jul-2021 4380.50 3666.19 69.33 13.00 277.10 2608.98
   05:51:05.931.19-Jul-2021 4380.50 3666.19 69.33 13.00 277.30 2608.98
   05:51:06.131.19-Jul-2021 4380.50 3690.37 69.33 13.00 277.50 2608.98
   05:51:06.331.19-Jul-2021 4380.50 3701.88 69.33 13.00 277.70 2608.98
   05:51:06.531.19-Jul-2021 4380.50 3712.96 69.33 13.00 277.90 2608.98
   05:51:06.731.19-Jul-2021 4380.50 3723.99 69.33 13.00 278.10 2608.98
   05:51:06.931.19-Jul-2021 4380.50 3723.99 69.33 13.00 278.30 2608.98
   05:51:07.132.19-Jul-2021 4380.50 3745.24 69.33 13.00 278.50 2608.98
   05:51:07.332.19-Jul-2021 4380.50 3755.29 69.33 13.00 278.70 2608.98
   05:51:07.532.19-Jul-2021 4380.50 3765.14 69.33 13.00 278.90 2608.98
   05:51:07.732.19-Jul-2021 4380.50 3774.86 69.34 13.00 279.10 2608.98
   05:51:07.932.19-Jul-2021 4380.50 3774.86 69.34 13.00 279.30 2608.98
   05:51:08.132.19-Jul-2021 4380.50 3792.25 69.34 13.00 279.50 2608.98
   05:51:08.332.19-Jul-2021 4380.50 3801.87 69.34 13.00 279.70 2608.98
   05:51:08.532.19-Jul-2021 4380.50 3810.55 69.34 13.00 279.90 2608.98
   05:51:08.732.19-Jul-2021 4380.50 3818.75 69.34 13.00 280.10 2608.98
   05:51:08.932.19-Jul-2021 4380.50 3818.75 69.34 13.00 280.30 2608.98
   05:51:09.132.19-Jul-2021 4380.50 3835.13 69.34 13.00 280.50 2608.98
   05:51:09.332.19-Jul-2021 4380.50 3842.33 69.34 13.00 280.70 2608.98
   05:51:09.532.19-Jul-2021 4380.50 3850.50 69.34 13.00 280.90 2608.98
   05:51:09.732.19-Jul-2021 4380.50 3858.02 69.34 13.00 281.10 2608.98
   05:51:09.933.19-Jul-2021 4380.50 3858.02 69.34 13.00 281.30 2608.98
   05:51:10.133.19-Jul-2021 4380.50 3872.05 69.34 13.00 281.50 2608.98
   05:51:10.333.19-Jul-2021 4380.50 3879.07 69.34 13.00 281.70 2608.98
   05:51:10.533.19-Jul-2021 4380.50 3885.30 69.35 13.00 281.90 2608.98
   05:51:10.733.19-Jul-2021 4380.50 3893.13 69.35 13.00 282.10 2608.98
   05:51:10.933.19-Jul-2021 4380.50 3893.13 69.35 13.00 282.30 2608.98
   05:51:11.133.19-Jul-2021 4380.50 3905.65 69.35 13.00 282.50 2608.98
   05:51:11.333.19-Jul-2021 4380.50 3911.68 69.35 13.00 282.70 2608.98
   05:51:11.533.19-Jul-2021 4380.50 3917.92 69.35 13.00 282.90 2608.98
   05:51:11.733.19-Jul-2021 4380.50 3923.76 69.35 13.00 283.10 2608.98
   05:51:11.933.19-Jul-2021 4380.50 3923.76 69.35 13.00 283.30 2608.98
   05:51:12.133.19-Jul-2021 4380.50 3935.48 69.35 13.00 283.50 2608.98
   05:51:12.333.19-Jul-2021 4380.50 3941.07 69.35 13.00 283.70 2608.98
   05:51:12.534.19-Jul-2021 4380.50 3946.50 69.35 13.00 283.90 2608.98
   05:51:12.734.19-Jul-2021 4380.50 3951.85 69.35 13.00 284.10 2608.98
   05:51:12.934.19-Jul-2021 4380.50 3951.85 69.35 13.00 284.30 2608.98
   05:51:13.134.19-Jul-2021 4380.50 3962.00 69.35 13.00 284.50 2608.98
   05:51:13.334.19-Jul-2021 4380.50 3966.49 69.35 13.00 284.70 2608.98
   05:51:13.534.19-Jul-2021 4380.50 3971.42 69.35 13.00 284.90 2608.98
   05:51:13.734.19-Jul-2021 4380.50 3976.31 69.35 13.00 285.10 2608.98
   05:51:13.934.19-Jul-2021 4380.50 3976.31 69.35 13.00 285.31 2608.98
   05:51:14.134.19-Jul-2021 4380.50 3985.60 69.35 13.00 285.51 2608.98
   05:51:14.334.19-Jul-2021 4380.50 3989.87 69.36 13.00 285.71 2608.98
   05:51:14.534.19-Jul-2021 4380.50 3994.30 69.36 13.00 285.91 2608.98
   05:51:14.734.19-Jul-2021 4380.50 3998.55 69.36 13.00 286.11 2608.98
   05:51:14.934.19-Jul-2021 4380.50 3998.55 69.36 13.00 286.31 2608.98
   05:51:15.134.19-Jul-2021 4380.50 4006.72 69.36 13.00 286.51 2608.98
   05:51:15.335.19-Jul-2021 4380.50 4010.72 69.36 13.00 286.71 2608.98
   05:51:15.535.19-Jul-2021 4380.50 4014.60 69.36 13.00 286.91 2608.98
   05:51:15.735.19-Jul-2021 4380.50 4018.40 69.36 13.00 287.11 2608.98
   05:51:15.935.19-Jul-2021 4380.50 4018.40 69.36 13.00 287.31 2608.98
   05:51:16.135.19-Jul-2021 4380.50 4025.77 69.36 13.00 287.51 2608.98
   05:51:16.335.19-Jul-2021 4380.50 4028.65 69.36 13.00 287.71 2608.98
   05:51:16.535.19-Jul-2021 4380.50 4031.08 69.36 13.00 287.91 2608.98
   05:51:16.735.19-Jul-2021 4380.50 4034.61 69.36 13.00 288.11 2608.98
   05:51:16.935.19-Jul-2021 4380.50 4034.61 69.36 13.00 288.31 2608.98
   05:51:17.135.19-Jul-2021 4380.50 4040.43 69.36 13.00 288.51 2608.98
   05:51:17.335.19-Jul-2021 4380.50 4043.58 69.36 13.00 288.71 2608.98
   05:51:17.535.19-Jul-2021 4380.50 4046.97 69.36 13.00 288.91 2608.98
   05:51:17.735.19-Jul-2021 4380.50 4048.44 69.36 13.00 289.11 2608.98
   05:51:17.936.19-Jul-2021 4380.50 4048.44 69.36 13.00 289.31 2608.98
   05:51:18.136.19-Jul-2021 4380.50 4055.34 69.36 13.00 289.51 2608.98
   05:51:18.336.19-Jul-2021 4380.50 4058.19 69.36 13.00 289.71 2608.98
   05:51:18.536.19-Jul-2021 4380.50 4060.26 69.36 13.00 289.91 2608.98
   05:51:18.736.19-Jul-2021 4380.50 4063.53 69.36 13.00 290.11 2608.98
   05:51:18.936.19-Jul-2021 4380.50 4063.53 69.36 13.00 290.31 2608.98
   05:51:19.136.19-Jul-2021 4380.50 4069.44 69.36 13.00 290.51 2608.98
   05:51:19.336.19-Jul-2021 4380.50 4072.07 69.36 13.00 290.71 2608.98
   05:51:19.536.19-Jul-2021 4380.50 4074.92 69.36 13.00 290.91 2608.98
   05:51:19.736.19-Jul-2021 4380.50 4077.63 69.36 13.00 291.11 2608.98
   05:51:19.936.19-Jul-2021 4380.50 4077.63 69.36 13.00 291.31 2608.98
   05:51:20.136.19-Jul-2021 4380.50 4082.94 69.36 13.00 291.51 2608.98
   05:51:20.336.19-Jul-2021 4380.50 4085.49 69.36 13.00 291.71 2608.98
   05:51:20.536.19-Jul-2021 4380.50 4088.00 69.36 13.00 291.91 2608.98
   05:51:20.737.19-Jul-2021 4380.50 4090.37 69.36 13.00 292.11 2608.98
   05:51:20.937.19-Jul-2021 4380.50 4090.37 69.36 13.00 292.31 2608.98
   05:51:21.137.19-Jul-2021 4380.50 4095.15 69.36 13.00 292.51 2608.98
   05:51:21.337.19-Jul-2021 4380.50 4095.94 69.36 13.00 292.71 2608.98
   05:51:21.537.19-Jul-2021 4380.50 4098.62 69.36 13.00 292.91 2608.98
   05:51:21.737.19-Jul-2021 4380.50 4100.56 69.36 13.00 293.11 2608.98
   05:51:21.937.19-Jul-2021 4380.50 4100.56 69.36 13.00 293.31 2608.98
   05:51:22.137.19-Jul-2021 4380.50 4104.68 69.37 13.00 293.51 2608.98
   05:51:22.337.19-Jul-2021 4380.50 4106.78 69.37 13.00 293.71 2608.98
