~Version Information
 VERS.                  2.0:   CWLS log ASCII Standard -VERSION 2.0
 WRAP.                   NO:   One line per depth step
~Well Information Block
#MNEM.UNIT     VALUE/NAME     DESCRIPTION
#---------     -----------    ---------------------------
 STRT.S             06:08:07 19-Jul-21: START TIME 06:08:07 19-Jul-21
 STOP.S             06:15:04 19-Jul-21: STOP TIME  06:15:04 19-Jul-21
 STEP.S                   0.00: STEP TIME
 NULL.                 -999.25: NULL VALUE
 MDS .        Operator Entered:  MAG DATA SOURCE
 PDAT.          Mean Sea Level:  PERMANENT DATUM
 UNIT.                     N/A:  LOGGING EQUIPMENT ID
 DCON.         Sperry Drilling:  DIRECTNL CONTR
 DOE .                     N/A:  DOE NUMBER
 RIG .              West Azeri:  RIG NAME
 JOBN.        AZ-XX-0906997913:  JOB TICKET NUMB
 WELL.                     C41:  WELL NAME
 MWDS.                    Baku:  MWD SHOP
 SRVC.          Turan Drilling:  CONTRACTOR
 FLD .                     ACG:  FIELD NAME
 CTRY.              Azerbaijan:  COUNTRY NAME
 PROV.                    Baku:  PROVINCE
 STAT.                    Baku:  STATE NAME
 REGN.                   EESSA:  REGION
 BASE.              Azerbaijan:  LOGGING EQUIPMENT BASE LOCATION
 UWI .                     N/A:  UNIQUE WELL IDENTIFIER
 API .                     N/A:  API NUMBER
 COMP.     BP Exploration (Caspian Sea) Ltd.:  COMPANY
 WTYP.                Deviated:  WELL TYPE
 SON .        AZ-XX-0906997913:  JOB NUMBER
 FTOP.          Formation Tops:  FORM TOPS DESC
 ILTD.               Lithology:  INTERP LTH DESC
 SVYD.                  Survey:  SURVEY DESC
 DMOD.             Drill Model:  DRILL MOD DESC
 HPTY.       Minimum Curvature:  HOLE POS TYPE
 NREF.                    Grid:  NORTH REFERENCE
 SPUD.               16-May-21:  SPUD DATE
 DATE.      21.11.28 17-May-21:  END TIME
 STIM.      21.11.28 17-May-21:  START TIME
 DMF .             Drill Floor:  DRILL MEAS FROM
 DFST.                        :  DIST FSL TEXT
 DFWT.                        :  DIST FWL TEXT
 CNTY.                        :  COUNTY
 LOC .                        :  LOCATION
 LMF .             Drill Floor:  LOG MEASURED FROM
 AGAP.m                  43.42:  AIR GAP
 VSNS.m                  -2.16:  VERT SEC N/S
 VSEW.m                  -6.24:  VERT SEC E/W
 APD .m                  43.42:  DEPTH ABOVE PD
 WDMS.m                 118.27:  WD ELEV
 EGL .m                   0.00:  GROUND ELEVATION
 EPD .m                   0.00:  ELEVATION
 AZTC.deg                 6.29:  AZM TOTAL CORR
 GRDC.deg                 0.18:  GRID CORRECTION
 MDEC.deg                 6.47:  MAGNETIC DECL
 MDIP.deg                59.54:  MAGNETIC DIP
 MFLD.nT              50337.00:  MAGNETIC FIELD
 GVFD.g                   1.00:  GRAVITY FIELD
 VSDR.deg               226.99:  VERT SEC DIRECT
 TDD .m                   0.00:  TOTAL DEPTH (DRILLER)
 SDEP.m                 448.00:  START DEPTH
 DFSL.m                   0.00:  DISTANCE FSL
 DFWL.m                   0.00:  DISTANCE FWL
 UTMY.m             4435799.96:  UTM Y
 UTMX.m              526265.35:  UTM X
 WHEW.m                  -6.24:  WELL HEAD E/W
 WHNS.m                  -2.16:  WELL HEAD N/S
 LONG.deg                51.31:  LONGITUDE
 LATI.deg                40.06:  LATITUDE
 TVDS.m                  43.42:  TVDSS CORRECTN
 EKB .m                  43.42:  KB ELEVATION
 EDF .m                  43.42:  DF ELEVATION
 TDL .m                 288.00:  TOTAL DEPTH (LOGGER)
 MAGU.                 1851863:  MAGUTM CHECKSUM
 VSC .                       0:  VS TO CLOSURE
~Parameter Information Block
#MNEM.UNIT       Value        Description
#---------     -----------    ---------------------------
 AV  .mps                 0.40:  Ann Velocity 
 AVMX.mps                 0.63:  Max Ann Veloc 
 AZIF.deg               158.76:  Azm, Final 
 BHAT.        Rotary Steerable:  BHA Type 
 BROT.°/30m               0.68:  Build Rotating 
 BS  .in                  8.50:  Bit Size 
 BSZ .in                  8.50:  Bit Size 
 BTPL.psig              712.00:  Bit Press Loss 
 CABU.                      No:  Customer Abuse 
 TCS .hr                 90.66:  Time Ciculation Ended 
 CV  .mps                 2.02:  Crit Velocity 
 CVMX.mps                 2.14:  Max Crit Veloc 
 DD1 .            Aziz Aliyevu:  Direct Drillr 1 
 DD2 .             Samir Abbas:  Direct Drillr 2 
 DD3 .           Teymur Aliyev:  Direct Drillr 3 
 DDSV.                 iCruise:  DD Service 
 DEFF.%                  85.10:  % Det Eff 
 DLRX.°/30m               1.05:  Dogleg Rot Max 
 DLSO.°/30m               1.01:  Dogleg Oriented 
 DLSX.°/30m               1.05:  Dogleg Str Max 
 DRET.      07.45.00 18-Jul-21:  Drill End Time 
 DRST.      15.00.00 16-Jul-21:  Drill Start Tim 
 DTIM.hr                 23.46:  Time Drilling 
 EDEP.m                4603.00:  End Depth 
 ENG1.       Seymur Iskandarov:  Engineer 1 
 ENG2.         Yevgeniy Ulikov:  Engineer 2 
 ENG3.         Bahruz Mehdiyev:  Engineer 3 
 ENG4.         Elchin Mammadov:  Engineer 4 
 ETIM.      14.00.00 23-Jul-21:  End Time 
 FLOI.gpm               500.00:  Flow In 
 FLON.gpm               450.00:  Flow In Min 
 FLOS.cptm                0.00:  Fluid Loss 
 FLOX.gpm               560.00:  Flow In Max 
 DFT .        Mineral Oil Base:  Mud Type 
 FTRO.       Formation Presure:  FTWD Run Obj 
 HFLO.                      No:  High Flow 
 HPRE.                      No:  High Pressure 
 HTEM.                      No:  High Temp 
 HYDO.m                   1.80:  Hydro Offset 
 IFIN.deg                40.22:  Inc, Final 
 IMAX.deg                40.54:  Inc Max 
 IMIN.deg                39.44:  Inc Min 
 IMND.m                4361.17:  Inc Min Depth 
 IMXD.m                4417.92:  Inc Max Depth 
 JARR.                      No:  Jarring 
 LETM.      07.45.00 18-Jul-21:  Log End Time 
 LOST.hr                    16:  Lost Rig Time 
 LSTM.      15.00.00 16-Jul-21:  Log Start Time 
 MDCL.ppm             36500.00:  Mud Chlorides 
 MDES.     Inversion Oil/Synthetic:  Mud Desc 
 DFD .sg                  1.42:  Mud Density 
 MDMN.sg                  1.42:  Dens Mud Min 
 MDMX.sg                  1.43:  Dens Mud Max 
 MOIL.                      56:  Run Mud Oil % 
 MOWR.                   71:29:  Run Mud OWR 
 MSND.                     0.5:  Run Mud Sand % 
 MSOL.                      21:  Run Mud Solids% 
 DFV .spqt               78.00:  Mud Viscosity 
 MWOD.in                  6.75:  MWD Tool OD 
 MWSI.                     Yes:  Serv Intrp, MWD 
 OTIM.hr                200.73:  Time Operating 
 PCON.           Look Like New:  Pad Condition 
 PMAX.psia            11069.93:  Press Op, Max 
 PV  .cP                 32.00:  Mud PV 
 RUN .                     700:  Run Number 
 ROPA.m/hr               10.00:  ROP Avg 
 ROPN.m/hr                9.00:  ROP Min 
 ROPX.m/hr               16.00:  ROP Max 
 RPMA.rpm               116.00:  RPM Surface Avg 
 RPMN.rpm                80.00:  RPM Surface Min 
 RPMX.rpm               120.00:  RPM Surface Max 
 RRUN.                    L605:  Rig Run Number 
 RTIM.hr                 45.00:  Time Reaming 
 SAZI.deg               159.86:  Azm, Start 
 SDEP.m                4315.00:  Start Depth 
 SIDD.                      No:  Serv Intrp, DD 
 SINC.deg                39.86:  Inc, Start 
 SPPA.psig             3300.00:  SPP Avg 
 SPPN.psig             3040.00:  SPP Min 
 SPPX.psig             3645.00:  SPP Max 
 STIM.      01.00.00 15-Jul-21:  Start Time 
 SVCS.                 DD, MWD:  Services 
 SVER.                    9.20:  Sperry Version 
 TDAT.m                 288.00:  Tot Depth Attmp 
 TDDF.                      No:  Trip for DD 
 TDLG.m                 288.00:  Tot Depth Loggd 
 TFF .                      No:  Trip for Fail 
 TQAA.f-kp               19.00:  Torque Abs Avg 
 TQAN.f-kp               18.00:  Torque Abs Min 
 TQAX.f-kp               21.00:  Torque Abs Max 
 TRRT.°/30m               0.45:  Turn Rotating 
 MRT .                    HCIM:  Maximum Recorded Temperature 
 TTMX.degC               88.24:  Max Tool Temp 
 VS01.                90649157:  Virtual Str1 SN 
 VS02.                90652483:  Virtual Str2 SN 
 VS03.                11671987:  Virtual Str3 SN 
 VS04.                90643411:  Virtual Str4 SN 
 VS05.                90652478:  Virtual Str5 SN 
 VS06.                    6111:  Virtual Str6 SN 
 WBMN.klb                 9.50:  WOB Min 
 WITN.        Grigoriy Sarayev:  Customer Rep 
 WITN.          Rufat Huseynov:  Customer Rep 2 
 WOBA.klb                11.00:  WOB Avg 
 WOBX.klb                15.00:  WOB Max 
 YP  .lhf2               28.00:  Yield Point 
~Curve Information Block
#MNEM.UNIT                 API CODE     Curve Description
#---------               -----------    ---------------------------
 TIME.HHMMSS            00 000 000 000:  GT Time & Date
 GTDEPTH.m              00 000 000 000:  GT Depth
 GTPQH.psia             00 000 000 000:  GT HR Quartz Pressure
 GTTQ.degC              00 000 000 000:  GT Quartz Temperature
 GTTN.NONE              00 000 000 000:  GT Test Number
 GTET.sec               00 000 000 000:  GT Elapsed Test Time
 GTTVD.m                00 000 000 000:  GT True Vertical Depth
#Other Information
#
#WARRANTY: Halliburton will use its best efforts to furnish customers with 
#accurate information and interpretations that are part of, and incident to, the services 
#provided.  However, Halliburton cannot and does not warrant the accuracy 
#or correctness of such information and interpretations.  Under no circumstances should any 
#such information or interpretation be relied upon as the sole basis for any drilling, 
#completion, production, or financial decision or any procedure involving any risk to the 
#safety of any drilling venture, drilling rig or its crew or any other third party.  The 
#Customer has full responsibility for all drilling, completion and production operation.  
#Halliburton makes no representations or warranties, either expressed or 
#implied, including, but not limited to, the implied warranties of merchantability or fitness 
#for a particular purpose, with respect to the services rendered.  In no event will 
#Halliburton be liable for failure to obtain any particular results or for 
#any damages, including, but not limited to, indirect, special or consequential damages, 
#resulting from the use of any information or interpretation provided by Halliburton.
#
~A           TIME           GTDEPTH  GTPQH  GTTQ  GTTN   GTET   GTTVD  
# ...
   06:10:00.149.19-Jul-2021 4380.90 4156.68 69.29 14.00 113.04 2609.29
   06:10:00.349.19-Jul-2021 4380.90 4156.68 69.29 14.00 113.24 2609.29
   06:10:00.549.19-Jul-2021 4380.90 4156.85 69.29 14.00 113.44 2609.29
   06:10:00.749.19-Jul-2021 4380.90 4156.93 69.29 14.00 113.64 2609.29
   06:10:00.949.19-Jul-2021 4380.90 4156.87 69.29 14.00 113.84 2609.29
   06:10:01.149.19-Jul-2021 4380.90 4156.92 69.29 14.00 114.04 2609.29
   06:10:01.349.19-Jul-2021 4380.90 4156.92 69.29 14.00 114.24 2609.29
   06:10:01.549.19-Jul-2021 4380.90 4156.92 69.29 14.00 114.44 2609.29
   06:10:01.749.19-Jul-2021 4380.90 4156.87 69.29 14.00 114.64 2609.29
   06:10:01.949.19-Jul-2021 4380.90 4156.86 69.29 14.00 114.84 2609.29
   06:10:02.149.19-Jul-2021 4380.90 4155.93 69.29 14.00 115.04 2609.29
   06:10:02.350.19-Jul-2021 4380.90 4155.93 69.29 14.00 115.24 2609.29
   06:10:02.550.19-Jul-2021 4380.90 4156.62 69.29 14.00 115.44 2609.29
   06:10:02.750.19-Jul-2021 4380.90 4157.02 69.29 14.00 115.64 2609.29
   06:10:02.950.19-Jul-2021 4380.90 4156.69 69.29 14.00 115.84 2609.29
   06:10:03.150.19-Jul-2021 4380.90 4156.90 69.29 14.00 116.04 2609.29
   06:10:03.350.19-Jul-2021 4380.90 4156.90 69.29 14.00 116.24 2609.29
   06:10:03.550.19-Jul-2021 4380.90 4156.85 69.29 14.00 116.44 2609.29
   06:10:03.750.19-Jul-2021 4380.90 4156.90 69.29 14.00 116.64 2609.29
   06:10:03.950.19-Jul-2021 4380.90 4156.88 69.29 14.00 116.84 2609.29
   06:10:04.150.19-Jul-2021 4380.90 4156.90 69.29 14.00 117.04 2609.29
   06:10:04.350.19-Jul-2021 4380.90 4156.90 69.29 14.00 117.24 2609.29
   06:10:04.550.19-Jul-2021 4380.90 4156.84 69.29 14.00 117.44 2609.29
   06:10:04.750.19-Jul-2021 4380.90 4156.10 69.29 14.00 117.64 2609.29
   06:10:04.950.19-Jul-2021 4380.90 4156.97 69.29 14.00 117.84 2609.29
   06:10:05.151.19-Jul-2021 4380.90 4156.59 69.29 14.00 118.04 2609.29
   06:10:05.351.19-Jul-2021 4380.90 4156.59 69.29 14.00 118.24 2609.29
   06:10:05.551.19-Jul-2021 4380.90 4155.89 69.29 14.00 118.44 2609.29
   06:10:05.751.19-Jul-2021 4380.90 4156.68 69.29 14.00 118.64 2609.29
   06:10:05.951.19-Jul-2021 4380.90 4156.86 69.29 14.00 118.84 2609.29
   06:10:06.151.19-Jul-2021 4380.90 4156.16 69.29 14.00 119.04 2609.29
   06:10:06.351.19-Jul-2021 4380.90 4156.16 69.29 14.00 119.24 2609.29
   06:10:06.551.19-Jul-2021 4380.90 4156.69 69.29 14.00 119.44 2609.29
   06:10:06.751.19-Jul-2021 4380.90 4156.26 69.29 14.00 119.64 2609.29
   06:10:06.951.19-Jul-2021 4380.90 4156.55 69.29 14.00 119.84 2609.29
   06:10:07.151.19-Jul-2021 4380.90 4156.48 69.29 14.00 120.04 2609.29
   06:10:07.351.19-Jul-2021 4380.90 4156.48 69.29 14.00 120.24 2609.29
   06:10:07.551.19-Jul-2021 4380.90 4156.67 69.29 14.00 120.44 2609.29
   06:10:07.752.19-Jul-2021 4380.90 4155.93 69.29 14.00 120.64 2609.29
   06:10:07.952.19-Jul-2021 4380.90 4156.77 69.29 14.00 120.84 2609.29
   06:10:08.152.19-Jul-2021 4380.90 4156.96 69.29 14.00 121.04 2609.29
   06:10:08.352.19-Jul-2021 4380.90 4156.96 69.29 14.00 121.24 2609.29
   06:10:08.552.19-Jul-2021 4380.90 4156.72 69.29 14.00 121.44 2609.29
   06:10:08.752.19-Jul-2021 4380.90 4156.91 69.29 14.00 121.64 2609.29
   06:10:08.952.19-Jul-2021 4380.90 4156.87 69.29 14.00 121.84 2609.29
   06:10:09.152.19-Jul-2021 4380.90 4156.95 69.29 14.00 122.04 2609.29
   06:10:09.352.19-Jul-2021 4380.90 4156.95 69.29 14.00 122.25 2609.29
   06:10:09.552.19-Jul-2021 4380.90 4156.91 69.29 14.00 122.45 2609.29
   06:10:09.752.19-Jul-2021 4380.90 4156.87 69.29 14.00 122.65 2609.29
   06:10:09.952.19-Jul-2021 4380.90 4156.92 69.29 14.00 122.85 2609.29
   06:10:10.152.19-Jul-2021 4380.90 4156.92 69.29 14.00 123.05 2609.29
   06:10:10.352.19-Jul-2021 4380.90 4156.92 69.29 14.00 123.25 2609.29
   06:10:10.553.19-Jul-2021 4380.90 4155.91 69.29 14.00 123.45 2609.29
   06:10:10.753.19-Jul-2021 4380.90 4156.73 69.29 14.00 123.65 2609.29
   06:10:10.953.19-Jul-2021 4380.90 4156.51 69.30 14.00 123.85 2609.29
   06:10:11.153.19-Jul-2021 4380.90 4156.66 69.29 14.00 124.05 2609.29
   06:10:11.353.19-Jul-2021 4380.90 4156.66 69.29 14.00 124.25 2609.29
   06:10:11.553.19-Jul-2021 4380.90 4156.89 69.29 14.00 124.45 2609.29
   06:10:11.753.19-Jul-2021 4380.90 4156.88 69.30 14.00 124.65 2609.29
   06:10:11.953.19-Jul-2021 4380.90 4156.83 69.29 14.00 124.85 2609.29
   06:10:12.153.19-Jul-2021 4380.90 4156.88 69.29 14.00 125.05 2609.29
   06:10:12.353.19-Jul-2021 4380.90 4156.88 69.29 14.00 125.25 2609.29
   06:10:12.553.19-Jul-2021 4380.90 4156.92 69.29 14.00 125.45 2609.29
   06:10:12.753.19-Jul-2021 4380.90 4156.92 69.29 14.00 125.65 2609.29
   06:10:12.953.19-Jul-2021 4380.90 4156.84 69.29 14.00 125.85 2609.29
   06:10:13.154.19-Jul-2021 4380.90 4155.87 69.29 14.00 126.05 2609.29
   06:10:13.354.19-Jul-2021 4380.90 4155.87 69.29 14.00 126.25 2609.29
   06:10:13.554.19-Jul-2021 4380.90 4156.58 69.29 14.00 126.45 2609.29
   06:10:13.754.19-Jul-2021 4380.90 4156.70 69.29 14.00 126.65 2609.29
   06:10:13.954.19-Jul-2021 4380.90 4155.69 69.29 14.00 126.85 2609.29
   06:10:14.154.19-Jul-2021 4380.90 4156.71 69.29 14.00 127.05 2609.29
   06:10:14.354.19-Jul-2021 4380.90 4156.71 69.29 14.00 127.25 2609.29
   06:10:14.554.19-Jul-2021 4380.90 4156.27 69.29 14.00 127.45 2609.29
   06:10:14.754.19-Jul-2021 4380.90 4156.57 69.29 14.00 127.65 2609.29
   06:10:14.954.19-Jul-2021 4380.90 4156.80 69.30 14.00 127.85 2609.29
   06:10:15.154.19-Jul-2021 4380.90 4156.90 69.29 14.00 128.05 2609.29
   06:10:15.354.19-Jul-2021 4380.90 4156.90 69.29 14.00 128.25 2609.29
   06:10:15.554.19-Jul-2021 4380.90 4156.55 69.30 14.00 128.45 2609.29
   06:10:15.754.19-Jul-2021 4380.90 4156.80 69.29 14.00 128.65 2609.29
   06:10:15.955.19-Jul-2021 4380.90 4156.96 69.30 14.00 128.85 2609.29
   06:10:16.155.19-Jul-2021 4380.90 4155.92 69.30 14.00 129.05 2609.29
   06:10:16.355.19-Jul-2021 4380.90 4155.92 69.30 14.00 129.25 2609.29
   06:10:16.555.19-Jul-2021 4380.90 4156.76 69.30 14.00 129.45 2609.29
   06:10:16.755.19-Jul-2021 4380.90 4157.13 69.30 14.00 129.65 2609.29
   06:10:16.955.19-Jul-2021 4380.90 4156.79 69.30 14.00 129.85 2609.29
   06:10:17.155.19-Jul-2021 4380.90 4156.98 69.29 14.00 130.05 2609.29
   06:10:17.355.19-Jul-2021 4380.90 4156.98 69.29 14.00 130.25 2609.29
   06:10:17.555.19-Jul-2021 4380.90 4156.96 69.30 14.00 130.45 2609.29
   06:10:17.755.19-Jul-2021 4380.90 4156.92 69.30 14.00 130.65 2609.29
   06:10:17.955.19-Jul-2021 4380.90 4156.93 69.30 14.00 130.85 2609.29
   06:10:18.155.19-Jul-2021 4380.90 4156.94 69.30 14.00 131.05 2609.29
   06:10:18.355.19-Jul-2021 4380.90 4156.94 69.30 14.00 131.25 2609.29
   06:10:18.555.19-Jul-2021 4380.90 4156.97 69.30 14.00 131.45 2609.29
   06:10:18.756.19-Jul-2021 4380.90 4156.89 69.30 14.00 131.65 2609.29
   06:10:18.956.19-Jul-2021 4380.90 4156.66 69.30 14.00 131.85 2609.29
   06:10:19.156.19-Jul-2021 4380.90 4156.17 69.30 14.00 132.05 2609.29
   06:10:19.356.19-Jul-2021 4380.90 4156.17 69.30 14.00 132.25 2609.29
   06:10:19.556.19-Jul-2021 4380.90 4157.09 69.30 14.00 132.45 2609.29
   06:10:19.756.19-Jul-2021 4380.90 4156.79 69.30 14.00 132.65 2609.29
   06:10:19.956.19-Jul-2021 4380.90 4156.92 69.30 14.00 132.85 2609.29
   06:10:20.156.19-Jul-2021 4380.90 4156.91 69.30 14.00 133.05 2609.29
   06:10:20.356.19-Jul-2021 4380.90 4156.91 69.30 14.00 133.25 2609.29
   06:10:20.556.19-Jul-2021 4380.90 4156.92 69.30 14.00 133.45 2609.29
   06:10:20.756.19-Jul-2021 4380.90 4156.91 69.30 14.00 133.65 2609.29
   06:10:20.956.19-Jul-2021 4380.90 4156.93 69.30 14.00 133.85 2609.29
   06:10:21.156.19-Jul-2021 4380.90 4156.95 69.30 14.00 134.05 2609.29
   06:10:21.357.19-Jul-2021 4380.90 4156.95 69.30 14.00 134.25 2609.29
   06:10:21.557.19-Jul-2021 4380.90 4156.66 69.30 14.00 134.45 2609.29
   06:10:21.757.19-Jul-2021 4380.90 4156.23 69.30 14.00 134.65 2609.29
   06:10:21.957.19-Jul-2021 4380.90 4156.73 69.30 14.00 134.85 2609.29
   06:10:22.157.19-Jul-2021 4380.90 4156.57 69.30 14.00 135.05 2609.29
   06:10:22.357.19-Jul-2021 4380.90 4156.57 69.30 14.00 135.25 2609.29
   06:10:22.557.19-Jul-2021 4380.90 4156.76 69.30 14.00 135.45 2609.29
