~Version Information
 VERS.                  2.0:   CWLS log ASCII Standard -VERSION 2.0
 WRAP.                   NO:   One line per depth step
~Well Information Block
#MNEM.UNIT     VALUE/NAME     DESCRIPTION
#---------     -----------    ---------------------------
 STRT.S             13:44:38 19-Jul-21: START TIME 13:44:38 19-Jul-21
 STOP.S             13:51:30 19-Jul-21: STOP TIME  13:51:30 19-Jul-21
 STEP.S                   0.00: STEP TIME
 NULL.                 -999.25: NULL VALUE
 MDS .        Operator Entered:  MAG DATA SOURCE
 PDAT.          Mean Sea Level:  PERMANENT DATUM
 UNIT.                     N/A:  LOGGING EQUIPMENT ID
 DCON.         Sperry Drilling:  DIRECTNL CONTR
 DOE .                     N/A:  DOE NUMBER
 RIG .              West Azeri:  RIG NAME
 JOBN.        AZ-XX-0906997913:  JOB TICKET NUMB
 WELL.                     C41:  WELL NAME
 MWDS.                    Baku:  MWD SHOP
 SRVC.          Turan Drilling:  CONTRACTOR
 FLD .                     ACG:  FIELD NAME
 CTRY.              Azerbaijan:  COUNTRY NAME
 PROV.                    Baku:  PROVINCE
 STAT.                    Baku:  STATE NAME
 REGN.                   EESSA:  REGION
 BASE.              Azerbaijan:  LOGGING EQUIPMENT BASE LOCATION
 UWI .                     N/A:  UNIQUE WELL IDENTIFIER
 API .                     N/A:  API NUMBER
 COMP.     BP Exploration (Caspian Sea) Ltd.:  COMPANY
 WTYP.                Deviated:  WELL TYPE
 SON .        AZ-XX-0906997913:  JOB NUMBER
 FTOP.          Formation Tops:  FORM TOPS DESC
 ILTD.               Lithology:  INTERP LTH DESC
 SVYD.                  Survey:  SURVEY DESC
 DMOD.             Drill Model:  DRILL MOD DESC
 HPTY.       Minimum Curvature:  HOLE POS TYPE
 NREF.                    Grid:  NORTH REFERENCE
 SPUD.               16-May-21:  SPUD DATE
 DATE.      21.11.28 17-May-21:  END TIME
 STIM.      21.11.28 17-May-21:  START TIME
 DMF .             Drill Floor:  DRILL MEAS FROM
 DFST.                        :  DIST FSL TEXT
 DFWT.                        :  DIST FWL TEXT
 CNTY.                        :  COUNTY
 LOC .                        :  LOCATION
 LMF .             Drill Floor:  LOG MEASURED FROM
 AGAP.m                  43.42:  AIR GAP
 VSNS.m                  -2.16:  VERT SEC N/S
 VSEW.m                  -6.24:  VERT SEC E/W
 APD .m                  43.42:  DEPTH ABOVE PD
 WDMS.m                 118.27:  WD ELEV
 EGL .m                   0.00:  GROUND ELEVATION
 EPD .m                   0.00:  ELEVATION
 AZTC.deg                 6.29:  AZM TOTAL CORR
 GRDC.deg                 0.18:  GRID CORRECTION
 MDEC.deg                 6.47:  MAGNETIC DECL
 MDIP.deg                59.54:  MAGNETIC DIP
 MFLD.nT              50337.00:  MAGNETIC FIELD
 GVFD.g                   1.00:  GRAVITY FIELD
 VSDR.deg               226.99:  VERT SEC DIRECT
 TDD .m                   0.00:  TOTAL DEPTH (DRILLER)
 SDEP.m                 448.00:  START DEPTH
 DFSL.m                   0.00:  DISTANCE FSL
 DFWL.m                   0.00:  DISTANCE FWL
 UTMY.m             4435799.96:  UTM Y
 UTMX.m              526265.35:  UTM X
 WHEW.m                  -6.24:  WELL HEAD E/W
 WHNS.m                  -2.16:  WELL HEAD N/S
 LONG.deg                51.31:  LONGITUDE
 LATI.deg                40.06:  LATITUDE
 TVDS.m                  43.42:  TVDSS CORRECTN
 EKB .m                  43.42:  KB ELEVATION
 EDF .m                  43.42:  DF ELEVATION
 TDL .m                 288.00:  TOTAL DEPTH (LOGGER)
 MAGU.                 1851863:  MAGUTM CHECKSUM
 VSC .                       0:  VS TO CLOSURE
~Parameter Information Block
#MNEM.UNIT       Value        Description
#---------     -----------    ---------------------------
 AV  .mps                 0.40:  Ann Velocity 
 AVMX.mps                 0.63:  Max Ann Veloc 
 AZIF.deg               158.76:  Azm, Final 
 BHAT.        Rotary Steerable:  BHA Type 
 BROT.°/30m               0.68:  Build Rotating 
 BS  .in                  8.50:  Bit Size 
 BSZ .in                  8.50:  Bit Size 
 BTPL.psig              712.00:  Bit Press Loss 
 CABU.                      No:  Customer Abuse 
 COMM.                     ÌÇp:  Run Comments 1 
 TCS .hr                 90.66:  Time Ciculation Ended 
 CV  .mps                 2.02:  Crit Velocity 
 CVMX.mps                 2.14:  Max Crit Veloc 
 DD1 .            Aziz Aliyevu:  Direct Drillr 1 
 DD2 .             Samir Abbas:  Direct Drillr 2 
 DD3 .           Teymur Aliyev:  Direct Drillr 3 
 DDSV.                 iCruise:  DD Service 
 DEFF.%                  85.10:  % Det Eff 
 DLRX.°/30m               1.05:  Dogleg Rot Max 
 DLSO.°/30m               1.01:  Dogleg Oriented 
 DLSX.°/30m               1.05:  Dogleg Str Max 
 DRET.      07.45.00 18-Jul-21:  Drill End Time 
 DRST.      15.00.00 16-Jul-21:  Drill Start Tim 
 DTIM.hr                 23.46:  Time Drilling 
 EDEP.m                4603.00:  End Depth 
 ENG1.       Seymur Iskandarov:  Engineer 1 
 ENG2.         Yevgeniy Ulikov:  Engineer 2 
 ENG3.         Bahruz Mehdiyev:  Engineer 3 
 ENG4.         Elchin Mammadov:  Engineer 4 
 ETIM.      14.00.00 23-Jul-21:  End Time 
 FLOI.gpm               500.00:  Flow In 
 FLON.gpm               450.00:  Flow In Min 
 FLOS.cptm                0.00:  Fluid Loss 
 FLOX.gpm               560.00:  Flow In Max 
 DFT .        Mineral Oil Base:  Mud Type 
 FTRO.       Formation Presure:  FTWD Run Obj 
 HFLO.                      No:  High Flow 
 HPRE.                      No:  High Pressure 
 HTEM.                      No:  High Temp 
 HYDO.m                   1.80:  Hydro Offset 
 IFIN.deg                40.22:  Inc, Final 
 IMAX.deg                40.54:  Inc Max 
 IMIN.deg                39.44:  Inc Min 
 IMND.m                4361.17:  Inc Min Depth 
 IMXD.m                4417.92:  Inc Max Depth 
 JARR.                      No:  Jarring 
 LETM.      07.45.00 18-Jul-21:  Log End Time 
 LOST.hr                    16:  Lost Rig Time 
 LSTM.      15.00.00 16-Jul-21:  Log Start Time 
 MDCL.ppm             36500.00:  Mud Chlorides 
 MDES.     Inversion Oil/Synthetic:  Mud Desc 
 DFD .sg                  1.42:  Mud Density 
 MDMN.sg                  1.42:  Dens Mud Min 
 MDMX.sg                  1.43:  Dens Mud Max 
 MOIL.                      56:  Run Mud Oil % 
 MOWR.                   71:29:  Run Mud OWR 
 MSND.                     0.5:  Run Mud Sand % 
 MSOL.                      21:  Run Mud Solids% 
 DFV .spqt               78.00:  Mud Viscosity 
 MWOD.in                  6.75:  MWD Tool OD 
 MWSI.                     Yes:  Serv Intrp, MWD 
 OTIM.hr                200.73:  Time Operating 
 PCON.           Look Like New:  Pad Condition 
 PMAX.psia            11069.93:  Press Op, Max 
 PV  .cP                 32.00:  Mud PV 
 RUN .                     700:  Run Number 
 ROPA.m/hr               10.00:  ROP Avg 
 ROPN.m/hr                9.00:  ROP Min 
 ROPX.m/hr               16.00:  ROP Max 
 RPMA.rpm               116.00:  RPM Surface Avg 
 RPMN.rpm                80.00:  RPM Surface Min 
 RPMX.rpm               120.00:  RPM Surface Max 
 RRUN.                    L605:  Rig Run Number 
 RTIM.hr                 45.00:  Time Reaming 
 SAZI.deg               159.86:  Azm, Start 
 SDEP.m                4315.00:  Start Depth 
 SIDD.                      No:  Serv Intrp, DD 
 SINC.deg                39.86:  Inc, Start 
 SPPA.psig             3300.00:  SPP Avg 
 SPPN.psig             3040.00:  SPP Min 
 SPPX.psig             3645.00:  SPP Max 
 STIM.      01.00.00 15-Jul-21:  Start Time 
 SVCS.                 DD, MWD:  Services 
 SVER.                    9.20:  Sperry Version 
 TDAT.m                 288.00:  Tot Depth Attmp 
 TDDF.                      No:  Trip for DD 
 TDLG.m                 288.00:  Tot Depth Loggd 
 TFF .                      No:  Trip for Fail 
 TQAA.f-kp               19.00:  Torque Abs Avg 
 TQAN.f-kp               18.00:  Torque Abs Min 
 TQAX.f-kp               21.00:  Torque Abs Max 
 TRRT.°/30m               0.45:  Turn Rotating 
 MRT .                    HCIM:  Maximum Recorded Temperature 
 TTMX.degC               88.24:  Max Tool Temp 
 VS01.                90649157:  Virtual Str1 SN 
 VS02.                90652483:  Virtual Str2 SN 
 VS03.                11671987:  Virtual Str3 SN 
 VS04.                90643411:  Virtual Str4 SN 
 VS05.                90652478:  Virtual Str5 SN 
 VS06.                    6111:  Virtual Str6 SN 
 WBMN.klb                 9.50:  WOB Min 
 WITN.        Grigoriy Sarayev:  Customer Rep 
 WITN.          Rufat Huseynov:  Customer Rep 2 
 WOBA.klb                11.00:  WOB Avg 
 WOBX.klb                15.00:  WOB Max 
 YP  .lhf2               28.00:  Yield Point 
~Curve Information Block
#MNEM.UNIT                 API CODE     Curve Description
#---------               -----------    ---------------------------
 TIME.HHMMSS            00 000 000 000:  GT Time & Date
 GTDEPTH.m              00 000 000 000:  GT Depth
 GTPQH.psia             00 000 000 000:  GT HR Quartz Pressure
 GTTQ.degC              00 000 000 000:  GT Quartz Temperature
 GTTN.NONE              00 000 000 000:  GT Test Number
 GTET.sec               00 000 000 000:  GT Elapsed Test Time
 GTTVD.m                00 000 000 000:  GT True Vertical Depth
#Other Information
#
#WARRANTY: Halliburton will use its best efforts to furnish customers with 
#accurate information and interpretations that are part of, and incident to, the services 
#provided.  However, Halliburton cannot and does not warrant the accuracy 
#or correctness of such information and interpretations.  Under no circumstances should any 
#such information or interpretation be relied upon as the sole basis for any drilling, 
#completion, production, or financial decision or any procedure involving any risk to the 
#safety of any drilling venture, drilling rig or its crew or any other third party.  The 
#Customer has full responsibility for all drilling, completion and production operation.  
#Halliburton makes no representations or warranties, either expressed or 
#implied, including, but not limited to, the implied warranties of merchantability or fitness 
#for a particular purpose, with respect to the services rendered.  In no event will 
#Halliburton be liable for failure to obtain any particular results or for 
#any damages, including, but not limited to, indirect, special or consequential damages, 
#resulting from the use of any information or interpretation provided by Halliburton.
#
~A           TIME           GTDEPTH  GTPQH  GTTQ  GTTN   GTET   GTTVD  
# ...
   13:51:02.534.19-Jul-2021 4561.50 6709.54 71.41 30.00 384.34 2747.31
   13:51:02.734.19-Jul-2021 4561.50 6742.39 71.41 30.00 384.54 2747.31
   13:51:02.934.19-Jul-2021 4561.50 6716.41 71.41 30.00 384.74 2747.31
   13:51:03.134.19-Jul-2021 4561.50 6711.08 71.41 30.00 384.94 2747.31
   13:51:03.335.19-Jul-2021 4561.50 6723.02 71.41 30.00 385.14 2747.31
   13:51:03.535.19-Jul-2021 4561.50 6723.02 71.41 30.00 385.34 2747.31
   13:51:03.735.19-Jul-2021 4561.50 6712.72 71.41 30.00 385.54 2747.31
   13:51:03.935.19-Jul-2021 4561.50 6735.97 71.41 30.00 385.74 2747.31
   13:51:04.135.19-Jul-2021 4561.50 6719.66 71.41 30.00 385.94 2747.31
   13:51:04.335.19-Jul-2021 4561.50 6713.89 71.41 30.00 386.14 2747.31
   13:51:04.535.19-Jul-2021 4561.50 6713.89 71.41 30.00 386.34 2747.31
   13:51:04.735.19-Jul-2021 4561.50 6725.92 71.41 30.00 386.54 2747.31
   13:51:04.935.19-Jul-2021 4561.50 6715.62 71.41 30.00 386.74 2747.31
   13:51:05.135.19-Jul-2021 4561.50 6716.21 71.41 30.00 386.94 2747.31
   13:51:05.335.19-Jul-2021 4561.50 6717.39 71.41 30.00 387.14 2747.31
   13:51:05.535.19-Jul-2021 4561.50 6717.39 71.41 30.00 387.34 2747.31
   13:51:05.735.19-Jul-2021 4561.50 6716.48 71.41 30.00 387.54 2747.31
   13:51:05.936.19-Jul-2021 4561.50 6716.51 71.41 30.00 387.74 2747.31
   13:51:06.136.19-Jul-2021 4561.50 6718.53 71.41 30.00 387.94 2747.31
   13:51:06.336.19-Jul-2021 4561.50 6718.27 71.41 30.00 388.14 2747.31
   13:51:06.536.19-Jul-2021 4561.50 6718.27 71.41 30.00 388.34 2747.31
   13:51:06.736.19-Jul-2021 4561.50 6737.01 71.41 30.00 388.54 2747.31
   13:51:06.936.19-Jul-2021 4561.50 6721.40 71.41 30.00 388.74 2747.31
   13:51:07.136.19-Jul-2021 4561.50 6713.19 71.41 30.00 388.94 2747.31
   13:51:07.336.19-Jul-2021 4561.50 6721.95 71.41 30.00 389.14 2747.31
   13:51:07.536.19-Jul-2021 4561.50 6721.95 71.41 30.00 389.34 2747.31
   13:51:07.736.19-Jul-2021 4561.50 6713.79 71.41 30.00 389.54 2747.31
   13:51:07.936.19-Jul-2021 4561.50 6713.94 71.41 30.00 389.74 2747.31
   13:51:08.136.19-Jul-2021 4561.50 6714.30 71.41 30.00 389.94 2747.31
   13:51:08.336.19-Jul-2021 4561.50 6713.20 71.41 30.00 390.14 2747.31
   13:51:08.536.19-Jul-2021 4561.50 6713.20 71.41 30.00 390.34 2747.31
   13:51:08.737.19-Jul-2021 4561.50 6710.92 71.41 30.00 390.54 2747.31
   13:51:08.937.19-Jul-2021 4561.50 6713.53 71.41 30.00 390.74 2747.31
   13:51:09.137.19-Jul-2021 4561.50 6712.35 71.41 30.00 390.94 2747.31
   13:51:09.337.19-Jul-2021 4561.50 6733.72 71.41 30.00 391.14 2747.31
   13:51:09.537.19-Jul-2021 4561.50 6733.72 71.41 30.00 391.34 2747.31
   13:51:09.737.19-Jul-2021 4561.50 6707.88 71.41 30.00 391.54 2747.31
   13:51:09.937.19-Jul-2021 4561.50 6740.18 71.41 30.00 391.74 2747.31
   13:51:10.137.19-Jul-2021 4561.50 6724.85 71.41 30.00 391.94 2747.31
   13:51:10.337.19-Jul-2021 4561.50 6710.55 71.41 30.00 392.14 2747.31
   13:51:10.537.19-Jul-2021 4561.50 6710.55 71.41 30.00 392.34 2747.31
   13:51:10.737.19-Jul-2021 4561.50 6717.79 71.40 30.00 392.54 2747.31
   13:51:10.937.19-Jul-2021 4561.50 6712.04 71.41 30.00 392.74 2747.31
   13:51:11.137.19-Jul-2021 4561.50 6723.41 71.40 30.00 392.94 2747.31
   13:51:11.338.19-Jul-2021 4561.50 6735.99 71.40 30.00 393.14 2747.31
   13:51:11.538.19-Jul-2021 4561.50 6735.99 71.40 30.00 393.34 2747.31
   13:51:11.738.19-Jul-2021 4561.50 6708.98 71.40 30.00 393.54 2747.31
   13:51:11.938.19-Jul-2021 4561.50 6720.52 71.40 30.00 393.74 2747.31
   13:51:12.138.19-Jul-2021 4561.50 6720.72 71.40 30.00 393.95 2747.31
   13:51:12.338.19-Jul-2021 4561.50 6713.28 71.40 30.00 394.15 2747.31
   13:51:12.538.19-Jul-2021 4561.50 6713.28 71.40 30.00 394.35 2747.31
   13:51:12.738.19-Jul-2021 4561.50 6718.44 71.40 30.00 394.55 2747.31
   13:51:12.938.19-Jul-2021 4561.50 6713.41 71.40 30.00 394.75 2747.31
   13:51:13.138.19-Jul-2021 4561.50 6724.65 71.40 30.00 394.95 2747.31
   13:51:13.338.19-Jul-2021 4561.50 6716.12 71.40 30.00 395.15 2747.31
   13:51:13.538.19-Jul-2021 4561.50 6716.12 71.40 30.00 395.35 2747.31
   13:51:13.738.19-Jul-2021 4561.50 6714.48 71.40 30.00 395.55 2747.31
   13:51:13.938.19-Jul-2021 4561.50 6716.43 71.40 30.00 395.75 2747.31
   13:51:14.139.19-Jul-2021 4561.50 6716.38 71.40 30.00 395.95 2747.31
   13:51:14.339.19-Jul-2021 4561.50 6716.68 71.40 30.00 396.15 2747.31
   13:51:14.539.19-Jul-2021 4561.50 6716.68 71.40 30.00 396.35 2747.31
   13:51:14.739.19-Jul-2021 4561.50 6717.30 71.40 30.00 396.55 2747.31
   13:51:14.939.19-Jul-2021 4561.50 6718.76 71.40 30.00 396.75 2747.31
   13:51:15.139.19-Jul-2021 4561.50 6718.60 71.40 30.00 396.95 2747.31
   13:51:15.339.19-Jul-2021 4561.50 6738.16 71.40 30.00 397.15 2747.31
   13:51:15.539.19-Jul-2021 4561.50 6738.16 71.40 30.00 397.35 2747.31
   13:51:15.739.19-Jul-2021 4561.50 6712.80 71.40 30.00 397.55 2747.31
   13:51:15.939.19-Jul-2021 4561.50 6721.64 71.40 30.00 397.75 2747.31
   13:51:16.139.19-Jul-2021 4561.50 6720.01 71.40 30.00 397.95 2747.31
   13:51:16.339.19-Jul-2021 4561.50 6714.62 71.40 30.00 398.15 2747.31
   13:51:16.539.19-Jul-2021 4561.50 6714.62 71.40 30.00 398.35 2747.31
   13:51:16.740.19-Jul-2021 4561.50 6714.57 71.40 30.00 398.55 2747.31
   13:51:16.940.19-Jul-2021 4561.50 6714.34 71.40 30.00 398.75 2747.31
   13:51:17.140.19-Jul-2021 4561.50 6713.97 71.40 30.00 398.95 2747.31
   13:51:17.340.19-Jul-2021 4561.50 6713.99 71.40 30.00 399.15 2747.31
   13:51:17.540.19-Jul-2021 4561.50 6713.99 71.40 30.00 399.35 2747.31
   13:51:17.740.19-Jul-2021 4561.50 6715.86 71.40 30.00 399.55 2747.31
   13:51:17.940.19-Jul-2021 4561.50 6736.36 71.40 30.00 399.75 2747.31
   13:51:18.140.19-Jul-2021 4561.50 6719.94 71.40 30.00 399.95 2747.31
   13:51:18.340.19-Jul-2021 4561.50 6712.73 71.40 30.00 400.15 2747.31
   13:51:18.540.19-Jul-2021 4561.50 6712.73 71.40 30.00 400.35 2747.31
   13:51:18.740.19-Jul-2021 4561.50 6726.93 71.40 30.00 400.55 2747.31
   13:51:18.940.19-Jul-2021 4561.50 6712.25 71.40 30.00 400.75 2747.31
   13:51:19.140.19-Jul-2021 4561.50 6719.05 71.40 30.00 400.95 2747.31
   13:51:19.340.19-Jul-2021 4561.50 6740.15 71.40 30.00 401.15 2747.31
   13:51:19.541.19-Jul-2021 4561.50 6740.15 71.40 30.00 401.35 2747.31
   13:51:19.741.19-Jul-2021 4561.50 6714.38 71.40 30.00 401.55 2747.31
   13:51:19.941.19-Jul-2021 4561.50 6740.75 71.40 30.00 401.75 2747.31
   13:51:20.141.19-Jul-2021 4561.50 6721.98 71.40 30.00 401.95 2747.31
   13:51:20.341.19-Jul-2021 4561.50 6710.48 71.40 30.00 402.15 2747.31
   13:51:20.541.19-Jul-2021 4561.50 6710.48 71.40 30.00 402.35 2747.31
   13:51:20.741.19-Jul-2021 4561.50 6718.72 71.40 30.00 402.55 2747.31
   13:51:20.941.19-Jul-2021 4561.50 6739.48 71.40 30.00 402.75 2747.31
   13:51:21.141.19-Jul-2021 4561.50 6718.05 71.40 30.00 402.95 2747.31
   13:51:21.341.19-Jul-2021 4561.50 6713.11 71.40 30.00 403.15 2747.31
   13:51:21.541.19-Jul-2021 4561.50 6713.11 71.40 30.00 403.35 2747.31
   13:51:21.741.19-Jul-2021 4561.50 6720.64 71.40 30.00 403.55 2747.31
   13:51:21.941.19-Jul-2021 4561.50 6716.29 71.40 30.00 403.75 2747.31
   13:51:22.141.19-Jul-2021 4561.50 6716.29 71.40 30.00 403.95 2747.31
   13:51:22.342.19-Jul-2021 4561.50 6716.92 71.40 30.00 404.15 2747.31
   13:51:22.542.19-Jul-2021 4561.50 6716.92 71.40 30.00 404.35 2747.31
   13:51:22.742.19-Jul-2021 4561.50 6717.19 71.40 30.00 404.55 2747.31
   13:51:22.942.19-Jul-2021 4561.50 6717.08 71.40 30.00 404.75 2747.31
   13:51:23.142.19-Jul-2021 4561.50 6716.69 71.40 30.00 404.95 2747.31
   13:51:23.342.19-Jul-2021 4561.50 6716.89 71.40 30.00 405.15 2747.31
   13:51:23.542.19-Jul-2021 4561.50 6716.89 71.40 30.00 405.35 2747.31
   13:51:23.742.19-Jul-2021 4561.50 6727.27 71.40 30.00 405.55 2747.31
   13:51:23.942.19-Jul-2021 4561.50 6733.82 71.40 30.00 405.75 2747.31
   13:51:24.142.19-Jul-2021 4561.50 6711.04 71.40 30.00 405.95 2747.31
   13:51:24.342.19-Jul-2021 4561.50 6716.49 71.40 30.00 406.15 2747.31
   13:51:24.542.19-Jul-2021 4561.50 6716.49 71.40 30.00 406.35 2747.31
   13:51:24.742.19-Jul-2021 4561.50 6724.12 71.40 30.00 406.55 2747.31
   13:51:24.943.19-Jul-2021 4561.50 6715.61 71.40 30.00 406.75 2747.31
