~Version Information
 VERS.                  2.0:   CWLS log ASCII Standard -VERSION 2.0
 WRAP.                   NO:   One line per depth step
~Well Information Block
#MNEM.UNIT     VALUE/NAME     DESCRIPTION
#---------     -----------    ---------------------------
 STRT.S             12:47:54 19-Jul-21: START TIME 12:47:54 19-Jul-21
 STOP.S             12:54:48 19-Jul-21: STOP TIME  12:54:48 19-Jul-21
 STEP.S                   0.00: STEP TIME
 NULL.                 -999.25: NULL VALUE
 MDS .        Operator Entered:  MAG DATA SOURCE
 PDAT.          Mean Sea Level:  PERMANENT DATUM
 UNIT.                     N/A:  LOGGING EQUIPMENT ID
 DCON.         Sperry Drilling:  DIRECTNL CONTR
 DOE .                     N/A:  DOE NUMBER
 RIG .              West Azeri:  RIG NAME
 JOBN.        AZ-XX-0906997913:  JOB TICKET NUMB
 WELL.                     C41:  WELL NAME
 MWDS.                    Baku:  MWD SHOP
 SRVC.          Turan Drilling:  CONTRACTOR
 FLD .                     ACG:  FIELD NAME
 CTRY.              Azerbaijan:  COUNTRY NAME
 PROV.                    Baku:  PROVINCE
 STAT.                    Baku:  STATE NAME
 REGN.                   EESSA:  REGION
 BASE.              Azerbaijan:  LOGGING EQUIPMENT BASE LOCATION
 UWI .                     N/A:  UNIQUE WELL IDENTIFIER
 API .                     N/A:  API NUMBER
 COMP.     BP Exploration (Caspian Sea) Ltd.:  COMPANY
 WTYP.                Deviated:  WELL TYPE
 SON .        AZ-XX-0906997913:  JOB NUMBER
 FTOP.          Formation Tops:  FORM TOPS DESC
 ILTD.               Lithology:  INTERP LTH DESC
 SVYD.                  Survey:  SURVEY DESC
 DMOD.             Drill Model:  DRILL MOD DESC
 HPTY.       Minimum Curvature:  HOLE POS TYPE
 NREF.                    Grid:  NORTH REFERENCE
 SPUD.               16-May-21:  SPUD DATE
 DATE.      21.11.28 17-May-21:  END TIME
 STIM.      21.11.28 17-May-21:  START TIME
 DMF .             Drill Floor:  DRILL MEAS FROM
 DFST.                        :  DIST FSL TEXT
 DFWT.                        :  DIST FWL TEXT
 CNTY.                        :  COUNTY
 LOC .                        :  LOCATION
 LMF .             Drill Floor:  LOG MEASURED FROM
 AGAP.m                  43.42:  AIR GAP
 VSNS.m                  -2.16:  VERT SEC N/S
 VSEW.m                  -6.24:  VERT SEC E/W
 APD .m                  43.42:  DEPTH ABOVE PD
 WDMS.m                 118.27:  WD ELEV
 EGL .m                   0.00:  GROUND ELEVATION
 EPD .m                   0.00:  ELEVATION
 AZTC.deg                 6.29:  AZM TOTAL CORR
 GRDC.deg                 0.18:  GRID CORRECTION
 MDEC.deg                 6.47:  MAGNETIC DECL
 MDIP.deg                59.54:  MAGNETIC DIP
 MFLD.nT              50337.00:  MAGNETIC FIELD
 GVFD.g                   1.00:  GRAVITY FIELD
 VSDR.deg               226.99:  VERT SEC DIRECT
 TDD .m                   0.00:  TOTAL DEPTH (DRILLER)
 SDEP.m                 448.00:  START DEPTH
 DFSL.m                   0.00:  DISTANCE FSL
 DFWL.m                   0.00:  DISTANCE FWL
 UTMY.m             4435799.96:  UTM Y
 UTMX.m              526265.35:  UTM X
 WHEW.m                  -6.24:  WELL HEAD E/W
 WHNS.m                  -2.16:  WELL HEAD N/S
 LONG.deg                51.31:  LONGITUDE
 LATI.deg                40.06:  LATITUDE
 TVDS.m                  43.42:  TVDSS CORRECTN
 EKB .m                  43.42:  KB ELEVATION
 EDF .m                  43.42:  DF ELEVATION
 TDL .m                 288.00:  TOTAL DEPTH (LOGGER)
 MAGU.                 1851863:  MAGUTM CHECKSUM
 VSC .                       0:  VS TO CLOSURE
~Parameter Information Block
#MNEM.UNIT       Value        Description
#---------     -----------    ---------------------------
 AV  .mps                 0.40:  Ann Velocity 
 AVMX.mps                 0.63:  Max Ann Veloc 
 AZIF.deg               158.76:  Azm, Final 
 BHAT.        Rotary Steerable:  BHA Type 
 BROT.°/30m               0.68:  Build Rotating 
 BS  .in                  8.50:  Bit Size 
 BSZ .in                  8.50:  Bit Size 
 BTPL.psig              712.00:  Bit Press Loss 
 CABU.                      No:  Customer Abuse 
 TCS .hr                 90.66:  Time Ciculation Ended 
 CV  .mps                 2.02:  Crit Velocity 
 CVMX.mps                 2.14:  Max Crit Veloc 
 DD1 .            Aziz Aliyevu:  Direct Drillr 1 
 DD2 .             Samir Abbas:  Direct Drillr 2 
 DD3 .           Teymur Aliyev:  Direct Drillr 3 
 DDSV.                 iCruise:  DD Service 
 DEFF.%                  85.10:  % Det Eff 
 DLRX.°/30m               1.05:  Dogleg Rot Max 
 DLSO.°/30m               1.01:  Dogleg Oriented 
 DLSX.°/30m               1.05:  Dogleg Str Max 
 DRET.      07.45.00 18-Jul-21:  Drill End Time 
 DRST.      15.00.00 16-Jul-21:  Drill Start Tim 
 DTIM.hr                 23.46:  Time Drilling 
 EDEP.m                4603.00:  End Depth 
 ENG1.       Seymur Iskandarov:  Engineer 1 
 ENG2.         Yevgeniy Ulikov:  Engineer 2 
 ENG3.         Bahruz Mehdiyev:  Engineer 3 
 ENG4.         Elchin Mammadov:  Engineer 4 
 ETIM.      14.00.00 23-Jul-21:  End Time 
 FLOI.gpm               500.00:  Flow In 
 FLON.gpm               450.00:  Flow In Min 
 FLOS.cptm                0.00:  Fluid Loss 
 FLOX.gpm               560.00:  Flow In Max 
 DFT .        Mineral Oil Base:  Mud Type 
 FTRO.       Formation Presure:  FTWD Run Obj 
 HFLO.                      No:  High Flow 
 HPRE.                      No:  High Pressure 
 HTEM.                      No:  High Temp 
 HYDO.m                   1.80:  Hydro Offset 
 IFIN.deg                40.22:  Inc, Final 
 IMAX.deg                40.54:  Inc Max 
 IMIN.deg                39.44:  Inc Min 
 IMND.m                4361.17:  Inc Min Depth 
 IMXD.m                4417.92:  Inc Max Depth 
 JARR.                      No:  Jarring 
 LETM.      07.45.00 18-Jul-21:  Log End Time 
 LOST.hr                    16:  Lost Rig Time 
 LSTM.      15.00.00 16-Jul-21:  Log Start Time 
 MDCL.ppm             36500.00:  Mud Chlorides 
 MDES.     Inversion Oil/Synthetic:  Mud Desc 
 DFD .sg                  1.42:  Mud Density 
 MDMN.sg                  1.42:  Dens Mud Min 
 MDMX.sg                  1.43:  Dens Mud Max 
 MOIL.                      56:  Run Mud Oil % 
 MOWR.                   71:29:  Run Mud OWR 
 MSND.                     0.5:  Run Mud Sand % 
 MSOL.                      21:  Run Mud Solids% 
 DFV .spqt               78.00:  Mud Viscosity 
 MWOD.in                  6.75:  MWD Tool OD 
 MWSI.                     Yes:  Serv Intrp, MWD 
 OTIM.hr                200.73:  Time Operating 
 PCON.           Look Like New:  Pad Condition 
 PMAX.psia            11069.93:  Press Op, Max 
 PV  .cP                 32.00:  Mud PV 
 RUN .                     700:  Run Number 
 ROPA.m/hr               10.00:  ROP Avg 
 ROPN.m/hr                9.00:  ROP Min 
 ROPX.m/hr               16.00:  ROP Max 
 RPMA.rpm               116.00:  RPM Surface Avg 
 RPMN.rpm                80.00:  RPM Surface Min 
 RPMX.rpm               120.00:  RPM Surface Max 
 RRUN.                    L605:  Rig Run Number 
 RTIM.hr                 45.00:  Time Reaming 
 SAZI.deg               159.86:  Azm, Start 
 SDEP.m                4315.00:  Start Depth 
 SIDD.                      No:  Serv Intrp, DD 
 SINC.deg                39.86:  Inc, Start 
 SPPA.psig             3300.00:  SPP Avg 
 SPPN.psig             3040.00:  SPP Min 
 SPPX.psig             3645.00:  SPP Max 
 STIM.      01.00.00 15-Jul-21:  Start Time 
 SVCS.                 DD, MWD:  Services 
 SVER.                    9.20:  Sperry Version 
 TDAT.m                 288.00:  Tot Depth Attmp 
 TDDF.                      No:  Trip for DD 
 TDLG.m                 288.00:  Tot Depth Loggd 
 TFF .                      No:  Trip for Fail 
 TQAA.f-kp               19.00:  Torque Abs Avg 
 TQAN.f-kp               18.00:  Torque Abs Min 
 TQAX.f-kp               21.00:  Torque Abs Max 
 TRRT.°/30m               0.45:  Turn Rotating 
 MRT .                    HCIM:  Maximum Recorded Temperature 
 TTMX.degC               88.24:  Max Tool Temp 
 VS01.                90649157:  Virtual Str1 SN 
 VS02.                90652483:  Virtual Str2 SN 
 VS03.                11671987:  Virtual Str3 SN 
 VS04.                90643411:  Virtual Str4 SN 
 VS05.                90652478:  Virtual Str5 SN 
 VS06.                    6111:  Virtual Str6 SN 
 WBMN.klb                 9.50:  WOB Min 
 WITN.        Grigoriy Sarayev:  Customer Rep 
 WITN.          Rufat Huseynov:  Customer Rep 2 
 WOBA.klb                11.00:  WOB Avg 
 WOBX.klb                15.00:  WOB Max 
 YP  .lhf2               28.00:  Yield Point 
~Curve Information Block
#MNEM.UNIT                 API CODE     Curve Description
#---------               -----------    ---------------------------
 TIME.HHMMSS            00 000 000 000:  GT Time & Date
 GTDEPTH.m              00 000 000 000:  GT Depth
 GTPQH.psia             00 000 000 000:  GT HR Quartz Pressure
 GTTQ.degC              00 000 000 000:  GT Quartz Temperature
 GTTN.NONE              00 000 000 000:  GT Test Number
 GTET.sec               00 000 000 000:  GT Elapsed Test Time
 GTTVD.m                00 000 000 000:  GT True Vertical Depth
#Other Information
#
#WARRANTY: Halliburton will use its best efforts to furnish customers with 
#accurate information and interpretations that are part of, and incident to, the services 
#provided.  However, Halliburton cannot and does not warrant the accuracy 
#or correctness of such information and interpretations.  Under no circumstances should any 
#such information or interpretation be relied upon as the sole basis for any drilling, 
#completion, production, or financial decision or any procedure involving any risk to the 
#safety of any drilling venture, drilling rig or its crew or any other third party.  The 
#Customer has full responsibility for all drilling, completion and production operation.  
#Halliburton makes no representations or warranties, either expressed or 
#implied, including, but not limited to, the implied warranties of merchantability or fitness 
#for a particular purpose, with respect to the services rendered.  In no event will 
#Halliburton be liable for failure to obtain any particular results or for 
#any damages, including, but not limited to, indirect, special or consequential damages, 
#resulting from the use of any information or interpretation provided by Halliburton.
#
~A           TIME           GTDEPTH  GTPQH  GTTQ  GTTN   GTET   GTTVD  
# ...
   12:53:56.673.19-Jul-2021 4545.00 6665.60 71.07 27.00 361.73 2734.68
   12:53:56.873.19-Jul-2021 4545.00 6655.27 71.08 27.00 361.93 2734.68
   12:53:57.073.19-Jul-2021 4545.00 6654.02 71.08 27.00 362.13 2734.68
   12:53:57.273.19-Jul-2021 4545.00 6654.02 71.08 27.00 362.33 2734.68
   12:53:57.473.19-Jul-2021 4545.00 6651.08 71.08 27.00 362.53 2734.68
   12:53:57.673.19-Jul-2021 4545.00 6650.39 71.08 27.00 362.73 2734.68
   12:53:57.873.19-Jul-2021 4545.00 6650.25 71.08 27.00 362.93 2734.68
   12:53:58.073.19-Jul-2021 4545.00 6650.08 71.08 27.00 363.13 2734.68
   12:53:58.273.19-Jul-2021 4545.00 6650.08 71.08 27.00 363.33 2734.68
   12:53:58.474.19-Jul-2021 4545.00 6650.85 71.09 27.00 363.53 2734.68
   12:53:58.674.19-Jul-2021 4545.00 6650.54 71.09 27.00 363.73 2734.68
   12:53:58.874.19-Jul-2021 4545.00 6647.58 71.09 27.00 363.93 2734.68
   12:53:59.074.19-Jul-2021 4545.00 6668.51 71.09 27.00 364.13 2734.68
   12:53:59.274.19-Jul-2021 4545.00 6668.51 71.09 27.00 364.33 2734.68
   12:53:59.474.19-Jul-2021 4545.00 6647.46 71.09 27.00 364.53 2734.68
   12:53:59.674.19-Jul-2021 4545.00 6678.55 71.09 27.00 364.73 2734.68
   12:53:59.874.19-Jul-2021 4545.00 6657.92 71.10 27.00 364.93 2734.68
   12:54:00.074.19-Jul-2021 4545.00 6651.00 71.10 27.00 365.13 2734.68
   12:54:00.274.19-Jul-2021 4545.00 6651.00 71.10 27.00 365.33 2734.68
   12:54:00.474.19-Jul-2021 4545.00 6653.62 71.10 27.00 365.53 2734.68
   12:54:00.674.19-Jul-2021 4545.00 6675.29 71.10 27.00 365.73 2734.68
   12:54:00.874.19-Jul-2021 4545.00 6653.10 71.10 27.00 365.93 2734.68
   12:54:01.074.19-Jul-2021 4545.00 6651.39 71.10 27.00 366.13 2734.68
   12:54:01.275.19-Jul-2021 4545.00 6651.39 71.10 27.00 366.33 2734.68
   12:54:01.475.19-Jul-2021 4545.00 6654.14 71.10 27.00 366.53 2734.68
   12:54:01.675.19-Jul-2021 4545.00 6668.86 71.10 27.00 366.74 2734.68
   12:54:01.875.19-Jul-2021 4545.00 6659.64 71.10 27.00 366.94 2734.68
   12:54:02.075.19-Jul-2021 4545.00 6653.79 71.10 27.00 367.14 2734.68
   12:54:02.275.19-Jul-2021 4545.00 6653.79 71.10 27.00 367.34 2734.68
   12:54:02.475.19-Jul-2021 4545.00 6674.29 71.11 27.00 367.54 2734.68
   12:54:02.675.19-Jul-2021 4545.00 6658.00 71.11 27.00 367.74 2734.68
   12:54:02.875.19-Jul-2021 4545.00 6652.34 71.11 27.00 367.94 2734.68
   12:54:03.075.19-Jul-2021 4545.00 6656.30 71.11 27.00 368.14 2734.68
   12:54:03.275.19-Jul-2021 4545.00 6656.30 71.11 27.00 368.34 2734.68
   12:54:03.475.19-Jul-2021 4545.00 6651.94 71.11 27.00 368.54 2734.68
   12:54:03.675.19-Jul-2021 4545.00 6652.07 71.11 27.00 368.74 2734.68
   12:54:03.875.19-Jul-2021 4545.00 6652.65 71.11 27.00 368.94 2734.68
   12:54:04.076.19-Jul-2021 4545.00 6652.80 71.11 27.00 369.14 2734.68
   12:54:04.276.19-Jul-2021 4545.00 6652.80 71.11 27.00 369.34 2734.68
   12:54:04.476.19-Jul-2021 4545.00 6651.73 71.11 27.00 369.54 2734.68
   12:54:04.676.19-Jul-2021 4545.00 6652.87 71.11 27.00 369.74 2734.68
   12:54:04.876.19-Jul-2021 4545.00 6653.13 71.11 27.00 369.94 2734.68
   12:54:05.076.19-Jul-2021 4545.00 6651.55 71.11 27.00 370.14 2734.68
   12:54:05.276.19-Jul-2021 4545.00 6651.55 71.11 27.00 370.34 2734.68
   12:54:05.476.19-Jul-2021 4545.00 6670.72 71.11 27.00 370.54 2734.68
   12:54:05.676.19-Jul-2021 4545.00 6659.86 71.11 27.00 370.74 2734.68
   12:54:05.876.19-Jul-2021 4545.00 6653.12 71.11 27.00 370.94 2734.68
   12:54:06.076.19-Jul-2021 4545.00 6656.71 71.11 27.00 371.14 2734.68
   12:54:06.276.19-Jul-2021 4545.00 6656.71 71.11 27.00 371.34 2734.68
   12:54:06.476.19-Jul-2021 4545.00 6650.33 71.11 27.00 371.54 2734.68
   12:54:06.677.19-Jul-2021 4545.00 6651.20 71.11 27.00 371.74 2734.68
   12:54:06.877.19-Jul-2021 4545.00 6651.76 71.11 27.00 371.94 2734.68
   12:54:07.077.19-Jul-2021 4545.00 6651.59 71.11 27.00 372.14 2734.68
   12:54:07.277.19-Jul-2021 4545.00 6651.59 71.11 27.00 372.34 2734.68
   12:54:07.477.19-Jul-2021 4545.00 6653.21 71.11 27.00 372.54 2734.68
   12:54:07.677.19-Jul-2021 4545.00 6650.80 71.12 27.00 372.74 2734.68
   12:54:07.877.19-Jul-2021 4545.00 6649.53 71.12 27.00 372.94 2734.68
   12:54:08.077.19-Jul-2021 4545.00 6672.33 71.12 27.00 373.14 2734.68
   12:54:08.277.19-Jul-2021 4545.00 6672.33 71.12 27.00 373.34 2734.68
   12:54:08.477.19-Jul-2021 4545.00 6660.51 71.12 27.00 373.54 2734.68
   12:54:08.677.19-Jul-2021 4545.00 6671.02 71.12 27.00 373.74 2734.68
   12:54:08.877.19-Jul-2021 4545.00 6656.93 71.12 27.00 373.94 2734.68
   12:54:09.077.19-Jul-2021 4545.00 6681.76 71.12 27.00 374.14 2734.68
   12:54:09.277.19-Jul-2021 4545.00 6681.76 71.12 27.00 374.34 2734.68
   12:54:09.478.19-Jul-2021 4545.00 6647.79 71.12 27.00 374.54 2734.68
   12:54:09.678.19-Jul-2021 4545.00 6675.87 71.12 27.00 374.74 2734.68
   12:54:09.878.19-Jul-2021 4545.00 6667.60 71.12 27.00 374.94 2734.68
   12:54:10.078.19-Jul-2021 4545.00 6656.50 71.12 27.00 375.14 2734.68
   12:54:10.278.19-Jul-2021 4545.00 6656.50 71.12 27.00 375.34 2734.68
   12:54:10.478.19-Jul-2021 4545.00 6673.22 71.12 27.00 375.54 2734.68
   12:54:10.678.19-Jul-2021 4545.00 6660.88 71.12 27.00 375.74 2734.68
   12:54:10.878.19-Jul-2021 4545.00 6654.47 71.12 27.00 375.94 2734.68
   12:54:11.078.19-Jul-2021 4545.00 6659.63 71.12 27.00 376.14 2734.68
   12:54:11.278.19-Jul-2021 4545.00 6659.63 71.12 27.00 376.34 2734.68
   12:54:11.478.19-Jul-2021 4545.00 6652.14 71.12 27.00 376.54 2734.68
   12:54:11.678.19-Jul-2021 4545.00 6654.10 71.12 27.00 376.74 2734.68
   12:54:11.878.19-Jul-2021 4545.00 6654.82 71.12 27.00 376.94 2734.68
   12:54:12.079.19-Jul-2021 4545.00 6653.66 71.12 27.00 377.14 2734.68
   12:54:12.279.19-Jul-2021 4545.00 6653.66 71.12 27.00 377.34 2734.68
   12:54:12.479.19-Jul-2021 4545.00 6652.98 71.12 27.00 377.54 2734.68
   12:54:12.679.19-Jul-2021 4545.00 6652.68 71.12 27.00 377.74 2734.68
   12:54:12.879.19-Jul-2021 4545.00 6651.75 71.12 27.00 377.94 2734.68
   12:54:13.079.19-Jul-2021 4545.00 6651.18 71.12 27.00 378.14 2734.68
   12:54:13.279.19-Jul-2021 4545.00 6651.18 71.12 27.00 378.34 2734.68
   12:54:13.479.19-Jul-2021 4545.00 6659.23 71.12 27.00 378.54 2734.68
   12:54:13.679.19-Jul-2021 4545.00 6653.25 71.12 27.00 378.74 2734.68
   12:54:13.879.19-Jul-2021 4545.00 6654.59 71.12 27.00 378.94 2734.68
   12:54:14.079.19-Jul-2021 4545.00 6653.48 71.12 27.00 379.14 2734.68
   12:54:14.279.19-Jul-2021 4545.00 6653.48 71.12 27.00 379.34 2734.68
   12:54:14.479.19-Jul-2021 4545.00 6649.53 71.12 27.00 379.54 2734.68
   12:54:14.679.19-Jul-2021 4545.00 6650.55 71.12 27.00 379.74 2734.68
   12:54:14.880.19-Jul-2021 4545.00 6650.41 71.12 27.00 379.94 2734.68
   12:54:15.080.19-Jul-2021 4545.00 6650.20 71.12 27.00 380.14 2734.68
   12:54:15.280.19-Jul-2021 4545.00 6650.20 71.12 27.00 380.34 2734.68
   12:54:15.480.19-Jul-2021 4545.00 6650.95 71.12 27.00 380.54 2734.68
   12:54:15.680.19-Jul-2021 4545.00 6651.19 71.12 27.00 380.74 2734.68
   12:54:15.880.19-Jul-2021 4545.00 6671.67 71.12 27.00 380.94 2734.68
   12:54:16.080.19-Jul-2021 4545.00 6660.32 71.12 27.00 381.14 2734.68
   12:54:16.280.19-Jul-2021 4545.00 6660.32 71.12 27.00 381.34 2734.68
   12:54:16.480.19-Jul-2021 4545.00 6683.22 71.12 27.00 381.54 2734.68
   12:54:16.680.19-Jul-2021 4545.00 6658.60 71.12 27.00 381.74 2734.68
   12:54:16.880.19-Jul-2021 4545.00 6649.53 71.12 27.00 381.94 2734.68
   12:54:17.080.19-Jul-2021 4545.00 6675.48 71.12 27.00 382.14 2734.68
   12:54:17.280.19-Jul-2021 4545.00 6675.48 71.12 27.00 382.34 2734.68
   12:54:17.481.19-Jul-2021 4545.00 6652.10 71.12 27.00 382.54 2734.68
   12:54:17.681.19-Jul-2021 4545.00 6673.87 71.12 27.00 382.74 2734.68
   12:54:17.881.19-Jul-2021 4545.00 6663.80 71.12 27.00 382.94 2734.68
   12:54:18.081.19-Jul-2021 4545.00 6651.42 71.12 27.00 383.14 2734.68
   12:54:18.281.19-Jul-2021 4545.00 6651.42 71.12 27.00 383.34 2734.68
   12:54:18.481.19-Jul-2021 4545.00 6663.86 71.12 27.00 383.54 2734.68
   12:54:18.681.19-Jul-2021 4545.00 6652.50 71.12 27.00 383.74 2734.68
   12:54:18.881.19-Jul-2021 4545.00 6658.35 71.12 27.00 383.94 2734.68
   12:54:19.081.19-Jul-2021 4545.00 6653.71 71.12 27.00 384.14 2734.68
