~Version Information
 VERS.                  2.0:   CWLS log ASCII Standard -VERSION 2.0
 WRAP.                   NO:   One line per depth step
~Well Information Block
#MNEM.UNIT     VALUE/NAME     DESCRIPTION
#---------     -----------    ---------------------------
 STRT.S             09:47:45 19-Jul-21: START TIME 09:47:45 19-Jul-21
 STOP.S             09:54:40 19-Jul-21: STOP TIME  09:54:40 19-Jul-21
 STEP.S                   0.00: STEP TIME
 NULL.                 -999.25: NULL VALUE
 MDS .        Operator Entered:  MAG DATA SOURCE
 PDAT.          Mean Sea Level:  PERMANENT DATUM
 UNIT.                     N/A:  LOGGING EQUIPMENT ID
 DCON.         Sperry Drilling:  DIRECTNL CONTR
 DOE .                     N/A:  DOE NUMBER
 RIG .              West Azeri:  RIG NAME
 JOBN.        AZ-XX-0906997913:  JOB TICKET NUMB
 WELL.                     C41:  WELL NAME
 MWDS.                    Baku:  MWD SHOP
 SRVC.          Turan Drilling:  CONTRACTOR
 FLD .                     ACG:  FIELD NAME
 CTRY.              Azerbaijan:  COUNTRY NAME
 PROV.                    Baku:  PROVINCE
 STAT.                    Baku:  STATE NAME
 REGN.                   EESSA:  REGION
 BASE.              Azerbaijan:  LOGGING EQUIPMENT BASE LOCATION
 UWI .                     N/A:  UNIQUE WELL IDENTIFIER
 API .                     N/A:  API NUMBER
 COMP.     BP Exploration (Caspian Sea) Ltd.:  COMPANY
 WTYP.                Deviated:  WELL TYPE
 SON .        AZ-XX-0906997913:  JOB NUMBER
 FTOP.          Formation Tops:  FORM TOPS DESC
 ILTD.               Lithology:  INTERP LTH DESC
 SVYD.                  Survey:  SURVEY DESC
 DMOD.             Drill Model:  DRILL MOD DESC
 HPTY.       Minimum Curvature:  HOLE POS TYPE
 NREF.                    Grid:  NORTH REFERENCE
 SPUD.               16-May-21:  SPUD DATE
 DATE.      21.11.28 17-May-21:  END TIME
 STIM.      21.11.28 17-May-21:  START TIME
 DMF .             Drill Floor:  DRILL MEAS FROM
 DFST.                        :  DIST FSL TEXT
 DFWT.                        :  DIST FWL TEXT
 CNTY.                        :  COUNTY
 LOC .                        :  LOCATION
 LMF .             Drill Floor:  LOG MEASURED FROM
 AGAP.m                  43.42:  AIR GAP
 VSNS.m                  -2.16:  VERT SEC N/S
 VSEW.m                  -6.24:  VERT SEC E/W
 APD .m                  43.42:  DEPTH ABOVE PD
 WDMS.m                 118.27:  WD ELEV
 EGL .m                   0.00:  GROUND ELEVATION
 EPD .m                   0.00:  ELEVATION
 AZTC.deg                 6.29:  AZM TOTAL CORR
 GRDC.deg                 0.18:  GRID CORRECTION
 MDEC.deg                 6.47:  MAGNETIC DECL
 MDIP.deg                59.54:  MAGNETIC DIP
 MFLD.nT              50337.00:  MAGNETIC FIELD
 GVFD.g                   1.00:  GRAVITY FIELD
 VSDR.deg               226.99:  VERT SEC DIRECT
 TDD .m                   0.00:  TOTAL DEPTH (DRILLER)
 SDEP.m                 448.00:  START DEPTH
 DFSL.m                   0.00:  DISTANCE FSL
 DFWL.m                   0.00:  DISTANCE FWL
 UTMY.m             4435799.96:  UTM Y
 UTMX.m              526265.35:  UTM X
 WHEW.m                  -6.24:  WELL HEAD E/W
 WHNS.m                  -2.16:  WELL HEAD N/S
 LONG.deg                51.31:  LONGITUDE
 LATI.deg                40.06:  LATITUDE
 TVDS.m                  43.42:  TVDSS CORRECTN
 EKB .m                  43.42:  KB ELEVATION
 EDF .m                  43.42:  DF ELEVATION
 TDL .m                 288.00:  TOTAL DEPTH (LOGGER)
 MAGU.                 1851863:  MAGUTM CHECKSUM
 VSC .                       0:  VS TO CLOSURE
~Parameter Information Block
#MNEM.UNIT       Value        Description
#---------     -----------    ---------------------------
 AV  .mps                 0.40:  Ann Velocity 
 AVMX.mps                 0.63:  Max Ann Veloc 
 AZIF.deg               158.76:  Azm, Final 
 BHAT.        Rotary Steerable:  BHA Type 
 BROT.°/30m               0.68:  Build Rotating 
 BS  .in                  8.50:  Bit Size 
 BSZ .in                  8.50:  Bit Size 
 BTPL.psig              712.00:  Bit Press Loss 
 CABU.                      No:  Customer Abuse 
 COMM.                     ”k:  Run Comments 1 
 TCS .hr                 90.66:  Time Ciculation Ended 
 CV  .mps                 2.02:  Crit Velocity 
 CVMX.mps                 2.14:  Max Crit Veloc 
 DD1 .            Aziz Aliyevu:  Direct Drillr 1 
 DD2 .             Samir Abbas:  Direct Drillr 2 
 DD3 .           Teymur Aliyev:  Direct Drillr 3 
 DDSV.                 iCruise:  DD Service 
 DEFF.%                  85.10:  % Det Eff 
 DLRX.°/30m               1.05:  Dogleg Rot Max 
 DLSO.°/30m               1.01:  Dogleg Oriented 
 DLSX.°/30m               1.05:  Dogleg Str Max 
 DRET.      07.45.00 18-Jul-21:  Drill End Time 
 DRST.      15.00.00 16-Jul-21:  Drill Start Tim 
 DTIM.hr                 23.46:  Time Drilling 
 EDEP.m                4603.00:  End Depth 
 ENG1.       Seymur Iskandarov:  Engineer 1 
 ENG2.         Yevgeniy Ulikov:  Engineer 2 
 ENG3.         Bahruz Mehdiyev:  Engineer 3 
 ENG4.         Elchin Mammadov:  Engineer 4 
 ETIM.      14.00.00 23-Jul-21:  End Time 
 FLOI.gpm               500.00:  Flow In 
 FLON.gpm               450.00:  Flow In Min 
 FLOS.cptm                0.00:  Fluid Loss 
 FLOX.gpm               560.00:  Flow In Max 
 DFT .        Mineral Oil Base:  Mud Type 
 FTRO.       Formation Presure:  FTWD Run Obj 
 HFLO.                      No:  High Flow 
 HPRE.                      No:  High Pressure 
 HTEM.                      No:  High Temp 
 HYDO.m                   1.80:  Hydro Offset 
 IFIN.deg                40.22:  Inc, Final 
 IMAX.deg                40.54:  Inc Max 
 IMIN.deg                39.44:  Inc Min 
 IMND.m                4361.17:  Inc Min Depth 
 IMXD.m                4417.92:  Inc Max Depth 
 JARR.                      No:  Jarring 
 LETM.      07.45.00 18-Jul-21:  Log End Time 
 LOST.hr                    16:  Lost Rig Time 
 LSTM.      15.00.00 16-Jul-21:  Log Start Time 
 MDCL.ppm             36500.00:  Mud Chlorides 
 MDES.     Inversion Oil/Synthetic:  Mud Desc 
 DFD .sg                  1.42:  Mud Density 
 MDMN.sg                  1.42:  Dens Mud Min 
 MDMX.sg                  1.43:  Dens Mud Max 
 MOIL.                      56:  Run Mud Oil % 
 MOWR.                   71:29:  Run Mud OWR 
 MSND.                     0.5:  Run Mud Sand % 
 MSOL.                      21:  Run Mud Solids% 
 DFV .spqt               78.00:  Mud Viscosity 
 MWOD.in                  6.75:  MWD Tool OD 
 MWSI.                     Yes:  Serv Intrp, MWD 
 OTIM.hr                200.73:  Time Operating 
 PCON.           Look Like New:  Pad Condition 
 PMAX.psia            11069.93:  Press Op, Max 
 PV  .cP                 32.00:  Mud PV 
 RUN .                     700:  Run Number 
 ROPA.m/hr               10.00:  ROP Avg 
 ROPN.m/hr                9.00:  ROP Min 
 ROPX.m/hr               16.00:  ROP Max 
 RPMA.rpm               116.00:  RPM Surface Avg 
 RPMN.rpm                80.00:  RPM Surface Min 
 RPMX.rpm               120.00:  RPM Surface Max 
 RRUN.                    L605:  Rig Run Number 
 RTIM.hr                 45.00:  Time Reaming 
 SAZI.deg               159.86:  Azm, Start 
 SDEP.m                4315.00:  Start Depth 
 SIDD.                      No:  Serv Intrp, DD 
 SINC.deg                39.86:  Inc, Start 
 SPPA.psig             3300.00:  SPP Avg 
 SPPN.psig             3040.00:  SPP Min 
 SPPX.psig             3645.00:  SPP Max 
 STIM.      01.00.00 15-Jul-21:  Start Time 
 SVCS.                 DD, MWD:  Services 
 SVER.                    9.20:  Sperry Version 
 TDAT.m                 288.00:  Tot Depth Attmp 
 TDDF.                      No:  Trip for DD 
 TDLG.m                 288.00:  Tot Depth Loggd 
 TFF .                      No:  Trip for Fail 
 TQAA.f-kp               19.00:  Torque Abs Avg 
 TQAN.f-kp               18.00:  Torque Abs Min 
 TQAX.f-kp               21.00:  Torque Abs Max 
 TRRT.°/30m               0.45:  Turn Rotating 
 MRT .                    HCIM:  Maximum Recorded Temperature 
 TTMX.degC               88.24:  Max Tool Temp 
 VS01.                90649157:  Virtual Str1 SN 
 VS02.                90652483:  Virtual Str2 SN 
 VS03.                11671987:  Virtual Str3 SN 
 VS04.                90643411:  Virtual Str4 SN 
 VS05.                90652478:  Virtual Str5 SN 
 VS06.                    6111:  Virtual Str6 SN 
 WBMN.klb                 9.50:  WOB Min 
 WITN.        Grigoriy Sarayev:  Customer Rep 
 WITN.          Rufat Huseynov:  Customer Rep 2 
 WOBA.klb                11.00:  WOB Avg 
 WOBX.klb                15.00:  WOB Max 
 YP  .lhf2               28.00:  Yield Point 
~Curve Information Block
#MNEM.UNIT                 API CODE     Curve Description
#---------               -----------    ---------------------------
 TIME.HHMMSS            00 000 000 000:  GT Time & Date
 GTDEPTH.m              00 000 000 000:  GT Depth
 GTPQH.psia             00 000 000 000:  GT HR Quartz Pressure
 GTTQ.degC              00 000 000 000:  GT Quartz Temperature
 GTTN.NONE              00 000 000 000:  GT Test Number
 GTET.sec               00 000 000 000:  GT Elapsed Test Time
 GTTVD.m                00 000 000 000:  GT True Vertical Depth
#Other Information
#
#WARRANTY: Halliburton will use its best efforts to furnish customers with 
#accurate information and interpretations that are part of, and incident to, the services 
#provided.  However, Halliburton cannot and does not warrant the accuracy 
#or correctness of such information and interpretations.  Under no circumstances should any 
#such information or interpretation be relied upon as the sole basis for any drilling, 
#completion, production, or financial decision or any procedure involving any risk to the 
#safety of any drilling venture, drilling rig or its crew or any other third party.  The 
#Customer has full responsibility for all drilling, completion and production operation.  
#Halliburton makes no representations or warranties, either expressed or 
#implied, including, but not limited to, the implied warranties of merchantability or fitness 
#for a particular purpose, with respect to the services rendered.  In no event will 
#Halliburton be liable for failure to obtain any particular results or for 
#any damages, including, but not limited to, indirect, special or consequential damages, 
#resulting from the use of any information or interpretation provided by Halliburton.
#
~A           TIME           GTDEPTH  GTPQH  GTTQ  GTTN   GTET   GTTVD  
# ...
   09:51:54.651.19-Jul-2021 4477.00 3534.11 70.45 21.00 248.69 2682.68
   09:51:54.851.19-Jul-2021 4477.00 3534.08 70.45 21.00 248.89 2682.68
   09:51:55.051.19-Jul-2021 4477.00 3534.13 70.45 21.00 249.09 2682.68
   09:51:55.251.19-Jul-2021 4477.00 3534.13 70.45 21.00 249.29 2682.68
   09:51:55.452.19-Jul-2021 4477.00 3534.10 70.45 21.00 249.49 2682.68
   09:51:55.652.19-Jul-2021 4477.00 3534.11 70.45 21.00 249.69 2682.68
   09:51:55.852.19-Jul-2021 4477.00 3534.03 70.45 21.00 249.89 2682.68
   09:51:56.052.19-Jul-2021 4477.00 3534.26 70.45 21.00 250.09 2682.68
   09:51:56.252.19-Jul-2021 4477.00 3534.26 70.45 21.00 250.29 2682.68
   09:51:56.452.19-Jul-2021 4477.00 3514.14 70.45 21.00 250.49 2682.68
   09:51:56.652.19-Jul-2021 4477.00 3502.01 70.45 21.00 250.69 2682.68
   09:51:56.852.19-Jul-2021 4477.00 3500.35 70.45 21.00 250.89 2682.68
   09:51:57.052.19-Jul-2021 4477.00 3501.02 70.45 21.00 251.09 2682.68
   09:51:57.252.19-Jul-2021 4477.00 3501.02 70.45 21.00 251.29 2682.68
   09:51:57.452.19-Jul-2021 4477.00 3501.11 70.45 21.00 251.49 2682.68
   09:51:57.652.19-Jul-2021 4477.00 3501.28 70.45 21.00 251.69 2682.68
   09:51:57.852.19-Jul-2021 4477.00 3500.79 70.45 21.00 251.89 2682.68
   09:51:58.052.19-Jul-2021 4477.00 3500.19 70.45 21.00 252.09 2682.68
   09:51:58.253.19-Jul-2021 4477.00 3500.19 70.45 21.00 252.29 2682.68
   09:51:58.453.19-Jul-2021 4477.00 3499.14 70.45 21.00 252.49 2682.68
   09:51:58.653.19-Jul-2021 4477.00 3500.71 70.45 21.00 252.69 2682.68
   09:51:58.853.19-Jul-2021 4477.00 3501.12 70.45 21.00 252.89 2682.68
   09:51:59.053.19-Jul-2021 4477.00 3500.19 70.45 21.00 253.09 2682.68
   09:51:59.253.19-Jul-2021 4477.00 3500.19 70.45 21.00 253.29 2682.68
   09:51:59.453.19-Jul-2021 4477.00 3500.68 70.45 21.00 253.49 2682.68
   09:51:59.653.19-Jul-2021 4477.00 3500.71 70.45 21.00 253.69 2682.68
   09:51:59.853.19-Jul-2021 4477.00 3500.57 70.45 21.00 253.89 2682.68
   09:52:00.053.19-Jul-2021 4477.00 3500.59 70.45 21.00 254.09 2682.68
   09:52:00.253.19-Jul-2021 4477.00 3500.59 70.45 21.00 254.29 2682.68
   09:52:00.453.19-Jul-2021 4477.00 3500.74 70.45 21.00 254.49 2682.68
   09:52:00.653.19-Jul-2021 4477.00 3500.62 70.45 21.00 254.69 2682.68
   09:52:00.854.19-Jul-2021 4477.00 3500.70 70.45 21.00 254.89 2682.68
   09:52:01.054.19-Jul-2021 4477.00 3500.59 70.45 21.00 255.09 2682.68
   09:52:01.254.19-Jul-2021 4477.00 3500.59 70.45 21.00 255.29 2682.68
   09:52:01.454.19-Jul-2021 4477.00 3500.61 70.45 21.00 255.49 2682.68
   09:52:01.654.19-Jul-2021 4477.00 3499.91 70.45 21.00 255.69 2682.68
   09:52:01.854.19-Jul-2021 4477.00 3501.36 70.45 21.00 255.89 2682.68
   09:52:02.054.19-Jul-2021 4477.00 3499.04 70.45 21.00 256.09 2682.68
   09:52:02.254.19-Jul-2021 4477.00 3499.04 70.45 21.00 256.29 2682.68
   09:52:02.454.19-Jul-2021 4477.00 3501.35 70.45 21.00 256.49 2682.68
   09:52:02.654.19-Jul-2021 4477.00 3501.11 70.45 21.00 256.69 2682.68
   09:52:02.854.19-Jul-2021 4477.00 3500.36 70.45 21.00 256.89 2682.68
   09:52:03.054.19-Jul-2021 4477.00 3500.54 70.45 21.00 257.09 2682.68
   09:52:03.254.19-Jul-2021 4477.00 3500.54 70.45 21.00 257.29 2682.68
   09:52:03.454.19-Jul-2021 4477.00 3500.59 70.45 21.00 257.49 2682.68
   09:52:03.655.19-Jul-2021 4477.00 3500.67 70.45 21.00 257.69 2682.68
   09:52:03.855.19-Jul-2021 4477.00 3500.43 70.45 21.00 257.89 2682.68
   09:52:04.055.19-Jul-2021 4477.00 3500.52 70.45 21.00 258.10 2682.68
   09:52:04.255.19-Jul-2021 4477.00 3500.52 70.45 21.00 258.30 2682.68
   09:52:04.455.19-Jul-2021 4477.00 3500.18 70.45 21.00 258.50 2682.68
   09:52:04.655.19-Jul-2021 4477.00 3500.97 70.45 21.00 258.70 2682.68
   09:52:04.855.19-Jul-2021 4477.00 3500.31 70.45 21.00 258.90 2682.68
   09:52:05.055.19-Jul-2021 4477.00 3500.47 70.45 21.00 259.10 2682.68
   09:52:05.255.19-Jul-2021 4477.00 3500.47 70.45 21.00 259.30 2682.68
   09:52:05.455.19-Jul-2021 4477.00 3500.49 70.45 21.00 259.50 2682.68
   09:52:05.655.19-Jul-2021 4477.00 3500.61 70.45 21.00 259.70 2682.68
   09:52:05.855.19-Jul-2021 4477.00 3501.57 70.45 21.00 259.90 2682.68
   09:52:06.055.19-Jul-2021 4477.00 3498.87 70.45 21.00 260.10 2682.68
   09:52:06.256.19-Jul-2021 4477.00 3498.87 70.45 21.00 260.30 2682.68
   09:52:06.456.19-Jul-2021 4477.00 3508.30 70.45 21.00 260.50 2682.68
   09:52:06.656.19-Jul-2021 4477.00 3532.90 70.45 21.00 260.70 2682.68
   09:52:06.856.19-Jul-2021 4477.00 3533.99 70.45 21.00 260.90 2682.68
   09:52:07.056.19-Jul-2021 4477.00 3533.55 70.45 21.00 261.10 2682.68
   09:52:07.256.19-Jul-2021 4477.00 3533.55 70.45 21.00 261.30 2682.68
   09:52:07.456.19-Jul-2021 4477.00 3533.84 70.45 21.00 261.50 2682.68
   09:52:07.656.19-Jul-2021 4477.00 3533.77 70.45 21.00 261.70 2682.68
   09:52:07.856.19-Jul-2021 4477.00 3534.01 70.45 21.00 261.90 2682.68
   09:52:08.056.19-Jul-2021 4477.00 3533.81 70.45 21.00 262.10 2682.68
   09:52:08.256.19-Jul-2021 4477.00 3533.81 70.45 21.00 262.30 2682.68
   09:52:08.456.19-Jul-2021 4477.00 3533.88 70.45 21.00 262.50 2682.68
   09:52:08.656.19-Jul-2021 4477.00 3533.90 70.45 21.00 262.70 2682.68
   09:52:08.856.19-Jul-2021 4477.00 3533.92 70.45 21.00 262.90 2682.68
   09:52:09.057.19-Jul-2021 4477.00 3533.92 70.45 21.00 263.10 2682.68
   09:52:09.257.19-Jul-2021 4477.00 3533.92 70.45 21.00 263.30 2682.68
   09:52:09.457.19-Jul-2021 4477.00 3533.92 70.45 21.00 263.50 2682.68
   09:52:09.657.19-Jul-2021 4477.00 3533.96 70.45 21.00 263.70 2682.68
   09:52:09.857.19-Jul-2021 4477.00 3533.94 70.45 21.00 263.90 2682.68
   09:52:10.057.19-Jul-2021 4477.00 3533.95 70.45 21.00 264.10 2682.68
   09:52:10.257.19-Jul-2021 4477.00 3533.95 70.45 21.00 264.30 2682.68
   09:52:10.457.19-Jul-2021 4477.00 3534.15 70.45 21.00 264.50 2682.68
   09:52:10.657.19-Jul-2021 4477.00 3533.82 70.45 21.00 264.70 2682.68
   09:52:10.857.19-Jul-2021 4477.00 3533.93 70.45 21.00 264.90 2682.68
   09:52:11.057.19-Jul-2021 4477.00 3534.09 70.45 21.00 265.10 2682.68
   09:52:11.257.19-Jul-2021 4477.00 3534.09 70.45 21.00 265.30 2682.68
   09:52:11.457.19-Jul-2021 4477.00 3533.98 70.45 21.00 265.50 2682.68
   09:52:11.658.19-Jul-2021 4477.00 3534.01 70.45 21.00 265.70 2682.68
   09:52:11.858.19-Jul-2021 4477.00 3533.98 70.45 21.00 265.90 2682.68
   09:52:12.058.19-Jul-2021 4477.00 3534.01 70.45 21.00 266.10 2682.68
   09:52:12.258.19-Jul-2021 4477.00 3534.01 70.45 21.00 266.30 2682.68
   09:52:12.458.19-Jul-2021 4477.00 3534.01 70.45 21.00 266.50 2682.68
   09:52:12.658.19-Jul-2021 4477.00 3534.00 70.45 21.00 266.70 2682.68
   09:52:12.858.19-Jul-2021 4477.00 3534.00 70.45 21.00 266.90 2682.68
   09:52:13.058.19-Jul-2021 4477.00 3533.96 70.45 21.00 267.10 2682.68
   09:52:13.258.19-Jul-2021 4477.00 3533.96 70.45 21.00 267.30 2682.68
   09:52:13.458.19-Jul-2021 4477.00 3533.83 70.45 21.00 267.50 2682.68
   09:52:13.658.19-Jul-2021 4477.00 3534.11 70.45 21.00 267.70 2682.68
   09:52:13.858.19-Jul-2021 4477.00 3534.11 70.45 21.00 267.90 2682.68
   09:52:14.058.19-Jul-2021 4477.00 3534.01 70.45 21.00 268.10 2682.68
   09:52:14.258.19-Jul-2021 4477.00 3534.01 70.45 21.00 268.30 2682.68
   09:52:14.459.19-Jul-2021 4477.00 3534.02 70.45 21.00 268.50 2682.68
   09:52:14.659.19-Jul-2021 4477.00 3534.22 70.45 21.00 268.70 2682.68
   09:52:14.859.19-Jul-2021 4477.00 3533.86 70.45 21.00 268.90 2682.68
   09:52:15.059.19-Jul-2021 4477.00 3534.00 70.45 21.00 269.10 2682.68
   09:52:15.259.19-Jul-2021 4477.00 3534.00 70.45 21.00 269.30 2682.68
   09:52:15.459.19-Jul-2021 4477.00 3533.89 70.45 21.00 269.50 2682.68
   09:52:15.659.19-Jul-2021 4477.00 3533.96 70.45 21.00 269.70 2682.68
   09:52:15.859.19-Jul-2021 4477.00 3534.31 70.45 21.00 269.90 2682.68
   09:52:16.059.19-Jul-2021 4477.00 3533.91 70.45 21.00 270.10 2682.68
   09:52:16.259.19-Jul-2021 4477.00 3533.91 70.45 21.00 270.30 2682.68
   09:52:16.459.19-Jul-2021 4477.00 3534.12 70.45 21.00 270.50 2682.68
   09:52:16.659.19-Jul-2021 4477.00 3534.02 70.45 21.00 270.70 2682.68
   09:52:16.859.19-Jul-2021 4477.00 3534.03 70.45 21.00 270.90 2682.68
   09:52:17.059.19-Jul-2021 4477.00 3534.06 70.45 21.00 271.10 2682.68
