~Version Information
 VERS.                  2.0:   CWLS log ASCII Standard -VERSION 2.0
 WRAP.                   NO:   One line per depth step
~Well Information Block
#MNEM.UNIT     VALUE/NAME     DESCRIPTION
#---------     -----------    ---------------------------
 STRT.S             14:45:19 18-Jul-21: START TIME 14:45:19 18-Jul-21
 STOP.S             14:51:50 18-Jul-21: STOP TIME  14:51:50 18-Jul-21
 STEP.S                   0.00: STEP TIME
 NULL.                 -999.25: NULL VALUE
 MDS .        Operator Entered:  MAG DATA SOURCE
 PDAT.          Mean Sea Level:  PERMANENT DATUM
 UNIT.                     N/A:  LOGGING EQUIPMENT ID
 DCON.         Sperry Drilling:  DIRECTNL CONTR
 DOE .                     N/A:  DOE NUMBER
 RIG .              West Azeri:  RIG NAME
 JOBN.        AZ-XX-0906997913:  JOB TICKET NUMB
 WELL.                     C41:  WELL NAME
 MWDS.                    Baku:  MWD SHOP
 SRVC.          Turan Drilling:  CONTRACTOR
 FLD .                     ACG:  FIELD NAME
 CTRY.              Azerbaijan:  COUNTRY NAME
 PROV.                    Baku:  PROVINCE
 STAT.                    Baku:  STATE NAME
 REGN.                   EESSA:  REGION
 BASE.              Azerbaijan:  LOGGING EQUIPMENT BASE LOCATION
 UWI .                     N/A:  UNIQUE WELL IDENTIFIER
 API .                     N/A:  API NUMBER
 COMP.     BP Exploration (Caspian Sea) Ltd.:  COMPANY
 WTYP.                Deviated:  WELL TYPE
 SON .        AZ-XX-0906997913:  JOB NUMBER
 FTOP.          Formation Tops:  FORM TOPS DESC
 ILTD.               Lithology:  INTERP LTH DESC
 SVYD.                  Survey:  SURVEY DESC
 DMOD.             Drill Model:  DRILL MOD DESC
 HPTY.       Minimum Curvature:  HOLE POS TYPE
 NREF.                    Grid:  NORTH REFERENCE
 SPUD.               16-May-21:  SPUD DATE
 DATE.      21.11.28 17-May-21:  END TIME
 STIM.      21.11.28 17-May-21:  START TIME
 DMF .             Drill Floor:  DRILL MEAS FROM
 DFST.                        :  DIST FSL TEXT
 DFWT.                        :  DIST FWL TEXT
 CNTY.                        :  COUNTY
 LOC .                        :  LOCATION
 LMF .             Drill Floor:  LOG MEASURED FROM
 AGAP.m                  43.42:  AIR GAP
 VSNS.m                  -2.16:  VERT SEC N/S
 VSEW.m                  -6.24:  VERT SEC E/W
 APD .m                  43.42:  DEPTH ABOVE PD
 WDMS.m                 118.27:  WD ELEV
 EGL .m                   0.00:  GROUND ELEVATION
 EPD .m                   0.00:  ELEVATION
 AZTC.deg                 6.29:  AZM TOTAL CORR
 GRDC.deg                 0.18:  GRID CORRECTION
 MDEC.deg                 6.47:  MAGNETIC DECL
 MDIP.deg                59.54:  MAGNETIC DIP
 MFLD.nT              50337.00:  MAGNETIC FIELD
 GVFD.g                   1.00:  GRAVITY FIELD
 VSDR.deg               226.99:  VERT SEC DIRECT
 TDD .m                   0.00:  TOTAL DEPTH (DRILLER)
 SDEP.m                 448.00:  START DEPTH
 DFSL.m                   0.00:  DISTANCE FSL
 DFWL.m                   0.00:  DISTANCE FWL
 UTMY.m             4435799.96:  UTM Y
 UTMX.m              526265.35:  UTM X
 WHEW.m                  -6.24:  WELL HEAD E/W
 WHNS.m                  -2.16:  WELL HEAD N/S
 LONG.deg                51.31:  LONGITUDE
 LATI.deg                40.06:  LATITUDE
 TVDS.m                  43.42:  TVDSS CORRECTN
 EKB .m                  43.42:  KB ELEVATION
 EDF .m                  43.42:  DF ELEVATION
 TDL .m                 288.00:  TOTAL DEPTH (LOGGER)
 MAGU.                 1851863:  MAGUTM CHECKSUM
 VSC .                       0:  VS TO CLOSURE
~Parameter Information Block
#MNEM.UNIT       Value        Description
#---------     -----------    ---------------------------
 AV  .mps                 0.40:  Ann Velocity 
 AVMX.mps                 0.63:  Max Ann Veloc 
 AZIF.deg               158.76:  Azm, Final 
 BHAT.        Rotary Steerable:  BHA Type 
 BROT.°/30m               0.68:  Build Rotating 
 BS  .in                  8.50:  Bit Size 
 BSZ .in                  8.50:  Bit Size 
 BTPL.psig              712.00:  Bit Press Loss 
 CABU.                      No:  Customer Abuse 
 TCS .hr                 90.66:  Time Ciculation Ended 
 CV  .mps                 2.02:  Crit Velocity 
 CVMX.mps                 2.14:  Max Crit Veloc 
 DD1 .            Aziz Aliyevu:  Direct Drillr 1 
 DD2 .             Samir Abbas:  Direct Drillr 2 
 DD3 .           Teymur Aliyev:  Direct Drillr 3 
 DDSV.                 iCruise:  DD Service 
 DEFF.%                  85.10:  % Det Eff 
 DLRX.°/30m               1.05:  Dogleg Rot Max 
 DLSO.°/30m               1.01:  Dogleg Oriented 
 DLSX.°/30m               1.05:  Dogleg Str Max 
 DRET.      07.45.00 18-Jul-21:  Drill End Time 
 DRST.      15.00.00 16-Jul-21:  Drill Start Tim 
 DTIM.hr                 23.46:  Time Drilling 
 EDEP.m                4603.00:  End Depth 
 ENG1.       Seymur Iskandarov:  Engineer 1 
 ENG2.         Yevgeniy Ulikov:  Engineer 2 
 ENG3.         Bahruz Mehdiyev:  Engineer 3 
 ENG4.         Elchin Mammadov:  Engineer 4 
 ETIM.      14.00.00 23-Jul-21:  End Time 
 FLOI.gpm               500.00:  Flow In 
 FLON.gpm               450.00:  Flow In Min 
 FLOS.cptm                0.00:  Fluid Loss 
 FLOX.gpm               560.00:  Flow In Max 
 DFT .        Mineral Oil Base:  Mud Type 
 FTRO.       Formation Presure:  FTWD Run Obj 
 HFLO.                      No:  High Flow 
 HPRE.                      No:  High Pressure 
 HTEM.                      No:  High Temp 
 HYDO.m                   1.80:  Hydro Offset 
 IFIN.deg                40.22:  Inc, Final 
 IMAX.deg                40.54:  Inc Max 
 IMIN.deg                39.44:  Inc Min 
 IMND.m                4361.17:  Inc Min Depth 
 IMXD.m                4417.92:  Inc Max Depth 
 JARR.                      No:  Jarring 
 LETM.      07.45.00 18-Jul-21:  Log End Time 
 LOST.hr                    16:  Lost Rig Time 
 LSTM.      15.00.00 16-Jul-21:  Log Start Time 
 MDCL.ppm             36500.00:  Mud Chlorides 
 MDES.     Inversion Oil/Synthetic:  Mud Desc 
 DFD .sg                  1.42:  Mud Density 
 MDMN.sg                  1.42:  Dens Mud Min 
 MDMX.sg                  1.43:  Dens Mud Max 
 MOIL.                      56:  Run Mud Oil % 
 MOWR.                   71:29:  Run Mud OWR 
 MSND.                     0.5:  Run Mud Sand % 
 MSOL.                      21:  Run Mud Solids% 
 DFV .spqt               78.00:  Mud Viscosity 
 MWOD.in                  6.75:  MWD Tool OD 
 MWSI.                     Yes:  Serv Intrp, MWD 
 OTIM.hr                200.73:  Time Operating 
 PCON.           Look Like New:  Pad Condition 
 PMAX.psia            11069.93:  Press Op, Max 
 PV  .cP                 32.00:  Mud PV 
 RUN .                     700:  Run Number 
 ROPA.m/hr               10.00:  ROP Avg 
 ROPN.m/hr                9.00:  ROP Min 
 ROPX.m/hr               16.00:  ROP Max 
 RPMA.rpm               116.00:  RPM Surface Avg 
 RPMN.rpm                80.00:  RPM Surface Min 
 RPMX.rpm               120.00:  RPM Surface Max 
 RRUN.                    L605:  Rig Run Number 
 RTIM.hr                 45.00:  Time Reaming 
 SAZI.deg               159.86:  Azm, Start 
 SDEP.m                4315.00:  Start Depth 
 SIDD.                      No:  Serv Intrp, DD 
 SINC.deg                39.86:  Inc, Start 
 SPPA.psig             3300.00:  SPP Avg 
 SPPN.psig             3040.00:  SPP Min 
 SPPX.psig             3645.00:  SPP Max 
 STIM.      01.00.00 15-Jul-21:  Start Time 
 SVCS.                 DD, MWD:  Services 
 SVER.                    9.20:  Sperry Version 
 TDAT.m                 288.00:  Tot Depth Attmp 
 TDDF.                      No:  Trip for DD 
 TDLG.m                 288.00:  Tot Depth Loggd 
 TFF .                      No:  Trip for Fail 
 TQAA.f-kp               19.00:  Torque Abs Avg 
 TQAN.f-kp               18.00:  Torque Abs Min 
 TQAX.f-kp               21.00:  Torque Abs Max 
 TRRT.°/30m               0.45:  Turn Rotating 
 MRT .                    HCIM:  Maximum Recorded Temperature 
 TTMX.degC               88.24:  Max Tool Temp 
 VS01.                90649157:  Virtual Str1 SN 
 VS02.                90652483:  Virtual Str2 SN 
 VS03.                11671987:  Virtual Str3 SN 
 VS04.                90643411:  Virtual Str4 SN 
 VS05.                90652478:  Virtual Str5 SN 
 VS06.                    6111:  Virtual Str6 SN 
 WBMN.klb                 9.50:  WOB Min 
 WITN.        Grigoriy Sarayev:  Customer Rep 
 WITN.          Rufat Huseynov:  Customer Rep 2 
 WOBA.klb                11.00:  WOB Avg 
 WOBX.klb                15.00:  WOB Max 
 YP  .lhf2               28.00:  Yield Point 
~Curve Information Block
#MNEM.UNIT                 API CODE     Curve Description
#---------               -----------    ---------------------------
 TIME.HHMMSS            00 000 000 000:  GT Time & Date
 GTDEPTH.m              00 000 000 000:  GT Depth
 GTPQH.psia             00 000 000 000:  GT HR Quartz Pressure
 GTTQ.degC              00 000 000 000:  GT Quartz Temperature
 GTTN.NONE              00 000 000 000:  GT Test Number
 GTET.sec               00 000 000 000:  GT Elapsed Test Time
 GTTVD.m                00 000 000 000:  GT True Vertical Depth
#Other Information
#
#WARRANTY: Halliburton will use its best efforts to furnish customers with 
#accurate information and interpretations that are part of, and incident to, the services 
#provided.  However, Halliburton cannot and does not warrant the accuracy 
#or correctness of such information and interpretations.  Under no circumstances should any 
#such information or interpretation be relied upon as the sole basis for any drilling, 
#completion, production, or financial decision or any procedure involving any risk to the 
#safety of any drilling venture, drilling rig or its crew or any other third party.  The 
#Customer has full responsibility for all drilling, completion and production operation.  
#Halliburton makes no representations or warranties, either expressed or 
#implied, including, but not limited to, the implied warranties of merchantability or fitness 
#for a particular purpose, with respect to the services rendered.  In no event will 
#Halliburton be liable for failure to obtain any particular results or for 
#any damages, including, but not limited to, indirect, special or consequential damages, 
#resulting from the use of any information or interpretation provided by Halliburton.
#
~A           TIME           GTDEPTH  GTPQH  GTTQ  GTTN  GTET   GTTVD  
# ...
   14:50:18.830.18-Jul-2021 4553.00 6617.99 75.27 5.00 299.11 2740.81
   14:50:19.030.18-Jul-2021 4553.00 6617.99 75.27 5.00 299.31 2740.81
   14:50:19.231.18-Jul-2021 4553.00 6617.18 75.27 5.00 299.51 2740.81
   14:50:19.431.18-Jul-2021 4553.00 6617.97 75.27 5.00 299.71 2740.81
   14:50:19.631.18-Jul-2021 4553.00 6617.18 75.27 5.00 299.91 2740.81
   14:50:19.831.18-Jul-2021 4553.00 6617.12 75.27 5.00 300.11 2740.81
   14:50:20.031.18-Jul-2021 4553.00 6617.12 75.27 5.00 300.31 2740.81
   14:50:20.231.18-Jul-2021 4553.00 6617.18 75.27 5.00 300.51 2740.81
   14:50:20.431.18-Jul-2021 4553.00 6617.02 75.27 5.00 300.71 2740.81
   14:50:20.631.18-Jul-2021 4553.00 6617.08 75.27 5.00 300.91 2740.81
   14:50:20.831.18-Jul-2021 4553.00 6617.21 75.27 5.00 301.11 2740.81
   14:50:21.031.18-Jul-2021 4553.00 6617.21 75.27 5.00 301.31 2740.81
   14:50:21.231.18-Jul-2021 4553.00 6616.92 75.27 5.00 301.51 2740.81
   14:50:21.431.18-Jul-2021 4553.00 6616.35 75.27 5.00 301.71 2740.81
   14:50:21.631.18-Jul-2021 4553.00 6617.18 75.27 5.00 301.91 2740.81
   14:50:21.832.18-Jul-2021 4553.00 6617.94 75.27 5.00 302.11 2740.81
   14:50:22.032.18-Jul-2021 4553.00 6617.94 75.27 5.00 302.31 2740.81
   14:50:22.232.18-Jul-2021 4553.00 6617.85 75.27 5.00 302.51 2740.81
   14:50:22.432.18-Jul-2021 4553.00 6617.07 75.27 5.00 302.71 2740.81
   14:50:22.632.18-Jul-2021 4553.00 6616.77 75.27 5.00 302.91 2740.81
   14:50:22.832.18-Jul-2021 4553.00 6616.52 75.27 5.00 303.11 2740.81
   14:50:23.032.18-Jul-2021 4553.00 6616.52 75.27 5.00 303.31 2740.81
   14:50:23.232.18-Jul-2021 4553.00 6616.43 75.27 5.00 303.51 2740.81
   14:50:23.432.18-Jul-2021 4553.00 6616.52 75.27 5.00 303.71 2740.81
   14:50:23.632.18-Jul-2021 4553.00 6616.58 75.27 5.00 303.91 2740.81
   14:50:23.832.18-Jul-2021 4553.00 6616.41 75.27 5.00 304.11 2740.81
   14:50:24.032.18-Jul-2021 4553.00 6616.41 75.27 5.00 304.31 2740.81
   14:50:24.232.18-Jul-2021 4553.00 6615.85 75.27 5.00 304.51 2740.81
   14:50:24.432.18-Jul-2021 4553.00 6618.38 75.27 5.00 304.71 2740.81
   14:50:24.633.18-Jul-2021 4553.00 6616.26 75.27 5.00 304.91 2740.81
   14:50:24.833.18-Jul-2021 4553.00 6617.49 75.27 5.00 305.11 2740.81
   14:50:25.033.18-Jul-2021 4553.00 6617.49 75.27 5.00 305.31 2740.81
   14:50:25.233.18-Jul-2021 4553.00 6616.99 75.27 5.00 305.51 2740.81
   14:50:25.433.18-Jul-2021 4553.00 6617.08 75.27 5.00 305.71 2740.81
   14:50:25.633.18-Jul-2021 4553.00 6615.76 75.27 5.00 305.91 2740.81
   14:50:25.833.18-Jul-2021 4553.00 6618.08 75.27 5.00 306.11 2740.81
   14:50:26.033.18-Jul-2021 4553.00 6618.08 75.27 5.00 306.31 2740.81
   14:50:26.233.18-Jul-2021 4553.00 6617.24 75.27 5.00 306.51 2740.81
   14:50:26.433.18-Jul-2021 4553.00 6617.08 75.27 5.00 306.71 2740.81
   14:50:26.633.18-Jul-2021 4553.00 6616.24 75.27 5.00 306.91 2740.81
   14:50:26.833.18-Jul-2021 4553.00 6617.21 75.27 5.00 307.11 2740.81
   14:50:27.033.18-Jul-2021 4553.00 6617.21 75.27 5.00 307.31 2740.81
   14:50:27.234.18-Jul-2021 4553.00 6617.19 75.27 5.00 307.51 2740.81
   14:50:27.434.18-Jul-2021 4553.00 6617.35 75.27 5.00 307.71 2740.81
   14:50:27.634.18-Jul-2021 4553.00 6616.18 75.27 5.00 307.91 2740.81
   14:50:27.834.18-Jul-2021 4553.00 6618.58 75.27 5.00 308.11 2740.81
   14:50:28.034.18-Jul-2021 4553.00 6618.58 75.27 5.00 308.31 2740.81
   14:50:28.234.18-Jul-2021 4553.00 6617.39 75.27 5.00 308.51 2740.81
   14:50:28.434.18-Jul-2021 4553.00 6617.21 75.27 5.00 308.71 2740.81
   14:50:28.634.18-Jul-2021 4553.00 6616.94 75.27 5.00 308.91 2740.81
   14:50:28.834.18-Jul-2021 4553.00 6616.76 75.27 5.00 309.11 2740.81
   14:50:29.034.18-Jul-2021 4553.00 6616.76 75.27 5.00 309.31 2740.81
   14:50:29.234.18-Jul-2021 4553.00 6616.86 75.27 5.00 309.51 2740.81
   14:50:29.434.18-Jul-2021 4553.00 6616.65 75.27 5.00 309.71 2740.81
   14:50:29.634.18-Jul-2021 4553.00 6616.81 75.27 5.00 309.91 2740.81
   14:50:29.834.18-Jul-2021 4553.00 6616.82 75.27 5.00 310.11 2740.81
   14:50:30.035.18-Jul-2021 4553.00 6616.82 75.27 5.00 310.31 2740.81
   14:50:30.235.18-Jul-2021 4553.00 6616.58 75.27 5.00 310.51 2740.81
   14:50:30.435.18-Jul-2021 4553.00 6615.37 75.27 5.00 310.71 2740.81
   14:50:30.635.18-Jul-2021 4553.00 6618.68 75.27 5.00 310.91 2740.81
   14:50:30.835.18-Jul-2021 4553.00 6617.34 75.27 5.00 311.11 2740.81
   14:50:31.035.18-Jul-2021 4553.00 6617.34 75.27 5.00 311.31 2740.81
   14:50:31.235.18-Jul-2021 4553.00 6617.25 75.27 5.00 311.51 2740.81
   14:50:31.435.18-Jul-2021 4553.00 6616.58 75.27 5.00 311.71 2740.81
   14:50:31.635.18-Jul-2021 4553.00 6616.58 75.27 5.00 311.91 2740.81
   14:50:31.835.18-Jul-2021 4553.00 6616.50 75.27 5.00 312.11 2740.81
   14:50:32.035.18-Jul-2021 4553.00 6616.50 75.27 5.00 312.31 2740.81
   14:50:32.235.18-Jul-2021 4553.00 6616.55 75.27 5.00 312.52 2740.81
   14:50:32.435.18-Jul-2021 4553.00 6616.55 75.27 5.00 312.72 2740.81
   14:50:32.635.18-Jul-2021 4553.00 6616.59 75.27 5.00 312.92 2740.81
   14:50:32.836.18-Jul-2021 4553.00 6616.25 75.27 5.00 313.12 2740.81
   14:50:33.036.18-Jul-2021 4553.00 6616.25 75.27 5.00 313.32 2740.81
   14:50:33.236.18-Jul-2021 4553.00 6617.06 75.27 5.00 313.52 2740.81
   14:50:33.436.18-Jul-2021 4553.00 6617.26 75.27 5.00 313.72 2740.81
   14:50:33.636.18-Jul-2021 4553.00 6614.85 75.27 5.00 313.92 2740.81
   14:50:33.836.18-Jul-2021 4553.00 6619.47 75.27 5.00 314.12 2740.81
   14:50:34.036.18-Jul-2021 4553.00 6619.47 75.27 5.00 314.32 2740.81
   14:50:34.236.18-Jul-2021 4553.00 6617.07 75.27 5.00 314.52 2740.81
   14:50:34.436.18-Jul-2021 4553.00 6616.92 75.27 5.00 314.72 2740.81
   14:50:34.636.18-Jul-2021 4553.00 6615.78 75.27 5.00 314.92 2740.81
   14:50:34.836.18-Jul-2021 4553.00 6618.46 75.27 5.00 315.12 2740.81
   14:50:35.036.18-Jul-2021 4553.00 6618.46 75.27 5.00 315.32 2740.81
   14:50:35.236.18-Jul-2021 4553.00 6617.05 75.27 5.00 315.52 2740.81
   14:50:35.437.18-Jul-2021 4553.00 6616.11 75.27 5.00 315.72 2740.81
   14:50:35.637.18-Jul-2021 4553.00 6615.23 75.27 5.00 315.92 2740.81
   14:50:35.837.18-Jul-2021 4553.00 6618.19 75.27 5.00 316.12 2740.81
   14:50:36.037.18-Jul-2021 4553.00 6618.19 75.27 5.00 316.32 2740.81
   14:50:36.237.18-Jul-2021 4553.00 6617.12 75.27 5.00 316.52 2740.81
   14:50:36.437.18-Jul-2021 4553.00 6615.72 75.27 5.00 316.72 2740.81
   14:50:36.637.18-Jul-2021 4553.00 6617.99 75.27 5.00 316.92 2740.81
   14:50:36.837.18-Jul-2021 4553.00 6616.75 75.27 5.00 317.12 2740.81
   14:50:37.037.18-Jul-2021 4553.00 6616.75 75.27 5.00 317.32 2740.81
   14:50:37.237.18-Jul-2021 4553.00 6616.81 75.27 5.00 317.52 2740.81
   14:50:37.437.18-Jul-2021 4553.00 6616.40 75.27 5.00 317.72 2740.81
   14:50:37.637.18-Jul-2021 4553.00 6616.18 75.27 5.00 317.92 2740.81
   14:50:37.837.18-Jul-2021 4553.00 6616.11 75.27 5.00 318.12 2740.81
   14:50:38.037.18-Jul-2021 4553.00 6616.11 75.27 5.00 318.32 2740.81
   14:50:38.238.18-Jul-2021 4553.00 6615.97 75.27 5.00 318.52 2740.81
   14:50:38.438.18-Jul-2021 4553.00 6615.87 75.27 5.00 318.72 2740.81
   14:50:38.638.18-Jul-2021 4553.00 6616.10 75.27 5.00 318.92 2740.81
   14:50:38.838.18-Jul-2021 4553.00 6616.13 75.27 5.00 319.12 2740.81
   14:50:39.038.18-Jul-2021 4553.00 6616.13 75.27 5.00 319.32 2740.81
   14:50:39.238.18-Jul-2021 4553.00 6614.72 75.27 5.00 319.52 2740.81
   14:50:39.438.18-Jul-2021 4553.00 6617.53 75.27 5.00 319.72 2740.81
   14:50:39.638.18-Jul-2021 4553.00 6616.51 75.27 5.00 319.92 2740.81
   14:50:39.838.18-Jul-2021 4553.00 6616.40 75.27 5.00 320.12 2740.81
   14:50:40.038.18-Jul-2021 4553.00 6616.40 75.27 5.00 320.32 2740.81
   14:50:40.238.18-Jul-2021 4553.00 6615.93 75.27 5.00 320.52 2740.81
   14:50:40.438.18-Jul-2021 4553.00 6615.64 75.27 5.00 320.72 2740.81
   14:50:40.638.18-Jul-2021 4553.00 6615.76 75.27 5.00 320.92 2740.81
   14:50:40.839.18-Jul-2021 4553.00 6615.60 75.27 5.00 321.12 2740.81
   14:50:41.039.18-Jul-2021 4553.00 6615.60 75.27 5.00 321.32 2740.81
   14:50:41.239.18-Jul-2021 4553.00 6615.62 75.27 5.00 321.52 2740.81
   14:50:41.439.18-Jul-2021 4553.00 6615.79 75.27 5.00 321.72 2740.81
   14:50:41.639.18-Jul-2021 4553.00 6615.72 75.27 5.00 321.92 2740.81
