~Version Information
 VERS.                  2.0:   CWLS log ASCII Standard -VERSION 2.0
 WRAP.                   NO:   One line per depth step
~Well Information Block
#MNEM.UNIT     VALUE/NAME     DESCRIPTION
#---------     -----------    ---------------------------
 STRT.S             09:24:43 19-Jul-21: START TIME 09:24:43 19-Jul-21
 STOP.S             09:31:38 19-Jul-21: STOP TIME  09:31:38 19-Jul-21
 STEP.S                   0.00: STEP TIME
 NULL.                 -999.25: NULL VALUE
 MDS .        Operator Entered:  MAG DATA SOURCE
 PDAT.          Mean Sea Level:  PERMANENT DATUM
 UNIT.                     N/A:  LOGGING EQUIPMENT ID
 DCON.         Sperry Drilling:  DIRECTNL CONTR
 DOE .                     N/A:  DOE NUMBER
 RIG .              West Azeri:  RIG NAME
 JOBN.        AZ-XX-0906997913:  JOB TICKET NUMB
 WELL.                     C41:  WELL NAME
 MWDS.                    Baku:  MWD SHOP
 SRVC.          Turan Drilling:  CONTRACTOR
 FLD .                     ACG:  FIELD NAME
 CTRY.              Azerbaijan:  COUNTRY NAME
 PROV.                    Baku:  PROVINCE
 STAT.                    Baku:  STATE NAME
 REGN.                   EESSA:  REGION
 BASE.              Azerbaijan:  LOGGING EQUIPMENT BASE LOCATION
 UWI .                     N/A:  UNIQUE WELL IDENTIFIER
 API .                     N/A:  API NUMBER
 COMP.     BP Exploration (Caspian Sea) Ltd.:  COMPANY
 WTYP.                Deviated:  WELL TYPE
 SON .        AZ-XX-0906997913:  JOB NUMBER
 FTOP.          Formation Tops:  FORM TOPS DESC
 ILTD.               Lithology:  INTERP LTH DESC
 SVYD.                  Survey:  SURVEY DESC
 DMOD.             Drill Model:  DRILL MOD DESC
 HPTY.       Minimum Curvature:  HOLE POS TYPE
 NREF.                    Grid:  NORTH REFERENCE
 SPUD.               16-May-21:  SPUD DATE
 DATE.      21.11.28 17-May-21:  END TIME
 STIM.      21.11.28 17-May-21:  START TIME
 DMF .             Drill Floor:  DRILL MEAS FROM
 DFST.                        :  DIST FSL TEXT
 DFWT.                        :  DIST FWL TEXT
 CNTY.                        :  COUNTY
 LOC .                        :  LOCATION
 LMF .             Drill Floor:  LOG MEASURED FROM
 AGAP.m                  43.42:  AIR GAP
 VSNS.m                  -2.16:  VERT SEC N/S
 VSEW.m                  -6.24:  VERT SEC E/W
 APD .m                  43.42:  DEPTH ABOVE PD
 WDMS.m                 118.27:  WD ELEV
 EGL .m                   0.00:  GROUND ELEVATION
 EPD .m                   0.00:  ELEVATION
 AZTC.deg                 6.29:  AZM TOTAL CORR
 GRDC.deg                 0.18:  GRID CORRECTION
 MDEC.deg                 6.47:  MAGNETIC DECL
 MDIP.deg                59.54:  MAGNETIC DIP
 MFLD.nT              50337.00:  MAGNETIC FIELD
 GVFD.g                   1.00:  GRAVITY FIELD
 VSDR.deg               226.99:  VERT SEC DIRECT
 TDD .m                   0.00:  TOTAL DEPTH (DRILLER)
 SDEP.m                 448.00:  START DEPTH
 DFSL.m                   0.00:  DISTANCE FSL
 DFWL.m                   0.00:  DISTANCE FWL
 UTMY.m             4435799.96:  UTM Y
 UTMX.m              526265.35:  UTM X
 WHEW.m                  -6.24:  WELL HEAD E/W
 WHNS.m                  -2.16:  WELL HEAD N/S
 LONG.deg                51.31:  LONGITUDE
 LATI.deg                40.06:  LATITUDE
 TVDS.m                  43.42:  TVDSS CORRECTN
 EKB .m                  43.42:  KB ELEVATION
 EDF .m                  43.42:  DF ELEVATION
 TDL .m                 288.00:  TOTAL DEPTH (LOGGER)
 MAGU.                 1851863:  MAGUTM CHECKSUM
 VSC .                       0:  VS TO CLOSURE
~Parameter Information Block
#MNEM.UNIT       Value        Description
#---------     -----------    ---------------------------
 AV  .mps                 0.40:  Ann Velocity 
 AVMX.mps                 0.63:  Max Ann Veloc 
 AZIF.deg               158.76:  Azm, Final 
 BHAT.        Rotary Steerable:  BHA Type 
 BROT.°/30m               0.68:  Build Rotating 
 BS  .in                  8.50:  Bit Size 
 BSZ .in                  8.50:  Bit Size 
 BTPL.psig              712.00:  Bit Press Loss 
 CABU.                      No:  Customer Abuse 
 COMM.                     L1h:  Run Comments 1 
 TCS .hr                 90.66:  Time Ciculation Ended 
 CV  .mps                 2.02:  Crit Velocity 
 CVMX.mps                 2.14:  Max Crit Veloc 
 DD1 .            Aziz Aliyevu:  Direct Drillr 1 
 DD2 .             Samir Abbas:  Direct Drillr 2 
 DD3 .           Teymur Aliyev:  Direct Drillr 3 
 DDSV.                 iCruise:  DD Service 
 DEFF.%                  85.10:  % Det Eff 
 DLRX.°/30m               1.05:  Dogleg Rot Max 
 DLSO.°/30m               1.01:  Dogleg Oriented 
 DLSX.°/30m               1.05:  Dogleg Str Max 
 DRET.      07.45.00 18-Jul-21:  Drill End Time 
 DRST.      15.00.00 16-Jul-21:  Drill Start Tim 
 DTIM.hr                 23.46:  Time Drilling 
 EDEP.m                4603.00:  End Depth 
 ENG1.       Seymur Iskandarov:  Engineer 1 
 ENG2.         Yevgeniy Ulikov:  Engineer 2 
 ENG3.         Bahruz Mehdiyev:  Engineer 3 
 ENG4.         Elchin Mammadov:  Engineer 4 
 ETIM.      14.00.00 23-Jul-21:  End Time 
 FLOI.gpm               500.00:  Flow In 
 FLON.gpm               450.00:  Flow In Min 
 FLOS.cptm                0.00:  Fluid Loss 
 FLOX.gpm               560.00:  Flow In Max 
 DFT .        Mineral Oil Base:  Mud Type 
 FTRO.       Formation Presure:  FTWD Run Obj 
 HFLO.                      No:  High Flow 
 HPRE.                      No:  High Pressure 
 HTEM.                      No:  High Temp 
 HYDO.m                   1.80:  Hydro Offset 
 IFIN.deg                40.22:  Inc, Final 
 IMAX.deg                40.54:  Inc Max 
 IMIN.deg                39.44:  Inc Min 
 IMND.m                4361.17:  Inc Min Depth 
 IMXD.m                4417.92:  Inc Max Depth 
 JARR.                      No:  Jarring 
 LETM.      07.45.00 18-Jul-21:  Log End Time 
 LOST.hr                    16:  Lost Rig Time 
 LSTM.      15.00.00 16-Jul-21:  Log Start Time 
 MDCL.ppm             36500.00:  Mud Chlorides 
 MDES.     Inversion Oil/Synthetic:  Mud Desc 
 DFD .sg                  1.42:  Mud Density 
 MDMN.sg                  1.42:  Dens Mud Min 
 MDMX.sg                  1.43:  Dens Mud Max 
 MOIL.                      56:  Run Mud Oil % 
 MOWR.                   71:29:  Run Mud OWR 
 MSND.                     0.5:  Run Mud Sand % 
 MSOL.                      21:  Run Mud Solids% 
 DFV .spqt               78.00:  Mud Viscosity 
 MWOD.in                  6.75:  MWD Tool OD 
 MWSI.                     Yes:  Serv Intrp, MWD 
 OTIM.hr                200.73:  Time Operating 
 PCON.           Look Like New:  Pad Condition 
 PMAX.psia            11069.93:  Press Op, Max 
 PV  .cP                 32.00:  Mud PV 
 RUN .                     700:  Run Number 
 ROPA.m/hr               10.00:  ROP Avg 
 ROPN.m/hr                9.00:  ROP Min 
 ROPX.m/hr               16.00:  ROP Max 
 RPMA.rpm               116.00:  RPM Surface Avg 
 RPMN.rpm                80.00:  RPM Surface Min 
 RPMX.rpm               120.00:  RPM Surface Max 
 RRUN.                    L605:  Rig Run Number 
 RTIM.hr                 45.00:  Time Reaming 
 SAZI.deg               159.86:  Azm, Start 
 SDEP.m                4315.00:  Start Depth 
 SIDD.                      No:  Serv Intrp, DD 
 SINC.deg                39.86:  Inc, Start 
 SPPA.psig             3300.00:  SPP Avg 
 SPPN.psig             3040.00:  SPP Min 
 SPPX.psig             3645.00:  SPP Max 
 STIM.      01.00.00 15-Jul-21:  Start Time 
 SVCS.                 DD, MWD:  Services 
 SVER.                    9.20:  Sperry Version 
 TDAT.m                 288.00:  Tot Depth Attmp 
 TDDF.                      No:  Trip for DD 
 TDLG.m                 288.00:  Tot Depth Loggd 
 TFF .                      No:  Trip for Fail 
 TQAA.f-kp               19.00:  Torque Abs Avg 
 TQAN.f-kp               18.00:  Torque Abs Min 
 TQAX.f-kp               21.00:  Torque Abs Max 
 TRRT.°/30m               0.45:  Turn Rotating 
 MRT .                    HCIM:  Maximum Recorded Temperature 
 TTMX.degC               88.24:  Max Tool Temp 
 VS01.                90649157:  Virtual Str1 SN 
 VS02.                90652483:  Virtual Str2 SN 
 VS03.                11671987:  Virtual Str3 SN 
 VS04.                90643411:  Virtual Str4 SN 
 VS05.                90652478:  Virtual Str5 SN 
 VS06.                    6111:  Virtual Str6 SN 
 WBMN.klb                 9.50:  WOB Min 
 WITN.        Grigoriy Sarayev:  Customer Rep 
 WITN.          Rufat Huseynov:  Customer Rep 2 
 WOBA.klb                11.00:  WOB Avg 
 WOBX.klb                15.00:  WOB Max 
 YP  .lhf2               28.00:  Yield Point 
~Curve Information Block
#MNEM.UNIT                 API CODE     Curve Description
#---------               -----------    ---------------------------
 TIME.HHMMSS            00 000 000 000:  GT Time & Date
 GTDEPTH.m              00 000 000 000:  GT Depth
 GTPQH.psia             00 000 000 000:  GT HR Quartz Pressure
 GTTQ.degC              00 000 000 000:  GT Quartz Temperature
 GTTN.NONE              00 000 000 000:  GT Test Number
 GTET.sec               00 000 000 000:  GT Elapsed Test Time
 GTTVD.m                00 000 000 000:  GT True Vertical Depth
#Other Information
#
#WARRANTY: Halliburton will use its best efforts to furnish customers with 
#accurate information and interpretations that are part of, and incident to, the services 
#provided.  However, Halliburton cannot and does not warrant the accuracy 
#or correctness of such information and interpretations.  Under no circumstances should any 
#such information or interpretation be relied upon as the sole basis for any drilling, 
#completion, production, or financial decision or any procedure involving any risk to the 
#safety of any drilling venture, drilling rig or its crew or any other third party.  The 
#Customer has full responsibility for all drilling, completion and production operation.  
#Halliburton makes no representations or warranties, either expressed or 
#implied, including, but not limited to, the implied warranties of merchantability or fitness 
#for a particular purpose, with respect to the services rendered.  In no event will 
#Halliburton be liable for failure to obtain any particular results or for 
#any damages, including, but not limited to, indirect, special or consequential damages, 
#resulting from the use of any information or interpretation provided by Halliburton.
#
~A           TIME           GTDEPTH  GTPQH  GTTQ  GTTN   GTET   GTTVD  
# ...
   09:30:45.184.19-Jul-2021 4454.00 6468.76 70.41 20.00 361.73 2665.10
   09:30:45.384.19-Jul-2021 4454.00 6488.62 70.41 20.00 361.93 2665.10
   09:30:45.584.19-Jul-2021 4454.00 6458.69 70.41 20.00 362.13 2665.10
   09:30:45.784.19-Jul-2021 4454.00 6458.69 70.41 20.00 362.33 2665.10
   09:30:45.984.19-Jul-2021 4454.00 6472.35 70.42 20.00 362.53 2665.10
   09:30:46.184.19-Jul-2021 4454.00 6488.22 70.42 20.00 362.73 2665.10
   09:30:46.384.19-Jul-2021 4454.00 6461.48 70.42 20.00 362.93 2665.10
   09:30:46.584.19-Jul-2021 4454.00 6477.60 70.42 20.00 363.13 2665.10
   09:30:46.784.19-Jul-2021 4454.00 6477.60 70.42 20.00 363.33 2665.10
   09:30:46.984.19-Jul-2021 4454.00 6487.93 70.43 20.00 363.53 2665.10
   09:30:47.185.19-Jul-2021 4454.00 6463.14 70.43 20.00 363.73 2665.10
   09:30:47.385.19-Jul-2021 4454.00 6476.92 70.43 20.00 363.93 2665.10
   09:30:47.585.19-Jul-2021 4454.00 6471.91 70.43 20.00 364.13 2665.10
   09:30:47.785.19-Jul-2021 4454.00 6471.91 70.43 20.00 364.33 2665.10
   09:30:47.985.19-Jul-2021 4454.00 6470.03 70.43 20.00 364.53 2665.10
   09:30:48.185.19-Jul-2021 4454.00 6468.47 70.44 20.00 364.73 2665.10
   09:30:48.385.19-Jul-2021 4454.00 6467.96 70.44 20.00 364.93 2665.10
   09:30:48.585.19-Jul-2021 4454.00 6468.59 70.44 20.00 365.13 2665.10
   09:30:48.785.19-Jul-2021 4454.00 6468.59 70.44 20.00 365.33 2665.10
   09:30:48.985.19-Jul-2021 4454.00 6468.44 70.44 20.00 365.53 2665.10
   09:30:49.185.19-Jul-2021 4454.00 6468.30 70.44 20.00 365.73 2665.10
   09:30:49.385.19-Jul-2021 4454.00 6467.91 70.44 20.00 365.93 2665.10
   09:30:49.585.19-Jul-2021 4454.00 6465.77 70.44 20.00 366.13 2665.10
   09:30:49.786.19-Jul-2021 4454.00 6465.77 70.44 20.00 366.33 2665.10
   09:30:49.986.19-Jul-2021 4454.00 6455.95 70.44 20.00 366.53 2665.10
   09:30:50.186.19-Jul-2021 4454.00 6473.07 70.45 20.00 366.74 2665.10
   09:30:50.386.19-Jul-2021 4454.00 6471.77 70.45 20.00 366.94 2665.10
   09:30:50.586.19-Jul-2021 4454.00 6465.71 70.45 20.00 367.14 2665.10
   09:30:50.786.19-Jul-2021 4454.00 6465.71 70.45 20.00 367.34 2665.10
   09:30:50.986.19-Jul-2021 4454.00 6466.01 70.45 20.00 367.54 2665.10
   09:30:51.186.19-Jul-2021 4454.00 6466.04 70.45 20.00 367.74 2665.10
   09:30:51.386.19-Jul-2021 4454.00 6466.45 70.45 20.00 367.94 2665.10
   09:30:51.586.19-Jul-2021 4454.00 6466.63 70.45 20.00 368.14 2665.10
   09:30:51.786.19-Jul-2021 4454.00 6466.63 70.45 20.00 368.34 2665.10
   09:30:51.986.19-Jul-2021 4454.00 6467.19 70.45 20.00 368.54 2665.10
   09:30:52.186.19-Jul-2021 4454.00 6466.41 70.46 20.00 368.74 2665.10
   09:30:52.386.19-Jul-2021 4454.00 6467.83 70.46 20.00 368.94 2665.10
   09:30:52.587.19-Jul-2021 4454.00 6478.95 70.46 20.00 369.14 2665.10
   09:30:52.787.19-Jul-2021 4454.00 6478.95 70.46 20.00 369.34 2665.10
   09:30:52.987.19-Jul-2021 4454.00 6478.76 70.46 20.00 369.54 2665.10
   09:30:53.187.19-Jul-2021 4454.00 6471.62 70.46 20.00 369.74 2665.10
   09:30:53.387.19-Jul-2021 4454.00 6482.02 70.46 20.00 369.94 2665.10
   09:30:53.587.19-Jul-2021 4454.00 6467.04 70.46 20.00 370.14 2665.10
   09:30:53.787.19-Jul-2021 4454.00 6467.04 70.46 20.00 370.34 2665.10
   09:30:53.987.19-Jul-2021 4454.00 6482.33 70.46 20.00 370.54 2665.10
   09:30:54.187.19-Jul-2021 4454.00 6476.14 70.46 20.00 370.74 2665.10
   09:30:54.387.19-Jul-2021 4454.00 6467.97 70.46 20.00 370.94 2665.10
   09:30:54.587.19-Jul-2021 4454.00 6470.70 70.46 20.00 371.14 2665.10
   09:30:54.787.19-Jul-2021 4454.00 6470.70 70.46 20.00 371.34 2665.10
   09:30:54.987.19-Jul-2021 4454.00 6461.41 70.46 20.00 371.54 2665.10
   09:30:55.187.19-Jul-2021 4454.00 6478.26 70.46 20.00 371.74 2665.10
   09:30:55.388.19-Jul-2021 4454.00 6473.88 70.46 20.00 371.94 2665.10
   09:30:55.588.19-Jul-2021 4454.00 6467.60 70.46 20.00 372.14 2665.10
   09:30:55.788.19-Jul-2021 4454.00 6467.60 70.46 20.00 372.34 2665.10
   09:30:55.988.19-Jul-2021 4454.00 6472.39 70.46 20.00 372.54 2665.10
   09:30:56.188.19-Jul-2021 4454.00 6473.09 70.46 20.00 372.74 2665.10
   09:30:56.388.19-Jul-2021 4454.00 6476.66 70.46 20.00 372.94 2665.10
   09:30:56.588.19-Jul-2021 4454.00 6471.59 70.46 20.00 373.14 2665.10
   09:30:56.788.19-Jul-2021 4454.00 6471.59 70.46 20.00 373.34 2665.10
   09:30:56.988.19-Jul-2021 4454.00 6469.87 70.46 20.00 373.54 2665.10
   09:30:57.188.19-Jul-2021 4454.00 6469.17 70.46 20.00 373.74 2665.10
   09:30:57.388.19-Jul-2021 4454.00 6468.71 70.47 20.00 373.94 2665.10
   09:30:57.588.19-Jul-2021 4454.00 6468.37 70.47 20.00 374.14 2665.10
   09:30:57.788.19-Jul-2021 4454.00 6468.37 70.47 20.00 374.34 2665.10
   09:30:57.989.19-Jul-2021 4454.00 6468.74 70.47 20.00 374.54 2665.10
   09:30:58.189.19-Jul-2021 4454.00 6467.13 70.47 20.00 374.74 2665.10
   09:30:58.389.19-Jul-2021 4454.00 6465.98 70.47 20.00 374.94 2665.10
   09:30:58.589.19-Jul-2021 4454.00 6488.77 70.47 20.00 375.14 2665.10
   09:30:58.789.19-Jul-2021 4454.00 6488.77 70.47 20.00 375.34 2665.10
   09:30:58.989.19-Jul-2021 4454.00 6474.98 70.47 20.00 375.54 2665.10
   09:30:59.189.19-Jul-2021 4454.00 6473.51 70.47 20.00 375.74 2665.10
   09:30:59.389.19-Jul-2021 4454.00 6467.60 70.47 20.00 375.94 2665.10
   09:30:59.589.19-Jul-2021 4454.00 6468.22 70.47 20.00 376.14 2665.10
   09:30:59.789.19-Jul-2021 4454.00 6468.22 70.47 20.00 376.34 2665.10
   09:30:59.989.19-Jul-2021 4454.00 6467.69 70.47 20.00 376.54 2665.10
   09:31:00.189.19-Jul-2021 4454.00 6467.85 70.47 20.00 376.74 2665.10
   09:31:00.389.19-Jul-2021 4454.00 6468.11 70.47 20.00 376.94 2665.10
   09:31:00.589.19-Jul-2021 4454.00 6468.02 70.47 20.00 377.14 2665.10
   09:31:00.790.19-Jul-2021 4454.00 6468.02 70.47 20.00 377.34 2665.10
   09:31:00.990.19-Jul-2021 4454.00 6466.56 70.47 20.00 377.54 2665.10
   09:31:01.190.19-Jul-2021 4454.00 6487.51 70.47 20.00 377.74 2665.10
   09:31:01.390.19-Jul-2021 4454.00 6459.93 70.47 20.00 377.94 2665.10
   09:31:01.590.19-Jul-2021 4454.00 6474.77 70.47 20.00 378.14 2665.10
   09:31:01.790.19-Jul-2021 4454.00 6474.77 70.47 20.00 378.34 2665.10
   09:31:01.990.19-Jul-2021 4454.00 6457.60 70.47 20.00 378.54 2665.10
   09:31:02.190.19-Jul-2021 4454.00 6479.47 70.47 20.00 378.74 2665.10
   09:31:02.390.19-Jul-2021 4454.00 6493.12 70.47 20.00 378.94 2665.10
   09:31:02.590.19-Jul-2021 4454.00 6471.11 70.47 20.00 379.14 2665.10
   09:31:02.790.19-Jul-2021 4454.00 6471.11 70.47 20.00 379.34 2665.10
   09:31:02.990.19-Jul-2021 4454.00 6476.75 70.47 20.00 379.54 2665.10
   09:31:03.190.19-Jul-2021 4454.00 6494.44 70.47 20.00 379.74 2665.10
   09:31:03.391.19-Jul-2021 4454.00 6461.47 70.47 20.00 379.94 2665.10
   09:31:03.591.19-Jul-2021 4454.00 6479.13 70.47 20.00 380.14 2665.10
   09:31:03.791.19-Jul-2021 4454.00 6479.13 70.47 20.00 380.34 2665.10
   09:31:03.991.19-Jul-2021 4454.00 6471.80 70.47 20.00 380.54 2665.10
   09:31:04.191.19-Jul-2021 4454.00 6484.44 70.47 20.00 380.74 2665.10
   09:31:04.391.19-Jul-2021 4454.00 6473.42 70.47 20.00 380.94 2665.10
   09:31:04.591.19-Jul-2021 4454.00 6481.33 70.47 20.00 381.14 2665.10
   09:31:04.791.19-Jul-2021 4454.00 6481.33 70.47 20.00 381.34 2665.10
   09:31:04.991.19-Jul-2021 4454.00 6471.67 70.47 20.00 381.54 2665.10
   09:31:05.191.19-Jul-2021 4454.00 6473.29 70.47 20.00 381.74 2665.10
   09:31:05.391.19-Jul-2021 4454.00 6469.91 70.47 20.00 381.94 2665.10
   09:31:05.591.19-Jul-2021 4454.00 6469.20 70.47 20.00 382.14 2665.10
   09:31:05.791.19-Jul-2021 4454.00 6469.20 70.47 20.00 382.34 2665.10
   09:31:05.991.19-Jul-2021 4454.00 6468.25 70.47 20.00 382.54 2665.10
   09:31:06.192.19-Jul-2021 4454.00 6468.42 70.47 20.00 382.74 2665.10
   09:31:06.392.19-Jul-2021 4454.00 6467.90 70.47 20.00 382.94 2665.10
   09:31:06.592.19-Jul-2021 4454.00 6468.32 70.47 20.00 383.14 2665.10
   09:31:06.792.19-Jul-2021 4454.00 6468.32 70.47 20.00 383.34 2665.10
   09:31:06.992.19-Jul-2021 4454.00 6468.79 70.47 20.00 383.54 2665.10
   09:31:07.192.19-Jul-2021 4454.00 6479.25 70.47 20.00 383.74 2665.10
   09:31:07.392.19-Jul-2021 4454.00 6476.01 70.47 20.00 383.94 2665.10
   09:31:07.592.19-Jul-2021 4454.00 6467.44 70.47 20.00 384.14 2665.10
