~Version Information
 VERS.                  2.0:   CWLS log ASCII Standard -VERSION 2.0
 WRAP.                   NO:   One line per depth step
~Well Information Block
#MNEM.UNIT     VALUE/NAME     DESCRIPTION
#---------     -----------    ---------------------------
 STRT.S             08:29:33 19-Jul-21: START TIME 08:29:33 19-Jul-21
 STOP.S             08:36:27 19-Jul-21: STOP TIME  08:36:27 19-Jul-21
 STEP.S                   0.00: STEP TIME
 NULL.                 -999.25: NULL VALUE
 MDS .        Operator Entered:  MAG DATA SOURCE
 PDAT.          Mean Sea Level:  PERMANENT DATUM
 UNIT.                     N/A:  LOGGING EQUIPMENT ID
 DCON.         Sperry Drilling:  DIRECTNL CONTR
 DOE .                     N/A:  DOE NUMBER
 RIG .              West Azeri:  RIG NAME
 JOBN.        AZ-XX-0906997913:  JOB TICKET NUMB
 WELL.                     C41:  WELL NAME
 MWDS.                    Baku:  MWD SHOP
 SRVC.          Turan Drilling:  CONTRACTOR
 FLD .                     ACG:  FIELD NAME
 CTRY.              Azerbaijan:  COUNTRY NAME
 PROV.                    Baku:  PROVINCE
 STAT.                    Baku:  STATE NAME
 REGN.                   EESSA:  REGION
 BASE.              Azerbaijan:  LOGGING EQUIPMENT BASE LOCATION
 UWI .                     N/A:  UNIQUE WELL IDENTIFIER
 API .                     N/A:  API NUMBER
 COMP.     BP Exploration (Caspian Sea) Ltd.:  COMPANY
 WTYP.                Deviated:  WELL TYPE
 SON .        AZ-XX-0906997913:  JOB NUMBER
 FTOP.          Formation Tops:  FORM TOPS DESC
 ILTD.               Lithology:  INTERP LTH DESC
 SVYD.                  Survey:  SURVEY DESC
 DMOD.             Drill Model:  DRILL MOD DESC
 HPTY.       Minimum Curvature:  HOLE POS TYPE
 NREF.                    Grid:  NORTH REFERENCE
 SPUD.               16-May-21:  SPUD DATE
 DATE.      21.11.28 17-May-21:  END TIME
 STIM.      21.11.28 17-May-21:  START TIME
 DMF .             Drill Floor:  DRILL MEAS FROM
 DFST.                        :  DIST FSL TEXT
 DFWT.                        :  DIST FWL TEXT
 CNTY.                        :  COUNTY
 LOC .                        :  LOCATION
 LMF .             Drill Floor:  LOG MEASURED FROM
 AGAP.m                  43.42:  AIR GAP
 VSNS.m                  -2.16:  VERT SEC N/S
 VSEW.m                  -6.24:  VERT SEC E/W
 APD .m                  43.42:  DEPTH ABOVE PD
 WDMS.m                 118.27:  WD ELEV
 EGL .m                   0.00:  GROUND ELEVATION
 EPD .m                   0.00:  ELEVATION
 AZTC.deg                 6.29:  AZM TOTAL CORR
 GRDC.deg                 0.18:  GRID CORRECTION
 MDEC.deg                 6.47:  MAGNETIC DECL
 MDIP.deg                59.54:  MAGNETIC DIP
 MFLD.nT              50337.00:  MAGNETIC FIELD
 GVFD.g                   1.00:  GRAVITY FIELD
 VSDR.deg               226.99:  VERT SEC DIRECT
 TDD .m                   0.00:  TOTAL DEPTH (DRILLER)
 SDEP.m                 448.00:  START DEPTH
 DFSL.m                   0.00:  DISTANCE FSL
 DFWL.m                   0.00:  DISTANCE FWL
 UTMY.m             4435799.96:  UTM Y
 UTMX.m              526265.35:  UTM X
 WHEW.m                  -6.24:  WELL HEAD E/W
 WHNS.m                  -2.16:  WELL HEAD N/S
 LONG.deg                51.31:  LONGITUDE
 LATI.deg                40.06:  LATITUDE
 TVDS.m                  43.42:  TVDSS CORRECTN
 EKB .m                  43.42:  KB ELEVATION
 EDF .m                  43.42:  DF ELEVATION
 TDL .m                 288.00:  TOTAL DEPTH (LOGGER)
 MAGU.                 1851863:  MAGUTM CHECKSUM
 VSC .                       0:  VS TO CLOSURE
~Parameter Information Block
#MNEM.UNIT       Value        Description
#---------     -----------    ---------------------------
 AV  .mps                 0.40:  Ann Velocity 
 AVMX.mps                 0.63:  Max Ann Veloc 
 AZIF.deg               158.76:  Azm, Final 
 BHAT.        Rotary Steerable:  BHA Type 
 BROT.°/30m               0.68:  Build Rotating 
 BS  .in                  8.50:  Bit Size 
 BSZ .in                  8.50:  Bit Size 
 BTPL.psig              712.00:  Bit Press Loss 
 CABU.                      No:  Customer Abuse 
 COMM.                     ìk:  Run Comments 1 
 TCS .hr                 90.66:  Time Ciculation Ended 
 CV  .mps                 2.02:  Crit Velocity 
 CVMX.mps                 2.14:  Max Crit Veloc 
 DD1 .            Aziz Aliyevu:  Direct Drillr 1 
 DD2 .             Samir Abbas:  Direct Drillr 2 
 DD3 .           Teymur Aliyev:  Direct Drillr 3 
 DDSV.                 iCruise:  DD Service 
 DEFF.%                  85.10:  % Det Eff 
 DLRX.°/30m               1.05:  Dogleg Rot Max 
 DLSO.°/30m               1.01:  Dogleg Oriented 
 DLSX.°/30m               1.05:  Dogleg Str Max 
 DRET.      07.45.00 18-Jul-21:  Drill End Time 
 DRST.      15.00.00 16-Jul-21:  Drill Start Tim 
 DTIM.hr                 23.46:  Time Drilling 
 EDEP.m                4603.00:  End Depth 
 ENG1.       Seymur Iskandarov:  Engineer 1 
 ENG2.         Yevgeniy Ulikov:  Engineer 2 
 ENG3.         Bahruz Mehdiyev:  Engineer 3 
 ENG4.         Elchin Mammadov:  Engineer 4 
 ETIM.      14.00.00 23-Jul-21:  End Time 
 FLOI.gpm               500.00:  Flow In 
 FLON.gpm               450.00:  Flow In Min 
 FLOS.cptm                0.00:  Fluid Loss 
 FLOX.gpm               560.00:  Flow In Max 
 DFT .        Mineral Oil Base:  Mud Type 
 FTRO.       Formation Presure:  FTWD Run Obj 
 HFLO.                      No:  High Flow 
 HPRE.                      No:  High Pressure 
 HTEM.                      No:  High Temp 
 HYDO.m                   1.80:  Hydro Offset 
 IFIN.deg                40.22:  Inc, Final 
 IMAX.deg                40.54:  Inc Max 
 IMIN.deg                39.44:  Inc Min 
 IMND.m                4361.17:  Inc Min Depth 
 IMXD.m                4417.92:  Inc Max Depth 
 JARR.                      No:  Jarring 
 LETM.      07.45.00 18-Jul-21:  Log End Time 
 LOST.hr                    16:  Lost Rig Time 
 LSTM.      15.00.00 16-Jul-21:  Log Start Time 
 MDCL.ppm             36500.00:  Mud Chlorides 
 MDES.     Inversion Oil/Synthetic:  Mud Desc 
 DFD .sg                  1.42:  Mud Density 
 MDMN.sg                  1.42:  Dens Mud Min 
 MDMX.sg                  1.43:  Dens Mud Max 
 MOIL.                      56:  Run Mud Oil % 
 MOWR.                   71:29:  Run Mud OWR 
 MSND.                     0.5:  Run Mud Sand % 
 MSOL.                      21:  Run Mud Solids% 
 DFV .spqt               78.00:  Mud Viscosity 
 MWOD.in                  6.75:  MWD Tool OD 
 MWSI.                     Yes:  Serv Intrp, MWD 
 OTIM.hr                200.73:  Time Operating 
 PCON.           Look Like New:  Pad Condition 
 PMAX.psia            11069.93:  Press Op, Max 
 PV  .cP                 32.00:  Mud PV 
 RUN .                     700:  Run Number 
 ROPA.m/hr               10.00:  ROP Avg 
 ROPN.m/hr                9.00:  ROP Min 
 ROPX.m/hr               16.00:  ROP Max 
 RPMA.rpm               116.00:  RPM Surface Avg 
 RPMN.rpm                80.00:  RPM Surface Min 
 RPMX.rpm               120.00:  RPM Surface Max 
 RRUN.                    L605:  Rig Run Number 
 RTIM.hr                 45.00:  Time Reaming 
 SAZI.deg               159.86:  Azm, Start 
 SDEP.m                4315.00:  Start Depth 
 SIDD.                      No:  Serv Intrp, DD 
 SINC.deg                39.86:  Inc, Start 
 SPPA.psig             3300.00:  SPP Avg 
 SPPN.psig             3040.00:  SPP Min 
 SPPX.psig             3645.00:  SPP Max 
 STIM.      01.00.00 15-Jul-21:  Start Time 
 SVCS.                 DD, MWD:  Services 
 SVER.                    9.20:  Sperry Version 
 TDAT.m                 288.00:  Tot Depth Attmp 
 TDDF.                      No:  Trip for DD 
 TDLG.m                 288.00:  Tot Depth Loggd 
 TFF .                      No:  Trip for Fail 
 TQAA.f-kp               19.00:  Torque Abs Avg 
 TQAN.f-kp               18.00:  Torque Abs Min 
 TQAX.f-kp               21.00:  Torque Abs Max 
 TRRT.°/30m               0.45:  Turn Rotating 
 MRT .                    HCIM:  Maximum Recorded Temperature 
 TTMX.degC               88.24:  Max Tool Temp 
 VS01.                90649157:  Virtual Str1 SN 
 VS02.                90652483:  Virtual Str2 SN 
 VS03.                11671987:  Virtual Str3 SN 
 VS04.                90643411:  Virtual Str4 SN 
 VS05.                90652478:  Virtual Str5 SN 
 VS06.                    6111:  Virtual Str6 SN 
 WBMN.klb                 9.50:  WOB Min 
 WITN.        Grigoriy Sarayev:  Customer Rep 
 WITN.          Rufat Huseynov:  Customer Rep 2 
 WOBA.klb                11.00:  WOB Avg 
 WOBX.klb                15.00:  WOB Max 
 YP  .lhf2               28.00:  Yield Point 
~Curve Information Block
#MNEM.UNIT                 API CODE     Curve Description
#---------               -----------    ---------------------------
 TIME.HHMMSS            00 000 000 000:  GT Time & Date
 GTDEPTH.m              00 000 000 000:  GT Depth
 GTPQH.psia             00 000 000 000:  GT HR Quartz Pressure
 GTTQ.degC              00 000 000 000:  GT Quartz Temperature
 GTTN.NONE              00 000 000 000:  GT Test Number
 GTET.sec               00 000 000 000:  GT Elapsed Test Time
 GTTVD.m                00 000 000 000:  GT True Vertical Depth
#Other Information
#
#WARRANTY: Halliburton will use its best efforts to furnish customers with 
#accurate information and interpretations that are part of, and incident to, the services 
#provided.  However, Halliburton cannot and does not warrant the accuracy 
#or correctness of such information and interpretations.  Under no circumstances should any 
#such information or interpretation be relied upon as the sole basis for any drilling, 
#completion, production, or financial decision or any procedure involving any risk to the 
#safety of any drilling venture, drilling rig or its crew or any other third party.  The 
#Customer has full responsibility for all drilling, completion and production operation.  
#Halliburton makes no representations or warranties, either expressed or 
#implied, including, but not limited to, the implied warranties of merchantability or fitness 
#for a particular purpose, with respect to the services rendered.  In no event will 
#Halliburton be liable for failure to obtain any particular results or for 
#any damages, including, but not limited to, indirect, special or consequential damages, 
#resulting from the use of any information or interpretation provided by Halliburton.
#
~A           TIME           GTDEPTH  GTPQH  GTTQ  GTTN   GTET   GTTVD  
# ...
   08:34:49.748.19-Jul-2021 4431.00 3571.02 70.29 18.00 316.52 2647.54
   08:34:49.948.19-Jul-2021 4431.00 3570.95 70.29 18.00 316.72 2647.54
   08:34:50.148.19-Jul-2021 4431.00 3571.00 70.29 18.00 316.92 2647.54
   08:34:50.349.19-Jul-2021 4431.00 3570.98 70.29 18.00 317.12 2647.54
   08:34:50.549.19-Jul-2021 4431.00 3570.98 70.29 18.00 317.32 2647.54
   08:34:50.749.19-Jul-2021 4431.00 3570.99 70.29 18.00 317.52 2647.54
   08:34:50.949.19-Jul-2021 4431.00 3570.98 70.29 18.00 317.72 2647.54
   08:34:51.149.19-Jul-2021 4431.00 3570.99 70.29 18.00 317.92 2647.54
   08:34:51.349.19-Jul-2021 4431.00 3570.97 70.29 18.00 318.12 2647.54
   08:34:51.549.19-Jul-2021 4431.00 3570.97 70.29 18.00 318.32 2647.54
   08:34:51.749.19-Jul-2021 4431.00 3570.98 70.29 18.00 318.52 2647.54
   08:34:51.949.19-Jul-2021 4431.00 3570.98 70.29 18.00 318.72 2647.54
   08:34:52.149.19-Jul-2021 4431.00 3570.98 70.29 18.00 318.92 2647.54
   08:34:52.349.19-Jul-2021 4431.00 3571.08 70.29 18.00 319.12 2647.54
   08:34:52.549.19-Jul-2021 4431.00 3571.08 70.29 18.00 319.32 2647.54
   08:34:52.749.19-Jul-2021 4431.00 3570.97 70.29 18.00 319.52 2647.54
   08:34:52.949.19-Jul-2021 4431.00 3570.99 70.29 18.00 319.72 2647.54
   08:34:53.150.19-Jul-2021 4431.00 3570.96 70.29 18.00 319.92 2647.54
   08:34:53.350.19-Jul-2021 4431.00 3570.98 70.29 18.00 320.12 2647.54
   08:34:53.550.19-Jul-2021 4431.00 3570.98 70.29 18.00 320.32 2647.54
   08:34:53.750.19-Jul-2021 4431.00 3570.97 70.29 18.00 320.52 2647.54
   08:34:53.950.19-Jul-2021 4431.00 3570.98 70.29 18.00 320.72 2647.54
   08:34:54.150.19-Jul-2021 4431.00 3570.98 70.29 18.00 320.92 2647.54
   08:34:54.350.19-Jul-2021 4431.00 3570.99 70.29 18.00 321.12 2647.54
   08:34:54.550.19-Jul-2021 4431.00 3570.99 70.29 18.00 321.32 2647.54
   08:34:54.750.19-Jul-2021 4431.00 3570.98 70.29 18.00 321.52 2647.54
   08:34:54.950.19-Jul-2021 4431.00 3570.98 70.29 18.00 321.72 2647.54
   08:34:55.150.19-Jul-2021 4431.00 3570.99 70.29 18.00 321.92 2647.54
   08:34:55.350.19-Jul-2021 4431.00 3570.94 70.29 18.00 322.12 2647.54
   08:34:55.550.19-Jul-2021 4431.00 3570.94 70.29 18.00 322.32 2647.54
   08:34:55.751.19-Jul-2021 4431.00 3570.99 70.29 18.00 322.52 2647.54
   08:34:55.951.19-Jul-2021 4431.00 3570.96 70.29 18.00 322.72 2647.54
   08:34:56.151.19-Jul-2021 4431.00 3570.97 70.29 18.00 322.92 2647.54
   08:34:56.351.19-Jul-2021 4431.00 3570.97 70.29 18.00 323.12 2647.54
   08:34:56.551.19-Jul-2021 4431.00 3570.97 70.29 18.00 323.32 2647.54
   08:34:56.751.19-Jul-2021 4431.00 3570.99 70.29 18.00 323.52 2647.54
   08:34:56.951.19-Jul-2021 4431.00 3570.97 70.29 18.00 323.72 2647.54
   08:34:57.151.19-Jul-2021 4431.00 3570.97 70.29 18.00 323.92 2647.54
   08:34:57.351.19-Jul-2021 4431.00 3570.97 70.29 18.00 324.12 2647.54
   08:34:57.551.19-Jul-2021 4431.00 3570.97 70.29 18.00 324.32 2647.54
   08:34:57.751.19-Jul-2021 4431.00 3571.00 70.29 18.00 324.52 2647.54
   08:34:57.951.19-Jul-2021 4431.00 3570.97 70.29 18.00 324.72 2647.54
   08:34:58.151.19-Jul-2021 4431.00 3571.08 70.29 18.00 324.92 2647.54
   08:34:58.351.19-Jul-2021 4431.00 3570.90 70.29 18.00 325.12 2647.54
   08:34:58.552.19-Jul-2021 4431.00 3570.90 70.29 18.00 325.32 2647.54
   08:34:58.752.19-Jul-2021 4431.00 3571.00 70.29 18.00 325.52 2647.54
   08:34:58.952.19-Jul-2021 4431.00 3570.97 70.29 18.00 325.72 2647.54
   08:34:59.152.19-Jul-2021 4431.00 3570.98 70.29 18.00 325.92 2647.54
   08:34:59.352.19-Jul-2021 4431.00 3570.98 70.29 18.00 326.12 2647.54
   08:34:59.552.19-Jul-2021 4431.00 3570.98 70.29 18.00 326.32 2647.54
   08:34:59.752.19-Jul-2021 4431.00 3570.97 70.29 18.00 326.52 2647.54
   08:34:59.952.19-Jul-2021 4431.00 3570.97 70.29 18.00 326.72 2647.54
   08:35:00.152.19-Jul-2021 4431.00 3570.98 70.29 18.00 326.92 2647.54
   08:35:00.352.19-Jul-2021 4431.00 3570.97 70.29 18.00 327.12 2647.54
   08:35:00.552.19-Jul-2021 4431.00 3570.97 70.29 18.00 327.32 2647.54
   08:35:00.752.19-Jul-2021 4431.00 3570.97 70.29 18.00 327.52 2647.54
   08:35:00.952.19-Jul-2021 4431.00 3571.06 70.29 18.00 327.72 2647.54
   08:35:01.153.19-Jul-2021 4431.00 3570.92 70.29 18.00 327.92 2647.54
   08:35:01.353.19-Jul-2021 4431.00 3570.97 70.29 18.00 328.12 2647.54
   08:35:01.553.19-Jul-2021 4431.00 3570.97 70.29 18.00 328.32 2647.54
   08:35:01.753.19-Jul-2021 4431.00 3570.95 70.29 18.00 328.52 2647.54
   08:35:01.953.19-Jul-2021 4431.00 3570.98 70.29 18.00 328.72 2647.54
   08:35:02.153.19-Jul-2021 4431.00 3570.97 70.29 18.00 328.92 2647.54
   08:35:02.353.19-Jul-2021 4431.00 3570.97 70.29 18.00 329.12 2647.54
   08:35:02.553.19-Jul-2021 4431.00 3570.97 70.29 18.00 329.32 2647.54
   08:35:02.753.19-Jul-2021 4431.00 3570.97 70.29 18.00 329.52 2647.54
   08:35:02.953.19-Jul-2021 4431.00 3570.98 70.29 18.00 329.72 2647.54
   08:35:03.153.19-Jul-2021 4431.00 3570.97 70.29 18.00 329.92 2647.54
   08:35:03.353.19-Jul-2021 4431.00 3570.98 70.29 18.00 330.12 2647.54
   08:35:03.553.19-Jul-2021 4431.00 3570.98 70.29 18.00 330.32 2647.54
   08:35:03.753.19-Jul-2021 4431.00 3570.88 70.29 18.00 330.52 2647.54
   08:35:03.954.19-Jul-2021 4431.00 3570.97 70.29 18.00 330.72 2647.54
   08:35:04.154.19-Jul-2021 4431.00 3570.98 70.29 18.00 330.92 2647.54
   08:35:04.354.19-Jul-2021 4431.00 3570.99 70.29 18.00 331.12 2647.54
   08:35:04.554.19-Jul-2021 4431.00 3570.99 70.29 18.00 331.32 2647.54
   08:35:04.754.19-Jul-2021 4431.00 3570.99 70.29 18.00 331.52 2647.54
   08:35:04.954.19-Jul-2021 4431.00 3570.95 70.29 18.00 331.72 2647.54
   08:35:05.154.19-Jul-2021 4431.00 3571.05 70.29 18.00 331.92 2647.54
   08:35:05.354.19-Jul-2021 4431.00 3570.90 70.29 18.00 332.12 2647.54
   08:35:05.554.19-Jul-2021 4431.00 3570.90 70.29 18.00 332.32 2647.54
   08:35:05.754.19-Jul-2021 4431.00 3570.98 70.29 18.00 332.52 2647.54
   08:35:05.954.19-Jul-2021 4431.00 3570.96 70.29 18.00 332.72 2647.54
   08:35:06.154.19-Jul-2021 4431.00 3571.07 70.29 18.00 332.92 2647.54
   08:35:06.354.19-Jul-2021 4431.00 3570.89 70.29 18.00 333.12 2647.54
   08:35:06.554.19-Jul-2021 4431.00 3570.89 70.29 18.00 333.32 2647.54
   08:35:06.755.19-Jul-2021 4431.00 3571.06 70.29 18.00 333.52 2647.54
   08:35:06.955.19-Jul-2021 4431.00 3570.91 70.29 18.00 333.72 2647.54
   08:35:07.155.19-Jul-2021 4431.00 3570.97 70.29 18.00 333.92 2647.54
   08:35:07.355.19-Jul-2021 4431.00 3570.98 70.29 18.00 334.12 2647.54
   08:35:07.555.19-Jul-2021 4431.00 3570.98 70.29 18.00 334.32 2647.54
   08:35:07.755.19-Jul-2021 4431.00 3570.99 70.29 18.00 334.52 2647.54
   08:35:07.955.19-Jul-2021 4431.00 3570.98 70.29 18.00 334.72 2647.54
   08:35:08.155.19-Jul-2021 4431.00 3570.96 70.29 18.00 334.92 2647.54
   08:35:08.355.19-Jul-2021 4431.00 3570.98 70.29 18.00 335.12 2647.54
   08:35:08.555.19-Jul-2021 4431.00 3570.98 70.29 18.00 335.32 2647.54
   08:35:08.755.19-Jul-2021 4431.00 3570.97 70.29 18.00 335.52 2647.54
   08:35:08.955.19-Jul-2021 4431.00 3570.98 70.29 18.00 335.72 2647.54
   08:35:09.155.19-Jul-2021 4431.00 3570.98 70.29 18.00 335.92 2647.54
   08:35:09.356.19-Jul-2021 4431.00 3570.96 70.29 18.00 336.12 2647.54
   08:35:09.556.19-Jul-2021 4431.00 3570.96 70.29 18.00 336.32 2647.54
   08:35:09.756.19-Jul-2021 4431.00 3570.90 70.29 18.00 336.52 2647.54
   08:35:09.956.19-Jul-2021 4431.00 3571.02 70.29 18.00 336.72 2647.54
   08:35:10.156.19-Jul-2021 4431.00 3570.96 70.29 18.00 336.92 2647.54
   08:35:10.356.19-Jul-2021 4431.00 3570.96 70.29 18.00 337.12 2647.54
   08:35:10.556.19-Jul-2021 4431.00 3570.96 70.29 18.00 337.32 2647.54
   08:35:10.756.19-Jul-2021 4431.00 3570.97 70.29 18.00 337.52 2647.54
   08:35:10.956.19-Jul-2021 4431.00 3570.97 70.29 18.00 337.72 2647.54
   08:35:11.156.19-Jul-2021 4431.00 3570.97 70.29 18.00 337.92 2647.54
   08:35:11.356.19-Jul-2021 4431.00 3570.98 70.29 18.00 338.12 2647.54
   08:35:11.556.19-Jul-2021 4431.00 3570.98 70.29 18.00 338.32 2647.54
   08:35:11.756.19-Jul-2021 4431.00 3570.98 70.29 18.00 338.52 2647.54
   08:35:11.956.19-Jul-2021 4431.00 3570.97 70.29 18.00 338.72 2647.54
   08:35:12.157.19-Jul-2021 4431.00 3571.06 70.29 18.00 338.92 2647.54
