~Version Information
 VERS.                  2.0:   CWLS log ASCII Standard -VERSION 2.0
 WRAP.                   NO:   One line per depth step
~Well Information Block
#MNEM.UNIT     VALUE/NAME     DESCRIPTION
#---------     -----------    ---------------------------
 STRT.S             05:02:49 19-Jul-21: START TIME 05:02:49 19-Jul-21
 STOP.S             05:09:40 19-Jul-21: STOP TIME  05:09:40 19-Jul-21
 STEP.S                   0.00: STEP TIME
 NULL.                 -999.25: NULL VALUE
 MDS .        Operator Entered:  MAG DATA SOURCE
 PDAT.          Mean Sea Level:  PERMANENT DATUM
 UNIT.                     N/A:  LOGGING EQUIPMENT ID
 DCON.         Sperry Drilling:  DIRECTNL CONTR
 DOE .                     N/A:  DOE NUMBER
 RIG .              West Azeri:  RIG NAME
 JOBN.        AZ-XX-0906997913:  JOB TICKET NUMB
 WELL.                     C41:  WELL NAME
 MWDS.                    Baku:  MWD SHOP
 SRVC.          Turan Drilling:  CONTRACTOR
 FLD .                     ACG:  FIELD NAME
 CTRY.              Azerbaijan:  COUNTRY NAME
 PROV.                    Baku:  PROVINCE
 STAT.                    Baku:  STATE NAME
 REGN.                   EESSA:  REGION
 BASE.              Azerbaijan:  LOGGING EQUIPMENT BASE LOCATION
 UWI .                     N/A:  UNIQUE WELL IDENTIFIER
 API .                     N/A:  API NUMBER
 COMP.     BP Exploration (Caspian Sea) Ltd.:  COMPANY
 WTYP.                Deviated:  WELL TYPE
 SON .        AZ-XX-0906997913:  JOB NUMBER
 FTOP.          Formation Tops:  FORM TOPS DESC
 ILTD.               Lithology:  INTERP LTH DESC
 SVYD.                  Survey:  SURVEY DESC
 DMOD.             Drill Model:  DRILL MOD DESC
 HPTY.       Minimum Curvature:  HOLE POS TYPE
 NREF.                    Grid:  NORTH REFERENCE
 SPUD.               16-May-21:  SPUD DATE
 DATE.      21.11.28 17-May-21:  END TIME
 STIM.      21.11.28 17-May-21:  START TIME
 DMF .             Drill Floor:  DRILL MEAS FROM
 DFST.                        :  DIST FSL TEXT
 DFWT.                        :  DIST FWL TEXT
 CNTY.                        :  COUNTY
 LOC .                        :  LOCATION
 LMF .             Drill Floor:  LOG MEASURED FROM
 AGAP.m                  43.42:  AIR GAP
 VSNS.m                  -2.16:  VERT SEC N/S
 VSEW.m                  -6.24:  VERT SEC E/W
 APD .m                  43.42:  DEPTH ABOVE PD
 WDMS.m                 118.27:  WD ELEV
 EGL .m                   0.00:  GROUND ELEVATION
 EPD .m                   0.00:  ELEVATION
 AZTC.deg                 6.29:  AZM TOTAL CORR
 GRDC.deg                 0.18:  GRID CORRECTION
 MDEC.deg                 6.47:  MAGNETIC DECL
 MDIP.deg                59.54:  MAGNETIC DIP
 MFLD.nT              50337.00:  MAGNETIC FIELD
 GVFD.g                   1.00:  GRAVITY FIELD
 VSDR.deg               226.99:  VERT SEC DIRECT
 TDD .m                   0.00:  TOTAL DEPTH (DRILLER)
 SDEP.m                 448.00:  START DEPTH
 DFSL.m                   0.00:  DISTANCE FSL
 DFWL.m                   0.00:  DISTANCE FWL
 UTMY.m             4435799.96:  UTM Y
 UTMX.m              526265.35:  UTM X
 WHEW.m                  -6.24:  WELL HEAD E/W
 WHNS.m                  -2.16:  WELL HEAD N/S
 LONG.deg                51.31:  LONGITUDE
 LATI.deg                40.06:  LATITUDE
 TVDS.m                  43.42:  TVDSS CORRECTN
 EKB .m                  43.42:  KB ELEVATION
 EDF .m                  43.42:  DF ELEVATION
 TDL .m                 288.00:  TOTAL DEPTH (LOGGER)
 MAGU.                 1851863:  MAGUTM CHECKSUM
 VSC .                       0:  VS TO CLOSURE
~Parameter Information Block
#MNEM.UNIT       Value        Description
#---------     -----------    ---------------------------
 AV  .mps                 0.40:  Ann Velocity 
 AVMX.mps                 0.63:  Max Ann Veloc 
 AZIF.deg               158.76:  Azm, Final 
 BHAT.        Rotary Steerable:  BHA Type 
 BROT.°/30m               0.68:  Build Rotating 
 BS  .in                  8.50:  Bit Size 
 BSZ .in                  8.50:  Bit Size 
 BTPL.psig              712.00:  Bit Press Loss 
 CABU.                      No:  Customer Abuse 
 COMM.                     'i:  Run Comments 1 
 TCS .hr                 90.66:  Time Ciculation Ended 
 CV  .mps                 2.02:  Crit Velocity 
 CVMX.mps                 2.14:  Max Crit Veloc 
 DD1 .            Aziz Aliyevu:  Direct Drillr 1 
 DD2 .             Samir Abbas:  Direct Drillr 2 
 DD3 .           Teymur Aliyev:  Direct Drillr 3 
 DDSV.                 iCruise:  DD Service 
 DEFF.%                  85.10:  % Det Eff 
 DLRX.°/30m               1.05:  Dogleg Rot Max 
 DLSO.°/30m               1.01:  Dogleg Oriented 
 DLSX.°/30m               1.05:  Dogleg Str Max 
 DRET.      07.45.00 18-Jul-21:  Drill End Time 
 DRST.      15.00.00 16-Jul-21:  Drill Start Tim 
 DTIM.hr                 23.46:  Time Drilling 
 EDEP.m                4603.00:  End Depth 
 ENG1.       Seymur Iskandarov:  Engineer 1 
 ENG2.         Yevgeniy Ulikov:  Engineer 2 
 ENG3.         Bahruz Mehdiyev:  Engineer 3 
 ENG4.         Elchin Mammadov:  Engineer 4 
 ETIM.      14.00.00 23-Jul-21:  End Time 
 FLOI.gpm               500.00:  Flow In 
 FLON.gpm               450.00:  Flow In Min 
 FLOS.cptm                0.00:  Fluid Loss 
 FLOX.gpm               560.00:  Flow In Max 
 DFT .        Mineral Oil Base:  Mud Type 
 FTRO.       Formation Presure:  FTWD Run Obj 
 HFLO.                      No:  High Flow 
 HPRE.                      No:  High Pressure 
 HTEM.                      No:  High Temp 
 HYDO.m                   1.80:  Hydro Offset 
 IFIN.deg                40.22:  Inc, Final 
 IMAX.deg                40.54:  Inc Max 
 IMIN.deg                39.44:  Inc Min 
 IMND.m                4361.17:  Inc Min Depth 
 IMXD.m                4417.92:  Inc Max Depth 
 JARR.                      No:  Jarring 
 LETM.      07.45.00 18-Jul-21:  Log End Time 
 LOST.hr                    16:  Lost Rig Time 
 LSTM.      15.00.00 16-Jul-21:  Log Start Time 
 MDCL.ppm             36500.00:  Mud Chlorides 
 MDES.     Inversion Oil/Synthetic:  Mud Desc 
 DFD .sg                  1.42:  Mud Density 
 MDMN.sg                  1.42:  Dens Mud Min 
 MDMX.sg                  1.43:  Dens Mud Max 
 MOIL.                      56:  Run Mud Oil % 
 MOWR.                   71:29:  Run Mud OWR 
 MSND.                     0.5:  Run Mud Sand % 
 MSOL.                      21:  Run Mud Solids% 
 DFV .spqt               78.00:  Mud Viscosity 
 MWOD.in                  6.75:  MWD Tool OD 
 MWSI.                     Yes:  Serv Intrp, MWD 
 OTIM.hr                200.73:  Time Operating 
 PCON.           Look Like New:  Pad Condition 
 PMAX.psia            11069.93:  Press Op, Max 
 PV  .cP                 32.00:  Mud PV 
 RUN .                     700:  Run Number 
 ROPA.m/hr               10.00:  ROP Avg 
 ROPN.m/hr                9.00:  ROP Min 
 ROPX.m/hr               16.00:  ROP Max 
 RPMA.rpm               116.00:  RPM Surface Avg 
 RPMN.rpm                80.00:  RPM Surface Min 
 RPMX.rpm               120.00:  RPM Surface Max 
 RRUN.                    L605:  Rig Run Number 
 RTIM.hr                 45.00:  Time Reaming 
 SAZI.deg               159.86:  Azm, Start 
 SDEP.m                4315.00:  Start Depth 
 SIDD.                      No:  Serv Intrp, DD 
 SINC.deg                39.86:  Inc, Start 
 SPPA.psig             3300.00:  SPP Avg 
 SPPN.psig             3040.00:  SPP Min 
 SPPX.psig             3645.00:  SPP Max 
 STIM.      01.00.00 15-Jul-21:  Start Time 
 SVCS.                 DD, MWD:  Services 
 SVER.                    9.20:  Sperry Version 
 TDAT.m                 288.00:  Tot Depth Attmp 
 TDDF.                      No:  Trip for DD 
 TDLG.m                 288.00:  Tot Depth Loggd 
 TFF .                      No:  Trip for Fail 
 TQAA.f-kp               19.00:  Torque Abs Avg 
 TQAN.f-kp               18.00:  Torque Abs Min 
 TQAX.f-kp               21.00:  Torque Abs Max 
 TRRT.°/30m               0.45:  Turn Rotating 
 MRT .                    HCIM:  Maximum Recorded Temperature 
 TTMX.degC               88.24:  Max Tool Temp 
 VS01.                90649157:  Virtual Str1 SN 
 VS02.                90652483:  Virtual Str2 SN 
 VS03.                11671987:  Virtual Str3 SN 
 VS04.                90643411:  Virtual Str4 SN 
 VS05.                90652478:  Virtual Str5 SN 
 VS06.                    6111:  Virtual Str6 SN 
 WBMN.klb                 9.50:  WOB Min 
 WITN.        Grigoriy Sarayev:  Customer Rep 
 WITN.          Rufat Huseynov:  Customer Rep 2 
 WOBA.klb                11.00:  WOB Avg 
 WOBX.klb                15.00:  WOB Max 
 YP  .lhf2               28.00:  Yield Point 
~Curve Information Block
#MNEM.UNIT                 API CODE     Curve Description
#---------               -----------    ---------------------------
 TIME.HHMMSS            00 000 000 000:  GT Time & Date
 GTDEPTH.m              00 000 000 000:  GT Depth
 GTPQH.psia             00 000 000 000:  GT HR Quartz Pressure
 GTTQ.degC              00 000 000 000:  GT Quartz Temperature
 GTTN.NONE              00 000 000 000:  GT Test Number
 GTET.sec               00 000 000 000:  GT Elapsed Test Time
 GTTVD.m                00 000 000 000:  GT True Vertical Depth
#Other Information
#
#WARRANTY: Halliburton will use its best efforts to furnish customers with 
#accurate information and interpretations that are part of, and incident to, the services 
#provided.  However, Halliburton cannot and does not warrant the accuracy 
#or correctness of such information and interpretations.  Under no circumstances should any 
#such information or interpretation be relied upon as the sole basis for any drilling, 
#completion, production, or financial decision or any procedure involving any risk to the 
#safety of any drilling venture, drilling rig or its crew or any other third party.  The 
#Customer has full responsibility for all drilling, completion and production operation.  
#Halliburton makes no representations or warranties, either expressed or 
#implied, including, but not limited to, the implied warranties of merchantability or fitness 
#for a particular purpose, with respect to the services rendered.  In no event will 
#Halliburton be liable for failure to obtain any particular results or for 
#any damages, including, but not limited to, indirect, special or consequential damages, 
#resulting from the use of any information or interpretation provided by Halliburton.
#
~A           TIME           GTDEPTH  GTPQH  GTTQ  GTTN   GTET   GTTVD  
# ...
   05:08:51.398.19-Jul-2021 4356.00 6341.87 68.85 12.00 361.73 2590.09
   05:08:51.598.19-Jul-2021 4356.00 6353.08 68.85 12.00 361.93 2590.09
   05:08:51.798.19-Jul-2021 4356.00 6332.46 68.85 12.00 362.13 2590.09
   05:08:51.998.19-Jul-2021 4356.00 6332.46 68.85 12.00 362.33 2590.09
   05:08:52.198.19-Jul-2021 4356.00 6357.24 68.85 12.00 362.53 2590.09
   05:08:52.398.19-Jul-2021 4356.00 6336.32 68.85 12.00 362.73 2590.09
   05:08:52.598.19-Jul-2021 4356.00 6339.82 68.85 12.00 362.93 2590.09
   05:08:52.798.19-Jul-2021 4356.00 6341.68 68.85 12.00 363.13 2590.09
   05:08:52.998.19-Jul-2021 4356.00 6341.68 68.85 12.00 363.33 2590.09
   05:08:53.199.19-Jul-2021 4356.00 6343.25 68.86 12.00 363.53 2590.09
   05:08:53.399.19-Jul-2021 4356.00 6339.95 68.86 12.00 363.73 2590.09
   05:08:53.599.19-Jul-2021 4356.00 6348.55 68.86 12.00 363.93 2590.09
   05:08:53.799.19-Jul-2021 4356.00 6356.18 68.86 12.00 364.13 2590.09
   05:08:53.999.19-Jul-2021 4356.00 6356.18 68.86 12.00 364.33 2590.09
   05:08:54.199.19-Jul-2021 4356.00 6342.62 68.86 12.00 364.53 2590.09
   05:08:54.399.19-Jul-2021 4356.00 6347.24 68.86 12.00 364.73 2590.09
   05:08:54.599.19-Jul-2021 4356.00 6340.91 68.87 12.00 364.93 2590.09
   05:08:54.799.19-Jul-2021 4356.00 6340.55 68.87 12.00 365.13 2590.09
   05:08:54.999.19-Jul-2021 4356.00 6340.55 68.87 12.00 365.33 2590.09
   05:08:55.199.19-Jul-2021 4356.00 6339.06 68.87 12.00 365.53 2590.09
   05:08:55.399.19-Jul-2021 4356.00 6339.31 68.87 12.00 365.73 2590.09
   05:08:55.599.19-Jul-2021 4356.00 6339.09 68.87 12.00 365.93 2590.09
   05:08:55.799.19-Jul-2021 4356.00 6338.83 68.87 12.00 366.13 2590.09
   05:08:56.000.19-Jul-2021 4356.00 6338.83 68.87 12.00 366.33 2590.09
   05:08:56.200.19-Jul-2021 4356.00 6339.25 68.88 12.00 366.53 2590.09
   05:08:56.400.19-Jul-2021 4356.00 6339.00 68.88 12.00 366.74 2590.09
   05:08:56.600.19-Jul-2021 4356.00 6362.38 68.88 12.00 366.94 2590.09
   05:08:56.800.19-Jul-2021 4356.00 6333.71 68.88 12.00 367.14 2590.09
   05:08:57.000.19-Jul-2021 4356.00 6333.71 68.88 12.00 367.34 2590.09
   05:08:57.200.19-Jul-2021 4356.00 6348.06 68.88 12.00 367.54 2590.09
   05:08:57.400.19-Jul-2021 4356.00 6339.07 68.88 12.00 367.74 2590.09
   05:08:57.600.19-Jul-2021 4356.00 6341.51 68.88 12.00 367.94 2590.09
   05:08:57.800.19-Jul-2021 4356.00 6340.59 68.88 12.00 368.14 2590.09
   05:08:58.000.19-Jul-2021 4356.00 6340.59 68.88 12.00 368.34 2590.09
   05:08:58.200.19-Jul-2021 4356.00 6340.10 68.88 12.00 368.54 2590.09
   05:08:58.400.19-Jul-2021 4356.00 6339.28 68.89 12.00 368.74 2590.09
   05:08:58.600.19-Jul-2021 4356.00 6339.37 68.89 12.00 368.94 2590.09
   05:08:58.801.19-Jul-2021 4356.00 6339.17 68.89 12.00 369.14 2590.09
   05:08:59.001.19-Jul-2021 4356.00 6339.17 68.89 12.00 369.34 2590.09
   05:08:59.201.19-Jul-2021 4356.00 6361.99 68.89 12.00 369.54 2590.09
   05:08:59.401.19-Jul-2021 4356.00 6332.62 68.89 12.00 369.74 2590.09
   05:08:59.601.19-Jul-2021 4356.00 6335.90 68.89 12.00 369.94 2590.09
   05:08:59.801.19-Jul-2021 4356.00 6370.87 68.89 12.00 370.14 2590.09
   05:09:00.001.19-Jul-2021 4356.00 6370.87 68.89 12.00 370.34 2590.09
   05:09:00.201.19-Jul-2021 4356.00 6338.54 68.89 12.00 370.54 2590.09
   05:09:00.401.19-Jul-2021 4356.00 6371.17 68.89 12.00 370.74 2590.09
   05:09:00.601.19-Jul-2021 4356.00 6333.68 68.89 12.00 370.94 2590.09
   05:09:00.801.19-Jul-2021 4356.00 6341.09 68.89 12.00 371.14 2590.09
   05:09:01.001.19-Jul-2021 4356.00 6341.09 68.89 12.00 371.34 2590.09
   05:09:01.201.19-Jul-2021 4356.00 6346.68 68.89 12.00 371.54 2590.09
   05:09:01.402.19-Jul-2021 4356.00 6354.98 68.90 12.00 371.74 2590.09
   05:09:01.602.19-Jul-2021 4356.00 6341.38 68.90 12.00 371.94 2590.09
   05:09:01.802.19-Jul-2021 4356.00 6365.17 68.90 12.00 372.14 2590.09
   05:09:02.002.19-Jul-2021 4356.00 6365.17 68.90 12.00 372.34 2590.09
   05:09:02.202.19-Jul-2021 4356.00 6342.26 68.90 12.00 372.54 2590.09
   05:09:02.402.19-Jul-2021 4356.00 6353.12 68.90 12.00 372.74 2590.09
   05:09:02.602.19-Jul-2021 4356.00 6342.08 68.90 12.00 372.94 2590.09
   05:09:02.802.19-Jul-2021 4356.00 6343.21 68.90 12.00 373.14 2590.09
   05:09:03.002.19-Jul-2021 4356.00 6343.21 68.90 12.00 373.34 2590.09
   05:09:03.202.19-Jul-2021 4356.00 6342.82 68.90 12.00 373.54 2590.09
   05:09:03.402.19-Jul-2021 4356.00 6340.77 68.90 12.00 373.74 2590.09
   05:09:03.602.19-Jul-2021 4356.00 6339.70 68.90 12.00 373.94 2590.09
   05:09:03.802.19-Jul-2021 4356.00 6339.69 68.90 12.00 374.14 2590.09
   05:09:04.002.19-Jul-2021 4356.00 6339.69 68.90 12.00 374.34 2590.09
   05:09:04.203.19-Jul-2021 4356.00 6338.84 68.90 12.00 374.54 2590.09
   05:09:04.403.19-Jul-2021 4356.00 6339.58 68.90 12.00 374.74 2590.09
   05:09:04.603.19-Jul-2021 4356.00 6346.57 68.90 12.00 374.94 2590.09
   05:09:04.803.19-Jul-2021 4356.00 6352.04 68.90 12.00 375.14 2590.09
   05:09:05.003.19-Jul-2021 4356.00 6352.04 68.90 12.00 375.34 2590.09
   05:09:05.203.19-Jul-2021 4356.00 6345.53 68.90 12.00 375.54 2590.09
   05:09:05.403.19-Jul-2021 4356.00 6340.12 68.90 12.00 375.74 2590.09
   05:09:05.603.19-Jul-2021 4356.00 6339.75 68.90 12.00 375.94 2590.09
   05:09:05.803.19-Jul-2021 4356.00 6341.35 68.90 12.00 376.14 2590.09
   05:09:06.003.19-Jul-2021 4356.00 6341.35 68.90 12.00 376.34 2590.09
   05:09:06.203.19-Jul-2021 4356.00 6339.88 68.90 12.00 376.54 2590.09
   05:09:06.403.19-Jul-2021 4356.00 6339.26 68.90 12.00 376.74 2590.09
   05:09:06.603.19-Jul-2021 4356.00 6339.49 68.90 12.00 376.94 2590.09
   05:09:06.804.19-Jul-2021 4356.00 6339.20 68.90 12.00 377.14 2590.09
   05:09:07.004.19-Jul-2021 4356.00 6339.20 68.90 12.00 377.34 2590.09
   05:09:07.204.19-Jul-2021 4356.00 6346.73 68.90 12.00 377.54 2590.09
   05:09:07.404.19-Jul-2021 4356.00 6352.23 68.90 12.00 377.74 2590.09
   05:09:07.604.19-Jul-2021 4356.00 6338.89 68.90 12.00 377.94 2590.09
   05:09:07.804.19-Jul-2021 4356.00 6363.53 68.90 12.00 378.14 2590.09
   05:09:08.004.19-Jul-2021 4356.00 6363.53 68.90 12.00 378.34 2590.09
   05:09:08.204.19-Jul-2021 4356.00 6341.91 68.90 12.00 378.54 2590.09
   05:09:08.404.19-Jul-2021 4356.00 6350.63 68.90 12.00 378.74 2590.09
   05:09:08.604.19-Jul-2021 4356.00 6339.32 68.90 12.00 378.94 2590.09
   05:09:08.804.19-Jul-2021 4356.00 6364.42 68.90 12.00 379.14 2590.09
   05:09:09.004.19-Jul-2021 4356.00 6364.42 68.90 12.00 379.34 2590.09
   05:09:09.204.19-Jul-2021 4356.00 6339.56 68.90 12.00 379.54 2590.09
   05:09:09.404.19-Jul-2021 4356.00 6347.83 68.90 12.00 379.74 2590.09
   05:09:09.605.19-Jul-2021 4356.00 6348.07 68.90 12.00 379.94 2590.09
   05:09:09.805.19-Jul-2021 4356.00 6357.74 68.90 12.00 380.14 2590.09
   05:09:10.005.19-Jul-2021 4356.00 6357.74 68.90 12.00 380.34 2590.09
   05:09:10.205.19-Jul-2021 4356.00 6347.71 68.90 12.00 380.54 2590.09
   05:09:10.405.19-Jul-2021 4356.00 6367.25 68.90 12.00 380.74 2590.09
   05:09:10.605.19-Jul-2021 4356.00 6336.23 68.90 12.00 380.94 2590.09
   05:09:10.805.19-Jul-2021 4356.00 6342.98 68.90 12.00 381.14 2590.09
   05:09:11.005.19-Jul-2021 4356.00 6342.98 68.90 12.00 381.34 2590.09
   05:09:11.205.19-Jul-2021 4356.00 6342.15 68.90 12.00 381.54 2590.09
   05:09:11.405.19-Jul-2021 4356.00 6343.11 68.90 12.00 381.74 2590.09
   05:09:11.605.19-Jul-2021 4356.00 6342.25 68.90 12.00 381.94 2590.09
   05:09:11.805.19-Jul-2021 4356.00 6341.33 68.90 12.00 382.14 2590.09
   05:09:12.005.19-Jul-2021 4356.00 6341.33 68.90 12.00 382.34 2590.09
   05:09:12.206.19-Jul-2021 4356.00 6340.72 68.90 12.00 382.54 2590.09
   05:09:12.406.19-Jul-2021 4356.00 6341.25 68.90 12.00 382.74 2590.09
   05:09:12.606.19-Jul-2021 4356.00 6340.99 68.90 12.00 382.94 2590.09
   05:09:12.806.19-Jul-2021 4356.00 6339.94 68.90 12.00 383.14 2590.09
   05:09:13.006.19-Jul-2021 4356.00 6339.94 68.90 12.00 383.34 2590.09
   05:09:13.206.19-Jul-2021 4356.00 6356.02 68.90 12.00 383.54 2590.09
   05:09:13.406.19-Jul-2021 4356.00 6341.49 68.90 12.00 383.74 2590.09
   05:09:13.606.19-Jul-2021 4356.00 6339.62 68.90 12.00 383.94 2590.09
   05:09:13.806.19-Jul-2021 4356.00 6347.69 68.90 12.00 384.14 2590.09
