~Version Information
 VERS.                  2.0:   CWLS log ASCII Standard -VERSION 2.0
 WRAP.                   NO:   One line per depth step
~Well Information Block
#MNEM.UNIT     VALUE/NAME     DESCRIPTION
#---------     -----------    ---------------------------
 STRT.S             10:41:06 19-Jul-21: START TIME 10:41:06 19-Jul-21
 STOP.S             10:48:00 19-Jul-21: STOP TIME  10:48:00 19-Jul-21
 STEP.S                   0.00: STEP TIME
 NULL.                 -999.25: NULL VALUE
 MDS .        Operator Entered:  MAG DATA SOURCE
 PDAT.          Mean Sea Level:  PERMANENT DATUM
 UNIT.                     N/A:  LOGGING EQUIPMENT ID
 DCON.         Sperry Drilling:  DIRECTNL CONTR
 DOE .                     N/A:  DOE NUMBER
 RIG .              West Azeri:  RIG NAME
 JOBN.        AZ-XX-0906997913:  JOB TICKET NUMB
 WELL.                     C41:  WELL NAME
 MWDS.                    Baku:  MWD SHOP
 SRVC.          Turan Drilling:  CONTRACTOR
 FLD .                     ACG:  FIELD NAME
 CTRY.              Azerbaijan:  COUNTRY NAME
 PROV.                    Baku:  PROVINCE
 STAT.                    Baku:  STATE NAME
 REGN.                   EESSA:  REGION
 BASE.              Azerbaijan:  LOGGING EQUIPMENT BASE LOCATION
 UWI .                     N/A:  UNIQUE WELL IDENTIFIER
 API .                     N/A:  API NUMBER
 COMP.     BP Exploration (Caspian Sea) Ltd.:  COMPANY
 WTYP.                Deviated:  WELL TYPE
 SON .        AZ-XX-0906997913:  JOB NUMBER
 FTOP.          Formation Tops:  FORM TOPS DESC
 ILTD.               Lithology:  INTERP LTH DESC
 SVYD.                  Survey:  SURVEY DESC
 DMOD.             Drill Model:  DRILL MOD DESC
 HPTY.       Minimum Curvature:  HOLE POS TYPE
 NREF.                    Grid:  NORTH REFERENCE
 SPUD.               16-May-21:  SPUD DATE
 DATE.      21.11.28 17-May-21:  END TIME
 STIM.      21.11.28 17-May-21:  START TIME
 DMF .             Drill Floor:  DRILL MEAS FROM
 DFST.                        :  DIST FSL TEXT
 DFWT.                        :  DIST FWL TEXT
 CNTY.                        :  COUNTY
 LOC .                        :  LOCATION
 LMF .             Drill Floor:  LOG MEASURED FROM
 AGAP.m                  43.42:  AIR GAP
 VSNS.m                  -2.16:  VERT SEC N/S
 VSEW.m                  -6.24:  VERT SEC E/W
 APD .m                  43.42:  DEPTH ABOVE PD
 WDMS.m                 118.27:  WD ELEV
 EGL .m                   0.00:  GROUND ELEVATION
 EPD .m                   0.00:  ELEVATION
 AZTC.deg                 6.29:  AZM TOTAL CORR
 GRDC.deg                 0.18:  GRID CORRECTION
 MDEC.deg                 6.47:  MAGNETIC DECL
 MDIP.deg                59.54:  MAGNETIC DIP
 MFLD.nT              50337.00:  MAGNETIC FIELD
 GVFD.g                   1.00:  GRAVITY FIELD
 VSDR.deg               226.99:  VERT SEC DIRECT
 TDD .m                   0.00:  TOTAL DEPTH (DRILLER)
 SDEP.m                 448.00:  START DEPTH
 DFSL.m                   0.00:  DISTANCE FSL
 DFWL.m                   0.00:  DISTANCE FWL
 UTMY.m             4435799.96:  UTM Y
 UTMX.m              526265.35:  UTM X
 WHEW.m                  -6.24:  WELL HEAD E/W
 WHNS.m                  -2.16:  WELL HEAD N/S
 LONG.deg                51.31:  LONGITUDE
 LATI.deg                40.06:  LATITUDE
 TVDS.m                  43.42:  TVDSS CORRECTN
 EKB .m                  43.42:  KB ELEVATION
 EDF .m                  43.42:  DF ELEVATION
 TDL .m                 288.00:  TOTAL DEPTH (LOGGER)
 MAGU.                 1851863:  MAGUTM CHECKSUM
 VSC .                       0:  VS TO CLOSURE
~Parameter Information Block
#MNEM.UNIT       Value        Description
#---------     -----------    ---------------------------
 AV  .mps                 0.40:  Ann Velocity 
 AVMX.mps                 0.63:  Max Ann Veloc 
 AZIF.deg               158.76:  Azm, Final 
 BHAT.        Rotary Steerable:  BHA Type 
 BROT.°/30m               0.68:  Build Rotating 
 BS  .in                  8.50:  Bit Size 
 BSZ .in                  8.50:  Bit Size 
 BTPL.psig              712.00:  Bit Press Loss 
 CABU.                      No:  Customer Abuse 
 COMM.                     ÄòJ:  Run Comments 1 
 TCS .hr                 90.66:  Time Ciculation Ended 
 CV  .mps                 2.02:  Crit Velocity 
 CVMX.mps                 2.14:  Max Crit Veloc 
 DD1 .            Aziz Aliyevu:  Direct Drillr 1 
 DD2 .             Samir Abbas:  Direct Drillr 2 
 DD3 .           Teymur Aliyev:  Direct Drillr 3 
 DDSV.                 iCruise:  DD Service 
 DEFF.%                  85.10:  % Det Eff 
 DLRX.°/30m               1.05:  Dogleg Rot Max 
 DLSO.°/30m               1.01:  Dogleg Oriented 
 DLSX.°/30m               1.05:  Dogleg Str Max 
 DRET.      07.45.00 18-Jul-21:  Drill End Time 
 DRST.      15.00.00 16-Jul-21:  Drill Start Tim 
 DTIM.hr                 23.46:  Time Drilling 
 EDEP.m                4603.00:  End Depth 
 ENG1.       Seymur Iskandarov:  Engineer 1 
 ENG2.         Yevgeniy Ulikov:  Engineer 2 
 ENG3.         Bahruz Mehdiyev:  Engineer 3 
 ENG4.         Elchin Mammadov:  Engineer 4 
 ETIM.      14.00.00 23-Jul-21:  End Time 
 FLOI.gpm               500.00:  Flow In 
 FLON.gpm               450.00:  Flow In Min 
 FLOS.cptm                0.00:  Fluid Loss 
 FLOX.gpm               560.00:  Flow In Max 
 DFT .        Mineral Oil Base:  Mud Type 
 FTRO.       Formation Presure:  FTWD Run Obj 
 HFLO.                      No:  High Flow 
 HPRE.                      No:  High Pressure 
 HTEM.                      No:  High Temp 
 HYDO.m                   1.80:  Hydro Offset 
 IFIN.deg                40.22:  Inc, Final 
 IMAX.deg                40.54:  Inc Max 
 IMIN.deg                39.44:  Inc Min 
 IMND.m                4361.17:  Inc Min Depth 
 IMXD.m                4417.92:  Inc Max Depth 
 JARR.                      No:  Jarring 
 LETM.      07.45.00 18-Jul-21:  Log End Time 
 LOST.hr                    16:  Lost Rig Time 
 LSTM.      15.00.00 16-Jul-21:  Log Start Time 
 MDCL.ppm             36500.00:  Mud Chlorides 
 MDES.     Inversion Oil/Synthetic:  Mud Desc 
 DFD .sg                  1.42:  Mud Density 
 MDMN.sg                  1.42:  Dens Mud Min 
 MDMX.sg                  1.43:  Dens Mud Max 
 MOIL.                      56:  Run Mud Oil % 
 MOWR.                   71:29:  Run Mud OWR 
 MSND.                     0.5:  Run Mud Sand % 
 MSOL.                      21:  Run Mud Solids% 
 DFV .spqt               78.00:  Mud Viscosity 
 MWOD.in                  6.75:  MWD Tool OD 
 MWSI.                     Yes:  Serv Intrp, MWD 
 OTIM.hr                200.73:  Time Operating 
 PCON.           Look Like New:  Pad Condition 
 PMAX.psia            11069.93:  Press Op, Max 
 PV  .cP                 32.00:  Mud PV 
 RUN .                     700:  Run Number 
 ROPA.m/hr               10.00:  ROP Avg 
 ROPN.m/hr                9.00:  ROP Min 
 ROPX.m/hr               16.00:  ROP Max 
 RPMA.rpm               116.00:  RPM Surface Avg 
 RPMN.rpm                80.00:  RPM Surface Min 
 RPMX.rpm               120.00:  RPM Surface Max 
 RRUN.                    L605:  Rig Run Number 
 RTIM.hr                 45.00:  Time Reaming 
 SAZI.deg               159.86:  Azm, Start 
 SDEP.m                4315.00:  Start Depth 
 SIDD.                      No:  Serv Intrp, DD 
 SINC.deg                39.86:  Inc, Start 
 SPPA.psig             3300.00:  SPP Avg 
 SPPN.psig             3040.00:  SPP Min 
 SPPX.psig             3645.00:  SPP Max 
 STIM.      01.00.00 15-Jul-21:  Start Time 
 SVCS.                 DD, MWD:  Services 
 SVER.                    9.20:  Sperry Version 
 TDAT.m                 288.00:  Tot Depth Attmp 
 TDDF.                      No:  Trip for DD 
 TDLG.m                 288.00:  Tot Depth Loggd 
 TFF .                      No:  Trip for Fail 
 TQAA.f-kp               19.00:  Torque Abs Avg 
 TQAN.f-kp               18.00:  Torque Abs Min 
 TQAX.f-kp               21.00:  Torque Abs Max 
 TRRT.°/30m               0.45:  Turn Rotating 
 MRT .                    HCIM:  Maximum Recorded Temperature 
 TTMX.degC               88.24:  Max Tool Temp 
 VS01.                90649157:  Virtual Str1 SN 
 VS02.                90652483:  Virtual Str2 SN 
 VS03.                11671987:  Virtual Str3 SN 
 VS04.                90643411:  Virtual Str4 SN 
 VS05.                90652478:  Virtual Str5 SN 
 VS06.                    6111:  Virtual Str6 SN 
 WBMN.klb                 9.50:  WOB Min 
 WITN.        Grigoriy Sarayev:  Customer Rep 
 WITN.          Rufat Huseynov:  Customer Rep 2 
 WOBA.klb                11.00:  WOB Avg 
 WOBX.klb                15.00:  WOB Max 
 YP  .lhf2               28.00:  Yield Point 
~Curve Information Block
#MNEM.UNIT                 API CODE     Curve Description
#---------               -----------    ---------------------------
 TIME.HHMMSS            00 000 000 000:  GT Time & Date
 GTDEPTH.m              00 000 000 000:  GT Depth
 GTPQH.psia             00 000 000 000:  GT HR Quartz Pressure
 GTTQ.degC              00 000 000 000:  GT Quartz Temperature
 GTTN.NONE              00 000 000 000:  GT Test Number
 GTET.sec               00 000 000 000:  GT Elapsed Test Time
 GTTVD.m                00 000 000 000:  GT True Vertical Depth
#Other Information
#
#WARRANTY: Halliburton will use its best efforts to furnish customers with 
#accurate information and interpretations that are part of, and incident to, the services 
#provided.  However, Halliburton cannot and does not warrant the accuracy 
#or correctness of such information and interpretations.  Under no circumstances should any 
#such information or interpretation be relied upon as the sole basis for any drilling, 
#completion, production, or financial decision or any procedure involving any risk to the 
#safety of any drilling venture, drilling rig or its crew or any other third party.  The 
#Customer has full responsibility for all drilling, completion and production operation.  
#Halliburton makes no representations or warranties, either expressed or 
#implied, including, but not limited to, the implied warranties of merchantability or fitness 
#for a particular purpose, with respect to the services rendered.  In no event will 
#Halliburton be liable for failure to obtain any particular results or for 
#any damages, including, but not limited to, indirect, special or consequential damages, 
#resulting from the use of any information or interpretation provided by Halliburton.
#
~A           TIME           GTDEPTH  GTPQH  GTTQ  GTTN   GTET   GTTVD  
# ...
   10:44:52.221.19-Jul-2021 4492.50 3545.09 70.55 23.00 226.08 2694.52
   10:44:52.421.19-Jul-2021 4492.50 3545.09 70.55 23.00 226.28 2694.52
   10:44:52.621.19-Jul-2021 4492.50 3544.91 70.55 23.00 226.48 2694.52
   10:44:52.821.19-Jul-2021 4492.50 3545.15 70.55 23.00 226.68 2694.52
   10:44:53.022.19-Jul-2021 4492.50 3544.99 70.55 23.00 226.88 2694.52
   10:44:53.222.19-Jul-2021 4492.50 3545.05 70.55 23.00 227.08 2694.52
   10:44:53.422.19-Jul-2021 4492.50 3545.05 70.55 23.00 227.28 2694.52
   10:44:53.622.19-Jul-2021 4492.50 3544.94 70.55 23.00 227.48 2694.52
   10:44:53.822.19-Jul-2021 4492.50 3545.15 70.55 23.00 227.68 2694.52
   10:44:54.022.19-Jul-2021 4492.50 3544.98 70.55 23.00 227.88 2694.52
   10:44:54.222.19-Jul-2021 4492.50 3545.06 70.55 23.00 228.08 2694.52
   10:44:54.422.19-Jul-2021 4492.50 3545.06 70.55 23.00 228.28 2694.52
   10:44:54.622.19-Jul-2021 4492.50 3545.07 70.55 23.00 228.48 2694.52
   10:44:54.822.19-Jul-2021 4492.50 3545.08 70.55 23.00 228.68 2694.52
   10:44:55.022.19-Jul-2021 4492.50 3544.99 70.55 23.00 228.88 2694.52
   10:44:55.222.19-Jul-2021 4492.50 3545.07 70.55 23.00 229.08 2694.52
   10:44:55.422.19-Jul-2021 4492.50 3545.07 70.55 23.00 229.28 2694.52
   10:44:55.623.19-Jul-2021 4492.50 3545.01 70.55 23.00 229.48 2694.52
   10:44:55.823.19-Jul-2021 4492.50 3545.16 70.55 23.00 229.68 2694.52
   10:44:56.023.19-Jul-2021 4492.50 3544.99 70.55 23.00 229.88 2694.52
   10:44:56.223.19-Jul-2021 4492.50 3545.08 70.55 23.00 230.08 2694.52
   10:44:56.423.19-Jul-2021 4492.50 3545.08 70.55 23.00 230.28 2694.52
   10:44:56.623.19-Jul-2021 4492.50 3545.00 70.55 23.00 230.48 2694.52
   10:44:56.823.19-Jul-2021 4492.50 3545.12 70.55 23.00 230.68 2694.52
   10:44:57.023.19-Jul-2021 4492.50 3545.04 70.55 23.00 230.89 2694.52
   10:44:57.223.19-Jul-2021 4492.50 3545.05 70.55 23.00 231.09 2694.52
   10:44:57.423.19-Jul-2021 4492.50 3545.05 70.55 23.00 231.29 2694.52
   10:44:57.623.19-Jul-2021 4492.50 3545.03 70.55 23.00 231.49 2694.52
   10:44:57.823.19-Jul-2021 4492.50 3545.07 70.55 23.00 231.69 2694.52
   10:44:58.023.19-Jul-2021 4492.50 3544.94 70.55 23.00 231.89 2694.52
   10:44:58.223.19-Jul-2021 4492.50 3545.11 70.55 23.00 232.09 2694.52
   10:44:58.424.19-Jul-2021 4492.50 3545.11 70.55 23.00 232.29 2694.52
   10:44:58.624.19-Jul-2021 4492.50 3545.20 70.55 23.00 232.49 2694.52
   10:44:58.824.19-Jul-2021 4492.50 3544.86 70.55 23.00 232.69 2694.52
   10:44:59.024.19-Jul-2021 4492.50 3545.13 70.55 23.00 232.89 2694.52
   10:44:59.224.19-Jul-2021 4492.50 3545.04 70.55 23.00 233.09 2694.52
   10:44:59.424.19-Jul-2021 4492.50 3545.04 70.55 23.00 233.29 2694.52
   10:44:59.624.19-Jul-2021 4492.50 3544.99 70.55 23.00 233.49 2694.52
   10:44:59.824.19-Jul-2021 4492.50 3544.91 70.55 23.00 233.69 2694.52
   10:45:00.024.19-Jul-2021 4492.50 3544.98 70.55 23.00 233.89 2694.52
   10:45:00.224.19-Jul-2021 4492.50 3545.05 70.55 23.00 234.09 2694.52
   10:45:00.424.19-Jul-2021 4492.50 3545.05 70.55 23.00 234.29 2694.52
   10:45:00.624.19-Jul-2021 4492.50 3545.17 70.55 23.00 234.49 2694.52
   10:45:00.824.19-Jul-2021 4492.50 3545.01 70.55 23.00 234.69 2694.52
   10:45:01.024.19-Jul-2021 4492.50 3545.00 70.55 23.00 234.89 2694.52
   10:45:01.225.19-Jul-2021 4492.50 3545.07 70.55 23.00 235.09 2694.52
   10:45:01.425.19-Jul-2021 4492.50 3545.07 70.55 23.00 235.29 2694.52
   10:45:01.625.19-Jul-2021 4492.50 3545.10 70.55 23.00 235.49 2694.52
   10:45:01.825.19-Jul-2021 4492.50 3545.07 70.55 23.00 235.69 2694.52
   10:45:02.025.19-Jul-2021 4492.50 3544.96 70.55 23.00 235.89 2694.52
   10:45:02.225.19-Jul-2021 4492.50 3545.10 70.55 23.00 236.09 2694.52
   10:45:02.425.19-Jul-2021 4492.50 3545.10 70.55 23.00 236.29 2694.52
   10:45:02.625.19-Jul-2021 4492.50 3544.99 70.55 23.00 236.49 2694.52
   10:45:02.825.19-Jul-2021 4492.50 3545.08 70.55 23.00 236.69 2694.52
   10:45:03.025.19-Jul-2021 4492.50 3545.05 70.55 23.00 236.89 2694.52
   10:45:03.225.19-Jul-2021 4492.50 3545.00 70.55 23.00 237.09 2694.52
   10:45:03.425.19-Jul-2021 4492.50 3545.00 70.55 23.00 237.29 2694.52
   10:45:03.625.19-Jul-2021 4492.50 3545.06 70.55 23.00 237.49 2694.52
   10:45:03.826.19-Jul-2021 4492.50 3545.03 70.55 23.00 237.69 2694.52
   10:45:04.026.19-Jul-2021 4492.50 3545.01 70.55 23.00 237.89 2694.52
   10:45:04.226.19-Jul-2021 4492.50 3545.08 70.55 23.00 238.09 2694.52
   10:45:04.426.19-Jul-2021 4492.50 3545.08 70.55 23.00 238.29 2694.52
   10:45:04.626.19-Jul-2021 4492.50 3544.93 70.55 23.00 238.49 2694.52
   10:45:04.826.19-Jul-2021 4492.50 3545.14 70.55 23.00 238.69 2694.52
   10:45:05.026.19-Jul-2021 4492.50 3545.01 70.55 23.00 238.89 2694.52
   10:45:05.226.19-Jul-2021 4492.50 3545.12 70.55 23.00 239.09 2694.52
   10:45:05.426.19-Jul-2021 4492.50 3545.12 70.55 23.00 239.29 2694.52
   10:45:05.626.19-Jul-2021 4492.50 3545.06 70.55 23.00 239.49 2694.52
   10:45:05.826.19-Jul-2021 4492.50 3544.98 70.55 23.00 239.69 2694.52
   10:45:06.026.19-Jul-2021 4492.50 3545.08 70.55 23.00 239.89 2694.52
   10:45:06.226.19-Jul-2021 4492.50 3545.03 70.55 23.00 240.09 2694.52
   10:45:06.426.19-Jul-2021 4492.50 3545.03 70.55 23.00 240.29 2694.52
   10:45:06.627.19-Jul-2021 4492.50 3545.03 70.55 23.00 240.49 2694.52
   10:45:06.827.19-Jul-2021 4492.50 3544.98 70.55 23.00 240.69 2694.52
   10:45:07.027.19-Jul-2021 4492.50 3545.11 70.55 23.00 240.89 2694.52
   10:45:07.227.19-Jul-2021 4492.50 3545.05 70.55 23.00 241.09 2694.52
   10:45:07.427.19-Jul-2021 4492.50 3545.05 70.55 23.00 241.29 2694.52
   10:45:07.627.19-Jul-2021 4492.50 3544.95 70.55 23.00 241.49 2694.52
   10:45:07.827.19-Jul-2021 4492.50 3544.95 70.55 23.00 241.69 2694.52
   10:45:08.027.19-Jul-2021 4492.50 3544.95 70.55 23.00 241.89 2694.52
   10:45:08.227.19-Jul-2021 4492.50 3545.00 70.55 23.00 242.09 2694.52
   10:45:08.427.19-Jul-2021 4492.50 3545.00 70.55 23.00 242.29 2694.52
   10:45:08.627.19-Jul-2021 4492.50 3545.20 70.55 23.00 242.49 2694.52
   10:45:08.827.19-Jul-2021 4492.50 3544.99 70.55 23.00 242.69 2694.52
   10:45:09.027.19-Jul-2021 4492.50 3545.09 70.55 23.00 242.89 2694.52
   10:45:09.228.19-Jul-2021 4492.50 3544.99 70.55 23.00 243.09 2694.52
   10:45:09.428.19-Jul-2021 4492.50 3544.99 70.55 23.00 243.29 2694.52
   10:45:09.628.19-Jul-2021 4492.50 3545.15 70.55 23.00 243.49 2694.52
   10:45:09.828.19-Jul-2021 4492.50 3544.97 70.55 23.00 243.69 2694.52
   10:45:10.028.19-Jul-2021 4492.50 3545.09 70.55 23.00 243.89 2694.52
   10:45:10.228.19-Jul-2021 4492.50 3545.03 70.55 23.00 244.09 2694.52
   10:45:10.428.19-Jul-2021 4492.50 3545.03 70.55 23.00 244.29 2694.52
   10:45:10.628.19-Jul-2021 4492.50 3545.21 70.55 23.00 244.49 2694.52
   10:45:10.828.19-Jul-2021 4492.50 3544.92 70.55 23.00 244.69 2694.52
   10:45:11.028.19-Jul-2021 4492.50 3545.00 70.55 23.00 244.89 2694.52
   10:45:11.228.19-Jul-2021 4492.50 3545.06 70.55 23.00 245.09 2694.52
   10:45:11.428.19-Jul-2021 4492.50 3545.06 70.55 23.00 245.29 2694.52
   10:45:11.628.19-Jul-2021 4492.50 3544.97 70.55 23.00 245.49 2694.52
   10:45:11.828.19-Jul-2021 4492.50 3544.97 70.55 23.00 245.69 2694.52
   10:45:12.029.19-Jul-2021 4492.50 3545.09 70.55 23.00 245.89 2694.52
   10:45:12.229.19-Jul-2021 4492.50 3545.01 70.55 23.00 246.09 2694.52
   10:45:12.429.19-Jul-2021 4492.50 3545.01 70.55 23.00 246.29 2694.52
   10:45:12.629.19-Jul-2021 4492.50 3545.10 70.55 23.00 246.49 2694.52
   10:45:12.829.19-Jul-2021 4492.50 3545.00 70.55 23.00 246.69 2694.52
   10:45:13.029.19-Jul-2021 4492.50 3545.07 70.55 23.00 246.89 2694.52
   10:45:13.229.19-Jul-2021 4492.50 3544.99 70.55 23.00 247.09 2694.52
   10:45:13.429.19-Jul-2021 4492.50 3544.99 70.55 23.00 247.29 2694.52
   10:45:13.629.19-Jul-2021 4492.50 3545.10 70.55 23.00 247.49 2694.52
   10:45:13.829.19-Jul-2021 4492.50 3545.00 70.55 23.00 247.69 2694.52
   10:45:14.029.19-Jul-2021 4492.50 3545.02 70.55 23.00 247.89 2694.52
   10:45:14.229.19-Jul-2021 4492.50 3545.03 70.55 23.00 248.09 2694.52
   10:45:14.429.19-Jul-2021 4492.50 3545.03 70.55 23.00 248.29 2694.52
   10:45:14.630.19-Jul-2021 4492.50 3544.99 70.55 23.00 248.49 2694.52
