~Version Information
 VERS.                  2.0:   CWLS log ASCII Standard -VERSION 2.0
 WRAP.                   NO:   One line per depth step
~Well Information Block
#MNEM.UNIT     VALUE/NAME     DESCRIPTION
#---------     -----------    ---------------------------
 STRT.S             14:01:43 18-Jul-21: START TIME 14:01:43 18-Jul-21
 STOP.S             14:08:15 18-Jul-21: STOP TIME  14:08:15 18-Jul-21
 STEP.S                   0.00: STEP TIME
 NULL.                 -999.25: NULL VALUE
 MDS .        Operator Entered:  MAG DATA SOURCE
 PDAT.          Mean Sea Level:  PERMANENT DATUM
 UNIT.                     N/A:  LOGGING EQUIPMENT ID
 DCON.         Sperry Drilling:  DIRECTNL CONTR
 DOE .                     N/A:  DOE NUMBER
 RIG .              West Azeri:  RIG NAME
 JOBN.        AZ-XX-0906997913:  JOB TICKET NUMB
 WELL.                     C41:  WELL NAME
 MWDS.                    Baku:  MWD SHOP
 SRVC.          Turan Drilling:  CONTRACTOR
 FLD .                     ACG:  FIELD NAME
 CTRY.              Azerbaijan:  COUNTRY NAME
 PROV.                    Baku:  PROVINCE
 STAT.                    Baku:  STATE NAME
 REGN.                   EESSA:  REGION
 BASE.              Azerbaijan:  LOGGING EQUIPMENT BASE LOCATION
 UWI .                     N/A:  UNIQUE WELL IDENTIFIER
 API .                     N/A:  API NUMBER
 COMP.     BP Exploration (Caspian Sea) Ltd.:  COMPANY
 WTYP.                Deviated:  WELL TYPE
 SON .        AZ-XX-0906997913:  JOB NUMBER
 FTOP.          Formation Tops:  FORM TOPS DESC
 ILTD.               Lithology:  INTERP LTH DESC
 SVYD.                  Survey:  SURVEY DESC
 DMOD.             Drill Model:  DRILL MOD DESC
 HPTY.       Minimum Curvature:  HOLE POS TYPE
 NREF.                    Grid:  NORTH REFERENCE
 SPUD.               16-May-21:  SPUD DATE
 DATE.      21.11.28 17-May-21:  END TIME
 STIM.      21.11.28 17-May-21:  START TIME
 DMF .             Drill Floor:  DRILL MEAS FROM
 DFST.                        :  DIST FSL TEXT
 DFWT.                        :  DIST FWL TEXT
 CNTY.                        :  COUNTY
 LOC .                        :  LOCATION
 LMF .             Drill Floor:  LOG MEASURED FROM
 AGAP.m                  43.42:  AIR GAP
 VSNS.m                  -2.16:  VERT SEC N/S
 VSEW.m                  -6.24:  VERT SEC E/W
 APD .m                  43.42:  DEPTH ABOVE PD
 WDMS.m                 118.27:  WD ELEV
 EGL .m                   0.00:  GROUND ELEVATION
 EPD .m                   0.00:  ELEVATION
 AZTC.deg                 6.29:  AZM TOTAL CORR
 GRDC.deg                 0.18:  GRID CORRECTION
 MDEC.deg                 6.47:  MAGNETIC DECL
 MDIP.deg                59.54:  MAGNETIC DIP
 MFLD.nT              50337.00:  MAGNETIC FIELD
 GVFD.g                   1.00:  GRAVITY FIELD
 VSDR.deg               226.99:  VERT SEC DIRECT
 TDD .m                   0.00:  TOTAL DEPTH (DRILLER)
 SDEP.m                 448.00:  START DEPTH
 DFSL.m                   0.00:  DISTANCE FSL
 DFWL.m                   0.00:  DISTANCE FWL
 UTMY.m             4435799.96:  UTM Y
 UTMX.m              526265.35:  UTM X
 WHEW.m                  -6.24:  WELL HEAD E/W
 WHNS.m                  -2.16:  WELL HEAD N/S
 LONG.deg                51.31:  LONGITUDE
 LATI.deg                40.06:  LATITUDE
 TVDS.m                  43.42:  TVDSS CORRECTN
 EKB .m                  43.42:  KB ELEVATION
 EDF .m                  43.42:  DF ELEVATION
 TDL .m                 288.00:  TOTAL DEPTH (LOGGER)
 MAGU.                 1851863:  MAGUTM CHECKSUM
 VSC .                       0:  VS TO CLOSURE
~Parameter Information Block
#MNEM.UNIT       Value        Description
#---------     -----------    ---------------------------
 AV  .mps                 0.40:  Ann Velocity 
 AVMX.mps                 0.63:  Max Ann Veloc 
 AZIF.deg               158.76:  Azm, Final 
 BHAT.        Rotary Steerable:  BHA Type 
 BROT.°/30m               0.68:  Build Rotating 
 BS  .in                  8.50:  Bit Size 
 BSZ .in                  8.50:  Bit Size 
 BTPL.psig              712.00:  Bit Press Loss 
 CABU.                      No:  Customer Abuse 
 COMM.                     <©Q:  Run Comments 1 
 TCS .hr                 90.66:  Time Ciculation Ended 
 CV  .mps                 2.02:  Crit Velocity 
 CVMX.mps                 2.14:  Max Crit Veloc 
 DD1 .            Aziz Aliyevu:  Direct Drillr 1 
 DD2 .             Samir Abbas:  Direct Drillr 2 
 DD3 .           Teymur Aliyev:  Direct Drillr 3 
 DDSV.                 iCruise:  DD Service 
 DEFF.%                  85.10:  % Det Eff 
 DLRX.°/30m               1.05:  Dogleg Rot Max 
 DLSO.°/30m               1.01:  Dogleg Oriented 
 DLSX.°/30m               1.05:  Dogleg Str Max 
 DRET.      07.45.00 18-Jul-21:  Drill End Time 
 DRST.      15.00.00 16-Jul-21:  Drill Start Tim 
 DTIM.hr                 23.46:  Time Drilling 
 EDEP.m                4603.00:  End Depth 
 ENG1.       Seymur Iskandarov:  Engineer 1 
 ENG2.         Yevgeniy Ulikov:  Engineer 2 
 ENG3.         Bahruz Mehdiyev:  Engineer 3 
 ENG4.         Elchin Mammadov:  Engineer 4 
 ETIM.      14.00.00 23-Jul-21:  End Time 
 FLOI.gpm               500.00:  Flow In 
 FLON.gpm               450.00:  Flow In Min 
 FLOS.cptm                0.00:  Fluid Loss 
 FLOX.gpm               560.00:  Flow In Max 
 DFT .        Mineral Oil Base:  Mud Type 
 FTRO.       Formation Presure:  FTWD Run Obj 
 HFLO.                      No:  High Flow 
 HPRE.                      No:  High Pressure 
 HTEM.                      No:  High Temp 
 HYDO.m                   1.80:  Hydro Offset 
 IFIN.deg                40.22:  Inc, Final 
 IMAX.deg                40.54:  Inc Max 
 IMIN.deg                39.44:  Inc Min 
 IMND.m                4361.17:  Inc Min Depth 
 IMXD.m                4417.92:  Inc Max Depth 
 JARR.                      No:  Jarring 
 LETM.      07.45.00 18-Jul-21:  Log End Time 
 LOST.hr                    16:  Lost Rig Time 
 LSTM.      15.00.00 16-Jul-21:  Log Start Time 
 MDCL.ppm             36500.00:  Mud Chlorides 
 MDES.     Inversion Oil/Synthetic:  Mud Desc 
 DFD .sg                  1.42:  Mud Density 
 MDMN.sg                  1.42:  Dens Mud Min 
 MDMX.sg                  1.43:  Dens Mud Max 
 MOIL.                      56:  Run Mud Oil % 
 MOWR.                   71:29:  Run Mud OWR 
 MSND.                     0.5:  Run Mud Sand % 
 MSOL.                      21:  Run Mud Solids% 
 DFV .spqt               78.00:  Mud Viscosity 
 MWOD.in                  6.75:  MWD Tool OD 
 MWSI.                     Yes:  Serv Intrp, MWD 
 OTIM.hr                200.73:  Time Operating 
 PCON.           Look Like New:  Pad Condition 
 PMAX.psia            11069.93:  Press Op, Max 
 PV  .cP                 32.00:  Mud PV 
 RUN .                     700:  Run Number 
 ROPA.m/hr               10.00:  ROP Avg 
 ROPN.m/hr                9.00:  ROP Min 
 ROPX.m/hr               16.00:  ROP Max 
 RPMA.rpm               116.00:  RPM Surface Avg 
 RPMN.rpm                80.00:  RPM Surface Min 
 RPMX.rpm               120.00:  RPM Surface Max 
 RRUN.                    L605:  Rig Run Number 
 RTIM.hr                 45.00:  Time Reaming 
 SAZI.deg               159.86:  Azm, Start 
 SDEP.m                4315.00:  Start Depth 
 SIDD.                      No:  Serv Intrp, DD 
 SINC.deg                39.86:  Inc, Start 
 SPPA.psig             3300.00:  SPP Avg 
 SPPN.psig             3040.00:  SPP Min 
 SPPX.psig             3645.00:  SPP Max 
 STIM.      01.00.00 15-Jul-21:  Start Time 
 SVCS.                 DD, MWD:  Services 
 SVER.                    9.20:  Sperry Version 
 TDAT.m                 288.00:  Tot Depth Attmp 
 TDDF.                      No:  Trip for DD 
 TDLG.m                 288.00:  Tot Depth Loggd 
 TFF .                      No:  Trip for Fail 
 TQAA.f-kp               19.00:  Torque Abs Avg 
 TQAN.f-kp               18.00:  Torque Abs Min 
 TQAX.f-kp               21.00:  Torque Abs Max 
 TRRT.°/30m               0.45:  Turn Rotating 
 MRT .                    HCIM:  Maximum Recorded Temperature 
 TTMX.degC               88.24:  Max Tool Temp 
 VS01.                90649157:  Virtual Str1 SN 
 VS02.                90652483:  Virtual Str2 SN 
 VS03.                11671987:  Virtual Str3 SN 
 VS04.                90643411:  Virtual Str4 SN 
 VS05.                90652478:  Virtual Str5 SN 
 VS06.                    6111:  Virtual Str6 SN 
 WBMN.klb                 9.50:  WOB Min 
 WITN.        Grigoriy Sarayev:  Customer Rep 
 WITN.          Rufat Huseynov:  Customer Rep 2 
 WOBA.klb                11.00:  WOB Avg 
 WOBX.klb                15.00:  WOB Max 
 YP  .lhf2               28.00:  Yield Point 
~Curve Information Block
#MNEM.UNIT                 API CODE     Curve Description
#---------               -----------    ---------------------------
 TIME.HHMMSS            00 000 000 000:  GT Time & Date
 GTDEPTH.m              00 000 000 000:  GT Depth
 GTPQH.psia             00 000 000 000:  GT HR Quartz Pressure
 GTTQ.degC              00 000 000 000:  GT Quartz Temperature
 GTTN.NONE              00 000 000 000:  GT Test Number
 GTET.sec               00 000 000 000:  GT Elapsed Test Time
 GTTVD.m                00 000 000 000:  GT True Vertical Depth
#Other Information
#
#WARRANTY: Halliburton will use its best efforts to furnish customers with 
#accurate information and interpretations that are part of, and incident to, the services 
#provided.  However, Halliburton cannot and does not warrant the accuracy 
#or correctness of such information and interpretations.  Under no circumstances should any 
#such information or interpretation be relied upon as the sole basis for any drilling, 
#completion, production, or financial decision or any procedure involving any risk to the 
#safety of any drilling venture, drilling rig or its crew or any other third party.  The 
#Customer has full responsibility for all drilling, completion and production operation.  
#Halliburton makes no representations or warranties, either expressed or 
#implied, including, but not limited to, the implied warranties of merchantability or fitness 
#for a particular purpose, with respect to the services rendered.  In no event will 
#Halliburton be liable for failure to obtain any particular results or for 
#any damages, including, but not limited to, indirect, special or consequential damages, 
#resulting from the use of any information or interpretation provided by Halliburton.
#
~A           TIME           GTDEPTH  GTPQH  GTTQ  GTTN  GTET   GTTVD  
   14:01:43.757.18-Jul-2021 4559.00 6597.32 75.24 3.00   0.00 2745.40
   14:01:43.957.18-Jul-2021 4559.00 6597.32 75.24 3.00   0.20 2745.40
   14:01:44.157.18-Jul-2021 4559.00 6621.56 75.24 3.00   0.40 2745.40
   14:01:44.357.18-Jul-2021 4559.00 6597.46 75.24 3.00   0.60 2745.40
   14:01:44.557.18-Jul-2021 4559.00 6604.12 75.24 3.00   0.80 2745.40
   14:01:44.757.18-Jul-2021 4559.00 6602.05 75.24 3.00   1.00 2745.40
   14:01:44.957.18-Jul-2021 4559.00 6602.05 75.24 3.00   1.20 2745.40
   14:01:45.158.18-Jul-2021 4559.00 6602.33 75.24 3.00   1.40 2745.40
   14:01:45.358.18-Jul-2021 4559.00 6598.79 75.24 3.00   1.60 2745.40
   14:01:45.558.18-Jul-2021 4559.00 6597.04 75.24 3.00   1.80 2745.40
   14:01:45.758.18-Jul-2021 4559.00 6621.70 75.24 3.00   2.00 2745.40
   14:01:45.958.18-Jul-2021 4559.00 6621.70 75.24 3.00   2.20 2745.40
   14:01:46.158.18-Jul-2021 4559.00 6604.55 75.24 3.00   2.40 2745.40
   14:01:46.358.18-Jul-2021 4559.00 6626.40 75.24 3.00   2.60 2745.40
   14:01:46.558.18-Jul-2021 4559.00 6601.00 75.24 3.00   2.80 2745.40
   14:01:46.758.18-Jul-2021 4559.00 6623.75 75.24 3.00   3.00 2745.40
   14:01:46.958.18-Jul-2021 4559.00 6623.75 75.24 3.00   3.20 2745.40
   14:01:47.158.18-Jul-2021 4559.00 6600.62 75.24 3.00   3.40 2745.40
   14:01:47.358.18-Jul-2021 4559.00 6629.52 75.24 3.00   3.60 2745.40
   14:01:47.558.18-Jul-2021 4559.00 6611.73 75.24 3.00   3.80 2745.40
   14:01:47.759.18-Jul-2021 4559.00 6623.37 75.24 3.00   4.00 2745.40
   14:01:47.959.18-Jul-2021 4559.00 6623.37 75.24 3.00   4.20 2745.40
   14:01:48.159.18-Jul-2021 4559.00 6603.68 75.24 3.00   4.40 2745.40
   14:01:48.359.18-Jul-2021 4559.00 6630.08 75.24 3.00   4.60 2745.40
   14:01:48.559.18-Jul-2021 4559.00 6621.41 75.24 3.00   4.80 2745.40
   14:01:48.759.18-Jul-2021 4559.00 6604.13 75.24 3.00   5.00 2745.40
   14:01:48.959.18-Jul-2021 4559.00 6604.13 75.24 3.00   5.20 2745.40
   14:01:49.159.18-Jul-2021 4559.00 6632.72 75.24 3.00   5.40 2745.40
   14:01:49.359.18-Jul-2021 4559.00 6613.74 75.24 3.00   5.60 2745.40
   14:01:49.559.18-Jul-2021 4559.00 6604.53 75.24 3.00   5.80 2745.40
   14:01:49.759.18-Jul-2021 4559.00 6614.57 75.24 3.00   6.00 2745.40
   14:01:49.959.18-Jul-2021 4559.00 6614.57 75.24 3.00   6.20 2745.40
   14:01:50.159.18-Jul-2021 4559.00 6610.41 75.24 3.00   6.40 2745.40
   14:01:50.359.18-Jul-2021 4559.00 6606.99 75.24 3.00   6.60 2745.40
   14:01:50.560.18-Jul-2021 4559.00 6607.04 75.24 3.00   6.80 2745.40
   14:01:50.760.18-Jul-2021 4559.00 6608.26 75.24 3.00   7.00 2745.40
   14:01:50.960.18-Jul-2021 4559.00 6608.26 75.24 3.00   7.20 2745.40
   14:01:51.160.18-Jul-2021 4559.00 6610.02 75.24 3.00   7.40 2745.40
   14:01:51.360.18-Jul-2021 4559.00 6609.52 75.24 3.00   7.60 2745.40
   14:01:51.560.18-Jul-2021 4559.00 6609.53 75.24 3.00   7.80 2745.40
   14:01:51.760.18-Jul-2021 4559.00 6620.14 75.24 3.00   8.00 2745.40
   14:01:51.960.18-Jul-2021 4559.00 6620.14 75.24 3.00   8.20 2745.40
   14:01:52.160.18-Jul-2021 4559.00 6612.80 75.24 3.00   8.40 2745.40
   14:01:52.360.18-Jul-2021 4559.00 6616.24 75.24 3.00   8.60 2745.40
   14:01:52.560.18-Jul-2021 4559.00 6619.22 75.24 3.00   8.80 2745.40
   14:01:52.760.18-Jul-2021 4559.00 6609.28 75.24 3.00   9.00 2745.40
   14:01:52.960.18-Jul-2021 4559.00 6609.28 75.24 3.00   9.20 2745.40
   14:01:53.161.18-Jul-2021 4559.00 6612.11 75.24 3.00   9.40 2745.40
   14:01:53.361.18-Jul-2021 4559.00 6611.71 75.24 3.00   9.60 2745.40
   14:01:53.561.18-Jul-2021 4559.00 6610.31 75.24 3.00   9.80 2745.40
   14:01:53.761.18-Jul-2021 4559.00 6610.06 75.24 3.00  10.00 2745.40
   14:01:53.961.18-Jul-2021 4559.00 6610.06 75.24 3.00  10.20 2745.40
   14:01:54.161.18-Jul-2021 4559.00 6611.49 75.24 3.00  10.40 2745.40
   14:01:54.361.18-Jul-2021 4559.00 6609.56 75.24 3.00  10.60 2745.40
   14:01:54.561.18-Jul-2021 4559.00 6631.14 75.24 3.00  10.80 2745.40
   14:01:54.761.18-Jul-2021 4559.00 6620.13 75.24 3.00  11.00 2745.40
   14:01:54.961.18-Jul-2021 4559.00 6620.13 75.24 3.00  11.20 2745.40
   14:01:55.161.18-Jul-2021 4559.00 6616.72 75.24 3.00  11.40 2745.40
   14:01:55.361.18-Jul-2021 4559.00 6621.16 75.24 3.00  11.60 2745.40
   14:01:55.561.18-Jul-2021 4559.00 6629.22 75.24 3.00  11.80 2745.40
   14:01:55.761.18-Jul-2021 4559.00 6610.66 75.24 3.00  12.00 2745.40
   14:01:55.962.18-Jul-2021 4559.00 6610.66 75.24 3.00  12.20 2745.40
   14:01:56.162.18-Jul-2021 4559.00 6617.67 75.24 3.00  12.40 2745.40
   14:01:56.362.18-Jul-2021 4559.00 6632.87 75.24 3.00  12.60 2745.40
   14:01:56.562.18-Jul-2021 4559.00 6618.74 75.24 3.00  12.80 2745.40
   14:01:56.762.18-Jul-2021 4559.00 6611.37 75.24 3.00  13.00 2745.40
   14:01:56.962.18-Jul-2021 4559.00 6611.37 75.24 3.00  13.20 2745.40
   14:01:57.162.18-Jul-2021 4559.00 6633.86 75.24 3.00  13.40 2745.40
   14:01:57.362.18-Jul-2021 4559.00 6621.53 75.24 3.00  13.61 2745.40
   14:01:57.562.18-Jul-2021 4559.00 6612.46 75.24 3.00  13.81 2745.40
   14:01:57.762.18-Jul-2021 4559.00 6639.93 75.24 3.00  14.01 2745.40
   14:01:57.962.18-Jul-2021 4559.00 6639.93 75.24 3.00  14.21 2745.40
   14:01:58.162.18-Jul-2021 4559.00 6639.93 75.24 3.00  14.41 2745.40
   14:01:58.362.18-Jul-2021 4559.00 6621.80 75.24 3.00  14.61 2745.40
   14:01:58.563.18-Jul-2021 4559.00 6621.80 75.24 3.00  14.81 2745.40
   14:01:58.763.18-Jul-2021 4559.00 6636.67 75.24 3.00  15.01 2745.40
   14:01:58.963.18-Jul-2021 4559.00 6636.67 75.24 3.00  15.21 2745.40
   14:01:59.163.18-Jul-2021 4559.00 6636.67 75.24 3.00  15.41 2745.40
   14:01:59.363.18-Jul-2021 4559.00 6622.09 75.24 3.00  15.61 2745.40
   14:01:59.563.18-Jul-2021 4559.00 6624.73 75.24 3.00  15.81 2745.40
   14:01:59.763.18-Jul-2021 4559.00 6619.89 75.24 3.00  16.01 2745.40
   14:01:59.963.18-Jul-2021 4559.00 6619.89 75.24 3.00  16.21 2745.40
   14:02:00.163.18-Jul-2021 4559.00 6623.45 75.24 3.00  16.41 2745.40
   14:02:00.363.18-Jul-2021 4559.00 6623.38 75.24 3.00  16.61 2745.40
   14:02:00.563.18-Jul-2021 4559.00 6619.70 75.24 3.00  16.81 2745.40
   14:02:00.763.18-Jul-2021 4559.00 6619.78 75.24 3.00  17.01 2745.40
   14:02:00.963.18-Jul-2021 4559.00 6619.78 75.24 3.00  17.21 2745.40
   14:02:01.163.18-Jul-2021 4559.00 6622.03 75.24 3.00  17.41 2745.40
   14:02:01.364.18-Jul-2021 4559.00 6621.66 75.24 3.00  17.61 2745.40
   14:02:01.564.18-Jul-2021 4559.00 6630.68 75.24 3.00  17.81 2745.40
   14:02:01.764.18-Jul-2021 4559.00 6642.38 75.24 3.00  18.01 2745.40
   14:02:01.964.18-Jul-2021 4559.00 6642.38 75.24 3.00  18.21 2745.40
   14:02:02.164.18-Jul-2021 4559.00 6624.52 75.24 3.00  18.41 2745.40
   14:02:02.364.18-Jul-2021 4559.00 6630.13 75.24 3.00  18.61 2745.40
   14:02:02.564.18-Jul-2021 4559.00 6622.98 75.24 3.00  18.81 2745.40
   14:02:02.764.18-Jul-2021 4559.00 6625.99 75.24 3.00  19.01 2745.40
   14:02:02.964.18-Jul-2021 4559.00 6625.99 75.24 3.00  19.21 2745.40
   14:02:03.164.18-Jul-2021 4559.00 6623.97 75.24 3.00  19.41 2745.40
   14:02:03.364.18-Jul-2021 4559.00 6620.82 75.24 3.00  19.61 2745.40
   14:02:03.564.18-Jul-2021 4559.00 6622.67 75.24 3.00  19.81 2745.40
   14:02:03.764.18-Jul-2021 4559.00 6624.73 75.24 3.00  20.01 2745.40
   14:02:03.964.18-Jul-2021 4559.00 6624.73 75.24 3.00  20.21 2745.40
   14:02:04.165.18-Jul-2021 4559.00 6620.55 75.24 3.00  20.41 2745.40
   14:02:04.365.18-Jul-2021 4559.00 6643.53 75.24 3.00  20.61 2745.40
   14:02:04.565.18-Jul-2021 4559.00 6630.09 75.24 3.00  20.81 2745.40
   14:02:04.765.18-Jul-2021 4559.00 6634.06 75.24 3.00  21.01 2745.40
   14:02:04.965.18-Jul-2021 4559.00 6634.06 75.24 3.00  21.21 2745.40
   14:02:05.165.18-Jul-2021 4559.00 6618.72 75.24 3.00  21.41 2745.40
   14:02:05.365.18-Jul-2021 4559.00 6624.47 75.24 3.00  21.61 2745.40
   14:02:05.565.18-Jul-2021 4559.00 6631.35 75.24 3.00  21.81 2745.40
   14:02:05.765.18-Jul-2021 4559.00 6646.15 75.24 3.00  22.01 2745.40
   14:02:05.965.18-Jul-2021 4559.00 6646.15 75.24 3.00  22.21 2745.40
   14:02:06.165.18-Jul-2021 4559.00 6624.83 75.24 3.00  22.41 2745.40
   14:02:06.365.18-Jul-2021 4559.00 6630.66 75.24 3.00  22.61 2745.40
   14:02:06.565.18-Jul-2021 4559.00 6624.57 75.24 3.00  22.81 2745.40
