~Version Information
 VERS.                  2.0:   CWLS log ASCII Standard -VERSION 2.0
 WRAP.                   NO:   One line per depth step
~Well Information Block
#MNEM.UNIT     VALUE/NAME     DESCRIPTION
#---------     -----------    ---------------------------
 STRT.S             09:47:45 19-Jul-21: START TIME 09:47:45 19-Jul-21
 STOP.S             09:54:40 19-Jul-21: STOP TIME  09:54:40 19-Jul-21
 STEP.S                   0.00: STEP TIME
 NULL.                 -999.25: NULL VALUE
 MDS .        Operator Entered:  MAG DATA SOURCE
 PDAT.          Mean Sea Level:  PERMANENT DATUM
 UNIT.                     N/A:  LOGGING EQUIPMENT ID
 DCON.         Sperry Drilling:  DIRECTNL CONTR
 DOE .                     N/A:  DOE NUMBER
 RIG .              West Azeri:  RIG NAME
 JOBN.        AZ-XX-0906997913:  JOB TICKET NUMB
 WELL.                     C41:  WELL NAME
 MWDS.                    Baku:  MWD SHOP
 SRVC.          Turan Drilling:  CONTRACTOR
 FLD .                     ACG:  FIELD NAME
 CTRY.              Azerbaijan:  COUNTRY NAME
 PROV.                    Baku:  PROVINCE
 STAT.                    Baku:  STATE NAME
 REGN.                   EESSA:  REGION
 BASE.              Azerbaijan:  LOGGING EQUIPMENT BASE LOCATION
 UWI .                     N/A:  UNIQUE WELL IDENTIFIER
 API .                     N/A:  API NUMBER
 COMP.     BP Exploration (Caspian Sea) Ltd.:  COMPANY
 WTYP.                Deviated:  WELL TYPE
 SON .        AZ-XX-0906997913:  JOB NUMBER
 FTOP.          Formation Tops:  FORM TOPS DESC
 ILTD.               Lithology:  INTERP LTH DESC
 SVYD.                  Survey:  SURVEY DESC
 DMOD.             Drill Model:  DRILL MOD DESC
 HPTY.       Minimum Curvature:  HOLE POS TYPE
 NREF.                    Grid:  NORTH REFERENCE
 SPUD.               16-May-21:  SPUD DATE
 DATE.      21.11.28 17-May-21:  END TIME
 STIM.      21.11.28 17-May-21:  START TIME
 DMF .             Drill Floor:  DRILL MEAS FROM
 DFST.                        :  DIST FSL TEXT
 DFWT.                        :  DIST FWL TEXT
 CNTY.                        :  COUNTY
 LOC .                        :  LOCATION
 LMF .             Drill Floor:  LOG MEASURED FROM
 AGAP.m                  43.42:  AIR GAP
 VSNS.m                  -2.16:  VERT SEC N/S
 VSEW.m                  -6.24:  VERT SEC E/W
 APD .m                  43.42:  DEPTH ABOVE PD
 WDMS.m                 118.27:  WD ELEV
 EGL .m                   0.00:  GROUND ELEVATION
 EPD .m                   0.00:  ELEVATION
 AZTC.deg                 6.29:  AZM TOTAL CORR
 GRDC.deg                 0.18:  GRID CORRECTION
 MDEC.deg                 6.47:  MAGNETIC DECL
 MDIP.deg                59.54:  MAGNETIC DIP
 MFLD.nT              50337.00:  MAGNETIC FIELD
 GVFD.g                   1.00:  GRAVITY FIELD
 VSDR.deg               226.99:  VERT SEC DIRECT
 TDD .m                   0.00:  TOTAL DEPTH (DRILLER)
 SDEP.m                 448.00:  START DEPTH
 DFSL.m                   0.00:  DISTANCE FSL
 DFWL.m                   0.00:  DISTANCE FWL
 UTMY.m             4435799.96:  UTM Y
 UTMX.m              526265.35:  UTM X
 WHEW.m                  -6.24:  WELL HEAD E/W
 WHNS.m                  -2.16:  WELL HEAD N/S
 LONG.deg                51.31:  LONGITUDE
 LATI.deg                40.06:  LATITUDE
 TVDS.m                  43.42:  TVDSS CORRECTN
 EKB .m                  43.42:  KB ELEVATION
 EDF .m                  43.42:  DF ELEVATION
 TDL .m                 288.00:  TOTAL DEPTH (LOGGER)
 MAGU.                 1851863:  MAGUTM CHECKSUM
 VSC .                       0:  VS TO CLOSURE
~Parameter Information Block
#MNEM.UNIT       Value        Description
#---------     -----------    ---------------------------
 AV  .mps                 0.40:  Ann Velocity 
 AVMX.mps                 0.63:  Max Ann Veloc 
 AZIF.deg               158.76:  Azm, Final 
 BHAT.        Rotary Steerable:  BHA Type 
 BROT.°/30m               0.68:  Build Rotating 
 BS  .in                  8.50:  Bit Size 
 BSZ .in                  8.50:  Bit Size 
 BTPL.psig              712.00:  Bit Press Loss 
 CABU.                      No:  Customer Abuse 
 COMM.                     ”k:  Run Comments 1 
 TCS .hr                 90.66:  Time Ciculation Ended 
 CV  .mps                 2.02:  Crit Velocity 
 CVMX.mps                 2.14:  Max Crit Veloc 
 DD1 .            Aziz Aliyevu:  Direct Drillr 1 
 DD2 .             Samir Abbas:  Direct Drillr 2 
 DD3 .           Teymur Aliyev:  Direct Drillr 3 
 DDSV.                 iCruise:  DD Service 
 DEFF.%                  85.10:  % Det Eff 
 DLRX.°/30m               1.05:  Dogleg Rot Max 
 DLSO.°/30m               1.01:  Dogleg Oriented 
 DLSX.°/30m               1.05:  Dogleg Str Max 
 DRET.      07.45.00 18-Jul-21:  Drill End Time 
 DRST.      15.00.00 16-Jul-21:  Drill Start Tim 
 DTIM.hr                 23.46:  Time Drilling 
 EDEP.m                4603.00:  End Depth 
 ENG1.       Seymur Iskandarov:  Engineer 1 
 ENG2.         Yevgeniy Ulikov:  Engineer 2 
 ENG3.         Bahruz Mehdiyev:  Engineer 3 
 ENG4.         Elchin Mammadov:  Engineer 4 
 ETIM.      14.00.00 23-Jul-21:  End Time 
 FLOI.gpm               500.00:  Flow In 
 FLON.gpm               450.00:  Flow In Min 
 FLOS.cptm                0.00:  Fluid Loss 
 FLOX.gpm               560.00:  Flow In Max 
 DFT .        Mineral Oil Base:  Mud Type 
 FTRO.       Formation Presure:  FTWD Run Obj 
 HFLO.                      No:  High Flow 
 HPRE.                      No:  High Pressure 
 HTEM.                      No:  High Temp 
 HYDO.m                   1.80:  Hydro Offset 
 IFIN.deg                40.22:  Inc, Final 
 IMAX.deg                40.54:  Inc Max 
 IMIN.deg                39.44:  Inc Min 
 IMND.m                4361.17:  Inc Min Depth 
 IMXD.m                4417.92:  Inc Max Depth 
 JARR.                      No:  Jarring 
 LETM.      07.45.00 18-Jul-21:  Log End Time 
 LOST.hr                    16:  Lost Rig Time 
 LSTM.      15.00.00 16-Jul-21:  Log Start Time 
 MDCL.ppm             36500.00:  Mud Chlorides 
 MDES.     Inversion Oil/Synthetic:  Mud Desc 
 DFD .sg                  1.42:  Mud Density 
 MDMN.sg                  1.42:  Dens Mud Min 
 MDMX.sg                  1.43:  Dens Mud Max 
 MOIL.                      56:  Run Mud Oil % 
 MOWR.                   71:29:  Run Mud OWR 
 MSND.                     0.5:  Run Mud Sand % 
 MSOL.                      21:  Run Mud Solids% 
 DFV .spqt               78.00:  Mud Viscosity 
 MWOD.in                  6.75:  MWD Tool OD 
 MWSI.                     Yes:  Serv Intrp, MWD 
 OTIM.hr                200.73:  Time Operating 
 PCON.           Look Like New:  Pad Condition 
 PMAX.psia            11069.93:  Press Op, Max 
 PV  .cP                 32.00:  Mud PV 
 RUN .                     700:  Run Number 
 ROPA.m/hr               10.00:  ROP Avg 
 ROPN.m/hr                9.00:  ROP Min 
 ROPX.m/hr               16.00:  ROP Max 
 RPMA.rpm               116.00:  RPM Surface Avg 
 RPMN.rpm                80.00:  RPM Surface Min 
 RPMX.rpm               120.00:  RPM Surface Max 
 RRUN.                    L605:  Rig Run Number 
 RTIM.hr                 45.00:  Time Reaming 
 SAZI.deg               159.86:  Azm, Start 
 SDEP.m                4315.00:  Start Depth 
 SIDD.                      No:  Serv Intrp, DD 
 SINC.deg                39.86:  Inc, Start 
 SPPA.psig             3300.00:  SPP Avg 
 SPPN.psig             3040.00:  SPP Min 
 SPPX.psig             3645.00:  SPP Max 
 STIM.      01.00.00 15-Jul-21:  Start Time 
 SVCS.                 DD, MWD:  Services 
 SVER.                    9.20:  Sperry Version 
 TDAT.m                 288.00:  Tot Depth Attmp 
 TDDF.                      No:  Trip for DD 
 TDLG.m                 288.00:  Tot Depth Loggd 
 TFF .                      No:  Trip for Fail 
 TQAA.f-kp               19.00:  Torque Abs Avg 
 TQAN.f-kp               18.00:  Torque Abs Min 
 TQAX.f-kp               21.00:  Torque Abs Max 
 TRRT.°/30m               0.45:  Turn Rotating 
 MRT .                    HCIM:  Maximum Recorded Temperature 
 TTMX.degC               88.24:  Max Tool Temp 
 VS01.                90649157:  Virtual Str1 SN 
 VS02.                90652483:  Virtual Str2 SN 
 VS03.                11671987:  Virtual Str3 SN 
 VS04.                90643411:  Virtual Str4 SN 
 VS05.                90652478:  Virtual Str5 SN 
 VS06.                    6111:  Virtual Str6 SN 
 WBMN.klb                 9.50:  WOB Min 
 WITN.        Grigoriy Sarayev:  Customer Rep 
 WITN.          Rufat Huseynov:  Customer Rep 2 
 WOBA.klb                11.00:  WOB Avg 
 WOBX.klb                15.00:  WOB Max 
 YP  .lhf2               28.00:  Yield Point 
~Curve Information Block
#MNEM.UNIT                 API CODE     Curve Description
#---------               -----------    ---------------------------
 TIME.HHMMSS            00 000 000 000:  GT Time & Date
 GTDEPTH.m              00 000 000 000:  GT Depth
 GTPQH.psia             00 000 000 000:  GT HR Quartz Pressure
 GTTQ.degC              00 000 000 000:  GT Quartz Temperature
 GTTN.NONE              00 000 000 000:  GT Test Number
 GTET.sec               00 000 000 000:  GT Elapsed Test Time
 GTTVD.m                00 000 000 000:  GT True Vertical Depth
#Other Information
#
#WARRANTY: Halliburton will use its best efforts to furnish customers with 
#accurate information and interpretations that are part of, and incident to, the services 
#provided.  However, Halliburton cannot and does not warrant the accuracy 
#or correctness of such information and interpretations.  Under no circumstances should any 
#such information or interpretation be relied upon as the sole basis for any drilling, 
#completion, production, or financial decision or any procedure involving any risk to the 
#safety of any drilling venture, drilling rig or its crew or any other third party.  The 
#Customer has full responsibility for all drilling, completion and production operation.  
#Halliburton makes no representations or warranties, either expressed or 
#implied, including, but not limited to, the implied warranties of merchantability or fitness 
#for a particular purpose, with respect to the services rendered.  In no event will 
#Halliburton be liable for failure to obtain any particular results or for 
#any damages, including, but not limited to, indirect, special or consequential damages, 
#resulting from the use of any information or interpretation provided by Halliburton.
#
~A           TIME           GTDEPTH  GTPQH  GTTQ  GTTN   GTET   GTTVD  
   09:47:45.960.19-Jul-2021 4477.00 6442.22 70.51 21.00   0.00 2682.68
   09:47:46.160.19-Jul-2021 4477.00 6442.22 70.51 21.00   0.20 2682.68
   09:47:46.360.19-Jul-2021 4477.00 6444.34 70.51 21.00   0.40 2682.68
   09:47:46.560.19-Jul-2021 4477.00 6457.32 70.51 21.00   0.60 2682.68
   09:47:46.760.19-Jul-2021 4477.00 6446.40 70.51 21.00   0.80 2682.68
   09:47:46.960.19-Jul-2021 4477.00 6454.24 70.51 21.00   1.00 2682.68
   09:47:47.160.19-Jul-2021 4477.00 6454.24 70.51 21.00   1.20 2682.68
   09:47:47.360.19-Jul-2021 4477.00 6466.82 70.51 21.00   1.40 2682.68
   09:47:47.560.19-Jul-2021 4477.00 6441.62 70.51 21.00   1.60 2682.68
   09:47:47.760.19-Jul-2021 4477.00 6455.69 70.51 21.00   1.80 2682.68
   09:47:47.960.19-Jul-2021 4477.00 6470.04 70.51 21.00   2.00 2682.68
   09:47:48.160.19-Jul-2021 4477.00 6470.04 70.51 21.00   2.20 2682.68
   09:47:48.361.19-Jul-2021 4477.00 6459.83 70.51 21.00   2.40 2682.68
   09:47:48.561.19-Jul-2021 4477.00 6473.42 70.51 21.00   2.60 2682.68
   09:47:48.761.19-Jul-2021 4477.00 6442.41 70.51 21.00   2.80 2682.68
   09:47:48.961.19-Jul-2021 4477.00 6457.12 70.51 21.00   3.00 2682.68
   09:47:49.161.19-Jul-2021 4477.00 6457.12 70.51 21.00   3.20 2682.68
   09:47:49.361.19-Jul-2021 4477.00 6453.15 70.51 21.00   3.40 2682.68
   09:47:49.561.19-Jul-2021 4477.00 6461.28 70.51 21.00   3.60 2682.68
   09:47:49.761.19-Jul-2021 4477.00 6453.56 70.51 21.00   3.80 2682.68
   09:47:49.961.19-Jul-2021 4477.00 6478.33 70.51 21.00   4.00 2682.68
   09:47:50.161.19-Jul-2021 4477.00 6478.33 70.51 21.00   4.20 2682.68
   09:47:50.361.19-Jul-2021 4477.00 6461.51 70.51 21.00   4.40 2682.68
   09:47:50.561.19-Jul-2021 4477.00 6459.03 70.51 21.00   4.60 2682.68
   09:47:50.761.19-Jul-2021 4477.00 6456.92 70.51 21.00   4.80 2682.68
   09:47:50.962.19-Jul-2021 4477.00 6455.14 70.51 21.00   5.00 2682.68
   09:47:51.162.19-Jul-2021 4477.00 6455.14 70.51 21.00   5.20 2682.68
   09:47:51.362.19-Jul-2021 4477.00 6452.46 70.51 21.00   5.40 2682.68
   09:47:51.562.19-Jul-2021 4477.00 6452.65 70.51 21.00   5.60 2682.68
   09:47:51.762.19-Jul-2021 4477.00 6452.76 70.51 21.00   5.80 2682.68
   09:47:51.962.19-Jul-2021 4477.00 6452.50 70.51 21.00   6.00 2682.68
   09:47:52.162.19-Jul-2021 4477.00 6452.50 70.51 21.00   6.20 2682.68
   09:47:52.362.19-Jul-2021 4477.00 6452.93 70.51 21.00   6.40 2682.68
   09:47:52.562.19-Jul-2021 4477.00 6453.39 70.51 21.00   6.60 2682.68
   09:47:52.762.19-Jul-2021 4477.00 6470.44 70.51 21.00   6.80 2682.68
   09:47:52.962.19-Jul-2021 4477.00 6455.75 70.51 21.00   7.00 2682.68
   09:47:53.162.19-Jul-2021 4477.00 6455.75 70.51 21.00   7.20 2682.68
   09:47:53.362.19-Jul-2021 4477.00 6458.42 70.51 21.00   7.40 2682.68
   09:47:53.562.19-Jul-2021 4477.00 6457.72 70.51 21.00   7.60 2682.68
   09:47:53.763.19-Jul-2021 4477.00 6455.24 70.51 21.00   7.80 2682.68
   09:47:53.963.19-Jul-2021 4477.00 6454.54 70.51 21.00   8.00 2682.68
   09:47:54.163.19-Jul-2021 4477.00 6454.54 70.51 21.00   8.20 2682.68
   09:47:54.363.19-Jul-2021 4477.00 6454.86 70.51 21.00   8.40 2682.68
   09:47:54.563.19-Jul-2021 4477.00 6454.77 70.51 21.00   8.60 2682.68
   09:47:54.763.19-Jul-2021 4477.00 6453.69 70.51 21.00   8.80 2682.68
   09:47:54.963.19-Jul-2021 4477.00 6453.37 70.51 21.00   9.00 2682.68
   09:47:55.163.19-Jul-2021 4477.00 6453.37 70.51 21.00   9.20 2682.68
   09:47:55.363.19-Jul-2021 4477.00 6472.76 70.51 21.00   9.40 2682.68
   09:47:55.563.19-Jul-2021 4477.00 6447.44 70.51 21.00   9.60 2682.68
   09:47:55.763.19-Jul-2021 4477.00 6464.50 70.51 21.00   9.80 2682.68
   09:47:55.963.19-Jul-2021 4477.00 6456.32 70.51 21.00  10.00 2682.68
   09:47:56.163.19-Jul-2021 4477.00 6456.32 70.51 21.00  10.20 2682.68
   09:47:56.364.19-Jul-2021 4477.00 6473.05 70.51 21.00  10.40 2682.68
   09:47:56.564.19-Jul-2021 4477.00 6458.36 70.51 21.00  10.60 2682.68
   09:47:56.764.19-Jul-2021 4477.00 6459.89 70.51 21.00  10.80 2682.68
   09:47:56.964.19-Jul-2021 4477.00 6459.06 70.51 21.00  11.00 2682.68
   09:47:57.164.19-Jul-2021 4477.00 6459.06 70.51 21.00  11.20 2682.68
   09:47:57.364.19-Jul-2021 4477.00 6459.06 70.51 21.00  11.40 2682.68
   09:47:57.564.19-Jul-2021 4477.00 6459.06 70.51 21.00  11.60 2682.68
   09:47:57.764.19-Jul-2021 4477.00 6459.84 70.51 21.00  11.80 2682.68
   09:47:57.964.19-Jul-2021 4477.00 6472.11 70.51 21.00  12.00 2682.68
   09:47:58.164.19-Jul-2021 4477.00 6472.11 70.51 21.00  12.20 2682.68
   09:47:58.364.19-Jul-2021 4477.00 6469.51 70.51 21.00  12.40 2682.68
   09:47:58.564.19-Jul-2021 4477.00 6482.40 70.51 21.00  12.60 2682.68
   09:47:58.764.19-Jul-2021 4477.00 6454.91 70.51 21.00  12.80 2682.68
   09:47:58.964.19-Jul-2021 4477.00 6473.36 70.51 21.00  13.00 2682.68
   09:47:59.165.19-Jul-2021 4477.00 6473.36 70.51 21.00  13.20 2682.68
   09:47:59.365.19-Jul-2021 4477.00 6463.18 70.51 21.00  13.40 2682.68
   09:47:59.565.19-Jul-2021 4477.00 6465.71 70.51 21.00  13.61 2682.68
   09:47:59.765.19-Jul-2021 4477.00 6475.33 70.51 21.00  13.81 2682.68
   09:47:59.965.19-Jul-2021 4477.00 6471.53 70.51 21.00  14.01 2682.68
   09:48:00.165.19-Jul-2021 4477.00 6471.53 70.51 21.00  14.21 2682.68
   09:48:00.365.19-Jul-2021 4477.00 6466.55 70.51 21.00  14.41 2682.68
   09:48:00.565.19-Jul-2021 4477.00 6466.55 70.51 21.00  14.61 2682.68
   09:48:00.765.19-Jul-2021 4477.00 6465.29 70.51 21.00  14.81 2682.68
   09:48:00.965.19-Jul-2021 4477.00 6466.18 70.51 21.00  15.01 2682.68
   09:48:01.165.19-Jul-2021 4477.00 6466.18 70.51 21.00  15.21 2682.68
   09:48:01.365.19-Jul-2021 4477.00 6462.94 70.51 21.00  15.41 2682.68
   09:48:01.565.19-Jul-2021 4477.00 6463.02 70.51 21.00  15.61 2682.68
   09:48:01.765.19-Jul-2021 4477.00 6463.33 70.51 21.00  15.81 2682.68
   09:48:01.966.19-Jul-2021 4477.00 6463.97 70.51 21.00  16.01 2682.68
   09:48:02.166.19-Jul-2021 4477.00 6463.97 70.51 21.00  16.21 2682.68
   09:48:02.366.19-Jul-2021 4477.00 6463.59 70.51 21.00  16.41 2682.68
   09:48:02.566.19-Jul-2021 4477.00 6482.05 70.51 21.00  16.61 2682.68
   09:48:02.766.19-Jul-2021 4477.00 6468.05 70.51 21.00  16.81 2682.68
   09:48:02.966.19-Jul-2021 4477.00 6469.89 70.51 21.00  17.01 2682.68
   09:48:03.166.19-Jul-2021 4477.00 6469.89 70.51 21.00  17.21 2682.68
   09:48:03.366.19-Jul-2021 4477.00 6467.78 70.51 21.00  17.41 2682.68
   09:48:03.566.19-Jul-2021 4477.00 6466.73 70.51 21.00  17.61 2682.68
   09:48:03.766.19-Jul-2021 4477.00 6466.27 70.51 21.00  17.81 2682.68
   09:48:03.966.19-Jul-2021 4477.00 6464.29 70.51 21.00  18.01 2682.68
   09:48:04.166.19-Jul-2021 4477.00 6464.29 70.51 21.00  18.21 2682.68
   09:48:04.366.19-Jul-2021 4477.00 6464.20 70.51 21.00  18.41 2682.68
   09:48:04.567.19-Jul-2021 4477.00 6465.94 70.51 21.00  18.61 2682.68
   09:48:04.767.19-Jul-2021 4477.00 6464.22 70.51 21.00  18.81 2682.68
   09:48:04.967.19-Jul-2021 4477.00 6463.26 70.51 21.00  19.01 2682.68
   09:48:05.167.19-Jul-2021 4477.00 6463.26 70.51 21.00  19.21 2682.68
   09:48:05.367.19-Jul-2021 4477.00 6460.46 70.51 21.00  19.41 2682.68
   09:48:05.567.19-Jul-2021 4477.00 6474.57 70.51 21.00  19.61 2682.68
   09:48:05.767.19-Jul-2021 4477.00 6489.05 70.51 21.00  19.81 2682.68
   09:48:05.967.19-Jul-2021 4477.00 6472.03 70.51 21.00  20.01 2682.68
   09:48:06.167.19-Jul-2021 4477.00 6472.03 70.51 21.00  20.21 2682.68
   09:48:06.367.19-Jul-2021 4477.00 6486.48 70.51 21.00  20.41 2682.68
   09:48:06.567.19-Jul-2021 4477.00 6474.35 70.51 21.00  20.61 2682.68
   09:48:06.767.19-Jul-2021 4477.00 6479.85 70.51 21.00  20.81 2682.68
   09:48:06.967.19-Jul-2021 4477.00 6471.49 70.51 21.00  21.01 2682.68
   09:48:07.167.19-Jul-2021 4477.00 6471.49 70.51 21.00  21.21 2682.68
   09:48:07.368.19-Jul-2021 4477.00 6464.63 70.51 21.00  21.41 2682.68
   09:48:07.568.19-Jul-2021 4477.00 6480.04 70.51 21.00  21.61 2682.68
   09:48:07.768.19-Jul-2021 4477.00 6495.29 70.51 21.00  21.81 2682.68
   09:48:07.968.19-Jul-2021 4477.00 6467.72 70.51 21.00  22.01 2682.68
   09:48:08.168.19-Jul-2021 4477.00 6467.72 70.51 21.00  22.21 2682.68
   09:48:08.368.19-Jul-2021 4477.00 6473.60 70.51 21.00  22.41 2682.68
