~Version Information
 VERS.                  2.0:   CWLS log ASCII Standard -VERSION 2.0
 WRAP.                   NO:   One line per depth step
~Well Information Block
#MNEM.UNIT     VALUE/NAME     DESCRIPTION
#---------     -----------    ---------------------------
 STRT.S             23:00:58 18-Jul-21: START TIME 23:00:58 18-Jul-21
 STOP.S             23:07:34 18-Jul-21: STOP TIME  23:07:34 18-Jul-21
 STEP.S                   0.00: STEP TIME
 NULL.                 -999.25: NULL VALUE
 MDS .        Operator Entered:  MAG DATA SOURCE
 PDAT.          Mean Sea Level:  PERMANENT DATUM
 UNIT.                     N/A:  LOGGING EQUIPMENT ID
 DCON.         Sperry Drilling:  DIRECTNL CONTR
 DOE .                     N/A:  DOE NUMBER
 RIG .              West Azeri:  RIG NAME
 JOBN.        AZ-XX-0906997913:  JOB TICKET NUMB
 WELL.                     C41:  WELL NAME
 MWDS.                    Baku:  MWD SHOP
 SRVC.          Turan Drilling:  CONTRACTOR
 FLD .                     ACG:  FIELD NAME
 CTRY.              Azerbaijan:  COUNTRY NAME
 PROV.                    Baku:  PROVINCE
 STAT.                    Baku:  STATE NAME
 REGN.                   EESSA:  REGION
 BASE.              Azerbaijan:  LOGGING EQUIPMENT BASE LOCATION
 UWI .                     N/A:  UNIQUE WELL IDENTIFIER
 API .                     N/A:  API NUMBER
 COMP.     BP Exploration (Caspian Sea) Ltd.:  COMPANY
 WTYP.                Deviated:  WELL TYPE
 SON .        AZ-XX-0906997913:  JOB NUMBER
 FTOP.          Formation Tops:  FORM TOPS DESC
 ILTD.               Lithology:  INTERP LTH DESC
 SVYD.                  Survey:  SURVEY DESC
 DMOD.             Drill Model:  DRILL MOD DESC
 HPTY.       Minimum Curvature:  HOLE POS TYPE
 NREF.                    Grid:  NORTH REFERENCE
 SPUD.               16-May-21:  SPUD DATE
 DATE.      21.11.28 17-May-21:  END TIME
 STIM.      21.11.28 17-May-21:  START TIME
 DMF .             Drill Floor:  DRILL MEAS FROM
 DFST.                        :  DIST FSL TEXT
 DFWT.                        :  DIST FWL TEXT
 CNTY.                        :  COUNTY
 LOC .                        :  LOCATION
 LMF .             Drill Floor:  LOG MEASURED FROM
 AGAP.m                  43.42:  AIR GAP
 VSNS.m                  -2.16:  VERT SEC N/S
 VSEW.m                  -6.24:  VERT SEC E/W
 APD .m                  43.42:  DEPTH ABOVE PD
 WDMS.m                 118.27:  WD ELEV
 EGL .m                   0.00:  GROUND ELEVATION
 EPD .m                   0.00:  ELEVATION
 AZTC.deg                 6.29:  AZM TOTAL CORR
 GRDC.deg                 0.18:  GRID CORRECTION
 MDEC.deg                 6.47:  MAGNETIC DECL
 MDIP.deg                59.54:  MAGNETIC DIP
 MFLD.nT              50337.00:  MAGNETIC FIELD
 GVFD.g                   1.00:  GRAVITY FIELD
 VSDR.deg               226.99:  VERT SEC DIRECT
 TDD .m                   0.00:  TOTAL DEPTH (DRILLER)
 SDEP.m                 448.00:  START DEPTH
 DFSL.m                   0.00:  DISTANCE FSL
 DFWL.m                   0.00:  DISTANCE FWL
 UTMY.m             4435799.96:  UTM Y
 UTMX.m              526265.35:  UTM X
 WHEW.m                  -6.24:  WELL HEAD E/W
 WHNS.m                  -2.16:  WELL HEAD N/S
 LONG.deg                51.31:  LONGITUDE
 LATI.deg                40.06:  LATITUDE
 TVDS.m                  43.42:  TVDSS CORRECTN
 EKB .m                  43.42:  KB ELEVATION
 EDF .m                  43.42:  DF ELEVATION
 TDL .m                 288.00:  TOTAL DEPTH (LOGGER)
 MAGU.                 1851863:  MAGUTM CHECKSUM
 VSC .                       0:  VS TO CLOSURE
~Parameter Information Block
#MNEM.UNIT       Value        Description
#---------     -----------    ---------------------------
 AV  .mps                 0.40:  Ann Velocity 
 AVMX.mps                 0.63:  Max Ann Veloc 
 AZIF.deg               158.76:  Azm, Final 
 BHAT.        Rotary Steerable:  BHA Type 
 BROT.°/30m               0.68:  Build Rotating 
 BS  .in                  8.50:  Bit Size 
 BSZ .in                  8.50:  Bit Size 
 BTPL.psig              712.00:  Bit Press Loss 
 CABU.                      No:  Customer Abuse 
 COMM.                     ¼2`:  Run Comments 1 
 TCS .hr                 90.66:  Time Ciculation Ended 
 CV  .mps                 2.02:  Crit Velocity 
 CVMX.mps                 2.14:  Max Crit Veloc 
 DD1 .            Aziz Aliyevu:  Direct Drillr 1 
 DD2 .             Samir Abbas:  Direct Drillr 2 
 DD3 .           Teymur Aliyev:  Direct Drillr 3 
 DDSV.                 iCruise:  DD Service 
 DEFF.%                  85.10:  % Det Eff 
 DLRX.°/30m               1.05:  Dogleg Rot Max 
 DLSO.°/30m               1.01:  Dogleg Oriented 
 DLSX.°/30m               1.05:  Dogleg Str Max 
 DRET.      07.45.00 18-Jul-21:  Drill End Time 
 DRST.      15.00.00 16-Jul-21:  Drill Start Tim 
 DTIM.hr                 23.46:  Time Drilling 
 EDEP.m                4603.00:  End Depth 
 ENG1.       Seymur Iskandarov:  Engineer 1 
 ENG2.         Yevgeniy Ulikov:  Engineer 2 
 ENG3.         Bahruz Mehdiyev:  Engineer 3 
 ENG4.         Elchin Mammadov:  Engineer 4 
 ETIM.      14.00.00 23-Jul-21:  End Time 
 FLOI.gpm               500.00:  Flow In 
 FLON.gpm               450.00:  Flow In Min 
 FLOS.cptm                0.00:  Fluid Loss 
 FLOX.gpm               560.00:  Flow In Max 
 DFT .        Mineral Oil Base:  Mud Type 
 FTRO.       Formation Presure:  FTWD Run Obj 
 HFLO.                      No:  High Flow 
 HPRE.                      No:  High Pressure 
 HTEM.                      No:  High Temp 
 HYDO.m                   1.80:  Hydro Offset 
 IFIN.deg                40.22:  Inc, Final 
 IMAX.deg                40.54:  Inc Max 
 IMIN.deg                39.44:  Inc Min 
 IMND.m                4361.17:  Inc Min Depth 
 IMXD.m                4417.92:  Inc Max Depth 
 JARR.                      No:  Jarring 
 LETM.      07.45.00 18-Jul-21:  Log End Time 
 LOST.hr                    16:  Lost Rig Time 
 LSTM.      15.00.00 16-Jul-21:  Log Start Time 
 MDCL.ppm             36500.00:  Mud Chlorides 
 MDES.     Inversion Oil/Synthetic:  Mud Desc 
 DFD .sg                  1.42:  Mud Density 
 MDMN.sg                  1.42:  Dens Mud Min 
 MDMX.sg                  1.43:  Dens Mud Max 
 MOIL.                      56:  Run Mud Oil % 
 MOWR.                   71:29:  Run Mud OWR 
 MSND.                     0.5:  Run Mud Sand % 
 MSOL.                      21:  Run Mud Solids% 
 DFV .spqt               78.00:  Mud Viscosity 
 MWOD.in                  6.75:  MWD Tool OD 
 MWSI.                     Yes:  Serv Intrp, MWD 
 OTIM.hr                200.73:  Time Operating 
 PCON.           Look Like New:  Pad Condition 
 PMAX.psia            11069.93:  Press Op, Max 
 PV  .cP                 32.00:  Mud PV 
 RUN .                     700:  Run Number 
 ROPA.m/hr               10.00:  ROP Avg 
 ROPN.m/hr                9.00:  ROP Min 
 ROPX.m/hr               16.00:  ROP Max 
 RPMA.rpm               116.00:  RPM Surface Avg 
 RPMN.rpm                80.00:  RPM Surface Min 
 RPMX.rpm               120.00:  RPM Surface Max 
 RRUN.                    L605:  Rig Run Number 
 RTIM.hr                 45.00:  Time Reaming 
 SAZI.deg               159.86:  Azm, Start 
 SDEP.m                4315.00:  Start Depth 
 SIDD.                      No:  Serv Intrp, DD 
 SINC.deg                39.86:  Inc, Start 
 SPPA.psig             3300.00:  SPP Avg 
 SPPN.psig             3040.00:  SPP Min 
 SPPX.psig             3645.00:  SPP Max 
 STIM.      01.00.00 15-Jul-21:  Start Time 
 SVCS.                 DD, MWD:  Services 
 SVER.                    9.20:  Sperry Version 
 TDAT.m                 288.00:  Tot Depth Attmp 
 TDDF.                      No:  Trip for DD 
 TDLG.m                 288.00:  Tot Depth Loggd 
 TFF .                      No:  Trip for Fail 
 TQAA.f-kp               19.00:  Torque Abs Avg 
 TQAN.f-kp               18.00:  Torque Abs Min 
 TQAX.f-kp               21.00:  Torque Abs Max 
 TRRT.°/30m               0.45:  Turn Rotating 
 MRT .                    HCIM:  Maximum Recorded Temperature 
 TTMX.degC               88.24:  Max Tool Temp 
 VS01.                90649157:  Virtual Str1 SN 
 VS02.                90652483:  Virtual Str2 SN 
 VS03.                11671987:  Virtual Str3 SN 
 VS04.                90643411:  Virtual Str4 SN 
 VS05.                90652478:  Virtual Str5 SN 
 VS06.                    6111:  Virtual Str6 SN 
 WBMN.klb                 9.50:  WOB Min 
 WITN.        Grigoriy Sarayev:  Customer Rep 
 WITN.          Rufat Huseynov:  Customer Rep 2 
 WOBA.klb                11.00:  WOB Avg 
 WOBX.klb                15.00:  WOB Max 
 YP  .lhf2               28.00:  Yield Point 
~Curve Information Block
#MNEM.UNIT                 API CODE     Curve Description
#---------               -----------    ---------------------------
 TIME.HHMMSS            00 000 000 000:  GT Time & Date
 GTDEPTH.m              00 000 000 000:  GT Depth
 GTPQH.psia             00 000 000 000:  GT HR Quartz Pressure
 GTTQ.degC              00 000 000 000:  GT Quartz Temperature
 GTTN.NONE              00 000 000 000:  GT Test Number
 GTET.sec               00 000 000 000:  GT Elapsed Test Time
 GTTVD.m                00 000 000 000:  GT True Vertical Depth
#Other Information
#
#WARRANTY: Halliburton will use its best efforts to furnish customers with 
#accurate information and interpretations that are part of, and incident to, the services 
#provided.  However, Halliburton cannot and does not warrant the accuracy 
#or correctness of such information and interpretations.  Under no circumstances should any 
#such information or interpretation be relied upon as the sole basis for any drilling, 
#completion, production, or financial decision or any procedure involving any risk to the 
#safety of any drilling venture, drilling rig or its crew or any other third party.  The 
#Customer has full responsibility for all drilling, completion and production operation.  
#Halliburton makes no representations or warranties, either expressed or 
#implied, including, but not limited to, the implied warranties of merchantability or fitness 
#for a particular purpose, with respect to the services rendered.  In no event will 
#Halliburton be liable for failure to obtain any particular results or for 
#any damages, including, but not limited to, indirect, special or consequential damages, 
#resulting from the use of any information or interpretation provided by Halliburton.
#
~A           TIME           GTDEPTH  GTPQH  GTTQ  GTTN  GTET   GTTVD  
# ...
   23:05:57.781.18-Jul-2021 4247.58 5953.65 69.67 8.00 299.11 2507.04
   23:05:57.981.18-Jul-2021 4247.58 5953.65 69.67 8.00 299.31 2507.04
   23:05:58.181.18-Jul-2021 4247.58 5961.13 69.67 8.00 299.51 2507.04
   23:05:58.381.18-Jul-2021 4247.58 5954.09 69.67 8.00 299.71 2507.04
   23:05:58.581.18-Jul-2021 4247.58 5956.81 69.67 8.00 299.91 2507.04
   23:05:58.781.18-Jul-2021 4247.58 5958.32 69.67 8.00 300.11 2507.04
   23:05:58.981.18-Jul-2021 4247.58 5958.32 69.67 8.00 300.31 2507.04
   23:05:59.181.18-Jul-2021 4247.58 5954.84 69.67 8.00 300.51 2507.04
   23:05:59.381.18-Jul-2021 4247.58 5957.69 69.67 8.00 300.71 2507.04
   23:05:59.581.18-Jul-2021 4247.58 5959.07 69.67 8.00 300.91 2507.04
   23:05:59.781.18-Jul-2021 4247.58 5965.45 69.67 8.00 301.11 2507.04
   23:05:59.981.18-Jul-2021 4247.58 5965.45 69.67 8.00 301.31 2507.04
   23:06:00.181.18-Jul-2021 4247.58 5957.73 69.67 8.00 301.51 2507.04
   23:06:00.382.18-Jul-2021 4247.58 5960.28 69.67 8.00 301.71 2507.04
   23:06:00.582.18-Jul-2021 4247.58 5962.21 69.67 8.00 301.91 2507.04
   23:06:00.782.18-Jul-2021 4247.58 5963.86 69.67 8.00 302.11 2507.04
   23:06:00.982.18-Jul-2021 4247.58 5963.86 69.67 8.00 302.31 2507.04
   23:06:01.182.18-Jul-2021 4247.58 5957.66 69.67 8.00 302.51 2507.04
   23:06:01.382.18-Jul-2021 4247.58 5958.53 69.67 8.00 302.71 2507.04
   23:06:01.582.18-Jul-2021 4247.58 5961.67 69.67 8.00 302.91 2507.04
   23:06:01.782.18-Jul-2021 4247.58 5959.83 69.67 8.00 303.11 2507.04
   23:06:01.982.18-Jul-2021 4247.58 5959.83 69.67 8.00 303.31 2507.04
   23:06:02.182.18-Jul-2021 4247.58 5960.64 69.67 8.00 303.51 2507.04
   23:06:02.382.18-Jul-2021 4247.58 5960.29 69.67 8.00 303.71 2507.04
   23:06:02.582.18-Jul-2021 4247.58 5961.38 69.67 8.00 303.91 2507.04
   23:06:02.782.18-Jul-2021 4247.58 5959.77 69.67 8.00 304.11 2507.04
   23:06:02.982.18-Jul-2021 4247.58 5959.77 69.67 8.00 304.31 2507.04
   23:06:03.183.18-Jul-2021 4247.58 5960.11 69.67 8.00 304.51 2507.04
   23:06:03.383.18-Jul-2021 4247.58 5960.26 69.67 8.00 304.71 2507.04
   23:06:03.583.18-Jul-2021 4247.58 5961.88 69.67 8.00 304.91 2507.04
   23:06:03.783.18-Jul-2021 4247.58 5949.48 69.67 8.00 305.11 2507.04
   23:06:03.983.18-Jul-2021 4247.58 5949.48 69.67 8.00 305.31 2507.04
   23:06:04.183.18-Jul-2021 4247.58 5956.25 69.67 8.00 305.51 2507.04
   23:06:04.383.18-Jul-2021 4247.58 5957.90 69.67 8.00 305.71 2507.04
   23:06:04.583.18-Jul-2021 4247.58 5957.05 69.67 8.00 305.91 2507.04
   23:06:04.783.18-Jul-2021 4247.58 5957.55 69.67 8.00 306.11 2507.04
   23:06:04.983.18-Jul-2021 4247.58 5957.55 69.67 8.00 306.31 2507.04
   23:06:05.183.18-Jul-2021 4247.58 5957.48 69.67 8.00 306.51 2507.04
   23:06:05.383.18-Jul-2021 4247.58 5958.26 69.67 8.00 306.71 2507.04
   23:06:05.583.18-Jul-2021 4247.58 5958.50 69.67 8.00 306.91 2507.04
   23:06:05.784.18-Jul-2021 4247.58 5957.66 69.67 8.00 307.11 2507.04
   23:06:05.984.18-Jul-2021 4247.58 5957.66 69.67 8.00 307.31 2507.04
   23:06:06.184.18-Jul-2021 4247.58 5957.19 69.67 8.00 307.51 2507.04
   23:06:06.384.18-Jul-2021 4247.58 5957.54 69.67 8.00 307.71 2507.04
   23:06:06.584.18-Jul-2021 4247.58 5953.65 69.67 8.00 307.91 2507.04
   23:06:06.784.18-Jul-2021 4247.58 5955.40 69.67 8.00 308.11 2507.04
   23:06:06.984.18-Jul-2021 4247.58 5955.40 69.67 8.00 308.31 2507.04
   23:06:07.184.18-Jul-2021 4247.58 5953.60 69.67 8.00 308.51 2507.04
   23:06:07.384.18-Jul-2021 4247.58 5958.69 69.67 8.00 308.71 2507.04
   23:06:07.584.18-Jul-2021 4247.58 5953.91 69.67 8.00 308.91 2507.04
   23:06:07.784.18-Jul-2021 4247.58 5951.75 69.67 8.00 309.11 2507.04
   23:06:07.984.18-Jul-2021 4247.58 5951.75 69.67 8.00 309.31 2507.04
   23:06:08.184.18-Jul-2021 4247.58 5958.21 69.67 8.00 309.51 2507.04
   23:06:08.384.18-Jul-2021 4247.58 5959.63 69.67 8.00 309.71 2507.04
   23:06:08.585.18-Jul-2021 4247.58 5950.68 69.67 8.00 309.91 2507.04
   23:06:08.785.18-Jul-2021 4247.58 5953.93 69.67 8.00 310.11 2507.04
   23:06:08.985.18-Jul-2021 4247.58 5953.93 69.67 8.00 310.31 2507.04
   23:06:09.185.18-Jul-2021 4247.58 5956.20 69.67 8.00 310.51 2507.04
   23:06:09.385.18-Jul-2021 4247.58 5958.77 69.67 8.00 310.71 2507.04
   23:06:09.585.18-Jul-2021 4247.58 5952.96 69.67 8.00 310.91 2507.04
   23:06:09.785.18-Jul-2021 4247.58 5954.46 69.67 8.00 311.11 2507.04
   23:06:09.985.18-Jul-2021 4247.58 5954.46 69.67 8.00 311.31 2507.04
   23:06:10.185.18-Jul-2021 4247.58 5957.37 69.67 8.00 311.51 2507.04
   23:06:10.385.18-Jul-2021 4247.58 5956.88 69.67 8.00 311.71 2507.04
   23:06:10.585.18-Jul-2021 4247.58 5955.35 69.67 8.00 311.91 2507.04
   23:06:10.785.18-Jul-2021 4247.58 5957.50 69.67 8.00 312.11 2507.04
   23:06:10.985.18-Jul-2021 4247.58 5957.50 69.67 8.00 312.31 2507.04
   23:06:11.186.18-Jul-2021 4247.58 5956.28 69.67 8.00 312.52 2507.04
   23:06:11.386.18-Jul-2021 4247.58 5956.71 69.67 8.00 312.72 2507.04
   23:06:11.586.18-Jul-2021 4247.58 5956.09 69.67 8.00 312.92 2507.04
   23:06:11.786.18-Jul-2021 4247.58 5956.47 69.67 8.00 313.12 2507.04
   23:06:11.986.18-Jul-2021 4247.58 5956.47 69.67 8.00 313.32 2507.04
   23:06:12.186.18-Jul-2021 4247.58 5959.21 69.67 8.00 313.52 2507.04
   23:06:12.386.18-Jul-2021 4247.58 5950.65 69.67 8.00 313.72 2507.04
   23:06:12.586.18-Jul-2021 4247.58 5953.82 69.67 8.00 313.92 2507.04
   23:06:12.786.18-Jul-2021 4247.58 5954.75 69.67 8.00 314.12 2507.04
   23:06:12.986.18-Jul-2021 4247.58 5954.75 69.67 8.00 314.32 2507.04
   23:06:13.186.18-Jul-2021 4247.58 5956.45 69.67 8.00 314.52 2507.04
   23:06:13.386.18-Jul-2021 4247.58 5955.67 69.67 8.00 314.72 2507.04
   23:06:13.586.18-Jul-2021 4247.58 5957.38 69.67 8.00 314.92 2507.04
   23:06:13.786.18-Jul-2021 4247.58 5956.77 69.67 8.00 315.12 2507.04
   23:06:13.987.18-Jul-2021 4247.58 5956.77 69.67 8.00 315.32 2507.04
   23:06:14.187.18-Jul-2021 4247.58 5956.19 69.67 8.00 315.52 2507.04
   23:06:14.387.18-Jul-2021 4247.58 5956.81 69.67 8.00 315.72 2507.04
   23:06:14.587.18-Jul-2021 4247.58 5957.98 69.67 8.00 315.92 2507.04
   23:06:14.787.18-Jul-2021 4247.58 5956.70 69.67 8.00 316.12 2507.04
   23:06:14.987.18-Jul-2021 4247.58 5956.70 69.67 8.00 316.32 2507.04
   23:06:15.187.18-Jul-2021 4247.58 5950.83 69.67 8.00 316.52 2507.04
   23:06:15.387.18-Jul-2021 4247.58 5951.57 69.67 8.00 316.72 2507.04
   23:06:15.587.18-Jul-2021 4247.58 5955.23 69.67 8.00 316.92 2507.04
   23:06:15.787.18-Jul-2021 4247.58 5952.04 69.67 8.00 317.12 2507.04
   23:06:15.987.18-Jul-2021 4247.58 5952.04 69.67 8.00 317.32 2507.04
   23:06:16.187.18-Jul-2021 4247.58 5952.48 69.67 8.00 317.52 2507.04
   23:06:16.387.18-Jul-2021 4247.58 5954.69 69.67 8.00 317.72 2507.04
   23:06:16.588.18-Jul-2021 4247.58 5955.24 69.67 8.00 317.92 2507.04
   23:06:16.788.18-Jul-2021 4247.58 5956.97 69.67 8.00 318.12 2507.04
   23:06:16.988.18-Jul-2021 4247.58 5956.97 69.67 8.00 318.32 2507.04
   23:06:17.188.18-Jul-2021 4247.58 5949.56 69.67 8.00 318.52 2507.04
   23:06:17.388.18-Jul-2021 4247.58 5951.88 69.67 8.00 318.72 2507.04
   23:06:17.588.18-Jul-2021 4247.58 5954.17 69.67 8.00 318.92 2507.04
   23:06:17.788.18-Jul-2021 4247.58 5956.59 69.67 8.00 319.12 2507.04
   23:06:17.988.18-Jul-2021 4247.58 5956.59 69.67 8.00 319.32 2507.04
   23:06:18.188.18-Jul-2021 4247.58 5952.49 69.67 8.00 319.52 2507.04
   23:06:18.388.18-Jul-2021 4247.58 5953.82 69.67 8.00 319.72 2507.04
   23:06:18.588.18-Jul-2021 4247.58 5956.79 69.67 8.00 319.92 2507.04
   23:06:18.788.18-Jul-2021 4247.58 5954.79 69.67 8.00 320.12 2507.04
   23:06:18.988.18-Jul-2021 4247.58 5954.79 69.67 8.00 320.32 2507.04
   23:06:19.188.18-Jul-2021 4247.58 5956.52 69.67 8.00 320.52 2507.04
   23:06:19.389.18-Jul-2021 4247.58 5956.73 69.67 8.00 320.72 2507.04
   23:06:19.589.18-Jul-2021 4247.58 5956.47 69.67 8.00 320.92 2507.04
   23:06:19.789.18-Jul-2021 4247.58 5955.87 69.67 8.00 321.12 2507.04
   23:06:19.989.18-Jul-2021 4247.58 5955.87 69.67 8.00 321.32 2507.04
   23:06:20.189.18-Jul-2021 4247.58 5955.60 69.67 8.00 321.52 2507.04
   23:06:20.389.18-Jul-2021 4247.58 5955.51 69.67 8.00 321.72 2507.04
   23:06:20.589.18-Jul-2021 4247.58 5956.34 69.67 8.00 321.92 2507.04
