~Version Information
 VERS.                  2.0:   CWLS log ASCII Standard -VERSION 2.0
 WRAP.                   NO:   One line per depth step
~Well Information Block
#MNEM.UNIT     VALUE/NAME     DESCRIPTION
#---------     -----------    ---------------------------
 STRT.S             07:37:07 19-Jul-21: START TIME 07:37:07 19-Jul-21
 STOP.S             07:44:01 19-Jul-21: STOP TIME  07:44:01 19-Jul-21
 STEP.S                   0.00: STEP TIME
 NULL.                 -999.25: NULL VALUE
 MDS .        Operator Entered:  MAG DATA SOURCE
 PDAT.          Mean Sea Level:  PERMANENT DATUM
 UNIT.                     N/A:  LOGGING EQUIPMENT ID
 DCON.         Sperry Drilling:  DIRECTNL CONTR
 DOE .                     N/A:  DOE NUMBER
 RIG .              West Azeri:  RIG NAME
 JOBN.        AZ-XX-0906997913:  JOB TICKET NUMB
 WELL.                     C41:  WELL NAME
 MWDS.                    Baku:  MWD SHOP
 SRVC.          Turan Drilling:  CONTRACTOR
 FLD .                     ACG:  FIELD NAME
 CTRY.              Azerbaijan:  COUNTRY NAME
 PROV.                    Baku:  PROVINCE
 STAT.                    Baku:  STATE NAME
 REGN.                   EESSA:  REGION
 BASE.              Azerbaijan:  LOGGING EQUIPMENT BASE LOCATION
 UWI .                     N/A:  UNIQUE WELL IDENTIFIER
 API .                     N/A:  API NUMBER
 COMP.     BP Exploration (Caspian Sea) Ltd.:  COMPANY
 WTYP.                Deviated:  WELL TYPE
 SON .        AZ-XX-0906997913:  JOB NUMBER
 FTOP.          Formation Tops:  FORM TOPS DESC
 ILTD.               Lithology:  INTERP LTH DESC
 SVYD.                  Survey:  SURVEY DESC
 DMOD.             Drill Model:  DRILL MOD DESC
 HPTY.       Minimum Curvature:  HOLE POS TYPE
 NREF.                    Grid:  NORTH REFERENCE
 SPUD.               16-May-21:  SPUD DATE
 DATE.      21.11.28 17-May-21:  END TIME
 STIM.      21.11.28 17-May-21:  START TIME
 DMF .             Drill Floor:  DRILL MEAS FROM
 DFST.                        :  DIST FSL TEXT
 DFWT.                        :  DIST FWL TEXT
 CNTY.                        :  COUNTY
 LOC .                        :  LOCATION
 LMF .             Drill Floor:  LOG MEASURED FROM
 AGAP.m                  43.42:  AIR GAP
 VSNS.m                  -2.16:  VERT SEC N/S
 VSEW.m                  -6.24:  VERT SEC E/W
 APD .m                  43.42:  DEPTH ABOVE PD
 WDMS.m                 118.27:  WD ELEV
 EGL .m                   0.00:  GROUND ELEVATION
 EPD .m                   0.00:  ELEVATION
 AZTC.deg                 6.29:  AZM TOTAL CORR
 GRDC.deg                 0.18:  GRID CORRECTION
 MDEC.deg                 6.47:  MAGNETIC DECL
 MDIP.deg                59.54:  MAGNETIC DIP
 MFLD.nT              50337.00:  MAGNETIC FIELD
 GVFD.g                   1.00:  GRAVITY FIELD
 VSDR.deg               226.99:  VERT SEC DIRECT
 TDD .m                   0.00:  TOTAL DEPTH (DRILLER)
 SDEP.m                 448.00:  START DEPTH
 DFSL.m                   0.00:  DISTANCE FSL
 DFWL.m                   0.00:  DISTANCE FWL
 UTMY.m             4435799.96:  UTM Y
 UTMX.m              526265.35:  UTM X
 WHEW.m                  -6.24:  WELL HEAD E/W
 WHNS.m                  -2.16:  WELL HEAD N/S
 LONG.deg                51.31:  LONGITUDE
 LATI.deg                40.06:  LATITUDE
 TVDS.m                  43.42:  TVDSS CORRECTN
 EKB .m                  43.42:  KB ELEVATION
 EDF .m                  43.42:  DF ELEVATION
 TDL .m                 288.00:  TOTAL DEPTH (LOGGER)
 MAGU.                 1851863:  MAGUTM CHECKSUM
 VSC .                       0:  VS TO CLOSURE
~Parameter Information Block
#MNEM.UNIT       Value        Description
#---------     -----------    ---------------------------
 AV  .mps                 0.40:  Ann Velocity 
 AVMX.mps                 0.63:  Max Ann Veloc 
 AZIF.deg               158.76:  Azm, Final 
 BHAT.        Rotary Steerable:  BHA Type 
 BROT.°/30m               0.68:  Build Rotating 
 BS  .in                  8.50:  Bit Size 
 BSZ .in                  8.50:  Bit Size 
 BTPL.psig              712.00:  Bit Press Loss 
 CABU.                      No:  Customer Abuse 
 COMM.                     ÌT{:  Run Comments 1 
 TCS .hr                 90.66:  Time Ciculation Ended 
 CV  .mps                 2.02:  Crit Velocity 
 CVMX.mps                 2.14:  Max Crit Veloc 
 DD1 .            Aziz Aliyevu:  Direct Drillr 1 
 DD2 .             Samir Abbas:  Direct Drillr 2 
 DD3 .           Teymur Aliyev:  Direct Drillr 3 
 DDSV.                 iCruise:  DD Service 
 DEFF.%                  85.10:  % Det Eff 
 DLRX.°/30m               1.05:  Dogleg Rot Max 
 DLSO.°/30m               1.01:  Dogleg Oriented 
 DLSX.°/30m               1.05:  Dogleg Str Max 
 DRET.      07.45.00 18-Jul-21:  Drill End Time 
 DRST.      15.00.00 16-Jul-21:  Drill Start Tim 
 DTIM.hr                 23.46:  Time Drilling 
 EDEP.m                4603.00:  End Depth 
 ENG1.       Seymur Iskandarov:  Engineer 1 
 ENG2.         Yevgeniy Ulikov:  Engineer 2 
 ENG3.         Bahruz Mehdiyev:  Engineer 3 
 ENG4.         Elchin Mammadov:  Engineer 4 
 ETIM.      14.00.00 23-Jul-21:  End Time 
 FLOI.gpm               500.00:  Flow In 
 FLON.gpm               450.00:  Flow In Min 
 FLOS.cptm                0.00:  Fluid Loss 
 FLOX.gpm               560.00:  Flow In Max 
 DFT .        Mineral Oil Base:  Mud Type 
 FTRO.       Formation Presure:  FTWD Run Obj 
 HFLO.                      No:  High Flow 
 HPRE.                      No:  High Pressure 
 HTEM.                      No:  High Temp 
 HYDO.m                   1.80:  Hydro Offset 
 IFIN.deg                40.22:  Inc, Final 
 IMAX.deg                40.54:  Inc Max 
 IMIN.deg                39.44:  Inc Min 
 IMND.m                4361.17:  Inc Min Depth 
 IMXD.m                4417.92:  Inc Max Depth 
 JARR.                      No:  Jarring 
 LETM.      07.45.00 18-Jul-21:  Log End Time 
 LOST.hr                    16:  Lost Rig Time 
 LSTM.      15.00.00 16-Jul-21:  Log Start Time 
 MDCL.ppm             36500.00:  Mud Chlorides 
 MDES.     Inversion Oil/Synthetic:  Mud Desc 
 DFD .sg                  1.42:  Mud Density 
 MDMN.sg                  1.42:  Dens Mud Min 
 MDMX.sg                  1.43:  Dens Mud Max 
 MOIL.                      56:  Run Mud Oil % 
 MOWR.                   71:29:  Run Mud OWR 
 MSND.                     0.5:  Run Mud Sand % 
 MSOL.                      21:  Run Mud Solids% 
 DFV .spqt               78.00:  Mud Viscosity 
 MWOD.in                  6.75:  MWD Tool OD 
 MWSI.                     Yes:  Serv Intrp, MWD 
 OTIM.hr                200.73:  Time Operating 
 PCON.           Look Like New:  Pad Condition 
 PMAX.psia            11069.93:  Press Op, Max 
 PV  .cP                 32.00:  Mud PV 
 RUN .                     700:  Run Number 
 ROPA.m/hr               10.00:  ROP Avg 
 ROPN.m/hr                9.00:  ROP Min 
 ROPX.m/hr               16.00:  ROP Max 
 RPMA.rpm               116.00:  RPM Surface Avg 
 RPMN.rpm                80.00:  RPM Surface Min 
 RPMX.rpm               120.00:  RPM Surface Max 
 RRUN.                    L605:  Rig Run Number 
 RTIM.hr                 45.00:  Time Reaming 
 SAZI.deg               159.86:  Azm, Start 
 SDEP.m                4315.00:  Start Depth 
 SIDD.                      No:  Serv Intrp, DD 
 SINC.deg                39.86:  Inc, Start 
 SPPA.psig             3300.00:  SPP Avg 
 SPPN.psig             3040.00:  SPP Min 
 SPPX.psig             3645.00:  SPP Max 
 STIM.      01.00.00 15-Jul-21:  Start Time 
 SVCS.                 DD, MWD:  Services 
 SVER.                    9.20:  Sperry Version 
 TDAT.m                 288.00:  Tot Depth Attmp 
 TDDF.                      No:  Trip for DD 
 TDLG.m                 288.00:  Tot Depth Loggd 
 TFF .                      No:  Trip for Fail 
 TQAA.f-kp               19.00:  Torque Abs Avg 
 TQAN.f-kp               18.00:  Torque Abs Min 
 TQAX.f-kp               21.00:  Torque Abs Max 
 TRRT.°/30m               0.45:  Turn Rotating 
 MRT .                    HCIM:  Maximum Recorded Temperature 
 TTMX.degC               88.24:  Max Tool Temp 
 VS01.                90649157:  Virtual Str1 SN 
 VS02.                90652483:  Virtual Str2 SN 
 VS03.                11671987:  Virtual Str3 SN 
 VS04.                90643411:  Virtual Str4 SN 
 VS05.                90652478:  Virtual Str5 SN 
 VS06.                    6111:  Virtual Str6 SN 
 WBMN.klb                 9.50:  WOB Min 
 WITN.        Grigoriy Sarayev:  Customer Rep 
 WITN.          Rufat Huseynov:  Customer Rep 2 
 WOBA.klb                11.00:  WOB Avg 
 WOBX.klb                15.00:  WOB Max 
 YP  .lhf2               28.00:  Yield Point 
~Curve Information Block
#MNEM.UNIT                 API CODE     Curve Description
#---------               -----------    ---------------------------
 TIME.HHMMSS            00 000 000 000:  GT Time & Date
 GTDEPTH.m              00 000 000 000:  GT Depth
 GTPQH.psia             00 000 000 000:  GT HR Quartz Pressure
 GTTQ.degC              00 000 000 000:  GT Quartz Temperature
 GTTN.NONE              00 000 000 000:  GT Test Number
 GTET.sec               00 000 000 000:  GT Elapsed Test Time
 GTTVD.m                00 000 000 000:  GT True Vertical Depth
#Other Information
#
#WARRANTY: Halliburton will use its best efforts to furnish customers with 
#accurate information and interpretations that are part of, and incident to, the services 
#provided.  However, Halliburton cannot and does not warrant the accuracy 
#or correctness of such information and interpretations.  Under no circumstances should any 
#such information or interpretation be relied upon as the sole basis for any drilling, 
#completion, production, or financial decision or any procedure involving any risk to the 
#safety of any drilling venture, drilling rig or its crew or any other third party.  The 
#Customer has full responsibility for all drilling, completion and production operation.  
#Halliburton makes no representations or warranties, either expressed or 
#implied, including, but not limited to, the implied warranties of merchantability or fitness 
#for a particular purpose, with respect to the services rendered.  In no event will 
#Halliburton be liable for failure to obtain any particular results or for 
#any damages, including, but not limited to, indirect, special or consequential damages, 
#resulting from the use of any information or interpretation provided by Halliburton.
#
~A           TIME           GTDEPTH  GTPQH  GTTQ  GTTN   GTET   GTTVD  
# ...
   07:39:00.115.19-Jul-2021 4415.50 3902.86 69.89 16.00 113.04 2635.75
   07:39:00.315.19-Jul-2021 4415.50 3902.86 69.89 16.00 113.24 2635.75
   07:39:00.515.19-Jul-2021 4415.50 3903.02 69.89 16.00 113.44 2635.75
   07:39:00.715.19-Jul-2021 4415.50 3903.15 69.89 16.00 113.64 2635.75
   07:39:00.915.19-Jul-2021 4415.50 3903.09 69.89 16.00 113.84 2635.75
   07:39:01.115.19-Jul-2021 4415.50 3903.02 69.89 16.00 114.04 2635.75
   07:39:01.315.19-Jul-2021 4415.50 3903.02 69.89 16.00 114.24 2635.75
   07:39:01.515.19-Jul-2021 4415.50 3902.88 69.89 16.00 114.44 2635.75
   07:39:01.716.19-Jul-2021 4415.50 3903.01 69.89 16.00 114.64 2635.75
   07:39:01.916.19-Jul-2021 4415.50 3902.98 69.89 16.00 114.84 2635.75
   07:39:02.116.19-Jul-2021 4415.50 3902.78 69.89 16.00 115.04 2635.75
   07:39:02.316.19-Jul-2021 4415.50 3902.78 69.89 16.00 115.24 2635.75
   07:39:02.516.19-Jul-2021 4415.50 3901.91 69.89 16.00 115.44 2635.75
   07:39:02.716.19-Jul-2021 4415.50 3902.83 69.89 16.00 115.64 2635.75
   07:39:02.916.19-Jul-2021 4415.50 3902.53 69.89 16.00 115.84 2635.75
   07:39:03.116.19-Jul-2021 4415.50 3902.86 69.89 16.00 116.04 2635.75
   07:39:03.316.19-Jul-2021 4415.50 3902.86 69.89 16.00 116.24 2635.75
   07:39:03.516.19-Jul-2021 4415.50 3902.97 69.89 16.00 116.44 2635.75
   07:39:03.716.19-Jul-2021 4415.50 3902.91 69.89 16.00 116.64 2635.75
   07:39:03.916.19-Jul-2021 4415.50 3903.04 69.89 16.00 116.84 2635.75
   07:39:04.116.19-Jul-2021 4415.50 3902.88 69.89 16.00 117.04 2635.75
   07:39:04.316.19-Jul-2021 4415.50 3902.88 69.89 16.00 117.24 2635.75
   07:39:04.517.19-Jul-2021 4415.50 3902.90 69.89 16.00 117.44 2635.75
   07:39:04.717.19-Jul-2021 4415.50 3902.95 69.89 16.00 117.64 2635.75
   07:39:04.917.19-Jul-2021 4415.50 3902.88 69.89 16.00 117.84 2635.75
   07:39:05.117.19-Jul-2021 4415.50 3901.93 69.89 16.00 118.04 2635.75
   07:39:05.317.19-Jul-2021 4415.50 3901.93 69.89 16.00 118.24 2635.75
   07:39:05.517.19-Jul-2021 4415.50 3903.01 69.89 16.00 118.44 2635.75
   07:39:05.717.19-Jul-2021 4415.50 3901.89 69.89 16.00 118.64 2635.75
   07:39:05.917.19-Jul-2021 4415.50 3903.25 69.89 16.00 118.84 2635.75
   07:39:06.117.19-Jul-2021 4415.50 3902.66 69.89 16.00 119.04 2635.75
   07:39:06.317.19-Jul-2021 4415.50 3902.66 69.89 16.00 119.24 2635.75
   07:39:06.517.19-Jul-2021 4415.50 3901.91 69.89 16.00 119.44 2635.75
   07:39:06.717.19-Jul-2021 4415.50 3903.53 69.89 16.00 119.64 2635.75
   07:39:06.917.19-Jul-2021 4415.50 3902.65 69.89 16.00 119.84 2635.75
   07:39:07.118.19-Jul-2021 4415.50 3903.04 69.89 16.00 120.04 2635.75
   07:39:07.318.19-Jul-2021 4415.50 3903.04 69.89 16.00 120.24 2635.75
   07:39:07.518.19-Jul-2021 4415.50 3902.59 69.89 16.00 120.44 2635.75
   07:39:07.718.19-Jul-2021 4415.50 3902.86 69.89 16.00 120.64 2635.75
   07:39:07.918.19-Jul-2021 4415.50 3902.86 69.89 16.00 120.84 2635.75
   07:39:08.118.19-Jul-2021 4415.50 3902.76 69.89 16.00 121.04 2635.75
   07:39:08.318.19-Jul-2021 4415.50 3902.76 69.89 16.00 121.24 2635.75
   07:39:08.518.19-Jul-2021 4415.50 3903.10 69.89 16.00 121.44 2635.75
   07:39:08.718.19-Jul-2021 4415.50 3903.25 69.89 16.00 121.64 2635.75
   07:39:08.918.19-Jul-2021 4415.50 3902.75 69.89 16.00 121.84 2635.75
   07:39:09.118.19-Jul-2021 4415.50 3902.84 69.89 16.00 122.04 2635.75
   07:39:09.318.19-Jul-2021 4415.50 3902.84 69.89 16.00 122.25 2635.75
   07:39:09.518.19-Jul-2021 4415.50 3902.93 69.89 16.00 122.45 2635.75
   07:39:09.718.19-Jul-2021 4415.50 3903.00 69.89 16.00 122.65 2635.75
   07:39:09.919.19-Jul-2021 4415.50 3902.91 69.89 16.00 122.85 2635.75
   07:39:10.119.19-Jul-2021 4415.50 3902.67 69.89 16.00 123.05 2635.75
   07:39:10.319.19-Jul-2021 4415.50 3902.67 69.89 16.00 123.25 2635.75
   07:39:10.519.19-Jul-2021 4415.50 3902.74 69.89 16.00 123.45 2635.75
   07:39:10.719.19-Jul-2021 4415.50 3902.80 69.89 16.00 123.65 2635.75
   07:39:10.919.19-Jul-2021 4415.50 3902.62 69.89 16.00 123.85 2635.75
   07:39:11.119.19-Jul-2021 4415.50 3902.85 69.89 16.00 124.05 2635.75
   07:39:11.319.19-Jul-2021 4415.50 3902.85 69.89 16.00 124.25 2635.75
   07:39:11.519.19-Jul-2021 4415.50 3902.70 69.89 16.00 124.45 2635.75
   07:39:11.719.19-Jul-2021 4415.50 3902.28 69.89 16.00 124.65 2635.75
   07:39:11.919.19-Jul-2021 4415.50 3902.97 69.89 16.00 124.85 2635.75
   07:39:12.119.19-Jul-2021 4415.50 3903.22 69.89 16.00 125.05 2635.75
   07:39:12.319.19-Jul-2021 4415.50 3903.22 69.89 16.00 125.25 2635.75
   07:39:12.520.19-Jul-2021 4415.50 3903.23 69.89 16.00 125.45 2635.75
   07:39:12.720.19-Jul-2021 4415.50 3903.12 69.89 16.00 125.65 2635.75
   07:39:12.920.19-Jul-2021 4415.50 3903.12 69.89 16.00 125.85 2635.75
   07:39:13.120.19-Jul-2021 4415.50 3903.04 69.89 16.00 126.05 2635.75
   07:39:13.320.19-Jul-2021 4415.50 3903.04 69.89 16.00 126.25 2635.75
   07:39:13.520.19-Jul-2021 4415.50 3902.96 69.89 16.00 126.45 2635.75
   07:39:13.720.19-Jul-2021 4415.50 3901.87 69.89 16.00 126.65 2635.75
   07:39:13.920.19-Jul-2021 4415.50 3902.92 69.89 16.00 126.85 2635.75
   07:39:14.120.19-Jul-2021 4415.50 3902.73 69.89 16.00 127.05 2635.75
   07:39:14.320.19-Jul-2021 4415.50 3902.73 69.89 16.00 127.25 2635.75
   07:39:14.520.19-Jul-2021 4415.50 3903.02 69.89 16.00 127.45 2635.75
   07:39:14.720.19-Jul-2021 4415.50 3903.39 69.89 16.00 127.65 2635.75
   07:39:14.920.19-Jul-2021 4415.50 3903.00 69.89 16.00 127.85 2635.75
   07:39:15.120.19-Jul-2021 4415.50 3902.18 69.89 16.00 128.05 2635.75
   07:39:15.321.19-Jul-2021 4415.50 3902.18 69.89 16.00 128.25 2635.75
   07:39:15.521.19-Jul-2021 4415.50 3903.18 69.89 16.00 128.45 2635.75
   07:39:15.721.19-Jul-2021 4415.50 3902.93 69.89 16.00 128.65 2635.75
   07:39:15.921.19-Jul-2021 4415.50 3901.73 69.89 16.00 128.85 2635.75
   07:39:16.121.19-Jul-2021 4415.50 3903.62 69.90 16.00 129.05 2635.75
   07:39:16.321.19-Jul-2021 4415.50 3903.62 69.90 16.00 129.25 2635.75
   07:39:16.521.19-Jul-2021 4415.50 3903.20 69.90 16.00 129.45 2635.75
   07:39:16.721.19-Jul-2021 4415.50 3902.98 69.90 16.00 129.65 2635.75
   07:39:16.921.19-Jul-2021 4415.50 3902.24 69.90 16.00 129.85 2635.75
   07:39:17.121.19-Jul-2021 4415.50 3903.56 69.90 16.00 130.05 2635.75
   07:39:17.321.19-Jul-2021 4415.50 3903.56 69.90 16.00 130.25 2635.75
   07:39:17.521.19-Jul-2021 4415.50 3903.12 69.90 16.00 130.45 2635.75
   07:39:17.721.19-Jul-2021 4415.50 3902.82 69.90 16.00 130.65 2635.75
   07:39:17.921.19-Jul-2021 4415.50 3903.02 69.90 16.00 130.85 2635.75
   07:39:18.122.19-Jul-2021 4415.50 3903.03 69.90 16.00 131.05 2635.75
   07:39:18.322.19-Jul-2021 4415.50 3903.03 69.90 16.00 131.25 2635.75
   07:39:18.522.19-Jul-2021 4415.50 3902.91 69.90 16.00 131.45 2635.75
   07:39:18.722.19-Jul-2021 4415.50 3902.82 69.90 16.00 131.65 2635.75
   07:39:18.922.19-Jul-2021 4415.50 3903.04 69.90 16.00 131.85 2635.75
   07:39:19.122.19-Jul-2021 4415.50 3902.87 69.90 16.00 132.05 2635.75
   07:39:19.322.19-Jul-2021 4415.50 3902.87 69.90 16.00 132.25 2635.75
   07:39:19.522.19-Jul-2021 4415.50 3903.17 69.90 16.00 132.45 2635.75
   07:39:19.722.19-Jul-2021 4415.50 3902.89 69.90 16.00 132.65 2635.75
   07:39:19.922.19-Jul-2021 4415.50 3902.83 69.90 16.00 132.85 2635.75
   07:39:20.122.19-Jul-2021 4415.50 3902.56 69.90 16.00 133.05 2635.75
   07:39:20.322.19-Jul-2021 4415.50 3902.56 69.90 16.00 133.25 2635.75
   07:39:20.522.19-Jul-2021 4415.50 3903.10 69.90 16.00 133.45 2635.75
   07:39:20.723.19-Jul-2021 4415.50 3902.78 69.90 16.00 133.65 2635.75
   07:39:20.923.19-Jul-2021 4415.50 3903.08 69.90 16.00 133.85 2635.75
   07:39:21.123.19-Jul-2021 4415.50 3902.81 69.90 16.00 134.05 2635.75
   07:39:21.323.19-Jul-2021 4415.50 3902.81 69.90 16.00 134.25 2635.75
   07:39:21.523.19-Jul-2021 4415.50 3902.87 69.90 16.00 134.45 2635.75
   07:39:21.723.19-Jul-2021 4415.50 3903.02 69.90 16.00 134.65 2635.75
   07:39:21.923.19-Jul-2021 4415.50 3902.81 69.90 16.00 134.85 2635.75
   07:39:22.123.19-Jul-2021 4415.50 3902.82 69.90 16.00 135.05 2635.75
   07:39:22.323.19-Jul-2021 4415.50 3902.82 69.90 16.00 135.25 2635.75
   07:39:22.523.19-Jul-2021 4415.50 3902.22 69.90 16.00 135.45 2635.75
