~Version Information
 VERS.                  2.0:   CWLS log ASCII Standard -VERSION 2.0
 WRAP.                   NO:   One line per depth step
~Well Information Block
#MNEM.UNIT     VALUE/NAME     DESCRIPTION
#---------     -----------    ---------------------------
 STRT.S             14:01:43 18-Jul-21: START TIME 14:01:43 18-Jul-21
 STOP.S             14:08:15 18-Jul-21: STOP TIME  14:08:15 18-Jul-21
 STEP.S                   0.00: STEP TIME
 NULL.                 -999.25: NULL VALUE
 MDS .        Operator Entered:  MAG DATA SOURCE
 PDAT.          Mean Sea Level:  PERMANENT DATUM
 UNIT.                     N/A:  LOGGING EQUIPMENT ID
 DCON.         Sperry Drilling:  DIRECTNL CONTR
 DOE .                     N/A:  DOE NUMBER
 RIG .              West Azeri:  RIG NAME
 JOBN.        AZ-XX-0906997913:  JOB TICKET NUMB
 WELL.                     C41:  WELL NAME
 MWDS.                    Baku:  MWD SHOP
 SRVC.          Turan Drilling:  CONTRACTOR
 FLD .                     ACG:  FIELD NAME
 CTRY.              Azerbaijan:  COUNTRY NAME
 PROV.                    Baku:  PROVINCE
 STAT.                    Baku:  STATE NAME
 REGN.                   EESSA:  REGION
 BASE.              Azerbaijan:  LOGGING EQUIPMENT BASE LOCATION
 UWI .                     N/A:  UNIQUE WELL IDENTIFIER
 API .                     N/A:  API NUMBER
 COMP.     BP Exploration (Caspian Sea) Ltd.:  COMPANY
 WTYP.                Deviated:  WELL TYPE
 SON .        AZ-XX-0906997913:  JOB NUMBER
 FTOP.          Formation Tops:  FORM TOPS DESC
 ILTD.               Lithology:  INTERP LTH DESC
 SVYD.                  Survey:  SURVEY DESC
 DMOD.             Drill Model:  DRILL MOD DESC
 HPTY.       Minimum Curvature:  HOLE POS TYPE
 NREF.                    Grid:  NORTH REFERENCE
 SPUD.               16-May-21:  SPUD DATE
 DATE.      21.11.28 17-May-21:  END TIME
 STIM.      21.11.28 17-May-21:  START TIME
 DMF .             Drill Floor:  DRILL MEAS FROM
 DFST.                        :  DIST FSL TEXT
 DFWT.                        :  DIST FWL TEXT
 CNTY.                        :  COUNTY
 LOC .                        :  LOCATION
 LMF .             Drill Floor:  LOG MEASURED FROM
 AGAP.m                  43.42:  AIR GAP
 VSNS.m                  -2.16:  VERT SEC N/S
 VSEW.m                  -6.24:  VERT SEC E/W
 APD .m                  43.42:  DEPTH ABOVE PD
 WDMS.m                 118.27:  WD ELEV
 EGL .m                   0.00:  GROUND ELEVATION
 EPD .m                   0.00:  ELEVATION
 AZTC.deg                 6.29:  AZM TOTAL CORR
 GRDC.deg                 0.18:  GRID CORRECTION
 MDEC.deg                 6.47:  MAGNETIC DECL
 MDIP.deg                59.54:  MAGNETIC DIP
 MFLD.nT              50337.00:  MAGNETIC FIELD
 GVFD.g                   1.00:  GRAVITY FIELD
 VSDR.deg               226.99:  VERT SEC DIRECT
 TDD .m                   0.00:  TOTAL DEPTH (DRILLER)
 SDEP.m                 448.00:  START DEPTH
 DFSL.m                   0.00:  DISTANCE FSL
 DFWL.m                   0.00:  DISTANCE FWL
 UTMY.m             4435799.96:  UTM Y
 UTMX.m              526265.35:  UTM X
 WHEW.m                  -6.24:  WELL HEAD E/W
 WHNS.m                  -2.16:  WELL HEAD N/S
 LONG.deg                51.31:  LONGITUDE
 LATI.deg                40.06:  LATITUDE
 TVDS.m                  43.42:  TVDSS CORRECTN
 EKB .m                  43.42:  KB ELEVATION
 EDF .m                  43.42:  DF ELEVATION
 TDL .m                 288.00:  TOTAL DEPTH (LOGGER)
 MAGU.                 1851863:  MAGUTM CHECKSUM
 VSC .                       0:  VS TO CLOSURE
~Parameter Information Block
#MNEM.UNIT       Value        Description
#---------     -----------    ---------------------------
 AV  .mps                 0.40:  Ann Velocity 
 AVMX.mps                 0.63:  Max Ann Veloc 
 AZIF.deg               158.76:  Azm, Final 
 BHAT.        Rotary Steerable:  BHA Type 
 BROT.°/30m               0.68:  Build Rotating 
 BS  .in                  8.50:  Bit Size 
 BSZ .in                  8.50:  Bit Size 
 BTPL.psig              712.00:  Bit Press Loss 
 CABU.                      No:  Customer Abuse 
 COMM.                     <©Q:  Run Comments 1 
 TCS .hr                 90.66:  Time Ciculation Ended 
 CV  .mps                 2.02:  Crit Velocity 
 CVMX.mps                 2.14:  Max Crit Veloc 
 DD1 .            Aziz Aliyevu:  Direct Drillr 1 
 DD2 .             Samir Abbas:  Direct Drillr 2 
 DD3 .           Teymur Aliyev:  Direct Drillr 3 
 DDSV.                 iCruise:  DD Service 
 DEFF.%                  85.10:  % Det Eff 
 DLRX.°/30m               1.05:  Dogleg Rot Max 
 DLSO.°/30m               1.01:  Dogleg Oriented 
 DLSX.°/30m               1.05:  Dogleg Str Max 
 DRET.      07.45.00 18-Jul-21:  Drill End Time 
 DRST.      15.00.00 16-Jul-21:  Drill Start Tim 
 DTIM.hr                 23.46:  Time Drilling 
 EDEP.m                4603.00:  End Depth 
 ENG1.       Seymur Iskandarov:  Engineer 1 
 ENG2.         Yevgeniy Ulikov:  Engineer 2 
 ENG3.         Bahruz Mehdiyev:  Engineer 3 
 ENG4.         Elchin Mammadov:  Engineer 4 
 ETIM.      14.00.00 23-Jul-21:  End Time 
 FLOI.gpm               500.00:  Flow In 
 FLON.gpm               450.00:  Flow In Min 
 FLOS.cptm                0.00:  Fluid Loss 
 FLOX.gpm               560.00:  Flow In Max 
 DFT .        Mineral Oil Base:  Mud Type 
 FTRO.       Formation Presure:  FTWD Run Obj 
 HFLO.                      No:  High Flow 
 HPRE.                      No:  High Pressure 
 HTEM.                      No:  High Temp 
 HYDO.m                   1.80:  Hydro Offset 
 IFIN.deg                40.22:  Inc, Final 
 IMAX.deg                40.54:  Inc Max 
 IMIN.deg                39.44:  Inc Min 
 IMND.m                4361.17:  Inc Min Depth 
 IMXD.m                4417.92:  Inc Max Depth 
 JARR.                      No:  Jarring 
 LETM.      07.45.00 18-Jul-21:  Log End Time 
 LOST.hr                    16:  Lost Rig Time 
 LSTM.      15.00.00 16-Jul-21:  Log Start Time 
 MDCL.ppm             36500.00:  Mud Chlorides 
 MDES.     Inversion Oil/Synthetic:  Mud Desc 
 DFD .sg                  1.42:  Mud Density 
 MDMN.sg                  1.42:  Dens Mud Min 
 MDMX.sg                  1.43:  Dens Mud Max 
 MOIL.                      56:  Run Mud Oil % 
 MOWR.                   71:29:  Run Mud OWR 
 MSND.                     0.5:  Run Mud Sand % 
 MSOL.                      21:  Run Mud Solids% 
 DFV .spqt               78.00:  Mud Viscosity 
 MWOD.in                  6.75:  MWD Tool OD 
 MWSI.                     Yes:  Serv Intrp, MWD 
 OTIM.hr                200.73:  Time Operating 
 PCON.           Look Like New:  Pad Condition 
 PMAX.psia            11069.93:  Press Op, Max 
 PV  .cP                 32.00:  Mud PV 
 RUN .                     700:  Run Number 
 ROPA.m/hr               10.00:  ROP Avg 
 ROPN.m/hr                9.00:  ROP Min 
 ROPX.m/hr               16.00:  ROP Max 
 RPMA.rpm               116.00:  RPM Surface Avg 
 RPMN.rpm                80.00:  RPM Surface Min 
 RPMX.rpm               120.00:  RPM Surface Max 
 RRUN.                    L605:  Rig Run Number 
 RTIM.hr                 45.00:  Time Reaming 
 SAZI.deg               159.86:  Azm, Start 
 SDEP.m                4315.00:  Start Depth 
 SIDD.                      No:  Serv Intrp, DD 
 SINC.deg                39.86:  Inc, Start 
 SPPA.psig             3300.00:  SPP Avg 
 SPPN.psig             3040.00:  SPP Min 
 SPPX.psig             3645.00:  SPP Max 
 STIM.      01.00.00 15-Jul-21:  Start Time 
 SVCS.                 DD, MWD:  Services 
 SVER.                    9.20:  Sperry Version 
 TDAT.m                 288.00:  Tot Depth Attmp 
 TDDF.                      No:  Trip for DD 
 TDLG.m                 288.00:  Tot Depth Loggd 
 TFF .                      No:  Trip for Fail 
 TQAA.f-kp               19.00:  Torque Abs Avg 
 TQAN.f-kp               18.00:  Torque Abs Min 
 TQAX.f-kp               21.00:  Torque Abs Max 
 TRRT.°/30m               0.45:  Turn Rotating 
 MRT .                    HCIM:  Maximum Recorded Temperature 
 TTMX.degC               88.24:  Max Tool Temp 
 VS01.                90649157:  Virtual Str1 SN 
 VS02.                90652483:  Virtual Str2 SN 
 VS03.                11671987:  Virtual Str3 SN 
 VS04.                90643411:  Virtual Str4 SN 
 VS05.                90652478:  Virtual Str5 SN 
 VS06.                    6111:  Virtual Str6 SN 
 WBMN.klb                 9.50:  WOB Min 
 WITN.        Grigoriy Sarayev:  Customer Rep 
 WITN.          Rufat Huseynov:  Customer Rep 2 
 WOBA.klb                11.00:  WOB Avg 
 WOBX.klb                15.00:  WOB Max 
 YP  .lhf2               28.00:  Yield Point 
~Curve Information Block
#MNEM.UNIT                 API CODE     Curve Description
#---------               -----------    ---------------------------
 TIME.HHMMSS            00 000 000 000:  GT Time & Date
 GTDEPTH.m              00 000 000 000:  GT Depth
 GTPQH.psia             00 000 000 000:  GT HR Quartz Pressure
 GTTQ.degC              00 000 000 000:  GT Quartz Temperature
 GTTN.NONE              00 000 000 000:  GT Test Number
 GTET.sec               00 000 000 000:  GT Elapsed Test Time
 GTTVD.m                00 000 000 000:  GT True Vertical Depth
#Other Information
#
#WARRANTY: Halliburton will use its best efforts to furnish customers with 
#accurate information and interpretations that are part of, and incident to, the services 
#provided.  However, Halliburton cannot and does not warrant the accuracy 
#or correctness of such information and interpretations.  Under no circumstances should any 
#such information or interpretation be relied upon as the sole basis for any drilling, 
#completion, production, or financial decision or any procedure involving any risk to the 
#safety of any drilling venture, drilling rig or its crew or any other third party.  The 
#Customer has full responsibility for all drilling, completion and production operation.  
#Halliburton makes no representations or warranties, either expressed or 
#implied, including, but not limited to, the implied warranties of merchantability or fitness 
#for a particular purpose, with respect to the services rendered.  In no event will 
#Halliburton be liable for failure to obtain any particular results or for 
#any damages, including, but not limited to, indirect, special or consequential damages, 
#resulting from the use of any information or interpretation provided by Halliburton.
#
~A           TIME           GTDEPTH  GTPQH  GTTQ  GTTN  GTET   GTTVD  
# ...
   14:05:56.850.18-Jul-2021 4559.00 6748.74 75.31 3.00 253.09 2745.40
   14:05:57.050.18-Jul-2021 4559.00 6748.74 75.31 3.00 253.29 2745.40
   14:05:57.250.18-Jul-2021 4559.00 6752.74 75.31 3.00 253.49 2745.40
   14:05:57.450.18-Jul-2021 4559.00 6749.72 75.31 3.00 253.69 2745.40
   14:05:57.651.18-Jul-2021 4559.00 6749.79 75.31 3.00 253.89 2745.40
   14:05:57.851.18-Jul-2021 4559.00 6749.75 75.31 3.00 254.09 2745.40
   14:05:58.051.18-Jul-2021 4559.00 6749.75 75.31 3.00 254.29 2745.40
   14:05:58.251.18-Jul-2021 4559.00 6749.87 75.31 3.00 254.49 2745.40
   14:05:58.451.18-Jul-2021 4559.00 6749.54 75.31 3.00 254.69 2745.40
   14:05:58.651.18-Jul-2021 4559.00 6750.34 75.31 3.00 254.89 2745.40
   14:05:58.851.18-Jul-2021 4559.00 6753.07 75.31 3.00 255.09 2745.40
   14:05:59.051.18-Jul-2021 4559.00 6753.07 75.31 3.00 255.29 2745.40
   14:05:59.251.18-Jul-2021 4559.00 6749.55 75.31 3.00 255.49 2745.40
   14:05:59.451.18-Jul-2021 4559.00 6751.60 75.31 3.00 255.69 2745.40
   14:05:59.651.18-Jul-2021 4559.00 6750.25 75.31 3.00 255.89 2745.40
   14:05:59.851.18-Jul-2021 4559.00 6749.87 75.31 3.00 256.09 2745.40
   14:06:00.051.18-Jul-2021 4559.00 6749.87 75.31 3.00 256.29 2745.40
   14:06:00.251.18-Jul-2021 4559.00 6750.29 75.31 3.00 256.49 2745.40
   14:06:00.452.18-Jul-2021 4559.00 6749.72 75.31 3.00 256.69 2745.40
   14:06:00.652.18-Jul-2021 4559.00 6750.18 75.31 3.00 256.89 2745.40
   14:06:00.852.18-Jul-2021 4559.00 6750.07 75.31 3.00 257.09 2745.40
   14:06:01.052.18-Jul-2021 4559.00 6750.07 75.31 3.00 257.29 2745.40
   14:06:01.252.18-Jul-2021 4559.00 6750.40 75.31 3.00 257.49 2745.40
   14:06:01.452.18-Jul-2021 4559.00 6750.32 75.31 3.00 257.69 2745.40
   14:06:01.652.18-Jul-2021 4559.00 6752.23 75.31 3.00 257.89 2745.40
   14:06:01.852.18-Jul-2021 4559.00 6753.17 75.31 3.00 258.10 2745.40
   14:06:02.052.18-Jul-2021 4559.00 6753.17 75.31 3.00 258.30 2745.40
   14:06:02.252.18-Jul-2021 4559.00 6750.71 75.31 3.00 258.50 2745.40
   14:06:02.452.18-Jul-2021 4559.00 6750.00 75.31 3.00 258.70 2745.40
   14:06:02.652.18-Jul-2021 4559.00 6749.89 75.31 3.00 258.90 2745.40
   14:06:02.852.18-Jul-2021 4559.00 6750.00 75.31 3.00 259.10 2745.40
   14:06:03.053.18-Jul-2021 4559.00 6750.00 75.31 3.00 259.30 2745.40
   14:06:03.253.18-Jul-2021 4559.00 6749.74 75.31 3.00 259.50 2745.40
   14:06:03.453.18-Jul-2021 4559.00 6748.98 75.31 3.00 259.70 2745.40
   14:06:03.653.18-Jul-2021 4559.00 6749.02 75.31 3.00 259.90 2745.40
   14:06:03.853.18-Jul-2021 4559.00 6749.33 75.31 3.00 260.10 2745.40
   14:06:04.053.18-Jul-2021 4559.00 6749.33 75.31 3.00 260.30 2745.40
   14:06:04.253.18-Jul-2021 4559.00 6751.29 75.31 3.00 260.50 2745.40
   14:06:04.453.18-Jul-2021 4559.00 6752.53 75.31 3.00 260.70 2745.40
   14:06:04.653.18-Jul-2021 4559.00 6749.36 75.31 3.00 260.90 2745.40
   14:06:04.853.18-Jul-2021 4559.00 6754.24 75.31 3.00 261.10 2745.40
   14:06:05.053.18-Jul-2021 4559.00 6754.24 75.31 3.00 261.30 2745.40
   14:06:05.253.18-Jul-2021 4559.00 6750.99 75.31 3.00 261.50 2745.40
   14:06:05.453.18-Jul-2021 4559.00 6754.54 75.31 3.00 261.70 2745.40
   14:06:05.653.18-Jul-2021 4559.00 6754.90 75.31 3.00 261.90 2745.40
   14:06:05.854.18-Jul-2021 4559.00 6750.75 75.31 3.00 262.10 2745.40
   14:06:06.054.18-Jul-2021 4559.00 6750.75 75.31 3.00 262.30 2745.40
   14:06:06.254.18-Jul-2021 4559.00 6751.52 75.31 3.00 262.50 2745.40
   14:06:06.454.18-Jul-2021 4559.00 6750.90 75.31 3.00 262.70 2745.40
   14:06:06.654.18-Jul-2021 4559.00 6754.22 75.31 3.00 262.90 2745.40
   14:06:06.854.18-Jul-2021 4559.00 6751.49 75.31 3.00 263.10 2745.40
   14:06:07.054.18-Jul-2021 4559.00 6751.49 75.31 3.00 263.30 2745.40
   14:06:07.254.18-Jul-2021 4559.00 6752.13 75.31 3.00 263.50 2745.40
   14:06:07.454.18-Jul-2021 4559.00 6753.41 75.31 3.00 263.70 2745.40
   14:06:07.654.18-Jul-2021 4559.00 6752.81 75.31 3.00 263.90 2745.40
   14:06:07.854.18-Jul-2021 4559.00 6751.29 75.31 3.00 264.10 2745.40
   14:06:08.054.18-Jul-2021 4559.00 6751.29 75.31 3.00 264.30 2745.40
   14:06:08.254.18-Jul-2021 4559.00 6751.73 75.31 3.00 264.50 2745.40
   14:06:08.455.18-Jul-2021 4559.00 6751.02 75.31 3.00 264.70 2745.40
   14:06:08.655.18-Jul-2021 4559.00 6751.35 75.31 3.00 264.90 2745.40
   14:06:08.855.18-Jul-2021 4559.00 6750.84 75.31 3.00 265.10 2745.40
   14:06:09.055.18-Jul-2021 4559.00 6750.84 75.31 3.00 265.30 2745.40
   14:06:09.255.18-Jul-2021 4559.00 6751.11 75.31 3.00 265.50 2745.40
   14:06:09.455.18-Jul-2021 4559.00 6750.98 75.31 3.00 265.70 2745.40
   14:06:09.655.18-Jul-2021 4559.00 6750.94 75.31 3.00 265.90 2745.40
   14:06:09.855.18-Jul-2021 4559.00 6751.18 75.31 3.00 266.10 2745.40
   14:06:10.055.18-Jul-2021 4559.00 6751.18 75.31 3.00 266.30 2745.40
   14:06:10.255.18-Jul-2021 4559.00 6751.17 75.31 3.00 266.50 2745.40
   14:06:10.455.18-Jul-2021 4559.00 6754.09 75.31 3.00 266.70 2745.40
   14:06:10.655.18-Jul-2021 4559.00 6750.80 75.31 3.00 266.90 2745.40
   14:06:10.855.18-Jul-2021 4559.00 6751.29 75.31 3.00 267.10 2745.40
   14:06:11.055.18-Jul-2021 4559.00 6751.29 75.31 3.00 267.30 2745.40
   14:06:11.256.18-Jul-2021 4559.00 6750.36 75.31 3.00 267.50 2745.40
   14:06:11.456.18-Jul-2021 4559.00 6750.67 75.31 3.00 267.70 2745.40
   14:06:11.656.18-Jul-2021 4559.00 6750.67 75.31 3.00 267.90 2745.40
   14:06:11.856.18-Jul-2021 4559.00 6750.11 75.31 3.00 268.10 2745.40
   14:06:12.056.18-Jul-2021 4559.00 6750.11 75.31 3.00 268.30 2745.40
   14:06:12.256.18-Jul-2021 4559.00 6750.13 75.31 3.00 268.50 2745.40
   14:06:12.456.18-Jul-2021 4559.00 6749.96 75.31 3.00 268.70 2745.40
   14:06:12.656.18-Jul-2021 4559.00 6750.49 75.31 3.00 268.90 2745.40
   14:06:12.856.18-Jul-2021 4559.00 6750.97 75.31 3.00 269.10 2745.40
   14:06:13.056.18-Jul-2021 4559.00 6750.97 75.31 3.00 269.30 2745.40
   14:06:13.256.18-Jul-2021 4559.00 6751.24 75.31 3.00 269.50 2745.40
   14:06:13.456.18-Jul-2021 4559.00 6752.59 75.31 3.00 269.70 2745.40
   14:06:13.656.18-Jul-2021 4559.00 6754.95 75.31 3.00 269.90 2745.40
   14:06:13.857.18-Jul-2021 4559.00 6750.57 75.31 3.00 270.10 2745.40
   14:06:14.057.18-Jul-2021 4559.00 6750.57 75.31 3.00 270.30 2745.40
   14:06:14.257.18-Jul-2021 4559.00 6754.29 75.31 3.00 270.50 2745.40
   14:06:14.457.18-Jul-2021 4559.00 6750.47 75.31 3.00 270.70 2745.40
   14:06:14.657.18-Jul-2021 4559.00 6751.43 75.31 3.00 270.90 2745.40
   14:06:14.857.18-Jul-2021 4559.00 6751.57 75.31 3.00 271.10 2745.40
   14:06:15.057.18-Jul-2021 4559.00 6751.57 75.31 3.00 271.30 2745.40
   14:06:15.257.18-Jul-2021 4559.00 6752.98 75.31 3.00 271.50 2745.40
   14:06:15.457.18-Jul-2021 4559.00 6752.29 75.31 3.00 271.70 2745.40
   14:06:15.657.18-Jul-2021 4559.00 6751.48 75.31 3.00 271.90 2745.40
   14:06:15.857.18-Jul-2021 4559.00 6752.45 75.31 3.00 272.10 2745.40
   14:06:16.057.18-Jul-2021 4559.00 6752.45 75.31 3.00 272.30 2745.40
   14:06:16.257.18-Jul-2021 4559.00 6751.33 75.31 3.00 272.50 2745.40
   14:06:16.457.18-Jul-2021 4559.00 6754.98 75.31 3.00 272.70 2745.40
   14:06:16.658.18-Jul-2021 4559.00 6752.15 75.31 3.00 272.90 2745.40
   14:06:16.858.18-Jul-2021 4559.00 6751.54 75.31 3.00 273.10 2745.40
   14:06:17.058.18-Jul-2021 4559.00 6751.54 75.31 3.00 273.30 2745.40
   14:06:17.258.18-Jul-2021 4559.00 6750.91 75.31 3.00 273.50 2745.40
   14:06:17.458.18-Jul-2021 4559.00 6750.84 75.31 3.00 273.70 2745.40
   14:06:17.658.18-Jul-2021 4559.00 6751.01 75.31 3.00 273.90 2745.40
   14:06:17.858.18-Jul-2021 4559.00 6750.70 75.31 3.00 274.10 2745.40
   14:06:18.058.18-Jul-2021 4559.00 6750.70 75.31 3.00 274.30 2745.40
   14:06:18.258.18-Jul-2021 4559.00 6750.58 75.31 3.00 274.50 2745.40
   14:06:18.458.18-Jul-2021 4559.00 6750.52 75.31 3.00 274.70 2745.40
   14:06:18.658.18-Jul-2021 4559.00 6750.81 75.31 3.00 274.90 2745.40
   14:06:18.858.18-Jul-2021 4559.00 6750.84 75.31 3.00 275.10 2745.40
   14:06:19.058.18-Jul-2021 4559.00 6750.84 75.31 3.00 275.30 2745.40
   14:06:19.258.18-Jul-2021 4559.00 6753.25 75.31 3.00 275.50 2745.40
   14:06:19.459.18-Jul-2021 4559.00 6752.61 75.31 3.00 275.70 2745.40
   14:06:19.659.18-Jul-2021 4559.00 6750.65 75.31 3.00 275.90 2745.40
