~Version Information
 VERS.                  2.0:   CWLS log ASCII Standard -VERSION 2.0
 WRAP.                   NO:   One line per depth step
~Well Information Block
#MNEM.UNIT     VALUE/NAME     DESCRIPTION
#---------     -----------    ---------------------------
 STRT.S             07:37:07 19-Jul-21: START TIME 07:37:07 19-Jul-21
 STOP.S             07:44:01 19-Jul-21: STOP TIME  07:44:01 19-Jul-21
 STEP.S                   0.00: STEP TIME
 NULL.                 -999.25: NULL VALUE
 MDS .        Operator Entered:  MAG DATA SOURCE
 PDAT.          Mean Sea Level:  PERMANENT DATUM
 UNIT.                     N/A:  LOGGING EQUIPMENT ID
 DCON.         Sperry Drilling:  DIRECTNL CONTR
 DOE .                     N/A:  DOE NUMBER
 RIG .              West Azeri:  RIG NAME
 JOBN.        AZ-XX-0906997913:  JOB TICKET NUMB
 WELL.                     C41:  WELL NAME
 MWDS.                    Baku:  MWD SHOP
 SRVC.          Turan Drilling:  CONTRACTOR
 FLD .                     ACG:  FIELD NAME
 CTRY.              Azerbaijan:  COUNTRY NAME
 PROV.                    Baku:  PROVINCE
 STAT.                    Baku:  STATE NAME
 REGN.                   EESSA:  REGION
 BASE.              Azerbaijan:  LOGGING EQUIPMENT BASE LOCATION
 UWI .                     N/A:  UNIQUE WELL IDENTIFIER
 API .                     N/A:  API NUMBER
 COMP.     BP Exploration (Caspian Sea) Ltd.:  COMPANY
 WTYP.                Deviated:  WELL TYPE
 SON .        AZ-XX-0906997913:  JOB NUMBER
 FTOP.          Formation Tops:  FORM TOPS DESC
 ILTD.               Lithology:  INTERP LTH DESC
 SVYD.                  Survey:  SURVEY DESC
 DMOD.             Drill Model:  DRILL MOD DESC
 HPTY.       Minimum Curvature:  HOLE POS TYPE
 NREF.                    Grid:  NORTH REFERENCE
 SPUD.               16-May-21:  SPUD DATE
 DATE.      21.11.28 17-May-21:  END TIME
 STIM.      21.11.28 17-May-21:  START TIME
 DMF .             Drill Floor:  DRILL MEAS FROM
 DFST.                        :  DIST FSL TEXT
 DFWT.                        :  DIST FWL TEXT
 CNTY.                        :  COUNTY
 LOC .                        :  LOCATION
 LMF .             Drill Floor:  LOG MEASURED FROM
 AGAP.m                  43.42:  AIR GAP
 VSNS.m                  -2.16:  VERT SEC N/S
 VSEW.m                  -6.24:  VERT SEC E/W
 APD .m                  43.42:  DEPTH ABOVE PD
 WDMS.m                 118.27:  WD ELEV
 EGL .m                   0.00:  GROUND ELEVATION
 EPD .m                   0.00:  ELEVATION
 AZTC.deg                 6.29:  AZM TOTAL CORR
 GRDC.deg                 0.18:  GRID CORRECTION
 MDEC.deg                 6.47:  MAGNETIC DECL
 MDIP.deg                59.54:  MAGNETIC DIP
 MFLD.nT              50337.00:  MAGNETIC FIELD
 GVFD.g                   1.00:  GRAVITY FIELD
 VSDR.deg               226.99:  VERT SEC DIRECT
 TDD .m                   0.00:  TOTAL DEPTH (DRILLER)
 SDEP.m                 448.00:  START DEPTH
 DFSL.m                   0.00:  DISTANCE FSL
 DFWL.m                   0.00:  DISTANCE FWL
 UTMY.m             4435799.96:  UTM Y
 UTMX.m              526265.35:  UTM X
 WHEW.m                  -6.24:  WELL HEAD E/W
 WHNS.m                  -2.16:  WELL HEAD N/S
 LONG.deg                51.31:  LONGITUDE
 LATI.deg                40.06:  LATITUDE
 TVDS.m                  43.42:  TVDSS CORRECTN
 EKB .m                  43.42:  KB ELEVATION
 EDF .m                  43.42:  DF ELEVATION
 TDL .m                 288.00:  TOTAL DEPTH (LOGGER)
 MAGU.                 1851863:  MAGUTM CHECKSUM
 VSC .                       0:  VS TO CLOSURE
~Parameter Information Block
#MNEM.UNIT       Value        Description
#---------     -----------    ---------------------------
 AV  .mps                 0.40:  Ann Velocity 
 AVMX.mps                 0.63:  Max Ann Veloc 
 AZIF.deg               158.76:  Azm, Final 
 BHAT.        Rotary Steerable:  BHA Type 
 BROT.°/30m               0.68:  Build Rotating 
 BS  .in                  8.50:  Bit Size 
 BSZ .in                  8.50:  Bit Size 
 BTPL.psig              712.00:  Bit Press Loss 
 CABU.                      No:  Customer Abuse 
 COMM.                     ÌT{:  Run Comments 1 
 TCS .hr                 90.66:  Time Ciculation Ended 
 CV  .mps                 2.02:  Crit Velocity 
 CVMX.mps                 2.14:  Max Crit Veloc 
 DD1 .            Aziz Aliyevu:  Direct Drillr 1 
 DD2 .             Samir Abbas:  Direct Drillr 2 
 DD3 .           Teymur Aliyev:  Direct Drillr 3 
 DDSV.                 iCruise:  DD Service 
 DEFF.%                  85.10:  % Det Eff 
 DLRX.°/30m               1.05:  Dogleg Rot Max 
 DLSO.°/30m               1.01:  Dogleg Oriented 
 DLSX.°/30m               1.05:  Dogleg Str Max 
 DRET.      07.45.00 18-Jul-21:  Drill End Time 
 DRST.      15.00.00 16-Jul-21:  Drill Start Tim 
 DTIM.hr                 23.46:  Time Drilling 
 EDEP.m                4603.00:  End Depth 
 ENG1.       Seymur Iskandarov:  Engineer 1 
 ENG2.         Yevgeniy Ulikov:  Engineer 2 
 ENG3.         Bahruz Mehdiyev:  Engineer 3 
 ENG4.         Elchin Mammadov:  Engineer 4 
 ETIM.      14.00.00 23-Jul-21:  End Time 
 FLOI.gpm               500.00:  Flow In 
 FLON.gpm               450.00:  Flow In Min 
 FLOS.cptm                0.00:  Fluid Loss 
 FLOX.gpm               560.00:  Flow In Max 
 DFT .        Mineral Oil Base:  Mud Type 
 FTRO.       Formation Presure:  FTWD Run Obj 
 HFLO.                      No:  High Flow 
 HPRE.                      No:  High Pressure 
 HTEM.                      No:  High Temp 
 HYDO.m                   1.80:  Hydro Offset 
 IFIN.deg                40.22:  Inc, Final 
 IMAX.deg                40.54:  Inc Max 
 IMIN.deg                39.44:  Inc Min 
 IMND.m                4361.17:  Inc Min Depth 
 IMXD.m                4417.92:  Inc Max Depth 
 JARR.                      No:  Jarring 
 LETM.      07.45.00 18-Jul-21:  Log End Time 
 LOST.hr                    16:  Lost Rig Time 
 LSTM.      15.00.00 16-Jul-21:  Log Start Time 
 MDCL.ppm             36500.00:  Mud Chlorides 
 MDES.     Inversion Oil/Synthetic:  Mud Desc 
 DFD .sg                  1.42:  Mud Density 
 MDMN.sg                  1.42:  Dens Mud Min 
 MDMX.sg                  1.43:  Dens Mud Max 
 MOIL.                      56:  Run Mud Oil % 
 MOWR.                   71:29:  Run Mud OWR 
 MSND.                     0.5:  Run Mud Sand % 
 MSOL.                      21:  Run Mud Solids% 
 DFV .spqt               78.00:  Mud Viscosity 
 MWOD.in                  6.75:  MWD Tool OD 
 MWSI.                     Yes:  Serv Intrp, MWD 
 OTIM.hr                200.73:  Time Operating 
 PCON.           Look Like New:  Pad Condition 
 PMAX.psia            11069.93:  Press Op, Max 
 PV  .cP                 32.00:  Mud PV 
 RUN .                     700:  Run Number 
 ROPA.m/hr               10.00:  ROP Avg 
 ROPN.m/hr                9.00:  ROP Min 
 ROPX.m/hr               16.00:  ROP Max 
 RPMA.rpm               116.00:  RPM Surface Avg 
 RPMN.rpm                80.00:  RPM Surface Min 
 RPMX.rpm               120.00:  RPM Surface Max 
 RRUN.                    L605:  Rig Run Number 
 RTIM.hr                 45.00:  Time Reaming 
 SAZI.deg               159.86:  Azm, Start 
 SDEP.m                4315.00:  Start Depth 
 SIDD.                      No:  Serv Intrp, DD 
 SINC.deg                39.86:  Inc, Start 
 SPPA.psig             3300.00:  SPP Avg 
 SPPN.psig             3040.00:  SPP Min 
 SPPX.psig             3645.00:  SPP Max 
 STIM.      01.00.00 15-Jul-21:  Start Time 
 SVCS.                 DD, MWD:  Services 
 SVER.                    9.20:  Sperry Version 
 TDAT.m                 288.00:  Tot Depth Attmp 
 TDDF.                      No:  Trip for DD 
 TDLG.m                 288.00:  Tot Depth Loggd 
 TFF .                      No:  Trip for Fail 
 TQAA.f-kp               19.00:  Torque Abs Avg 
 TQAN.f-kp               18.00:  Torque Abs Min 
 TQAX.f-kp               21.00:  Torque Abs Max 
 TRRT.°/30m               0.45:  Turn Rotating 
 MRT .                    HCIM:  Maximum Recorded Temperature 
 TTMX.degC               88.24:  Max Tool Temp 
 VS01.                90649157:  Virtual Str1 SN 
 VS02.                90652483:  Virtual Str2 SN 
 VS03.                11671987:  Virtual Str3 SN 
 VS04.                90643411:  Virtual Str4 SN 
 VS05.                90652478:  Virtual Str5 SN 
 VS06.                    6111:  Virtual Str6 SN 
 WBMN.klb                 9.50:  WOB Min 
 WITN.        Grigoriy Sarayev:  Customer Rep 
 WITN.          Rufat Huseynov:  Customer Rep 2 
 WOBA.klb                11.00:  WOB Avg 
 WOBX.klb                15.00:  WOB Max 
 YP  .lhf2               28.00:  Yield Point 
~Curve Information Block
#MNEM.UNIT                 API CODE     Curve Description
#---------               -----------    ---------------------------
 TIME.HHMMSS            00 000 000 000:  GT Time & Date
 GTDEPTH.m              00 000 000 000:  GT Depth
 GTPQH.psia             00 000 000 000:  GT HR Quartz Pressure
 GTTQ.degC              00 000 000 000:  GT Quartz Temperature
 GTTN.NONE              00 000 000 000:  GT Test Number
 GTET.sec               00 000 000 000:  GT Elapsed Test Time
 GTTVD.m                00 000 000 000:  GT True Vertical Depth
#Other Information
#
#WARRANTY: Halliburton will use its best efforts to furnish customers with 
#accurate information and interpretations that are part of, and incident to, the services 
#provided.  However, Halliburton cannot and does not warrant the accuracy 
#or correctness of such information and interpretations.  Under no circumstances should any 
#such information or interpretation be relied upon as the sole basis for any drilling, 
#completion, production, or financial decision or any procedure involving any risk to the 
#safety of any drilling venture, drilling rig or its crew or any other third party.  The 
#Customer has full responsibility for all drilling, completion and production operation.  
#Halliburton makes no representations or warranties, either expressed or 
#implied, including, but not limited to, the implied warranties of merchantability or fitness 
#for a particular purpose, with respect to the services rendered.  In no event will 
#Halliburton be liable for failure to obtain any particular results or for 
#any damages, including, but not limited to, indirect, special or consequential damages, 
#resulting from the use of any information or interpretation provided by Halliburton.
#
~A           TIME           GTDEPTH  GTPQH  GTTQ  GTTN   GTET   GTTVD  
# ...
   07:43:31.415.19-Jul-2021 4415.50 6415.35 70.05 16.00 384.34 2635.75
   07:43:31.615.19-Jul-2021 4415.50 6415.86 70.05 16.00 384.54 2635.75
   07:43:31.815.19-Jul-2021 4415.50 6417.78 70.05 16.00 384.74 2635.75
   07:43:32.015.19-Jul-2021 4415.50 6443.56 70.05 16.00 384.94 2635.75
   07:43:32.215.19-Jul-2021 4415.50 6417.17 70.05 16.00 385.14 2635.75
   07:43:32.415.19-Jul-2021 4415.50 6417.17 70.05 16.00 385.34 2635.75
   07:43:32.615.19-Jul-2021 4415.50 6445.51 70.05 16.00 385.54 2635.75
   07:43:32.815.19-Jul-2021 4415.50 6417.13 70.05 16.00 385.74 2635.75
   07:43:33.015.19-Jul-2021 4415.50 6415.53 70.05 16.00 385.94 2635.75
   07:43:33.216.19-Jul-2021 4415.50 6444.81 70.05 16.00 386.14 2635.75
   07:43:33.416.19-Jul-2021 4415.50 6444.81 70.05 16.00 386.34 2635.75
   07:43:33.616.19-Jul-2021 4415.50 6417.92 70.05 16.00 386.54 2635.75
   07:43:33.816.19-Jul-2021 4415.50 6415.30 70.05 16.00 386.74 2635.75
   07:43:34.016.19-Jul-2021 4415.50 6415.91 70.05 16.00 386.94 2635.75
   07:43:34.216.19-Jul-2021 4415.50 6416.81 70.05 16.00 387.14 2635.75
   07:43:34.416.19-Jul-2021 4415.50 6416.81 70.05 16.00 387.34 2635.75
   07:43:34.616.19-Jul-2021 4415.50 6415.25 70.05 16.00 387.54 2635.75
   07:43:34.816.19-Jul-2021 4415.50 6415.02 70.05 16.00 387.74 2635.75
   07:43:35.016.19-Jul-2021 4415.50 6414.95 70.05 16.00 387.94 2635.75
   07:43:35.216.19-Jul-2021 4415.50 6415.21 70.05 16.00 388.14 2635.75
   07:43:35.416.19-Jul-2021 4415.50 6415.21 70.05 16.00 388.34 2635.75
   07:43:35.616.19-Jul-2021 4415.50 6414.81 70.05 16.00 388.54 2635.75
   07:43:35.816.19-Jul-2021 4415.50 6414.56 70.05 16.00 388.74 2635.75
   07:43:36.017.19-Jul-2021 4415.50 6445.90 70.05 16.00 388.94 2635.75
   07:43:36.217.19-Jul-2021 4415.50 6421.20 70.05 16.00 389.14 2635.75
   07:43:36.417.19-Jul-2021 4415.50 6421.20 70.05 16.00 389.34 2635.75
   07:43:36.617.19-Jul-2021 4415.50 6414.56 70.05 16.00 389.54 2635.75
   07:43:36.817.19-Jul-2021 4415.50 6413.16 70.05 16.00 389.74 2635.75
   07:43:37.017.19-Jul-2021 4415.50 6414.42 70.05 16.00 389.94 2635.75
   07:43:37.217.19-Jul-2021 4415.50 6412.85 70.05 16.00 390.14 2635.75
   07:43:37.417.19-Jul-2021 4415.50 6412.85 70.05 16.00 390.34 2635.75
   07:43:37.617.19-Jul-2021 4415.50 6410.82 70.05 16.00 390.54 2635.75
   07:43:37.817.19-Jul-2021 4415.50 6409.70 70.05 16.00 390.74 2635.75
   07:43:38.017.19-Jul-2021 4415.50 6410.25 70.05 16.00 390.94 2635.75
   07:43:38.217.19-Jul-2021 4415.50 6409.78 70.05 16.00 391.14 2635.75
   07:43:38.417.19-Jul-2021 4415.50 6409.78 70.05 16.00 391.34 2635.75
   07:43:38.617.19-Jul-2021 4415.50 6439.36 70.05 16.00 391.54 2635.75
   07:43:38.818.19-Jul-2021 4415.50 6415.71 70.05 16.00 391.74 2635.75
   07:43:39.018.19-Jul-2021 4415.50 6415.44 70.05 16.00 391.94 2635.75
   07:43:39.218.19-Jul-2021 4415.50 6443.59 70.05 16.00 392.14 2635.75
   07:43:39.418.19-Jul-2021 4415.50 6443.59 70.05 16.00 392.34 2635.75
   07:43:39.618.19-Jul-2021 4415.50 6414.39 70.05 16.00 392.54 2635.75
   07:43:39.818.19-Jul-2021 4415.50 6442.75 70.05 16.00 392.74 2635.75
   07:43:40.018.19-Jul-2021 4415.50 6417.84 70.05 16.00 392.94 2635.75
   07:43:40.218.19-Jul-2021 4415.50 6414.31 70.05 16.00 393.14 2635.75
   07:43:40.418.19-Jul-2021 4415.50 6414.31 70.05 16.00 393.34 2635.75
   07:43:40.618.19-Jul-2021 4415.50 6418.67 70.05 16.00 393.54 2635.75
   07:43:40.818.19-Jul-2021 4415.50 6417.41 70.05 16.00 393.74 2635.75
   07:43:41.018.19-Jul-2021 4415.50 6413.64 70.05 16.00 393.95 2635.75
   07:43:41.218.19-Jul-2021 4415.50 6441.95 70.05 16.00 394.15 2635.75
   07:43:41.419.19-Jul-2021 4415.50 6441.95 70.05 16.00 394.35 2635.75
   07:43:41.619.19-Jul-2021 4415.50 6416.67 70.05 16.00 394.55 2635.75
   07:43:41.819.19-Jul-2021 4415.50 6412.90 70.05 16.00 394.75 2635.75
   07:43:42.019.19-Jul-2021 4415.50 6411.27 70.05 16.00 394.95 2635.75
   07:43:42.219.19-Jul-2021 4415.50 6414.34 70.05 16.00 395.15 2635.75
   07:43:42.419.19-Jul-2021 4415.50 6414.34 70.05 16.00 395.35 2635.75
   07:43:42.619.19-Jul-2021 4415.50 6412.76 70.05 16.00 395.55 2635.75
   07:43:42.819.19-Jul-2021 4415.50 6412.18 70.05 16.00 395.75 2635.75
   07:43:43.019.19-Jul-2021 4415.50 6412.48 70.05 16.00 395.95 2635.75
   07:43:43.219.19-Jul-2021 4415.50 6411.84 70.05 16.00 396.15 2635.75
   07:43:43.419.19-Jul-2021 4415.50 6411.84 70.05 16.00 396.35 2635.75
   07:43:43.619.19-Jul-2021 4415.50 6411.81 70.05 16.00 396.55 2635.75
   07:43:43.819.19-Jul-2021 4415.50 6412.63 70.05 16.00 396.75 2635.75
   07:43:44.019.19-Jul-2021 4415.50 6431.52 70.05 16.00 396.95 2635.75
   07:43:44.220.19-Jul-2021 4415.50 6425.47 70.05 16.00 397.15 2635.75
   07:43:44.420.19-Jul-2021 4415.50 6425.47 70.05 16.00 397.35 2635.75
   07:43:44.620.19-Jul-2021 4415.50 6414.37 70.05 16.00 397.55 2635.75
   07:43:44.820.19-Jul-2021 4415.50 6411.44 70.05 16.00 397.75 2635.75
   07:43:45.020.19-Jul-2021 4415.50 6412.24 70.05 16.00 397.95 2635.75
   07:43:45.220.19-Jul-2021 4415.50 6410.31 70.05 16.00 398.15 2635.75
   07:43:45.420.19-Jul-2021 4415.50 6410.31 70.05 16.00 398.35 2635.75
   07:43:45.620.19-Jul-2021 4415.50 6409.67 70.05 16.00 398.55 2635.75
   07:43:45.820.19-Jul-2021 4415.50 6408.87 70.05 16.00 398.75 2635.75
   07:43:46.020.19-Jul-2021 4415.50 6409.29 70.05 16.00 398.95 2635.75
   07:43:46.220.19-Jul-2021 4415.50 6408.92 70.05 16.00 399.15 2635.75
   07:43:46.420.19-Jul-2021 4415.50 6408.92 70.05 16.00 399.35 2635.75
   07:43:46.620.19-Jul-2021 4415.50 6409.22 70.05 16.00 399.55 2635.75
   07:43:46.821.19-Jul-2021 4415.50 6426.81 70.05 16.00 399.75 2635.75
   07:43:47.021.19-Jul-2021 4415.50 6409.61 70.05 16.00 399.95 2635.75
   07:43:47.221.19-Jul-2021 4415.50 6426.99 70.05 16.00 400.15 2635.75
   07:43:47.421.19-Jul-2021 4415.50 6426.99 70.05 16.00 400.35 2635.75
   07:43:47.621.19-Jul-2021 4415.50 6415.88 70.05 16.00 400.55 2635.75
   07:43:47.821.19-Jul-2021 4415.50 6421.37 70.05 16.00 400.75 2635.75
   07:43:48.021.19-Jul-2021 4415.50 6433.80 70.05 16.00 400.95 2635.75
   07:43:48.221.19-Jul-2021 4415.50 6417.90 70.05 16.00 401.15 2635.75
   07:43:48.421.19-Jul-2021 4415.50 6417.90 70.05 16.00 401.35 2635.75
   07:43:48.621.19-Jul-2021 4415.50 6436.71 70.05 16.00 401.55 2635.75
   07:43:48.821.19-Jul-2021 4415.50 6416.40 70.05 16.00 401.75 2635.75
   07:43:49.021.19-Jul-2021 4415.50 6413.05 70.05 16.00 401.95 2635.75
   07:43:49.221.19-Jul-2021 4415.50 6443.81 70.05 16.00 402.15 2635.75
   07:43:49.421.19-Jul-2021 4415.50 6443.81 70.05 16.00 402.35 2635.75
   07:43:49.622.19-Jul-2021 4415.50 6413.28 70.05 16.00 402.55 2635.75
   07:43:49.822.19-Jul-2021 4415.50 6412.84 70.05 16.00 402.75 2635.75
   07:43:50.022.19-Jul-2021 4415.50 6411.43 70.05 16.00 402.95 2635.75
   07:43:50.222.19-Jul-2021 4415.50 6412.44 70.05 16.00 403.15 2635.75
   07:43:50.422.19-Jul-2021 4415.50 6412.44 70.05 16.00 403.35 2635.75
   07:43:50.622.19-Jul-2021 4415.50 6409.83 70.05 16.00 403.55 2635.75
   07:43:50.822.19-Jul-2021 4415.50 6410.09 70.05 16.00 403.75 2635.75
   07:43:51.022.19-Jul-2021 4415.50 6410.11 70.05 16.00 403.95 2635.75
   07:43:51.222.19-Jul-2021 4415.50 6410.82 70.05 16.00 404.15 2635.75
   07:43:51.422.19-Jul-2021 4415.50 6410.82 70.05 16.00 404.35 2635.75
   07:43:51.622.19-Jul-2021 4415.50 6410.44 70.05 16.00 404.55 2635.75
   07:43:51.822.19-Jul-2021 4415.50 6410.11 70.05 16.00 404.75 2635.75
   07:43:52.022.19-Jul-2021 4415.50 6441.94 70.05 16.00 404.95 2635.75
   07:43:52.222.19-Jul-2021 4415.50 6416.24 70.05 16.00 405.15 2635.75
   07:43:52.423.19-Jul-2021 4415.50 6416.24 70.05 16.00 405.35 2635.75
   07:43:52.623.19-Jul-2021 4415.50 6410.00 70.05 16.00 405.55 2635.75
   07:43:52.823.19-Jul-2021 4415.50 6408.26 70.05 16.00 405.75 2635.75
   07:43:53.023.19-Jul-2021 4415.50 6410.66 70.05 16.00 405.95 2635.75
   07:43:53.223.19-Jul-2021 4415.50 6408.61 70.05 16.00 406.15 2635.75
   07:43:53.423.19-Jul-2021 4415.50 6408.61 70.05 16.00 406.35 2635.75
   07:43:53.623.19-Jul-2021 4415.50 6407.66 70.05 16.00 406.55 2635.75
   07:43:53.823.19-Jul-2021 4415.50 6406.50 70.05 16.00 406.75 2635.75
