~Version Information
 VERS.                  2.0:   CWLS log ASCII Standard -VERSION 2.0
 WRAP.                   NO:   One line per depth step
~Well Information Block
#MNEM.UNIT     VALUE/NAME     DESCRIPTION
#---------     -----------    ---------------------------
 STRT.S             09:24:43 19-Jul-21: START TIME 09:24:43 19-Jul-21
 STOP.S             09:31:38 19-Jul-21: STOP TIME  09:31:38 19-Jul-21
 STEP.S                   0.00: STEP TIME
 NULL.                 -999.25: NULL VALUE
 MDS .        Operator Entered:  MAG DATA SOURCE
 PDAT.          Mean Sea Level:  PERMANENT DATUM
 UNIT.                     N/A:  LOGGING EQUIPMENT ID
 DCON.         Sperry Drilling:  DIRECTNL CONTR
 DOE .                     N/A:  DOE NUMBER
 RIG .              West Azeri:  RIG NAME
 JOBN.        AZ-XX-0906997913:  JOB TICKET NUMB
 WELL.                     C41:  WELL NAME
 MWDS.                    Baku:  MWD SHOP
 SRVC.          Turan Drilling:  CONTRACTOR
 FLD .                     ACG:  FIELD NAME
 CTRY.              Azerbaijan:  COUNTRY NAME
 PROV.                    Baku:  PROVINCE
 STAT.                    Baku:  STATE NAME
 REGN.                   EESSA:  REGION
 BASE.              Azerbaijan:  LOGGING EQUIPMENT BASE LOCATION
 UWI .                     N/A:  UNIQUE WELL IDENTIFIER
 API .                     N/A:  API NUMBER
 COMP.     BP Exploration (Caspian Sea) Ltd.:  COMPANY
 WTYP.                Deviated:  WELL TYPE
 SON .        AZ-XX-0906997913:  JOB NUMBER
 FTOP.          Formation Tops:  FORM TOPS DESC
 ILTD.               Lithology:  INTERP LTH DESC
 SVYD.                  Survey:  SURVEY DESC
 DMOD.             Drill Model:  DRILL MOD DESC
 HPTY.       Minimum Curvature:  HOLE POS TYPE
 NREF.                    Grid:  NORTH REFERENCE
 SPUD.               16-May-21:  SPUD DATE
 DATE.      21.11.28 17-May-21:  END TIME
 STIM.      21.11.28 17-May-21:  START TIME
 DMF .             Drill Floor:  DRILL MEAS FROM
 DFST.                        :  DIST FSL TEXT
 DFWT.                        :  DIST FWL TEXT
 CNTY.                        :  COUNTY
 LOC .                        :  LOCATION
 LMF .             Drill Floor:  LOG MEASURED FROM
 AGAP.m                  43.42:  AIR GAP
 VSNS.m                  -2.16:  VERT SEC N/S
 VSEW.m                  -6.24:  VERT SEC E/W
 APD .m                  43.42:  DEPTH ABOVE PD
 WDMS.m                 118.27:  WD ELEV
 EGL .m                   0.00:  GROUND ELEVATION
 EPD .m                   0.00:  ELEVATION
 AZTC.deg                 6.29:  AZM TOTAL CORR
 GRDC.deg                 0.18:  GRID CORRECTION
 MDEC.deg                 6.47:  MAGNETIC DECL
 MDIP.deg                59.54:  MAGNETIC DIP
 MFLD.nT              50337.00:  MAGNETIC FIELD
 GVFD.g                   1.00:  GRAVITY FIELD
 VSDR.deg               226.99:  VERT SEC DIRECT
 TDD .m                   0.00:  TOTAL DEPTH (DRILLER)
 SDEP.m                 448.00:  START DEPTH
 DFSL.m                   0.00:  DISTANCE FSL
 DFWL.m                   0.00:  DISTANCE FWL
 UTMY.m             4435799.96:  UTM Y
 UTMX.m              526265.35:  UTM X
 WHEW.m                  -6.24:  WELL HEAD E/W
 WHNS.m                  -2.16:  WELL HEAD N/S
 LONG.deg                51.31:  LONGITUDE
 LATI.deg                40.06:  LATITUDE
 TVDS.m                  43.42:  TVDSS CORRECTN
 EKB .m                  43.42:  KB ELEVATION
 EDF .m                  43.42:  DF ELEVATION
 TDL .m                 288.00:  TOTAL DEPTH (LOGGER)
 MAGU.                 1851863:  MAGUTM CHECKSUM
 VSC .                       0:  VS TO CLOSURE
~Parameter Information Block
#MNEM.UNIT       Value        Description
#---------     -----------    ---------------------------
 AV  .mps                 0.40:  Ann Velocity 
 AVMX.mps                 0.63:  Max Ann Veloc 
 AZIF.deg               158.76:  Azm, Final 
 BHAT.        Rotary Steerable:  BHA Type 
 BROT.°/30m               0.68:  Build Rotating 
 BS  .in                  8.50:  Bit Size 
 BSZ .in                  8.50:  Bit Size 
 BTPL.psig              712.00:  Bit Press Loss 
 CABU.                      No:  Customer Abuse 
 COMM.                     L1h:  Run Comments 1 
 TCS .hr                 90.66:  Time Ciculation Ended 
 CV  .mps                 2.02:  Crit Velocity 
 CVMX.mps                 2.14:  Max Crit Veloc 
 DD1 .            Aziz Aliyevu:  Direct Drillr 1 
 DD2 .             Samir Abbas:  Direct Drillr 2 
 DD3 .           Teymur Aliyev:  Direct Drillr 3 
 DDSV.                 iCruise:  DD Service 
 DEFF.%                  85.10:  % Det Eff 
 DLRX.°/30m               1.05:  Dogleg Rot Max 
 DLSO.°/30m               1.01:  Dogleg Oriented 
 DLSX.°/30m               1.05:  Dogleg Str Max 
 DRET.      07.45.00 18-Jul-21:  Drill End Time 
 DRST.      15.00.00 16-Jul-21:  Drill Start Tim 
 DTIM.hr                 23.46:  Time Drilling 
 EDEP.m                4603.00:  End Depth 
 ENG1.       Seymur Iskandarov:  Engineer 1 
 ENG2.         Yevgeniy Ulikov:  Engineer 2 
 ENG3.         Bahruz Mehdiyev:  Engineer 3 
 ENG4.         Elchin Mammadov:  Engineer 4 
 ETIM.      14.00.00 23-Jul-21:  End Time 
 FLOI.gpm               500.00:  Flow In 
 FLON.gpm               450.00:  Flow In Min 
 FLOS.cptm                0.00:  Fluid Loss 
 FLOX.gpm               560.00:  Flow In Max 
 DFT .        Mineral Oil Base:  Mud Type 
 FTRO.       Formation Presure:  FTWD Run Obj 
 HFLO.                      No:  High Flow 
 HPRE.                      No:  High Pressure 
 HTEM.                      No:  High Temp 
 HYDO.m                   1.80:  Hydro Offset 
 IFIN.deg                40.22:  Inc, Final 
 IMAX.deg                40.54:  Inc Max 
 IMIN.deg                39.44:  Inc Min 
 IMND.m                4361.17:  Inc Min Depth 
 IMXD.m                4417.92:  Inc Max Depth 
 JARR.                      No:  Jarring 
 LETM.      07.45.00 18-Jul-21:  Log End Time 
 LOST.hr                    16:  Lost Rig Time 
 LSTM.      15.00.00 16-Jul-21:  Log Start Time 
 MDCL.ppm             36500.00:  Mud Chlorides 
 MDES.     Inversion Oil/Synthetic:  Mud Desc 
 DFD .sg                  1.42:  Mud Density 
 MDMN.sg                  1.42:  Dens Mud Min 
 MDMX.sg                  1.43:  Dens Mud Max 
 MOIL.                      56:  Run Mud Oil % 
 MOWR.                   71:29:  Run Mud OWR 
 MSND.                     0.5:  Run Mud Sand % 
 MSOL.                      21:  Run Mud Solids% 
 DFV .spqt               78.00:  Mud Viscosity 
 MWOD.in                  6.75:  MWD Tool OD 
 MWSI.                     Yes:  Serv Intrp, MWD 
 OTIM.hr                200.73:  Time Operating 
 PCON.           Look Like New:  Pad Condition 
 PMAX.psia            11069.93:  Press Op, Max 
 PV  .cP                 32.00:  Mud PV 
 RUN .                     700:  Run Number 
 ROPA.m/hr               10.00:  ROP Avg 
 ROPN.m/hr                9.00:  ROP Min 
 ROPX.m/hr               16.00:  ROP Max 
 RPMA.rpm               116.00:  RPM Surface Avg 
 RPMN.rpm                80.00:  RPM Surface Min 
 RPMX.rpm               120.00:  RPM Surface Max 
 RRUN.                    L605:  Rig Run Number 
 RTIM.hr                 45.00:  Time Reaming 
 SAZI.deg               159.86:  Azm, Start 
 SDEP.m                4315.00:  Start Depth 
 SIDD.                      No:  Serv Intrp, DD 
 SINC.deg                39.86:  Inc, Start 
 SPPA.psig             3300.00:  SPP Avg 
 SPPN.psig             3040.00:  SPP Min 
 SPPX.psig             3645.00:  SPP Max 
 STIM.      01.00.00 15-Jul-21:  Start Time 
 SVCS.                 DD, MWD:  Services 
 SVER.                    9.20:  Sperry Version 
 TDAT.m                 288.00:  Tot Depth Attmp 
 TDDF.                      No:  Trip for DD 
 TDLG.m                 288.00:  Tot Depth Loggd 
 TFF .                      No:  Trip for Fail 
 TQAA.f-kp               19.00:  Torque Abs Avg 
 TQAN.f-kp               18.00:  Torque Abs Min 
 TQAX.f-kp               21.00:  Torque Abs Max 
 TRRT.°/30m               0.45:  Turn Rotating 
 MRT .                    HCIM:  Maximum Recorded Temperature 
 TTMX.degC               88.24:  Max Tool Temp 
 VS01.                90649157:  Virtual Str1 SN 
 VS02.                90652483:  Virtual Str2 SN 
 VS03.                11671987:  Virtual Str3 SN 
 VS04.                90643411:  Virtual Str4 SN 
 VS05.                90652478:  Virtual Str5 SN 
 VS06.                    6111:  Virtual Str6 SN 
 WBMN.klb                 9.50:  WOB Min 
 WITN.        Grigoriy Sarayev:  Customer Rep 
 WITN.          Rufat Huseynov:  Customer Rep 2 
 WOBA.klb                11.00:  WOB Avg 
 WOBX.klb                15.00:  WOB Max 
 YP  .lhf2               28.00:  Yield Point 
~Curve Information Block
#MNEM.UNIT                 API CODE     Curve Description
#---------               -----------    ---------------------------
 TIME.HHMMSS            00 000 000 000:  GT Time & Date
 GTDEPTH.m              00 000 000 000:  GT Depth
 GTPQH.psia             00 000 000 000:  GT HR Quartz Pressure
 GTTQ.degC              00 000 000 000:  GT Quartz Temperature
 GTTN.NONE              00 000 000 000:  GT Test Number
 GTET.sec               00 000 000 000:  GT Elapsed Test Time
 GTTVD.m                00 000 000 000:  GT True Vertical Depth
#Other Information
#
#WARRANTY: Halliburton will use its best efforts to furnish customers with 
#accurate information and interpretations that are part of, and incident to, the services 
#provided.  However, Halliburton cannot and does not warrant the accuracy 
#or correctness of such information and interpretations.  Under no circumstances should any 
#such information or interpretation be relied upon as the sole basis for any drilling, 
#completion, production, or financial decision or any procedure involving any risk to the 
#safety of any drilling venture, drilling rig or its crew or any other third party.  The 
#Customer has full responsibility for all drilling, completion and production operation.  
#Halliburton makes no representations or warranties, either expressed or 
#implied, including, but not limited to, the implied warranties of merchantability or fitness 
#for a particular purpose, with respect to the services rendered.  In no event will 
#Halliburton be liable for failure to obtain any particular results or for 
#any damages, including, but not limited to, indirect, special or consequential damages, 
#resulting from the use of any information or interpretation provided by Halliburton.
#
~A           TIME           GTDEPTH  GTPQH  GTTQ  GTTN   GTET   GTTVD  
   09:24:43.451.19-Jul-2021 4454.00 6422.65 70.29 20.00   0.00 2665.10
   09:24:43.651.19-Jul-2021 4454.00 6422.65 70.29 20.00   0.20 2665.10
   09:24:43.851.19-Jul-2021 4454.00 6411.06 70.29 20.00   0.40 2665.10
   09:24:44.051.19-Jul-2021 4454.00 6409.60 70.29 20.00   0.60 2665.10
   09:24:44.251.19-Jul-2021 4454.00 6403.57 70.29 20.00   0.80 2665.10
   09:24:44.451.19-Jul-2021 4454.00 6403.48 70.29 20.00   1.00 2665.10
   09:24:44.651.19-Jul-2021 4454.00 6403.48 70.29 20.00   1.20 2665.10
   09:24:44.851.19-Jul-2021 4454.00 6393.47 70.29 20.00   1.40 2665.10
   09:24:45.051.19-Jul-2021 4454.00 6411.03 70.29 20.00   1.60 2665.10
   09:24:45.251.19-Jul-2021 4454.00 6409.84 70.29 20.00   1.80 2665.10
   09:24:45.451.19-Jul-2021 4454.00 6403.17 70.29 20.00   2.00 2665.10
   09:24:45.651.19-Jul-2021 4454.00 6403.17 70.29 20.00   2.20 2665.10
   09:24:45.852.19-Jul-2021 4454.00 6424.96 70.29 20.00   2.40 2665.10
   09:24:46.052.19-Jul-2021 4454.00 6394.77 70.29 20.00   2.60 2665.10
   09:24:46.252.19-Jul-2021 4454.00 6411.43 70.29 20.00   2.80 2665.10
   09:24:46.452.19-Jul-2021 4454.00 6410.27 70.29 20.00   3.00 2665.10
   09:24:46.652.19-Jul-2021 4454.00 6410.27 70.29 20.00   3.20 2665.10
   09:24:46.852.19-Jul-2021 4454.00 6404.26 70.29 20.00   3.40 2665.10
   09:24:47.052.19-Jul-2021 4454.00 6403.63 70.29 20.00   3.60 2665.10
   09:24:47.252.19-Jul-2021 4454.00 6402.68 70.29 20.00   3.80 2665.10
   09:24:47.452.19-Jul-2021 4454.00 6403.79 70.29 20.00   4.00 2665.10
   09:24:47.652.19-Jul-2021 4454.00 6403.79 70.29 20.00   4.20 2665.10
   09:24:47.852.19-Jul-2021 4454.00 6403.68 70.29 20.00   4.40 2665.10
   09:24:48.052.19-Jul-2021 4454.00 6403.78 70.29 20.00   4.60 2665.10
   09:24:48.252.19-Jul-2021 4454.00 6403.92 70.29 20.00   4.80 2665.10
   09:24:48.452.19-Jul-2021 4454.00 6405.24 70.29 20.00   5.00 2665.10
   09:24:48.653.19-Jul-2021 4454.00 6405.24 70.29 20.00   5.20 2665.10
   09:24:48.853.19-Jul-2021 4454.00 6409.30 70.29 20.00   5.40 2665.10
   09:24:49.053.19-Jul-2021 4454.00 6409.98 70.29 20.00   5.60 2665.10
   09:24:49.253.19-Jul-2021 4454.00 6412.26 70.29 20.00   5.80 2665.10
   09:24:49.453.19-Jul-2021 4454.00 6407.67 70.29 20.00   6.00 2665.10
   09:24:49.653.19-Jul-2021 4454.00 6407.67 70.29 20.00   6.20 2665.10
   09:24:49.853.19-Jul-2021 4454.00 6405.69 70.30 20.00   6.40 2665.10
   09:24:50.053.19-Jul-2021 4454.00 6404.50 70.30 20.00   6.60 2665.10
   09:24:50.253.19-Jul-2021 4454.00 6403.61 70.30 20.00   6.80 2665.10
   09:24:50.453.19-Jul-2021 4454.00 6403.73 70.30 20.00   7.00 2665.10
   09:24:50.653.19-Jul-2021 4454.00 6403.73 70.30 20.00   7.20 2665.10
   09:24:50.853.19-Jul-2021 4454.00 6404.89 70.30 20.00   7.40 2665.10
   09:24:51.053.19-Jul-2021 4454.00 6405.30 70.30 20.00   7.60 2665.10
   09:24:51.253.19-Jul-2021 4454.00 6426.82 70.30 20.00   7.80 2665.10
   09:24:51.454.19-Jul-2021 4454.00 6402.13 70.30 20.00   8.00 2665.10
   09:24:51.654.19-Jul-2021 4454.00 6402.13 70.30 20.00   8.20 2665.10
   09:24:51.854.19-Jul-2021 4454.00 6413.54 70.30 20.00   8.40 2665.10
   09:24:52.054.19-Jul-2021 4454.00 6408.56 70.30 20.00   8.60 2665.10
   09:24:52.254.19-Jul-2021 4454.00 6427.56 70.30 20.00   8.80 2665.10
   09:24:52.454.19-Jul-2021 4454.00 6412.96 70.30 20.00   9.00 2665.10
   09:24:52.654.19-Jul-2021 4454.00 6412.96 70.30 20.00   9.20 2665.10
   09:24:52.854.19-Jul-2021 4454.00 6418.72 70.30 20.00   9.40 2665.10
   09:24:53.054.19-Jul-2021 4454.00 6433.90 70.30 20.00   9.60 2665.10
   09:24:53.254.19-Jul-2021 4454.00 6405.44 70.30 20.00   9.80 2665.10
   09:24:53.454.19-Jul-2021 4454.00 6419.85 70.30 20.00  10.00 2665.10
   09:24:53.654.19-Jul-2021 4454.00 6419.85 70.30 20.00  10.20 2665.10
   09:24:53.854.19-Jul-2021 4454.00 6425.30 70.30 20.00  10.40 2665.10
   09:24:54.055.19-Jul-2021 4454.00 6419.27 70.30 20.00  10.60 2665.10
   09:24:54.255.19-Jul-2021 4454.00 6425.86 70.30 20.00  10.80 2665.10
   09:24:54.455.19-Jul-2021 4454.00 6435.15 70.30 20.00  11.00 2665.10
   09:24:54.655.19-Jul-2021 4454.00 6435.15 70.30 20.00  11.20 2665.10
   09:24:54.855.19-Jul-2021 4454.00 6427.98 70.30 20.00  11.40 2665.10
   09:24:55.055.19-Jul-2021 4454.00 6421.84 70.30 20.00  11.60 2665.10
   09:24:55.255.19-Jul-2021 4454.00 6417.89 70.30 20.00  11.80 2665.10
   09:24:55.455.19-Jul-2021 4454.00 6422.93 70.30 20.00  12.00 2665.10
   09:24:55.655.19-Jul-2021 4454.00 6422.93 70.30 20.00  12.20 2665.10
   09:24:55.855.19-Jul-2021 4454.00 6428.93 70.30 20.00  12.40 2665.10
   09:24:56.055.19-Jul-2021 4454.00 6421.62 70.30 20.00  12.60 2665.10
   09:24:56.255.19-Jul-2021 4454.00 6424.76 70.30 20.00  12.80 2665.10
   09:24:56.455.19-Jul-2021 4454.00 6424.15 70.30 20.00  13.00 2665.10
   09:24:56.655.19-Jul-2021 4454.00 6424.15 70.30 20.00  13.20 2665.10
   09:24:56.856.19-Jul-2021 4454.00 6424.15 70.30 20.00  13.40 2665.10
   09:24:57.056.19-Jul-2021 4454.00 6420.54 70.30 20.00  13.61 2665.10
   09:24:57.256.19-Jul-2021 4454.00 6418.85 70.30 20.00  13.81 2665.10
   09:24:57.456.19-Jul-2021 4454.00 6418.34 70.30 20.00  14.01 2665.10
   09:24:57.656.19-Jul-2021 4454.00 6418.34 70.30 20.00  14.21 2665.10
   09:24:57.856.19-Jul-2021 4454.00 6418.32 70.30 20.00  14.41 2665.10
   09:24:58.056.19-Jul-2021 4454.00 6418.07 70.30 20.00  14.61 2665.10
   09:24:58.256.19-Jul-2021 4454.00 6418.18 70.30 20.00  14.81 2665.10
   09:24:58.456.19-Jul-2021 4454.00 6434.68 70.30 20.00  15.01 2665.10
   09:24:58.656.19-Jul-2021 4454.00 6434.68 70.30 20.00  15.21 2665.10
   09:24:58.856.19-Jul-2021 4454.00 6423.00 70.30 20.00  15.41 2665.10
   09:24:59.056.19-Jul-2021 4454.00 6426.07 70.30 20.00  15.61 2665.10
   09:24:59.256.19-Jul-2021 4454.00 6423.06 70.30 20.00  15.81 2665.10
   09:24:59.457.19-Jul-2021 4454.00 6422.06 70.30 20.00  16.01 2665.10
   09:24:59.657.19-Jul-2021 4454.00 6422.06 70.30 20.00  16.21 2665.10
   09:24:59.857.19-Jul-2021 4454.00 6421.42 70.30 20.00  16.41 2665.10
   09:25:00.057.19-Jul-2021 4454.00 6420.66 70.30 20.00  16.61 2665.10
   09:25:00.257.19-Jul-2021 4454.00 6421.43 70.30 20.00  16.81 2665.10
   09:25:00.457.19-Jul-2021 4454.00 6422.02 70.30 20.00  17.01 2665.10
   09:25:00.657.19-Jul-2021 4454.00 6422.02 70.30 20.00  17.21 2665.10
   09:25:00.857.19-Jul-2021 4454.00 6419.75 70.30 20.00  17.41 2665.10
   09:25:01.057.19-Jul-2021 4454.00 6443.13 70.30 20.00  17.61 2665.10
   09:25:01.257.19-Jul-2021 4454.00 6413.07 70.30 20.00  17.81 2665.10
   09:25:01.457.19-Jul-2021 4454.00 6429.64 70.30 20.00  18.01 2665.10
   09:25:01.657.19-Jul-2021 4454.00 6429.64 70.30 20.00  18.21 2665.10
   09:25:01.857.19-Jul-2021 4454.00 6425.26 70.30 20.00  18.41 2665.10
   09:25:02.057.19-Jul-2021 4454.00 6440.21 70.30 20.00  18.61 2665.10
   09:25:02.258.19-Jul-2021 4454.00 6434.36 70.30 20.00  18.81 2665.10
   09:25:02.458.19-Jul-2021 4454.00 6437.88 70.30 20.00  19.01 2665.10
   09:25:02.658.19-Jul-2021 4454.00 6437.88 70.30 20.00  19.21 2665.10
   09:25:02.858.19-Jul-2021 4454.00 6438.89 70.30 20.00  19.41 2665.10
   09:25:03.058.19-Jul-2021 4454.00 6438.00 70.30 20.00  19.61 2665.10
   09:25:03.258.19-Jul-2021 4454.00 6426.20 70.30 20.00  19.81 2665.10
   09:25:03.458.19-Jul-2021 4454.00 6430.22 70.30 20.00  20.01 2665.10
   09:25:03.658.19-Jul-2021 4454.00 6430.22 70.30 20.00  20.21 2665.10
   09:25:03.858.19-Jul-2021 4454.00 6445.10 70.30 20.00  20.41 2665.10
   09:25:04.058.19-Jul-2021 4454.00 6432.29 70.30 20.00  20.61 2665.10
   09:25:04.258.19-Jul-2021 4454.00 6432.07 70.30 20.00  20.81 2665.10
   09:25:04.458.19-Jul-2021 4454.00 6433.84 70.30 20.00  21.01 2665.10
   09:25:04.658.19-Jul-2021 4454.00 6433.84 70.30 20.00  21.21 2665.10
   09:25:04.859.19-Jul-2021 4454.00 6428.08 70.30 20.00  21.41 2665.10
   09:25:05.059.19-Jul-2021 4454.00 6428.81 70.30 20.00  21.61 2665.10
   09:25:05.259.19-Jul-2021 4454.00 6428.70 70.30 20.00  21.81 2665.10
   09:25:05.459.19-Jul-2021 4454.00 6428.37 70.30 20.00  22.01 2665.10
   09:25:05.659.19-Jul-2021 4454.00 6428.37 70.30 20.00  22.21 2665.10
   09:25:05.859.19-Jul-2021 4454.00 6428.78 70.30 20.00  22.41 2665.10
