~Version Information
 VERS.                  2.0:   CWLS log ASCII Standard -VERSION 2.0
 WRAP.                   NO:   One line per depth step
~Well Information Block
#MNEM.UNIT     VALUE/NAME     DESCRIPTION
#---------     -----------    ---------------------------
 STRT.S             13:44:38 19-Jul-21: START TIME 13:44:38 19-Jul-21
 STOP.S             13:51:30 19-Jul-21: STOP TIME  13:51:30 19-Jul-21
 STEP.S                   0.00: STEP TIME
 NULL.                 -999.25: NULL VALUE
 MDS .        Operator Entered:  MAG DATA SOURCE
 PDAT.          Mean Sea Level:  PERMANENT DATUM
 UNIT.                     N/A:  LOGGING EQUIPMENT ID
 DCON.         Sperry Drilling:  DIRECTNL CONTR
 DOE .                     N/A:  DOE NUMBER
 RIG .              West Azeri:  RIG NAME
 JOBN.        AZ-XX-0906997913:  JOB TICKET NUMB
 WELL.                     C41:  WELL NAME
 MWDS.                    Baku:  MWD SHOP
 SRVC.          Turan Drilling:  CONTRACTOR
 FLD .                     ACG:  FIELD NAME
 CTRY.              Azerbaijan:  COUNTRY NAME
 PROV.                    Baku:  PROVINCE
 STAT.                    Baku:  STATE NAME
 REGN.                   EESSA:  REGION
 BASE.              Azerbaijan:  LOGGING EQUIPMENT BASE LOCATION
 UWI .                     N/A:  UNIQUE WELL IDENTIFIER
 API .                     N/A:  API NUMBER
 COMP.     BP Exploration (Caspian Sea) Ltd.:  COMPANY
 WTYP.                Deviated:  WELL TYPE
 SON .        AZ-XX-0906997913:  JOB NUMBER
 FTOP.          Formation Tops:  FORM TOPS DESC
 ILTD.               Lithology:  INTERP LTH DESC
 SVYD.                  Survey:  SURVEY DESC
 DMOD.             Drill Model:  DRILL MOD DESC
 HPTY.       Minimum Curvature:  HOLE POS TYPE
 NREF.                    Grid:  NORTH REFERENCE
 SPUD.               16-May-21:  SPUD DATE
 DATE.      21.11.28 17-May-21:  END TIME
 STIM.      21.11.28 17-May-21:  START TIME
 DMF .             Drill Floor:  DRILL MEAS FROM
 DFST.                        :  DIST FSL TEXT
 DFWT.                        :  DIST FWL TEXT
 CNTY.                        :  COUNTY
 LOC .                        :  LOCATION
 LMF .             Drill Floor:  LOG MEASURED FROM
 AGAP.m                  43.42:  AIR GAP
 VSNS.m                  -2.16:  VERT SEC N/S
 VSEW.m                  -6.24:  VERT SEC E/W
 APD .m                  43.42:  DEPTH ABOVE PD
 WDMS.m                 118.27:  WD ELEV
 EGL .m                   0.00:  GROUND ELEVATION
 EPD .m                   0.00:  ELEVATION
 AZTC.deg                 6.29:  AZM TOTAL CORR
 GRDC.deg                 0.18:  GRID CORRECTION
 MDEC.deg                 6.47:  MAGNETIC DECL
 MDIP.deg                59.54:  MAGNETIC DIP
 MFLD.nT              50337.00:  MAGNETIC FIELD
 GVFD.g                   1.00:  GRAVITY FIELD
 VSDR.deg               226.99:  VERT SEC DIRECT
 TDD .m                   0.00:  TOTAL DEPTH (DRILLER)
 SDEP.m                 448.00:  START DEPTH
 DFSL.m                   0.00:  DISTANCE FSL
 DFWL.m                   0.00:  DISTANCE FWL
 UTMY.m             4435799.96:  UTM Y
 UTMX.m              526265.35:  UTM X
 WHEW.m                  -6.24:  WELL HEAD E/W
 WHNS.m                  -2.16:  WELL HEAD N/S
 LONG.deg                51.31:  LONGITUDE
 LATI.deg                40.06:  LATITUDE
 TVDS.m                  43.42:  TVDSS CORRECTN
 EKB .m                  43.42:  KB ELEVATION
 EDF .m                  43.42:  DF ELEVATION
 TDL .m                 288.00:  TOTAL DEPTH (LOGGER)
 MAGU.                 1851863:  MAGUTM CHECKSUM
 VSC .                       0:  VS TO CLOSURE
~Parameter Information Block
#MNEM.UNIT       Value        Description
#---------     -----------    ---------------------------
 AV  .mps                 0.40:  Ann Velocity 
 AVMX.mps                 0.63:  Max Ann Veloc 
 AZIF.deg               158.76:  Azm, Final 
 BHAT.        Rotary Steerable:  BHA Type 
 BROT.°/30m               0.68:  Build Rotating 
 BS  .in                  8.50:  Bit Size 
 BSZ .in                  8.50:  Bit Size 
 BTPL.psig              712.00:  Bit Press Loss 
 CABU.                      No:  Customer Abuse 
 COMM.                     ÌÇp:  Run Comments 1 
 TCS .hr                 90.66:  Time Ciculation Ended 
 CV  .mps                 2.02:  Crit Velocity 
 CVMX.mps                 2.14:  Max Crit Veloc 
 DD1 .            Aziz Aliyevu:  Direct Drillr 1 
 DD2 .             Samir Abbas:  Direct Drillr 2 
 DD3 .           Teymur Aliyev:  Direct Drillr 3 
 DDSV.                 iCruise:  DD Service 
 DEFF.%                  85.10:  % Det Eff 
 DLRX.°/30m               1.05:  Dogleg Rot Max 
 DLSO.°/30m               1.01:  Dogleg Oriented 
 DLSX.°/30m               1.05:  Dogleg Str Max 
 DRET.      07.45.00 18-Jul-21:  Drill End Time 
 DRST.      15.00.00 16-Jul-21:  Drill Start Tim 
 DTIM.hr                 23.46:  Time Drilling 
 EDEP.m                4603.00:  End Depth 
 ENG1.       Seymur Iskandarov:  Engineer 1 
 ENG2.         Yevgeniy Ulikov:  Engineer 2 
 ENG3.         Bahruz Mehdiyev:  Engineer 3 
 ENG4.         Elchin Mammadov:  Engineer 4 
 ETIM.      14.00.00 23-Jul-21:  End Time 
 FLOI.gpm               500.00:  Flow In 
 FLON.gpm               450.00:  Flow In Min 
 FLOS.cptm                0.00:  Fluid Loss 
 FLOX.gpm               560.00:  Flow In Max 
 DFT .        Mineral Oil Base:  Mud Type 
 FTRO.       Formation Presure:  FTWD Run Obj 
 HFLO.                      No:  High Flow 
 HPRE.                      No:  High Pressure 
 HTEM.                      No:  High Temp 
 HYDO.m                   1.80:  Hydro Offset 
 IFIN.deg                40.22:  Inc, Final 
 IMAX.deg                40.54:  Inc Max 
 IMIN.deg                39.44:  Inc Min 
 IMND.m                4361.17:  Inc Min Depth 
 IMXD.m                4417.92:  Inc Max Depth 
 JARR.                      No:  Jarring 
 LETM.      07.45.00 18-Jul-21:  Log End Time 
 LOST.hr                    16:  Lost Rig Time 
 LSTM.      15.00.00 16-Jul-21:  Log Start Time 
 MDCL.ppm             36500.00:  Mud Chlorides 
 MDES.     Inversion Oil/Synthetic:  Mud Desc 
 DFD .sg                  1.42:  Mud Density 
 MDMN.sg                  1.42:  Dens Mud Min 
 MDMX.sg                  1.43:  Dens Mud Max 
 MOIL.                      56:  Run Mud Oil % 
 MOWR.                   71:29:  Run Mud OWR 
 MSND.                     0.5:  Run Mud Sand % 
 MSOL.                      21:  Run Mud Solids% 
 DFV .spqt               78.00:  Mud Viscosity 
 MWOD.in                  6.75:  MWD Tool OD 
 MWSI.                     Yes:  Serv Intrp, MWD 
 OTIM.hr                200.73:  Time Operating 
 PCON.           Look Like New:  Pad Condition 
 PMAX.psia            11069.93:  Press Op, Max 
 PV  .cP                 32.00:  Mud PV 
 RUN .                     700:  Run Number 
 ROPA.m/hr               10.00:  ROP Avg 
 ROPN.m/hr                9.00:  ROP Min 
 ROPX.m/hr               16.00:  ROP Max 
 RPMA.rpm               116.00:  RPM Surface Avg 
 RPMN.rpm                80.00:  RPM Surface Min 
 RPMX.rpm               120.00:  RPM Surface Max 
 RRUN.                    L605:  Rig Run Number 
 RTIM.hr                 45.00:  Time Reaming 
 SAZI.deg               159.86:  Azm, Start 
 SDEP.m                4315.00:  Start Depth 
 SIDD.                      No:  Serv Intrp, DD 
 SINC.deg                39.86:  Inc, Start 
 SPPA.psig             3300.00:  SPP Avg 
 SPPN.psig             3040.00:  SPP Min 
 SPPX.psig             3645.00:  SPP Max 
 STIM.      01.00.00 15-Jul-21:  Start Time 
 SVCS.                 DD, MWD:  Services 
 SVER.                    9.20:  Sperry Version 
 TDAT.m                 288.00:  Tot Depth Attmp 
 TDDF.                      No:  Trip for DD 
 TDLG.m                 288.00:  Tot Depth Loggd 
 TFF .                      No:  Trip for Fail 
 TQAA.f-kp               19.00:  Torque Abs Avg 
 TQAN.f-kp               18.00:  Torque Abs Min 
 TQAX.f-kp               21.00:  Torque Abs Max 
 TRRT.°/30m               0.45:  Turn Rotating 
 MRT .                    HCIM:  Maximum Recorded Temperature 
 TTMX.degC               88.24:  Max Tool Temp 
 VS01.                90649157:  Virtual Str1 SN 
 VS02.                90652483:  Virtual Str2 SN 
 VS03.                11671987:  Virtual Str3 SN 
 VS04.                90643411:  Virtual Str4 SN 
 VS05.                90652478:  Virtual Str5 SN 
 VS06.                    6111:  Virtual Str6 SN 
 WBMN.klb                 9.50:  WOB Min 
 WITN.        Grigoriy Sarayev:  Customer Rep 
 WITN.          Rufat Huseynov:  Customer Rep 2 
 WOBA.klb                11.00:  WOB Avg 
 WOBX.klb                15.00:  WOB Max 
 YP  .lhf2               28.00:  Yield Point 
~Curve Information Block
#MNEM.UNIT                 API CODE     Curve Description
#---------               -----------    ---------------------------
 TIME.HHMMSS            00 000 000 000:  GT Time & Date
 GTDEPTH.m              00 000 000 000:  GT Depth
 GTPQH.psia             00 000 000 000:  GT HR Quartz Pressure
 GTTQ.degC              00 000 000 000:  GT Quartz Temperature
 GTTN.NONE              00 000 000 000:  GT Test Number
 GTET.sec               00 000 000 000:  GT Elapsed Test Time
 GTTVD.m                00 000 000 000:  GT True Vertical Depth
#Other Information
#
#WARRANTY: Halliburton will use its best efforts to furnish customers with 
#accurate information and interpretations that are part of, and incident to, the services 
#provided.  However, Halliburton cannot and does not warrant the accuracy 
#or correctness of such information and interpretations.  Under no circumstances should any 
#such information or interpretation be relied upon as the sole basis for any drilling, 
#completion, production, or financial decision or any procedure involving any risk to the 
#safety of any drilling venture, drilling rig or its crew or any other third party.  The 
#Customer has full responsibility for all drilling, completion and production operation.  
#Halliburton makes no representations or warranties, either expressed or 
#implied, including, but not limited to, the implied warranties of merchantability or fitness 
#for a particular purpose, with respect to the services rendered.  In no event will 
#Halliburton be liable for failure to obtain any particular results or for 
#any damages, including, but not limited to, indirect, special or consequential damages, 
#resulting from the use of any information or interpretation provided by Halliburton.
#
~A           TIME           GTDEPTH  GTPQH  GTTQ  GTTN   GTET   GTTVD  
# ...
   13:50:17.318.19-Jul-2021 4561.50 3614.60 71.32 30.00 339.12 2747.31
   13:50:17.518.19-Jul-2021 4561.50 3614.60 71.32 30.00 339.32 2747.31
   13:50:17.718.19-Jul-2021 4561.50 3614.68 71.32 30.00 339.53 2747.31
   13:50:17.918.19-Jul-2021 4561.50 3614.52 71.32 30.00 339.73 2747.31
   13:50:18.118.19-Jul-2021 4561.50 3614.70 71.32 30.00 339.93 2747.31
   13:50:18.318.19-Jul-2021 4561.50 3614.68 71.32 30.00 340.13 2747.31
   13:50:18.518.19-Jul-2021 4561.50 3614.68 71.32 30.00 340.33 2747.31
   13:50:18.718.19-Jul-2021 4561.50 3614.65 71.32 30.00 340.53 2747.31
   13:50:18.918.19-Jul-2021 4561.50 3614.50 71.33 30.00 340.73 2747.31
   13:50:19.118.19-Jul-2021 4561.50 3614.50 71.33 30.00 340.93 2747.31
   13:50:19.318.19-Jul-2021 4561.50 3615.00 71.33 30.00 341.13 2747.31
   13:50:19.518.19-Jul-2021 4561.50 3615.00 71.33 30.00 341.33 2747.31
   13:50:19.719.19-Jul-2021 4561.50 3614.70 71.33 30.00 341.53 2747.31
   13:50:19.919.19-Jul-2021 4561.50 3614.75 71.33 30.00 341.73 2747.31
   13:50:20.119.19-Jul-2021 4561.50 3614.35 71.33 30.00 341.93 2747.31
   13:50:20.319.19-Jul-2021 4561.50 3614.53 71.33 30.00 342.13 2747.31
   13:50:20.519.19-Jul-2021 4561.50 3614.53 71.33 30.00 342.33 2747.31
   13:50:20.719.19-Jul-2021 4561.50 3614.95 71.33 30.00 342.53 2747.31
   13:50:20.919.19-Jul-2021 4561.50 3614.23 71.33 30.00 342.73 2747.31
   13:50:21.119.19-Jul-2021 4561.50 3614.50 71.33 30.00 342.93 2747.31
   13:50:21.319.19-Jul-2021 4561.50 3614.82 71.33 30.00 343.13 2747.31
   13:50:21.519.19-Jul-2021 4561.50 3614.82 71.33 30.00 343.33 2747.31
   13:50:21.719.19-Jul-2021 4561.50 3614.50 71.33 30.00 343.53 2747.31
   13:50:21.919.19-Jul-2021 4561.50 3614.67 71.33 30.00 343.73 2747.31
   13:50:22.119.19-Jul-2021 4561.50 3614.73 71.33 30.00 343.93 2747.31
   13:50:22.319.19-Jul-2021 4561.50 3614.66 71.33 30.00 344.13 2747.31
   13:50:22.520.19-Jul-2021 4561.50 3614.66 71.33 30.00 344.33 2747.31
   13:50:22.720.19-Jul-2021 4561.50 3614.79 71.33 30.00 344.53 2747.31
   13:50:22.920.19-Jul-2021 4561.50 3614.54 71.33 30.00 344.73 2747.31
   13:50:23.120.19-Jul-2021 4561.50 3614.67 71.33 30.00 344.93 2747.31
   13:50:23.320.19-Jul-2021 4561.50 3614.68 71.33 30.00 345.13 2747.31
   13:50:23.520.19-Jul-2021 4561.50 3614.68 71.33 30.00 345.33 2747.31
   13:50:23.720.19-Jul-2021 4561.50 3614.69 71.33 30.00 345.53 2747.31
   13:50:23.920.19-Jul-2021 4561.50 3614.60 71.33 30.00 345.73 2747.31
   13:50:24.120.19-Jul-2021 4561.50 3614.76 71.33 30.00 345.93 2747.31
   13:50:24.320.19-Jul-2021 4561.50 3614.61 71.33 30.00 346.13 2747.31
   13:50:24.520.19-Jul-2021 4561.50 3614.61 71.33 30.00 346.33 2747.31
   13:50:24.720.19-Jul-2021 4561.50 3614.76 71.33 30.00 346.53 2747.31
   13:50:24.920.19-Jul-2021 4561.50 3614.34 71.33 30.00 346.73 2747.31
   13:50:25.121.19-Jul-2021 4561.50 3614.68 71.33 30.00 346.93 2747.31
   13:50:25.321.19-Jul-2021 4561.50 3614.80 71.33 30.00 347.13 2747.31
   13:50:25.521.19-Jul-2021 4561.50 3614.80 71.33 30.00 347.33 2747.31
   13:50:25.721.19-Jul-2021 4561.50 3614.80 71.33 30.00 347.53 2747.31
   13:50:25.921.19-Jul-2021 4561.50 3614.53 71.33 30.00 347.73 2747.31
   13:50:26.121.19-Jul-2021 4561.50 3614.71 71.33 30.00 347.93 2747.31
   13:50:26.321.19-Jul-2021 4561.50 3614.58 71.33 30.00 348.13 2747.31
   13:50:26.521.19-Jul-2021 4561.50 3614.58 71.33 30.00 348.33 2747.31
   13:50:26.721.19-Jul-2021 4561.50 3614.68 71.33 30.00 348.53 2747.31
   13:50:26.921.19-Jul-2021 4561.50 3614.67 71.33 30.00 348.73 2747.31
   13:50:27.121.19-Jul-2021 4561.50 3614.42 71.33 30.00 348.93 2747.31
   13:50:27.321.19-Jul-2021 4561.50 3614.70 71.33 30.00 349.13 2747.31
   13:50:27.521.19-Jul-2021 4561.50 3614.70 71.33 30.00 349.33 2747.31
   13:50:27.721.19-Jul-2021 4561.50 3614.80 71.33 30.00 349.53 2747.31
   13:50:27.922.19-Jul-2021 4561.50 3614.21 71.33 30.00 349.73 2747.31
   13:50:28.122.19-Jul-2021 4561.50 3614.42 71.33 30.00 349.93 2747.31
   13:50:28.322.19-Jul-2021 4561.50 3614.95 71.33 30.00 350.13 2747.31
   13:50:28.522.19-Jul-2021 4561.50 3614.95 71.33 30.00 350.33 2747.31
   13:50:28.722.19-Jul-2021 4561.50 3614.65 71.33 30.00 350.53 2747.31
   13:50:28.922.19-Jul-2021 4561.50 3614.73 71.33 30.00 350.73 2747.31
   13:50:29.122.19-Jul-2021 4561.50 3614.54 71.33 30.00 350.93 2747.31
   13:50:29.322.19-Jul-2021 4561.50 3614.44 71.33 30.00 351.13 2747.31
   13:50:29.522.19-Jul-2021 4561.50 3614.44 71.33 30.00 351.33 2747.31
   13:50:29.722.19-Jul-2021 4561.50 3614.78 71.33 30.00 351.53 2747.31
   13:50:29.922.19-Jul-2021 4561.50 3614.66 71.33 30.00 351.73 2747.31
   13:50:30.122.19-Jul-2021 4561.50 3614.42 71.33 30.00 351.93 2747.31
   13:50:30.322.19-Jul-2021 4561.50 3614.76 71.33 30.00 352.13 2747.31
   13:50:30.522.19-Jul-2021 4561.50 3614.76 71.33 30.00 352.33 2747.31
   13:50:30.723.19-Jul-2021 4561.50 3614.78 71.33 30.00 352.53 2747.31
   13:50:30.923.19-Jul-2021 4561.50 3614.50 71.33 30.00 352.73 2747.31
   13:50:31.123.19-Jul-2021 4561.50 3614.71 71.33 30.00 352.93 2747.31
   13:50:31.323.19-Jul-2021 4561.50 3614.63 71.33 30.00 353.13 2747.31
   13:50:31.523.19-Jul-2021 4561.50 3614.63 71.33 30.00 353.33 2747.31
   13:50:31.723.19-Jul-2021 4561.50 3614.73 71.33 30.00 353.53 2747.31
   13:50:31.923.19-Jul-2021 4561.50 3614.62 71.33 30.00 353.73 2747.31
   13:50:32.123.19-Jul-2021 4561.50 3614.69 71.33 30.00 353.93 2747.31
   13:50:32.323.19-Jul-2021 4561.50 3614.72 71.33 30.00 354.13 2747.31
   13:50:32.523.19-Jul-2021 4561.50 3614.72 71.33 30.00 354.33 2747.31
   13:50:32.723.19-Jul-2021 4561.50 3614.72 71.33 30.00 354.53 2747.31
   13:50:32.923.19-Jul-2021 4561.50 3614.77 71.33 30.00 354.73 2747.31
   13:50:33.123.19-Jul-2021 4561.50 3614.67 71.33 30.00 354.93 2747.31
   13:50:33.324.19-Jul-2021 4561.50 3614.35 71.33 30.00 355.13 2747.31
   13:50:33.524.19-Jul-2021 4561.50 3614.35 71.33 30.00 355.33 2747.31
   13:50:33.724.19-Jul-2021 4561.50 3613.75 71.33 30.00 355.53 2747.31
   13:50:33.924.19-Jul-2021 4561.50 3634.41 71.33 30.00 355.73 2747.31
   13:50:34.124.19-Jul-2021 4561.50 3667.10 71.33 30.00 355.93 2747.31
   13:50:34.324.19-Jul-2021 4561.50 5514.96 71.33 30.00 356.13 2747.31
   13:50:34.524.19-Jul-2021 4561.50 5514.96 71.33 30.00 356.33 2747.31
   13:50:34.724.19-Jul-2021 4561.50 6714.27 71.33 30.00 356.53 2747.31
   13:50:34.924.19-Jul-2021 4561.50 6715.65 71.33 30.00 356.73 2747.31
   13:50:35.124.19-Jul-2021 4561.50 6713.51 71.33 30.00 356.93 2747.31
   13:50:35.324.19-Jul-2021 4561.50 6715.02 71.33 30.00 357.13 2747.31
   13:50:35.524.19-Jul-2021 4561.50 6715.02 71.33 30.00 357.33 2747.31
   13:50:35.724.19-Jul-2021 4561.50 6728.55 71.34 30.00 357.53 2747.31
   13:50:35.924.19-Jul-2021 4561.50 6706.39 71.34 30.00 357.73 2747.31
   13:50:36.125.19-Jul-2021 4561.50 6731.38 71.34 30.00 357.93 2747.31
   13:50:36.325.19-Jul-2021 4561.50 6727.03 71.34 30.00 358.13 2747.31
   13:50:36.525.19-Jul-2021 4561.50 6727.03 71.34 30.00 358.33 2747.31
   13:50:36.725.19-Jul-2021 4561.50 6722.65 71.34 30.00 358.53 2747.31
   13:50:36.925.19-Jul-2021 4561.50 6734.65 71.35 30.00 358.73 2747.31
   13:50:37.125.19-Jul-2021 4561.50 6704.69 71.35 30.00 358.93 2747.31
   13:50:37.325.19-Jul-2021 4561.50 6710.56 71.35 30.00 359.13 2747.31
   13:50:37.525.19-Jul-2021 4561.50 6710.56 71.35 30.00 359.33 2747.31
   13:50:37.725.19-Jul-2021 4561.50 6718.52 71.35 30.00 359.53 2747.31
   13:50:37.925.19-Jul-2021 4561.50 6705.25 71.36 30.00 359.73 2747.31
   13:50:38.125.19-Jul-2021 4561.50 6712.89 71.36 30.00 359.93 2747.31
   13:50:38.325.19-Jul-2021 4561.50 6718.69 71.36 30.00 360.13 2747.31
   13:50:38.525.19-Jul-2021 4561.50 6718.69 71.36 30.00 360.33 2747.31
   13:50:38.726.19-Jul-2021 4561.50 6737.18 71.36 30.00 360.53 2747.31
   13:50:38.926.19-Jul-2021 4561.50 6714.61 71.37 30.00 360.73 2747.31
   13:50:39.126.19-Jul-2021 4561.50 6711.13 71.37 30.00 360.93 2747.31
   13:50:39.326.19-Jul-2021 4561.50 6722.32 71.37 30.00 361.13 2747.31
   13:50:39.526.19-Jul-2021 4561.50 6722.32 71.37 30.00 361.33 2747.31
   13:50:39.726.19-Jul-2021 4561.50 6715.00 71.37 30.00 361.53 2747.31
