~Version Information
 VERS.                  2.0:   CWLS log ASCII Standard -VERSION 2.0
 WRAP.                   NO:   One line per depth step
~Well Information Block
#MNEM.UNIT     VALUE/NAME     DESCRIPTION
#---------     -----------    ---------------------------
 STRT.S             14:22:27 18-Jul-21: START TIME 14:22:27 18-Jul-21
 STOP.S             14:29:00 18-Jul-21: STOP TIME  14:29:00 18-Jul-21
 STEP.S                   0.00: STEP TIME
 NULL.                 -999.25: NULL VALUE
 MDS .        Operator Entered:  MAG DATA SOURCE
 PDAT.          Mean Sea Level:  PERMANENT DATUM
 UNIT.                     N/A:  LOGGING EQUIPMENT ID
 DCON.         Sperry Drilling:  DIRECTNL CONTR
 DOE .                     N/A:  DOE NUMBER
 RIG .              West Azeri:  RIG NAME
 JOBN.        AZ-XX-0906997913:  JOB TICKET NUMB
 WELL.                     C41:  WELL NAME
 MWDS.                    Baku:  MWD SHOP
 SRVC.          Turan Drilling:  CONTRACTOR
 FLD .                     ACG:  FIELD NAME
 CTRY.              Azerbaijan:  COUNTRY NAME
 PROV.                    Baku:  PROVINCE
 STAT.                    Baku:  STATE NAME
 REGN.                   EESSA:  REGION
 BASE.              Azerbaijan:  LOGGING EQUIPMENT BASE LOCATION
 UWI .                     N/A:  UNIQUE WELL IDENTIFIER
 API .                     N/A:  API NUMBER
 COMP.     BP Exploration (Caspian Sea) Ltd.:  COMPANY
 WTYP.                Deviated:  WELL TYPE
 SON .        AZ-XX-0906997913:  JOB NUMBER
 FTOP.          Formation Tops:  FORM TOPS DESC
 ILTD.               Lithology:  INTERP LTH DESC
 SVYD.                  Survey:  SURVEY DESC
 DMOD.             Drill Model:  DRILL MOD DESC
 HPTY.       Minimum Curvature:  HOLE POS TYPE
 NREF.                    Grid:  NORTH REFERENCE
 SPUD.               16-May-21:  SPUD DATE
 DATE.      21.11.28 17-May-21:  END TIME
 STIM.      21.11.28 17-May-21:  START TIME
 DMF .             Drill Floor:  DRILL MEAS FROM
 DFST.                        :  DIST FSL TEXT
 DFWT.                        :  DIST FWL TEXT
 CNTY.                        :  COUNTY
 LOC .                        :  LOCATION
 LMF .             Drill Floor:  LOG MEASURED FROM
 AGAP.m                  43.42:  AIR GAP
 VSNS.m                  -2.16:  VERT SEC N/S
 VSEW.m                  -6.24:  VERT SEC E/W
 APD .m                  43.42:  DEPTH ABOVE PD
 WDMS.m                 118.27:  WD ELEV
 EGL .m                   0.00:  GROUND ELEVATION
 EPD .m                   0.00:  ELEVATION
 AZTC.deg                 6.29:  AZM TOTAL CORR
 GRDC.deg                 0.18:  GRID CORRECTION
 MDEC.deg                 6.47:  MAGNETIC DECL
 MDIP.deg                59.54:  MAGNETIC DIP
 MFLD.nT              50337.00:  MAGNETIC FIELD
 GVFD.g                   1.00:  GRAVITY FIELD
 VSDR.deg               226.99:  VERT SEC DIRECT
 TDD .m                   0.00:  TOTAL DEPTH (DRILLER)
 SDEP.m                 448.00:  START DEPTH
 DFSL.m                   0.00:  DISTANCE FSL
 DFWL.m                   0.00:  DISTANCE FWL
 UTMY.m             4435799.96:  UTM Y
 UTMX.m              526265.35:  UTM X
 WHEW.m                  -6.24:  WELL HEAD E/W
 WHNS.m                  -2.16:  WELL HEAD N/S
 LONG.deg                51.31:  LONGITUDE
 LATI.deg                40.06:  LATITUDE
 TVDS.m                  43.42:  TVDSS CORRECTN
 EKB .m                  43.42:  KB ELEVATION
 EDF .m                  43.42:  DF ELEVATION
 TDL .m                 288.00:  TOTAL DEPTH (LOGGER)
 MAGU.                 1851863:  MAGUTM CHECKSUM
 VSC .                       0:  VS TO CLOSURE
~Parameter Information Block
#MNEM.UNIT       Value        Description
#---------     -----------    ---------------------------
 AV  .mps                 0.40:  Ann Velocity 
 AVMX.mps                 0.63:  Max Ann Veloc 
 AZIF.deg               158.76:  Azm, Final 
 BHAT.        Rotary Steerable:  BHA Type 
 BROT.°/30m               0.68:  Build Rotating 
 BS  .in                  8.50:  Bit Size 
 BSZ .in                  8.50:  Bit Size 
 BTPL.psig              712.00:  Bit Press Loss 
 CABU.                      No:  Customer Abuse 
 COMM.                     |«g:  Run Comments 1 
 TCS .hr                 90.66:  Time Ciculation Ended 
 CV  .mps                 2.02:  Crit Velocity 
 CVMX.mps                 2.14:  Max Crit Veloc 
 DD1 .            Aziz Aliyevu:  Direct Drillr 1 
 DD2 .             Samir Abbas:  Direct Drillr 2 
 DD3 .           Teymur Aliyev:  Direct Drillr 3 
 DDSV.                 iCruise:  DD Service 
 DEFF.%                  85.10:  % Det Eff 
 DLRX.°/30m               1.05:  Dogleg Rot Max 
 DLSO.°/30m               1.01:  Dogleg Oriented 
 DLSX.°/30m               1.05:  Dogleg Str Max 
 DRET.      07.45.00 18-Jul-21:  Drill End Time 
 DRST.      15.00.00 16-Jul-21:  Drill Start Tim 
 DTIM.hr                 23.46:  Time Drilling 
 EDEP.m                4603.00:  End Depth 
 ENG1.       Seymur Iskandarov:  Engineer 1 
 ENG2.         Yevgeniy Ulikov:  Engineer 2 
 ENG3.         Bahruz Mehdiyev:  Engineer 3 
 ENG4.         Elchin Mammadov:  Engineer 4 
 ETIM.      14.00.00 23-Jul-21:  End Time 
 FLOI.gpm               500.00:  Flow In 
 FLON.gpm               450.00:  Flow In Min 
 FLOS.cptm                0.00:  Fluid Loss 
 FLOX.gpm               560.00:  Flow In Max 
 DFT .        Mineral Oil Base:  Mud Type 
 FTRO.       Formation Presure:  FTWD Run Obj 
 HFLO.                      No:  High Flow 
 HPRE.                      No:  High Pressure 
 HTEM.                      No:  High Temp 
 HYDO.m                   1.80:  Hydro Offset 
 IFIN.deg                40.22:  Inc, Final 
 IMAX.deg                40.54:  Inc Max 
 IMIN.deg                39.44:  Inc Min 
 IMND.m                4361.17:  Inc Min Depth 
 IMXD.m                4417.92:  Inc Max Depth 
 JARR.                      No:  Jarring 
 LETM.      07.45.00 18-Jul-21:  Log End Time 
 LOST.hr                    16:  Lost Rig Time 
 LSTM.      15.00.00 16-Jul-21:  Log Start Time 
 MDCL.ppm             36500.00:  Mud Chlorides 
 MDES.     Inversion Oil/Synthetic:  Mud Desc 
 DFD .sg                  1.42:  Mud Density 
 MDMN.sg                  1.42:  Dens Mud Min 
 MDMX.sg                  1.43:  Dens Mud Max 
 MOIL.                      56:  Run Mud Oil % 
 MOWR.                   71:29:  Run Mud OWR 
 MSND.                     0.5:  Run Mud Sand % 
 MSOL.                      21:  Run Mud Solids% 
 DFV .spqt               78.00:  Mud Viscosity 
 MWOD.in                  6.75:  MWD Tool OD 
 MWSI.                     Yes:  Serv Intrp, MWD 
 OTIM.hr                200.73:  Time Operating 
 PCON.           Look Like New:  Pad Condition 
 PMAX.psia            11069.93:  Press Op, Max 
 PV  .cP                 32.00:  Mud PV 
 RUN .                     700:  Run Number 
 ROPA.m/hr               10.00:  ROP Avg 
 ROPN.m/hr                9.00:  ROP Min 
 ROPX.m/hr               16.00:  ROP Max 
 RPMA.rpm               116.00:  RPM Surface Avg 
 RPMN.rpm                80.00:  RPM Surface Min 
 RPMX.rpm               120.00:  RPM Surface Max 
 RRUN.                    L605:  Rig Run Number 
 RTIM.hr                 45.00:  Time Reaming 
 SAZI.deg               159.86:  Azm, Start 
 SDEP.m                4315.00:  Start Depth 
 SIDD.                      No:  Serv Intrp, DD 
 SINC.deg                39.86:  Inc, Start 
 SPPA.psig             3300.00:  SPP Avg 
 SPPN.psig             3040.00:  SPP Min 
 SPPX.psig             3645.00:  SPP Max 
 STIM.      01.00.00 15-Jul-21:  Start Time 
 SVCS.                 DD, MWD:  Services 
 SVER.                    9.20:  Sperry Version 
 TDAT.m                 288.00:  Tot Depth Attmp 
 TDDF.                      No:  Trip for DD 
 TDLG.m                 288.00:  Tot Depth Loggd 
 TFF .                      No:  Trip for Fail 
 TQAA.f-kp               19.00:  Torque Abs Avg 
 TQAN.f-kp               18.00:  Torque Abs Min 
 TQAX.f-kp               21.00:  Torque Abs Max 
 TRRT.°/30m               0.45:  Turn Rotating 
 MRT .                    HCIM:  Maximum Recorded Temperature 
 TTMX.degC               88.24:  Max Tool Temp 
 VS01.                90649157:  Virtual Str1 SN 
 VS02.                90652483:  Virtual Str2 SN 
 VS03.                11671987:  Virtual Str3 SN 
 VS04.                90643411:  Virtual Str4 SN 
 VS05.                90652478:  Virtual Str5 SN 
 VS06.                    6111:  Virtual Str6 SN 
 WBMN.klb                 9.50:  WOB Min 
 WITN.        Grigoriy Sarayev:  Customer Rep 
 WITN.          Rufat Huseynov:  Customer Rep 2 
 WOBA.klb                11.00:  WOB Avg 
 WOBX.klb                15.00:  WOB Max 
 YP  .lhf2               28.00:  Yield Point 
~Curve Information Block
#MNEM.UNIT                 API CODE     Curve Description
#---------               -----------    ---------------------------
 TIME.HHMMSS            00 000 000 000:  GT Time & Date
 GTDEPTH.m              00 000 000 000:  GT Depth
 GTPQH.psia             00 000 000 000:  GT HR Quartz Pressure
 GTTQ.degC              00 000 000 000:  GT Quartz Temperature
 GTTN.NONE              00 000 000 000:  GT Test Number
 GTET.sec               00 000 000 000:  GT Elapsed Test Time
 GTTVD.m                00 000 000 000:  GT True Vertical Depth
#Other Information
#
#WARRANTY: Halliburton will use its best efforts to furnish customers with 
#accurate information and interpretations that are part of, and incident to, the services 
#provided.  However, Halliburton cannot and does not warrant the accuracy 
#or correctness of such information and interpretations.  Under no circumstances should any 
#such information or interpretation be relied upon as the sole basis for any drilling, 
#completion, production, or financial decision or any procedure involving any risk to the 
#safety of any drilling venture, drilling rig or its crew or any other third party.  The 
#Customer has full responsibility for all drilling, completion and production operation.  
#Halliburton makes no representations or warranties, either expressed or 
#implied, including, but not limited to, the implied warranties of merchantability or fitness 
#for a particular purpose, with respect to the services rendered.  In no event will 
#Halliburton be liable for failure to obtain any particular results or for 
#any damages, including, but not limited to, indirect, special or consequential damages, 
#resulting from the use of any information or interpretation provided by Halliburton.
#
~A           TIME           GTDEPTH  GTPQH  GTTQ  GTTN  GTET   GTTVD  
# ...
   14:27:26.325.18-Jul-2021 4558.50 6649.34 75.32 4.00 299.11 2745.02
   14:27:26.525.18-Jul-2021 4558.50 6649.34 75.32 4.00 299.31 2745.02
   14:27:26.725.18-Jul-2021 4558.50 6648.83 75.32 4.00 299.51 2745.02
   14:27:26.925.18-Jul-2021 4558.50 6649.10 75.32 4.00 299.71 2745.02
   14:27:27.125.18-Jul-2021 4558.50 6648.82 75.32 4.00 299.91 2745.02
   14:27:27.325.18-Jul-2021 4558.50 6648.81 75.32 4.00 300.11 2745.02
   14:27:27.525.18-Jul-2021 4558.50 6648.81 75.32 4.00 300.31 2745.02
   14:27:27.726.18-Jul-2021 4558.50 6649.07 75.32 4.00 300.51 2745.02
   14:27:27.926.18-Jul-2021 4558.50 6649.17 75.32 4.00 300.71 2745.02
   14:27:28.126.18-Jul-2021 4558.50 6648.85 75.32 4.00 300.91 2745.02
   14:27:28.326.18-Jul-2021 4558.50 6648.00 75.32 4.00 301.11 2745.02
   14:27:28.526.18-Jul-2021 4558.50 6648.00 75.32 4.00 301.31 2745.02
   14:27:28.726.18-Jul-2021 4558.50 6651.32 75.32 4.00 301.51 2745.02
   14:27:28.926.18-Jul-2021 4558.50 6650.69 75.32 4.00 301.71 2745.02
   14:27:29.126.18-Jul-2021 4558.50 6648.91 75.32 4.00 301.91 2745.02
   14:27:29.326.18-Jul-2021 4558.50 6649.91 75.32 4.00 302.11 2745.02
   14:27:29.526.18-Jul-2021 4558.50 6649.91 75.32 4.00 302.31 2745.02
   14:27:29.726.18-Jul-2021 4558.50 6648.47 75.32 4.00 302.51 2745.02
   14:27:29.926.18-Jul-2021 4558.50 6648.72 75.32 4.00 302.71 2745.02
   14:27:30.126.18-Jul-2021 4558.50 6648.59 75.32 4.00 302.91 2745.02
   14:27:30.327.18-Jul-2021 4558.50 6648.49 75.32 4.00 303.11 2745.02
   14:27:30.527.18-Jul-2021 4558.50 6648.49 75.32 4.00 303.31 2745.02
   14:27:30.727.18-Jul-2021 4558.50 6647.85 75.32 4.00 303.51 2745.02
   14:27:30.927.18-Jul-2021 4558.50 6647.75 75.32 4.00 303.71 2745.02
   14:27:31.127.18-Jul-2021 4558.50 6647.98 75.32 4.00 303.91 2745.02
   14:27:31.327.18-Jul-2021 4558.50 6650.18 75.32 4.00 304.11 2745.02
   14:27:31.527.18-Jul-2021 4558.50 6650.18 75.32 4.00 304.31 2745.02
   14:27:31.727.18-Jul-2021 4558.50 6648.01 75.32 4.00 304.51 2745.02
   14:27:31.927.18-Jul-2021 4558.50 6652.21 75.32 4.00 304.71 2745.02
   14:27:32.127.18-Jul-2021 4558.50 6651.30 75.32 4.00 304.91 2745.02
   14:27:32.327.18-Jul-2021 4558.50 6649.04 75.32 4.00 305.11 2745.02
   14:27:32.527.18-Jul-2021 4558.50 6649.04 75.32 4.00 305.31 2745.02
   14:27:32.727.18-Jul-2021 4558.50 6648.47 75.32 4.00 305.51 2745.02
   14:27:32.927.18-Jul-2021 4558.50 6649.54 75.32 4.00 305.71 2745.02
   14:27:33.128.18-Jul-2021 4558.50 6652.36 75.32 4.00 305.91 2745.02
   14:27:33.328.18-Jul-2021 4558.50 6649.84 75.32 4.00 306.11 2745.02
   14:27:33.528.18-Jul-2021 4558.50 6649.84 75.32 4.00 306.31 2745.02
   14:27:33.728.18-Jul-2021 4558.50 6649.07 75.32 4.00 306.51 2745.02
   14:27:33.928.18-Jul-2021 4558.50 6649.93 75.32 4.00 306.71 2745.02
   14:27:34.128.18-Jul-2021 4558.50 6652.04 75.32 4.00 306.91 2745.02
   14:27:34.328.18-Jul-2021 4558.50 6649.69 75.32 4.00 307.11 2745.02
   14:27:34.528.18-Jul-2021 4558.50 6649.69 75.32 4.00 307.31 2745.02
   14:27:34.728.18-Jul-2021 4558.50 6648.81 75.32 4.00 307.51 2745.02
   14:27:34.928.18-Jul-2021 4558.50 6648.13 75.32 4.00 307.71 2745.02
   14:27:35.128.18-Jul-2021 4558.50 6652.50 75.32 4.00 307.91 2745.02
   14:27:35.328.18-Jul-2021 4558.50 6649.85 75.32 4.00 308.11 2745.02
   14:27:35.528.18-Jul-2021 4558.50 6649.85 75.32 4.00 308.31 2745.02
   14:27:35.729.18-Jul-2021 4558.50 6649.99 75.32 4.00 308.51 2745.02
   14:27:35.929.18-Jul-2021 4558.50 6648.91 75.32 4.00 308.71 2745.02
   14:27:36.129.18-Jul-2021 4558.50 6649.29 75.32 4.00 308.91 2745.02
   14:27:36.329.18-Jul-2021 4558.50 6649.15 75.32 4.00 309.11 2745.02
   14:27:36.529.18-Jul-2021 4558.50 6649.15 75.32 4.00 309.31 2745.02
   14:27:36.729.18-Jul-2021 4558.50 6649.39 75.32 4.00 309.51 2745.02
   14:27:36.929.18-Jul-2021 4558.50 6649.04 75.32 4.00 309.71 2745.02
   14:27:37.129.18-Jul-2021 4558.50 6649.33 75.32 4.00 309.91 2745.02
   14:27:37.329.18-Jul-2021 4558.50 6648.54 75.32 4.00 310.11 2745.02
   14:27:37.529.18-Jul-2021 4558.50 6648.54 75.32 4.00 310.31 2745.02
   14:27:37.729.18-Jul-2021 4558.50 6648.55 75.32 4.00 310.51 2745.02
   14:27:37.929.18-Jul-2021 4558.50 6650.79 75.32 4.00 310.71 2745.02
   14:27:38.129.18-Jul-2021 4558.50 6650.57 75.32 4.00 310.91 2745.02
   14:27:38.329.18-Jul-2021 4558.50 6648.45 75.32 4.00 311.11 2745.02
   14:27:38.530.18-Jul-2021 4558.50 6648.45 75.32 4.00 311.31 2745.02
   14:27:38.730.18-Jul-2021 4558.50 6648.55 75.32 4.00 311.51 2745.02
   14:27:38.930.18-Jul-2021 4558.50 6648.14 75.32 4.00 311.71 2745.02
   14:27:39.130.18-Jul-2021 4558.50 6648.23 75.32 4.00 311.91 2745.02
   14:27:39.330.18-Jul-2021 4558.50 6648.53 75.32 4.00 312.11 2745.02
   14:27:39.530.18-Jul-2021 4558.50 6648.53 75.32 4.00 312.31 2745.02
   14:27:39.730.18-Jul-2021 4558.50 6647.91 75.32 4.00 312.52 2745.02
   14:27:39.930.18-Jul-2021 4558.50 6647.74 75.32 4.00 312.72 2745.02
   14:27:40.130.18-Jul-2021 4558.50 6647.79 75.32 4.00 312.92 2745.02
   14:27:40.330.18-Jul-2021 4558.50 6647.58 75.32 4.00 313.12 2745.02
   14:27:40.530.18-Jul-2021 4558.50 6647.58 75.32 4.00 313.32 2745.02
   14:27:40.730.18-Jul-2021 4558.50 6649.92 75.32 4.00 313.52 2745.02
   14:27:40.930.18-Jul-2021 4558.50 6647.86 75.32 4.00 313.72 2745.02
   14:27:41.130.18-Jul-2021 4558.50 6651.84 75.32 4.00 313.92 2745.02
   14:27:41.331.18-Jul-2021 4558.50 6651.60 75.32 4.00 314.12 2745.02
   14:27:41.531.18-Jul-2021 4558.50 6651.60 75.32 4.00 314.32 2745.02
   14:27:41.731.18-Jul-2021 4558.50 6649.31 75.32 4.00 314.52 2745.02
   14:27:41.931.18-Jul-2021 4558.50 6648.55 75.32 4.00 314.72 2745.02
   14:27:42.131.18-Jul-2021 4558.50 6649.83 75.32 4.00 314.92 2745.02
   14:27:42.331.18-Jul-2021 4558.50 6651.58 75.32 4.00 315.12 2745.02
   14:27:42.531.18-Jul-2021 4558.50 6651.58 75.32 4.00 315.32 2745.02
   14:27:42.731.18-Jul-2021 4558.50 6648.41 75.32 4.00 315.52 2745.02
   14:27:42.931.18-Jul-2021 4558.50 6648.82 75.32 4.00 315.72 2745.02
   14:27:43.131.18-Jul-2021 4558.50 6649.85 75.32 4.00 315.92 2745.02
   14:27:43.331.18-Jul-2021 4558.50 6652.17 75.32 4.00 316.12 2745.02
   14:27:43.531.18-Jul-2021 4558.50 6652.17 75.32 4.00 316.32 2745.02
   14:27:43.731.18-Jul-2021 4558.50 6649.18 75.32 4.00 316.52 2745.02
   14:27:43.932.18-Jul-2021 4558.50 6648.91 75.32 4.00 316.72 2745.02
   14:27:44.132.18-Jul-2021 4558.50 6651.90 75.32 4.00 316.92 2745.02
   14:27:44.332.18-Jul-2021 4558.50 6649.96 75.32 4.00 317.12 2745.02
   14:27:44.532.18-Jul-2021 4558.50 6649.96 75.32 4.00 317.32 2745.02
   14:27:44.732.18-Jul-2021 4558.50 6649.91 75.32 4.00 317.52 2745.02
   14:27:44.932.18-Jul-2021 4558.50 6649.31 75.32 4.00 317.72 2745.02
   14:27:45.132.18-Jul-2021 4558.50 6648.92 75.32 4.00 317.92 2745.02
   14:27:45.332.18-Jul-2021 4558.50 6648.96 75.32 4.00 318.12 2745.02
   14:27:45.532.18-Jul-2021 4558.50 6648.96 75.32 4.00 318.32 2745.02
   14:27:45.732.18-Jul-2021 4558.50 6648.92 75.32 4.00 318.52 2745.02
   14:27:45.932.18-Jul-2021 4558.50 6648.74 75.32 4.00 318.72 2745.02
   14:27:46.132.18-Jul-2021 4558.50 6648.68 75.32 4.00 318.92 2745.02
   14:27:46.332.18-Jul-2021 4558.50 6648.62 75.32 4.00 319.12 2745.02
   14:27:46.532.18-Jul-2021 4558.50 6648.62 75.32 4.00 319.32 2745.02
   14:27:46.733.18-Jul-2021 4558.50 6648.14 75.32 4.00 319.52 2745.02
   14:27:46.933.18-Jul-2021 4558.50 6650.76 75.32 4.00 319.72 2745.02
   14:27:47.133.18-Jul-2021 4558.50 6650.16 75.32 4.00 319.92 2745.02
   14:27:47.333.18-Jul-2021 4558.50 6647.85 75.32 4.00 320.12 2745.02
   14:27:47.533.18-Jul-2021 4558.50 6647.85 75.32 4.00 320.32 2745.02
   14:27:47.733.18-Jul-2021 4558.50 6648.30 75.32 4.00 320.52 2745.02
   14:27:47.933.18-Jul-2021 4558.50 6647.44 75.32 4.00 320.72 2745.02
   14:27:48.133.18-Jul-2021 4558.50 6647.95 75.32 4.00 320.92 2745.02
   14:27:48.333.18-Jul-2021 4558.50 6647.88 75.32 4.00 321.12 2745.02
   14:27:48.533.18-Jul-2021 4558.50 6647.88 75.32 4.00 321.32 2745.02
   14:27:48.733.18-Jul-2021 4558.50 6648.49 75.32 4.00 321.52 2745.02
   14:27:48.933.18-Jul-2021 4558.50 6648.27 75.32 4.00 321.72 2745.02
   14:27:49.133.18-Jul-2021 4558.50 6647.17 75.32 4.00 321.92 2745.02
