~Version Information
 VERS.                  2.0:   CWLS log ASCII Standard -VERSION 2.0
 WRAP.                   NO:   One line per depth step
~Well Information Block
#MNEM.UNIT     VALUE/NAME     DESCRIPTION
#---------     -----------    ---------------------------
 STRT.S             23:00:58 18-Jul-21: START TIME 23:00:58 18-Jul-21
 STOP.S             23:07:34 18-Jul-21: STOP TIME  23:07:34 18-Jul-21
 STEP.S                   0.00: STEP TIME
 NULL.                 -999.25: NULL VALUE
 MDS .        Operator Entered:  MAG DATA SOURCE
 PDAT.          Mean Sea Level:  PERMANENT DATUM
 UNIT.                     N/A:  LOGGING EQUIPMENT ID
 DCON.         Sperry Drilling:  DIRECTNL CONTR
 DOE .                     N/A:  DOE NUMBER
 RIG .              West Azeri:  RIG NAME
 JOBN.        AZ-XX-0906997913:  JOB TICKET NUMB
 WELL.                     C41:  WELL NAME
 MWDS.                    Baku:  MWD SHOP
 SRVC.          Turan Drilling:  CONTRACTOR
 FLD .                     ACG:  FIELD NAME
 CTRY.              Azerbaijan:  COUNTRY NAME
 PROV.                    Baku:  PROVINCE
 STAT.                    Baku:  STATE NAME
 REGN.                   EESSA:  REGION
 BASE.              Azerbaijan:  LOGGING EQUIPMENT BASE LOCATION
 UWI .                     N/A:  UNIQUE WELL IDENTIFIER
 API .                     N/A:  API NUMBER
 COMP.     BP Exploration (Caspian Sea) Ltd.:  COMPANY
 WTYP.                Deviated:  WELL TYPE
 SON .        AZ-XX-0906997913:  JOB NUMBER
 FTOP.          Formation Tops:  FORM TOPS DESC
 ILTD.               Lithology:  INTERP LTH DESC
 SVYD.                  Survey:  SURVEY DESC
 DMOD.             Drill Model:  DRILL MOD DESC
 HPTY.       Minimum Curvature:  HOLE POS TYPE
 NREF.                    Grid:  NORTH REFERENCE
 SPUD.               16-May-21:  SPUD DATE
 DATE.      21.11.28 17-May-21:  END TIME
 STIM.      21.11.28 17-May-21:  START TIME
 DMF .             Drill Floor:  DRILL MEAS FROM
 DFST.                        :  DIST FSL TEXT
 DFWT.                        :  DIST FWL TEXT
 CNTY.                        :  COUNTY
 LOC .                        :  LOCATION
 LMF .             Drill Floor:  LOG MEASURED FROM
 AGAP.m                  43.42:  AIR GAP
 VSNS.m                  -2.16:  VERT SEC N/S
 VSEW.m                  -6.24:  VERT SEC E/W
 APD .m                  43.42:  DEPTH ABOVE PD
 WDMS.m                 118.27:  WD ELEV
 EGL .m                   0.00:  GROUND ELEVATION
 EPD .m                   0.00:  ELEVATION
 AZTC.deg                 6.29:  AZM TOTAL CORR
 GRDC.deg                 0.18:  GRID CORRECTION
 MDEC.deg                 6.47:  MAGNETIC DECL
 MDIP.deg                59.54:  MAGNETIC DIP
 MFLD.nT              50337.00:  MAGNETIC FIELD
 GVFD.g                   1.00:  GRAVITY FIELD
 VSDR.deg               226.99:  VERT SEC DIRECT
 TDD .m                   0.00:  TOTAL DEPTH (DRILLER)
 SDEP.m                 448.00:  START DEPTH
 DFSL.m                   0.00:  DISTANCE FSL
 DFWL.m                   0.00:  DISTANCE FWL
 UTMY.m             4435799.96:  UTM Y
 UTMX.m              526265.35:  UTM X
 WHEW.m                  -6.24:  WELL HEAD E/W
 WHNS.m                  -2.16:  WELL HEAD N/S
 LONG.deg                51.31:  LONGITUDE
 LATI.deg                40.06:  LATITUDE
 TVDS.m                  43.42:  TVDSS CORRECTN
 EKB .m                  43.42:  KB ELEVATION
 EDF .m                  43.42:  DF ELEVATION
 TDL .m                 288.00:  TOTAL DEPTH (LOGGER)
 MAGU.                 1851863:  MAGUTM CHECKSUM
 VSC .                       0:  VS TO CLOSURE
~Parameter Information Block
#MNEM.UNIT       Value        Description
#---------     -----------    ---------------------------
 AV  .mps                 0.40:  Ann Velocity 
 AVMX.mps                 0.63:  Max Ann Veloc 
 AZIF.deg               158.76:  Azm, Final 
 BHAT.        Rotary Steerable:  BHA Type 
 BROT.°/30m               0.68:  Build Rotating 
 BS  .in                  8.50:  Bit Size 
 BSZ .in                  8.50:  Bit Size 
 BTPL.psig              712.00:  Bit Press Loss 
 CABU.                      No:  Customer Abuse 
 COMM.                     ¼2`:  Run Comments 1 
 TCS .hr                 90.66:  Time Ciculation Ended 
 CV  .mps                 2.02:  Crit Velocity 
 CVMX.mps                 2.14:  Max Crit Veloc 
 DD1 .            Aziz Aliyevu:  Direct Drillr 1 
 DD2 .             Samir Abbas:  Direct Drillr 2 
 DD3 .           Teymur Aliyev:  Direct Drillr 3 
 DDSV.                 iCruise:  DD Service 
 DEFF.%                  85.10:  % Det Eff 
 DLRX.°/30m               1.05:  Dogleg Rot Max 
 DLSO.°/30m               1.01:  Dogleg Oriented 
 DLSX.°/30m               1.05:  Dogleg Str Max 
 DRET.      07.45.00 18-Jul-21:  Drill End Time 
 DRST.      15.00.00 16-Jul-21:  Drill Start Tim 
 DTIM.hr                 23.46:  Time Drilling 
 EDEP.m                4603.00:  End Depth 
 ENG1.       Seymur Iskandarov:  Engineer 1 
 ENG2.         Yevgeniy Ulikov:  Engineer 2 
 ENG3.         Bahruz Mehdiyev:  Engineer 3 
 ENG4.         Elchin Mammadov:  Engineer 4 
 ETIM.      14.00.00 23-Jul-21:  End Time 
 FLOI.gpm               500.00:  Flow In 
 FLON.gpm               450.00:  Flow In Min 
 FLOS.cptm                0.00:  Fluid Loss 
 FLOX.gpm               560.00:  Flow In Max 
 DFT .        Mineral Oil Base:  Mud Type 
 FTRO.       Formation Presure:  FTWD Run Obj 
 HFLO.                      No:  High Flow 
 HPRE.                      No:  High Pressure 
 HTEM.                      No:  High Temp 
 HYDO.m                   1.80:  Hydro Offset 
 IFIN.deg                40.22:  Inc, Final 
 IMAX.deg                40.54:  Inc Max 
 IMIN.deg                39.44:  Inc Min 
 IMND.m                4361.17:  Inc Min Depth 
 IMXD.m                4417.92:  Inc Max Depth 
 JARR.                      No:  Jarring 
 LETM.      07.45.00 18-Jul-21:  Log End Time 
 LOST.hr                    16:  Lost Rig Time 
 LSTM.      15.00.00 16-Jul-21:  Log Start Time 
 MDCL.ppm             36500.00:  Mud Chlorides 
 MDES.     Inversion Oil/Synthetic:  Mud Desc 
 DFD .sg                  1.42:  Mud Density 
 MDMN.sg                  1.42:  Dens Mud Min 
 MDMX.sg                  1.43:  Dens Mud Max 
 MOIL.                      56:  Run Mud Oil % 
 MOWR.                   71:29:  Run Mud OWR 
 MSND.                     0.5:  Run Mud Sand % 
 MSOL.                      21:  Run Mud Solids% 
 DFV .spqt               78.00:  Mud Viscosity 
 MWOD.in                  6.75:  MWD Tool OD 
 MWSI.                     Yes:  Serv Intrp, MWD 
 OTIM.hr                200.73:  Time Operating 
 PCON.           Look Like New:  Pad Condition 
 PMAX.psia            11069.93:  Press Op, Max 
 PV  .cP                 32.00:  Mud PV 
 RUN .                     700:  Run Number 
 ROPA.m/hr               10.00:  ROP Avg 
 ROPN.m/hr                9.00:  ROP Min 
 ROPX.m/hr               16.00:  ROP Max 
 RPMA.rpm               116.00:  RPM Surface Avg 
 RPMN.rpm                80.00:  RPM Surface Min 
 RPMX.rpm               120.00:  RPM Surface Max 
 RRUN.                    L605:  Rig Run Number 
 RTIM.hr                 45.00:  Time Reaming 
 SAZI.deg               159.86:  Azm, Start 
 SDEP.m                4315.00:  Start Depth 
 SIDD.                      No:  Serv Intrp, DD 
 SINC.deg                39.86:  Inc, Start 
 SPPA.psig             3300.00:  SPP Avg 
 SPPN.psig             3040.00:  SPP Min 
 SPPX.psig             3645.00:  SPP Max 
 STIM.      01.00.00 15-Jul-21:  Start Time 
 SVCS.                 DD, MWD:  Services 
 SVER.                    9.20:  Sperry Version 
 TDAT.m                 288.00:  Tot Depth Attmp 
 TDDF.                      No:  Trip for DD 
 TDLG.m                 288.00:  Tot Depth Loggd 
 TFF .                      No:  Trip for Fail 
 TQAA.f-kp               19.00:  Torque Abs Avg 
 TQAN.f-kp               18.00:  Torque Abs Min 
 TQAX.f-kp               21.00:  Torque Abs Max 
 TRRT.°/30m               0.45:  Turn Rotating 
 MRT .                    HCIM:  Maximum Recorded Temperature 
 TTMX.degC               88.24:  Max Tool Temp 
 VS01.                90649157:  Virtual Str1 SN 
 VS02.                90652483:  Virtual Str2 SN 
 VS03.                11671987:  Virtual Str3 SN 
 VS04.                90643411:  Virtual Str4 SN 
 VS05.                90652478:  Virtual Str5 SN 
 VS06.                    6111:  Virtual Str6 SN 
 WBMN.klb                 9.50:  WOB Min 
 WITN.        Grigoriy Sarayev:  Customer Rep 
 WITN.          Rufat Huseynov:  Customer Rep 2 
 WOBA.klb                11.00:  WOB Avg 
 WOBX.klb                15.00:  WOB Max 
 YP  .lhf2               28.00:  Yield Point 
~Curve Information Block
#MNEM.UNIT                 API CODE     Curve Description
#---------               -----------    ---------------------------
 TIME.HHMMSS            00 000 000 000:  GT Time & Date
 GTDEPTH.m              00 000 000 000:  GT Depth
 GTPQH.psia             00 000 000 000:  GT HR Quartz Pressure
 GTTQ.degC              00 000 000 000:  GT Quartz Temperature
 GTTN.NONE              00 000 000 000:  GT Test Number
 GTET.sec               00 000 000 000:  GT Elapsed Test Time
 GTTVD.m                00 000 000 000:  GT True Vertical Depth
#Other Information
#
#WARRANTY: Halliburton will use its best efforts to furnish customers with 
#accurate information and interpretations that are part of, and incident to, the services 
#provided.  However, Halliburton cannot and does not warrant the accuracy 
#or correctness of such information and interpretations.  Under no circumstances should any 
#such information or interpretation be relied upon as the sole basis for any drilling, 
#completion, production, or financial decision or any procedure involving any risk to the 
#safety of any drilling venture, drilling rig or its crew or any other third party.  The 
#Customer has full responsibility for all drilling, completion and production operation.  
#Halliburton makes no representations or warranties, either expressed or 
#implied, including, but not limited to, the implied warranties of merchantability or fitness 
#for a particular purpose, with respect to the services rendered.  In no event will 
#Halliburton be liable for failure to obtain any particular results or for 
#any damages, including, but not limited to, indirect, special or consequential damages, 
#resulting from the use of any information or interpretation provided by Halliburton.
#
~A           TIME           GTDEPTH  GTPQH  GTTQ  GTTN  GTET   GTTVD  
# ...
   23:04:48.755.18-Jul-2021 4247.58 5976.65 69.66 8.00 230.08 2507.04
   23:04:48.955.18-Jul-2021 4247.58 5976.65 69.66 8.00 230.28 2507.04
   23:04:49.155.18-Jul-2021 4247.58 5976.24 69.66 8.00 230.48 2507.04
   23:04:49.355.18-Jul-2021 4247.58 5976.61 69.66 8.00 230.68 2507.04
   23:04:49.555.18-Jul-2021 4247.58 5975.22 69.67 8.00 230.89 2507.04
   23:04:49.756.18-Jul-2021 4247.58 5977.98 69.66 8.00 231.09 2507.04
   23:04:49.956.18-Jul-2021 4247.58 5977.98 69.66 8.00 231.29 2507.04
   23:04:50.156.18-Jul-2021 4247.58 5971.68 69.66 8.00 231.49 2507.04
   23:04:50.356.18-Jul-2021 4247.58 5977.55 69.66 8.00 231.69 2507.04
   23:04:50.556.18-Jul-2021 4247.58 5973.18 69.67 8.00 231.89 2507.04
   23:04:50.756.18-Jul-2021 4247.58 5973.53 69.66 8.00 232.09 2507.04
   23:04:50.956.18-Jul-2021 4247.58 5973.53 69.66 8.00 232.29 2507.04
   23:04:51.156.18-Jul-2021 4247.58 5971.88 69.66 8.00 232.49 2507.04
   23:04:51.356.18-Jul-2021 4247.58 5972.20 69.67 8.00 232.69 2507.04
   23:04:51.556.18-Jul-2021 4247.58 5974.91 69.66 8.00 232.89 2507.04
   23:04:51.756.18-Jul-2021 4247.58 5975.43 69.66 8.00 233.09 2507.04
   23:04:51.956.18-Jul-2021 4247.58 5975.43 69.66 8.00 233.29 2507.04
   23:04:52.156.18-Jul-2021 4247.58 5968.09 69.66 8.00 233.49 2507.04
   23:04:52.356.18-Jul-2021 4247.58 5971.59 69.67 8.00 233.69 2507.04
   23:04:52.557.18-Jul-2021 4247.58 5972.44 69.67 8.00 233.89 2507.04
   23:04:52.757.18-Jul-2021 4247.58 5978.66 69.66 8.00 234.09 2507.04
   23:04:52.957.18-Jul-2021 4247.58 5978.66 69.66 8.00 234.29 2507.04
   23:04:53.157.18-Jul-2021 4247.58 5972.44 69.66 8.00 234.49 2507.04
   23:04:53.357.18-Jul-2021 4247.58 5973.01 69.67 8.00 234.69 2507.04
   23:04:53.557.18-Jul-2021 4247.58 5973.70 69.67 8.00 234.89 2507.04
   23:04:53.757.18-Jul-2021 4247.58 5972.59 69.67 8.00 235.09 2507.04
   23:04:53.957.18-Jul-2021 4247.58 5972.59 69.67 8.00 235.29 2507.04
   23:04:54.157.18-Jul-2021 4247.58 5972.56 69.66 8.00 235.49 2507.04
   23:04:54.357.18-Jul-2021 4247.58 5972.38 69.67 8.00 235.69 2507.04
   23:04:54.557.18-Jul-2021 4247.58 5972.77 69.67 8.00 235.89 2507.04
   23:04:54.757.18-Jul-2021 4247.58 5972.62 69.66 8.00 236.09 2507.04
   23:04:54.957.18-Jul-2021 4247.58 5972.62 69.66 8.00 236.29 2507.04
   23:04:55.158.18-Jul-2021 4247.58 5972.85 69.67 8.00 236.49 2507.04
   23:04:55.358.18-Jul-2021 4247.58 5973.24 69.66 8.00 236.69 2507.04
   23:04:55.558.18-Jul-2021 4247.58 5975.80 69.67 8.00 236.89 2507.04
   23:04:55.758.18-Jul-2021 4247.58 5968.17 69.67 8.00 237.09 2507.04
   23:04:55.958.18-Jul-2021 4247.58 5968.17 69.67 8.00 237.29 2507.04
   23:04:56.158.18-Jul-2021 4247.58 5971.50 69.67 8.00 237.49 2507.04
   23:04:56.358.18-Jul-2021 4247.58 5972.56 69.67 8.00 237.69 2507.04
   23:04:56.558.18-Jul-2021 4247.58 5971.83 69.67 8.00 237.89 2507.04
   23:04:56.758.18-Jul-2021 4247.58 5971.53 69.67 8.00 238.09 2507.04
   23:04:56.958.18-Jul-2021 4247.58 5971.53 69.67 8.00 238.29 2507.04
   23:04:57.158.18-Jul-2021 4247.58 5972.95 69.67 8.00 238.49 2507.04
   23:04:57.358.18-Jul-2021 4247.58 5971.84 69.67 8.00 238.69 2507.04
   23:04:57.558.18-Jul-2021 4247.58 5972.13 69.67 8.00 238.89 2507.04
   23:04:57.758.18-Jul-2021 4247.58 5971.05 69.67 8.00 239.09 2507.04
   23:04:57.959.18-Jul-2021 4247.58 5971.05 69.67 8.00 239.29 2507.04
   23:04:58.159.18-Jul-2021 4247.58 5972.69 69.67 8.00 239.49 2507.04
   23:04:58.359.18-Jul-2021 4247.58 5974.57 69.67 8.00 239.69 2507.04
   23:04:58.559.18-Jul-2021 4247.58 5969.24 69.67 8.00 239.89 2507.04
   23:04:58.759.18-Jul-2021 4247.58 5968.34 69.67 8.00 240.09 2507.04
   23:04:58.959.18-Jul-2021 4247.58 5968.34 69.67 8.00 240.29 2507.04
   23:04:59.159.18-Jul-2021 4247.58 5970.43 69.67 8.00 240.49 2507.04
   23:04:59.359.18-Jul-2021 4247.58 5971.47 69.67 8.00 240.69 2507.04
   23:04:59.559.18-Jul-2021 4247.58 5973.50 69.67 8.00 240.89 2507.04
   23:04:59.759.18-Jul-2021 4247.58 5968.48 69.67 8.00 241.09 2507.04
   23:04:59.959.18-Jul-2021 4247.58 5968.48 69.67 8.00 241.29 2507.04
   23:05:00.159.18-Jul-2021 4247.58 5972.62 69.67 8.00 241.49 2507.04
   23:05:00.359.18-Jul-2021 4247.58 5971.60 69.67 8.00 241.69 2507.04
   23:05:00.560.18-Jul-2021 4247.58 5970.61 69.67 8.00 241.89 2507.04
   23:05:00.760.18-Jul-2021 4247.58 5967.90 69.67 8.00 242.09 2507.04
   23:05:00.960.18-Jul-2021 4247.58 5967.90 69.67 8.00 242.29 2507.04
   23:05:01.160.18-Jul-2021 4247.58 5970.24 69.67 8.00 242.49 2507.04
   23:05:01.360.18-Jul-2021 4247.58 5968.85 69.67 8.00 242.69 2507.04
   23:05:01.560.18-Jul-2021 4247.58 5971.37 69.67 8.00 242.89 2507.04
   23:05:01.760.18-Jul-2021 4247.58 5963.40 69.67 8.00 243.09 2507.04
   23:05:01.960.18-Jul-2021 4247.58 5963.40 69.67 8.00 243.29 2507.04
   23:05:02.160.18-Jul-2021 4247.58 5969.53 69.67 8.00 243.49 2507.04
   23:05:02.360.18-Jul-2021 4247.58 5971.30 69.67 8.00 243.69 2507.04
   23:05:02.560.18-Jul-2021 4247.58 5969.92 69.67 8.00 243.89 2507.04
   23:05:02.760.18-Jul-2021 4247.58 5970.27 69.67 8.00 244.09 2507.04
   23:05:02.960.18-Jul-2021 4247.58 5970.27 69.67 8.00 244.29 2507.04
   23:05:03.160.18-Jul-2021 4247.58 5970.95 69.67 8.00 244.49 2507.04
   23:05:03.361.18-Jul-2021 4247.58 5971.10 69.67 8.00 244.69 2507.04
   23:05:03.561.18-Jul-2021 4247.58 5969.45 69.67 8.00 244.89 2507.04
   23:05:03.761.18-Jul-2021 4247.58 5969.84 69.67 8.00 245.09 2507.04
   23:05:03.961.18-Jul-2021 4247.58 5969.84 69.67 8.00 245.29 2507.04
   23:05:04.161.18-Jul-2021 4247.58 5969.03 69.67 8.00 245.49 2507.04
   23:05:04.361.18-Jul-2021 4247.58 5971.03 69.67 8.00 245.69 2507.04
   23:05:04.561.18-Jul-2021 4247.58 5962.06 69.67 8.00 245.89 2507.04
   23:05:04.761.18-Jul-2021 4247.58 5965.56 69.67 8.00 246.09 2507.04
   23:05:04.961.18-Jul-2021 4247.58 5965.56 69.67 8.00 246.29 2507.04
   23:05:05.161.18-Jul-2021 4247.58 5968.98 69.67 8.00 246.49 2507.04
   23:05:05.361.18-Jul-2021 4247.58 5967.44 69.67 8.00 246.69 2507.04
   23:05:05.561.18-Jul-2021 4247.58 5969.02 69.67 8.00 246.89 2507.04
   23:05:05.761.18-Jul-2021 4247.58 5969.25 69.67 8.00 247.09 2507.04
   23:05:05.962.18-Jul-2021 4247.58 5969.25 69.67 8.00 247.29 2507.04
   23:05:06.162.18-Jul-2021 4247.58 5967.37 69.67 8.00 247.49 2507.04
   23:05:06.362.18-Jul-2021 4247.58 5967.30 69.67 8.00 247.69 2507.04
   23:05:06.562.18-Jul-2021 4247.58 5967.69 69.67 8.00 247.89 2507.04
   23:05:06.762.18-Jul-2021 4247.58 5969.02 69.67 8.00 248.09 2507.04
   23:05:06.962.18-Jul-2021 4247.58 5969.02 69.67 8.00 248.29 2507.04
   23:05:07.162.18-Jul-2021 4247.58 5970.98 69.67 8.00 248.49 2507.04
   23:05:07.362.18-Jul-2021 4247.58 5965.19 69.67 8.00 248.69 2507.04
   23:05:07.562.18-Jul-2021 4247.58 5968.02 69.67 8.00 248.89 2507.04
   23:05:07.762.18-Jul-2021 4247.58 5966.34 69.67 8.00 249.09 2507.04
   23:05:07.962.18-Jul-2021 4247.58 5966.34 69.67 8.00 249.29 2507.04
   23:05:08.162.18-Jul-2021 4247.58 5970.44 69.67 8.00 249.49 2507.04
   23:05:08.362.18-Jul-2021 4247.58 5962.93 69.67 8.00 249.69 2507.04
   23:05:08.562.18-Jul-2021 4247.58 5965.39 69.67 8.00 249.89 2507.04
   23:05:08.763.18-Jul-2021 4247.58 5965.93 69.67 8.00 250.09 2507.04
   23:05:08.963.18-Jul-2021 4247.58 5965.93 69.67 8.00 250.29 2507.04
   23:05:09.163.18-Jul-2021 4247.58 5970.29 69.67 8.00 250.49 2507.04
   23:05:09.363.18-Jul-2021 4247.58 5964.38 69.67 8.00 250.69 2507.04
   23:05:09.563.18-Jul-2021 4247.58 5963.80 69.67 8.00 250.89 2507.04
   23:05:09.763.18-Jul-2021 4247.58 5970.74 69.67 8.00 251.09 2507.04
   23:05:09.963.18-Jul-2021 4247.58 5970.74 69.67 8.00 251.29 2507.04
   23:05:10.163.18-Jul-2021 4247.58 5965.94 69.67 8.00 251.49 2507.04
   23:05:10.363.18-Jul-2021 4247.58 5967.12 69.67 8.00 251.69 2507.04
   23:05:10.563.18-Jul-2021 4247.58 5970.05 69.67 8.00 251.89 2507.04
   23:05:10.763.18-Jul-2021 4247.58 5967.73 69.67 8.00 252.09 2507.04
   23:05:10.963.18-Jul-2021 4247.58 5967.73 69.67 8.00 252.29 2507.04
   23:05:11.163.18-Jul-2021 4247.58 5968.49 69.67 8.00 252.49 2507.04
   23:05:11.363.18-Jul-2021 4247.58 5968.61 69.67 8.00 252.69 2507.04
   23:05:11.564.18-Jul-2021 4247.58 5967.01 69.67 8.00 252.89 2507.04
