~Version Information
 VERS.                  2.0:   CWLS log ASCII Standard -VERSION 2.0
 WRAP.                   NO:   One line per depth step
~Well Information Block
#MNEM.UNIT     VALUE/NAME     DESCRIPTION
#---------     -----------    ---------------------------
 STRT.S             13:11:20 18-Jul-21: START TIME 13:11:20 18-Jul-21
 STOP.S             13:17:54 18-Jul-21: STOP TIME  13:17:54 18-Jul-21
 STEP.S                   0.00: STEP TIME
 NULL.                 -999.25: NULL VALUE
 MDS .        Operator Entered:  MAG DATA SOURCE
 PDAT.          Mean Sea Level:  PERMANENT DATUM
 UNIT.                     N/A:  LOGGING EQUIPMENT ID
 DCON.         Sperry Drilling:  DIRECTNL CONTR
 DOE .                     N/A:  DOE NUMBER
 RIG .              West Azeri:  RIG NAME
 JOBN.        AZ-XX-0906997913:  JOB TICKET NUMB
 WELL.                     C41:  WELL NAME
 MWDS.                    Baku:  MWD SHOP
 SRVC.          Turan Drilling:  CONTRACTOR
 FLD .                     ACG:  FIELD NAME
 CTRY.              Azerbaijan:  COUNTRY NAME
 PROV.                    Baku:  PROVINCE
 STAT.                    Baku:  STATE NAME
 REGN.                   EESSA:  REGION
 BASE.              Azerbaijan:  LOGGING EQUIPMENT BASE LOCATION
 UWI .                     N/A:  UNIQUE WELL IDENTIFIER
 API .                     N/A:  API NUMBER
 COMP.     BP Exploration (Caspian Sea) Ltd.:  COMPANY
 WTYP.                Deviated:  WELL TYPE
 SON .        AZ-XX-0906997913:  JOB NUMBER
 FTOP.          Formation Tops:  FORM TOPS DESC
 ILTD.               Lithology:  INTERP LTH DESC
 SVYD.                  Survey:  SURVEY DESC
 DMOD.             Drill Model:  DRILL MOD DESC
 HPTY.       Minimum Curvature:  HOLE POS TYPE
 NREF.                    Grid:  NORTH REFERENCE
 SPUD.               16-May-21:  SPUD DATE
 DATE.      21.11.28 17-May-21:  END TIME
 STIM.      21.11.28 17-May-21:  START TIME
 DMF .             Drill Floor:  DRILL MEAS FROM
 DFST.                        :  DIST FSL TEXT
 DFWT.                        :  DIST FWL TEXT
 CNTY.                        :  COUNTY
 LOC .                        :  LOCATION
 LMF .             Drill Floor:  LOG MEASURED FROM
 AGAP.m                  43.42:  AIR GAP
 VSNS.m                  -2.16:  VERT SEC N/S
 VSEW.m                  -6.24:  VERT SEC E/W
 APD .m                  43.42:  DEPTH ABOVE PD
 WDMS.m                 118.27:  WD ELEV
 EGL .m                   0.00:  GROUND ELEVATION
 EPD .m                   0.00:  ELEVATION
 AZTC.deg                 6.29:  AZM TOTAL CORR
 GRDC.deg                 0.18:  GRID CORRECTION
 MDEC.deg                 6.47:  MAGNETIC DECL
 MDIP.deg                59.54:  MAGNETIC DIP
 MFLD.nT              50337.00:  MAGNETIC FIELD
 GVFD.g                   1.00:  GRAVITY FIELD
 VSDR.deg               226.99:  VERT SEC DIRECT
 TDD .m                   0.00:  TOTAL DEPTH (DRILLER)
 SDEP.m                 448.00:  START DEPTH
 DFSL.m                   0.00:  DISTANCE FSL
 DFWL.m                   0.00:  DISTANCE FWL
 UTMY.m             4435799.96:  UTM Y
 UTMX.m              526265.35:  UTM X
 WHEW.m                  -6.24:  WELL HEAD E/W
 WHNS.m                  -2.16:  WELL HEAD N/S
 LONG.deg                51.31:  LONGITUDE
 LATI.deg                40.06:  LATITUDE
 TVDS.m                  43.42:  TVDSS CORRECTN
 EKB .m                  43.42:  KB ELEVATION
 EDF .m                  43.42:  DF ELEVATION
 TDL .m                 288.00:  TOTAL DEPTH (LOGGER)
 MAGU.                 1851863:  MAGUTM CHECKSUM
 VSC .                       0:  VS TO CLOSURE
~Parameter Information Block
#MNEM.UNIT       Value        Description
#---------     -----------    ---------------------------
 AV  .mps                 0.40:  Ann Velocity 
 AVMX.mps                 0.63:  Max Ann Veloc 
 AZIF.deg               158.76:  Azm, Final 
 BHAT.        Rotary Steerable:  BHA Type 
 BROT.∞/30m               0.68:  Build Rotating 
 BS  .in                  8.50:  Bit Size 
 BSZ .in                  8.50:  Bit Size 
 BTPL.psig              712.00:  Bit Press Loss 
 CABU.                      No:  Customer Abuse 
 COMM.                     §ÁL:  Run Comments 1 
 TCS .hr                 90.66:  Time Ciculation Ended 
 CV  .mps                 2.02:  Crit Velocity 
 CVMX.mps                 2.14:  Max Crit Veloc 
 DD1 .            Aziz Aliyevu:  Direct Drillr 1 
 DD2 .             Samir Abbas:  Direct Drillr 2 
 DD3 .           Teymur Aliyev:  Direct Drillr 3 
 DDSV.                 iCruise:  DD Service 
 DEFF.%                  85.10:  % Det Eff 
 DLRX.∞/30m               1.05:  Dogleg Rot Max 
 DLSO.∞/30m               1.01:  Dogleg Oriented 
 DLSX.∞/30m               1.05:  Dogleg Str Max 
 DRET.      07.45.00 18-Jul-21:  Drill End Time 
 DRST.      15.00.00 16-Jul-21:  Drill Start Tim 
 DTIM.hr                 23.46:  Time Drilling 
 EDEP.m                4603.00:  End Depth 
 ENG1.       Seymur Iskandarov:  Engineer 1 
 ENG2.         Yevgeniy Ulikov:  Engineer 2 
 ENG3.         Bahruz Mehdiyev:  Engineer 3 
 ENG4.         Elchin Mammadov:  Engineer 4 
 ETIM.      14.00.00 23-Jul-21:  End Time 
 FLOI.gpm               500.00:  Flow In 
 FLON.gpm               450.00:  Flow In Min 
 FLOS.cptm                0.00:  Fluid Loss 
 FLOX.gpm               560.00:  Flow In Max 
 DFT .        Mineral Oil Base:  Mud Type 
 FTRO.       Formation Presure:  FTWD Run Obj 
 HFLO.                      No:  High Flow 
 HPRE.                      No:  High Pressure 
 HTEM.                      No:  High Temp 
 HYDO.m                   1.80:  Hydro Offset 
 IFIN.deg                40.22:  Inc, Final 
 IMAX.deg                40.54:  Inc Max 
 IMIN.deg                39.44:  Inc Min 
 IMND.m                4361.17:  Inc Min Depth 
 IMXD.m                4417.92:  Inc Max Depth 
 JARR.                      No:  Jarring 
 LETM.      07.45.00 18-Jul-21:  Log End Time 
 LOST.hr                    16:  Lost Rig Time 
 LSTM.      15.00.00 16-Jul-21:  Log Start Time 
 MDCL.ppm             36500.00:  Mud Chlorides 
 MDES.     Inversion Oil/Synthetic:  Mud Desc 
 DFD .sg                  1.42:  Mud Density 
 MDMN.sg                  1.42:  Dens Mud Min 
 MDMX.sg                  1.43:  Dens Mud Max 
 MOIL.                      56:  Run Mud Oil % 
 MOWR.                   71:29:  Run Mud OWR 
 MSND.                     0.5:  Run Mud Sand % 
 MSOL.                      21:  Run Mud Solids% 
 DFV .spqt               78.00:  Mud Viscosity 
 MWOD.in                  6.75:  MWD Tool OD 
 MWSI.                     Yes:  Serv Intrp, MWD 
 OTIM.hr                200.73:  Time Operating 
 PCON.           Look Like New:  Pad Condition 
 PMAX.psia            11069.93:  Press Op, Max 
 PV  .cP                 32.00:  Mud PV 
 RUN .                     700:  Run Number 
 ROPA.m/hr               10.00:  ROP Avg 
 ROPN.m/hr                9.00:  ROP Min 
 ROPX.m/hr               16.00:  ROP Max 
 RPMA.rpm               116.00:  RPM Surface Avg 
 RPMN.rpm                80.00:  RPM Surface Min 
 RPMX.rpm               120.00:  RPM Surface Max 
 RRUN.                    L605:  Rig Run Number 
 RTIM.hr                 45.00:  Time Reaming 
 SAZI.deg               159.86:  Azm, Start 
 SDEP.m                4315.00:  Start Depth 
 SIDD.                      No:  Serv Intrp, DD 
 SINC.deg                39.86:  Inc, Start 
 SPPA.psig             3300.00:  SPP Avg 
 SPPN.psig             3040.00:  SPP Min 
 SPPX.psig             3645.00:  SPP Max 
 STIM.      01.00.00 15-Jul-21:  Start Time 
 SVCS.                 DD, MWD:  Services 
 SVER.                    9.20:  Sperry Version 
 TDAT.m                 288.00:  Tot Depth Attmp 
 TDDF.                      No:  Trip for DD 
 TDLG.m                 288.00:  Tot Depth Loggd 
 TFF .                      No:  Trip for Fail 
 TQAA.f-kp               19.00:  Torque Abs Avg 
 TQAN.f-kp               18.00:  Torque Abs Min 
 TQAX.f-kp               21.00:  Torque Abs Max 
 TRRT.∞/30m               0.45:  Turn Rotating 
 MRT .                    HCIM:  Maximum Recorded Temperature 
 TTMX.degC               88.24:  Max Tool Temp 
 VS01.                90649157:  Virtual Str1 SN 
 VS02.                90652483:  Virtual Str2 SN 
 VS03.                11671987:  Virtual Str3 SN 
 VS04.                90643411:  Virtual Str4 SN 
 VS05.                90652478:  Virtual Str5 SN 
 VS06.                    6111:  Virtual Str6 SN 
 WBMN.klb                 9.50:  WOB Min 
 WITN.        Grigoriy Sarayev:  Customer Rep 
 WITN.          Rufat Huseynov:  Customer Rep 2 
 WOBA.klb                11.00:  WOB Avg 
 WOBX.klb                15.00:  WOB Max 
 YP  .lhf2               28.00:  Yield Point 
~Curve Information Block
#MNEM.UNIT                 API CODE     Curve Description
#---------               -----------    ---------------------------
 TIME.HHMMSS            00 000 000 000:  GT Time & Date
 GTDEPTH.m              00 000 000 000:  GT Depth
 GTPQH.psia             00 000 000 000:  GT HR Quartz Pressure
 GTTQ.degC              00 000 000 000:  GT Quartz Temperature
 GTTN.NONE              00 000 000 000:  GT Test Number
 GTET.sec               00 000 000 000:  GT Elapsed Test Time
 GTTVD.m                00 000 000 000:  GT True Vertical Depth
#Other Information
#
#WARRANTY: Halliburton will use its best efforts to furnish customers with 
#accurate information and interpretations that are part of, and incident to, the services 
#provided.  However, Halliburton cannot and does not warrant the accuracy 
#or correctness of such information and interpretations.  Under no circumstances should any 
#such information or interpretation be relied upon as the sole basis for any drilling, 
#completion, production, or financial decision or any procedure involving any risk to the 
#safety of any drilling venture, drilling rig or its crew or any other third party.  The 
#Customer has full responsibility for all drilling, completion and production operation.  
#Halliburton makes no representations or warranties, either expressed or 
#implied, including, but not limited to, the implied warranties of merchantability or fitness 
#for a particular purpose, with respect to the services rendered.  In no event will 
#Halliburton be liable for failure to obtain any particular results or for 
#any damages, including, but not limited to, indirect, special or consequential damages, 
#resulting from the use of any information or interpretation provided by Halliburton.
#
~A           TIME           GTDEPTH  GTPQH  GTTQ  GTTN  GTET   GTTVD  
# ...
   13:16:19.754.18-Jul-2021 4561.00 6144.49 75.66 2.00 299.11 2746.93
   13:16:19.954.18-Jul-2021 4561.00 6144.49 75.66 2.00 299.31 2746.93
   13:16:20.154.18-Jul-2021 4561.00 6145.64 75.66 2.00 299.51 2746.93
   13:16:20.354.18-Jul-2021 4561.00 6144.37 75.66 2.00 299.71 2746.93
   13:16:20.554.18-Jul-2021 4561.00 6144.28 75.66 2.00 299.91 2746.93
   13:16:20.754.18-Jul-2021 4561.00 6144.92 75.66 2.00 300.11 2746.93
   13:16:20.954.18-Jul-2021 4561.00 6144.92 75.66 2.00 300.31 2746.93
   13:16:21.155.18-Jul-2021 4561.00 6145.20 75.66 2.00 300.51 2746.93
   13:16:21.355.18-Jul-2021 4561.00 6144.03 75.66 2.00 300.71 2746.93
   13:16:21.555.18-Jul-2021 4561.00 6144.98 75.66 2.00 300.91 2746.93
   13:16:21.755.18-Jul-2021 4561.00 6144.85 75.66 2.00 301.11 2746.93
   13:16:21.955.18-Jul-2021 4561.00 6144.85 75.66 2.00 301.31 2746.93
   13:16:22.155.18-Jul-2021 4561.00 6144.52 75.66 2.00 301.51 2746.93
   13:16:22.355.18-Jul-2021 4561.00 6144.29 75.66 2.00 301.71 2746.93
   13:16:22.555.18-Jul-2021 4561.00 6144.87 75.66 2.00 301.91 2746.93
   13:16:22.755.18-Jul-2021 4561.00 6143.66 75.66 2.00 302.11 2746.93
   13:16:22.955.18-Jul-2021 4561.00 6143.66 75.66 2.00 302.31 2746.93
   13:16:23.155.18-Jul-2021 4561.00 6144.13 75.66 2.00 302.51 2746.93
   13:16:23.355.18-Jul-2021 4561.00 6144.13 75.66 2.00 302.71 2746.93
   13:16:23.555.18-Jul-2021 4561.00 6144.15 75.66 2.00 302.91 2746.93
   13:16:23.756.18-Jul-2021 4561.00 6144.20 75.66 2.00 303.11 2746.93
   13:16:23.956.18-Jul-2021 4561.00 6144.20 75.66 2.00 303.31 2746.93
   13:16:24.156.18-Jul-2021 4561.00 6144.30 75.66 2.00 303.51 2746.93
   13:16:24.356.18-Jul-2021 4561.00 6144.24 75.66 2.00 303.71 2746.93
   13:16:24.556.18-Jul-2021 4561.00 6143.71 75.66 2.00 303.91 2746.93
   13:16:24.756.18-Jul-2021 4561.00 6143.50 75.66 2.00 304.11 2746.93
   13:16:24.956.18-Jul-2021 4561.00 6143.50 75.66 2.00 304.31 2746.93
   13:16:25.156.18-Jul-2021 4561.00 6143.75 75.66 2.00 304.51 2746.93
   13:16:25.356.18-Jul-2021 4561.00 6144.79 75.66 2.00 304.71 2746.93
   13:16:25.556.18-Jul-2021 4561.00 6143.82 75.66 2.00 304.91 2746.93
   13:16:25.756.18-Jul-2021 4561.00 6143.91 75.66 2.00 305.11 2746.93
   13:16:25.956.18-Jul-2021 4561.00 6143.91 75.66 2.00 305.31 2746.93
   13:16:26.156.18-Jul-2021 4561.00 6144.12 75.66 2.00 305.51 2746.93
   13:16:26.356.18-Jul-2021 4561.00 6143.93 75.66 2.00 305.71 2746.93
   13:16:26.557.18-Jul-2021 4561.00 6144.23 75.66 2.00 305.91 2746.93
   13:16:26.757.18-Jul-2021 4561.00 6143.69 75.66 2.00 306.11 2746.93
   13:16:26.957.18-Jul-2021 4561.00 6143.69 75.66 2.00 306.31 2746.93
   13:16:27.157.18-Jul-2021 4561.00 6144.07 75.66 2.00 306.51 2746.93
   13:16:27.357.18-Jul-2021 4561.00 6142.59 75.66 2.00 306.71 2746.93
   13:16:27.557.18-Jul-2021 4561.00 6144.47 75.66 2.00 306.91 2746.93
   13:16:27.757.18-Jul-2021 4561.00 6144.14 75.66 2.00 307.11 2746.93
   13:16:27.957.18-Jul-2021 4561.00 6144.14 75.66 2.00 307.31 2746.93
   13:16:28.157.18-Jul-2021 4561.00 6145.14 75.66 2.00 307.51 2746.93
   13:16:28.357.18-Jul-2021 4561.00 6143.97 75.66 2.00 307.71 2746.93
   13:16:28.557.18-Jul-2021 4561.00 6144.21 75.66 2.00 307.91 2746.93
   13:16:28.757.18-Jul-2021 4561.00 6144.04 75.66 2.00 308.11 2746.93
   13:16:28.957.18-Jul-2021 4561.00 6144.04 75.66 2.00 308.31 2746.93
   13:16:29.158.18-Jul-2021 4561.00 6142.99 75.66 2.00 308.51 2746.93
   13:16:29.358.18-Jul-2021 4561.00 6144.03 75.66 2.00 308.71 2746.93
   13:16:29.558.18-Jul-2021 4561.00 6143.58 75.66 2.00 308.91 2746.93
   13:16:29.758.18-Jul-2021 4561.00 6144.13 75.66 2.00 309.11 2746.93
   13:16:29.958.18-Jul-2021 4561.00 6144.13 75.66 2.00 309.31 2746.93
   13:16:30.158.18-Jul-2021 4561.00 6142.73 75.66 2.00 309.51 2746.93
   13:16:30.358.18-Jul-2021 4561.00 6144.27 75.66 2.00 309.71 2746.93
   13:16:30.558.18-Jul-2021 4561.00 6143.65 75.66 2.00 309.91 2746.93
   13:16:30.758.18-Jul-2021 4561.00 6143.80 75.66 2.00 310.11 2746.93
   13:16:30.958.18-Jul-2021 4561.00 6143.80 75.66 2.00 310.31 2746.93
   13:16:31.158.18-Jul-2021 4561.00 6143.36 75.66 2.00 310.51 2746.93
   13:16:31.358.18-Jul-2021 4561.00 6142.68 75.66 2.00 310.71 2746.93
   13:16:31.558.18-Jul-2021 4561.00 6143.80 75.66 2.00 310.91 2746.93
   13:16:31.758.18-Jul-2021 4561.00 6143.60 75.66 2.00 311.11 2746.93
   13:16:31.959.18-Jul-2021 4561.00 6143.60 75.66 2.00 311.31 2746.93
   13:16:32.159.18-Jul-2021 4561.00 6143.69 75.66 2.00 311.51 2746.93
   13:16:32.359.18-Jul-2021 4561.00 6143.85 75.66 2.00 311.71 2746.93
   13:16:32.559.18-Jul-2021 4561.00 6143.48 75.66 2.00 311.91 2746.93
   13:16:32.759.18-Jul-2021 4561.00 6143.51 75.66 2.00 312.11 2746.93
   13:16:32.959.18-Jul-2021 4561.00 6143.51 75.66 2.00 312.31 2746.93
   13:16:33.159.18-Jul-2021 4561.00 6143.98 75.66 2.00 312.52 2746.93
   13:16:33.359.18-Jul-2021 4561.00 6143.95 75.66 2.00 312.72 2746.93
   13:16:33.559.18-Jul-2021 4561.00 6143.38 75.66 2.00 312.92 2746.93
   13:16:33.759.18-Jul-2021 4561.00 6143.58 75.66 2.00 313.12 2746.93
   13:16:33.959.18-Jul-2021 4561.00 6143.58 75.66 2.00 313.32 2746.93
   13:16:34.159.18-Jul-2021 4561.00 6142.62 75.66 2.00 313.52 2746.93
   13:16:34.359.18-Jul-2021 4561.00 6143.76 75.66 2.00 313.72 2746.93
   13:16:34.559.18-Jul-2021 4561.00 6143.63 75.66 2.00 313.92 2746.93
   13:16:34.760.18-Jul-2021 4561.00 6144.14 75.66 2.00 314.12 2746.93
   13:16:34.960.18-Jul-2021 4561.00 6144.14 75.66 2.00 314.32 2746.93
   13:16:35.160.18-Jul-2021 4561.00 6143.62 75.66 2.00 314.52 2746.93
   13:16:35.360.18-Jul-2021 4561.00 6143.53 75.66 2.00 314.72 2746.93
   13:16:35.560.18-Jul-2021 4561.00 6143.76 75.66 2.00 314.92 2746.93
   13:16:35.760.18-Jul-2021 4561.00 6143.29 75.66 2.00 315.12 2746.93
   13:16:35.960.18-Jul-2021 4561.00 6143.29 75.66 2.00 315.32 2746.93
   13:16:36.160.18-Jul-2021 4561.00 6143.29 75.66 2.00 315.52 2746.93
   13:16:36.360.18-Jul-2021 4561.00 6143.38 75.66 2.00 315.72 2746.93
   13:16:36.560.18-Jul-2021 4561.00 6143.12 75.66 2.00 315.92 2746.93
   13:16:36.760.18-Jul-2021 4561.00 6142.67 75.66 2.00 316.12 2746.93
   13:16:36.960.18-Jul-2021 4561.00 6142.67 75.66 2.00 316.32 2746.93
   13:16:37.160.18-Jul-2021 4561.00 6143.36 75.66 2.00 316.52 2746.93
   13:16:37.361.18-Jul-2021 4561.00 6142.45 75.66 2.00 316.72 2746.93
   13:16:37.561.18-Jul-2021 4561.00 6144.52 75.66 2.00 316.92 2746.93
   13:16:37.761.18-Jul-2021 4561.00 6143.14 75.66 2.00 317.12 2746.93
   13:16:37.961.18-Jul-2021 4561.00 6143.14 75.66 2.00 317.32 2746.93
   13:16:38.161.18-Jul-2021 4561.00 6143.12 75.66 2.00 317.52 2746.93
   13:16:38.361.18-Jul-2021 4561.00 6142.91 75.66 2.00 317.72 2746.93
   13:16:38.561.18-Jul-2021 4561.00 6142.69 75.66 2.00 317.92 2746.93
   13:16:38.761.18-Jul-2021 4561.00 6143.80 75.66 2.00 318.12 2746.93
   13:16:38.961.18-Jul-2021 4561.00 6143.80 75.66 2.00 318.32 2746.93
   13:16:39.161.18-Jul-2021 4561.00 6143.76 75.66 2.00 318.52 2746.93
   13:16:39.361.18-Jul-2021 4561.00 6143.50 75.65 2.00 318.72 2746.93
   13:16:39.561.18-Jul-2021 4561.00 6142.39 75.66 2.00 318.92 2746.93
   13:16:39.761.18-Jul-2021 4561.00 6143.91 75.65 2.00 319.12 2746.93
   13:16:39.961.18-Jul-2021 4561.00 6143.91 75.65 2.00 319.32 2746.93
   13:16:40.162.18-Jul-2021 4561.00 6142.55 75.65 2.00 319.52 2746.93
   13:16:40.362.18-Jul-2021 4561.00 6143.31 75.65 2.00 319.72 2746.93
   13:16:40.562.18-Jul-2021 4561.00 6143.02 75.65 2.00 319.92 2746.93
   13:16:40.762.18-Jul-2021 4561.00 6141.66 75.65 2.00 320.12 2746.93
   13:16:40.962.18-Jul-2021 4561.00 6141.66 75.65 2.00 320.32 2746.93
   13:16:41.162.18-Jul-2021 4561.00 6143.35 75.65 2.00 320.52 2746.93
   13:16:41.362.18-Jul-2021 4561.00 6143.44 75.65 2.00 320.72 2746.93
   13:16:41.562.18-Jul-2021 4561.00 6143.24 75.65 2.00 320.92 2746.93
   13:16:41.762.18-Jul-2021 4561.00 6143.46 75.65 2.00 321.12 2746.93
   13:16:41.962.18-Jul-2021 4561.00 6143.46 75.65 2.00 321.32 2746.93
   13:16:42.162.18-Jul-2021 4561.00 6143.01 75.65 2.00 321.52 2746.93
   13:16:42.362.18-Jul-2021 4561.00 6143.32 75.65 2.00 321.72 2746.93
   13:16:42.562.18-Jul-2021 4561.00 6143.49 75.65 2.00 321.92 2746.93
