~Version Information
 VERS.                  2.0:   CWLS log ASCII Standard -VERSION 2.0
 WRAP.                   NO:   One line per depth step
~Well Information Block
#MNEM.UNIT     VALUE/NAME     DESCRIPTION
#---------     -----------    ---------------------------
 STRT.S             09:47:45 19-Jul-21: START TIME 09:47:45 19-Jul-21
 STOP.S             09:54:40 19-Jul-21: STOP TIME  09:54:40 19-Jul-21
 STEP.S                   0.00: STEP TIME
 NULL.                 -999.25: NULL VALUE
 MDS .        Operator Entered:  MAG DATA SOURCE
 PDAT.          Mean Sea Level:  PERMANENT DATUM
 UNIT.                     N/A:  LOGGING EQUIPMENT ID
 DCON.         Sperry Drilling:  DIRECTNL CONTR
 DOE .                     N/A:  DOE NUMBER
 RIG .              West Azeri:  RIG NAME
 JOBN.        AZ-XX-0906997913:  JOB TICKET NUMB
 WELL.                     C41:  WELL NAME
 MWDS.                    Baku:  MWD SHOP
 SRVC.          Turan Drilling:  CONTRACTOR
 FLD .                     ACG:  FIELD NAME
 CTRY.              Azerbaijan:  COUNTRY NAME
 PROV.                    Baku:  PROVINCE
 STAT.                    Baku:  STATE NAME
 REGN.                   EESSA:  REGION
 BASE.              Azerbaijan:  LOGGING EQUIPMENT BASE LOCATION
 UWI .                     N/A:  UNIQUE WELL IDENTIFIER
 API .                     N/A:  API NUMBER
 COMP.     BP Exploration (Caspian Sea) Ltd.:  COMPANY
 WTYP.                Deviated:  WELL TYPE
 SON .        AZ-XX-0906997913:  JOB NUMBER
 FTOP.          Formation Tops:  FORM TOPS DESC
 ILTD.               Lithology:  INTERP LTH DESC
 SVYD.                  Survey:  SURVEY DESC
 DMOD.             Drill Model:  DRILL MOD DESC
 HPTY.       Minimum Curvature:  HOLE POS TYPE
 NREF.                    Grid:  NORTH REFERENCE
 SPUD.               16-May-21:  SPUD DATE
 DATE.      21.11.28 17-May-21:  END TIME
 STIM.      21.11.28 17-May-21:  START TIME
 DMF .             Drill Floor:  DRILL MEAS FROM
 DFST.                        :  DIST FSL TEXT
 DFWT.                        :  DIST FWL TEXT
 CNTY.                        :  COUNTY
 LOC .                        :  LOCATION
 LMF .             Drill Floor:  LOG MEASURED FROM
 AGAP.m                  43.42:  AIR GAP
 VSNS.m                  -2.16:  VERT SEC N/S
 VSEW.m                  -6.24:  VERT SEC E/W
 APD .m                  43.42:  DEPTH ABOVE PD
 WDMS.m                 118.27:  WD ELEV
 EGL .m                   0.00:  GROUND ELEVATION
 EPD .m                   0.00:  ELEVATION
 AZTC.deg                 6.29:  AZM TOTAL CORR
 GRDC.deg                 0.18:  GRID CORRECTION
 MDEC.deg                 6.47:  MAGNETIC DECL
 MDIP.deg                59.54:  MAGNETIC DIP
 MFLD.nT              50337.00:  MAGNETIC FIELD
 GVFD.g                   1.00:  GRAVITY FIELD
 VSDR.deg               226.99:  VERT SEC DIRECT
 TDD .m                   0.00:  TOTAL DEPTH (DRILLER)
 SDEP.m                 448.00:  START DEPTH
 DFSL.m                   0.00:  DISTANCE FSL
 DFWL.m                   0.00:  DISTANCE FWL
 UTMY.m             4435799.96:  UTM Y
 UTMX.m              526265.35:  UTM X
 WHEW.m                  -6.24:  WELL HEAD E/W
 WHNS.m                  -2.16:  WELL HEAD N/S
 LONG.deg                51.31:  LONGITUDE
 LATI.deg                40.06:  LATITUDE
 TVDS.m                  43.42:  TVDSS CORRECTN
 EKB .m                  43.42:  KB ELEVATION
 EDF .m                  43.42:  DF ELEVATION
 TDL .m                 288.00:  TOTAL DEPTH (LOGGER)
 MAGU.                 1851863:  MAGUTM CHECKSUM
 VSC .                       0:  VS TO CLOSURE
~Parameter Information Block
#MNEM.UNIT       Value        Description
#---------     -----------    ---------------------------
 AV  .mps                 0.40:  Ann Velocity 
 AVMX.mps                 0.63:  Max Ann Veloc 
 AZIF.deg               158.76:  Azm, Final 
 BHAT.        Rotary Steerable:  BHA Type 
 BROT.°/30m               0.68:  Build Rotating 
 BS  .in                  8.50:  Bit Size 
 BSZ .in                  8.50:  Bit Size 
 BTPL.psig              712.00:  Bit Press Loss 
 CABU.                      No:  Customer Abuse 
 COMM.                     ”k:  Run Comments 1 
 TCS .hr                 90.66:  Time Ciculation Ended 
 CV  .mps                 2.02:  Crit Velocity 
 CVMX.mps                 2.14:  Max Crit Veloc 
 DD1 .            Aziz Aliyevu:  Direct Drillr 1 
 DD2 .             Samir Abbas:  Direct Drillr 2 
 DD3 .           Teymur Aliyev:  Direct Drillr 3 
 DDSV.                 iCruise:  DD Service 
 DEFF.%                  85.10:  % Det Eff 
 DLRX.°/30m               1.05:  Dogleg Rot Max 
 DLSO.°/30m               1.01:  Dogleg Oriented 
 DLSX.°/30m               1.05:  Dogleg Str Max 
 DRET.      07.45.00 18-Jul-21:  Drill End Time 
 DRST.      15.00.00 16-Jul-21:  Drill Start Tim 
 DTIM.hr                 23.46:  Time Drilling 
 EDEP.m                4603.00:  End Depth 
 ENG1.       Seymur Iskandarov:  Engineer 1 
 ENG2.         Yevgeniy Ulikov:  Engineer 2 
 ENG3.         Bahruz Mehdiyev:  Engineer 3 
 ENG4.         Elchin Mammadov:  Engineer 4 
 ETIM.      14.00.00 23-Jul-21:  End Time 
 FLOI.gpm               500.00:  Flow In 
 FLON.gpm               450.00:  Flow In Min 
 FLOS.cptm                0.00:  Fluid Loss 
 FLOX.gpm               560.00:  Flow In Max 
 DFT .        Mineral Oil Base:  Mud Type 
 FTRO.       Formation Presure:  FTWD Run Obj 
 HFLO.                      No:  High Flow 
 HPRE.                      No:  High Pressure 
 HTEM.                      No:  High Temp 
 HYDO.m                   1.80:  Hydro Offset 
 IFIN.deg                40.22:  Inc, Final 
 IMAX.deg                40.54:  Inc Max 
 IMIN.deg                39.44:  Inc Min 
 IMND.m                4361.17:  Inc Min Depth 
 IMXD.m                4417.92:  Inc Max Depth 
 JARR.                      No:  Jarring 
 LETM.      07.45.00 18-Jul-21:  Log End Time 
 LOST.hr                    16:  Lost Rig Time 
 LSTM.      15.00.00 16-Jul-21:  Log Start Time 
 MDCL.ppm             36500.00:  Mud Chlorides 
 MDES.     Inversion Oil/Synthetic:  Mud Desc 
 DFD .sg                  1.42:  Mud Density 
 MDMN.sg                  1.42:  Dens Mud Min 
 MDMX.sg                  1.43:  Dens Mud Max 
 MOIL.                      56:  Run Mud Oil % 
 MOWR.                   71:29:  Run Mud OWR 
 MSND.                     0.5:  Run Mud Sand % 
 MSOL.                      21:  Run Mud Solids% 
 DFV .spqt               78.00:  Mud Viscosity 
 MWOD.in                  6.75:  MWD Tool OD 
 MWSI.                     Yes:  Serv Intrp, MWD 
 OTIM.hr                200.73:  Time Operating 
 PCON.           Look Like New:  Pad Condition 
 PMAX.psia            11069.93:  Press Op, Max 
 PV  .cP                 32.00:  Mud PV 
 RUN .                     700:  Run Number 
 ROPA.m/hr               10.00:  ROP Avg 
 ROPN.m/hr                9.00:  ROP Min 
 ROPX.m/hr               16.00:  ROP Max 
 RPMA.rpm               116.00:  RPM Surface Avg 
 RPMN.rpm                80.00:  RPM Surface Min 
 RPMX.rpm               120.00:  RPM Surface Max 
 RRUN.                    L605:  Rig Run Number 
 RTIM.hr                 45.00:  Time Reaming 
 SAZI.deg               159.86:  Azm, Start 
 SDEP.m                4315.00:  Start Depth 
 SIDD.                      No:  Serv Intrp, DD 
 SINC.deg                39.86:  Inc, Start 
 SPPA.psig             3300.00:  SPP Avg 
 SPPN.psig             3040.00:  SPP Min 
 SPPX.psig             3645.00:  SPP Max 
 STIM.      01.00.00 15-Jul-21:  Start Time 
 SVCS.                 DD, MWD:  Services 
 SVER.                    9.20:  Sperry Version 
 TDAT.m                 288.00:  Tot Depth Attmp 
 TDDF.                      No:  Trip for DD 
 TDLG.m                 288.00:  Tot Depth Loggd 
 TFF .                      No:  Trip for Fail 
 TQAA.f-kp               19.00:  Torque Abs Avg 
 TQAN.f-kp               18.00:  Torque Abs Min 
 TQAX.f-kp               21.00:  Torque Abs Max 
 TRRT.°/30m               0.45:  Turn Rotating 
 MRT .                    HCIM:  Maximum Recorded Temperature 
 TTMX.degC               88.24:  Max Tool Temp 
 VS01.                90649157:  Virtual Str1 SN 
 VS02.                90652483:  Virtual Str2 SN 
 VS03.                11671987:  Virtual Str3 SN 
 VS04.                90643411:  Virtual Str4 SN 
 VS05.                90652478:  Virtual Str5 SN 
 VS06.                    6111:  Virtual Str6 SN 
 WBMN.klb                 9.50:  WOB Min 
 WITN.        Grigoriy Sarayev:  Customer Rep 
 WITN.          Rufat Huseynov:  Customer Rep 2 
 WOBA.klb                11.00:  WOB Avg 
 WOBX.klb                15.00:  WOB Max 
 YP  .lhf2               28.00:  Yield Point 
~Curve Information Block
#MNEM.UNIT                 API CODE     Curve Description
#---------               -----------    ---------------------------
 TIME.HHMMSS            00 000 000 000:  GT Time & Date
 GTDEPTH.m              00 000 000 000:  GT Depth
 GTPQH.psia             00 000 000 000:  GT HR Quartz Pressure
 GTTQ.degC              00 000 000 000:  GT Quartz Temperature
 GTTN.NONE              00 000 000 000:  GT Test Number
 GTET.sec               00 000 000 000:  GT Elapsed Test Time
 GTTVD.m                00 000 000 000:  GT True Vertical Depth
#Other Information
#
#WARRANTY: Halliburton will use its best efforts to furnish customers with 
#accurate information and interpretations that are part of, and incident to, the services 
#provided.  However, Halliburton cannot and does not warrant the accuracy 
#or correctness of such information and interpretations.  Under no circumstances should any 
#such information or interpretation be relied upon as the sole basis for any drilling, 
#completion, production, or financial decision or any procedure involving any risk to the 
#safety of any drilling venture, drilling rig or its crew or any other third party.  The 
#Customer has full responsibility for all drilling, completion and production operation.  
#Halliburton makes no representations or warranties, either expressed or 
#implied, including, but not limited to, the implied warranties of merchantability or fitness 
#for a particular purpose, with respect to the services rendered.  In no event will 
#Halliburton be liable for failure to obtain any particular results or for 
#any damages, including, but not limited to, indirect, special or consequential damages, 
#resulting from the use of any information or interpretation provided by Halliburton.
#
~A           TIME           GTDEPTH  GTPQH  GTTQ  GTTN   GTET   GTTVD  
# ...
   09:51:09.435.19-Jul-2021 4477.00 3534.15 70.44 21.00 203.47 2682.68
   09:51:09.635.19-Jul-2021 4477.00 3534.15 70.44 21.00 203.67 2682.68
   09:51:09.835.19-Jul-2021 4477.00 3534.13 70.44 21.00 203.88 2682.68
   09:51:10.035.19-Jul-2021 4477.00 3534.14 70.44 21.00 204.08 2682.68
   09:51:10.235.19-Jul-2021 4477.00 3534.14 70.44 21.00 204.28 2682.68
   09:51:10.435.19-Jul-2021 4477.00 3533.99 70.44 21.00 204.48 2682.68
   09:51:10.635.19-Jul-2021 4477.00 3534.09 70.44 21.00 204.68 2682.68
   09:51:10.835.19-Jul-2021 4477.00 3534.18 70.44 21.00 204.88 2682.68
   09:51:11.035.19-Jul-2021 4477.00 3534.13 70.44 21.00 205.08 2682.68
   09:51:11.235.19-Jul-2021 4477.00 3534.13 70.44 21.00 205.28 2682.68
   09:51:11.435.19-Jul-2021 4477.00 3534.15 70.44 21.00 205.48 2682.68
   09:51:11.635.19-Jul-2021 4477.00 3534.12 70.44 21.00 205.68 2682.68
   09:51:11.835.19-Jul-2021 4477.00 3534.11 70.44 21.00 205.88 2682.68
   09:51:12.036.19-Jul-2021 4477.00 3534.14 70.44 21.00 206.08 2682.68
   09:51:12.236.19-Jul-2021 4477.00 3534.14 70.44 21.00 206.28 2682.68
   09:51:12.436.19-Jul-2021 4477.00 3534.15 70.44 21.00 206.48 2682.68
   09:51:12.636.19-Jul-2021 4477.00 3534.12 70.44 21.00 206.68 2682.68
   09:51:12.836.19-Jul-2021 4477.00 3534.07 70.44 21.00 206.88 2682.68
   09:51:13.036.19-Jul-2021 4477.00 3534.26 70.44 21.00 207.08 2682.68
   09:51:13.236.19-Jul-2021 4477.00 3534.26 70.44 21.00 207.28 2682.68
   09:51:13.436.19-Jul-2021 4477.00 3534.23 70.44 21.00 207.48 2682.68
   09:51:13.636.19-Jul-2021 4477.00 3534.23 70.44 21.00 207.68 2682.68
   09:51:13.836.19-Jul-2021 4477.00 3534.09 70.44 21.00 207.88 2682.68
   09:51:14.036.19-Jul-2021 4477.00 3534.11 70.44 21.00 208.08 2682.68
   09:51:14.236.19-Jul-2021 4477.00 3534.11 70.44 21.00 208.28 2682.68
   09:51:14.436.19-Jul-2021 4477.00 3533.98 70.44 21.00 208.48 2682.68
   09:51:14.637.19-Jul-2021 4477.00 3534.25 70.44 21.00 208.68 2682.68
   09:51:14.837.19-Jul-2021 4477.00 3534.14 70.44 21.00 208.88 2682.68
   09:51:15.037.19-Jul-2021 4477.00 3534.07 70.44 21.00 209.08 2682.68
   09:51:15.237.19-Jul-2021 4477.00 3534.07 70.44 21.00 209.28 2682.68
   09:51:15.437.19-Jul-2021 4477.00 3533.94 70.44 21.00 209.48 2682.68
   09:51:15.637.19-Jul-2021 4477.00 3534.08 70.44 21.00 209.68 2682.68
   09:51:15.837.19-Jul-2021 4477.00 3534.17 70.44 21.00 209.88 2682.68
   09:51:16.037.19-Jul-2021 4477.00 3534.07 70.44 21.00 210.08 2682.68
   09:51:16.237.19-Jul-2021 4477.00 3534.07 70.44 21.00 210.28 2682.68
   09:51:16.437.19-Jul-2021 4477.00 3534.13 70.44 21.00 210.48 2682.68
   09:51:16.637.19-Jul-2021 4477.00 3534.09 70.44 21.00 210.68 2682.68
   09:51:16.837.19-Jul-2021 4477.00 3534.11 70.44 21.00 210.88 2682.68
   09:51:17.037.19-Jul-2021 4477.00 3534.13 70.44 21.00 211.08 2682.68
   09:51:17.237.19-Jul-2021 4477.00 3534.13 70.44 21.00 211.28 2682.68
   09:51:17.438.19-Jul-2021 4477.00 3534.12 70.44 21.00 211.48 2682.68
   09:51:17.638.19-Jul-2021 4477.00 3534.11 70.44 21.00 211.68 2682.68
   09:51:17.838.19-Jul-2021 4477.00 3534.14 70.44 21.00 211.88 2682.68
   09:51:18.038.19-Jul-2021 4477.00 3534.13 70.44 21.00 212.08 2682.68
   09:51:18.238.19-Jul-2021 4477.00 3534.13 70.44 21.00 212.28 2682.68
   09:51:18.438.19-Jul-2021 4477.00 3534.14 70.44 21.00 212.48 2682.68
   09:51:18.638.19-Jul-2021 4477.00 3534.11 70.44 21.00 212.68 2682.68
   09:51:18.838.19-Jul-2021 4477.00 3534.32 70.44 21.00 212.88 2682.68
   09:51:19.038.19-Jul-2021 4477.00 3533.97 70.44 21.00 213.08 2682.68
   09:51:19.238.19-Jul-2021 4477.00 3533.97 70.44 21.00 213.28 2682.68
   09:51:19.438.19-Jul-2021 4477.00 3534.18 70.44 21.00 213.48 2682.68
   09:51:19.638.19-Jul-2021 4477.00 3534.11 70.44 21.00 213.68 2682.68
   09:51:19.838.19-Jul-2021 4477.00 3534.11 70.44 21.00 213.88 2682.68
   09:51:20.039.19-Jul-2021 4477.00 3534.15 70.44 21.00 214.08 2682.68
   09:51:20.239.19-Jul-2021 4477.00 3534.15 70.44 21.00 214.28 2682.68
   09:51:20.439.19-Jul-2021 4477.00 3534.11 70.44 21.00 214.48 2682.68
   09:51:20.639.19-Jul-2021 4477.00 3534.12 70.44 21.00 214.68 2682.68
   09:51:20.839.19-Jul-2021 4477.00 3534.14 70.44 21.00 214.88 2682.68
   09:51:21.039.19-Jul-2021 4477.00 3534.11 70.44 21.00 215.08 2682.68
   09:51:21.239.19-Jul-2021 4477.00 3534.11 70.44 21.00 215.28 2682.68
   09:51:21.439.19-Jul-2021 4477.00 3534.09 70.44 21.00 215.48 2682.68
   09:51:21.639.19-Jul-2021 4477.00 3534.27 70.44 21.00 215.68 2682.68
   09:51:21.839.19-Jul-2021 4477.00 3533.94 70.44 21.00 215.88 2682.68
   09:51:22.039.19-Jul-2021 4477.00 3534.25 70.44 21.00 216.08 2682.68
   09:51:22.239.19-Jul-2021 4477.00 3534.25 70.44 21.00 216.28 2682.68
   09:51:22.439.19-Jul-2021 4477.00 3534.09 70.44 21.00 216.48 2682.68
   09:51:22.639.19-Jul-2021 4477.00 3534.11 70.44 21.00 216.68 2682.68
   09:51:22.840.19-Jul-2021 4477.00 3534.22 70.44 21.00 216.88 2682.68
   09:51:23.040.19-Jul-2021 4477.00 3533.97 70.44 21.00 217.08 2682.68
   09:51:23.240.19-Jul-2021 4477.00 3533.97 70.44 21.00 217.28 2682.68
   09:51:23.440.19-Jul-2021 4477.00 3534.11 70.44 21.00 217.48 2682.68
   09:51:23.640.19-Jul-2021 4477.00 3534.08 70.44 21.00 217.68 2682.68
   09:51:23.840.19-Jul-2021 4477.00 3534.30 70.44 21.00 217.88 2682.68
   09:51:24.040.19-Jul-2021 4477.00 3533.96 70.44 21.00 218.08 2682.68
   09:51:24.240.19-Jul-2021 4477.00 3533.96 70.44 21.00 218.28 2682.68
   09:51:24.440.19-Jul-2021 4477.00 3534.17 70.44 21.00 218.48 2682.68
   09:51:24.640.19-Jul-2021 4477.00 3534.07 70.44 21.00 218.68 2682.68
   09:51:24.840.19-Jul-2021 4477.00 3534.21 70.44 21.00 218.88 2682.68
   09:51:25.040.19-Jul-2021 4477.00 3534.14 70.44 21.00 219.08 2682.68
   09:51:25.240.19-Jul-2021 4477.00 3534.14 70.44 21.00 219.28 2682.68
   09:51:25.440.19-Jul-2021 4477.00 3534.11 70.44 21.00 219.48 2682.68
   09:51:25.641.19-Jul-2021 4477.00 3534.11 70.44 21.00 219.68 2682.68
   09:51:25.841.19-Jul-2021 4477.00 3534.13 70.44 21.00 219.88 2682.68
   09:51:26.041.19-Jul-2021 4477.00 3534.13 70.44 21.00 220.08 2682.68
   09:51:26.241.19-Jul-2021 4477.00 3534.13 70.44 21.00 220.28 2682.68
   09:51:26.441.19-Jul-2021 4477.00 3534.10 70.44 21.00 220.48 2682.68
   09:51:26.641.19-Jul-2021 4477.00 3534.13 70.44 21.00 220.68 2682.68
   09:51:26.841.19-Jul-2021 4477.00 3534.13 70.44 21.00 220.88 2682.68
   09:51:27.041.19-Jul-2021 4477.00 3534.14 70.44 21.00 221.08 2682.68
   09:51:27.241.19-Jul-2021 4477.00 3534.14 70.44 21.00 221.28 2682.68
   09:51:27.441.19-Jul-2021 4477.00 3534.30 70.44 21.00 221.48 2682.68
   09:51:27.641.19-Jul-2021 4477.00 3533.96 70.44 21.00 221.68 2682.68
   09:51:27.841.19-Jul-2021 4477.00 3534.07 70.44 21.00 221.88 2682.68
   09:51:28.041.19-Jul-2021 4477.00 3534.18 70.44 21.00 222.08 2682.68
   09:51:28.242.19-Jul-2021 4477.00 3534.18 70.44 21.00 222.28 2682.68
   09:51:28.442.19-Jul-2021 4477.00 3534.11 70.44 21.00 222.48 2682.68
   09:51:28.642.19-Jul-2021 4477.00 3534.14 70.44 21.00 222.68 2682.68
   09:51:28.842.19-Jul-2021 4477.00 3534.11 70.44 21.00 222.88 2682.68
   09:51:29.042.19-Jul-2021 4477.00 3534.12 70.44 21.00 223.08 2682.68
   09:51:29.242.19-Jul-2021 4477.00 3534.12 70.44 21.00 223.28 2682.68
   09:51:29.442.19-Jul-2021 4477.00 3534.13 70.44 21.00 223.48 2682.68
   09:51:29.642.19-Jul-2021 4477.00 3534.11 70.44 21.00 223.68 2682.68
   09:51:29.842.19-Jul-2021 4477.00 3534.13 70.44 21.00 223.88 2682.68
   09:51:30.042.19-Jul-2021 4477.00 3534.06 70.44 21.00 224.08 2682.68
   09:51:30.242.19-Jul-2021 4477.00 3534.06 70.44 21.00 224.28 2682.68
   09:51:30.442.19-Jul-2021 4477.00 3533.96 70.44 21.00 224.48 2682.68
   09:51:30.642.19-Jul-2021 4477.00 3534.21 70.44 21.00 224.68 2682.68
   09:51:30.842.19-Jul-2021 4477.00 3534.18 70.44 21.00 224.88 2682.68
   09:51:31.043.19-Jul-2021 4477.00 3534.12 70.44 21.00 225.08 2682.68
   09:51:31.243.19-Jul-2021 4477.00 3534.12 70.44 21.00 225.28 2682.68
   09:51:31.443.19-Jul-2021 4477.00 3534.23 70.44 21.00 225.48 2682.68
   09:51:31.643.19-Jul-2021 4477.00 3533.97 70.44 21.00 225.68 2682.68
   09:51:31.843.19-Jul-2021 4477.00 3534.25 70.44 21.00 225.88 2682.68
