~Version Information
 VERS.                  2.0:   CWLS log ASCII Standard -VERSION 2.0
 WRAP.                   NO:   One line per depth step
~Well Information Block
#MNEM.UNIT     VALUE/NAME     DESCRIPTION
#---------     -----------    ---------------------------
 STRT.S             14:45:19 18-Jul-21: START TIME 14:45:19 18-Jul-21
 STOP.S             14:51:50 18-Jul-21: STOP TIME  14:51:50 18-Jul-21
 STEP.S                   0.00: STEP TIME
 NULL.                 -999.25: NULL VALUE
 MDS .        Operator Entered:  MAG DATA SOURCE
 PDAT.          Mean Sea Level:  PERMANENT DATUM
 UNIT.                     N/A:  LOGGING EQUIPMENT ID
 DCON.         Sperry Drilling:  DIRECTNL CONTR
 DOE .                     N/A:  DOE NUMBER
 RIG .              West Azeri:  RIG NAME
 JOBN.        AZ-XX-0906997913:  JOB TICKET NUMB
 WELL.                     C41:  WELL NAME
 MWDS.                    Baku:  MWD SHOP
 SRVC.          Turan Drilling:  CONTRACTOR
 FLD .                     ACG:  FIELD NAME
 CTRY.              Azerbaijan:  COUNTRY NAME
 PROV.                    Baku:  PROVINCE
 STAT.                    Baku:  STATE NAME
 REGN.                   EESSA:  REGION
 BASE.              Azerbaijan:  LOGGING EQUIPMENT BASE LOCATION
 UWI .                     N/A:  UNIQUE WELL IDENTIFIER
 API .                     N/A:  API NUMBER
 COMP.     BP Exploration (Caspian Sea) Ltd.:  COMPANY
 WTYP.                Deviated:  WELL TYPE
 SON .        AZ-XX-0906997913:  JOB NUMBER
 FTOP.          Formation Tops:  FORM TOPS DESC
 ILTD.               Lithology:  INTERP LTH DESC
 SVYD.                  Survey:  SURVEY DESC
 DMOD.             Drill Model:  DRILL MOD DESC
 HPTY.       Minimum Curvature:  HOLE POS TYPE
 NREF.                    Grid:  NORTH REFERENCE
 SPUD.               16-May-21:  SPUD DATE
 DATE.      21.11.28 17-May-21:  END TIME
 STIM.      21.11.28 17-May-21:  START TIME
 DMF .             Drill Floor:  DRILL MEAS FROM
 DFST.                        :  DIST FSL TEXT
 DFWT.                        :  DIST FWL TEXT
 CNTY.                        :  COUNTY
 LOC .                        :  LOCATION
 LMF .             Drill Floor:  LOG MEASURED FROM
 AGAP.m                  43.42:  AIR GAP
 VSNS.m                  -2.16:  VERT SEC N/S
 VSEW.m                  -6.24:  VERT SEC E/W
 APD .m                  43.42:  DEPTH ABOVE PD
 WDMS.m                 118.27:  WD ELEV
 EGL .m                   0.00:  GROUND ELEVATION
 EPD .m                   0.00:  ELEVATION
 AZTC.deg                 6.29:  AZM TOTAL CORR
 GRDC.deg                 0.18:  GRID CORRECTION
 MDEC.deg                 6.47:  MAGNETIC DECL
 MDIP.deg                59.54:  MAGNETIC DIP
 MFLD.nT              50337.00:  MAGNETIC FIELD
 GVFD.g                   1.00:  GRAVITY FIELD
 VSDR.deg               226.99:  VERT SEC DIRECT
 TDD .m                   0.00:  TOTAL DEPTH (DRILLER)
 SDEP.m                 448.00:  START DEPTH
 DFSL.m                   0.00:  DISTANCE FSL
 DFWL.m                   0.00:  DISTANCE FWL
 UTMY.m             4435799.96:  UTM Y
 UTMX.m              526265.35:  UTM X
 WHEW.m                  -6.24:  WELL HEAD E/W
 WHNS.m                  -2.16:  WELL HEAD N/S
 LONG.deg                51.31:  LONGITUDE
 LATI.deg                40.06:  LATITUDE
 TVDS.m                  43.42:  TVDSS CORRECTN
 EKB .m                  43.42:  KB ELEVATION
 EDF .m                  43.42:  DF ELEVATION
 TDL .m                 288.00:  TOTAL DEPTH (LOGGER)
 MAGU.                 1851863:  MAGUTM CHECKSUM
 VSC .                       0:  VS TO CLOSURE
~Parameter Information Block
#MNEM.UNIT       Value        Description
#---------     -----------    ---------------------------
 AV  .mps                 0.40:  Ann Velocity 
 AVMX.mps                 0.63:  Max Ann Veloc 
 AZIF.deg               158.76:  Azm, Final 
 BHAT.        Rotary Steerable:  BHA Type 
 BROT.°/30m               0.68:  Build Rotating 
 BS  .in                  8.50:  Bit Size 
 BSZ .in                  8.50:  Bit Size 
 BTPL.psig              712.00:  Bit Press Loss 
 CABU.                      No:  Customer Abuse 
 TCS .hr                 90.66:  Time Ciculation Ended 
 CV  .mps                 2.02:  Crit Velocity 
 CVMX.mps                 2.14:  Max Crit Veloc 
 DD1 .            Aziz Aliyevu:  Direct Drillr 1 
 DD2 .             Samir Abbas:  Direct Drillr 2 
 DD3 .           Teymur Aliyev:  Direct Drillr 3 
 DDSV.                 iCruise:  DD Service 
 DEFF.%                  85.10:  % Det Eff 
 DLRX.°/30m               1.05:  Dogleg Rot Max 
 DLSO.°/30m               1.01:  Dogleg Oriented 
 DLSX.°/30m               1.05:  Dogleg Str Max 
 DRET.      07.45.00 18-Jul-21:  Drill End Time 
 DRST.      15.00.00 16-Jul-21:  Drill Start Tim 
 DTIM.hr                 23.46:  Time Drilling 
 EDEP.m                4603.00:  End Depth 
 ENG1.       Seymur Iskandarov:  Engineer 1 
 ENG2.         Yevgeniy Ulikov:  Engineer 2 
 ENG3.         Bahruz Mehdiyev:  Engineer 3 
 ENG4.         Elchin Mammadov:  Engineer 4 
 ETIM.      14.00.00 23-Jul-21:  End Time 
 FLOI.gpm               500.00:  Flow In 
 FLON.gpm               450.00:  Flow In Min 
 FLOS.cptm                0.00:  Fluid Loss 
 FLOX.gpm               560.00:  Flow In Max 
 DFT .        Mineral Oil Base:  Mud Type 
 FTRO.       Formation Presure:  FTWD Run Obj 
 HFLO.                      No:  High Flow 
 HPRE.                      No:  High Pressure 
 HTEM.                      No:  High Temp 
 HYDO.m                   1.80:  Hydro Offset 
 IFIN.deg                40.22:  Inc, Final 
 IMAX.deg                40.54:  Inc Max 
 IMIN.deg                39.44:  Inc Min 
 IMND.m                4361.17:  Inc Min Depth 
 IMXD.m                4417.92:  Inc Max Depth 
 JARR.                      No:  Jarring 
 LETM.      07.45.00 18-Jul-21:  Log End Time 
 LOST.hr                    16:  Lost Rig Time 
 LSTM.      15.00.00 16-Jul-21:  Log Start Time 
 MDCL.ppm             36500.00:  Mud Chlorides 
 MDES.     Inversion Oil/Synthetic:  Mud Desc 
 DFD .sg                  1.42:  Mud Density 
 MDMN.sg                  1.42:  Dens Mud Min 
 MDMX.sg                  1.43:  Dens Mud Max 
 MOIL.                      56:  Run Mud Oil % 
 MOWR.                   71:29:  Run Mud OWR 
 MSND.                     0.5:  Run Mud Sand % 
 MSOL.                      21:  Run Mud Solids% 
 DFV .spqt               78.00:  Mud Viscosity 
 MWOD.in                  6.75:  MWD Tool OD 
 MWSI.                     Yes:  Serv Intrp, MWD 
 OTIM.hr                200.73:  Time Operating 
 PCON.           Look Like New:  Pad Condition 
 PMAX.psia            11069.93:  Press Op, Max 
 PV  .cP                 32.00:  Mud PV 
 RUN .                     700:  Run Number 
 ROPA.m/hr               10.00:  ROP Avg 
 ROPN.m/hr                9.00:  ROP Min 
 ROPX.m/hr               16.00:  ROP Max 
 RPMA.rpm               116.00:  RPM Surface Avg 
 RPMN.rpm                80.00:  RPM Surface Min 
 RPMX.rpm               120.00:  RPM Surface Max 
 RRUN.                    L605:  Rig Run Number 
 RTIM.hr                 45.00:  Time Reaming 
 SAZI.deg               159.86:  Azm, Start 
 SDEP.m                4315.00:  Start Depth 
 SIDD.                      No:  Serv Intrp, DD 
 SINC.deg                39.86:  Inc, Start 
 SPPA.psig             3300.00:  SPP Avg 
 SPPN.psig             3040.00:  SPP Min 
 SPPX.psig             3645.00:  SPP Max 
 STIM.      01.00.00 15-Jul-21:  Start Time 
 SVCS.                 DD, MWD:  Services 
 SVER.                    9.20:  Sperry Version 
 TDAT.m                 288.00:  Tot Depth Attmp 
 TDDF.                      No:  Trip for DD 
 TDLG.m                 288.00:  Tot Depth Loggd 
 TFF .                      No:  Trip for Fail 
 TQAA.f-kp               19.00:  Torque Abs Avg 
 TQAN.f-kp               18.00:  Torque Abs Min 
 TQAX.f-kp               21.00:  Torque Abs Max 
 TRRT.°/30m               0.45:  Turn Rotating 
 MRT .                    HCIM:  Maximum Recorded Temperature 
 TTMX.degC               88.24:  Max Tool Temp 
 VS01.                90649157:  Virtual Str1 SN 
 VS02.                90652483:  Virtual Str2 SN 
 VS03.                11671987:  Virtual Str3 SN 
 VS04.                90643411:  Virtual Str4 SN 
 VS05.                90652478:  Virtual Str5 SN 
 VS06.                    6111:  Virtual Str6 SN 
 WBMN.klb                 9.50:  WOB Min 
 WITN.        Grigoriy Sarayev:  Customer Rep 
 WITN.          Rufat Huseynov:  Customer Rep 2 
 WOBA.klb                11.00:  WOB Avg 
 WOBX.klb                15.00:  WOB Max 
 YP  .lhf2               28.00:  Yield Point 
~Curve Information Block
#MNEM.UNIT                 API CODE     Curve Description
#---------               -----------    ---------------------------
 TIME.HHMMSS            00 000 000 000:  GT Time & Date
 GTDEPTH.m              00 000 000 000:  GT Depth
 GTPQH.psia             00 000 000 000:  GT HR Quartz Pressure
 GTTQ.degC              00 000 000 000:  GT Quartz Temperature
 GTTN.NONE              00 000 000 000:  GT Test Number
 GTET.sec               00 000 000 000:  GT Elapsed Test Time
 GTTVD.m                00 000 000 000:  GT True Vertical Depth
#Other Information
#
#WARRANTY: Halliburton will use its best efforts to furnish customers with 
#accurate information and interpretations that are part of, and incident to, the services 
#provided.  However, Halliburton cannot and does not warrant the accuracy 
#or correctness of such information and interpretations.  Under no circumstances should any 
#such information or interpretation be relied upon as the sole basis for any drilling, 
#completion, production, or financial decision or any procedure involving any risk to the 
#safety of any drilling venture, drilling rig or its crew or any other third party.  The 
#Customer has full responsibility for all drilling, completion and production operation.  
#Halliburton makes no representations or warranties, either expressed or 
#implied, including, but not limited to, the implied warranties of merchantability or fitness 
#for a particular purpose, with respect to the services rendered.  In no event will 
#Halliburton be liable for failure to obtain any particular results or for 
#any damages, including, but not limited to, indirect, special or consequential damages, 
#resulting from the use of any information or interpretation provided by Halliburton.
#
~A           TIME           GTDEPTH  GTPQH  GTTQ  GTTN  GTET   GTTVD  
# ...
   14:46:05.737.18-Jul-2021 4553.00 6614.51 75.29 5.00  46.02 2740.81
   14:46:05.937.18-Jul-2021 4553.00 6614.51 75.29 5.00  46.22 2740.81
   14:46:06.137.18-Jul-2021 4553.00 6615.85 75.29 5.00  46.42 2740.81
   14:46:06.337.18-Jul-2021 4553.00 6616.55 75.29 5.00  46.62 2740.81
   14:46:06.538.18-Jul-2021 4553.00 6615.85 75.29 5.00  46.82 2740.81
   14:46:06.738.18-Jul-2021 4553.00 6619.64 75.29 5.00  47.02 2740.81
   14:46:06.938.18-Jul-2021 4553.00 6619.64 75.29 5.00  47.22 2740.81
   14:46:07.138.18-Jul-2021 4553.00 6615.57 75.29 5.00  47.42 2740.81
   14:46:07.338.18-Jul-2021 4553.00 6615.47 75.29 5.00  47.62 2740.81
   14:46:07.538.18-Jul-2021 4553.00 6617.28 75.29 5.00  47.82 2740.81
   14:46:07.738.18-Jul-2021 4553.00 6617.30 75.29 5.00  48.02 2740.81
   14:46:07.938.18-Jul-2021 4553.00 6617.30 75.29 5.00  48.22 2740.81
   14:46:08.138.18-Jul-2021 4553.00 6620.36 75.29 5.00  48.42 2740.81
   14:46:08.338.18-Jul-2021 4553.00 6618.64 75.29 5.00  48.62 2740.81
   14:46:08.538.18-Jul-2021 4553.00 6617.95 75.29 5.00  48.82 2740.81
   14:46:08.738.18-Jul-2021 4553.00 6617.92 75.29 5.00  49.02 2740.81
   14:46:08.938.18-Jul-2021 4553.00 6617.92 75.29 5.00  49.22 2740.81
   14:46:09.138.18-Jul-2021 4553.00 6620.77 75.29 5.00  49.42 2740.81
   14:46:09.339.18-Jul-2021 4553.00 6620.10 75.29 5.00  49.62 2740.81
   14:46:09.539.18-Jul-2021 4553.00 6617.61 75.29 5.00  49.82 2740.81
   14:46:09.739.18-Jul-2021 4553.00 6618.55 75.29 5.00  50.02 2740.81
   14:46:09.939.18-Jul-2021 4553.00 6618.55 75.29 5.00  50.22 2740.81
   14:46:10.139.18-Jul-2021 4553.00 6617.60 75.29 5.00  50.42 2740.81
   14:46:10.339.18-Jul-2021 4553.00 6617.39 75.29 5.00  50.62 2740.81
   14:46:10.539.18-Jul-2021 4553.00 6617.45 75.29 5.00  50.82 2740.81
   14:46:10.739.18-Jul-2021 4553.00 6617.19 75.29 5.00  51.02 2740.81
   14:46:10.939.18-Jul-2021 4553.00 6617.19 75.29 5.00  51.22 2740.81
   14:46:11.139.18-Jul-2021 4553.00 6616.90 75.29 5.00  51.42 2740.81
   14:46:11.339.18-Jul-2021 4553.00 6617.10 75.29 5.00  51.62 2740.81
   14:46:11.539.18-Jul-2021 4553.00 6617.06 75.29 5.00  51.82 2740.81
   14:46:11.739.18-Jul-2021 4553.00 6617.06 75.29 5.00  52.02 2740.81
   14:46:11.940.18-Jul-2021 4553.00 6617.06 75.29 5.00  52.22 2740.81
   14:46:12.140.18-Jul-2021 4553.00 6620.01 75.29 5.00  52.42 2740.81
   14:46:12.340.18-Jul-2021 4553.00 6617.00 75.29 5.00  52.62 2740.81
   14:46:12.540.18-Jul-2021 4553.00 6617.40 75.29 5.00  52.82 2740.81
   14:46:12.740.18-Jul-2021 4553.00 6617.27 75.29 5.00  53.02 2740.81
   14:46:12.940.18-Jul-2021 4553.00 6617.27 75.29 5.00  53.22 2740.81
   14:46:13.140.18-Jul-2021 4553.00 6617.00 75.29 5.00  53.42 2740.81
   14:46:13.340.18-Jul-2021 4553.00 6616.83 75.29 5.00  53.62 2740.81
   14:46:13.540.18-Jul-2021 4553.00 6615.74 75.29 5.00  53.82 2740.81
   14:46:13.740.18-Jul-2021 4553.00 6615.62 75.29 5.00  54.02 2740.81
   14:46:13.940.18-Jul-2021 4553.00 6615.62 75.29 5.00  54.22 2740.81
   14:46:14.140.18-Jul-2021 4553.00 6616.06 75.29 5.00  54.42 2740.81
   14:46:14.340.18-Jul-2021 4553.00 6615.71 75.29 5.00  54.62 2740.81
   14:46:14.540.18-Jul-2021 4553.00 6614.67 75.29 5.00  54.82 2740.81
   14:46:14.741.18-Jul-2021 4553.00 6617.71 75.29 5.00  55.02 2740.81
   14:46:14.941.18-Jul-2021 4553.00 6617.71 75.29 5.00  55.22 2740.81
   14:46:15.141.18-Jul-2021 4553.00 6616.13 75.29 5.00  55.42 2740.81
   14:46:15.341.18-Jul-2021 4553.00 6619.25 75.29 5.00  55.62 2740.81
   14:46:15.541.18-Jul-2021 4553.00 6616.37 75.29 5.00  55.82 2740.81
   14:46:15.741.18-Jul-2021 4553.00 6617.38 75.29 5.00  56.02 2740.81
   14:46:15.941.18-Jul-2021 4553.00 6617.38 75.29 5.00  56.22 2740.81
   14:46:16.141.18-Jul-2021 4553.00 6618.86 75.29 5.00  56.42 2740.81
   14:46:16.341.18-Jul-2021 4553.00 6617.54 75.29 5.00  56.62 2740.81
   14:46:16.541.18-Jul-2021 4553.00 6617.27 75.29 5.00  56.82 2740.81
   14:46:16.741.18-Jul-2021 4553.00 6617.09 75.29 5.00  57.02 2740.81
   14:46:16.941.18-Jul-2021 4553.00 6617.09 75.29 5.00  57.22 2740.81
   14:46:17.141.18-Jul-2021 4553.00 6617.57 75.29 5.00  57.42 2740.81
   14:46:17.341.18-Jul-2021 4553.00 6620.04 75.29 5.00  57.62 2740.81
   14:46:17.542.18-Jul-2021 4553.00 6619.04 75.29 5.00  57.82 2740.81
   14:46:17.742.18-Jul-2021 4553.00 6619.53 75.29 5.00  58.02 2740.81
   14:46:17.942.18-Jul-2021 4553.00 6619.53 75.29 5.00  58.22 2740.81
   14:46:18.142.18-Jul-2021 4553.00 6621.53 75.29 5.00  58.42 2740.81
   14:46:18.342.18-Jul-2021 4553.00 6622.00 75.29 5.00  58.62 2740.81
   14:46:18.542.18-Jul-2021 4553.00 6621.76 75.29 5.00  58.82 2740.81
   14:46:18.742.18-Jul-2021 4553.00 6621.41 75.29 5.00  59.02 2740.81
   14:46:18.942.18-Jul-2021 4553.00 6621.41 75.29 5.00  59.22 2740.81
   14:46:19.142.18-Jul-2021 4553.00 6621.06 75.29 5.00  59.42 2740.81
   14:46:19.342.18-Jul-2021 4553.00 6621.12 75.29 5.00  59.62 2740.81
   14:46:19.542.18-Jul-2021 4553.00 6621.04 75.29 5.00  59.82 2740.81
   14:46:19.742.18-Jul-2021 4553.00 6621.11 75.29 5.00  60.02 2740.81
   14:46:19.942.18-Jul-2021 4553.00 6621.11 75.29 5.00  60.22 2740.81
   14:46:20.143.18-Jul-2021 4553.00 6621.11 75.29 5.00  60.42 2740.81
   14:46:20.343.18-Jul-2021 4553.00 6621.32 75.29 5.00  60.62 2740.81
   14:46:20.543.18-Jul-2021 4553.00 6620.73 75.29 5.00  60.82 2740.81
   14:46:20.743.18-Jul-2021 4553.00 6623.94 75.29 5.00  61.02 2740.81
   14:46:20.943.18-Jul-2021 4553.00 6623.94 75.29 5.00  61.22 2740.81
   14:46:21.143.18-Jul-2021 4553.00 6621.80 75.29 5.00  61.42 2740.81
   14:46:21.343.18-Jul-2021 4553.00 6621.83 75.29 5.00  61.62 2740.81
   14:46:21.543.18-Jul-2021 4553.00 6620.96 75.29 5.00  61.82 2740.81
   14:46:21.743.18-Jul-2021 4553.00 6620.75 75.29 5.00  62.02 2740.81
   14:46:21.943.18-Jul-2021 4553.00 6620.75 75.29 5.00  62.22 2740.81
   14:46:22.143.18-Jul-2021 4553.00 6620.51 75.29 5.00  62.42 2740.81
   14:46:22.343.18-Jul-2021 4553.00 6620.62 75.29 5.00  62.62 2740.81
   14:46:22.543.18-Jul-2021 4553.00 6620.31 75.29 5.00  62.82 2740.81
   14:46:22.743.18-Jul-2021 4553.00 6620.42 75.29 5.00  63.02 2740.81
   14:46:22.944.18-Jul-2021 4553.00 6620.42 75.29 5.00  63.22 2740.81
   14:46:23.144.18-Jul-2021 4553.00 6619.36 75.29 5.00  63.42 2740.81
   14:46:23.344.18-Jul-2021 4553.00 6622.96 75.29 5.00  63.62 2740.81
   14:46:23.544.18-Jul-2021 4553.00 6622.02 75.29 5.00  63.82 2740.81
   14:46:23.744.18-Jul-2021 4553.00 6621.29 75.29 5.00  64.02 2740.81
   14:46:23.944.18-Jul-2021 4553.00 6621.29 75.29 5.00  64.22 2740.81
   14:46:24.144.18-Jul-2021 4553.00 6623.53 75.29 5.00  64.42 2740.81
   14:46:24.344.18-Jul-2021 4553.00 6623.20 75.29 5.00  64.62 2740.81
   14:46:24.544.18-Jul-2021 4553.00 6623.10 75.29 5.00  64.82 2740.81
   14:46:24.744.18-Jul-2021 4553.00 6623.13 75.29 5.00  65.02 2740.81
   14:46:24.944.18-Jul-2021 4553.00 6623.13 75.29 5.00  65.22 2740.81
   14:46:25.144.18-Jul-2021 4553.00 6622.12 75.29 5.00  65.42 2740.81
   14:46:25.344.18-Jul-2021 4553.00 6623.11 75.29 5.00  65.62 2740.81
   14:46:25.545.18-Jul-2021 4553.00 6622.67 75.29 5.00  65.82 2740.81
   14:46:25.745.18-Jul-2021 4553.00 6623.01 75.29 5.00  66.02 2740.81
   14:46:25.945.18-Jul-2021 4553.00 6623.01 75.29 5.00  66.22 2740.81
   14:46:26.145.18-Jul-2021 4553.00 6622.80 75.29 5.00  66.42 2740.81
   14:46:26.345.18-Jul-2021 4553.00 6623.25 75.29 5.00  66.62 2740.81
   14:46:26.545.18-Jul-2021 4553.00 6623.08 75.29 5.00  66.82 2740.81
   14:46:26.745.18-Jul-2021 4553.00 6624.13 75.29 5.00  67.02 2740.81
   14:46:26.945.18-Jul-2021 4553.00 6624.13 75.29 5.00  67.22 2740.81
   14:46:27.145.18-Jul-2021 4553.00 6622.15 75.29 5.00  67.42 2740.81
   14:46:27.345.18-Jul-2021 4553.00 6621.76 75.29 5.00  67.62 2740.81
   14:46:27.545.18-Jul-2021 4553.00 6621.42 75.29 5.00  67.82 2740.81
   14:46:27.745.18-Jul-2021 4553.00 6621.03 75.29 5.00  68.03 2740.81
   14:46:27.945.18-Jul-2021 4553.00 6621.03 75.29 5.00  68.23 2740.81
   14:46:28.145.18-Jul-2021 4553.00 6621.19 75.29 5.00  68.43 2740.81
   14:46:28.346.18-Jul-2021 4553.00 6621.23 75.29 5.00  68.63 2740.81
   14:46:28.546.18-Jul-2021 4553.00 6621.13 75.28 5.00  68.83 2740.81
