~Version Information
 VERS.                  2.0:   CWLS log ASCII Standard -VERSION 2.0
 WRAP.                   NO:   One line per depth step
~Well Information Block
#MNEM.UNIT     VALUE/NAME     DESCRIPTION
#---------     -----------    ---------------------------
 STRT.S             07:37:07 19-Jul-21: START TIME 07:37:07 19-Jul-21
 STOP.S             07:44:01 19-Jul-21: STOP TIME  07:44:01 19-Jul-21
 STEP.S                   0.00: STEP TIME
 NULL.                 -999.25: NULL VALUE
 MDS .        Operator Entered:  MAG DATA SOURCE
 PDAT.          Mean Sea Level:  PERMANENT DATUM
 UNIT.                     N/A:  LOGGING EQUIPMENT ID
 DCON.         Sperry Drilling:  DIRECTNL CONTR
 DOE .                     N/A:  DOE NUMBER
 RIG .              West Azeri:  RIG NAME
 JOBN.        AZ-XX-0906997913:  JOB TICKET NUMB
 WELL.                     C41:  WELL NAME
 MWDS.                    Baku:  MWD SHOP
 SRVC.          Turan Drilling:  CONTRACTOR
 FLD .                     ACG:  FIELD NAME
 CTRY.              Azerbaijan:  COUNTRY NAME
 PROV.                    Baku:  PROVINCE
 STAT.                    Baku:  STATE NAME
 REGN.                   EESSA:  REGION
 BASE.              Azerbaijan:  LOGGING EQUIPMENT BASE LOCATION
 UWI .                     N/A:  UNIQUE WELL IDENTIFIER
 API .                     N/A:  API NUMBER
 COMP.     BP Exploration (Caspian Sea) Ltd.:  COMPANY
 WTYP.                Deviated:  WELL TYPE
 SON .        AZ-XX-0906997913:  JOB NUMBER
 FTOP.          Formation Tops:  FORM TOPS DESC
 ILTD.               Lithology:  INTERP LTH DESC
 SVYD.                  Survey:  SURVEY DESC
 DMOD.             Drill Model:  DRILL MOD DESC
 HPTY.       Minimum Curvature:  HOLE POS TYPE
 NREF.                    Grid:  NORTH REFERENCE
 SPUD.               16-May-21:  SPUD DATE
 DATE.      21.11.28 17-May-21:  END TIME
 STIM.      21.11.28 17-May-21:  START TIME
 DMF .             Drill Floor:  DRILL MEAS FROM
 DFST.                        :  DIST FSL TEXT
 DFWT.                        :  DIST FWL TEXT
 CNTY.                        :  COUNTY
 LOC .                        :  LOCATION
 LMF .             Drill Floor:  LOG MEASURED FROM
 AGAP.m                  43.42:  AIR GAP
 VSNS.m                  -2.16:  VERT SEC N/S
 VSEW.m                  -6.24:  VERT SEC E/W
 APD .m                  43.42:  DEPTH ABOVE PD
 WDMS.m                 118.27:  WD ELEV
 EGL .m                   0.00:  GROUND ELEVATION
 EPD .m                   0.00:  ELEVATION
 AZTC.deg                 6.29:  AZM TOTAL CORR
 GRDC.deg                 0.18:  GRID CORRECTION
 MDEC.deg                 6.47:  MAGNETIC DECL
 MDIP.deg                59.54:  MAGNETIC DIP
 MFLD.nT              50337.00:  MAGNETIC FIELD
 GVFD.g                   1.00:  GRAVITY FIELD
 VSDR.deg               226.99:  VERT SEC DIRECT
 TDD .m                   0.00:  TOTAL DEPTH (DRILLER)
 SDEP.m                 448.00:  START DEPTH
 DFSL.m                   0.00:  DISTANCE FSL
 DFWL.m                   0.00:  DISTANCE FWL
 UTMY.m             4435799.96:  UTM Y
 UTMX.m              526265.35:  UTM X
 WHEW.m                  -6.24:  WELL HEAD E/W
 WHNS.m                  -2.16:  WELL HEAD N/S
 LONG.deg                51.31:  LONGITUDE
 LATI.deg                40.06:  LATITUDE
 TVDS.m                  43.42:  TVDSS CORRECTN
 EKB .m                  43.42:  KB ELEVATION
 EDF .m                  43.42:  DF ELEVATION
 TDL .m                 288.00:  TOTAL DEPTH (LOGGER)
 MAGU.                 1851863:  MAGUTM CHECKSUM
 VSC .                       0:  VS TO CLOSURE
~Parameter Information Block
#MNEM.UNIT       Value        Description
#---------     -----------    ---------------------------
 AV  .mps                 0.40:  Ann Velocity 
 AVMX.mps                 0.63:  Max Ann Veloc 
 AZIF.deg               158.76:  Azm, Final 
 BHAT.        Rotary Steerable:  BHA Type 
 BROT.°/30m               0.68:  Build Rotating 
 BS  .in                  8.50:  Bit Size 
 BSZ .in                  8.50:  Bit Size 
 BTPL.psig              712.00:  Bit Press Loss 
 CABU.                      No:  Customer Abuse 
 COMM.                     ÌT{:  Run Comments 1 
 TCS .hr                 90.66:  Time Ciculation Ended 
 CV  .mps                 2.02:  Crit Velocity 
 CVMX.mps                 2.14:  Max Crit Veloc 
 DD1 .            Aziz Aliyevu:  Direct Drillr 1 
 DD2 .             Samir Abbas:  Direct Drillr 2 
 DD3 .           Teymur Aliyev:  Direct Drillr 3 
 DDSV.                 iCruise:  DD Service 
 DEFF.%                  85.10:  % Det Eff 
 DLRX.°/30m               1.05:  Dogleg Rot Max 
 DLSO.°/30m               1.01:  Dogleg Oriented 
 DLSX.°/30m               1.05:  Dogleg Str Max 
 DRET.      07.45.00 18-Jul-21:  Drill End Time 
 DRST.      15.00.00 16-Jul-21:  Drill Start Tim 
 DTIM.hr                 23.46:  Time Drilling 
 EDEP.m                4603.00:  End Depth 
 ENG1.       Seymur Iskandarov:  Engineer 1 
 ENG2.         Yevgeniy Ulikov:  Engineer 2 
 ENG3.         Bahruz Mehdiyev:  Engineer 3 
 ENG4.         Elchin Mammadov:  Engineer 4 
 ETIM.      14.00.00 23-Jul-21:  End Time 
 FLOI.gpm               500.00:  Flow In 
 FLON.gpm               450.00:  Flow In Min 
 FLOS.cptm                0.00:  Fluid Loss 
 FLOX.gpm               560.00:  Flow In Max 
 DFT .        Mineral Oil Base:  Mud Type 
 FTRO.       Formation Presure:  FTWD Run Obj 
 HFLO.                      No:  High Flow 
 HPRE.                      No:  High Pressure 
 HTEM.                      No:  High Temp 
 HYDO.m                   1.80:  Hydro Offset 
 IFIN.deg                40.22:  Inc, Final 
 IMAX.deg                40.54:  Inc Max 
 IMIN.deg                39.44:  Inc Min 
 IMND.m                4361.17:  Inc Min Depth 
 IMXD.m                4417.92:  Inc Max Depth 
 JARR.                      No:  Jarring 
 LETM.      07.45.00 18-Jul-21:  Log End Time 
 LOST.hr                    16:  Lost Rig Time 
 LSTM.      15.00.00 16-Jul-21:  Log Start Time 
 MDCL.ppm             36500.00:  Mud Chlorides 
 MDES.     Inversion Oil/Synthetic:  Mud Desc 
 DFD .sg                  1.42:  Mud Density 
 MDMN.sg                  1.42:  Dens Mud Min 
 MDMX.sg                  1.43:  Dens Mud Max 
 MOIL.                      56:  Run Mud Oil % 
 MOWR.                   71:29:  Run Mud OWR 
 MSND.                     0.5:  Run Mud Sand % 
 MSOL.                      21:  Run Mud Solids% 
 DFV .spqt               78.00:  Mud Viscosity 
 MWOD.in                  6.75:  MWD Tool OD 
 MWSI.                     Yes:  Serv Intrp, MWD 
 OTIM.hr                200.73:  Time Operating 
 PCON.           Look Like New:  Pad Condition 
 PMAX.psia            11069.93:  Press Op, Max 
 PV  .cP                 32.00:  Mud PV 
 RUN .                     700:  Run Number 
 ROPA.m/hr               10.00:  ROP Avg 
 ROPN.m/hr                9.00:  ROP Min 
 ROPX.m/hr               16.00:  ROP Max 
 RPMA.rpm               116.00:  RPM Surface Avg 
 RPMN.rpm                80.00:  RPM Surface Min 
 RPMX.rpm               120.00:  RPM Surface Max 
 RRUN.                    L605:  Rig Run Number 
 RTIM.hr                 45.00:  Time Reaming 
 SAZI.deg               159.86:  Azm, Start 
 SDEP.m                4315.00:  Start Depth 
 SIDD.                      No:  Serv Intrp, DD 
 SINC.deg                39.86:  Inc, Start 
 SPPA.psig             3300.00:  SPP Avg 
 SPPN.psig             3040.00:  SPP Min 
 SPPX.psig             3645.00:  SPP Max 
 STIM.      01.00.00 15-Jul-21:  Start Time 
 SVCS.                 DD, MWD:  Services 
 SVER.                    9.20:  Sperry Version 
 TDAT.m                 288.00:  Tot Depth Attmp 
 TDDF.                      No:  Trip for DD 
 TDLG.m                 288.00:  Tot Depth Loggd 
 TFF .                      No:  Trip for Fail 
 TQAA.f-kp               19.00:  Torque Abs Avg 
 TQAN.f-kp               18.00:  Torque Abs Min 
 TQAX.f-kp               21.00:  Torque Abs Max 
 TRRT.°/30m               0.45:  Turn Rotating 
 MRT .                    HCIM:  Maximum Recorded Temperature 
 TTMX.degC               88.24:  Max Tool Temp 
 VS01.                90649157:  Virtual Str1 SN 
 VS02.                90652483:  Virtual Str2 SN 
 VS03.                11671987:  Virtual Str3 SN 
 VS04.                90643411:  Virtual Str4 SN 
 VS05.                90652478:  Virtual Str5 SN 
 VS06.                    6111:  Virtual Str6 SN 
 WBMN.klb                 9.50:  WOB Min 
 WITN.        Grigoriy Sarayev:  Customer Rep 
 WITN.          Rufat Huseynov:  Customer Rep 2 
 WOBA.klb                11.00:  WOB Avg 
 WOBX.klb                15.00:  WOB Max 
 YP  .lhf2               28.00:  Yield Point 
~Curve Information Block
#MNEM.UNIT                 API CODE     Curve Description
#---------               -----------    ---------------------------
 TIME.HHMMSS            00 000 000 000:  GT Time & Date
 GTDEPTH.m              00 000 000 000:  GT Depth
 GTPQH.psia             00 000 000 000:  GT HR Quartz Pressure
 GTTQ.degC              00 000 000 000:  GT Quartz Temperature
 GTTN.NONE              00 000 000 000:  GT Test Number
 GTET.sec               00 000 000 000:  GT Elapsed Test Time
 GTTVD.m                00 000 000 000:  GT True Vertical Depth
#Other Information
#
#WARRANTY: Halliburton will use its best efforts to furnish customers with 
#accurate information and interpretations that are part of, and incident to, the services 
#provided.  However, Halliburton cannot and does not warrant the accuracy 
#or correctness of such information and interpretations.  Under no circumstances should any 
#such information or interpretation be relied upon as the sole basis for any drilling, 
#completion, production, or financial decision or any procedure involving any risk to the 
#safety of any drilling venture, drilling rig or its crew or any other third party.  The 
#Customer has full responsibility for all drilling, completion and production operation.  
#Halliburton makes no representations or warranties, either expressed or 
#implied, including, but not limited to, the implied warranties of merchantability or fitness 
#for a particular purpose, with respect to the services rendered.  In no event will 
#Halliburton be liable for failure to obtain any particular results or for 
#any damages, including, but not limited to, indirect, special or consequential damages, 
#resulting from the use of any information or interpretation provided by Halliburton.
#
~A           TIME           GTDEPTH  GTPQH  GTTQ  GTTN   GTET   GTTVD  
# ...
   07:42:46.198.19-Jul-2021 4415.50 3903.05 69.97 16.00 339.12 2635.75
   07:42:46.398.19-Jul-2021 4415.50 3903.05 69.97 16.00 339.32 2635.75
   07:42:46.598.19-Jul-2021 4415.50 3902.89 69.97 16.00 339.53 2635.75
   07:42:46.798.19-Jul-2021 4415.50 3902.74 69.97 16.00 339.73 2635.75
   07:42:46.998.19-Jul-2021 4415.50 3902.99 69.97 16.00 339.93 2635.75
   07:42:47.199.19-Jul-2021 4415.50 3902.84 69.97 16.00 340.13 2635.75
   07:42:47.399.19-Jul-2021 4415.50 3902.84 69.97 16.00 340.33 2635.75
   07:42:47.599.19-Jul-2021 4415.50 3902.98 69.97 16.00 340.53 2635.75
   07:42:47.799.19-Jul-2021 4415.50 3902.71 69.97 16.00 340.73 2635.75
   07:42:47.999.19-Jul-2021 4415.50 3902.83 69.97 16.00 340.93 2635.75
   07:42:48.199.19-Jul-2021 4415.50 3902.34 69.97 16.00 341.13 2635.75
   07:42:48.399.19-Jul-2021 4415.50 3902.34 69.97 16.00 341.33 2635.75
   07:42:48.599.19-Jul-2021 4415.50 3902.98 69.97 16.00 341.53 2635.75
   07:42:48.799.19-Jul-2021 4415.50 3902.15 69.97 16.00 341.73 2635.75
   07:42:48.999.19-Jul-2021 4415.50 3903.02 69.97 16.00 341.93 2635.75
   07:42:49.199.19-Jul-2021 4415.50 3902.51 69.97 16.00 342.13 2635.75
   07:42:49.399.19-Jul-2021 4415.50 3902.51 69.97 16.00 342.33 2635.75
   07:42:49.599.19-Jul-2021 4415.50 3902.36 69.97 16.00 342.53 2635.75
   07:42:49.800.19-Jul-2021 4415.50 3903.20 69.97 16.00 342.73 2635.75
   07:42:50.000.19-Jul-2021 4415.50 3902.44 69.97 16.00 342.93 2635.75
   07:42:50.200.19-Jul-2021 4415.50 3903.04 69.97 16.00 343.13 2635.75
   07:42:50.400.19-Jul-2021 4415.50 3903.04 69.97 16.00 343.33 2635.75
   07:42:50.600.19-Jul-2021 4415.50 3902.56 69.97 16.00 343.53 2635.75
   07:42:50.800.19-Jul-2021 4415.50 3902.84 69.97 16.00 343.73 2635.75
   07:42:51.000.19-Jul-2021 4415.50 3902.89 69.97 16.00 343.93 2635.75
   07:42:51.200.19-Jul-2021 4415.50 3902.69 69.97 16.00 344.13 2635.75
   07:42:51.400.19-Jul-2021 4415.50 3902.69 69.97 16.00 344.33 2635.75
   07:42:51.600.19-Jul-2021 4415.50 3903.02 69.97 16.00 344.53 2635.75
   07:42:51.800.19-Jul-2021 4415.50 3903.10 69.98 16.00 344.73 2635.75
   07:42:52.000.19-Jul-2021 4415.50 3902.58 69.97 16.00 344.93 2635.75
   07:42:52.200.19-Jul-2021 4415.50 3902.74 69.98 16.00 345.13 2635.75
   07:42:52.400.19-Jul-2021 4415.50 3902.74 69.98 16.00 345.33 2635.75
   07:42:52.601.19-Jul-2021 4415.50 3902.92 69.98 16.00 345.53 2635.75
   07:42:52.801.19-Jul-2021 4415.50 3902.98 69.98 16.00 345.73 2635.75
   07:42:53.001.19-Jul-2021 4415.50 3902.92 69.98 16.00 345.93 2635.75
   07:42:53.201.19-Jul-2021 4415.50 3902.87 69.98 16.00 346.13 2635.75
   07:42:53.401.19-Jul-2021 4415.50 3902.87 69.98 16.00 346.33 2635.75
   07:42:53.601.19-Jul-2021 4415.50 3902.91 69.98 16.00 346.53 2635.75
   07:42:53.801.19-Jul-2021 4415.50 3902.86 69.98 16.00 346.73 2635.75
   07:42:54.001.19-Jul-2021 4415.50 3902.74 69.98 16.00 346.93 2635.75
   07:42:54.201.19-Jul-2021 4415.50 3902.92 69.98 16.00 347.13 2635.75
   07:42:54.401.19-Jul-2021 4415.50 3902.92 69.98 16.00 347.33 2635.75
   07:42:54.601.19-Jul-2021 4415.50 3902.52 69.98 16.00 347.53 2635.75
   07:42:54.801.19-Jul-2021 4415.50 3902.64 69.98 16.00 347.73 2635.75
   07:42:55.001.19-Jul-2021 4415.50 3902.71 69.98 16.00 347.93 2635.75
   07:42:55.202.19-Jul-2021 4415.50 3902.76 69.98 16.00 348.13 2635.75
   07:42:55.402.19-Jul-2021 4415.50 3902.76 69.98 16.00 348.33 2635.75
   07:42:55.602.19-Jul-2021 4415.50 3902.81 69.98 16.00 348.53 2635.75
   07:42:55.802.19-Jul-2021 4415.50 3902.79 69.98 16.00 348.73 2635.75
   07:42:56.002.19-Jul-2021 4415.50 3902.93 69.98 16.00 348.93 2635.75
   07:42:56.202.19-Jul-2021 4415.50 3902.83 69.98 16.00 349.13 2635.75
   07:42:56.402.19-Jul-2021 4415.50 3902.83 69.98 16.00 349.33 2635.75
   07:42:56.602.19-Jul-2021 4415.50 3902.84 69.98 16.00 349.53 2635.75
   07:42:56.802.19-Jul-2021 4415.50 3902.03 69.98 16.00 349.73 2635.75
   07:42:57.002.19-Jul-2021 4415.50 3903.05 69.98 16.00 349.93 2635.75
   07:42:57.202.19-Jul-2021 4415.50 3902.26 69.98 16.00 350.13 2635.75
   07:42:57.402.19-Jul-2021 4415.50 3902.26 69.98 16.00 350.33 2635.75
   07:42:57.602.19-Jul-2021 4415.50 3902.83 69.98 16.00 350.53 2635.75
   07:42:57.802.19-Jul-2021 4415.50 3902.78 69.98 16.00 350.73 2635.75
   07:42:58.003.19-Jul-2021 4415.50 3902.55 69.98 16.00 350.93 2635.75
   07:42:58.203.19-Jul-2021 4415.50 3902.28 69.98 16.00 351.13 2635.75
   07:42:58.403.19-Jul-2021 4415.50 3902.28 69.98 16.00 351.33 2635.75
   07:42:58.603.19-Jul-2021 4415.50 3902.74 69.98 16.00 351.53 2635.75
   07:42:58.803.19-Jul-2021 4415.50 3902.90 69.98 16.00 351.73 2635.75
   07:42:59.003.19-Jul-2021 4415.50 3902.11 69.98 16.00 351.93 2635.75
   07:42:59.203.19-Jul-2021 4415.50 3903.17 69.98 16.00 352.13 2635.75
   07:42:59.403.19-Jul-2021 4415.50 3903.17 69.98 16.00 352.33 2635.75
   07:42:59.603.19-Jul-2021 4415.50 3902.69 69.98 16.00 352.53 2635.75
   07:42:59.803.19-Jul-2021 4415.50 3902.50 69.98 16.00 352.73 2635.75
   07:43:00.003.19-Jul-2021 4415.50 3902.26 69.98 16.00 352.93 2635.75
   07:43:00.203.19-Jul-2021 4415.50 3903.02 69.98 16.00 353.13 2635.75
   07:43:00.403.19-Jul-2021 4415.50 3903.02 69.98 16.00 353.33 2635.75
   07:43:00.603.19-Jul-2021 4415.50 3902.95 69.98 16.00 353.53 2635.75
   07:43:00.804.19-Jul-2021 4415.50 3902.83 69.98 16.00 353.73 2635.75
   07:43:01.004.19-Jul-2021 4415.50 3902.99 69.98 16.00 353.93 2635.75
   07:43:01.204.19-Jul-2021 4415.50 3902.97 69.98 16.00 354.13 2635.75
   07:43:01.404.19-Jul-2021 4415.50 3902.97 69.98 16.00 354.33 2635.75
   07:43:01.604.19-Jul-2021 4415.50 3902.93 69.98 16.00 354.53 2635.75
   07:43:01.804.19-Jul-2021 4415.50 3903.00 69.98 16.00 354.73 2635.75
   07:43:02.004.19-Jul-2021 4415.50 3902.95 69.98 16.00 354.93 2635.75
   07:43:02.204.19-Jul-2021 4415.50 3902.94 69.98 16.00 355.13 2635.75
   07:43:02.404.19-Jul-2021 4415.50 3902.94 69.98 16.00 355.33 2635.75
   07:43:02.604.19-Jul-2021 4415.50 3902.72 69.98 16.00 355.53 2635.75
   07:43:02.804.19-Jul-2021 4415.50 3902.92 69.98 16.00 355.73 2635.75
   07:43:03.004.19-Jul-2021 4415.50 3902.30 69.98 16.00 355.93 2635.75
   07:43:03.204.19-Jul-2021 4415.50 3902.83 69.98 16.00 356.13 2635.75
   07:43:03.405.19-Jul-2021 4415.50 3902.83 69.98 16.00 356.33 2635.75
   07:43:03.605.19-Jul-2021 4415.50 3902.83 69.98 16.00 356.53 2635.75
   07:43:03.805.19-Jul-2021 4415.50 3902.91 69.98 16.00 356.73 2635.75
   07:43:04.005.19-Jul-2021 4415.50 3902.69 69.98 16.00 356.93 2635.75
   07:43:04.205.19-Jul-2021 4415.50 3900.79 69.98 16.00 357.13 2635.75
   07:43:04.405.19-Jul-2021 4415.50 3900.79 69.98 16.00 357.33 2635.75
   07:43:04.605.19-Jul-2021 4415.50 4055.68 69.98 16.00 357.53 2635.75
   07:43:04.805.19-Jul-2021 4415.50 5159.58 69.98 16.00 357.73 2635.75
   07:43:05.005.19-Jul-2021 4415.50 6405.25 69.98 16.00 357.93 2635.75
   07:43:05.205.19-Jul-2021 4415.50 6400.72 69.98 16.00 358.13 2635.75
   07:43:05.405.19-Jul-2021 4415.50 6400.72 69.98 16.00 358.33 2635.75
   07:43:05.605.19-Jul-2021 4415.50 6426.12 69.98 16.00 358.53 2635.75
   07:43:05.805.19-Jul-2021 4415.50 6407.55 69.98 16.00 358.73 2635.75
   07:43:06.005.19-Jul-2021 4415.50 6426.01 69.98 16.00 358.93 2635.75
   07:43:06.206.19-Jul-2021 4415.50 6420.97 69.99 16.00 359.13 2635.75
   07:43:06.406.19-Jul-2021 4415.50 6420.97 69.99 16.00 359.33 2635.75
   07:43:06.606.19-Jul-2021 4415.50 6406.64 69.99 16.00 359.53 2635.75
   07:43:06.806.19-Jul-2021 4415.50 6423.44 69.99 16.00 359.73 2635.75
   07:43:07.006.19-Jul-2021 4415.50 6422.21 69.99 16.00 359.93 2635.75
   07:43:07.206.19-Jul-2021 4415.50 6412.69 69.99 16.00 360.13 2635.75
   07:43:07.406.19-Jul-2021 4415.50 6412.69 69.99 16.00 360.33 2635.75
   07:43:07.606.19-Jul-2021 4415.50 6438.36 69.99 16.00 360.53 2635.75
   07:43:07.806.19-Jul-2021 4415.50 6418.06 70.00 16.00 360.73 2635.75
   07:43:08.006.19-Jul-2021 4415.50 6418.58 70.00 16.00 360.93 2635.75
   07:43:08.206.19-Jul-2021 4415.50 6415.62 70.00 16.00 361.13 2635.75
   07:43:08.406.19-Jul-2021 4415.50 6415.62 70.00 16.00 361.33 2635.75
   07:43:08.606.19-Jul-2021 4415.50 6421.31 70.00 16.00 361.53 2635.75
