~Version Information
 VERS.                  2.0:   CWLS log ASCII Standard -VERSION 2.0
 WRAP.                   NO:   One line per depth step
~Well Information Block
#MNEM.UNIT     VALUE/NAME     DESCRIPTION
#---------     -----------    ---------------------------
 STRT.S             12:46:21 18-Jul-21: START TIME 12:46:21 18-Jul-21
 STOP.S             12:52:54 18-Jul-21: STOP TIME  12:52:54 18-Jul-21
 STEP.S                   0.00: STEP TIME
 NULL.                 -999.25: NULL VALUE
 MDS .        Operator Entered:  MAG DATA SOURCE
 PDAT.          Mean Sea Level:  PERMANENT DATUM
 UNIT.                     N/A:  LOGGING EQUIPMENT ID
 DCON.         Sperry Drilling:  DIRECTNL CONTR
 DOE .                     N/A:  DOE NUMBER
 RIG .              West Azeri:  RIG NAME
 JOBN.        AZ-XX-0906997913:  JOB TICKET NUMB
 WELL.                     C41:  WELL NAME
 MWDS.                    Baku:  MWD SHOP
 SRVC.          Turan Drilling:  CONTRACTOR
 FLD .                     ACG:  FIELD NAME
 CTRY.              Azerbaijan:  COUNTRY NAME
 PROV.                    Baku:  PROVINCE
 STAT.                    Baku:  STATE NAME
 REGN.                   EESSA:  REGION
 BASE.              Azerbaijan:  LOGGING EQUIPMENT BASE LOCATION
 UWI .                     N/A:  UNIQUE WELL IDENTIFIER
 API .                     N/A:  API NUMBER
 COMP.     BP Exploration (Caspian Sea) Ltd.:  COMPANY
 WTYP.                Deviated:  WELL TYPE
 SON .        AZ-XX-0906997913:  JOB NUMBER
 FTOP.          Formation Tops:  FORM TOPS DESC
 ILTD.               Lithology:  INTERP LTH DESC
 SVYD.                  Survey:  SURVEY DESC
 DMOD.             Drill Model:  DRILL MOD DESC
 HPTY.       Minimum Curvature:  HOLE POS TYPE
 NREF.                    Grid:  NORTH REFERENCE
 SPUD.               16-May-21:  SPUD DATE
 DATE.      21.11.28 17-May-21:  END TIME
 STIM.      21.11.28 17-May-21:  START TIME
 DMF .             Drill Floor:  DRILL MEAS FROM
 DFST.                        :  DIST FSL TEXT
 DFWT.                        :  DIST FWL TEXT
 CNTY.                        :  COUNTY
 LOC .                        :  LOCATION
 LMF .             Drill Floor:  LOG MEASURED FROM
 AGAP.m                  43.42:  AIR GAP
 VSNS.m                  -2.16:  VERT SEC N/S
 VSEW.m                  -6.24:  VERT SEC E/W
 APD .m                  43.42:  DEPTH ABOVE PD
 WDMS.m                 118.27:  WD ELEV
 EGL .m                   0.00:  GROUND ELEVATION
 EPD .m                   0.00:  ELEVATION
 AZTC.deg                 6.29:  AZM TOTAL CORR
 GRDC.deg                 0.18:  GRID CORRECTION
 MDEC.deg                 6.47:  MAGNETIC DECL
 MDIP.deg                59.54:  MAGNETIC DIP
 MFLD.nT              50337.00:  MAGNETIC FIELD
 GVFD.g                   1.00:  GRAVITY FIELD
 VSDR.deg               226.99:  VERT SEC DIRECT
 TDD .m                   0.00:  TOTAL DEPTH (DRILLER)
 SDEP.m                 448.00:  START DEPTH
 DFSL.m                   0.00:  DISTANCE FSL
 DFWL.m                   0.00:  DISTANCE FWL
 UTMY.m             4435799.96:  UTM Y
 UTMX.m              526265.35:  UTM X
 WHEW.m                  -6.24:  WELL HEAD E/W
 WHNS.m                  -2.16:  WELL HEAD N/S
 LONG.deg                51.31:  LONGITUDE
 LATI.deg                40.06:  LATITUDE
 TVDS.m                  43.42:  TVDSS CORRECTN
 EKB .m                  43.42:  KB ELEVATION
 EDF .m                  43.42:  DF ELEVATION
 TDL .m                 288.00:  TOTAL DEPTH (LOGGER)
 MAGU.                 1851863:  MAGUTM CHECKSUM
 VSC .                       0:  VS TO CLOSURE
~Parameter Information Block
#MNEM.UNIT       Value        Description
#---------     -----------    ---------------------------
 AV  .mps                 0.40:  Ann Velocity 
 AVMX.mps                 0.63:  Max Ann Veloc 
 AZIF.deg               158.76:  Azm, Final 
 BHAT.        Rotary Steerable:  BHA Type 
 BROT.°/30m               0.68:  Build Rotating 
 BS  .in                  8.50:  Bit Size 
 BSZ .in                  8.50:  Bit Size 
 BTPL.psig              712.00:  Bit Press Loss 
 CABU.                      No:  Customer Abuse 
 COMM.                     üëZ:  Run Comments 1 
 TCS .hr                 90.66:  Time Ciculation Ended 
 CV  .mps                 2.02:  Crit Velocity 
 CVMX.mps                 2.14:  Max Crit Veloc 
 DD1 .            Aziz Aliyevu:  Direct Drillr 1 
 DD2 .             Samir Abbas:  Direct Drillr 2 
 DD3 .           Teymur Aliyev:  Direct Drillr 3 
 DDSV.                 iCruise:  DD Service 
 DEFF.%                  85.10:  % Det Eff 
 DLRX.°/30m               1.05:  Dogleg Rot Max 
 DLSO.°/30m               1.01:  Dogleg Oriented 
 DLSX.°/30m               1.05:  Dogleg Str Max 
 DRET.      07.45.00 18-Jul-21:  Drill End Time 
 DRST.      15.00.00 16-Jul-21:  Drill Start Tim 
 DTIM.hr                 23.46:  Time Drilling 
 EDEP.m                4603.00:  End Depth 
 ENG1.       Seymur Iskandarov:  Engineer 1 
 ENG2.         Yevgeniy Ulikov:  Engineer 2 
 ENG3.         Bahruz Mehdiyev:  Engineer 3 
 ENG4.         Elchin Mammadov:  Engineer 4 
 ETIM.      14.00.00 23-Jul-21:  End Time 
 FLOI.gpm               500.00:  Flow In 
 FLON.gpm               450.00:  Flow In Min 
 FLOS.cptm                0.00:  Fluid Loss 
 FLOX.gpm               560.00:  Flow In Max 
 DFT .        Mineral Oil Base:  Mud Type 
 FTRO.       Formation Presure:  FTWD Run Obj 
 HFLO.                      No:  High Flow 
 HPRE.                      No:  High Pressure 
 HTEM.                      No:  High Temp 
 HYDO.m                   1.80:  Hydro Offset 
 IFIN.deg                40.22:  Inc, Final 
 IMAX.deg                40.54:  Inc Max 
 IMIN.deg                39.44:  Inc Min 
 IMND.m                4361.17:  Inc Min Depth 
 IMXD.m                4417.92:  Inc Max Depth 
 JARR.                      No:  Jarring 
 LETM.      07.45.00 18-Jul-21:  Log End Time 
 LOST.hr                    16:  Lost Rig Time 
 LSTM.      15.00.00 16-Jul-21:  Log Start Time 
 MDCL.ppm             36500.00:  Mud Chlorides 
 MDES.     Inversion Oil/Synthetic:  Mud Desc 
 DFD .sg                  1.42:  Mud Density 
 MDMN.sg                  1.42:  Dens Mud Min 
 MDMX.sg                  1.43:  Dens Mud Max 
 MOIL.                      56:  Run Mud Oil % 
 MOWR.                   71:29:  Run Mud OWR 
 MSND.                     0.5:  Run Mud Sand % 
 MSOL.                      21:  Run Mud Solids% 
 DFV .spqt               78.00:  Mud Viscosity 
 MWOD.in                  6.75:  MWD Tool OD 
 MWSI.                     Yes:  Serv Intrp, MWD 
 OTIM.hr                200.73:  Time Operating 
 PCON.           Look Like New:  Pad Condition 
 PMAX.psia            11069.93:  Press Op, Max 
 PV  .cP                 32.00:  Mud PV 
 RUN .                     700:  Run Number 
 ROPA.m/hr               10.00:  ROP Avg 
 ROPN.m/hr                9.00:  ROP Min 
 ROPX.m/hr               16.00:  ROP Max 
 RPMA.rpm               116.00:  RPM Surface Avg 
 RPMN.rpm                80.00:  RPM Surface Min 
 RPMX.rpm               120.00:  RPM Surface Max 
 RRUN.                    L605:  Rig Run Number 
 RTIM.hr                 45.00:  Time Reaming 
 SAZI.deg               159.86:  Azm, Start 
 SDEP.m                4315.00:  Start Depth 
 SIDD.                      No:  Serv Intrp, DD 
 SINC.deg                39.86:  Inc, Start 
 SPPA.psig             3300.00:  SPP Avg 
 SPPN.psig             3040.00:  SPP Min 
 SPPX.psig             3645.00:  SPP Max 
 STIM.      01.00.00 15-Jul-21:  Start Time 
 SVCS.                 DD, MWD:  Services 
 SVER.                    9.20:  Sperry Version 
 TDAT.m                 288.00:  Tot Depth Attmp 
 TDDF.                      No:  Trip for DD 
 TDLG.m                 288.00:  Tot Depth Loggd 
 TFF .                      No:  Trip for Fail 
 TQAA.f-kp               19.00:  Torque Abs Avg 
 TQAN.f-kp               18.00:  Torque Abs Min 
 TQAX.f-kp               21.00:  Torque Abs Max 
 TRRT.°/30m               0.45:  Turn Rotating 
 MRT .                    HCIM:  Maximum Recorded Temperature 
 TTMX.degC               88.24:  Max Tool Temp 
 VS01.                90649157:  Virtual Str1 SN 
 VS02.                90652483:  Virtual Str2 SN 
 VS03.                11671987:  Virtual Str3 SN 
 VS04.                90643411:  Virtual Str4 SN 
 VS05.                90652478:  Virtual Str5 SN 
 VS06.                    6111:  Virtual Str6 SN 
 WBMN.klb                 9.50:  WOB Min 
 WITN.        Grigoriy Sarayev:  Customer Rep 
 WITN.          Rufat Huseynov:  Customer Rep 2 
 WOBA.klb                11.00:  WOB Avg 
 WOBX.klb                15.00:  WOB Max 
 YP  .lhf2               28.00:  Yield Point 
~Curve Information Block
#MNEM.UNIT                 API CODE     Curve Description
#---------               -----------    ---------------------------
 TIME.HHMMSS            00 000 000 000:  GT Time & Date
 GTDEPTH.m              00 000 000 000:  GT Depth
 GTPQH.psia             00 000 000 000:  GT HR Quartz Pressure
 GTTQ.degC              00 000 000 000:  GT Quartz Temperature
 GTTN.NONE              00 000 000 000:  GT Test Number
 GTET.sec               00 000 000 000:  GT Elapsed Test Time
 GTTVD.m                00 000 000 000:  GT True Vertical Depth
#Other Information
#
#WARRANTY: Halliburton will use its best efforts to furnish customers with 
#accurate information and interpretations that are part of, and incident to, the services 
#provided.  However, Halliburton cannot and does not warrant the accuracy 
#or correctness of such information and interpretations.  Under no circumstances should any 
#such information or interpretation be relied upon as the sole basis for any drilling, 
#completion, production, or financial decision or any procedure involving any risk to the 
#safety of any drilling venture, drilling rig or its crew or any other third party.  The 
#Customer has full responsibility for all drilling, completion and production operation.  
#Halliburton makes no representations or warranties, either expressed or 
#implied, including, but not limited to, the implied warranties of merchantability or fitness 
#for a particular purpose, with respect to the services rendered.  In no event will 
#Halliburton be liable for failure to obtain any particular results or for 
#any damages, including, but not limited to, indirect, special or consequential damages, 
#resulting from the use of any information or interpretation provided by Halliburton.
#
~A           TIME           GTDEPTH  GTPQH  GTTQ  GTTN  GTET   GTTVD  
# ...
   12:49:02.151.18-Jul-2021 4561.50 6685.78 76.52 1.00 161.06 2747.31
   12:49:02.351.18-Jul-2021 4561.50 6685.78 76.52 1.00 161.26 2747.31
   12:49:02.551.18-Jul-2021 4561.50 6687.56 76.52 1.00 161.46 2747.31
   12:49:02.751.18-Jul-2021 4561.50 6679.93 76.52 1.00 161.66 2747.31
   12:49:02.951.18-Jul-2021 4561.50 6675.68 76.52 1.00 161.86 2747.31
   12:49:03.151.18-Jul-2021 4561.50 6679.16 76.52 1.00 162.06 2747.31
   12:49:03.352.18-Jul-2021 4561.50 6679.16 76.52 1.00 162.26 2747.31
   12:49:03.552.18-Jul-2021 4561.50 6678.19 76.52 1.00 162.46 2747.31
   12:49:03.752.18-Jul-2021 4561.50 6677.30 76.52 1.00 162.66 2747.31
   12:49:03.952.18-Jul-2021 4561.50 6677.09 76.52 1.00 162.86 2747.31
   12:49:04.152.18-Jul-2021 4561.50 6676.12 76.52 1.00 163.06 2747.31
   12:49:04.352.18-Jul-2021 4561.50 6676.12 76.52 1.00 163.26 2747.31
   12:49:04.552.18-Jul-2021 4561.50 6677.82 76.52 1.00 163.46 2747.31
   12:49:04.752.18-Jul-2021 4561.50 6673.98 76.52 1.00 163.66 2747.31
   12:49:04.952.18-Jul-2021 4561.50 6678.70 76.52 1.00 163.86 2747.31
   12:49:05.152.18-Jul-2021 4561.50 6675.83 76.52 1.00 164.06 2747.31
   12:49:05.352.18-Jul-2021 4561.50 6675.83 76.52 1.00 164.26 2747.31
   12:49:05.552.18-Jul-2021 4561.50 6674.46 76.52 1.00 164.46 2747.31
   12:49:05.752.18-Jul-2021 4561.50 6675.19 76.52 1.00 164.66 2747.31
   12:49:05.952.18-Jul-2021 4561.50 6674.63 76.52 1.00 164.86 2747.31
   12:49:06.153.18-Jul-2021 4561.50 6678.04 76.52 1.00 165.06 2747.31
   12:49:06.353.18-Jul-2021 4561.50 6678.04 76.52 1.00 165.26 2747.31
   12:49:06.553.18-Jul-2021 4561.50 6675.20 76.52 1.00 165.46 2747.31
   12:49:06.753.18-Jul-2021 4561.50 6678.11 76.52 1.00 165.66 2747.31
   12:49:06.953.18-Jul-2021 4561.50 6677.38 76.52 1.00 165.86 2747.31
   12:49:07.153.18-Jul-2021 4561.50 6682.21 76.52 1.00 166.06 2747.31
   12:49:07.353.18-Jul-2021 4561.50 6682.21 76.52 1.00 166.26 2747.31
   12:49:07.553.18-Jul-2021 4561.50 6676.92 76.52 1.00 166.46 2747.31
   12:49:07.753.18-Jul-2021 4561.50 6677.41 76.52 1.00 166.66 2747.31
   12:49:07.953.18-Jul-2021 4561.50 6679.20 76.52 1.00 166.86 2747.31
   12:49:08.153.18-Jul-2021 4561.50 6677.71 76.52 1.00 167.06 2747.31
   12:49:08.353.18-Jul-2021 4561.50 6677.71 76.52 1.00 167.26 2747.31
   12:49:08.553.18-Jul-2021 4561.50 6676.51 76.52 1.00 167.46 2747.31
   12:49:08.753.18-Jul-2021 4561.50 6676.27 76.52 1.00 167.66 2747.31
   12:49:08.954.18-Jul-2021 4561.50 6676.04 76.52 1.00 167.86 2747.31
   12:49:09.154.18-Jul-2021 4561.50 6676.13 76.52 1.00 168.06 2747.31
   12:49:09.354.18-Jul-2021 4561.50 6676.13 76.52 1.00 168.26 2747.31
   12:49:09.554.18-Jul-2021 4561.50 6674.62 76.52 1.00 168.46 2747.31
   12:49:09.754.18-Jul-2021 4561.50 6680.81 76.52 1.00 168.66 2747.31
   12:49:09.954.18-Jul-2021 4561.50 6681.97 76.52 1.00 168.86 2747.31
   12:49:10.154.18-Jul-2021 4561.50 6674.65 76.52 1.00 169.06 2747.31
   12:49:10.354.18-Jul-2021 4561.50 6674.65 76.52 1.00 169.26 2747.31
   12:49:10.554.18-Jul-2021 4561.50 6682.15 76.52 1.00 169.46 2747.31
   12:49:10.754.18-Jul-2021 4561.50 6675.50 76.52 1.00 169.66 2747.31
   12:49:10.954.18-Jul-2021 4561.50 6685.13 76.52 1.00 169.86 2747.31
   12:49:11.154.18-Jul-2021 4561.50 6680.31 76.52 1.00 170.06 2747.31
   12:49:11.354.18-Jul-2021 4561.50 6680.31 76.52 1.00 170.26 2747.31
   12:49:11.555.18-Jul-2021 4561.50 6677.75 76.52 1.00 170.46 2747.31
   12:49:11.755.18-Jul-2021 4561.50 6684.73 76.52 1.00 170.66 2747.31
   12:49:11.955.18-Jul-2021 4561.50 6674.25 76.52 1.00 170.86 2747.31
   12:49:12.155.18-Jul-2021 4561.50 6674.20 76.52 1.00 171.06 2747.31
   12:49:12.355.18-Jul-2021 4561.50 6674.20 76.52 1.00 171.26 2747.31
   12:49:12.555.18-Jul-2021 4561.50 6678.34 76.52 1.00 171.46 2747.31
   12:49:12.755.18-Jul-2021 4561.50 6680.36 76.52 1.00 171.66 2747.31
   12:49:12.955.18-Jul-2021 4561.50 6674.55 76.52 1.00 171.86 2747.31
   12:49:13.155.18-Jul-2021 4561.50 6672.39 76.52 1.00 172.06 2747.31
   12:49:13.355.18-Jul-2021 4561.50 6672.39 76.52 1.00 172.26 2747.31
   12:49:13.555.18-Jul-2021 4561.50 6673.88 76.52 1.00 172.46 2747.31
   12:49:13.755.18-Jul-2021 4561.50 6672.37 76.51 1.00 172.66 2747.31
   12:49:13.955.18-Jul-2021 4561.50 6674.29 76.51 1.00 172.86 2747.31
   12:49:14.155.18-Jul-2021 4561.50 6673.86 76.51 1.00 173.06 2747.31
   12:49:14.356.18-Jul-2021 4561.50 6673.86 76.51 1.00 173.26 2747.31
   12:49:14.556.18-Jul-2021 4561.50 6673.82 76.51 1.00 173.46 2747.31
   12:49:14.756.18-Jul-2021 4561.50 6674.35 76.51 1.00 173.66 2747.31
   12:49:14.956.18-Jul-2021 4561.50 6671.73 76.51 1.00 173.86 2747.31
   12:49:15.156.18-Jul-2021 4561.50 6672.43 76.51 1.00 174.06 2747.31
   12:49:15.356.18-Jul-2021 4561.50 6672.43 76.51 1.00 174.26 2747.31
   12:49:15.556.18-Jul-2021 4561.50 6684.16 76.51 1.00 174.46 2747.31
   12:49:15.756.18-Jul-2021 4561.50 6674.78 76.51 1.00 174.66 2747.31
   12:49:15.956.18-Jul-2021 4561.50 6672.97 76.51 1.00 174.86 2747.31
   12:49:16.156.18-Jul-2021 4561.50 6676.29 76.51 1.00 175.06 2747.31
   12:49:16.356.18-Jul-2021 4561.50 6676.29 76.51 1.00 175.26 2747.31
   12:49:16.556.18-Jul-2021 4561.50 6673.81 76.51 1.00 175.46 2747.31
   12:49:16.756.18-Jul-2021 4561.50 6673.03 76.51 1.00 175.66 2747.31
   12:49:16.957.18-Jul-2021 4561.50 6672.92 76.51 1.00 175.86 2747.31
   12:49:17.157.18-Jul-2021 4561.50 6673.06 76.51 1.00 176.06 2747.31
   12:49:17.357.18-Jul-2021 4561.50 6673.06 76.51 1.00 176.26 2747.31
   12:49:17.557.18-Jul-2021 4561.50 6672.79 76.51 1.00 176.46 2747.31
   12:49:17.757.18-Jul-2021 4561.50 6672.13 76.51 1.00 176.67 2747.31
   12:49:17.957.18-Jul-2021 4561.50 6673.40 76.51 1.00 176.87 2747.31
   12:49:18.157.18-Jul-2021 4561.50 6682.52 76.51 1.00 177.07 2747.31
   12:49:18.357.18-Jul-2021 4561.50 6682.52 76.51 1.00 177.27 2747.31
   12:49:18.557.18-Jul-2021 4561.50 6677.08 76.51 1.00 177.47 2747.31
   12:49:18.757.18-Jul-2021 4561.50 6681.12 76.51 1.00 177.67 2747.31
   12:49:18.957.18-Jul-2021 4561.50 6670.81 76.51 1.00 177.87 2747.31
   12:49:19.157.18-Jul-2021 4561.50 6679.13 76.51 1.00 178.07 2747.31
   12:49:19.357.18-Jul-2021 4561.50 6679.13 76.51 1.00 178.27 2747.31
   12:49:19.557.18-Jul-2021 4561.50 6670.67 76.51 1.00 178.47 2747.31
   12:49:19.758.18-Jul-2021 4561.50 6671.57 76.51 1.00 178.67 2747.31
   12:49:19.958.18-Jul-2021 4561.50 6678.67 76.51 1.00 178.87 2747.31
   12:49:20.158.18-Jul-2021 4561.50 6673.52 76.51 1.00 179.07 2747.31
   12:49:20.358.18-Jul-2021 4561.50 6673.52 76.51 1.00 179.27 2747.31
   12:49:20.558.18-Jul-2021 4561.50 6672.03 76.51 1.00 179.47 2747.31
   12:49:20.758.18-Jul-2021 4561.50 6676.71 76.51 1.00 179.67 2747.31
   12:49:20.958.18-Jul-2021 4561.50 6672.01 76.51 1.00 179.87 2747.31
   12:49:21.158.18-Jul-2021 4561.50 6671.02 76.51 1.00 180.07 2747.31
   12:49:21.358.18-Jul-2021 4561.50 6671.02 76.51 1.00 180.27 2747.31
   12:49:21.558.18-Jul-2021 4561.50 6668.17 76.51 1.00 180.47 2747.31
   12:49:21.758.18-Jul-2021 4561.50 6670.06 76.51 1.00 180.67 2747.31
   12:49:21.958.18-Jul-2021 4561.50 6670.21 76.51 1.00 180.87 2747.31
   12:49:22.158.18-Jul-2021 4561.50 6670.05 76.51 1.00 181.07 2747.31
   12:49:22.359.18-Jul-2021 4561.50 6670.05 76.51 1.00 181.27 2747.31
   12:49:22.559.18-Jul-2021 4561.50 6669.51 76.51 1.00 181.47 2747.31
   12:49:22.759.18-Jul-2021 4561.50 6669.80 76.51 1.00 181.67 2747.31
   12:49:22.959.18-Jul-2021 4561.50 6670.63 76.51 1.00 181.87 2747.31
   12:49:23.159.18-Jul-2021 4561.50 6669.59 76.51 1.00 182.07 2747.31
   12:49:23.359.18-Jul-2021 4561.50 6669.59 76.51 1.00 182.27 2747.31
   12:49:23.559.18-Jul-2021 4561.50 6675.91 76.51 1.00 182.47 2747.31
   12:49:23.759.18-Jul-2021 4561.50 6678.27 76.51 1.00 182.67 2747.31
   12:49:23.959.18-Jul-2021 4561.50 6671.65 76.51 1.00 182.87 2747.31
   12:49:24.159.18-Jul-2021 4561.50 6671.78 76.51 1.00 183.07 2747.31
   12:49:24.359.18-Jul-2021 4561.50 6671.78 76.51 1.00 183.27 2747.31
   12:49:24.559.18-Jul-2021 4561.50 6670.87 76.51 1.00 183.47 2747.31
   12:49:24.759.18-Jul-2021 4561.50 6669.24 76.51 1.00 183.67 2747.31
   12:49:24.959.18-Jul-2021 4561.50 6670.18 76.51 1.00 183.87 2747.31
