~Version Information
 VERS.                  2.0:   CWLS log ASCII Standard -VERSION 2.0
 WRAP.                   NO:   One line per depth step
~Well Information Block
#MNEM.UNIT     VALUE/NAME     DESCRIPTION
#---------     -----------    ---------------------------
 STRT.S             05:02:49 19-Jul-21: START TIME 05:02:49 19-Jul-21
 STOP.S             05:09:40 19-Jul-21: STOP TIME  05:09:40 19-Jul-21
 STEP.S                   0.00: STEP TIME
 NULL.                 -999.25: NULL VALUE
 MDS .        Operator Entered:  MAG DATA SOURCE
 PDAT.          Mean Sea Level:  PERMANENT DATUM
 UNIT.                     N/A:  LOGGING EQUIPMENT ID
 DCON.         Sperry Drilling:  DIRECTNL CONTR
 DOE .                     N/A:  DOE NUMBER
 RIG .              West Azeri:  RIG NAME
 JOBN.        AZ-XX-0906997913:  JOB TICKET NUMB
 WELL.                     C41:  WELL NAME
 MWDS.                    Baku:  MWD SHOP
 SRVC.          Turan Drilling:  CONTRACTOR
 FLD .                     ACG:  FIELD NAME
 CTRY.              Azerbaijan:  COUNTRY NAME
 PROV.                    Baku:  PROVINCE
 STAT.                    Baku:  STATE NAME
 REGN.                   EESSA:  REGION
 BASE.              Azerbaijan:  LOGGING EQUIPMENT BASE LOCATION
 UWI .                     N/A:  UNIQUE WELL IDENTIFIER
 API .                     N/A:  API NUMBER
 COMP.     BP Exploration (Caspian Sea) Ltd.:  COMPANY
 WTYP.                Deviated:  WELL TYPE
 SON .        AZ-XX-0906997913:  JOB NUMBER
 FTOP.          Formation Tops:  FORM TOPS DESC
 ILTD.               Lithology:  INTERP LTH DESC
 SVYD.                  Survey:  SURVEY DESC
 DMOD.             Drill Model:  DRILL MOD DESC
 HPTY.       Minimum Curvature:  HOLE POS TYPE
 NREF.                    Grid:  NORTH REFERENCE
 SPUD.               16-May-21:  SPUD DATE
 DATE.      21.11.28 17-May-21:  END TIME
 STIM.      21.11.28 17-May-21:  START TIME
 DMF .             Drill Floor:  DRILL MEAS FROM
 DFST.                        :  DIST FSL TEXT
 DFWT.                        :  DIST FWL TEXT
 CNTY.                        :  COUNTY
 LOC .                        :  LOCATION
 LMF .             Drill Floor:  LOG MEASURED FROM
 AGAP.m                  43.42:  AIR GAP
 VSNS.m                  -2.16:  VERT SEC N/S
 VSEW.m                  -6.24:  VERT SEC E/W
 APD .m                  43.42:  DEPTH ABOVE PD
 WDMS.m                 118.27:  WD ELEV
 EGL .m                   0.00:  GROUND ELEVATION
 EPD .m                   0.00:  ELEVATION
 AZTC.deg                 6.29:  AZM TOTAL CORR
 GRDC.deg                 0.18:  GRID CORRECTION
 MDEC.deg                 6.47:  MAGNETIC DECL
 MDIP.deg                59.54:  MAGNETIC DIP
 MFLD.nT              50337.00:  MAGNETIC FIELD
 GVFD.g                   1.00:  GRAVITY FIELD
 VSDR.deg               226.99:  VERT SEC DIRECT
 TDD .m                   0.00:  TOTAL DEPTH (DRILLER)
 SDEP.m                 448.00:  START DEPTH
 DFSL.m                   0.00:  DISTANCE FSL
 DFWL.m                   0.00:  DISTANCE FWL
 UTMY.m             4435799.96:  UTM Y
 UTMX.m              526265.35:  UTM X
 WHEW.m                  -6.24:  WELL HEAD E/W
 WHNS.m                  -2.16:  WELL HEAD N/S
 LONG.deg                51.31:  LONGITUDE
 LATI.deg                40.06:  LATITUDE
 TVDS.m                  43.42:  TVDSS CORRECTN
 EKB .m                  43.42:  KB ELEVATION
 EDF .m                  43.42:  DF ELEVATION
 TDL .m                 288.00:  TOTAL DEPTH (LOGGER)
 MAGU.                 1851863:  MAGUTM CHECKSUM
 VSC .                       0:  VS TO CLOSURE
~Parameter Information Block
#MNEM.UNIT       Value        Description
#---------     -----------    ---------------------------
 AV  .mps                 0.40:  Ann Velocity 
 AVMX.mps                 0.63:  Max Ann Veloc 
 AZIF.deg               158.76:  Azm, Final 
 BHAT.        Rotary Steerable:  BHA Type 
 BROT.°/30m               0.68:  Build Rotating 
 BS  .in                  8.50:  Bit Size 
 BSZ .in                  8.50:  Bit Size 
 BTPL.psig              712.00:  Bit Press Loss 
 CABU.                      No:  Customer Abuse 
 COMM.                     'i:  Run Comments 1 
 TCS .hr                 90.66:  Time Ciculation Ended 
 CV  .mps                 2.02:  Crit Velocity 
 CVMX.mps                 2.14:  Max Crit Veloc 
 DD1 .            Aziz Aliyevu:  Direct Drillr 1 
 DD2 .             Samir Abbas:  Direct Drillr 2 
 DD3 .           Teymur Aliyev:  Direct Drillr 3 
 DDSV.                 iCruise:  DD Service 
 DEFF.%                  85.10:  % Det Eff 
 DLRX.°/30m               1.05:  Dogleg Rot Max 
 DLSO.°/30m               1.01:  Dogleg Oriented 
 DLSX.°/30m               1.05:  Dogleg Str Max 
 DRET.      07.45.00 18-Jul-21:  Drill End Time 
 DRST.      15.00.00 16-Jul-21:  Drill Start Tim 
 DTIM.hr                 23.46:  Time Drilling 
 EDEP.m                4603.00:  End Depth 
 ENG1.       Seymur Iskandarov:  Engineer 1 
 ENG2.         Yevgeniy Ulikov:  Engineer 2 
 ENG3.         Bahruz Mehdiyev:  Engineer 3 
 ENG4.         Elchin Mammadov:  Engineer 4 
 ETIM.      14.00.00 23-Jul-21:  End Time 
 FLOI.gpm               500.00:  Flow In 
 FLON.gpm               450.00:  Flow In Min 
 FLOS.cptm                0.00:  Fluid Loss 
 FLOX.gpm               560.00:  Flow In Max 
 DFT .        Mineral Oil Base:  Mud Type 
 FTRO.       Formation Presure:  FTWD Run Obj 
 HFLO.                      No:  High Flow 
 HPRE.                      No:  High Pressure 
 HTEM.                      No:  High Temp 
 HYDO.m                   1.80:  Hydro Offset 
 IFIN.deg                40.22:  Inc, Final 
 IMAX.deg                40.54:  Inc Max 
 IMIN.deg                39.44:  Inc Min 
 IMND.m                4361.17:  Inc Min Depth 
 IMXD.m                4417.92:  Inc Max Depth 
 JARR.                      No:  Jarring 
 LETM.      07.45.00 18-Jul-21:  Log End Time 
 LOST.hr                    16:  Lost Rig Time 
 LSTM.      15.00.00 16-Jul-21:  Log Start Time 
 MDCL.ppm             36500.00:  Mud Chlorides 
 MDES.     Inversion Oil/Synthetic:  Mud Desc 
 DFD .sg                  1.42:  Mud Density 
 MDMN.sg                  1.42:  Dens Mud Min 
 MDMX.sg                  1.43:  Dens Mud Max 
 MOIL.                      56:  Run Mud Oil % 
 MOWR.                   71:29:  Run Mud OWR 
 MSND.                     0.5:  Run Mud Sand % 
 MSOL.                      21:  Run Mud Solids% 
 DFV .spqt               78.00:  Mud Viscosity 
 MWOD.in                  6.75:  MWD Tool OD 
 MWSI.                     Yes:  Serv Intrp, MWD 
 OTIM.hr                200.73:  Time Operating 
 PCON.           Look Like New:  Pad Condition 
 PMAX.psia            11069.93:  Press Op, Max 
 PV  .cP                 32.00:  Mud PV 
 RUN .                     700:  Run Number 
 ROPA.m/hr               10.00:  ROP Avg 
 ROPN.m/hr                9.00:  ROP Min 
 ROPX.m/hr               16.00:  ROP Max 
 RPMA.rpm               116.00:  RPM Surface Avg 
 RPMN.rpm                80.00:  RPM Surface Min 
 RPMX.rpm               120.00:  RPM Surface Max 
 RRUN.                    L605:  Rig Run Number 
 RTIM.hr                 45.00:  Time Reaming 
 SAZI.deg               159.86:  Azm, Start 
 SDEP.m                4315.00:  Start Depth 
 SIDD.                      No:  Serv Intrp, DD 
 SINC.deg                39.86:  Inc, Start 
 SPPA.psig             3300.00:  SPP Avg 
 SPPN.psig             3040.00:  SPP Min 
 SPPX.psig             3645.00:  SPP Max 
 STIM.      01.00.00 15-Jul-21:  Start Time 
 SVCS.                 DD, MWD:  Services 
 SVER.                    9.20:  Sperry Version 
 TDAT.m                 288.00:  Tot Depth Attmp 
 TDDF.                      No:  Trip for DD 
 TDLG.m                 288.00:  Tot Depth Loggd 
 TFF .                      No:  Trip for Fail 
 TQAA.f-kp               19.00:  Torque Abs Avg 
 TQAN.f-kp               18.00:  Torque Abs Min 
 TQAX.f-kp               21.00:  Torque Abs Max 
 TRRT.°/30m               0.45:  Turn Rotating 
 MRT .                    HCIM:  Maximum Recorded Temperature 
 TTMX.degC               88.24:  Max Tool Temp 
 VS01.                90649157:  Virtual Str1 SN 
 VS02.                90652483:  Virtual Str2 SN 
 VS03.                11671987:  Virtual Str3 SN 
 VS04.                90643411:  Virtual Str4 SN 
 VS05.                90652478:  Virtual Str5 SN 
 VS06.                    6111:  Virtual Str6 SN 
 WBMN.klb                 9.50:  WOB Min 
 WITN.        Grigoriy Sarayev:  Customer Rep 
 WITN.          Rufat Huseynov:  Customer Rep 2 
 WOBA.klb                11.00:  WOB Avg 
 WOBX.klb                15.00:  WOB Max 
 YP  .lhf2               28.00:  Yield Point 
~Curve Information Block
#MNEM.UNIT                 API CODE     Curve Description
#---------               -----------    ---------------------------
 TIME.HHMMSS            00 000 000 000:  GT Time & Date
 GTDEPTH.m              00 000 000 000:  GT Depth
 GTPQH.psia             00 000 000 000:  GT HR Quartz Pressure
 GTTQ.degC              00 000 000 000:  GT Quartz Temperature
 GTTN.NONE              00 000 000 000:  GT Test Number
 GTET.sec               00 000 000 000:  GT Elapsed Test Time
 GTTVD.m                00 000 000 000:  GT True Vertical Depth
#Other Information
#
#WARRANTY: Halliburton will use its best efforts to furnish customers with 
#accurate information and interpretations that are part of, and incident to, the services 
#provided.  However, Halliburton cannot and does not warrant the accuracy 
#or correctness of such information and interpretations.  Under no circumstances should any 
#such information or interpretation be relied upon as the sole basis for any drilling, 
#completion, production, or financial decision or any procedure involving any risk to the 
#safety of any drilling venture, drilling rig or its crew or any other third party.  The 
#Customer has full responsibility for all drilling, completion and production operation.  
#Halliburton makes no representations or warranties, either expressed or 
#implied, including, but not limited to, the implied warranties of merchantability or fitness 
#for a particular purpose, with respect to the services rendered.  In no event will 
#Halliburton be liable for failure to obtain any particular results or for 
#any damages, including, but not limited to, indirect, special or consequential damages, 
#resulting from the use of any information or interpretation provided by Halliburton.
#
~A           TIME           GTDEPTH  GTPQH  GTTQ  GTTN   GTET   GTTVD  
# ...
   05:06:58.356.19-Jul-2021 4356.00 4168.10 68.82 12.00 248.69 2590.09
   05:06:58.556.19-Jul-2021 4356.00 4168.68 68.82 12.00 248.89 2590.09
   05:06:58.756.19-Jul-2021 4356.00 4169.15 68.82 12.00 249.09 2590.09
   05:06:58.956.19-Jul-2021 4356.00 4169.15 68.82 12.00 249.29 2590.09
   05:06:59.157.19-Jul-2021 4356.00 4169.88 68.82 12.00 249.49 2590.09
   05:06:59.357.19-Jul-2021 4356.00 4168.94 68.82 12.00 249.69 2590.09
   05:06:59.557.19-Jul-2021 4356.00 4167.30 68.82 12.00 249.89 2590.09
   05:06:59.757.19-Jul-2021 4356.00 4167.63 68.82 12.00 250.09 2590.09
   05:06:59.957.19-Jul-2021 4356.00 4167.63 68.82 12.00 250.29 2590.09
   05:07:00.157.19-Jul-2021 4356.00 4168.23 68.82 12.00 250.49 2590.09
   05:07:00.357.19-Jul-2021 4356.00 4168.58 68.82 12.00 250.69 2590.09
   05:07:00.557.19-Jul-2021 4356.00 4168.91 68.82 12.00 250.89 2590.09
   05:07:00.757.19-Jul-2021 4356.00 4169.24 68.82 12.00 251.09 2590.09
   05:07:00.957.19-Jul-2021 4356.00 4169.24 68.82 12.00 251.29 2590.09
   05:07:01.157.19-Jul-2021 4356.00 4169.96 68.82 12.00 251.49 2590.09
   05:07:01.357.19-Jul-2021 4356.00 4170.27 68.82 12.00 251.69 2590.09
   05:07:01.557.19-Jul-2021 4356.00 4170.54 68.82 12.00 251.89 2590.09
   05:07:01.757.19-Jul-2021 4356.00 4170.64 68.82 12.00 252.09 2590.09
   05:07:01.958.19-Jul-2021 4356.00 4170.64 68.82 12.00 252.29 2590.09
   05:07:02.158.19-Jul-2021 4356.00 4168.40 68.82 12.00 252.49 2590.09
   05:07:02.358.19-Jul-2021 4356.00 4168.77 68.82 12.00 252.69 2590.09
   05:07:02.558.19-Jul-2021 4356.00 4167.91 68.82 12.00 252.89 2590.09
   05:07:02.758.19-Jul-2021 4356.00 4166.67 68.82 12.00 253.09 2590.09
   05:07:02.958.19-Jul-2021 4356.00 4166.67 68.82 12.00 253.29 2590.09
   05:07:03.158.19-Jul-2021 4356.00 4079.99 68.82 12.00 253.49 2590.09
   05:07:03.358.19-Jul-2021 4356.00 3048.31 68.82 12.00 253.69 2590.09
   05:07:03.558.19-Jul-2021 4356.00 2680.97 68.82 12.00 253.89 2590.09
   05:07:03.758.19-Jul-2021 4356.00 2383.89 68.82 12.00 254.09 2590.09
   05:07:03.958.19-Jul-2021 4356.00 2383.89 68.82 12.00 254.29 2590.09
   05:07:04.158.19-Jul-2021 4356.00 1900.14 68.82 12.00 254.49 2590.09
   05:07:04.358.19-Jul-2021 4356.00 1712.17 68.82 12.00 254.69 2590.09
   05:07:04.559.19-Jul-2021 4356.00 1568.92 68.82 12.00 254.89 2590.09
   05:07:04.759.19-Jul-2021 4356.00 1481.44 68.82 12.00 255.09 2590.09
   05:07:04.959.19-Jul-2021 4356.00 1481.44 68.82 12.00 255.29 2590.09
   05:07:05.159.19-Jul-2021 4356.00 1331.49 68.82 12.00 255.49 2590.09
   05:07:05.359.19-Jul-2021 4356.00 1284.79 68.82 12.00 255.69 2590.09
   05:07:05.559.19-Jul-2021 4356.00 1233.22 68.81 12.00 255.89 2590.09
   05:07:05.759.19-Jul-2021 4356.00 1189.32 68.81 12.00 256.09 2590.09
   05:07:05.959.19-Jul-2021 4356.00 1189.32 68.81 12.00 256.29 2590.09
   05:07:06.159.19-Jul-2021 4356.00 1141.54 68.81 12.00 256.49 2590.09
   05:07:06.359.19-Jul-2021 4356.00 1131.22 68.81 12.00 256.69 2590.09
   05:07:06.559.19-Jul-2021 4356.00 1127.29 68.81 12.00 256.89 2590.09
   05:07:06.759.19-Jul-2021 4356.00 1125.80 68.80 12.00 257.09 2590.09
   05:07:06.959.19-Jul-2021 4356.00 1125.80 68.80 12.00 257.29 2590.09
   05:07:07.159.19-Jul-2021 4356.00 1114.01 68.80 12.00 257.49 2590.09
   05:07:07.360.19-Jul-2021 4356.00 1111.56 68.80 12.00 257.69 2590.09
   05:07:07.560.19-Jul-2021 4356.00 1133.36 68.80 12.00 257.89 2590.09
   05:07:07.760.19-Jul-2021 4356.00 1160.45 68.80 12.00 258.10 2590.09
   05:07:07.960.19-Jul-2021 4356.00 1160.45 68.80 12.00 258.30 2590.09
   05:07:08.160.19-Jul-2021 4356.00 1181.83 68.79 12.00 258.50 2590.09
   05:07:08.360.19-Jul-2021 4356.00 1180.24 68.79 12.00 258.70 2590.09
   05:07:08.560.19-Jul-2021 4356.00 1184.47 68.79 12.00 258.90 2590.09
   05:07:08.760.19-Jul-2021 4356.00 1184.65 68.79 12.00 259.10 2590.09
   05:07:08.960.19-Jul-2021 4356.00 1184.65 68.79 12.00 259.30 2590.09
   05:07:09.160.19-Jul-2021 4356.00 1186.79 68.78 12.00 259.50 2590.09
   05:07:09.360.19-Jul-2021 4356.00 1186.00 68.78 12.00 259.70 2590.09
   05:07:09.560.19-Jul-2021 4356.00 1184.67 68.78 12.00 259.90 2590.09
   05:07:09.760.19-Jul-2021 4356.00 1184.47 68.78 12.00 260.10 2590.09
   05:07:09.960.19-Jul-2021 4356.00 1184.47 68.78 12.00 260.30 2590.09
   05:07:10.161.19-Jul-2021 4356.00 1196.13 68.78 12.00 260.50 2590.09
   05:07:10.361.19-Jul-2021 4356.00 1182.83 68.78 12.00 260.70 2590.09
   05:07:10.561.19-Jul-2021 4356.00 1183.14 68.77 12.00 260.90 2590.09
   05:07:10.761.19-Jul-2021 4356.00 1193.12 68.77 12.00 261.10 2590.09
   05:07:10.961.19-Jul-2021 4356.00 1193.12 68.77 12.00 261.30 2590.09
   05:07:11.161.19-Jul-2021 4356.00 1179.60 68.77 12.00 261.50 2590.09
   05:07:11.361.19-Jul-2021 4356.00 1177.31 68.77 12.00 261.70 2590.09
   05:07:11.561.19-Jul-2021 4356.00 1159.76 68.77 12.00 261.90 2590.09
   05:07:11.761.19-Jul-2021 4356.00 1153.17 68.77 12.00 262.10 2590.09
   05:07:11.961.19-Jul-2021 4356.00 1153.17 68.77 12.00 262.30 2590.09
   05:07:12.161.19-Jul-2021 4356.00 1157.07 68.76 12.00 262.50 2590.09
   05:07:12.361.19-Jul-2021 4356.00 1140.94 68.76 12.00 262.70 2590.09
   05:07:12.561.19-Jul-2021 4356.00 1137.05 68.76 12.00 262.90 2590.09
   05:07:12.762.19-Jul-2021 4356.00 1139.28 68.76 12.00 263.10 2590.09
   05:07:12.962.19-Jul-2021 4356.00 1139.28 68.76 12.00 263.30 2590.09
   05:07:13.162.19-Jul-2021 4356.00 1270.56 68.76 12.00 263.50 2590.09
   05:07:13.362.19-Jul-2021 4356.00 1583.05 68.76 12.00 263.70 2590.09
   05:07:13.562.19-Jul-2021 4356.00 1865.71 68.76 12.00 263.90 2590.09
   05:07:13.762.19-Jul-2021 4356.00 2118.58 68.76 12.00 264.10 2590.09
   05:07:13.962.19-Jul-2021 4356.00 2118.58 68.76 12.00 264.30 2590.09
   05:07:14.162.19-Jul-2021 4356.00 2525.05 68.76 12.00 264.50 2590.09
   05:07:14.362.19-Jul-2021 4356.00 2689.15 68.76 12.00 264.70 2590.09
   05:07:14.562.19-Jul-2021 4356.00 2832.67 68.76 12.00 264.90 2590.09
   05:07:14.762.19-Jul-2021 4356.00 2958.75 68.76 12.00 265.10 2590.09
   05:07:14.962.19-Jul-2021 4356.00 2958.75 68.76 12.00 265.30 2590.09
   05:07:15.162.19-Jul-2021 4356.00 3168.17 68.76 12.00 265.50 2590.09
   05:07:15.362.19-Jul-2021 4356.00 3255.23 68.76 12.00 265.70 2590.09
   05:07:15.563.19-Jul-2021 4356.00 3331.20 68.76 12.00 265.90 2590.09
   05:07:15.763.19-Jul-2021 4356.00 3397.72 68.76 12.00 266.10 2590.09
   05:07:15.963.19-Jul-2021 4356.00 3397.72 68.76 12.00 266.30 2590.09
   05:07:16.163.19-Jul-2021 4356.00 3515.28 68.76 12.00 266.50 2590.09
   05:07:16.363.19-Jul-2021 4356.00 3565.36 68.76 12.00 266.70 2590.09
   05:07:16.563.19-Jul-2021 4356.00 3610.84 68.76 12.00 266.90 2590.09
   05:07:16.763.19-Jul-2021 4356.00 3652.06 68.76 12.00 267.10 2590.09
   05:07:16.963.19-Jul-2021 4356.00 3652.06 68.76 12.00 267.30 2590.09
   05:07:17.163.19-Jul-2021 4356.00 3722.62 68.77 12.00 267.50 2590.09
   05:07:17.363.19-Jul-2021 4356.00 3753.07 68.77 12.00 267.70 2590.09
   05:07:17.563.19-Jul-2021 4356.00 3780.82 68.77 12.00 267.90 2590.09
   05:07:17.763.19-Jul-2021 4356.00 3806.22 68.77 12.00 268.10 2590.09
   05:07:17.963.19-Jul-2021 4356.00 3806.22 68.77 12.00 268.30 2590.09
   05:07:18.164.19-Jul-2021 4356.00 3848.50 68.77 12.00 268.50 2590.09
   05:07:18.364.19-Jul-2021 4356.00 3865.24 68.77 12.00 268.70 2590.09
   05:07:18.564.19-Jul-2021 4356.00 3883.28 68.77 12.00 268.90 2590.09
   05:07:18.764.19-Jul-2021 4356.00 3898.08 68.78 12.00 269.10 2590.09
   05:07:18.964.19-Jul-2021 4356.00 3898.08 68.78 12.00 269.30 2590.09
   05:07:19.164.19-Jul-2021 4356.00 3925.36 68.78 12.00 269.50 2590.09
   05:07:19.364.19-Jul-2021 4356.00 3938.83 68.78 12.00 269.70 2590.09
   05:07:19.564.19-Jul-2021 4356.00 3949.87 68.78 12.00 269.90 2590.09
   05:07:19.764.19-Jul-2021 4356.00 3960.10 68.78 12.00 270.10 2590.09
   05:07:19.964.19-Jul-2021 4356.00 3960.10 68.78 12.00 270.30 2590.09
   05:07:20.164.19-Jul-2021 4356.00 3980.00 68.79 12.00 270.50 2590.09
   05:07:20.364.19-Jul-2021 4356.00 3987.79 68.79 12.00 270.70 2590.09
   05:07:20.564.19-Jul-2021 4356.00 3995.40 68.79 12.00 270.90 2590.09
   05:07:20.764.19-Jul-2021 4356.00 4002.99 68.79 12.00 271.10 2590.09
