~Version Information
 VERS.                  2.0:   CWLS log ASCII Standard -VERSION 2.0
 WRAP.                   NO:   One line per depth step
~Well Information Block
#MNEM.UNIT     VALUE/NAME     DESCRIPTION
#---------     -----------    ---------------------------
 STRT.S             13:07:56 19-Jul-21: START TIME 13:07:56 19-Jul-21
 STOP.S             13:14:51 19-Jul-21: STOP TIME  13:14:51 19-Jul-21
 STEP.S                   0.00: STEP TIME
 NULL.                 -999.25: NULL VALUE
 MDS .        Operator Entered:  MAG DATA SOURCE
 PDAT.          Mean Sea Level:  PERMANENT DATUM
 UNIT.                     N/A:  LOGGING EQUIPMENT ID
 DCON.         Sperry Drilling:  DIRECTNL CONTR
 DOE .                     N/A:  DOE NUMBER
 RIG .              West Azeri:  RIG NAME
 JOBN.        AZ-XX-0906997913:  JOB TICKET NUMB
 WELL.                     C41:  WELL NAME
 MWDS.                    Baku:  MWD SHOP
 SRVC.          Turan Drilling:  CONTRACTOR
 FLD .                     ACG:  FIELD NAME
 CTRY.              Azerbaijan:  COUNTRY NAME
 PROV.                    Baku:  PROVINCE
 STAT.                    Baku:  STATE NAME
 REGN.                   EESSA:  REGION
 BASE.              Azerbaijan:  LOGGING EQUIPMENT BASE LOCATION
 UWI .                     N/A:  UNIQUE WELL IDENTIFIER
 API .                     N/A:  API NUMBER
 COMP.     BP Exploration (Caspian Sea) Ltd.:  COMPANY
 WTYP.                Deviated:  WELL TYPE
 SON .        AZ-XX-0906997913:  JOB NUMBER
 FTOP.          Formation Tops:  FORM TOPS DESC
 ILTD.               Lithology:  INTERP LTH DESC
 SVYD.                  Survey:  SURVEY DESC
 DMOD.             Drill Model:  DRILL MOD DESC
 HPTY.       Minimum Curvature:  HOLE POS TYPE
 NREF.                    Grid:  NORTH REFERENCE
 SPUD.               16-May-21:  SPUD DATE
 DATE.      21.11.28 17-May-21:  END TIME
 STIM.      21.11.28 17-May-21:  START TIME
 DMF .             Drill Floor:  DRILL MEAS FROM
 DFST.                        :  DIST FSL TEXT
 DFWT.                        :  DIST FWL TEXT
 CNTY.                        :  COUNTY
 LOC .                        :  LOCATION
 LMF .             Drill Floor:  LOG MEASURED FROM
 AGAP.m                  43.42:  AIR GAP
 VSNS.m                  -2.16:  VERT SEC N/S
 VSEW.m                  -6.24:  VERT SEC E/W
 APD .m                  43.42:  DEPTH ABOVE PD
 WDMS.m                 118.27:  WD ELEV
 EGL .m                   0.00:  GROUND ELEVATION
 EPD .m                   0.00:  ELEVATION
 AZTC.deg                 6.29:  AZM TOTAL CORR
 GRDC.deg                 0.18:  GRID CORRECTION
 MDEC.deg                 6.47:  MAGNETIC DECL
 MDIP.deg                59.54:  MAGNETIC DIP
 MFLD.nT              50337.00:  MAGNETIC FIELD
 GVFD.g                   1.00:  GRAVITY FIELD
 VSDR.deg               226.99:  VERT SEC DIRECT
 TDD .m                   0.00:  TOTAL DEPTH (DRILLER)
 SDEP.m                 448.00:  START DEPTH
 DFSL.m                   0.00:  DISTANCE FSL
 DFWL.m                   0.00:  DISTANCE FWL
 UTMY.m             4435799.96:  UTM Y
 UTMX.m              526265.35:  UTM X
 WHEW.m                  -6.24:  WELL HEAD E/W
 WHNS.m                  -2.16:  WELL HEAD N/S
 LONG.deg                51.31:  LONGITUDE
 LATI.deg                40.06:  LATITUDE
 TVDS.m                  43.42:  TVDSS CORRECTN
 EKB .m                  43.42:  KB ELEVATION
 EDF .m                  43.42:  DF ELEVATION
 TDL .m                 288.00:  TOTAL DEPTH (LOGGER)
 MAGU.                 1851863:  MAGUTM CHECKSUM
 VSC .                       0:  VS TO CLOSURE
~Parameter Information Block
#MNEM.UNIT       Value        Description
#---------     -----------    ---------------------------
 AV  .mps                 0.40:  Ann Velocity 
 AVMX.mps                 0.63:  Max Ann Veloc 
 AZIF.deg               158.76:  Azm, Final 
 BHAT.        Rotary Steerable:  BHA Type 
 BROT.°/30m               0.68:  Build Rotating 
 BS  .in                  8.50:  Bit Size 
 BSZ .in                  8.50:  Bit Size 
 BTPL.psig              712.00:  Bit Press Loss 
 CABU.                      No:  Customer Abuse 
 COMM.                     „e:  Run Comments 1 
 TCS .hr                 90.66:  Time Ciculation Ended 
 CV  .mps                 2.02:  Crit Velocity 
 CVMX.mps                 2.14:  Max Crit Veloc 
 DD1 .            Aziz Aliyevu:  Direct Drillr 1 
 DD2 .             Samir Abbas:  Direct Drillr 2 
 DD3 .           Teymur Aliyev:  Direct Drillr 3 
 DDSV.                 iCruise:  DD Service 
 DEFF.%                  85.10:  % Det Eff 
 DLRX.°/30m               1.05:  Dogleg Rot Max 
 DLSO.°/30m               1.01:  Dogleg Oriented 
 DLSX.°/30m               1.05:  Dogleg Str Max 
 DRET.      07.45.00 18-Jul-21:  Drill End Time 
 DRST.      15.00.00 16-Jul-21:  Drill Start Tim 
 DTIM.hr                 23.46:  Time Drilling 
 EDEP.m                4603.00:  End Depth 
 ENG1.       Seymur Iskandarov:  Engineer 1 
 ENG2.         Yevgeniy Ulikov:  Engineer 2 
 ENG3.         Bahruz Mehdiyev:  Engineer 3 
 ENG4.         Elchin Mammadov:  Engineer 4 
 ETIM.      14.00.00 23-Jul-21:  End Time 
 FLOI.gpm               500.00:  Flow In 
 FLON.gpm               450.00:  Flow In Min 
 FLOS.cptm                0.00:  Fluid Loss 
 FLOX.gpm               560.00:  Flow In Max 
 DFT .        Mineral Oil Base:  Mud Type 
 FTRO.       Formation Presure:  FTWD Run Obj 
 HFLO.                      No:  High Flow 
 HPRE.                      No:  High Pressure 
 HTEM.                      No:  High Temp 
 HYDO.m                   1.80:  Hydro Offset 
 IFIN.deg                40.22:  Inc, Final 
 IMAX.deg                40.54:  Inc Max 
 IMIN.deg                39.44:  Inc Min 
 IMND.m                4361.17:  Inc Min Depth 
 IMXD.m                4417.92:  Inc Max Depth 
 JARR.                      No:  Jarring 
 LETM.      07.45.00 18-Jul-21:  Log End Time 
 LOST.hr                    16:  Lost Rig Time 
 LSTM.      15.00.00 16-Jul-21:  Log Start Time 
 MDCL.ppm             36500.00:  Mud Chlorides 
 MDES.     Inversion Oil/Synthetic:  Mud Desc 
 DFD .sg                  1.42:  Mud Density 
 MDMN.sg                  1.42:  Dens Mud Min 
 MDMX.sg                  1.43:  Dens Mud Max 
 MOIL.                      56:  Run Mud Oil % 
 MOWR.                   71:29:  Run Mud OWR 
 MSND.                     0.5:  Run Mud Sand % 
 MSOL.                      21:  Run Mud Solids% 
 DFV .spqt               78.00:  Mud Viscosity 
 MWOD.in                  6.75:  MWD Tool OD 
 MWSI.                     Yes:  Serv Intrp, MWD 
 OTIM.hr                200.73:  Time Operating 
 PCON.           Look Like New:  Pad Condition 
 PMAX.psia            11069.93:  Press Op, Max 
 PV  .cP                 32.00:  Mud PV 
 RUN .                     700:  Run Number 
 ROPA.m/hr               10.00:  ROP Avg 
 ROPN.m/hr                9.00:  ROP Min 
 ROPX.m/hr               16.00:  ROP Max 
 RPMA.rpm               116.00:  RPM Surface Avg 
 RPMN.rpm                80.00:  RPM Surface Min 
 RPMX.rpm               120.00:  RPM Surface Max 
 RRUN.                    L605:  Rig Run Number 
 RTIM.hr                 45.00:  Time Reaming 
 SAZI.deg               159.86:  Azm, Start 
 SDEP.m                4315.00:  Start Depth 
 SIDD.                      No:  Serv Intrp, DD 
 SINC.deg                39.86:  Inc, Start 
 SPPA.psig             3300.00:  SPP Avg 
 SPPN.psig             3040.00:  SPP Min 
 SPPX.psig             3645.00:  SPP Max 
 STIM.      01.00.00 15-Jul-21:  Start Time 
 SVCS.                 DD, MWD:  Services 
 SVER.                    9.20:  Sperry Version 
 TDAT.m                 288.00:  Tot Depth Attmp 
 TDDF.                      No:  Trip for DD 
 TDLG.m                 288.00:  Tot Depth Loggd 
 TFF .                      No:  Trip for Fail 
 TQAA.f-kp               19.00:  Torque Abs Avg 
 TQAN.f-kp               18.00:  Torque Abs Min 
 TQAX.f-kp               21.00:  Torque Abs Max 
 TRRT.°/30m               0.45:  Turn Rotating 
 MRT .                    HCIM:  Maximum Recorded Temperature 
 TTMX.degC               88.24:  Max Tool Temp 
 VS01.                90649157:  Virtual Str1 SN 
 VS02.                90652483:  Virtual Str2 SN 
 VS03.                11671987:  Virtual Str3 SN 
 VS04.                90643411:  Virtual Str4 SN 
 VS05.                90652478:  Virtual Str5 SN 
 VS06.                    6111:  Virtual Str6 SN 
 WBMN.klb                 9.50:  WOB Min 
 WITN.        Grigoriy Sarayev:  Customer Rep 
 WITN.          Rufat Huseynov:  Customer Rep 2 
 WOBA.klb                11.00:  WOB Avg 
 WOBX.klb                15.00:  WOB Max 
 YP  .lhf2               28.00:  Yield Point 
~Curve Information Block
#MNEM.UNIT                 API CODE     Curve Description
#---------               -----------    ---------------------------
 TIME.HHMMSS            00 000 000 000:  GT Time & Date
 GTDEPTH.m              00 000 000 000:  GT Depth
 GTPQH.psia             00 000 000 000:  GT HR Quartz Pressure
 GTTQ.degC              00 000 000 000:  GT Quartz Temperature
 GTTN.NONE              00 000 000 000:  GT Test Number
 GTET.sec               00 000 000 000:  GT Elapsed Test Time
 GTTVD.m                00 000 000 000:  GT True Vertical Depth
#Other Information
#
#WARRANTY: Halliburton will use its best efforts to furnish customers with 
#accurate information and interpretations that are part of, and incident to, the services 
#provided.  However, Halliburton cannot and does not warrant the accuracy 
#or correctness of such information and interpretations.  Under no circumstances should any 
#such information or interpretation be relied upon as the sole basis for any drilling, 
#completion, production, or financial decision or any procedure involving any risk to the 
#safety of any drilling venture, drilling rig or its crew or any other third party.  The 
#Customer has full responsibility for all drilling, completion and production operation.  
#Halliburton makes no representations or warranties, either expressed or 
#implied, including, but not limited to, the implied warranties of merchantability or fitness 
#for a particular purpose, with respect to the services rendered.  In no event will 
#Halliburton be liable for failure to obtain any particular results or for 
#any damages, including, but not limited to, indirect, special or consequential damages, 
#resulting from the use of any information or interpretation provided by Halliburton.
#
~A           TIME           GTDEPTH  GTPQH  GTTQ  GTTN   GTET   GTTVD  
# ...
   13:13:58.115.19-Jul-2021 4553.00 6654.91 71.09 28.00 361.73 2740.81
   13:13:58.315.19-Jul-2021 4553.00 6654.90 71.10 28.00 361.93 2740.81
   13:13:58.515.19-Jul-2021 4553.00 6655.44 71.10 28.00 362.13 2740.81
   13:13:58.715.19-Jul-2021 4553.00 6655.44 71.10 28.00 362.33 2740.81
   13:13:58.916.19-Jul-2021 4553.00 6681.49 71.10 28.00 362.53 2740.81
   13:13:59.116.19-Jul-2021 4553.00 6666.13 71.10 28.00 362.73 2740.81
   13:13:59.316.19-Jul-2021 4553.00 6654.02 71.11 28.00 362.93 2740.81
   13:13:59.516.19-Jul-2021 4553.00 6683.79 71.11 28.00 363.13 2740.81
   13:13:59.716.19-Jul-2021 4553.00 6683.79 71.11 28.00 363.33 2740.81
   13:13:59.916.19-Jul-2021 4553.00 6655.23 71.11 28.00 363.53 2740.81
   13:14:00.116.19-Jul-2021 4553.00 6689.22 71.11 28.00 363.73 2740.81
   13:14:00.316.19-Jul-2021 4553.00 6674.42 71.11 28.00 363.93 2740.81
   13:14:00.516.19-Jul-2021 4553.00 6655.10 71.12 28.00 364.13 2740.81
   13:14:00.716.19-Jul-2021 4553.00 6655.10 71.12 28.00 364.33 2740.81
   13:14:00.916.19-Jul-2021 4553.00 6686.33 71.12 28.00 364.53 2740.81
   13:14:01.116.19-Jul-2021 4553.00 6668.37 71.12 28.00 364.73 2740.81
   13:14:01.316.19-Jul-2021 4553.00 6658.18 71.12 28.00 364.93 2740.81
   13:14:01.516.19-Jul-2021 4553.00 6665.90 71.12 28.00 365.13 2740.81
   13:14:01.717.19-Jul-2021 4553.00 6665.90 71.12 28.00 365.33 2740.81
   13:14:01.917.19-Jul-2021 4553.00 6671.81 71.13 28.00 365.53 2740.81
   13:14:02.117.19-Jul-2021 4553.00 6658.86 71.13 28.00 365.73 2740.81
   13:14:02.317.19-Jul-2021 4553.00 6661.90 71.13 28.00 365.93 2740.81
   13:14:02.517.19-Jul-2021 4553.00 6665.42 71.13 28.00 366.13 2740.81
   13:14:02.717.19-Jul-2021 4553.00 6665.42 71.13 28.00 366.33 2740.81
   13:14:02.917.19-Jul-2021 4553.00 6661.76 71.13 28.00 366.53 2740.81
   13:14:03.117.19-Jul-2021 4553.00 6662.40 71.13 28.00 366.74 2740.81
   13:14:03.317.19-Jul-2021 4553.00 6661.28 71.13 28.00 366.94 2740.81
   13:14:03.517.19-Jul-2021 4553.00 6661.37 71.13 28.00 367.14 2740.81
   13:14:03.717.19-Jul-2021 4553.00 6661.37 71.13 28.00 367.34 2740.81
   13:14:03.917.19-Jul-2021 4553.00 6661.52 71.14 28.00 367.54 2740.81
   13:14:04.117.19-Jul-2021 4553.00 6661.28 71.14 28.00 367.74 2740.81
   13:14:04.318.19-Jul-2021 4553.00 6660.46 71.14 28.00 367.94 2740.81
   13:14:04.518.19-Jul-2021 4553.00 6671.32 71.14 28.00 368.14 2740.81
   13:14:04.718.19-Jul-2021 4553.00 6671.32 71.14 28.00 368.34 2740.81
   13:14:04.918.19-Jul-2021 4553.00 6661.58 71.14 28.00 368.54 2740.81
   13:14:05.118.19-Jul-2021 4553.00 6659.29 71.14 28.00 368.74 2740.81
   13:14:05.318.19-Jul-2021 4553.00 6664.44 71.14 28.00 368.94 2740.81
   13:14:05.518.19-Jul-2021 4553.00 6658.68 71.14 28.00 369.14 2740.81
   13:14:05.718.19-Jul-2021 4553.00 6658.68 71.14 28.00 369.34 2740.81
   13:14:05.918.19-Jul-2021 4553.00 6659.11 71.14 28.00 369.54 2740.81
   13:14:06.118.19-Jul-2021 4553.00 6658.39 71.14 28.00 369.74 2740.81
   13:14:06.318.19-Jul-2021 4553.00 6657.31 71.14 28.00 369.94 2740.81
   13:14:06.518.19-Jul-2021 4553.00 6657.22 71.14 28.00 370.14 2740.81
   13:14:06.718.19-Jul-2021 4553.00 6657.22 71.14 28.00 370.34 2740.81
   13:14:06.918.19-Jul-2021 4553.00 6658.33 71.15 28.00 370.54 2740.81
   13:14:07.119.19-Jul-2021 4553.00 6660.54 71.15 28.00 370.74 2740.81
   13:14:07.319.19-Jul-2021 4553.00 6683.68 71.15 28.00 370.94 2740.81
   13:14:07.519.19-Jul-2021 4553.00 6667.79 71.15 28.00 371.14 2740.81
   13:14:07.719.19-Jul-2021 4553.00 6667.79 71.15 28.00 371.34 2740.81
   13:14:07.919.19-Jul-2021 4553.00 6687.85 71.15 28.00 371.54 2740.81
   13:14:08.119.19-Jul-2021 4553.00 6661.12 71.15 28.00 371.74 2740.81
   13:14:08.319.19-Jul-2021 4553.00 6663.14 71.15 28.00 371.94 2740.81
   13:14:08.519.19-Jul-2021 4553.00 6667.53 71.15 28.00 372.14 2740.81
   13:14:08.719.19-Jul-2021 4553.00 6667.53 71.15 28.00 372.34 2740.81
   13:14:08.919.19-Jul-2021 4553.00 6681.15 71.15 28.00 372.54 2740.81
   13:14:09.119.19-Jul-2021 4553.00 6667.04 71.15 28.00 372.74 2740.81
   13:14:09.319.19-Jul-2021 4553.00 6655.69 71.15 28.00 372.94 2740.81
   13:14:09.519.19-Jul-2021 4553.00 6659.08 71.15 28.00 373.14 2740.81
   13:14:09.719.19-Jul-2021 4553.00 6659.08 71.15 28.00 373.34 2740.81
   13:14:09.920.19-Jul-2021 4553.00 6657.46 71.15 28.00 373.54 2740.81
   13:14:10.120.19-Jul-2021 4553.00 6681.44 71.15 28.00 373.74 2740.81
   13:14:10.320.19-Jul-2021 4553.00 6666.34 71.15 28.00 373.94 2740.81
   13:14:10.520.19-Jul-2021 4553.00 6655.93 71.15 28.00 374.14 2740.81
   13:14:10.720.19-Jul-2021 4553.00 6655.93 71.15 28.00 374.34 2740.81
   13:14:10.920.19-Jul-2021 4553.00 6668.03 71.15 28.00 374.54 2740.81
   13:14:11.120.19-Jul-2021 4553.00 6678.29 71.15 28.00 374.74 2740.81
   13:14:11.320.19-Jul-2021 4553.00 6661.31 71.15 28.00 374.94 2740.81
   13:14:11.520.19-Jul-2021 4553.00 6663.34 71.15 28.00 375.14 2740.81
   13:14:11.720.19-Jul-2021 4553.00 6663.34 71.15 28.00 375.34 2740.81
   13:14:11.920.19-Jul-2021 4553.00 6660.79 71.15 28.00 375.54 2740.81
   13:14:12.120.19-Jul-2021 4553.00 6661.16 71.15 28.00 375.74 2740.81
   13:14:12.320.19-Jul-2021 4553.00 6661.23 71.15 28.00 375.94 2740.81
   13:14:12.521.19-Jul-2021 4553.00 6661.07 71.15 28.00 376.14 2740.81
   13:14:12.721.19-Jul-2021 4553.00 6661.07 71.15 28.00 376.34 2740.81
   13:14:12.921.19-Jul-2021 4553.00 6661.48 71.15 28.00 376.54 2740.81
   13:14:13.121.19-Jul-2021 4553.00 6659.01 71.15 28.00 376.74 2740.81
   13:14:13.321.19-Jul-2021 4553.00 6655.23 71.15 28.00 376.94 2740.81
   13:14:13.521.19-Jul-2021 4553.00 6656.20 71.15 28.00 377.14 2740.81
   13:14:13.721.19-Jul-2021 4553.00 6656.20 71.15 28.00 377.34 2740.81
   13:14:13.921.19-Jul-2021 4553.00 6678.55 71.15 28.00 377.54 2740.81
   13:14:14.121.19-Jul-2021 4553.00 6667.74 71.15 28.00 377.74 2740.81
   13:14:14.321.19-Jul-2021 4553.00 6655.48 71.15 28.00 377.94 2740.81
   13:14:14.521.19-Jul-2021 4553.00 6664.14 71.15 28.00 378.14 2740.81
   13:14:14.721.19-Jul-2021 4553.00 6664.14 71.15 28.00 378.34 2740.81
   13:14:14.921.19-Jul-2021 4553.00 6657.91 71.15 28.00 378.54 2740.81
   13:14:15.121.19-Jul-2021 4553.00 6658.63 71.15 28.00 378.74 2740.81
   13:14:15.322.19-Jul-2021 4553.00 6660.14 71.15 28.00 378.94 2740.81
   13:14:15.522.19-Jul-2021 4553.00 6660.43 71.15 28.00 379.14 2740.81
   13:14:15.722.19-Jul-2021 4553.00 6660.43 71.15 28.00 379.34 2740.81
   13:14:15.922.19-Jul-2021 4553.00 6656.75 71.15 28.00 379.54 2740.81
   13:14:16.122.19-Jul-2021 4553.00 6657.90 71.15 28.00 379.74 2740.81
   13:14:16.322.19-Jul-2021 4553.00 6656.81 71.15 28.00 379.94 2740.81
   13:14:16.522.19-Jul-2021 4553.00 6676.45 71.15 28.00 380.14 2740.81
   13:14:16.722.19-Jul-2021 4553.00 6676.45 71.15 28.00 380.34 2740.81
   13:14:16.922.19-Jul-2021 4553.00 6654.83 71.15 28.00 380.54 2740.81
   13:14:17.122.19-Jul-2021 4553.00 6688.73 71.15 28.00 380.74 2740.81
   13:14:17.322.19-Jul-2021 4553.00 6670.47 71.15 28.00 380.94 2740.81
   13:14:17.522.19-Jul-2021 4553.00 6665.69 71.15 28.00 381.14 2740.81
   13:14:17.722.19-Jul-2021 4553.00 6665.69 71.15 28.00 381.34 2740.81
   13:14:17.923.19-Jul-2021 4553.00 6660.28 71.15 28.00 381.54 2740.81
   13:14:18.123.19-Jul-2021 4553.00 6681.91 71.15 28.00 381.74 2740.81
   13:14:18.323.19-Jul-2021 4553.00 6679.09 71.15 28.00 381.94 2740.81
   13:14:18.523.19-Jul-2021 4553.00 6659.93 71.15 28.00 382.14 2740.81
   13:14:18.723.19-Jul-2021 4553.00 6659.93 71.15 28.00 382.34 2740.81
   13:14:18.923.19-Jul-2021 4553.00 6664.58 71.15 28.00 382.54 2740.81
   13:14:19.123.19-Jul-2021 4553.00 6661.19 71.15 28.00 382.74 2740.81
   13:14:19.323.19-Jul-2021 4553.00 6685.13 71.15 28.00 382.94 2740.81
   13:14:19.523.19-Jul-2021 4553.00 6671.18 71.15 28.00 383.14 2740.81
   13:14:19.723.19-Jul-2021 4553.00 6671.18 71.15 28.00 383.34 2740.81
   13:14:19.923.19-Jul-2021 4553.00 6667.50 71.15 28.00 383.54 2740.81
   13:14:20.123.19-Jul-2021 4553.00 6662.12 71.15 28.00 383.74 2740.81
   13:14:20.323.19-Jul-2021 4553.00 6661.97 71.15 28.00 383.94 2740.81
   13:14:20.523.19-Jul-2021 4553.00 6662.37 71.15 28.00 384.14 2740.81
