~Version Information
 VERS.                  2.0:   CWLS log ASCII Standard -VERSION 2.0
 WRAP.                   NO:   One line per depth step
~Well Information Block
#MNEM.UNIT     VALUE/NAME     DESCRIPTION
#---------     -----------    ---------------------------
 STRT.S             13:44:38 19-Jul-21: START TIME 13:44:38 19-Jul-21
 STOP.S             13:51:30 19-Jul-21: STOP TIME  13:51:30 19-Jul-21
 STEP.S                   0.00: STEP TIME
 NULL.                 -999.25: NULL VALUE
 MDS .        Operator Entered:  MAG DATA SOURCE
 PDAT.          Mean Sea Level:  PERMANENT DATUM
 UNIT.                     N/A:  LOGGING EQUIPMENT ID
 DCON.         Sperry Drilling:  DIRECTNL CONTR
 DOE .                     N/A:  DOE NUMBER
 RIG .              West Azeri:  RIG NAME
 JOBN.        AZ-XX-0906997913:  JOB TICKET NUMB
 WELL.                     C41:  WELL NAME
 MWDS.                    Baku:  MWD SHOP
 SRVC.          Turan Drilling:  CONTRACTOR
 FLD .                     ACG:  FIELD NAME
 CTRY.              Azerbaijan:  COUNTRY NAME
 PROV.                    Baku:  PROVINCE
 STAT.                    Baku:  STATE NAME
 REGN.                   EESSA:  REGION
 BASE.              Azerbaijan:  LOGGING EQUIPMENT BASE LOCATION
 UWI .                     N/A:  UNIQUE WELL IDENTIFIER
 API .                     N/A:  API NUMBER
 COMP.     BP Exploration (Caspian Sea) Ltd.:  COMPANY
 WTYP.                Deviated:  WELL TYPE
 SON .        AZ-XX-0906997913:  JOB NUMBER
 FTOP.          Formation Tops:  FORM TOPS DESC
 ILTD.               Lithology:  INTERP LTH DESC
 SVYD.                  Survey:  SURVEY DESC
 DMOD.             Drill Model:  DRILL MOD DESC
 HPTY.       Minimum Curvature:  HOLE POS TYPE
 NREF.                    Grid:  NORTH REFERENCE
 SPUD.               16-May-21:  SPUD DATE
 DATE.      21.11.28 17-May-21:  END TIME
 STIM.      21.11.28 17-May-21:  START TIME
 DMF .             Drill Floor:  DRILL MEAS FROM
 DFST.                        :  DIST FSL TEXT
 DFWT.                        :  DIST FWL TEXT
 CNTY.                        :  COUNTY
 LOC .                        :  LOCATION
 LMF .             Drill Floor:  LOG MEASURED FROM
 AGAP.m                  43.42:  AIR GAP
 VSNS.m                  -2.16:  VERT SEC N/S
 VSEW.m                  -6.24:  VERT SEC E/W
 APD .m                  43.42:  DEPTH ABOVE PD
 WDMS.m                 118.27:  WD ELEV
 EGL .m                   0.00:  GROUND ELEVATION
 EPD .m                   0.00:  ELEVATION
 AZTC.deg                 6.29:  AZM TOTAL CORR
 GRDC.deg                 0.18:  GRID CORRECTION
 MDEC.deg                 6.47:  MAGNETIC DECL
 MDIP.deg                59.54:  MAGNETIC DIP
 MFLD.nT              50337.00:  MAGNETIC FIELD
 GVFD.g                   1.00:  GRAVITY FIELD
 VSDR.deg               226.99:  VERT SEC DIRECT
 TDD .m                   0.00:  TOTAL DEPTH (DRILLER)
 SDEP.m                 448.00:  START DEPTH
 DFSL.m                   0.00:  DISTANCE FSL
 DFWL.m                   0.00:  DISTANCE FWL
 UTMY.m             4435799.96:  UTM Y
 UTMX.m              526265.35:  UTM X
 WHEW.m                  -6.24:  WELL HEAD E/W
 WHNS.m                  -2.16:  WELL HEAD N/S
 LONG.deg                51.31:  LONGITUDE
 LATI.deg                40.06:  LATITUDE
 TVDS.m                  43.42:  TVDSS CORRECTN
 EKB .m                  43.42:  KB ELEVATION
 EDF .m                  43.42:  DF ELEVATION
 TDL .m                 288.00:  TOTAL DEPTH (LOGGER)
 MAGU.                 1851863:  MAGUTM CHECKSUM
 VSC .                       0:  VS TO CLOSURE
~Parameter Information Block
#MNEM.UNIT       Value        Description
#---------     -----------    ---------------------------
 AV  .mps                 0.40:  Ann Velocity 
 AVMX.mps                 0.63:  Max Ann Veloc 
 AZIF.deg               158.76:  Azm, Final 
 BHAT.        Rotary Steerable:  BHA Type 
 BROT.°/30m               0.68:  Build Rotating 
 BS  .in                  8.50:  Bit Size 
 BSZ .in                  8.50:  Bit Size 
 BTPL.psig              712.00:  Bit Press Loss 
 CABU.                      No:  Customer Abuse 
 COMM.                     ÌÇp:  Run Comments 1 
 TCS .hr                 90.66:  Time Ciculation Ended 
 CV  .mps                 2.02:  Crit Velocity 
 CVMX.mps                 2.14:  Max Crit Veloc 
 DD1 .            Aziz Aliyevu:  Direct Drillr 1 
 DD2 .             Samir Abbas:  Direct Drillr 2 
 DD3 .           Teymur Aliyev:  Direct Drillr 3 
 DDSV.                 iCruise:  DD Service 
 DEFF.%                  85.10:  % Det Eff 
 DLRX.°/30m               1.05:  Dogleg Rot Max 
 DLSO.°/30m               1.01:  Dogleg Oriented 
 DLSX.°/30m               1.05:  Dogleg Str Max 
 DRET.      07.45.00 18-Jul-21:  Drill End Time 
 DRST.      15.00.00 16-Jul-21:  Drill Start Tim 
 DTIM.hr                 23.46:  Time Drilling 
 EDEP.m                4603.00:  End Depth 
 ENG1.       Seymur Iskandarov:  Engineer 1 
 ENG2.         Yevgeniy Ulikov:  Engineer 2 
 ENG3.         Bahruz Mehdiyev:  Engineer 3 
 ENG4.         Elchin Mammadov:  Engineer 4 
 ETIM.      14.00.00 23-Jul-21:  End Time 
 FLOI.gpm               500.00:  Flow In 
 FLON.gpm               450.00:  Flow In Min 
 FLOS.cptm                0.00:  Fluid Loss 
 FLOX.gpm               560.00:  Flow In Max 
 DFT .        Mineral Oil Base:  Mud Type 
 FTRO.       Formation Presure:  FTWD Run Obj 
 HFLO.                      No:  High Flow 
 HPRE.                      No:  High Pressure 
 HTEM.                      No:  High Temp 
 HYDO.m                   1.80:  Hydro Offset 
 IFIN.deg                40.22:  Inc, Final 
 IMAX.deg                40.54:  Inc Max 
 IMIN.deg                39.44:  Inc Min 
 IMND.m                4361.17:  Inc Min Depth 
 IMXD.m                4417.92:  Inc Max Depth 
 JARR.                      No:  Jarring 
 LETM.      07.45.00 18-Jul-21:  Log End Time 
 LOST.hr                    16:  Lost Rig Time 
 LSTM.      15.00.00 16-Jul-21:  Log Start Time 
 MDCL.ppm             36500.00:  Mud Chlorides 
 MDES.     Inversion Oil/Synthetic:  Mud Desc 
 DFD .sg                  1.42:  Mud Density 
 MDMN.sg                  1.42:  Dens Mud Min 
 MDMX.sg                  1.43:  Dens Mud Max 
 MOIL.                      56:  Run Mud Oil % 
 MOWR.                   71:29:  Run Mud OWR 
 MSND.                     0.5:  Run Mud Sand % 
 MSOL.                      21:  Run Mud Solids% 
 DFV .spqt               78.00:  Mud Viscosity 
 MWOD.in                  6.75:  MWD Tool OD 
 MWSI.                     Yes:  Serv Intrp, MWD 
 OTIM.hr                200.73:  Time Operating 
 PCON.           Look Like New:  Pad Condition 
 PMAX.psia            11069.93:  Press Op, Max 
 PV  .cP                 32.00:  Mud PV 
 RUN .                     700:  Run Number 
 ROPA.m/hr               10.00:  ROP Avg 
 ROPN.m/hr                9.00:  ROP Min 
 ROPX.m/hr               16.00:  ROP Max 
 RPMA.rpm               116.00:  RPM Surface Avg 
 RPMN.rpm                80.00:  RPM Surface Min 
 RPMX.rpm               120.00:  RPM Surface Max 
 RRUN.                    L605:  Rig Run Number 
 RTIM.hr                 45.00:  Time Reaming 
 SAZI.deg               159.86:  Azm, Start 
 SDEP.m                4315.00:  Start Depth 
 SIDD.                      No:  Serv Intrp, DD 
 SINC.deg                39.86:  Inc, Start 
 SPPA.psig             3300.00:  SPP Avg 
 SPPN.psig             3040.00:  SPP Min 
 SPPX.psig             3645.00:  SPP Max 
 STIM.      01.00.00 15-Jul-21:  Start Time 
 SVCS.                 DD, MWD:  Services 
 SVER.                    9.20:  Sperry Version 
 TDAT.m                 288.00:  Tot Depth Attmp 
 TDDF.                      No:  Trip for DD 
 TDLG.m                 288.00:  Tot Depth Loggd 
 TFF .                      No:  Trip for Fail 
 TQAA.f-kp               19.00:  Torque Abs Avg 
 TQAN.f-kp               18.00:  Torque Abs Min 
 TQAX.f-kp               21.00:  Torque Abs Max 
 TRRT.°/30m               0.45:  Turn Rotating 
 MRT .                    HCIM:  Maximum Recorded Temperature 
 TTMX.degC               88.24:  Max Tool Temp 
 VS01.                90649157:  Virtual Str1 SN 
 VS02.                90652483:  Virtual Str2 SN 
 VS03.                11671987:  Virtual Str3 SN 
 VS04.                90643411:  Virtual Str4 SN 
 VS05.                90652478:  Virtual Str5 SN 
 VS06.                    6111:  Virtual Str6 SN 
 WBMN.klb                 9.50:  WOB Min 
 WITN.        Grigoriy Sarayev:  Customer Rep 
 WITN.          Rufat Huseynov:  Customer Rep 2 
 WOBA.klb                11.00:  WOB Avg 
 WOBX.klb                15.00:  WOB Max 
 YP  .lhf2               28.00:  Yield Point 
~Curve Information Block
#MNEM.UNIT                 API CODE     Curve Description
#---------               -----------    ---------------------------
 TIME.HHMMSS            00 000 000 000:  GT Time & Date
 GTDEPTH.m              00 000 000 000:  GT Depth
 GTPQH.psia             00 000 000 000:  GT HR Quartz Pressure
 GTTQ.degC              00 000 000 000:  GT Quartz Temperature
 GTTN.NONE              00 000 000 000:  GT Test Number
 GTET.sec               00 000 000 000:  GT Elapsed Test Time
 GTTVD.m                00 000 000 000:  GT True Vertical Depth
#Other Information
#
#WARRANTY: Halliburton will use its best efforts to furnish customers with 
#accurate information and interpretations that are part of, and incident to, the services 
#provided.  However, Halliburton cannot and does not warrant the accuracy 
#or correctness of such information and interpretations.  Under no circumstances should any 
#such information or interpretation be relied upon as the sole basis for any drilling, 
#completion, production, or financial decision or any procedure involving any risk to the 
#safety of any drilling venture, drilling rig or its crew or any other third party.  The 
#Customer has full responsibility for all drilling, completion and production operation.  
#Halliburton makes no representations or warranties, either expressed or 
#implied, including, but not limited to, the implied warranties of merchantability or fitness 
#for a particular purpose, with respect to the services rendered.  In no event will 
#Halliburton be liable for failure to obtain any particular results or for 
#any damages, including, but not limited to, indirect, special or consequential damages, 
#resulting from the use of any information or interpretation provided by Halliburton.
#
~A           TIME           GTDEPTH  GTPQH  GTTQ  GTTN   GTET   GTTVD  
# ...
   13:50:39.926.19-Jul-2021 4561.50 6713.92 71.37 30.00 361.73 2747.31
   13:50:40.126.19-Jul-2021 4561.50 6714.55 71.38 30.00 361.93 2747.31
   13:50:40.326.19-Jul-2021 4561.50 6712.85 71.38 30.00 362.13 2747.31
   13:50:40.526.19-Jul-2021 4561.50 6712.85 71.38 30.00 362.33 2747.31
   13:50:40.726.19-Jul-2021 4561.50 6713.12 71.38 30.00 362.53 2747.31
   13:50:40.926.19-Jul-2021 4561.50 6712.80 71.38 30.00 362.73 2747.31
   13:50:41.126.19-Jul-2021 4561.50 6713.34 71.38 30.00 362.93 2747.31
   13:50:41.326.19-Jul-2021 4561.50 6714.58 71.38 30.00 363.13 2747.31
   13:50:41.527.19-Jul-2021 4561.50 6714.58 71.38 30.00 363.33 2747.31
   13:50:41.727.19-Jul-2021 4561.50 6716.38 71.39 30.00 363.53 2747.31
   13:50:41.927.19-Jul-2021 4561.50 6707.82 71.39 30.00 363.73 2747.31
   13:50:42.127.19-Jul-2021 4561.50 6718.58 71.39 30.00 363.93 2747.31
   13:50:42.327.19-Jul-2021 4561.50 6717.20 71.39 30.00 364.13 2747.31
   13:50:42.527.19-Jul-2021 4561.50 6717.20 71.39 30.00 364.33 2747.31
   13:50:42.727.19-Jul-2021 4561.50 6713.28 71.39 30.00 364.53 2747.31
   13:50:42.927.19-Jul-2021 4561.50 6713.93 71.39 30.00 364.73 2747.31
   13:50:43.127.19-Jul-2021 4561.50 6713.77 71.39 30.00 364.93 2747.31
   13:50:43.327.19-Jul-2021 4561.50 6713.76 71.39 30.00 365.13 2747.31
   13:50:43.527.19-Jul-2021 4561.50 6713.76 71.39 30.00 365.33 2747.31
   13:50:43.727.19-Jul-2021 4561.50 6715.27 71.40 30.00 365.53 2747.31
   13:50:43.927.19-Jul-2021 4561.50 6715.54 71.40 30.00 365.73 2747.31
   13:50:44.127.19-Jul-2021 4561.50 6737.93 71.40 30.00 365.93 2747.31
   13:50:44.328.19-Jul-2021 4561.50 6716.13 71.40 30.00 366.13 2747.31
   13:50:44.528.19-Jul-2021 4561.50 6716.13 71.40 30.00 366.33 2747.31
   13:50:44.728.19-Jul-2021 4561.50 6742.08 71.40 30.00 366.53 2747.31
   13:50:44.928.19-Jul-2021 4561.50 6710.45 71.40 30.00 366.74 2747.31
   13:50:45.128.19-Jul-2021 4561.50 6715.29 71.40 30.00 366.94 2747.31
   13:50:45.328.19-Jul-2021 4561.50 6744.01 71.40 30.00 367.14 2747.31
   13:50:45.528.19-Jul-2021 4561.50 6744.01 71.40 30.00 367.34 2747.31
   13:50:45.728.19-Jul-2021 4561.50 6709.54 71.40 30.00 367.54 2747.31
   13:50:45.928.19-Jul-2021 4561.50 6728.74 71.40 30.00 367.74 2747.31
   13:50:46.128.19-Jul-2021 4561.50 6736.02 71.40 30.00 367.94 2747.31
   13:50:46.328.19-Jul-2021 4561.50 6707.12 71.40 30.00 368.14 2747.31
   13:50:46.528.19-Jul-2021 4561.50 6707.12 71.40 30.00 368.34 2747.31
   13:50:46.728.19-Jul-2021 4561.50 6748.03 71.41 30.00 368.54 2747.31
   13:50:46.929.19-Jul-2021 4561.50 6721.87 71.41 30.00 368.74 2747.31
   13:50:47.129.19-Jul-2021 4561.50 6715.23 71.41 30.00 368.94 2747.31
   13:50:47.329.19-Jul-2021 4561.50 6721.30 71.41 30.00 369.14 2747.31
   13:50:47.529.19-Jul-2021 4561.50 6721.30 71.41 30.00 369.34 2747.31
   13:50:47.729.19-Jul-2021 4561.50 6714.67 71.41 30.00 369.54 2747.31
   13:50:47.929.19-Jul-2021 4561.50 6716.13 71.41 30.00 369.74 2747.31
   13:50:48.129.19-Jul-2021 4561.50 6716.92 71.41 30.00 369.94 2747.31
   13:50:48.329.19-Jul-2021 4561.50 6715.04 71.41 30.00 370.14 2747.31
   13:50:48.529.19-Jul-2021 4561.50 6715.04 71.41 30.00 370.34 2747.31
   13:50:48.729.19-Jul-2021 4561.50 6716.02 71.41 30.00 370.54 2747.31
   13:50:48.929.19-Jul-2021 4561.50 6714.83 71.41 30.00 370.74 2747.31
   13:50:49.129.19-Jul-2021 4561.50 6714.64 71.41 30.00 370.94 2747.31
   13:50:49.329.19-Jul-2021 4561.50 6714.56 71.41 30.00 371.14 2747.31
   13:50:49.529.19-Jul-2021 4561.50 6714.56 71.41 30.00 371.34 2747.31
   13:50:49.730.19-Jul-2021 4561.50 6723.13 71.41 30.00 371.54 2747.31
   13:50:49.930.19-Jul-2021 4561.50 6714.35 71.41 30.00 371.74 2747.31
   13:50:50.130.19-Jul-2021 4561.50 6719.82 71.41 30.00 371.94 2747.31
   13:50:50.330.19-Jul-2021 4561.50 6717.01 71.41 30.00 372.14 2747.31
   13:50:50.530.19-Jul-2021 4561.50 6717.01 71.41 30.00 372.34 2747.31
   13:50:50.730.19-Jul-2021 4561.50 6715.58 71.41 30.00 372.54 2747.31
   13:50:50.930.19-Jul-2021 4561.50 6717.39 71.41 30.00 372.74 2747.31
   13:50:51.130.19-Jul-2021 4561.50 6715.66 71.41 30.00 372.94 2747.31
   13:50:51.330.19-Jul-2021 4561.50 6714.90 71.41 30.00 373.14 2747.31
   13:50:51.530.19-Jul-2021 4561.50 6714.90 71.41 30.00 373.34 2747.31
   13:50:51.730.19-Jul-2021 4561.50 6715.66 71.41 30.00 373.54 2747.31
   13:50:51.930.19-Jul-2021 4561.50 6715.02 71.41 30.00 373.74 2747.31
   13:50:52.130.19-Jul-2021 4561.50 6740.76 71.41 30.00 373.94 2747.31
   13:50:52.331.19-Jul-2021 4561.50 6723.93 71.41 30.00 374.14 2747.31
   13:50:52.531.19-Jul-2021 4561.50 6723.93 71.41 30.00 374.34 2747.31
   13:50:52.731.19-Jul-2021 4561.50 6744.39 71.41 30.00 374.54 2747.31
   13:50:52.931.19-Jul-2021 4561.50 6727.83 71.41 30.00 374.74 2747.31
   13:50:53.131.19-Jul-2021 4561.50 6712.34 71.41 30.00 374.94 2747.31
   13:50:53.331.19-Jul-2021 4561.50 6720.81 71.41 30.00 375.14 2747.31
   13:50:53.531.19-Jul-2021 4561.50 6720.81 71.41 30.00 375.34 2747.31
   13:50:53.731.19-Jul-2021 4561.50 6722.70 71.41 30.00 375.54 2747.31
   13:50:53.931.19-Jul-2021 4561.50 6710.95 71.41 30.00 375.74 2747.31
   13:50:54.131.19-Jul-2021 4561.50 6721.97 71.41 30.00 375.94 2747.31
   13:50:54.331.19-Jul-2021 4561.50 6741.45 71.41 30.00 376.14 2747.31
   13:50:54.531.19-Jul-2021 4561.50 6741.45 71.41 30.00 376.34 2747.31
   13:50:54.731.19-Jul-2021 4561.50 6712.12 71.41 30.00 376.54 2747.31
   13:50:54.931.19-Jul-2021 4561.50 6726.52 71.41 30.00 376.74 2747.31
   13:50:55.132.19-Jul-2021 4561.50 6740.24 71.41 30.00 376.94 2747.31
   13:50:55.332.19-Jul-2021 4561.50 6718.73 71.41 30.00 377.14 2747.31
   13:50:55.532.19-Jul-2021 4561.50 6718.73 71.41 30.00 377.34 2747.31
   13:50:55.732.19-Jul-2021 4561.50 6722.27 71.41 30.00 377.54 2747.31
   13:50:55.932.19-Jul-2021 4561.50 6720.46 71.41 30.00 377.74 2747.31
   13:50:56.132.19-Jul-2021 4561.50 6716.85 71.41 30.00 377.94 2747.31
   13:50:56.332.19-Jul-2021 4561.50 6716.05 71.41 30.00 378.14 2747.31
   13:50:56.532.19-Jul-2021 4561.50 6716.05 71.41 30.00 378.34 2747.31
   13:50:56.732.19-Jul-2021 4561.50 6716.86 71.41 30.00 378.54 2747.31
   13:50:56.932.19-Jul-2021 4561.50 6715.69 71.41 30.00 378.74 2747.31
   13:50:57.132.19-Jul-2021 4561.50 6715.58 71.41 30.00 378.94 2747.31
   13:50:57.332.19-Jul-2021 4561.50 6715.29 71.41 30.00 379.14 2747.31
   13:50:57.532.19-Jul-2021 4561.50 6715.29 71.41 30.00 379.34 2747.31
   13:50:57.733.19-Jul-2021 4561.50 6717.44 71.41 30.00 379.54 2747.31
   13:50:57.933.19-Jul-2021 4561.50 6725.86 71.41 30.00 379.74 2747.31
   13:50:58.133.19-Jul-2021 4561.50 6733.93 71.41 30.00 379.94 2747.31
   13:50:58.333.19-Jul-2021 4561.50 6711.14 71.41 30.00 380.14 2747.31
   13:50:58.533.19-Jul-2021 4561.50 6711.14 71.41 30.00 380.34 2747.31
   13:50:58.733.19-Jul-2021 4561.50 6723.69 71.41 30.00 380.54 2747.31
   13:50:58.933.19-Jul-2021 4561.50 6715.73 71.41 30.00 380.74 2747.31
   13:50:59.133.19-Jul-2021 4561.50 6715.62 71.41 30.00 380.94 2747.31
   13:50:59.333.19-Jul-2021 4561.50 6715.67 71.41 30.00 381.14 2747.31
   13:50:59.533.19-Jul-2021 4561.50 6715.67 71.41 30.00 381.34 2747.31
   13:50:59.733.19-Jul-2021 4561.50 6715.75 71.41 30.00 381.54 2747.31
   13:50:59.933.19-Jul-2021 4561.50 6715.80 71.41 30.00 381.74 2747.31
   13:51:00.133.19-Jul-2021 4561.50 6716.23 71.41 30.00 381.94 2747.31
   13:51:00.333.19-Jul-2021 4561.50 6718.13 71.41 30.00 382.14 2747.31
   13:51:00.534.19-Jul-2021 4561.50 6718.13 71.41 30.00 382.34 2747.31
   13:51:00.734.19-Jul-2021 4561.50 6727.10 71.41 30.00 382.54 2747.31
   13:51:00.934.19-Jul-2021 4561.50 6713.33 71.41 30.00 382.74 2747.31
   13:51:01.134.19-Jul-2021 4561.50 6737.22 71.41 30.00 382.94 2747.31
   13:51:01.334.19-Jul-2021 4561.50 6732.72 71.41 30.00 383.14 2747.31
   13:51:01.534.19-Jul-2021 4561.50 6732.72 71.41 30.00 383.34 2747.31
   13:51:01.734.19-Jul-2021 4561.50 6719.38 71.41 30.00 383.54 2747.31
   13:51:01.934.19-Jul-2021 4561.50 6746.41 71.41 30.00 383.74 2747.31
   13:51:02.134.19-Jul-2021 4561.50 6718.29 71.41 30.00 383.94 2747.31
   13:51:02.334.19-Jul-2021 4561.50 6709.54 71.41 30.00 384.14 2747.31
