~Version Information
 VERS.                  2.0:   CWLS log ASCII Standard -VERSION 2.0
 WRAP.                   NO:   One line per depth step
~Well Information Block
#MNEM.UNIT     VALUE/NAME     DESCRIPTION
#---------     -----------    ---------------------------
 STRT.S             14:01:43 18-Jul-21: START TIME 14:01:43 18-Jul-21
 STOP.S             14:08:15 18-Jul-21: STOP TIME  14:08:15 18-Jul-21
 STEP.S                   0.00: STEP TIME
 NULL.                 -999.25: NULL VALUE
 MDS .        Operator Entered:  MAG DATA SOURCE
 PDAT.          Mean Sea Level:  PERMANENT DATUM
 UNIT.                     N/A:  LOGGING EQUIPMENT ID
 DCON.         Sperry Drilling:  DIRECTNL CONTR
 DOE .                     N/A:  DOE NUMBER
 RIG .              West Azeri:  RIG NAME
 JOBN.        AZ-XX-0906997913:  JOB TICKET NUMB
 WELL.                     C41:  WELL NAME
 MWDS.                    Baku:  MWD SHOP
 SRVC.          Turan Drilling:  CONTRACTOR
 FLD .                     ACG:  FIELD NAME
 CTRY.              Azerbaijan:  COUNTRY NAME
 PROV.                    Baku:  PROVINCE
 STAT.                    Baku:  STATE NAME
 REGN.                   EESSA:  REGION
 BASE.              Azerbaijan:  LOGGING EQUIPMENT BASE LOCATION
 UWI .                     N/A:  UNIQUE WELL IDENTIFIER
 API .                     N/A:  API NUMBER
 COMP.     BP Exploration (Caspian Sea) Ltd.:  COMPANY
 WTYP.                Deviated:  WELL TYPE
 SON .        AZ-XX-0906997913:  JOB NUMBER
 FTOP.          Formation Tops:  FORM TOPS DESC
 ILTD.               Lithology:  INTERP LTH DESC
 SVYD.                  Survey:  SURVEY DESC
 DMOD.             Drill Model:  DRILL MOD DESC
 HPTY.       Minimum Curvature:  HOLE POS TYPE
 NREF.                    Grid:  NORTH REFERENCE
 SPUD.               16-May-21:  SPUD DATE
 DATE.      21.11.28 17-May-21:  END TIME
 STIM.      21.11.28 17-May-21:  START TIME
 DMF .             Drill Floor:  DRILL MEAS FROM
 DFST.                        :  DIST FSL TEXT
 DFWT.                        :  DIST FWL TEXT
 CNTY.                        :  COUNTY
 LOC .                        :  LOCATION
 LMF .             Drill Floor:  LOG MEASURED FROM
 AGAP.m                  43.42:  AIR GAP
 VSNS.m                  -2.16:  VERT SEC N/S
 VSEW.m                  -6.24:  VERT SEC E/W
 APD .m                  43.42:  DEPTH ABOVE PD
 WDMS.m                 118.27:  WD ELEV
 EGL .m                   0.00:  GROUND ELEVATION
 EPD .m                   0.00:  ELEVATION
 AZTC.deg                 6.29:  AZM TOTAL CORR
 GRDC.deg                 0.18:  GRID CORRECTION
 MDEC.deg                 6.47:  MAGNETIC DECL
 MDIP.deg                59.54:  MAGNETIC DIP
 MFLD.nT              50337.00:  MAGNETIC FIELD
 GVFD.g                   1.00:  GRAVITY FIELD
 VSDR.deg               226.99:  VERT SEC DIRECT
 TDD .m                   0.00:  TOTAL DEPTH (DRILLER)
 SDEP.m                 448.00:  START DEPTH
 DFSL.m                   0.00:  DISTANCE FSL
 DFWL.m                   0.00:  DISTANCE FWL
 UTMY.m             4435799.96:  UTM Y
 UTMX.m              526265.35:  UTM X
 WHEW.m                  -6.24:  WELL HEAD E/W
 WHNS.m                  -2.16:  WELL HEAD N/S
 LONG.deg                51.31:  LONGITUDE
 LATI.deg                40.06:  LATITUDE
 TVDS.m                  43.42:  TVDSS CORRECTN
 EKB .m                  43.42:  KB ELEVATION
 EDF .m                  43.42:  DF ELEVATION
 TDL .m                 288.00:  TOTAL DEPTH (LOGGER)
 MAGU.                 1851863:  MAGUTM CHECKSUM
 VSC .                       0:  VS TO CLOSURE
~Parameter Information Block
#MNEM.UNIT       Value        Description
#---------     -----------    ---------------------------
 AV  .mps                 0.40:  Ann Velocity 
 AVMX.mps                 0.63:  Max Ann Veloc 
 AZIF.deg               158.76:  Azm, Final 
 BHAT.        Rotary Steerable:  BHA Type 
 BROT.°/30m               0.68:  Build Rotating 
 BS  .in                  8.50:  Bit Size 
 BSZ .in                  8.50:  Bit Size 
 BTPL.psig              712.00:  Bit Press Loss 
 CABU.                      No:  Customer Abuse 
 COMM.                     <©Q:  Run Comments 1 
 TCS .hr                 90.66:  Time Ciculation Ended 
 CV  .mps                 2.02:  Crit Velocity 
 CVMX.mps                 2.14:  Max Crit Veloc 
 DD1 .            Aziz Aliyevu:  Direct Drillr 1 
 DD2 .             Samir Abbas:  Direct Drillr 2 
 DD3 .           Teymur Aliyev:  Direct Drillr 3 
 DDSV.                 iCruise:  DD Service 
 DEFF.%                  85.10:  % Det Eff 
 DLRX.°/30m               1.05:  Dogleg Rot Max 
 DLSO.°/30m               1.01:  Dogleg Oriented 
 DLSX.°/30m               1.05:  Dogleg Str Max 
 DRET.      07.45.00 18-Jul-21:  Drill End Time 
 DRST.      15.00.00 16-Jul-21:  Drill Start Tim 
 DTIM.hr                 23.46:  Time Drilling 
 EDEP.m                4603.00:  End Depth 
 ENG1.       Seymur Iskandarov:  Engineer 1 
 ENG2.         Yevgeniy Ulikov:  Engineer 2 
 ENG3.         Bahruz Mehdiyev:  Engineer 3 
 ENG4.         Elchin Mammadov:  Engineer 4 
 ETIM.      14.00.00 23-Jul-21:  End Time 
 FLOI.gpm               500.00:  Flow In 
 FLON.gpm               450.00:  Flow In Min 
 FLOS.cptm                0.00:  Fluid Loss 
 FLOX.gpm               560.00:  Flow In Max 
 DFT .        Mineral Oil Base:  Mud Type 
 FTRO.       Formation Presure:  FTWD Run Obj 
 HFLO.                      No:  High Flow 
 HPRE.                      No:  High Pressure 
 HTEM.                      No:  High Temp 
 HYDO.m                   1.80:  Hydro Offset 
 IFIN.deg                40.22:  Inc, Final 
 IMAX.deg                40.54:  Inc Max 
 IMIN.deg                39.44:  Inc Min 
 IMND.m                4361.17:  Inc Min Depth 
 IMXD.m                4417.92:  Inc Max Depth 
 JARR.                      No:  Jarring 
 LETM.      07.45.00 18-Jul-21:  Log End Time 
 LOST.hr                    16:  Lost Rig Time 
 LSTM.      15.00.00 16-Jul-21:  Log Start Time 
 MDCL.ppm             36500.00:  Mud Chlorides 
 MDES.     Inversion Oil/Synthetic:  Mud Desc 
 DFD .sg                  1.42:  Mud Density 
 MDMN.sg                  1.42:  Dens Mud Min 
 MDMX.sg                  1.43:  Dens Mud Max 
 MOIL.                      56:  Run Mud Oil % 
 MOWR.                   71:29:  Run Mud OWR 
 MSND.                     0.5:  Run Mud Sand % 
 MSOL.                      21:  Run Mud Solids% 
 DFV .spqt               78.00:  Mud Viscosity 
 MWOD.in                  6.75:  MWD Tool OD 
 MWSI.                     Yes:  Serv Intrp, MWD 
 OTIM.hr                200.73:  Time Operating 
 PCON.           Look Like New:  Pad Condition 
 PMAX.psia            11069.93:  Press Op, Max 
 PV  .cP                 32.00:  Mud PV 
 RUN .                     700:  Run Number 
 ROPA.m/hr               10.00:  ROP Avg 
 ROPN.m/hr                9.00:  ROP Min 
 ROPX.m/hr               16.00:  ROP Max 
 RPMA.rpm               116.00:  RPM Surface Avg 
 RPMN.rpm                80.00:  RPM Surface Min 
 RPMX.rpm               120.00:  RPM Surface Max 
 RRUN.                    L605:  Rig Run Number 
 RTIM.hr                 45.00:  Time Reaming 
 SAZI.deg               159.86:  Azm, Start 
 SDEP.m                4315.00:  Start Depth 
 SIDD.                      No:  Serv Intrp, DD 
 SINC.deg                39.86:  Inc, Start 
 SPPA.psig             3300.00:  SPP Avg 
 SPPN.psig             3040.00:  SPP Min 
 SPPX.psig             3645.00:  SPP Max 
 STIM.      01.00.00 15-Jul-21:  Start Time 
 SVCS.                 DD, MWD:  Services 
 SVER.                    9.20:  Sperry Version 
 TDAT.m                 288.00:  Tot Depth Attmp 
 TDDF.                      No:  Trip for DD 
 TDLG.m                 288.00:  Tot Depth Loggd 
 TFF .                      No:  Trip for Fail 
 TQAA.f-kp               19.00:  Torque Abs Avg 
 TQAN.f-kp               18.00:  Torque Abs Min 
 TQAX.f-kp               21.00:  Torque Abs Max 
 TRRT.°/30m               0.45:  Turn Rotating 
 MRT .                    HCIM:  Maximum Recorded Temperature 
 TTMX.degC               88.24:  Max Tool Temp 
 VS01.                90649157:  Virtual Str1 SN 
 VS02.                90652483:  Virtual Str2 SN 
 VS03.                11671987:  Virtual Str3 SN 
 VS04.                90643411:  Virtual Str4 SN 
 VS05.                90652478:  Virtual Str5 SN 
 VS06.                    6111:  Virtual Str6 SN 
 WBMN.klb                 9.50:  WOB Min 
 WITN.        Grigoriy Sarayev:  Customer Rep 
 WITN.          Rufat Huseynov:  Customer Rep 2 
 WOBA.klb                11.00:  WOB Avg 
 WOBX.klb                15.00:  WOB Max 
 YP  .lhf2               28.00:  Yield Point 
~Curve Information Block
#MNEM.UNIT                 API CODE     Curve Description
#---------               -----------    ---------------------------
 TIME.HHMMSS            00 000 000 000:  GT Time & Date
 GTDEPTH.m              00 000 000 000:  GT Depth
 GTPQH.psia             00 000 000 000:  GT HR Quartz Pressure
 GTTQ.degC              00 000 000 000:  GT Quartz Temperature
 GTTN.NONE              00 000 000 000:  GT Test Number
 GTET.sec               00 000 000 000:  GT Elapsed Test Time
 GTTVD.m                00 000 000 000:  GT True Vertical Depth
#Other Information
#
#WARRANTY: Halliburton will use its best efforts to furnish customers with 
#accurate information and interpretations that are part of, and incident to, the services 
#provided.  However, Halliburton cannot and does not warrant the accuracy 
#or correctness of such information and interpretations.  Under no circumstances should any 
#such information or interpretation be relied upon as the sole basis for any drilling, 
#completion, production, or financial decision or any procedure involving any risk to the 
#safety of any drilling venture, drilling rig or its crew or any other third party.  The 
#Customer has full responsibility for all drilling, completion and production operation.  
#Halliburton makes no representations or warranties, either expressed or 
#implied, including, but not limited to, the implied warranties of merchantability or fitness 
#for a particular purpose, with respect to the services rendered.  In no event will 
#Halliburton be liable for failure to obtain any particular results or for 
#any damages, including, but not limited to, indirect, special or consequential damages, 
#resulting from the use of any information or interpretation provided by Halliburton.
#
~A           TIME           GTDEPTH  GTPQH  GTTQ  GTTN  GTET   GTTVD  
# ...
   14:07:51.893.18-Jul-2021 4559.00 6694.21 75.35 3.00 368.14 2745.40
   14:07:52.093.18-Jul-2021 4559.00 6694.21 75.35 3.00 368.34 2745.40
   14:07:52.293.18-Jul-2021 4559.00 6674.55 75.35 3.00 368.54 2745.40
   14:07:52.493.18-Jul-2021 4559.00 6682.16 75.35 3.00 368.74 2745.40
   14:07:52.693.18-Jul-2021 4559.00 6677.68 75.35 3.00 368.94 2745.40
   14:07:52.893.18-Jul-2021 4559.00 6675.93 75.35 3.00 369.14 2745.40
   14:07:53.093.18-Jul-2021 4559.00 6675.93 75.35 3.00 369.34 2745.40
   14:07:53.293.18-Jul-2021 4559.00 6677.06 75.35 3.00 369.54 2745.40
   14:07:53.493.18-Jul-2021 4559.00 6676.54 75.35 3.00 369.74 2745.40
   14:07:53.693.18-Jul-2021 4559.00 6675.90 75.35 3.00 369.94 2745.40
   14:07:53.893.18-Jul-2021 4559.00 6675.40 75.35 3.00 370.14 2745.40
   14:07:54.093.18-Jul-2021 4559.00 6675.40 75.35 3.00 370.34 2745.40
   14:07:54.293.18-Jul-2021 4559.00 6676.47 75.35 3.00 370.54 2745.40
   14:07:54.494.18-Jul-2021 4559.00 6674.93 75.35 3.00 370.74 2745.40
   14:07:54.694.18-Jul-2021 4559.00 6690.42 75.35 3.00 370.94 2745.40
   14:07:54.894.18-Jul-2021 4559.00 6683.91 75.35 3.00 371.14 2745.40
   14:07:55.094.18-Jul-2021 4559.00 6683.91 75.35 3.00 371.34 2745.40
   14:07:55.294.18-Jul-2021 4559.00 6675.54 75.35 3.00 371.54 2745.40
   14:07:55.494.18-Jul-2021 4559.00 6678.19 75.35 3.00 371.74 2745.40
   14:07:55.694.18-Jul-2021 4559.00 6672.21 75.35 3.00 371.94 2745.40
   14:07:55.894.18-Jul-2021 4559.00 6672.27 75.35 3.00 372.14 2745.40
   14:07:56.094.18-Jul-2021 4559.00 6672.27 75.35 3.00 372.34 2745.40
   14:07:56.294.18-Jul-2021 4559.00 6673.16 75.35 3.00 372.54 2745.40
   14:07:56.494.18-Jul-2021 4559.00 6673.38 75.35 3.00 372.74 2745.40
   14:07:56.694.18-Jul-2021 4559.00 6673.61 75.35 3.00 372.94 2745.40
   14:07:56.894.18-Jul-2021 4559.00 6674.44 75.35 3.00 373.14 2745.40
   14:07:57.095.18-Jul-2021 4559.00 6674.44 75.35 3.00 373.34 2745.40
   14:07:57.295.18-Jul-2021 4559.00 6689.52 75.35 3.00 373.54 2745.40
   14:07:57.495.18-Jul-2021 4559.00 6684.00 75.35 3.00 373.74 2745.40
   14:07:57.695.18-Jul-2021 4559.00 6670.24 75.35 3.00 373.94 2745.40
   14:07:57.895.18-Jul-2021 4559.00 6698.12 75.35 3.00 374.14 2745.40
   14:07:58.095.18-Jul-2021 4559.00 6698.12 75.35 3.00 374.34 2745.40
   14:07:58.295.18-Jul-2021 4559.00 6670.08 75.35 3.00 374.54 2745.40
   14:07:58.495.18-Jul-2021 4559.00 6693.51 75.35 3.00 374.74 2745.40
   14:07:58.695.18-Jul-2021 4559.00 6687.98 75.35 3.00 374.94 2745.40
   14:07:58.895.18-Jul-2021 4559.00 6671.62 75.35 3.00 375.14 2745.40
   14:07:59.095.18-Jul-2021 4559.00 6671.62 75.35 3.00 375.34 2745.40
   14:07:59.295.18-Jul-2021 4559.00 6702.43 75.35 3.00 375.54 2745.40
   14:07:59.495.18-Jul-2021 4559.00 6670.51 75.35 3.00 375.74 2745.40
   14:07:59.695.18-Jul-2021 4559.00 6683.52 75.35 3.00 375.94 2745.40
   14:07:59.896.18-Jul-2021 4559.00 6702.94 75.35 3.00 376.14 2745.40
   14:08:00.096.18-Jul-2021 4559.00 6702.94 75.35 3.00 376.34 2745.40
   14:08:00.296.18-Jul-2021 4559.00 6679.32 75.35 3.00 376.54 2745.40
   14:08:00.496.18-Jul-2021 4559.00 6680.90 75.35 3.00 376.74 2745.40
   14:08:00.696.18-Jul-2021 4559.00 6671.94 75.35 3.00 376.94 2745.40
   14:08:00.896.18-Jul-2021 4559.00 6674.30 75.35 3.00 377.14 2745.40
   14:08:01.096.18-Jul-2021 4559.00 6674.30 75.35 3.00 377.34 2745.40
   14:08:01.296.18-Jul-2021 4559.00 6675.05 75.35 3.00 377.54 2745.40
   14:08:01.496.18-Jul-2021 4559.00 6674.07 75.35 3.00 377.74 2745.40
   14:08:01.696.18-Jul-2021 4559.00 6673.85 75.35 3.00 377.94 2745.40
   14:08:01.896.18-Jul-2021 4559.00 6674.26 75.35 3.00 378.14 2745.40
   14:08:02.096.18-Jul-2021 4559.00 6674.26 75.35 3.00 378.34 2745.40
   14:08:02.296.18-Jul-2021 4559.00 6674.74 75.35 3.00 378.54 2745.40
   14:08:02.497.18-Jul-2021 4559.00 6674.99 75.35 3.00 378.74 2745.40
   14:08:02.697.18-Jul-2021 4559.00 6698.07 75.35 3.00 378.94 2745.40
   14:08:02.897.18-Jul-2021 4559.00 6686.67 75.35 3.00 379.14 2745.40
   14:08:03.097.18-Jul-2021 4559.00 6686.67 75.35 3.00 379.34 2745.40
   14:08:03.297.18-Jul-2021 4559.00 6681.81 75.35 3.00 379.54 2745.40
   14:08:03.497.18-Jul-2021 4559.00 6673.76 75.35 3.00 379.74 2745.40
   14:08:03.697.18-Jul-2021 4559.00 6673.58 75.35 3.00 379.94 2745.40
   14:08:03.897.18-Jul-2021 4559.00 6674.38 75.35 3.00 380.14 2745.40
   14:08:04.097.18-Jul-2021 4559.00 6674.38 75.35 3.00 380.34 2745.40
   14:08:04.297.18-Jul-2021 4559.00 6672.80 75.35 3.00 380.54 2745.40
   14:08:04.497.18-Jul-2021 4559.00 6671.95 75.35 3.00 380.74 2745.40
   14:08:04.697.18-Jul-2021 4559.00 6671.56 75.35 3.00 380.94 2745.40
   14:08:04.897.18-Jul-2021 4559.00 6671.66 75.35 3.00 381.14 2745.40
   14:08:05.097.18-Jul-2021 4559.00 6671.66 75.35 3.00 381.34 2745.40
   14:08:05.298.18-Jul-2021 4559.00 6694.53 75.35 3.00 381.54 2745.40
   14:08:05.498.18-Jul-2021 4559.00 6682.70 75.35 3.00 381.74 2745.40
   14:08:05.698.18-Jul-2021 4559.00 6673.26 75.35 3.00 381.94 2745.40
   14:08:05.898.18-Jul-2021 4559.00 6703.61 75.35 3.00 382.14 2745.40
   14:08:06.098.18-Jul-2021 4559.00 6703.61 75.35 3.00 382.34 2745.40
   14:08:06.298.18-Jul-2021 4559.00 6673.94 75.35 3.00 382.54 2745.40
   14:08:06.498.18-Jul-2021 4559.00 6703.75 75.35 3.00 382.74 2745.40
   14:08:06.698.18-Jul-2021 4559.00 6682.87 75.35 3.00 382.94 2745.40
   14:08:06.898.18-Jul-2021 4559.00 6675.37 75.35 3.00 383.14 2745.40
   14:08:07.098.18-Jul-2021 4559.00 6675.37 75.35 3.00 383.34 2745.40
   14:08:07.298.18-Jul-2021 4559.00 6695.73 75.35 3.00 383.54 2745.40
   14:08:07.498.18-Jul-2021 4559.00 6674.89 75.35 3.00 383.74 2745.40
   14:08:07.698.18-Jul-2021 4559.00 6676.15 75.35 3.00 383.94 2745.40
   14:08:07.898.18-Jul-2021 4559.00 6680.12 75.35 3.00 384.14 2745.40
   14:08:08.099.18-Jul-2021 4559.00 6680.12 75.35 3.00 384.34 2745.40
   14:08:08.299.18-Jul-2021 4559.00 6697.07 75.35 3.00 384.54 2745.40
   14:08:08.499.18-Jul-2021 4559.00 6680.87 75.35 3.00 384.74 2745.40
   14:08:08.699.18-Jul-2021 4559.00 6680.87 75.35 3.00 384.94 2745.40
   14:08:08.899.18-Jul-2021 4559.00 6680.11 75.35 3.00 385.14 2745.40
   14:08:09.099.18-Jul-2021 4559.00 6680.11 75.35 3.00 385.34 2745.40
   14:08:09.299.18-Jul-2021 4559.00 6675.59 75.35 3.00 385.54 2745.40
   14:08:09.499.18-Jul-2021 4559.00 6675.60 75.35 3.00 385.74 2745.40
   14:08:09.699.18-Jul-2021 4559.00 6676.11 75.35 3.00 385.94 2745.40
   14:08:09.899.18-Jul-2021 4559.00 6676.25 75.35 3.00 386.14 2745.40
   14:08:10.099.18-Jul-2021 4559.00 6676.25 75.35 3.00 386.34 2745.40
   14:08:10.299.18-Jul-2021 4559.00 6676.28 75.35 3.00 386.54 2745.40
   14:08:10.499.18-Jul-2021 4559.00 6676.23 75.35 3.00 386.74 2745.40
   14:08:10.700.18-Jul-2021 4559.00 6676.36 75.35 3.00 386.94 2745.40
   14:08:10.900.18-Jul-2021 4559.00 6678.25 75.35 3.00 387.14 2745.40
   14:08:11.100.18-Jul-2021 4559.00 6678.25 75.35 3.00 387.34 2745.40
   14:08:11.300.18-Jul-2021 4559.00 6686.64 75.35 3.00 387.54 2745.40
   14:08:11.500.18-Jul-2021 4559.00 6672.00 75.35 3.00 387.74 2745.40
   14:08:11.700.18-Jul-2021 4559.00 6677.61 75.35 3.00 387.94 2745.40
   14:08:11.900.18-Jul-2021 4559.00 6680.14 75.35 3.00 388.14 2745.40
   14:08:12.100.18-Jul-2021 4559.00 6680.14 75.35 3.00 388.34 2745.40
   14:08:12.300.18-Jul-2021 4559.00 6672.92 75.35 3.00 388.54 2745.40
   14:08:12.500.18-Jul-2021 4559.00 6671.80 75.35 3.00 388.74 2745.40
   14:08:12.700.18-Jul-2021 4559.00 6671.51 75.35 3.00 388.94 2745.40
   14:08:12.900.18-Jul-2021 4559.00 6671.44 75.35 3.00 389.14 2745.40
   14:08:13.100.18-Jul-2021 4559.00 6671.44 75.35 3.00 389.34 2745.40
   14:08:13.300.18-Jul-2021 4559.00 6670.53 75.35 3.00 389.54 2745.40
   14:08:13.501.18-Jul-2021 4559.00 6672.58 75.35 3.00 389.74 2745.40
   14:08:13.701.18-Jul-2021 4559.00 6692.08 75.35 3.00 389.94 2745.40
   14:08:13.901.18-Jul-2021 4559.00 6682.46 75.35 3.00 390.14 2745.40
   14:08:14.101.18-Jul-2021 4559.00 6682.46 75.35 3.00 390.34 2745.40
   14:08:14.301.18-Jul-2021 4559.00 6700.43 75.35 3.00 390.54 2745.40
   14:08:14.501.18-Jul-2021 4559.00 6684.43 75.35 3.00 390.74 2745.40
   14:08:14.701.18-Jul-2021 4559.00 6671.39 75.35 3.00 390.94 2745.40
