~Version Information
 VERS.                  2.0:   CWLS log ASCII Standard -VERSION 2.0
 WRAP.                   NO:   One line per depth step
~Well Information Block
#MNEM.UNIT     VALUE/NAME     DESCRIPTION
#---------     -----------    ---------------------------
 STRT.S             23:29:17 18-Jul-21: START TIME 23:29:17 18-Jul-21
 STOP.S             23:35:51 18-Jul-21: STOP TIME  23:35:51 18-Jul-21
 STEP.S                   0.00: STEP TIME
 NULL.                 -999.25: NULL VALUE
 MDS .        Operator Entered:  MAG DATA SOURCE
 PDAT.          Mean Sea Level:  PERMANENT DATUM
 UNIT.                     N/A:  LOGGING EQUIPMENT ID
 DCON.         Sperry Drilling:  DIRECTNL CONTR
 DOE .                     N/A:  DOE NUMBER
 RIG .              West Azeri:  RIG NAME
 JOBN.        AZ-XX-0906997913:  JOB TICKET NUMB
 WELL.                     C41:  WELL NAME
 MWDS.                    Baku:  MWD SHOP
 SRVC.          Turan Drilling:  CONTRACTOR
 FLD .                     ACG:  FIELD NAME
 CTRY.              Azerbaijan:  COUNTRY NAME
 PROV.                    Baku:  PROVINCE
 STAT.                    Baku:  STATE NAME
 REGN.                   EESSA:  REGION
 BASE.              Azerbaijan:  LOGGING EQUIPMENT BASE LOCATION
 UWI .                     N/A:  UNIQUE WELL IDENTIFIER
 API .                     N/A:  API NUMBER
 COMP.     BP Exploration (Caspian Sea) Ltd.:  COMPANY
 WTYP.                Deviated:  WELL TYPE
 SON .        AZ-XX-0906997913:  JOB NUMBER
 FTOP.          Formation Tops:  FORM TOPS DESC
 ILTD.               Lithology:  INTERP LTH DESC
 SVYD.                  Survey:  SURVEY DESC
 DMOD.             Drill Model:  DRILL MOD DESC
 HPTY.       Minimum Curvature:  HOLE POS TYPE
 NREF.                    Grid:  NORTH REFERENCE
 SPUD.               16-May-21:  SPUD DATE
 DATE.      21.11.28 17-May-21:  END TIME
 STIM.      21.11.28 17-May-21:  START TIME
 DMF .             Drill Floor:  DRILL MEAS FROM
 DFST.                        :  DIST FSL TEXT
 DFWT.                        :  DIST FWL TEXT
 CNTY.                        :  COUNTY
 LOC .                        :  LOCATION
 LMF .             Drill Floor:  LOG MEASURED FROM
 AGAP.m                  43.42:  AIR GAP
 VSNS.m                  -2.16:  VERT SEC N/S
 VSEW.m                  -6.24:  VERT SEC E/W
 APD .m                  43.42:  DEPTH ABOVE PD
 WDMS.m                 118.27:  WD ELEV
 EGL .m                   0.00:  GROUND ELEVATION
 EPD .m                   0.00:  ELEVATION
 AZTC.deg                 6.29:  AZM TOTAL CORR
 GRDC.deg                 0.18:  GRID CORRECTION
 MDEC.deg                 6.47:  MAGNETIC DECL
 MDIP.deg                59.54:  MAGNETIC DIP
 MFLD.nT              50337.00:  MAGNETIC FIELD
 GVFD.g                   1.00:  GRAVITY FIELD
 VSDR.deg               226.99:  VERT SEC DIRECT
 TDD .m                   0.00:  TOTAL DEPTH (DRILLER)
 SDEP.m                 448.00:  START DEPTH
 DFSL.m                   0.00:  DISTANCE FSL
 DFWL.m                   0.00:  DISTANCE FWL
 UTMY.m             4435799.96:  UTM Y
 UTMX.m              526265.35:  UTM X
 WHEW.m                  -6.24:  WELL HEAD E/W
 WHNS.m                  -2.16:  WELL HEAD N/S
 LONG.deg                51.31:  LONGITUDE
 LATI.deg                40.06:  LATITUDE
 TVDS.m                  43.42:  TVDSS CORRECTN
 EKB .m                  43.42:  KB ELEVATION
 EDF .m                  43.42:  DF ELEVATION
 TDL .m                 288.00:  TOTAL DEPTH (LOGGER)
 MAGU.                 1851863:  MAGUTM CHECKSUM
 VSC .                       0:  VS TO CLOSURE
~Parameter Information Block
#MNEM.UNIT       Value        Description
#---------     -----------    ---------------------------
 AV  .mps                 0.40:  Ann Velocity 
 AVMX.mps                 0.63:  Max Ann Veloc 
 AZIF.deg               158.76:  Azm, Final 
 BHAT.        Rotary Steerable:  BHA Type 
 BROT.°/30m               0.68:  Build Rotating 
 BS  .in                  8.50:  Bit Size 
 BSZ .in                  8.50:  Bit Size 
 BTPL.psig              712.00:  Bit Press Loss 
 CABU.                      No:  Customer Abuse 
 COMM.                     $¸T:  Run Comments 1 
 TCS .hr                 90.66:  Time Ciculation Ended 
 CV  .mps                 2.02:  Crit Velocity 
 CVMX.mps                 2.14:  Max Crit Veloc 
 DD1 .            Aziz Aliyevu:  Direct Drillr 1 
 DD2 .             Samir Abbas:  Direct Drillr 2 
 DD3 .           Teymur Aliyev:  Direct Drillr 3 
 DDSV.                 iCruise:  DD Service 
 DEFF.%                  85.10:  % Det Eff 
 DLRX.°/30m               1.05:  Dogleg Rot Max 
 DLSO.°/30m               1.01:  Dogleg Oriented 
 DLSX.°/30m               1.05:  Dogleg Str Max 
 DRET.      07.45.00 18-Jul-21:  Drill End Time 
 DRST.      15.00.00 16-Jul-21:  Drill Start Tim 
 DTIM.hr                 23.46:  Time Drilling 
 EDEP.m                4603.00:  End Depth 
 ENG1.       Seymur Iskandarov:  Engineer 1 
 ENG2.         Yevgeniy Ulikov:  Engineer 2 
 ENG3.         Bahruz Mehdiyev:  Engineer 3 
 ENG4.         Elchin Mammadov:  Engineer 4 
 ETIM.      14.00.00 23-Jul-21:  End Time 
 FLOI.gpm               500.00:  Flow In 
 FLON.gpm               450.00:  Flow In Min 
 FLOS.cptm                0.00:  Fluid Loss 
 FLOX.gpm               560.00:  Flow In Max 
 DFT .        Mineral Oil Base:  Mud Type 
 FTRO.       Formation Presure:  FTWD Run Obj 
 HFLO.                      No:  High Flow 
 HPRE.                      No:  High Pressure 
 HTEM.                      No:  High Temp 
 HYDO.m                   1.80:  Hydro Offset 
 IFIN.deg                40.22:  Inc, Final 
 IMAX.deg                40.54:  Inc Max 
 IMIN.deg                39.44:  Inc Min 
 IMND.m                4361.17:  Inc Min Depth 
 IMXD.m                4417.92:  Inc Max Depth 
 JARR.                      No:  Jarring 
 LETM.      07.45.00 18-Jul-21:  Log End Time 
 LOST.hr                    16:  Lost Rig Time 
 LSTM.      15.00.00 16-Jul-21:  Log Start Time 
 MDCL.ppm             36500.00:  Mud Chlorides 
 MDES.     Inversion Oil/Synthetic:  Mud Desc 
 DFD .sg                  1.42:  Mud Density 
 MDMN.sg                  1.42:  Dens Mud Min 
 MDMX.sg                  1.43:  Dens Mud Max 
 MOIL.                      56:  Run Mud Oil % 
 MOWR.                   71:29:  Run Mud OWR 
 MSND.                     0.5:  Run Mud Sand % 
 MSOL.                      21:  Run Mud Solids% 
 DFV .spqt               78.00:  Mud Viscosity 
 MWOD.in                  6.75:  MWD Tool OD 
 MWSI.                     Yes:  Serv Intrp, MWD 
 OTIM.hr                200.73:  Time Operating 
 PCON.           Look Like New:  Pad Condition 
 PMAX.psia            11069.93:  Press Op, Max 
 PV  .cP                 32.00:  Mud PV 
 RUN .                     700:  Run Number 
 ROPA.m/hr               10.00:  ROP Avg 
 ROPN.m/hr                9.00:  ROP Min 
 ROPX.m/hr               16.00:  ROP Max 
 RPMA.rpm               116.00:  RPM Surface Avg 
 RPMN.rpm                80.00:  RPM Surface Min 
 RPMX.rpm               120.00:  RPM Surface Max 
 RRUN.                    L605:  Rig Run Number 
 RTIM.hr                 45.00:  Time Reaming 
 SAZI.deg               159.86:  Azm, Start 
 SDEP.m                4315.00:  Start Depth 
 SIDD.                      No:  Serv Intrp, DD 
 SINC.deg                39.86:  Inc, Start 
 SPPA.psig             3300.00:  SPP Avg 
 SPPN.psig             3040.00:  SPP Min 
 SPPX.psig             3645.00:  SPP Max 
 STIM.      01.00.00 15-Jul-21:  Start Time 
 SVCS.                 DD, MWD:  Services 
 SVER.                    9.20:  Sperry Version 
 TDAT.m                 288.00:  Tot Depth Attmp 
 TDDF.                      No:  Trip for DD 
 TDLG.m                 288.00:  Tot Depth Loggd 
 TFF .                      No:  Trip for Fail 
 TQAA.f-kp               19.00:  Torque Abs Avg 
 TQAN.f-kp               18.00:  Torque Abs Min 
 TQAX.f-kp               21.00:  Torque Abs Max 
 TRRT.°/30m               0.45:  Turn Rotating 
 MRT .                    HCIM:  Maximum Recorded Temperature 
 TTMX.degC               88.24:  Max Tool Temp 
 VS01.                90649157:  Virtual Str1 SN 
 VS02.                90652483:  Virtual Str2 SN 
 VS03.                11671987:  Virtual Str3 SN 
 VS04.                90643411:  Virtual Str4 SN 
 VS05.                90652478:  Virtual Str5 SN 
 VS06.                    6111:  Virtual Str6 SN 
 WBMN.klb                 9.50:  WOB Min 
 WITN.        Grigoriy Sarayev:  Customer Rep 
 WITN.          Rufat Huseynov:  Customer Rep 2 
 WOBA.klb                11.00:  WOB Avg 
 WOBX.klb                15.00:  WOB Max 
 YP  .lhf2               28.00:  Yield Point 
~Curve Information Block
#MNEM.UNIT                 API CODE     Curve Description
#---------               -----------    ---------------------------
 TIME.HHMMSS            00 000 000 000:  GT Time & Date
 GTDEPTH.m              00 000 000 000:  GT Depth
 GTPQH.psia             00 000 000 000:  GT HR Quartz Pressure
 GTTQ.degC              00 000 000 000:  GT Quartz Temperature
 GTTN.NONE              00 000 000 000:  GT Test Number
 GTET.sec               00 000 000 000:  GT Elapsed Test Time
 GTTVD.m                00 000 000 000:  GT True Vertical Depth
#Other Information
#
#WARRANTY: Halliburton will use its best efforts to furnish customers with 
#accurate information and interpretations that are part of, and incident to, the services 
#provided.  However, Halliburton cannot and does not warrant the accuracy 
#or correctness of such information and interpretations.  Under no circumstances should any 
#such information or interpretation be relied upon as the sole basis for any drilling, 
#completion, production, or financial decision or any procedure involving any risk to the 
#safety of any drilling venture, drilling rig or its crew or any other third party.  The 
#Customer has full responsibility for all drilling, completion and production operation.  
#Halliburton makes no representations or warranties, either expressed or 
#implied, including, but not limited to, the implied warranties of merchantability or fitness 
#for a particular purpose, with respect to the services rendered.  In no event will 
#Halliburton be liable for failure to obtain any particular results or for 
#any damages, including, but not limited to, indirect, special or consequential damages, 
#resulting from the use of any information or interpretation provided by Halliburton.
#
~A           TIME           GTDEPTH  GTPQH  GTTQ  GTTN  GTET   GTTVD  
# ...
   23:35:25.431.18-Jul-2021 4245.71 6257.55 69.59 9.00 368.14 2505.62
   23:35:25.632.18-Jul-2021 4245.71 6257.55 69.59 9.00 368.34 2505.62
   23:35:25.832.18-Jul-2021 4245.71 6254.78 69.59 9.00 368.54 2505.62
   23:35:26.032.18-Jul-2021 4245.71 6254.04 69.59 9.00 368.74 2505.62
   23:35:26.232.18-Jul-2021 4245.71 6261.25 69.60 9.00 368.94 2505.62
   23:35:26.432.18-Jul-2021 4245.71 6268.00 69.60 9.00 369.14 2505.62
   23:35:26.632.18-Jul-2021 4245.71 6268.00 69.60 9.00 369.34 2505.62
   23:35:26.832.18-Jul-2021 4245.71 6255.96 69.60 9.00 369.54 2505.62
   23:35:27.032.18-Jul-2021 4245.71 6262.00 69.60 9.00 369.74 2505.62
   23:35:27.232.18-Jul-2021 4245.71 6258.88 69.60 9.00 369.94 2505.62
   23:35:27.432.18-Jul-2021 4245.71 6256.03 69.61 9.00 370.14 2505.62
   23:35:27.632.18-Jul-2021 4245.71 6256.03 69.61 9.00 370.34 2505.62
   23:35:27.832.18-Jul-2021 4245.71 6255.85 69.61 9.00 370.54 2505.62
   23:35:28.032.18-Jul-2021 4245.71 6255.63 69.61 9.00 370.74 2505.62
   23:35:28.232.18-Jul-2021 4245.71 6253.64 69.61 9.00 370.94 2505.62
   23:35:28.433.18-Jul-2021 4245.71 6252.96 69.61 9.00 371.14 2505.62
   23:35:28.633.18-Jul-2021 4245.71 6252.96 69.61 9.00 371.34 2505.62
   23:35:28.833.18-Jul-2021 4245.71 6260.96 69.61 9.00 371.54 2505.62
   23:35:29.033.18-Jul-2021 4245.71 6266.07 69.61 9.00 371.74 2505.62
   23:35:29.233.18-Jul-2021 4245.71 6252.02 69.62 9.00 371.94 2505.62
   23:35:29.433.18-Jul-2021 4245.71 6275.91 69.62 9.00 372.14 2505.62
   23:35:29.633.18-Jul-2021 4245.71 6275.91 69.62 9.00 372.34 2505.62
   23:35:29.833.18-Jul-2021 4245.71 6257.27 69.62 9.00 372.54 2505.62
   23:35:30.033.18-Jul-2021 4245.71 6254.33 69.62 9.00 372.74 2505.62
   23:35:30.233.18-Jul-2021 4245.71 6291.31 69.62 9.00 372.94 2505.62
   23:35:30.433.18-Jul-2021 4245.71 6249.45 69.62 9.00 373.14 2505.62
   23:35:30.633.18-Jul-2021 4245.71 6249.45 69.62 9.00 373.34 2505.62
   23:35:30.833.18-Jul-2021 4245.71 6262.21 69.62 9.00 373.54 2505.62
   23:35:31.034.18-Jul-2021 4245.71 6271.42 69.62 9.00 373.74 2505.62
   23:35:31.234.18-Jul-2021 4245.71 6269.68 69.62 9.00 373.94 2505.62
   23:35:31.434.18-Jul-2021 4245.71 6255.68 69.62 9.00 374.14 2505.62
   23:35:31.634.18-Jul-2021 4245.71 6255.68 69.62 9.00 374.34 2505.62
   23:35:31.834.18-Jul-2021 4245.71 6259.43 69.62 9.00 374.54 2505.62
   23:35:32.034.18-Jul-2021 4245.71 6286.77 69.62 9.00 374.74 2505.62
   23:35:32.234.18-Jul-2021 4245.71 6247.77 69.62 9.00 374.94 2505.62
   23:35:32.434.18-Jul-2021 4245.71 6260.06 69.62 9.00 375.14 2505.62
   23:35:32.634.18-Jul-2021 4245.71 6260.06 69.62 9.00 375.34 2505.62
   23:35:32.834.18-Jul-2021 4245.71 6267.39 69.63 9.00 375.54 2505.62
   23:35:33.034.18-Jul-2021 4245.71 6259.66 69.63 9.00 375.74 2505.62
   23:35:33.234.18-Jul-2021 4245.71 6257.44 69.63 9.00 375.94 2505.62
   23:35:33.434.18-Jul-2021 4245.71 6260.91 69.63 9.00 376.14 2505.62
   23:35:33.634.18-Jul-2021 4245.71 6260.91 69.63 9.00 376.34 2505.62
   23:35:33.835.18-Jul-2021 4245.71 6258.04 69.63 9.00 376.54 2505.62
   23:35:34.035.18-Jul-2021 4245.71 6257.69 69.63 9.00 376.74 2505.62
   23:35:34.235.18-Jul-2021 4245.71 6255.22 69.63 9.00 376.94 2505.62
   23:35:34.435.18-Jul-2021 4245.71 6254.28 69.63 9.00 377.14 2505.62
   23:35:34.635.18-Jul-2021 4245.71 6254.28 69.63 9.00 377.34 2505.62
   23:35:34.835.18-Jul-2021 4245.71 6275.74 69.63 9.00 377.54 2505.62
   23:35:35.035.18-Jul-2021 4245.71 6251.47 69.63 9.00 377.74 2505.62
   23:35:35.235.18-Jul-2021 4245.71 6255.50 69.63 9.00 377.94 2505.62
   23:35:35.435.18-Jul-2021 4245.71 6256.35 69.63 9.00 378.14 2505.62
   23:35:35.635.18-Jul-2021 4245.71 6256.35 69.63 9.00 378.34 2505.62
   23:35:35.835.18-Jul-2021 4245.71 6257.22 69.63 9.00 378.54 2505.62
   23:35:36.035.18-Jul-2021 4245.71 6254.13 69.63 9.00 378.74 2505.62
   23:35:36.235.18-Jul-2021 4245.71 6258.25 69.63 9.00 378.94 2505.62
   23:35:36.436.18-Jul-2021 4245.71 6256.41 69.63 9.00 379.14 2505.62
   23:35:36.636.18-Jul-2021 4245.71 6256.41 69.63 9.00 379.34 2505.62
   23:35:36.836.18-Jul-2021 4245.71 6254.88 69.63 9.00 379.54 2505.62
   23:35:37.036.18-Jul-2021 4245.71 6255.27 69.63 9.00 379.74 2505.62
   23:35:37.236.18-Jul-2021 4245.71 6255.18 69.63 9.00 379.94 2505.62
   23:35:37.436.18-Jul-2021 4245.71 6274.72 69.63 9.00 380.14 2505.62
   23:35:37.636.18-Jul-2021 4245.71 6274.72 69.63 9.00 380.34 2505.62
   23:35:37.836.18-Jul-2021 4245.71 6251.72 69.63 9.00 380.54 2505.62
   23:35:38.036.18-Jul-2021 4245.71 6283.83 69.63 9.00 380.74 2505.62
   23:35:38.236.18-Jul-2021 4245.71 6250.92 69.63 9.00 380.94 2505.62
   23:35:38.436.18-Jul-2021 4245.71 6256.44 69.63 9.00 381.14 2505.62
   23:35:38.636.18-Jul-2021 4245.71 6256.44 69.63 9.00 381.34 2505.62
   23:35:38.836.18-Jul-2021 4245.71 6295.91 69.63 9.00 381.54 2505.62
   23:35:39.036.18-Jul-2021 4245.71 6246.66 69.63 9.00 381.74 2505.62
   23:35:39.237.18-Jul-2021 4245.71 6254.70 69.63 9.00 381.94 2505.62
   23:35:39.437.18-Jul-2021 4245.71 6261.08 69.63 9.00 382.14 2505.62
   23:35:39.637.18-Jul-2021 4245.71 6261.08 69.63 9.00 382.34 2505.62
   23:35:39.837.18-Jul-2021 4245.71 6283.93 69.63 9.00 382.54 2505.62
   23:35:40.037.18-Jul-2021 4245.71 6249.14 69.63 9.00 382.74 2505.62
   23:35:40.237.18-Jul-2021 4245.71 6267.43 69.63 9.00 382.94 2505.62
   23:35:40.437.18-Jul-2021 4245.71 6274.08 69.63 9.00 383.14 2505.62
   23:35:40.637.18-Jul-2021 4245.71 6274.08 69.63 9.00 383.34 2505.62
   23:35:40.837.18-Jul-2021 4245.71 6260.20 69.63 9.00 383.54 2505.62
   23:35:41.037.18-Jul-2021 4245.71 6267.35 69.63 9.00 383.74 2505.62
   23:35:41.237.18-Jul-2021 4245.71 6263.34 69.63 9.00 383.94 2505.62
   23:35:41.437.18-Jul-2021 4245.71 6259.40 69.63 9.00 384.14 2505.62
   23:35:41.637.18-Jul-2021 4245.71 6259.40 69.63 9.00 384.34 2505.62
   23:35:41.837.18-Jul-2021 4245.71 6259.50 69.63 9.00 384.54 2505.62
   23:35:42.038.18-Jul-2021 4245.71 6258.18 69.63 9.00 384.74 2505.62
   23:35:42.238.18-Jul-2021 4245.71 6257.68 69.63 9.00 384.94 2505.62
   23:35:42.438.18-Jul-2021 4245.71 6258.25 69.63 9.00 385.14 2505.62
   23:35:42.638.18-Jul-2021 4245.71 6258.25 69.63 9.00 385.34 2505.62
   23:35:42.838.18-Jul-2021 4245.71 6255.20 69.63 9.00 385.54 2505.62
   23:35:43.038.18-Jul-2021 4245.71 6255.48 69.63 9.00 385.74 2505.62
   23:35:43.238.18-Jul-2021 4245.71 6274.30 69.63 9.00 385.94 2505.62
   23:35:43.438.18-Jul-2021 4245.71 6255.92 69.63 9.00 386.14 2505.62
   23:35:43.638.18-Jul-2021 4245.71 6255.92 69.63 9.00 386.34 2505.62
   23:35:43.838.18-Jul-2021 4245.71 6260.87 69.62 9.00 386.54 2505.62
   23:35:44.038.18-Jul-2021 4245.71 6261.89 69.62 9.00 386.74 2505.62
   23:35:44.238.18-Jul-2021 4245.71 6257.51 69.62 9.00 386.94 2505.62
   23:35:44.438.18-Jul-2021 4245.71 6258.33 69.62 9.00 387.14 2505.62
   23:35:44.639.18-Jul-2021 4245.71 6258.33 69.62 9.00 387.34 2505.62
   23:35:44.839.18-Jul-2021 4245.71 6256.83 69.62 9.00 387.54 2505.62
   23:35:45.039.18-Jul-2021 4245.71 6257.78 69.62 9.00 387.74 2505.62
   23:35:45.239.18-Jul-2021 4245.71 6257.49 69.62 9.00 387.94 2505.62
   23:35:45.439.18-Jul-2021 4245.71 6255.24 69.62 9.00 388.14 2505.62
   23:35:45.639.18-Jul-2021 4245.71 6255.24 69.62 9.00 388.34 2505.62
   23:35:45.839.18-Jul-2021 4245.71 6274.90 69.62 9.00 388.54 2505.62
   23:35:46.039.18-Jul-2021 4245.71 6254.47 69.62 9.00 388.74 2505.62
   23:35:46.239.18-Jul-2021 4245.71 6261.09 69.62 9.00 388.94 2505.62
   23:35:46.439.18-Jul-2021 4245.71 6274.16 69.62 9.00 389.14 2505.62
   23:35:46.639.18-Jul-2021 4245.71 6274.16 69.62 9.00 389.34 2505.62
   23:35:46.839.18-Jul-2021 4245.71 6254.55 69.62 9.00 389.54 2505.62
   23:35:47.039.18-Jul-2021 4245.71 6291.25 69.62 9.00 389.74 2505.62
   23:35:47.239.18-Jul-2021 4245.71 6252.90 69.62 9.00 389.94 2505.62
   23:35:47.440.18-Jul-2021 4245.71 6255.57 69.62 9.00 390.14 2505.62
   23:35:47.640.18-Jul-2021 4245.71 6255.57 69.62 9.00 390.34 2505.62
   23:35:47.840.18-Jul-2021 4245.71 6267.12 69.62 9.00 390.54 2505.62
   23:35:48.040.18-Jul-2021 4245.71 6287.49 69.62 9.00 390.74 2505.62
   23:35:48.240.18-Jul-2021 4245.71 6252.76 69.62 9.00 390.94 2505.62
