~Version Information
 VERS.                  2.0:   CWLS log ASCII Standard -VERSION 2.0
 WRAP.                   NO:   One line per depth step
~Well Information Block
#MNEM.UNIT     VALUE/NAME     DESCRIPTION
#---------     -----------    ---------------------------
 STRT.S             13:11:20 18-Jul-21: START TIME 13:11:20 18-Jul-21
 STOP.S             13:17:54 18-Jul-21: STOP TIME  13:17:54 18-Jul-21
 STEP.S                   0.00: STEP TIME
 NULL.                 -999.25: NULL VALUE
 MDS .        Operator Entered:  MAG DATA SOURCE
 PDAT.          Mean Sea Level:  PERMANENT DATUM
 UNIT.                     N/A:  LOGGING EQUIPMENT ID
 DCON.         Sperry Drilling:  DIRECTNL CONTR
 DOE .                     N/A:  DOE NUMBER
 RIG .              West Azeri:  RIG NAME
 JOBN.        AZ-XX-0906997913:  JOB TICKET NUMB
 WELL.                     C41:  WELL NAME
 MWDS.                    Baku:  MWD SHOP
 SRVC.          Turan Drilling:  CONTRACTOR
 FLD .                     ACG:  FIELD NAME
 CTRY.              Azerbaijan:  COUNTRY NAME
 PROV.                    Baku:  PROVINCE
 STAT.                    Baku:  STATE NAME
 REGN.                   EESSA:  REGION
 BASE.              Azerbaijan:  LOGGING EQUIPMENT BASE LOCATION
 UWI .                     N/A:  UNIQUE WELL IDENTIFIER
 API .                     N/A:  API NUMBER
 COMP.     BP Exploration (Caspian Sea) Ltd.:  COMPANY
 WTYP.                Deviated:  WELL TYPE
 SON .        AZ-XX-0906997913:  JOB NUMBER
 FTOP.          Formation Tops:  FORM TOPS DESC
 ILTD.               Lithology:  INTERP LTH DESC
 SVYD.                  Survey:  SURVEY DESC
 DMOD.             Drill Model:  DRILL MOD DESC
 HPTY.       Minimum Curvature:  HOLE POS TYPE
 NREF.                    Grid:  NORTH REFERENCE
 SPUD.               16-May-21:  SPUD DATE
 DATE.      21.11.28 17-May-21:  END TIME
 STIM.      21.11.28 17-May-21:  START TIME
 DMF .             Drill Floor:  DRILL MEAS FROM
 DFST.                        :  DIST FSL TEXT
 DFWT.                        :  DIST FWL TEXT
 CNTY.                        :  COUNTY
 LOC .                        :  LOCATION
 LMF .             Drill Floor:  LOG MEASURED FROM
 AGAP.m                  43.42:  AIR GAP
 VSNS.m                  -2.16:  VERT SEC N/S
 VSEW.m                  -6.24:  VERT SEC E/W
 APD .m                  43.42:  DEPTH ABOVE PD
 WDMS.m                 118.27:  WD ELEV
 EGL .m                   0.00:  GROUND ELEVATION
 EPD .m                   0.00:  ELEVATION
 AZTC.deg                 6.29:  AZM TOTAL CORR
 GRDC.deg                 0.18:  GRID CORRECTION
 MDEC.deg                 6.47:  MAGNETIC DECL
 MDIP.deg                59.54:  MAGNETIC DIP
 MFLD.nT              50337.00:  MAGNETIC FIELD
 GVFD.g                   1.00:  GRAVITY FIELD
 VSDR.deg               226.99:  VERT SEC DIRECT
 TDD .m                   0.00:  TOTAL DEPTH (DRILLER)
 SDEP.m                 448.00:  START DEPTH
 DFSL.m                   0.00:  DISTANCE FSL
 DFWL.m                   0.00:  DISTANCE FWL
 UTMY.m             4435799.96:  UTM Y
 UTMX.m              526265.35:  UTM X
 WHEW.m                  -6.24:  WELL HEAD E/W
 WHNS.m                  -2.16:  WELL HEAD N/S
 LONG.deg                51.31:  LONGITUDE
 LATI.deg                40.06:  LATITUDE
 TVDS.m                  43.42:  TVDSS CORRECTN
 EKB .m                  43.42:  KB ELEVATION
 EDF .m                  43.42:  DF ELEVATION
 TDL .m                 288.00:  TOTAL DEPTH (LOGGER)
 MAGU.                 1851863:  MAGUTM CHECKSUM
 VSC .                       0:  VS TO CLOSURE
~Parameter Information Block
#MNEM.UNIT       Value        Description
#---------     -----------    ---------------------------
 AV  .mps                 0.40:  Ann Velocity 
 AVMX.mps                 0.63:  Max Ann Veloc 
 AZIF.deg               158.76:  Azm, Final 
 BHAT.        Rotary Steerable:  BHA Type 
 BROT.∞/30m               0.68:  Build Rotating 
 BS  .in                  8.50:  Bit Size 
 BSZ .in                  8.50:  Bit Size 
 BTPL.psig              712.00:  Bit Press Loss 
 CABU.                      No:  Customer Abuse 
 COMM.                     §ÁL:  Run Comments 1 
 TCS .hr                 90.66:  Time Ciculation Ended 
 CV  .mps                 2.02:  Crit Velocity 
 CVMX.mps                 2.14:  Max Crit Veloc 
 DD1 .            Aziz Aliyevu:  Direct Drillr 1 
 DD2 .             Samir Abbas:  Direct Drillr 2 
 DD3 .           Teymur Aliyev:  Direct Drillr 3 
 DDSV.                 iCruise:  DD Service 
 DEFF.%                  85.10:  % Det Eff 
 DLRX.∞/30m               1.05:  Dogleg Rot Max 
 DLSO.∞/30m               1.01:  Dogleg Oriented 
 DLSX.∞/30m               1.05:  Dogleg Str Max 
 DRET.      07.45.00 18-Jul-21:  Drill End Time 
 DRST.      15.00.00 16-Jul-21:  Drill Start Tim 
 DTIM.hr                 23.46:  Time Drilling 
 EDEP.m                4603.00:  End Depth 
 ENG1.       Seymur Iskandarov:  Engineer 1 
 ENG2.         Yevgeniy Ulikov:  Engineer 2 
 ENG3.         Bahruz Mehdiyev:  Engineer 3 
 ENG4.         Elchin Mammadov:  Engineer 4 
 ETIM.      14.00.00 23-Jul-21:  End Time 
 FLOI.gpm               500.00:  Flow In 
 FLON.gpm               450.00:  Flow In Min 
 FLOS.cptm                0.00:  Fluid Loss 
 FLOX.gpm               560.00:  Flow In Max 
 DFT .        Mineral Oil Base:  Mud Type 
 FTRO.       Formation Presure:  FTWD Run Obj 
 HFLO.                      No:  High Flow 
 HPRE.                      No:  High Pressure 
 HTEM.                      No:  High Temp 
 HYDO.m                   1.80:  Hydro Offset 
 IFIN.deg                40.22:  Inc, Final 
 IMAX.deg                40.54:  Inc Max 
 IMIN.deg                39.44:  Inc Min 
 IMND.m                4361.17:  Inc Min Depth 
 IMXD.m                4417.92:  Inc Max Depth 
 JARR.                      No:  Jarring 
 LETM.      07.45.00 18-Jul-21:  Log End Time 
 LOST.hr                    16:  Lost Rig Time 
 LSTM.      15.00.00 16-Jul-21:  Log Start Time 
 MDCL.ppm             36500.00:  Mud Chlorides 
 MDES.     Inversion Oil/Synthetic:  Mud Desc 
 DFD .sg                  1.42:  Mud Density 
 MDMN.sg                  1.42:  Dens Mud Min 
 MDMX.sg                  1.43:  Dens Mud Max 
 MOIL.                      56:  Run Mud Oil % 
 MOWR.                   71:29:  Run Mud OWR 
 MSND.                     0.5:  Run Mud Sand % 
 MSOL.                      21:  Run Mud Solids% 
 DFV .spqt               78.00:  Mud Viscosity 
 MWOD.in                  6.75:  MWD Tool OD 
 MWSI.                     Yes:  Serv Intrp, MWD 
 OTIM.hr                200.73:  Time Operating 
 PCON.           Look Like New:  Pad Condition 
 PMAX.psia            11069.93:  Press Op, Max 
 PV  .cP                 32.00:  Mud PV 
 RUN .                     700:  Run Number 
 ROPA.m/hr               10.00:  ROP Avg 
 ROPN.m/hr                9.00:  ROP Min 
 ROPX.m/hr               16.00:  ROP Max 
 RPMA.rpm               116.00:  RPM Surface Avg 
 RPMN.rpm                80.00:  RPM Surface Min 
 RPMX.rpm               120.00:  RPM Surface Max 
 RRUN.                    L605:  Rig Run Number 
 RTIM.hr                 45.00:  Time Reaming 
 SAZI.deg               159.86:  Azm, Start 
 SDEP.m                4315.00:  Start Depth 
 SIDD.                      No:  Serv Intrp, DD 
 SINC.deg                39.86:  Inc, Start 
 SPPA.psig             3300.00:  SPP Avg 
 SPPN.psig             3040.00:  SPP Min 
 SPPX.psig             3645.00:  SPP Max 
 STIM.      01.00.00 15-Jul-21:  Start Time 
 SVCS.                 DD, MWD:  Services 
 SVER.                    9.20:  Sperry Version 
 TDAT.m                 288.00:  Tot Depth Attmp 
 TDDF.                      No:  Trip for DD 
 TDLG.m                 288.00:  Tot Depth Loggd 
 TFF .                      No:  Trip for Fail 
 TQAA.f-kp               19.00:  Torque Abs Avg 
 TQAN.f-kp               18.00:  Torque Abs Min 
 TQAX.f-kp               21.00:  Torque Abs Max 
 TRRT.∞/30m               0.45:  Turn Rotating 
 MRT .                    HCIM:  Maximum Recorded Temperature 
 TTMX.degC               88.24:  Max Tool Temp 
 VS01.                90649157:  Virtual Str1 SN 
 VS02.                90652483:  Virtual Str2 SN 
 VS03.                11671987:  Virtual Str3 SN 
 VS04.                90643411:  Virtual Str4 SN 
 VS05.                90652478:  Virtual Str5 SN 
 VS06.                    6111:  Virtual Str6 SN 
 WBMN.klb                 9.50:  WOB Min 
 WITN.        Grigoriy Sarayev:  Customer Rep 
 WITN.          Rufat Huseynov:  Customer Rep 2 
 WOBA.klb                11.00:  WOB Avg 
 WOBX.klb                15.00:  WOB Max 
 YP  .lhf2               28.00:  Yield Point 
~Curve Information Block
#MNEM.UNIT                 API CODE     Curve Description
#---------               -----------    ---------------------------
 TIME.HHMMSS            00 000 000 000:  GT Time & Date
 GTDEPTH.m              00 000 000 000:  GT Depth
 GTPQH.psia             00 000 000 000:  GT HR Quartz Pressure
 GTTQ.degC              00 000 000 000:  GT Quartz Temperature
 GTTN.NONE              00 000 000 000:  GT Test Number
 GTET.sec               00 000 000 000:  GT Elapsed Test Time
 GTTVD.m                00 000 000 000:  GT True Vertical Depth
#Other Information
#
#WARRANTY: Halliburton will use its best efforts to furnish customers with 
#accurate information and interpretations that are part of, and incident to, the services 
#provided.  However, Halliburton cannot and does not warrant the accuracy 
#or correctness of such information and interpretations.  Under no circumstances should any 
#such information or interpretation be relied upon as the sole basis for any drilling, 
#completion, production, or financial decision or any procedure involving any risk to the 
#safety of any drilling venture, drilling rig or its crew or any other third party.  The 
#Customer has full responsibility for all drilling, completion and production operation.  
#Halliburton makes no representations or warranties, either expressed or 
#implied, including, but not limited to, the implied warranties of merchantability or fitness 
#for a particular purpose, with respect to the services rendered.  In no event will 
#Halliburton be liable for failure to obtain any particular results or for 
#any damages, including, but not limited to, indirect, special or consequential damages, 
#resulting from the use of any information or interpretation provided by Halliburton.
#
~A           TIME           GTDEPTH  GTPQH  GTTQ  GTTN  GTET   GTTVD  
# ...
   13:11:43.652.18-Jul-2021 4561.00 6470.63 75.73 2.00  23.01 2746.93
   13:11:43.852.18-Jul-2021 4561.00 6470.63 75.73 2.00  23.21 2746.93
   13:11:44.053.18-Jul-2021 4561.00 6471.79 75.73 2.00  23.41 2746.93
   13:11:44.253.18-Jul-2021 4561.00 6492.63 75.73 2.00  23.61 2746.93
   13:11:44.453.18-Jul-2021 4561.00 6483.89 75.73 2.00  23.81 2746.93
   13:11:44.653.18-Jul-2021 4561.00 6470.22 75.73 2.00  24.01 2746.93
   13:11:44.853.18-Jul-2021 4561.00 6470.22 75.73 2.00  24.21 2746.93
   13:11:45.053.18-Jul-2021 4561.00 6475.86 75.73 2.00  24.41 2746.93
   13:11:45.253.18-Jul-2021 4561.00 6472.77 75.73 2.00  24.61 2746.93
   13:11:45.453.18-Jul-2021 4561.00 6473.17 75.73 2.00  24.81 2746.93
   13:11:45.653.18-Jul-2021 4561.00 6473.77 75.73 2.00  25.01 2746.93
   13:11:45.853.18-Jul-2021 4561.00 6473.77 75.73 2.00  25.21 2746.93
   13:11:46.053.18-Jul-2021 4561.00 6471.72 75.73 2.00  25.41 2746.93
   13:11:46.253.18-Jul-2021 4561.00 6471.43 75.73 2.00  25.61 2746.93
   13:11:46.453.18-Jul-2021 4561.00 6471.66 75.73 2.00  25.81 2746.93
   13:11:46.653.18-Jul-2021 4561.00 6471.19 75.73 2.00  26.01 2746.93
   13:11:46.854.18-Jul-2021 4561.00 6471.19 75.73 2.00  26.21 2746.93
   13:11:47.054.18-Jul-2021 4561.00 6487.07 75.73 2.00  26.41 2746.93
   13:11:47.254.18-Jul-2021 4561.00 6469.02 75.73 2.00  26.61 2746.93
   13:11:47.454.18-Jul-2021 4561.00 6492.10 75.73 2.00  26.81 2746.93
   13:11:47.654.18-Jul-2021 4561.00 6487.51 75.73 2.00  27.01 2746.93
   13:11:47.854.18-Jul-2021 4561.00 6487.51 75.73 2.00  27.21 2746.93
   13:11:48.054.18-Jul-2021 4561.00 6494.52 75.73 2.00  27.41 2746.93
   13:11:48.254.18-Jul-2021 4561.00 6485.85 75.73 2.00  27.61 2746.93
   13:11:48.454.18-Jul-2021 4561.00 6473.76 75.73 2.00  27.81 2746.93
   13:11:48.654.18-Jul-2021 4561.00 6477.88 75.73 2.00  28.01 2746.93
   13:11:48.854.18-Jul-2021 4561.00 6477.88 75.73 2.00  28.21 2746.93
   13:11:49.054.18-Jul-2021 4561.00 6488.01 75.73 2.00  28.41 2746.93
   13:11:49.254.18-Jul-2021 4561.00 6470.74 75.73 2.00  28.61 2746.93
   13:11:49.455.18-Jul-2021 4561.00 6474.25 75.73 2.00  28.81 2746.93
   13:11:49.655.18-Jul-2021 4561.00 6479.27 75.73 2.00  29.01 2746.93
   13:11:49.855.18-Jul-2021 4561.00 6479.27 75.73 2.00  29.21 2746.93
   13:11:50.055.18-Jul-2021 4561.00 6508.28 75.73 2.00  29.41 2746.93
   13:11:50.255.18-Jul-2021 4561.00 6485.20 75.73 2.00  29.61 2746.93
   13:11:50.455.18-Jul-2021 4561.00 6463.56 75.73 2.00  29.81 2746.93
   13:11:50.655.18-Jul-2021 4561.00 6447.75 75.73 2.00  30.01 2746.93
   13:11:50.855.18-Jul-2021 4561.00 6447.75 75.73 2.00  30.21 2746.93
   13:11:51.055.18-Jul-2021 4561.00 6417.99 75.73 2.00  30.41 2746.93
   13:11:51.255.18-Jul-2021 4561.00 6411.54 75.73 2.00  30.61 2746.93
   13:11:51.455.18-Jul-2021 4561.00 6405.94 75.73 2.00  30.81 2746.93
   13:11:51.655.18-Jul-2021 4561.00 6400.37 75.73 2.00  31.01 2746.93
   13:11:51.855.18-Jul-2021 4561.00 6400.37 75.73 2.00  31.21 2746.93
   13:11:52.055.18-Jul-2021 4561.00 6390.37 75.73 2.00  31.41 2746.93
   13:11:52.256.18-Jul-2021 4561.00 6390.33 75.73 2.00  31.61 2746.93
   13:11:52.456.18-Jul-2021 4561.00 6386.54 75.73 2.00  31.81 2746.93
   13:11:52.656.18-Jul-2021 4561.00 6382.56 75.73 2.00  32.01 2746.93
   13:11:52.856.18-Jul-2021 4561.00 6382.56 75.73 2.00  32.21 2746.93
   13:11:53.056.18-Jul-2021 4561.00 6376.04 75.73 2.00  32.41 2746.93
   13:11:53.256.18-Jul-2021 4561.00 6372.26 75.73 2.00  32.61 2746.93
   13:11:53.456.18-Jul-2021 4561.00 6374.08 75.73 2.00  32.81 2746.93
   13:11:53.656.18-Jul-2021 4561.00 6366.29 75.73 2.00  33.01 2746.93
   13:11:53.856.18-Jul-2021 4561.00 6366.29 75.73 2.00  33.21 2746.93
   13:11:54.056.18-Jul-2021 4561.00 6330.49 75.73 2.00  33.41 2746.93
   13:11:54.256.18-Jul-2021 4561.00 6296.67 75.73 2.00  33.61 2746.93
   13:11:54.456.18-Jul-2021 4561.00 6258.32 75.73 2.00  33.81 2746.93
   13:11:54.656.18-Jul-2021 4561.00 6230.98 75.73 2.00  34.01 2746.93
   13:11:54.857.18-Jul-2021 4561.00 6230.98 75.73 2.00  34.21 2746.93
   13:11:55.057.18-Jul-2021 4561.00 6204.14 75.73 2.00  34.41 2746.93
   13:11:55.257.18-Jul-2021 4561.00 6199.84 75.73 2.00  34.61 2746.93
   13:11:55.457.18-Jul-2021 4561.00 6197.14 75.73 2.00  34.81 2746.93
   13:11:55.657.18-Jul-2021 4561.00 6193.81 75.73 2.00  35.01 2746.93
   13:11:55.857.18-Jul-2021 4561.00 6193.81 75.73 2.00  35.21 2746.93
   13:11:56.057.18-Jul-2021 4561.00 6193.81 75.73 2.00  35.41 2746.93
   13:11:56.257.18-Jul-2021 4561.00 6178.73 75.72 2.00  35.61 2746.93
   13:11:56.457.18-Jul-2021 4561.00 6174.29 75.72 2.00  35.81 2746.93
   13:11:56.657.18-Jul-2021 4561.00 6171.67 75.72 2.00  36.01 2746.93
   13:11:56.857.18-Jul-2021 4561.00 6171.67 75.72 2.00  36.21 2746.93
   13:11:57.057.18-Jul-2021 4561.00 6169.63 75.72 2.00  36.41 2746.93
   13:11:57.257.18-Jul-2021 4561.00 6168.92 75.72 2.00  36.61 2746.93
   13:11:57.457.18-Jul-2021 4561.00 6168.74 75.72 2.00  36.81 2746.93
   13:11:57.658.18-Jul-2021 4561.00 6167.61 75.72 2.00  37.01 2746.93
   13:11:57.858.18-Jul-2021 4561.00 6167.61 75.72 2.00  37.21 2746.93
   13:11:58.058.18-Jul-2021 4561.00 6165.15 75.72 2.00  37.41 2746.93
   13:11:58.258.18-Jul-2021 4561.00 6164.39 75.72 2.00  37.61 2746.93
   13:11:58.458.18-Jul-2021 4561.00 6162.83 75.72 2.00  37.81 2746.93
   13:11:58.658.18-Jul-2021 4561.00 6161.83 75.72 2.00  38.01 2746.93
   13:11:58.858.18-Jul-2021 4561.00 6161.83 75.72 2.00  38.21 2746.93
   13:11:59.058.18-Jul-2021 4561.00 6162.32 75.72 2.00  38.41 2746.93
   13:11:59.258.18-Jul-2021 4561.00 6157.68 75.72 2.00  38.61 2746.93
   13:11:59.458.18-Jul-2021 4561.00 6154.62 75.72 2.00  38.81 2746.93
   13:11:59.658.18-Jul-2021 4561.00 6154.30 75.72 2.00  39.01 2746.93
   13:11:59.858.18-Jul-2021 4561.00 6154.30 75.72 2.00  39.21 2746.93
   13:12:00.058.18-Jul-2021 4561.00 6154.35 75.72 2.00  39.41 2746.93
   13:12:00.258.18-Jul-2021 4561.00 6153.86 75.72 2.00  39.61 2746.93
   13:12:00.459.18-Jul-2021 4561.00 6154.11 75.72 2.00  39.81 2746.93
   13:12:00.659.18-Jul-2021 4561.00 6154.73 75.72 2.00  40.01 2746.93
   13:12:00.859.18-Jul-2021 4561.00 6154.73 75.72 2.00  40.21 2746.93
   13:12:01.059.18-Jul-2021 4561.00 6153.66 75.72 2.00  40.41 2746.93
   13:12:01.259.18-Jul-2021 4561.00 6153.73 75.72 2.00  40.61 2746.93
   13:12:01.459.18-Jul-2021 4561.00 6153.20 75.72 2.00  40.82 2746.93
   13:12:01.659.18-Jul-2021 4561.00 6153.48 75.72 2.00  41.02 2746.93
   13:12:01.859.18-Jul-2021 4561.00 6153.48 75.72 2.00  41.22 2746.93
   13:12:02.059.18-Jul-2021 4561.00 6152.74 75.72 2.00  41.42 2746.93
   13:12:02.259.18-Jul-2021 4561.00 6153.32 75.72 2.00  41.62 2746.93
   13:12:02.459.18-Jul-2021 4561.00 6153.31 75.72 2.00  41.82 2746.93
   13:12:02.659.18-Jul-2021 4561.00 6153.83 75.72 2.00  42.02 2746.93
   13:12:02.859.18-Jul-2021 4561.00 6153.83 75.72 2.00  42.22 2746.93
   13:12:03.060.18-Jul-2021 4561.00 6153.99 75.72 2.00  42.42 2746.93
   13:12:03.260.18-Jul-2021 4561.00 6154.46 75.72 2.00  42.62 2746.93
   13:12:03.460.18-Jul-2021 4561.00 6154.92 75.72 2.00  42.82 2746.93
   13:12:03.660.18-Jul-2021 4561.00 6153.26 75.72 2.00  43.02 2746.93
   13:12:03.860.18-Jul-2021 4561.00 6153.26 75.72 2.00  43.22 2746.93
   13:12:04.060.18-Jul-2021 4561.00 6154.07 75.72 2.00  43.42 2746.93
   13:12:04.260.18-Jul-2021 4561.00 6153.89 75.72 2.00  43.62 2746.93
   13:12:04.460.18-Jul-2021 4561.00 6154.12 75.72 2.00  43.82 2746.93
   13:12:04.660.18-Jul-2021 4561.00 6152.76 75.72 2.00  44.02 2746.93
   13:12:04.860.18-Jul-2021 4561.00 6152.76 75.72 2.00  44.22 2746.93
   13:12:05.060.18-Jul-2021 4561.00 6152.83 75.72 2.00  44.42 2746.93
   13:12:05.260.18-Jul-2021 4561.00 6153.48 75.72 2.00  44.62 2746.93
   13:12:05.460.18-Jul-2021 4561.00 6150.86 75.72 2.00  44.82 2746.93
   13:12:05.660.18-Jul-2021 4561.00 6153.48 75.72 2.00  45.02 2746.93
   13:12:05.861.18-Jul-2021 4561.00 6153.48 75.72 2.00  45.22 2746.93
   13:12:06.061.18-Jul-2021 4561.00 6152.86 75.72 2.00  45.42 2746.93
   13:12:06.261.18-Jul-2021 4561.00 6151.63 75.72 2.00  45.62 2746.93
   13:12:06.461.18-Jul-2021 4561.00 6153.26 75.72 2.00  45.82 2746.93
