~Version Information
 VERS.                  2.0:   CWLS log ASCII Standard -VERSION 2.0
 WRAP.                   NO:   One line per depth step
~Well Information Block
#MNEM.UNIT     VALUE/NAME     DESCRIPTION
#---------     -----------    ---------------------------
 STRT.S             16:45:59 18-Jul-21: START TIME 16:45:59 18-Jul-21
 STOP.S             16:52:30 18-Jul-21: STOP TIME  16:52:30 18-Jul-21
 STEP.S                   0.00: STEP TIME
 NULL.                 -999.25: NULL VALUE
 MDS .        Operator Entered:  MAG DATA SOURCE
 PDAT.          Mean Sea Level:  PERMANENT DATUM
 UNIT.                     N/A:  LOGGING EQUIPMENT ID
 DCON.         Sperry Drilling:  DIRECTNL CONTR
 DOE .                     N/A:  DOE NUMBER
 RIG .              West Azeri:  RIG NAME
 JOBN.        AZ-XX-0906997913:  JOB TICKET NUMB
 WELL.                     C41:  WELL NAME
 MWDS.                    Baku:  MWD SHOP
 SRVC.          Turan Drilling:  CONTRACTOR
 FLD .                     ACG:  FIELD NAME
 CTRY.              Azerbaijan:  COUNTRY NAME
 PROV.                    Baku:  PROVINCE
 STAT.                    Baku:  STATE NAME
 REGN.                   EESSA:  REGION
 BASE.              Azerbaijan:  LOGGING EQUIPMENT BASE LOCATION
 UWI .                     N/A:  UNIQUE WELL IDENTIFIER
 API .                     N/A:  API NUMBER
 COMP.     BP Exploration (Caspian Sea) Ltd.:  COMPANY
 WTYP.                Deviated:  WELL TYPE
 SON .        AZ-XX-0906997913:  JOB NUMBER
 FTOP.          Formation Tops:  FORM TOPS DESC
 ILTD.               Lithology:  INTERP LTH DESC
 SVYD.                  Survey:  SURVEY DESC
 DMOD.             Drill Model:  DRILL MOD DESC
 HPTY.       Minimum Curvature:  HOLE POS TYPE
 NREF.                    Grid:  NORTH REFERENCE
 SPUD.               16-May-21:  SPUD DATE
 DATE.      21.11.28 17-May-21:  END TIME
 STIM.      21.11.28 17-May-21:  START TIME
 DMF .             Drill Floor:  DRILL MEAS FROM
 DFST.                        :  DIST FSL TEXT
 DFWT.                        :  DIST FWL TEXT
 CNTY.                        :  COUNTY
 LOC .                        :  LOCATION
 LMF .             Drill Floor:  LOG MEASURED FROM
 AGAP.m                  43.42:  AIR GAP
 VSNS.m                  -2.16:  VERT SEC N/S
 VSEW.m                  -6.24:  VERT SEC E/W
 APD .m                  43.42:  DEPTH ABOVE PD
 WDMS.m                 118.27:  WD ELEV
 EGL .m                   0.00:  GROUND ELEVATION
 EPD .m                   0.00:  ELEVATION
 AZTC.deg                 6.29:  AZM TOTAL CORR
 GRDC.deg                 0.18:  GRID CORRECTION
 MDEC.deg                 6.47:  MAGNETIC DECL
 MDIP.deg                59.54:  MAGNETIC DIP
 MFLD.nT              50337.00:  MAGNETIC FIELD
 GVFD.g                   1.00:  GRAVITY FIELD
 VSDR.deg               226.99:  VERT SEC DIRECT
 TDD .m                   0.00:  TOTAL DEPTH (DRILLER)
 SDEP.m                 448.00:  START DEPTH
 DFSL.m                   0.00:  DISTANCE FSL
 DFWL.m                   0.00:  DISTANCE FWL
 UTMY.m             4435799.96:  UTM Y
 UTMX.m              526265.35:  UTM X
 WHEW.m                  -6.24:  WELL HEAD E/W
 WHNS.m                  -2.16:  WELL HEAD N/S
 LONG.deg                51.31:  LONGITUDE
 LATI.deg                40.06:  LATITUDE
 TVDS.m                  43.42:  TVDSS CORRECTN
 EKB .m                  43.42:  KB ELEVATION
 EDF .m                  43.42:  DF ELEVATION
 TDL .m                 288.00:  TOTAL DEPTH (LOGGER)
 MAGU.                 1851863:  MAGUTM CHECKSUM
 VSC .                       0:  VS TO CLOSURE
~Parameter Information Block
#MNEM.UNIT       Value        Description
#---------     -----------    ---------------------------
 AV  .mps                 0.40:  Ann Velocity 
 AVMX.mps                 0.63:  Max Ann Veloc 
 AZIF.deg               158.76:  Azm, Final 
 BHAT.        Rotary Steerable:  BHA Type 
 BROT.∞/30m               0.68:  Build Rotating 
 BS  .in                  8.50:  Bit Size 
 BSZ .in                  8.50:  Bit Size 
 BTPL.psig              712.00:  Bit Press Loss 
 CABU.                      No:  Customer Abuse 
 COMM.                     ,èr:  Run Comments 1 
 TCS .hr                 90.66:  Time Ciculation Ended 
 CV  .mps                 2.02:  Crit Velocity 
 CVMX.mps                 2.14:  Max Crit Veloc 
 DD1 .            Aziz Aliyevu:  Direct Drillr 1 
 DD2 .             Samir Abbas:  Direct Drillr 2 
 DD3 .           Teymur Aliyev:  Direct Drillr 3 
 DDSV.                 iCruise:  DD Service 
 DEFF.%                  85.10:  % Det Eff 
 DLRX.∞/30m               1.05:  Dogleg Rot Max 
 DLSO.∞/30m               1.01:  Dogleg Oriented 
 DLSX.∞/30m               1.05:  Dogleg Str Max 
 DRET.      07.45.00 18-Jul-21:  Drill End Time 
 DRST.      15.00.00 16-Jul-21:  Drill Start Tim 
 DTIM.hr                 23.46:  Time Drilling 
 EDEP.m                4603.00:  End Depth 
 ENG1.       Seymur Iskandarov:  Engineer 1 
 ENG2.         Yevgeniy Ulikov:  Engineer 2 
 ENG3.         Bahruz Mehdiyev:  Engineer 3 
 ENG4.         Elchin Mammadov:  Engineer 4 
 ETIM.      14.00.00 23-Jul-21:  End Time 
 FLOI.gpm               500.00:  Flow In 
 FLON.gpm               450.00:  Flow In Min 
 FLOS.cptm                0.00:  Fluid Loss 
 FLOX.gpm               560.00:  Flow In Max 
 DFT .        Mineral Oil Base:  Mud Type 
 FTRO.       Formation Presure:  FTWD Run Obj 
 HFLO.                      No:  High Flow 
 HPRE.                      No:  High Pressure 
 HTEM.                      No:  High Temp 
 HYDO.m                   1.80:  Hydro Offset 
 IFIN.deg                40.22:  Inc, Final 
 IMAX.deg                40.54:  Inc Max 
 IMIN.deg                39.44:  Inc Min 
 IMND.m                4361.17:  Inc Min Depth 
 IMXD.m                4417.92:  Inc Max Depth 
 JARR.                      No:  Jarring 
 LETM.      07.45.00 18-Jul-21:  Log End Time 
 LOST.hr                    16:  Lost Rig Time 
 LSTM.      15.00.00 16-Jul-21:  Log Start Time 
 MDCL.ppm             36500.00:  Mud Chlorides 
 MDES.     Inversion Oil/Synthetic:  Mud Desc 
 DFD .sg                  1.42:  Mud Density 
 MDMN.sg                  1.42:  Dens Mud Min 
 MDMX.sg                  1.43:  Dens Mud Max 
 MOIL.                      56:  Run Mud Oil % 
 MOWR.                   71:29:  Run Mud OWR 
 MSND.                     0.5:  Run Mud Sand % 
 MSOL.                      21:  Run Mud Solids% 
 DFV .spqt               78.00:  Mud Viscosity 
 MWOD.in                  6.75:  MWD Tool OD 
 MWSI.                     Yes:  Serv Intrp, MWD 
 OTIM.hr                200.73:  Time Operating 
 PCON.           Look Like New:  Pad Condition 
 PMAX.psia            11069.93:  Press Op, Max 
 PV  .cP                 32.00:  Mud PV 
 RUN .                     700:  Run Number 
 ROPA.m/hr               10.00:  ROP Avg 
 ROPN.m/hr                9.00:  ROP Min 
 ROPX.m/hr               16.00:  ROP Max 
 RPMA.rpm               116.00:  RPM Surface Avg 
 RPMN.rpm                80.00:  RPM Surface Min 
 RPMX.rpm               120.00:  RPM Surface Max 
 RRUN.                    L605:  Rig Run Number 
 RTIM.hr                 45.00:  Time Reaming 
 SAZI.deg               159.86:  Azm, Start 
 SDEP.m                4315.00:  Start Depth 
 SIDD.                      No:  Serv Intrp, DD 
 SINC.deg                39.86:  Inc, Start 
 SPPA.psig             3300.00:  SPP Avg 
 SPPN.psig             3040.00:  SPP Min 
 SPPX.psig             3645.00:  SPP Max 
 STIM.      01.00.00 15-Jul-21:  Start Time 
 SVCS.                 DD, MWD:  Services 
 SVER.                    9.20:  Sperry Version 
 TDAT.m                 288.00:  Tot Depth Attmp 
 TDDF.                      No:  Trip for DD 
 TDLG.m                 288.00:  Tot Depth Loggd 
 TFF .                      No:  Trip for Fail 
 TQAA.f-kp               19.00:  Torque Abs Avg 
 TQAN.f-kp               18.00:  Torque Abs Min 
 TQAX.f-kp               21.00:  Torque Abs Max 
 TRRT.∞/30m               0.45:  Turn Rotating 
 MRT .                    HCIM:  Maximum Recorded Temperature 
 TTMX.degC               88.24:  Max Tool Temp 
 VS01.                90649157:  Virtual Str1 SN 
 VS02.                90652483:  Virtual Str2 SN 
 VS03.                11671987:  Virtual Str3 SN 
 VS04.                90643411:  Virtual Str4 SN 
 VS05.                90652478:  Virtual Str5 SN 
 VS06.                    6111:  Virtual Str6 SN 
 WBMN.klb                 9.50:  WOB Min 
 WITN.        Grigoriy Sarayev:  Customer Rep 
 WITN.          Rufat Huseynov:  Customer Rep 2 
 WOBA.klb                11.00:  WOB Avg 
 WOBX.klb                15.00:  WOB Max 
 YP  .lhf2               28.00:  Yield Point 
~Curve Information Block
#MNEM.UNIT                 API CODE     Curve Description
#---------               -----------    ---------------------------
 TIME.HHMMSS            00 000 000 000:  GT Time & Date
 GTDEPTH.m              00 000 000 000:  GT Depth
 GTPQH.psia             00 000 000 000:  GT HR Quartz Pressure
 GTTQ.degC              00 000 000 000:  GT Quartz Temperature
 GTTN.NONE              00 000 000 000:  GT Test Number
 GTET.sec               00 000 000 000:  GT Elapsed Test Time
 GTTVD.m                00 000 000 000:  GT True Vertical Depth
#Other Information
#
#WARRANTY: Halliburton will use its best efforts to furnish customers with 
#accurate information and interpretations that are part of, and incident to, the services 
#provided.  However, Halliburton cannot and does not warrant the accuracy 
#or correctness of such information and interpretations.  Under no circumstances should any 
#such information or interpretation be relied upon as the sole basis for any drilling, 
#completion, production, or financial decision or any procedure involving any risk to the 
#safety of any drilling venture, drilling rig or its crew or any other third party.  The 
#Customer has full responsibility for all drilling, completion and production operation.  
#Halliburton makes no representations or warranties, either expressed or 
#implied, including, but not limited to, the implied warranties of merchantability or fitness 
#for a particular purpose, with respect to the services rendered.  In no event will 
#Halliburton be liable for failure to obtain any particular results or for 
#any damages, including, but not limited to, indirect, special or consequential damages, 
#resulting from the use of any information or interpretation provided by Halliburton.
#
~A           TIME           GTDEPTH  GTPQH  GTTQ  GTTN  GTET   GTTVD  
# ...
   16:50:35.488.18-Jul-2021 4545.00 5616.81 74.90 6.00 276.10 2734.68
   16:50:35.688.18-Jul-2021 4545.00 5616.81 74.90 6.00 276.30 2734.68
   16:50:35.888.18-Jul-2021 4545.00 5616.98 74.90 6.00 276.50 2734.68
   16:50:36.088.18-Jul-2021 4545.00 5617.06 74.90 6.00 276.70 2734.68
   16:50:36.288.18-Jul-2021 4545.00 5616.86 74.90 6.00 276.90 2734.68
   16:50:36.488.18-Jul-2021 4545.00 5615.86 74.90 6.00 277.10 2734.68
   16:50:36.688.18-Jul-2021 4545.00 5615.86 74.90 6.00 277.30 2734.68
   16:50:36.888.18-Jul-2021 4545.00 5617.52 74.90 6.00 277.50 2734.68
   16:50:37.088.18-Jul-2021 4545.00 5618.20 74.90 6.00 277.70 2734.68
   16:50:37.288.18-Jul-2021 4545.00 5617.85 74.90 6.00 277.90 2734.68
   16:50:37.488.18-Jul-2021 4545.00 5617.82 74.90 6.00 278.10 2734.68
   16:50:37.688.18-Jul-2021 4545.00 5617.82 74.90 6.00 278.30 2734.68
   16:50:37.889.18-Jul-2021 4545.00 5618.04 74.90 6.00 278.50 2734.68
   16:50:38.089.18-Jul-2021 4545.00 5618.00 74.90 6.00 278.70 2734.68
   16:50:38.289.18-Jul-2021 4545.00 5618.03 74.90 6.00 278.90 2734.68
   16:50:38.489.18-Jul-2021 4545.00 5618.12 74.90 6.00 279.10 2734.68
   16:50:38.689.18-Jul-2021 4545.00 5618.12 74.90 6.00 279.30 2734.68
   16:50:38.889.18-Jul-2021 4545.00 5618.21 74.90 6.00 279.50 2734.68
   16:50:39.089.18-Jul-2021 4545.00 5617.13 74.90 6.00 279.70 2734.68
   16:50:39.289.18-Jul-2021 4545.00 5618.62 74.90 6.00 279.90 2734.68
   16:50:39.489.18-Jul-2021 4545.00 5618.71 74.90 6.00 280.10 2734.68
   16:50:39.689.18-Jul-2021 4545.00 5618.71 74.90 6.00 280.30 2734.68
   16:50:39.889.18-Jul-2021 4545.00 5619.41 74.90 6.00 280.50 2734.68
   16:50:40.089.18-Jul-2021 4545.00 5619.03 74.90 6.00 280.70 2734.68
   16:50:40.289.18-Jul-2021 4545.00 5619.43 74.90 6.00 280.90 2734.68
   16:50:40.489.18-Jul-2021 4545.00 5619.28 74.90 6.00 281.10 2734.68
   16:50:40.690.18-Jul-2021 4545.00 5619.28 74.90 6.00 281.30 2734.68
   16:50:40.890.18-Jul-2021 4545.00 5617.93 74.90 6.00 281.50 2734.68
   16:50:41.090.18-Jul-2021 4545.00 5619.74 74.89 6.00 281.70 2734.68
   16:50:41.290.18-Jul-2021 4545.00 5619.56 74.89 6.00 281.90 2734.68
   16:50:41.490.18-Jul-2021 4545.00 5619.94 74.89 6.00 282.10 2734.68
   16:50:41.690.18-Jul-2021 4545.00 5619.94 74.89 6.00 282.30 2734.68
   16:50:41.890.18-Jul-2021 4545.00 5619.94 74.89 6.00 282.50 2734.68
   16:50:42.090.18-Jul-2021 4545.00 5620.13 74.89 6.00 282.70 2734.68
   16:50:42.290.18-Jul-2021 4545.00 5619.08 74.89 6.00 282.90 2734.68
   16:50:42.490.18-Jul-2021 4545.00 5620.71 74.89 6.00 283.10 2734.68
   16:50:42.690.18-Jul-2021 4545.00 5620.71 74.89 6.00 283.30 2734.68
   16:50:42.890.18-Jul-2021 4545.00 5620.81 74.89 6.00 283.50 2734.68
   16:50:43.090.18-Jul-2021 4545.00 5620.80 74.89 6.00 283.70 2734.68
   16:50:43.291.18-Jul-2021 4545.00 5620.78 74.89 6.00 283.90 2734.68
   16:50:43.491.18-Jul-2021 4545.00 5620.73 74.89 6.00 284.10 2734.68
   16:50:43.691.18-Jul-2021 4545.00 5620.73 74.89 6.00 284.30 2734.68
   16:50:43.891.18-Jul-2021 4545.00 5620.90 74.89 6.00 284.50 2734.68
   16:50:44.091.18-Jul-2021 4545.00 5621.01 74.89 6.00 284.70 2734.68
   16:50:44.291.18-Jul-2021 4545.00 5621.02 74.89 6.00 284.90 2734.68
   16:50:44.491.18-Jul-2021 4545.00 5621.11 74.89 6.00 285.10 2734.68
   16:50:44.691.18-Jul-2021 4545.00 5621.11 74.89 6.00 285.31 2734.68
   16:50:44.891.18-Jul-2021 4545.00 5621.16 74.89 6.00 285.51 2734.68
   16:50:45.091.18-Jul-2021 4545.00 5619.48 74.89 6.00 285.71 2734.68
   16:50:45.291.18-Jul-2021 4545.00 5621.81 74.89 6.00 285.91 2734.68
   16:50:45.491.18-Jul-2021 4545.00 5621.39 74.89 6.00 286.11 2734.68
   16:50:45.691.18-Jul-2021 4545.00 5621.39 74.89 6.00 286.31 2734.68
   16:50:45.891.18-Jul-2021 4545.00 5621.76 74.89 6.00 286.51 2734.68
   16:50:46.092.18-Jul-2021 4545.00 5621.75 74.89 6.00 286.71 2734.68
   16:50:46.292.18-Jul-2021 4545.00 5621.69 74.89 6.00 286.91 2734.68
   16:50:46.492.18-Jul-2021 4545.00 5621.77 74.89 6.00 287.11 2734.68
   16:50:46.692.18-Jul-2021 4545.00 5621.77 74.89 6.00 287.31 2734.68
   16:50:46.892.18-Jul-2021 4545.00 5621.80 74.89 6.00 287.51 2734.68
   16:50:47.092.18-Jul-2021 4545.00 5621.78 74.89 6.00 287.71 2734.68
   16:50:47.292.18-Jul-2021 4545.00 5621.97 74.89 6.00 287.91 2734.68
   16:50:47.492.18-Jul-2021 4545.00 5621.98 74.89 6.00 288.11 2734.68
   16:50:47.692.18-Jul-2021 4545.00 5621.98 74.89 6.00 288.31 2734.68
   16:50:47.892.18-Jul-2021 4545.00 5620.94 74.89 6.00 288.51 2734.68
   16:50:48.092.18-Jul-2021 4545.00 5622.61 74.89 6.00 288.71 2734.68
   16:50:48.292.18-Jul-2021 4545.00 5621.31 74.89 6.00 288.91 2734.68
   16:50:48.492.18-Jul-2021 4545.00 5623.02 74.89 6.00 289.11 2734.68
   16:50:48.693.18-Jul-2021 4545.00 5623.02 74.89 6.00 289.31 2734.68
   16:50:48.893.18-Jul-2021 4545.00 5622.92 74.89 6.00 289.51 2734.68
   16:50:49.093.18-Jul-2021 4545.00 5622.99 74.89 6.00 289.71 2734.68
   16:50:49.293.18-Jul-2021 4545.00 5622.67 74.89 6.00 289.91 2734.68
   16:50:49.493.18-Jul-2021 4545.00 5621.01 74.89 6.00 290.11 2734.68
   16:50:49.693.18-Jul-2021 4545.00 5621.01 74.89 6.00 290.31 2734.68
   16:50:49.893.18-Jul-2021 4545.00 5622.77 74.89 6.00 290.51 2734.68
   16:50:50.093.18-Jul-2021 4545.00 5623.65 74.89 6.00 290.71 2734.68
   16:50:50.293.18-Jul-2021 4545.00 5623.21 74.89 6.00 290.91 2734.68
   16:50:50.493.18-Jul-2021 4545.00 5622.06 74.89 6.00 291.11 2734.68
   16:50:50.693.18-Jul-2021 4545.00 5622.06 74.89 6.00 291.31 2734.68
   16:50:50.893.18-Jul-2021 4545.00 5623.27 74.89 6.00 291.51 2734.68
   16:50:51.093.18-Jul-2021 4545.00 5622.97 74.89 6.00 291.71 2734.68
   16:50:51.293.18-Jul-2021 4545.00 5623.83 74.89 6.00 291.91 2734.68
   16:50:51.494.18-Jul-2021 4545.00 5623.79 74.89 6.00 292.11 2734.68
   16:50:51.694.18-Jul-2021 4545.00 5623.79 74.89 6.00 292.31 2734.68
   16:50:51.894.18-Jul-2021 4545.00 5624.28 74.89 6.00 292.51 2734.68
   16:50:52.094.18-Jul-2021 4545.00 5624.08 74.89 6.00 292.71 2734.68
   16:50:52.294.18-Jul-2021 4545.00 5624.17 74.89 6.00 292.91 2734.68
   16:50:52.494.18-Jul-2021 4545.00 5624.21 74.89 6.00 293.11 2734.68
   16:50:52.694.18-Jul-2021 4545.00 5624.21 74.89 6.00 293.31 2734.68
   16:50:52.894.18-Jul-2021 4545.00 5624.23 74.89 6.00 293.51 2734.68
   16:50:53.094.18-Jul-2021 4545.00 5624.28 74.89 6.00 293.71 2734.68
   16:50:53.294.18-Jul-2021 4545.00 5624.44 74.89 6.00 293.91 2734.68
   16:50:53.494.18-Jul-2021 4545.00 5624.40 74.89 6.00 294.11 2734.68
   16:50:53.694.18-Jul-2021 4545.00 5624.40 74.89 6.00 294.31 2734.68
   16:50:53.894.18-Jul-2021 4545.00 5624.40 74.89 6.00 294.51 2734.68
   16:50:54.095.18-Jul-2021 4545.00 5625.00 74.89 6.00 294.71 2734.68
   16:50:54.295.18-Jul-2021 4545.00 5624.94 74.89 6.00 294.91 2734.68
   16:50:54.495.18-Jul-2021 4545.00 5625.04 74.89 6.00 295.11 2734.68
   16:50:54.695.18-Jul-2021 4545.00 5625.04 74.89 6.00 295.31 2734.68
   16:50:54.895.18-Jul-2021 4545.00 5624.79 74.89 6.00 295.51 2734.68
   16:50:55.095.18-Jul-2021 4545.00 5624.73 74.89 6.00 295.71 2734.68
   16:50:55.295.18-Jul-2021 4545.00 5624.80 74.89 6.00 295.91 2734.68
   16:50:55.495.18-Jul-2021 4545.00 5624.85 74.89 6.00 296.11 2734.68
   16:50:55.695.18-Jul-2021 4545.00 5624.85 74.89 6.00 296.31 2734.68
   16:50:55.895.18-Jul-2021 4545.00 5624.98 74.89 6.00 296.51 2734.68
   16:50:56.095.18-Jul-2021 4545.00 5625.03 74.89 6.00 296.71 2734.68
   16:50:56.295.18-Jul-2021 4545.00 5624.90 74.89 6.00 296.91 2734.68
   16:50:56.495.18-Jul-2021 4545.00 5624.83 74.89 6.00 297.11 2734.68
   16:50:56.695.18-Jul-2021 4545.00 5624.83 74.89 6.00 297.31 2734.68
   16:50:56.896.18-Jul-2021 4545.00 5625.26 74.89 6.00 297.51 2734.68
   16:50:57.096.18-Jul-2021 4545.00 5624.74 74.89 6.00 297.71 2734.68
   16:50:57.296.18-Jul-2021 4545.00 5624.81 74.89 6.00 297.91 2734.68
   16:50:57.496.18-Jul-2021 4545.00 5625.77 74.89 6.00 298.11 2734.68
   16:50:57.696.18-Jul-2021 4545.00 5625.77 74.89 6.00 298.31 2734.68
   16:50:57.896.18-Jul-2021 4545.00 5626.02 74.89 6.00 298.51 2734.68
   16:50:58.096.18-Jul-2021 4545.00 5625.21 74.89 6.00 298.71 2734.68
   16:50:58.296.18-Jul-2021 4545.00 5624.23 74.89 6.00 298.91 2734.68
