~Version Information
 VERS.                  2.0:   CWLS log ASCII Standard -VERSION 2.0
 WRAP.                   NO:   One line per depth step
~Well Information Block
#MNEM.UNIT     VALUE/NAME     DESCRIPTION
#---------     -----------    ---------------------------
 STRT.S             12:46:21 18-Jul-21: START TIME 12:46:21 18-Jul-21
 STOP.S             12:52:54 18-Jul-21: STOP TIME  12:52:54 18-Jul-21
 STEP.S                   0.00: STEP TIME
 NULL.                 -999.25: NULL VALUE
 MDS .        Operator Entered:  MAG DATA SOURCE
 PDAT.          Mean Sea Level:  PERMANENT DATUM
 UNIT.                     N/A:  LOGGING EQUIPMENT ID
 DCON.         Sperry Drilling:  DIRECTNL CONTR
 DOE .                     N/A:  DOE NUMBER
 RIG .              West Azeri:  RIG NAME
 JOBN.        AZ-XX-0906997913:  JOB TICKET NUMB
 WELL.                     C41:  WELL NAME
 MWDS.                    Baku:  MWD SHOP
 SRVC.          Turan Drilling:  CONTRACTOR
 FLD .                     ACG:  FIELD NAME
 CTRY.              Azerbaijan:  COUNTRY NAME
 PROV.                    Baku:  PROVINCE
 STAT.                    Baku:  STATE NAME
 REGN.                   EESSA:  REGION
 BASE.              Azerbaijan:  LOGGING EQUIPMENT BASE LOCATION
 UWI .                     N/A:  UNIQUE WELL IDENTIFIER
 API .                     N/A:  API NUMBER
 COMP.     BP Exploration (Caspian Sea) Ltd.:  COMPANY
 WTYP.                Deviated:  WELL TYPE
 SON .        AZ-XX-0906997913:  JOB NUMBER
 FTOP.          Formation Tops:  FORM TOPS DESC
 ILTD.               Lithology:  INTERP LTH DESC
 SVYD.                  Survey:  SURVEY DESC
 DMOD.             Drill Model:  DRILL MOD DESC
 HPTY.       Minimum Curvature:  HOLE POS TYPE
 NREF.                    Grid:  NORTH REFERENCE
 SPUD.               16-May-21:  SPUD DATE
 DATE.      21.11.28 17-May-21:  END TIME
 STIM.      21.11.28 17-May-21:  START TIME
 DMF .             Drill Floor:  DRILL MEAS FROM
 DFST.                        :  DIST FSL TEXT
 DFWT.                        :  DIST FWL TEXT
 CNTY.                        :  COUNTY
 LOC .                        :  LOCATION
 LMF .             Drill Floor:  LOG MEASURED FROM
 AGAP.m                  43.42:  AIR GAP
 VSNS.m                  -2.16:  VERT SEC N/S
 VSEW.m                  -6.24:  VERT SEC E/W
 APD .m                  43.42:  DEPTH ABOVE PD
 WDMS.m                 118.27:  WD ELEV
 EGL .m                   0.00:  GROUND ELEVATION
 EPD .m                   0.00:  ELEVATION
 AZTC.deg                 6.29:  AZM TOTAL CORR
 GRDC.deg                 0.18:  GRID CORRECTION
 MDEC.deg                 6.47:  MAGNETIC DECL
 MDIP.deg                59.54:  MAGNETIC DIP
 MFLD.nT              50337.00:  MAGNETIC FIELD
 GVFD.g                   1.00:  GRAVITY FIELD
 VSDR.deg               226.99:  VERT SEC DIRECT
 TDD .m                   0.00:  TOTAL DEPTH (DRILLER)
 SDEP.m                 448.00:  START DEPTH
 DFSL.m                   0.00:  DISTANCE FSL
 DFWL.m                   0.00:  DISTANCE FWL
 UTMY.m             4435799.96:  UTM Y
 UTMX.m              526265.35:  UTM X
 WHEW.m                  -6.24:  WELL HEAD E/W
 WHNS.m                  -2.16:  WELL HEAD N/S
 LONG.deg                51.31:  LONGITUDE
 LATI.deg                40.06:  LATITUDE
 TVDS.m                  43.42:  TVDSS CORRECTN
 EKB .m                  43.42:  KB ELEVATION
 EDF .m                  43.42:  DF ELEVATION
 TDL .m                 288.00:  TOTAL DEPTH (LOGGER)
 MAGU.                 1851863:  MAGUTM CHECKSUM
 VSC .                       0:  VS TO CLOSURE
~Parameter Information Block
#MNEM.UNIT       Value        Description
#---------     -----------    ---------------------------
 AV  .mps                 0.40:  Ann Velocity 
 AVMX.mps                 0.63:  Max Ann Veloc 
 AZIF.deg               158.76:  Azm, Final 
 BHAT.        Rotary Steerable:  BHA Type 
 BROT.°/30m               0.68:  Build Rotating 
 BS  .in                  8.50:  Bit Size 
 BSZ .in                  8.50:  Bit Size 
 BTPL.psig              712.00:  Bit Press Loss 
 CABU.                      No:  Customer Abuse 
 COMM.                     üëZ:  Run Comments 1 
 TCS .hr                 90.66:  Time Ciculation Ended 
 CV  .mps                 2.02:  Crit Velocity 
 CVMX.mps                 2.14:  Max Crit Veloc 
 DD1 .            Aziz Aliyevu:  Direct Drillr 1 
 DD2 .             Samir Abbas:  Direct Drillr 2 
 DD3 .           Teymur Aliyev:  Direct Drillr 3 
 DDSV.                 iCruise:  DD Service 
 DEFF.%                  85.10:  % Det Eff 
 DLRX.°/30m               1.05:  Dogleg Rot Max 
 DLSO.°/30m               1.01:  Dogleg Oriented 
 DLSX.°/30m               1.05:  Dogleg Str Max 
 DRET.      07.45.00 18-Jul-21:  Drill End Time 
 DRST.      15.00.00 16-Jul-21:  Drill Start Tim 
 DTIM.hr                 23.46:  Time Drilling 
 EDEP.m                4603.00:  End Depth 
 ENG1.       Seymur Iskandarov:  Engineer 1 
 ENG2.         Yevgeniy Ulikov:  Engineer 2 
 ENG3.         Bahruz Mehdiyev:  Engineer 3 
 ENG4.         Elchin Mammadov:  Engineer 4 
 ETIM.      14.00.00 23-Jul-21:  End Time 
 FLOI.gpm               500.00:  Flow In 
 FLON.gpm               450.00:  Flow In Min 
 FLOS.cptm                0.00:  Fluid Loss 
 FLOX.gpm               560.00:  Flow In Max 
 DFT .        Mineral Oil Base:  Mud Type 
 FTRO.       Formation Presure:  FTWD Run Obj 
 HFLO.                      No:  High Flow 
 HPRE.                      No:  High Pressure 
 HTEM.                      No:  High Temp 
 HYDO.m                   1.80:  Hydro Offset 
 IFIN.deg                40.22:  Inc, Final 
 IMAX.deg                40.54:  Inc Max 
 IMIN.deg                39.44:  Inc Min 
 IMND.m                4361.17:  Inc Min Depth 
 IMXD.m                4417.92:  Inc Max Depth 
 JARR.                      No:  Jarring 
 LETM.      07.45.00 18-Jul-21:  Log End Time 
 LOST.hr                    16:  Lost Rig Time 
 LSTM.      15.00.00 16-Jul-21:  Log Start Time 
 MDCL.ppm             36500.00:  Mud Chlorides 
 MDES.     Inversion Oil/Synthetic:  Mud Desc 
 DFD .sg                  1.42:  Mud Density 
 MDMN.sg                  1.42:  Dens Mud Min 
 MDMX.sg                  1.43:  Dens Mud Max 
 MOIL.                      56:  Run Mud Oil % 
 MOWR.                   71:29:  Run Mud OWR 
 MSND.                     0.5:  Run Mud Sand % 
 MSOL.                      21:  Run Mud Solids% 
 DFV .spqt               78.00:  Mud Viscosity 
 MWOD.in                  6.75:  MWD Tool OD 
 MWSI.                     Yes:  Serv Intrp, MWD 
 OTIM.hr                200.73:  Time Operating 
 PCON.           Look Like New:  Pad Condition 
 PMAX.psia            11069.93:  Press Op, Max 
 PV  .cP                 32.00:  Mud PV 
 RUN .                     700:  Run Number 
 ROPA.m/hr               10.00:  ROP Avg 
 ROPN.m/hr                9.00:  ROP Min 
 ROPX.m/hr               16.00:  ROP Max 
 RPMA.rpm               116.00:  RPM Surface Avg 
 RPMN.rpm                80.00:  RPM Surface Min 
 RPMX.rpm               120.00:  RPM Surface Max 
 RRUN.                    L605:  Rig Run Number 
 RTIM.hr                 45.00:  Time Reaming 
 SAZI.deg               159.86:  Azm, Start 
 SDEP.m                4315.00:  Start Depth 
 SIDD.                      No:  Serv Intrp, DD 
 SINC.deg                39.86:  Inc, Start 
 SPPA.psig             3300.00:  SPP Avg 
 SPPN.psig             3040.00:  SPP Min 
 SPPX.psig             3645.00:  SPP Max 
 STIM.      01.00.00 15-Jul-21:  Start Time 
 SVCS.                 DD, MWD:  Services 
 SVER.                    9.20:  Sperry Version 
 TDAT.m                 288.00:  Tot Depth Attmp 
 TDDF.                      No:  Trip for DD 
 TDLG.m                 288.00:  Tot Depth Loggd 
 TFF .                      No:  Trip for Fail 
 TQAA.f-kp               19.00:  Torque Abs Avg 
 TQAN.f-kp               18.00:  Torque Abs Min 
 TQAX.f-kp               21.00:  Torque Abs Max 
 TRRT.°/30m               0.45:  Turn Rotating 
 MRT .                    HCIM:  Maximum Recorded Temperature 
 TTMX.degC               88.24:  Max Tool Temp 
 VS01.                90649157:  Virtual Str1 SN 
 VS02.                90652483:  Virtual Str2 SN 
 VS03.                11671987:  Virtual Str3 SN 
 VS04.                90643411:  Virtual Str4 SN 
 VS05.                90652478:  Virtual Str5 SN 
 VS06.                    6111:  Virtual Str6 SN 
 WBMN.klb                 9.50:  WOB Min 
 WITN.        Grigoriy Sarayev:  Customer Rep 
 WITN.          Rufat Huseynov:  Customer Rep 2 
 WOBA.klb                11.00:  WOB Avg 
 WOBX.klb                15.00:  WOB Max 
 YP  .lhf2               28.00:  Yield Point 
~Curve Information Block
#MNEM.UNIT                 API CODE     Curve Description
#---------               -----------    ---------------------------
 TIME.HHMMSS            00 000 000 000:  GT Time & Date
 GTDEPTH.m              00 000 000 000:  GT Depth
 GTPQH.psia             00 000 000 000:  GT HR Quartz Pressure
 GTTQ.degC              00 000 000 000:  GT Quartz Temperature
 GTTN.NONE              00 000 000 000:  GT Test Number
 GTET.sec               00 000 000 000:  GT Elapsed Test Time
 GTTVD.m                00 000 000 000:  GT True Vertical Depth
#Other Information
#
#WARRANTY: Halliburton will use its best efforts to furnish customers with 
#accurate information and interpretations that are part of, and incident to, the services 
#provided.  However, Halliburton cannot and does not warrant the accuracy 
#or correctness of such information and interpretations.  Under no circumstances should any 
#such information or interpretation be relied upon as the sole basis for any drilling, 
#completion, production, or financial decision or any procedure involving any risk to the 
#safety of any drilling venture, drilling rig or its crew or any other third party.  The 
#Customer has full responsibility for all drilling, completion and production operation.  
#Halliburton makes no representations or warranties, either expressed or 
#implied, including, but not limited to, the implied warranties of merchantability or fitness 
#for a particular purpose, with respect to the services rendered.  In no event will 
#Halliburton be liable for failure to obtain any particular results or for 
#any damages, including, but not limited to, indirect, special or consequential damages, 
#resulting from the use of any information or interpretation provided by Halliburton.
#
~A           TIME           GTDEPTH  GTPQH  GTTQ  GTTN  GTET   GTTVD  
# ...
   12:47:30.117.18-Jul-2021 4561.50 6767.95 76.58 1.00  69.03 2747.31
   12:47:30.317.18-Jul-2021 4561.50 6767.95 76.58 1.00  69.23 2747.31
   12:47:30.517.18-Jul-2021 4561.50 6767.69 76.58 1.00  69.43 2747.31
   12:47:30.717.18-Jul-2021 4561.50 6768.12 76.58 1.00  69.63 2747.31
   12:47:30.917.18-Jul-2021 4561.50 6768.14 76.58 1.00  69.83 2747.31
   12:47:31.118.18-Jul-2021 4561.50 6768.11 76.58 1.00  70.03 2747.31
   12:47:31.318.18-Jul-2021 4561.50 6768.11 76.58 1.00  70.23 2747.31
   12:47:31.518.18-Jul-2021 4561.50 6768.60 76.58 1.00  70.43 2747.31
   12:47:31.718.18-Jul-2021 4561.50 6767.70 76.58 1.00  70.63 2747.31
   12:47:31.918.18-Jul-2021 4561.50 6766.17 76.58 1.00  70.83 2747.31
   12:47:32.118.18-Jul-2021 4561.50 6769.30 76.58 1.00  71.03 2747.31
   12:47:32.318.18-Jul-2021 4561.50 6769.30 76.58 1.00  71.23 2747.31
   12:47:32.518.18-Jul-2021 4561.50 6765.92 76.58 1.00  71.43 2747.31
   12:47:32.718.18-Jul-2021 4561.50 6765.80 76.58 1.00  71.63 2747.31
   12:47:32.918.18-Jul-2021 4561.50 6766.42 76.58 1.00  71.83 2747.31
   12:47:33.118.18-Jul-2021 4561.50 6764.17 76.58 1.00  72.03 2747.31
   12:47:33.318.18-Jul-2021 4561.50 6764.17 76.58 1.00  72.23 2747.31
   12:47:33.518.18-Jul-2021 4561.50 6765.59 76.58 1.00  72.43 2747.31
   12:47:33.719.18-Jul-2021 4561.50 6764.35 76.58 1.00  72.63 2747.31
   12:47:33.919.18-Jul-2021 4561.50 6766.68 76.58 1.00  72.83 2747.31
   12:47:34.119.18-Jul-2021 4561.50 6764.68 76.58 1.00  73.03 2747.31
   12:47:34.319.18-Jul-2021 4561.50 6764.68 76.58 1.00  73.23 2747.31
   12:47:34.519.18-Jul-2021 4561.50 6765.10 76.58 1.00  73.43 2747.31
   12:47:34.719.18-Jul-2021 4561.50 6766.66 76.58 1.00  73.63 2747.31
   12:47:34.919.18-Jul-2021 4561.50 6763.94 76.58 1.00  73.83 2747.31
   12:47:35.119.18-Jul-2021 4561.50 6765.50 76.58 1.00  74.03 2747.31
   12:47:35.319.18-Jul-2021 4561.50 6765.50 76.58 1.00  74.23 2747.31
   12:47:35.519.18-Jul-2021 4561.50 6764.44 76.58 1.00  74.43 2747.31
   12:47:35.719.18-Jul-2021 4561.50 6764.92 76.58 1.00  74.63 2747.31
   12:47:35.919.18-Jul-2021 4561.50 6765.00 76.58 1.00  74.83 2747.31
   12:47:36.119.18-Jul-2021 4561.50 6764.60 76.58 1.00  75.03 2747.31
   12:47:36.319.18-Jul-2021 4561.50 6764.60 76.58 1.00  75.23 2747.31
   12:47:36.520.18-Jul-2021 4561.50 6765.26 76.58 1.00  75.43 2747.31
   12:47:36.720.18-Jul-2021 4561.50 6764.89 76.58 1.00  75.63 2747.31
   12:47:36.920.18-Jul-2021 4561.50 6765.26 76.58 1.00  75.83 2747.31
   12:47:37.120.18-Jul-2021 4561.50 6765.40 76.58 1.00  76.03 2747.31
   12:47:37.320.18-Jul-2021 4561.50 6765.40 76.58 1.00  76.23 2747.31
   12:47:37.520.18-Jul-2021 4561.50 6763.98 76.58 1.00  76.43 2747.31
   12:47:37.720.18-Jul-2021 4561.50 6764.71 76.58 1.00  76.63 2747.31
   12:47:37.920.18-Jul-2021 4561.50 6764.18 76.58 1.00  76.83 2747.31
   12:47:38.120.18-Jul-2021 4561.50 6764.96 76.58 1.00  77.03 2747.31
   12:47:38.320.18-Jul-2021 4561.50 6764.96 76.58 1.00  77.23 2747.31
   12:47:38.520.18-Jul-2021 4561.50 6764.39 76.58 1.00  77.43 2747.31
   12:47:38.720.18-Jul-2021 4561.50 6763.99 76.58 1.00  77.63 2747.31
   12:47:38.920.18-Jul-2021 4561.50 6764.05 76.58 1.00  77.83 2747.31
   12:47:39.120.18-Jul-2021 4561.50 6764.09 76.58 1.00  78.03 2747.31
   12:47:39.321.18-Jul-2021 4561.50 6764.09 76.58 1.00  78.23 2747.31
   12:47:39.521.18-Jul-2021 4561.50 6764.17 76.58 1.00  78.43 2747.31
   12:47:39.721.18-Jul-2021 4561.50 6764.44 76.58 1.00  78.63 2747.31
   12:47:39.921.18-Jul-2021 4561.50 6763.71 76.58 1.00  78.83 2747.31
   12:47:40.121.18-Jul-2021 4561.50 6765.89 76.58 1.00  79.03 2747.31
   12:47:40.321.18-Jul-2021 4561.50 6765.89 76.58 1.00  79.23 2747.31
   12:47:40.521.18-Jul-2021 4561.50 6763.00 76.58 1.00  79.43 2747.31
   12:47:40.721.18-Jul-2021 4561.50 6766.09 76.58 1.00  79.63 2747.31
   12:47:40.921.18-Jul-2021 4561.50 6763.25 76.58 1.00  79.83 2747.31
   12:47:41.121.18-Jul-2021 4561.50 6763.39 76.58 1.00  80.03 2747.31
   12:47:41.321.18-Jul-2021 4561.50 6763.39 76.58 1.00  80.23 2747.31
   12:47:41.521.18-Jul-2021 4561.50 6764.36 76.58 1.00  80.43 2747.31
   12:47:41.721.18-Jul-2021 4561.50 6761.76 76.57 1.00  80.63 2747.31
   12:47:41.922.18-Jul-2021 4561.50 6763.30 76.57 1.00  80.83 2747.31
   12:47:42.122.18-Jul-2021 4561.50 6762.57 76.57 1.00  81.03 2747.31
   12:47:42.322.18-Jul-2021 4561.50 6762.57 76.57 1.00  81.23 2747.31
   12:47:42.522.18-Jul-2021 4561.50 6761.85 76.57 1.00  81.43 2747.31
   12:47:42.722.18-Jul-2021 4561.50 6760.47 76.57 1.00  81.63 2747.31
   12:47:42.922.18-Jul-2021 4561.50 6763.79 76.57 1.00  81.83 2747.31
   12:47:43.122.18-Jul-2021 4561.50 6761.06 76.57 1.00  82.03 2747.31
   12:47:43.322.18-Jul-2021 4561.50 6761.06 76.57 1.00  82.23 2747.31
   12:47:43.522.18-Jul-2021 4561.50 6760.77 76.57 1.00  82.43 2747.31
   12:47:43.722.18-Jul-2021 4561.50 6760.50 76.57 1.00  82.63 2747.31
   12:47:43.922.18-Jul-2021 4561.50 6760.34 76.57 1.00  82.83 2747.31
   12:47:44.122.18-Jul-2021 4561.50 6760.52 76.57 1.00  83.03 2747.31
   12:47:44.322.18-Jul-2021 4561.50 6760.52 76.57 1.00  83.23 2747.31
   12:47:44.522.18-Jul-2021 4561.50 6760.70 76.57 1.00  83.43 2747.31
   12:47:44.723.18-Jul-2021 4561.50 6760.54 76.57 1.00  83.63 2747.31
   12:47:44.923.18-Jul-2021 4561.50 6760.70 76.57 1.00  83.83 2747.31
   12:47:45.123.18-Jul-2021 4561.50 6760.62 76.57 1.00  84.03 2747.31
   12:47:45.323.18-Jul-2021 4561.50 6760.62 76.57 1.00  84.23 2747.31
   12:47:45.523.18-Jul-2021 4561.50 6760.91 76.57 1.00  84.43 2747.31
   12:47:45.723.18-Jul-2021 4561.50 6761.39 76.57 1.00  84.63 2747.31
   12:47:45.923.18-Jul-2021 4561.50 6762.20 76.57 1.00  84.83 2747.31
   12:47:46.123.18-Jul-2021 4561.50 6760.48 76.57 1.00  85.03 2747.31
   12:47:46.323.18-Jul-2021 4561.50 6760.48 76.57 1.00  85.23 2747.31
   12:47:46.523.18-Jul-2021 4561.50 6760.59 76.57 1.00  85.43 2747.31
   12:47:46.723.18-Jul-2021 4561.50 6760.31 76.57 1.00  85.63 2747.31
   12:47:46.923.18-Jul-2021 4561.50 6760.38 76.57 1.00  85.83 2747.31
   12:47:47.123.18-Jul-2021 4561.50 6760.73 76.57 1.00  86.03 2747.31
   12:47:47.324.18-Jul-2021 4561.50 6760.73 76.57 1.00  86.23 2747.31
   12:47:47.524.18-Jul-2021 4561.50 6760.53 76.57 1.00  86.43 2747.31
   12:47:47.724.18-Jul-2021 4561.50 6760.40 76.57 1.00  86.63 2747.31
   12:47:47.924.18-Jul-2021 4561.50 6760.19 76.57 1.00  86.83 2747.31
   12:47:48.124.18-Jul-2021 4561.50 6759.94 76.57 1.00  87.03 2747.31
   12:47:48.324.18-Jul-2021 4561.50 6759.94 76.57 1.00  87.23 2747.31
   12:47:48.524.18-Jul-2021 4561.50 6761.06 76.57 1.00  87.43 2747.31
   12:47:48.724.18-Jul-2021 4561.50 6759.55 76.57 1.00  87.63 2747.31
   12:47:48.924.18-Jul-2021 4561.50 6762.68 76.57 1.00  87.83 2747.31
   12:47:49.124.18-Jul-2021 4561.50 6759.48 76.57 1.00  88.03 2747.31
   12:47:49.324.18-Jul-2021 4561.50 6759.48 76.57 1.00  88.23 2747.31
   12:47:49.524.18-Jul-2021 4561.50 6759.65 76.57 1.00  88.43 2747.31
   12:47:49.724.18-Jul-2021 4561.50 6761.10 76.57 1.00  88.63 2747.31
   12:47:49.924.18-Jul-2021 4561.50 6758.60 76.57 1.00  88.83 2747.31
   12:47:50.125.18-Jul-2021 4561.50 6759.05 76.57 1.00  89.03 2747.31
   12:47:50.325.18-Jul-2021 4561.50 6759.05 76.57 1.00  89.23 2747.31
   12:47:50.525.18-Jul-2021 4561.50 6758.77 76.57 1.00  89.43 2747.31
   12:47:50.725.18-Jul-2021 4561.50 6755.07 76.57 1.00  89.63 2747.31
   12:47:50.925.18-Jul-2021 4561.50 6751.65 76.57 1.00  89.83 2747.31
   12:47:51.125.18-Jul-2021 4561.50 6751.57 76.57 1.00  90.03 2747.31
   12:47:51.325.18-Jul-2021 4561.50 6751.57 76.57 1.00  90.23 2747.31
   12:47:51.525.18-Jul-2021 4561.50 6748.63 76.57 1.00  90.43 2747.31
   12:47:51.725.18-Jul-2021 4561.50 6745.29 76.57 1.00  90.63 2747.31
   12:47:51.925.18-Jul-2021 4561.50 6746.22 76.57 1.00  90.83 2747.31
   12:47:52.125.18-Jul-2021 4561.50 6745.67 76.57 1.00  91.03 2747.31
   12:47:52.325.18-Jul-2021 4561.50 6745.67 76.57 1.00  91.23 2747.31
   12:47:52.525.18-Jul-2021 4561.50 6745.81 76.57 1.00  91.43 2747.31
   12:47:52.726.18-Jul-2021 4561.50 6745.90 76.57 1.00  91.63 2747.31
   12:47:52.926.18-Jul-2021 4561.50 6745.78 76.57 1.00  91.83 2747.31
