~Version Information
 VERS.                  2.0:   CWLS log ASCII Standard -VERSION 2.0
 WRAP.                   NO:   One line per depth step
~Well Information Block
#MNEM.UNIT     VALUE/NAME     DESCRIPTION
#---------     -----------    ---------------------------
 STRT.S             12:46:21 18-Jul-21: START TIME 12:46:21 18-Jul-21
 STOP.S             12:52:54 18-Jul-21: STOP TIME  12:52:54 18-Jul-21
 STEP.S                   0.00: STEP TIME
 NULL.                 -999.25: NULL VALUE
 MDS .        Operator Entered:  MAG DATA SOURCE
 PDAT.          Mean Sea Level:  PERMANENT DATUM
 UNIT.                     N/A:  LOGGING EQUIPMENT ID
 DCON.         Sperry Drilling:  DIRECTNL CONTR
 DOE .                     N/A:  DOE NUMBER
 RIG .              West Azeri:  RIG NAME
 JOBN.        AZ-XX-0906997913:  JOB TICKET NUMB
 WELL.                     C41:  WELL NAME
 MWDS.                    Baku:  MWD SHOP
 SRVC.          Turan Drilling:  CONTRACTOR
 FLD .                     ACG:  FIELD NAME
 CTRY.              Azerbaijan:  COUNTRY NAME
 PROV.                    Baku:  PROVINCE
 STAT.                    Baku:  STATE NAME
 REGN.                   EESSA:  REGION
 BASE.              Azerbaijan:  LOGGING EQUIPMENT BASE LOCATION
 UWI .                     N/A:  UNIQUE WELL IDENTIFIER
 API .                     N/A:  API NUMBER
 COMP.     BP Exploration (Caspian Sea) Ltd.:  COMPANY
 WTYP.                Deviated:  WELL TYPE
 SON .        AZ-XX-0906997913:  JOB NUMBER
 FTOP.          Formation Tops:  FORM TOPS DESC
 ILTD.               Lithology:  INTERP LTH DESC
 SVYD.                  Survey:  SURVEY DESC
 DMOD.             Drill Model:  DRILL MOD DESC
 HPTY.       Minimum Curvature:  HOLE POS TYPE
 NREF.                    Grid:  NORTH REFERENCE
 SPUD.               16-May-21:  SPUD DATE
 DATE.      21.11.28 17-May-21:  END TIME
 STIM.      21.11.28 17-May-21:  START TIME
 DMF .             Drill Floor:  DRILL MEAS FROM
 DFST.                        :  DIST FSL TEXT
 DFWT.                        :  DIST FWL TEXT
 CNTY.                        :  COUNTY
 LOC .                        :  LOCATION
 LMF .             Drill Floor:  LOG MEASURED FROM
 AGAP.m                  43.42:  AIR GAP
 VSNS.m                  -2.16:  VERT SEC N/S
 VSEW.m                  -6.24:  VERT SEC E/W
 APD .m                  43.42:  DEPTH ABOVE PD
 WDMS.m                 118.27:  WD ELEV
 EGL .m                   0.00:  GROUND ELEVATION
 EPD .m                   0.00:  ELEVATION
 AZTC.deg                 6.29:  AZM TOTAL CORR
 GRDC.deg                 0.18:  GRID CORRECTION
 MDEC.deg                 6.47:  MAGNETIC DECL
 MDIP.deg                59.54:  MAGNETIC DIP
 MFLD.nT              50337.00:  MAGNETIC FIELD
 GVFD.g                   1.00:  GRAVITY FIELD
 VSDR.deg               226.99:  VERT SEC DIRECT
 TDD .m                   0.00:  TOTAL DEPTH (DRILLER)
 SDEP.m                 448.00:  START DEPTH
 DFSL.m                   0.00:  DISTANCE FSL
 DFWL.m                   0.00:  DISTANCE FWL
 UTMY.m             4435799.96:  UTM Y
 UTMX.m              526265.35:  UTM X
 WHEW.m                  -6.24:  WELL HEAD E/W
 WHNS.m                  -2.16:  WELL HEAD N/S
 LONG.deg                51.31:  LONGITUDE
 LATI.deg                40.06:  LATITUDE
 TVDS.m                  43.42:  TVDSS CORRECTN
 EKB .m                  43.42:  KB ELEVATION
 EDF .m                  43.42:  DF ELEVATION
 TDL .m                 288.00:  TOTAL DEPTH (LOGGER)
 MAGU.                 1851863:  MAGUTM CHECKSUM
 VSC .                       0:  VS TO CLOSURE
~Parameter Information Block
#MNEM.UNIT       Value        Description
#---------     -----------    ---------------------------
 AV  .mps                 0.40:  Ann Velocity 
 AVMX.mps                 0.63:  Max Ann Veloc 
 AZIF.deg               158.76:  Azm, Final 
 BHAT.        Rotary Steerable:  BHA Type 
 BROT.°/30m               0.68:  Build Rotating 
 BS  .in                  8.50:  Bit Size 
 BSZ .in                  8.50:  Bit Size 
 BTPL.psig              712.00:  Bit Press Loss 
 CABU.                      No:  Customer Abuse 
 COMM.                     üëZ:  Run Comments 1 
 TCS .hr                 90.66:  Time Ciculation Ended 
 CV  .mps                 2.02:  Crit Velocity 
 CVMX.mps                 2.14:  Max Crit Veloc 
 DD1 .            Aziz Aliyevu:  Direct Drillr 1 
 DD2 .             Samir Abbas:  Direct Drillr 2 
 DD3 .           Teymur Aliyev:  Direct Drillr 3 
 DDSV.                 iCruise:  DD Service 
 DEFF.%                  85.10:  % Det Eff 
 DLRX.°/30m               1.05:  Dogleg Rot Max 
 DLSO.°/30m               1.01:  Dogleg Oriented 
 DLSX.°/30m               1.05:  Dogleg Str Max 
 DRET.      07.45.00 18-Jul-21:  Drill End Time 
 DRST.      15.00.00 16-Jul-21:  Drill Start Tim 
 DTIM.hr                 23.46:  Time Drilling 
 EDEP.m                4603.00:  End Depth 
 ENG1.       Seymur Iskandarov:  Engineer 1 
 ENG2.         Yevgeniy Ulikov:  Engineer 2 
 ENG3.         Bahruz Mehdiyev:  Engineer 3 
 ENG4.         Elchin Mammadov:  Engineer 4 
 ETIM.      14.00.00 23-Jul-21:  End Time 
 FLOI.gpm               500.00:  Flow In 
 FLON.gpm               450.00:  Flow In Min 
 FLOS.cptm                0.00:  Fluid Loss 
 FLOX.gpm               560.00:  Flow In Max 
 DFT .        Mineral Oil Base:  Mud Type 
 FTRO.       Formation Presure:  FTWD Run Obj 
 HFLO.                      No:  High Flow 
 HPRE.                      No:  High Pressure 
 HTEM.                      No:  High Temp 
 HYDO.m                   1.80:  Hydro Offset 
 IFIN.deg                40.22:  Inc, Final 
 IMAX.deg                40.54:  Inc Max 
 IMIN.deg                39.44:  Inc Min 
 IMND.m                4361.17:  Inc Min Depth 
 IMXD.m                4417.92:  Inc Max Depth 
 JARR.                      No:  Jarring 
 LETM.      07.45.00 18-Jul-21:  Log End Time 
 LOST.hr                    16:  Lost Rig Time 
 LSTM.      15.00.00 16-Jul-21:  Log Start Time 
 MDCL.ppm             36500.00:  Mud Chlorides 
 MDES.     Inversion Oil/Synthetic:  Mud Desc 
 DFD .sg                  1.42:  Mud Density 
 MDMN.sg                  1.42:  Dens Mud Min 
 MDMX.sg                  1.43:  Dens Mud Max 
 MOIL.                      56:  Run Mud Oil % 
 MOWR.                   71:29:  Run Mud OWR 
 MSND.                     0.5:  Run Mud Sand % 
 MSOL.                      21:  Run Mud Solids% 
 DFV .spqt               78.00:  Mud Viscosity 
 MWOD.in                  6.75:  MWD Tool OD 
 MWSI.                     Yes:  Serv Intrp, MWD 
 OTIM.hr                200.73:  Time Operating 
 PCON.           Look Like New:  Pad Condition 
 PMAX.psia            11069.93:  Press Op, Max 
 PV  .cP                 32.00:  Mud PV 
 RUN .                     700:  Run Number 
 ROPA.m/hr               10.00:  ROP Avg 
 ROPN.m/hr                9.00:  ROP Min 
 ROPX.m/hr               16.00:  ROP Max 
 RPMA.rpm               116.00:  RPM Surface Avg 
 RPMN.rpm                80.00:  RPM Surface Min 
 RPMX.rpm               120.00:  RPM Surface Max 
 RRUN.                    L605:  Rig Run Number 
 RTIM.hr                 45.00:  Time Reaming 
 SAZI.deg               159.86:  Azm, Start 
 SDEP.m                4315.00:  Start Depth 
 SIDD.                      No:  Serv Intrp, DD 
 SINC.deg                39.86:  Inc, Start 
 SPPA.psig             3300.00:  SPP Avg 
 SPPN.psig             3040.00:  SPP Min 
 SPPX.psig             3645.00:  SPP Max 
 STIM.      01.00.00 15-Jul-21:  Start Time 
 SVCS.                 DD, MWD:  Services 
 SVER.                    9.20:  Sperry Version 
 TDAT.m                 288.00:  Tot Depth Attmp 
 TDDF.                      No:  Trip for DD 
 TDLG.m                 288.00:  Tot Depth Loggd 
 TFF .                      No:  Trip for Fail 
 TQAA.f-kp               19.00:  Torque Abs Avg 
 TQAN.f-kp               18.00:  Torque Abs Min 
 TQAX.f-kp               21.00:  Torque Abs Max 
 TRRT.°/30m               0.45:  Turn Rotating 
 MRT .                    HCIM:  Maximum Recorded Temperature 
 TTMX.degC               88.24:  Max Tool Temp 
 VS01.                90649157:  Virtual Str1 SN 
 VS02.                90652483:  Virtual Str2 SN 
 VS03.                11671987:  Virtual Str3 SN 
 VS04.                90643411:  Virtual Str4 SN 
 VS05.                90652478:  Virtual Str5 SN 
 VS06.                    6111:  Virtual Str6 SN 
 WBMN.klb                 9.50:  WOB Min 
 WITN.        Grigoriy Sarayev:  Customer Rep 
 WITN.          Rufat Huseynov:  Customer Rep 2 
 WOBA.klb                11.00:  WOB Avg 
 WOBX.klb                15.00:  WOB Max 
 YP  .lhf2               28.00:  Yield Point 
~Curve Information Block
#MNEM.UNIT                 API CODE     Curve Description
#---------               -----------    ---------------------------
 TIME.HHMMSS            00 000 000 000:  GT Time & Date
 GTDEPTH.m              00 000 000 000:  GT Depth
 GTPQH.psia             00 000 000 000:  GT HR Quartz Pressure
 GTTQ.degC              00 000 000 000:  GT Quartz Temperature
 GTTN.NONE              00 000 000 000:  GT Test Number
 GTET.sec               00 000 000 000:  GT Elapsed Test Time
 GTTVD.m                00 000 000 000:  GT True Vertical Depth
#Other Information
#
#WARRANTY: Halliburton will use its best efforts to furnish customers with 
#accurate information and interpretations that are part of, and incident to, the services 
#provided.  However, Halliburton cannot and does not warrant the accuracy 
#or correctness of such information and interpretations.  Under no circumstances should any 
#such information or interpretation be relied upon as the sole basis for any drilling, 
#completion, production, or financial decision or any procedure involving any risk to the 
#safety of any drilling venture, drilling rig or its crew or any other third party.  The 
#Customer has full responsibility for all drilling, completion and production operation.  
#Halliburton makes no representations or warranties, either expressed or 
#implied, including, but not limited to, the implied warranties of merchantability or fitness 
#for a particular purpose, with respect to the services rendered.  In no event will 
#Halliburton be liable for failure to obtain any particular results or for 
#any damages, including, but not limited to, indirect, special or consequential damages, 
#resulting from the use of any information or interpretation provided by Halliburton.
#
~A           TIME           GTDEPTH  GTPQH  GTTQ  GTTN  GTET   GTTVD  
# ...
   12:48:39.143.18-Jul-2021 4561.50 6662.58 76.53 1.00 138.05 2747.31
   12:48:39.343.18-Jul-2021 4561.50 6662.58 76.53 1.00 138.25 2747.31
   12:48:39.543.18-Jul-2021 4561.50 6671.09 76.53 1.00 138.45 2747.31
   12:48:39.743.18-Jul-2021 4561.50 6666.11 76.53 1.00 138.65 2747.31
   12:48:39.943.18-Jul-2021 4561.50 6659.14 76.53 1.00 138.85 2747.31
   12:48:40.143.18-Jul-2021 4561.50 6669.95 76.53 1.00 139.05 2747.31
   12:48:40.343.18-Jul-2021 4561.50 6669.95 76.53 1.00 139.25 2747.31
   12:48:40.543.18-Jul-2021 4561.50 6658.61 76.53 1.00 139.45 2747.31
   12:48:40.743.18-Jul-2021 4561.50 6663.92 76.53 1.00 139.65 2747.31
   12:48:40.943.18-Jul-2021 4561.50 6663.69 76.53 1.00 139.85 2747.31
   12:48:41.143.18-Jul-2021 4561.50 6658.65 76.53 1.00 140.05 2747.31
   12:48:41.343.18-Jul-2021 4561.50 6658.65 76.53 1.00 140.25 2747.31
   12:48:41.543.18-Jul-2021 4561.50 6661.96 76.53 1.00 140.45 2747.31
   12:48:41.744.18-Jul-2021 4561.50 6659.99 76.53 1.00 140.65 2747.31
   12:48:41.944.18-Jul-2021 4561.50 6661.90 76.53 1.00 140.85 2747.31
   12:48:42.144.18-Jul-2021 4561.50 6662.11 76.53 1.00 141.05 2747.31
   12:48:42.344.18-Jul-2021 4561.50 6662.11 76.53 1.00 141.25 2747.31
   12:48:42.544.18-Jul-2021 4561.50 6662.23 76.53 1.00 141.45 2747.31
   12:48:42.744.18-Jul-2021 4561.50 6662.61 76.53 1.00 141.65 2747.31
   12:48:42.944.18-Jul-2021 4561.50 6661.84 76.53 1.00 141.85 2747.31
   12:48:43.144.18-Jul-2021 4561.50 6671.88 76.53 1.00 142.05 2747.31
   12:48:43.344.18-Jul-2021 4561.50 6671.88 76.53 1.00 142.25 2747.31
   12:48:43.544.18-Jul-2021 4561.50 6663.20 76.53 1.00 142.45 2747.31
   12:48:43.744.18-Jul-2021 4561.50 6666.82 76.53 1.00 142.65 2747.31
   12:48:43.944.18-Jul-2021 4561.50 6662.08 76.53 1.00 142.85 2747.31
   12:48:44.144.18-Jul-2021 4561.50 6660.46 76.53 1.00 143.05 2747.31
   12:48:44.345.18-Jul-2021 4561.50 6660.46 76.53 1.00 143.25 2747.31
   12:48:44.545.18-Jul-2021 4561.50 6662.21 76.53 1.00 143.45 2747.31
   12:48:44.745.18-Jul-2021 4561.50 6662.72 76.53 1.00 143.65 2747.31
   12:48:44.945.18-Jul-2021 4561.50 6662.68 76.53 1.00 143.85 2747.31
   12:48:45.145.18-Jul-2021 4561.50 6662.93 76.53 1.00 144.05 2747.31
   12:48:45.345.18-Jul-2021 4561.50 6662.93 76.53 1.00 144.25 2747.31
   12:48:45.545.18-Jul-2021 4561.50 6671.98 76.53 1.00 144.45 2747.31
   12:48:45.745.18-Jul-2021 4561.50 6685.86 76.53 1.00 144.65 2747.31
   12:48:45.945.18-Jul-2021 4561.50 6677.60 76.53 1.00 144.85 2747.31
   12:48:46.145.18-Jul-2021 4561.50 6685.49 76.53 1.00 145.05 2747.31
   12:48:46.345.18-Jul-2021 4561.50 6685.49 76.53 1.00 145.25 2747.31
   12:48:46.545.18-Jul-2021 4561.50 6679.67 76.53 1.00 145.45 2747.31
   12:48:46.745.18-Jul-2021 4561.50 6686.13 76.53 1.00 145.65 2747.31
   12:48:46.945.18-Jul-2021 4561.50 6689.46 76.53 1.00 145.85 2747.31
   12:48:47.146.18-Jul-2021 4561.50 6679.64 76.53 1.00 146.05 2747.31
   12:48:47.346.18-Jul-2021 4561.50 6679.64 76.53 1.00 146.25 2747.31
   12:48:47.546.18-Jul-2021 4561.50 6688.60 76.53 1.00 146.45 2747.31
   12:48:47.746.18-Jul-2021 4561.50 6679.28 76.53 1.00 146.65 2747.31
   12:48:47.946.18-Jul-2021 4561.50 6688.89 76.53 1.00 146.85 2747.31
   12:48:48.146.18-Jul-2021 4561.50 6690.79 76.53 1.00 147.05 2747.31
   12:48:48.346.18-Jul-2021 4561.50 6690.79 76.53 1.00 147.25 2747.31
   12:48:48.546.18-Jul-2021 4561.50 6685.63 76.53 1.00 147.45 2747.31
   12:48:48.746.18-Jul-2021 4561.50 6686.20 76.53 1.00 147.65 2747.31
   12:48:48.946.18-Jul-2021 4561.50 6680.28 76.53 1.00 147.85 2747.31
   12:48:49.146.18-Jul-2021 4561.50 6682.67 76.53 1.00 148.05 2747.31
   12:48:49.346.18-Jul-2021 4561.50 6682.67 76.53 1.00 148.25 2747.31
   12:48:49.546.18-Jul-2021 4561.50 6680.45 76.53 1.00 148.45 2747.31
   12:48:49.746.18-Jul-2021 4561.50 6683.13 76.53 1.00 148.65 2747.31
   12:48:49.947.18-Jul-2021 4561.50 6683.54 76.53 1.00 148.85 2747.31
   12:48:50.147.18-Jul-2021 4561.50 6680.06 76.53 1.00 149.05 2747.31
   12:48:50.347.18-Jul-2021 4561.50 6680.06 76.53 1.00 149.25 2747.31
   12:48:50.547.18-Jul-2021 4561.50 6683.36 76.53 1.00 149.46 2747.31
   12:48:50.747.18-Jul-2021 4561.50 6681.06 76.53 1.00 149.66 2747.31
   12:48:50.947.18-Jul-2021 4561.50 6691.86 76.53 1.00 149.86 2747.31
   12:48:51.147.18-Jul-2021 4561.50 6684.28 76.53 1.00 150.06 2747.31
   12:48:51.347.18-Jul-2021 4561.50 6684.28 76.53 1.00 150.26 2747.31
   12:48:51.547.18-Jul-2021 4561.50 6687.66 76.53 1.00 150.46 2747.31
   12:48:51.747.18-Jul-2021 4561.50 6684.05 76.53 1.00 150.66 2747.31
   12:48:51.947.18-Jul-2021 4561.50 6680.09 76.53 1.00 150.86 2747.31
   12:48:52.147.18-Jul-2021 4561.50 6681.29 76.53 1.00 151.06 2747.31
   12:48:52.347.18-Jul-2021 4561.50 6681.29 76.53 1.00 151.26 2747.31
   12:48:52.548.18-Jul-2021 4561.50 6682.35 76.53 1.00 151.46 2747.31
   12:48:52.748.18-Jul-2021 4561.50 6682.52 76.53 1.00 151.66 2747.31
   12:48:52.948.18-Jul-2021 4561.50 6682.51 76.53 1.00 151.86 2747.31
   12:48:53.148.18-Jul-2021 4561.50 6680.95 76.53 1.00 152.06 2747.31
   12:48:53.348.18-Jul-2021 4561.50 6680.95 76.53 1.00 152.26 2747.31
   12:48:53.548.18-Jul-2021 4561.50 6689.89 76.53 1.00 152.46 2747.31
   12:48:53.748.18-Jul-2021 4561.50 6682.38 76.53 1.00 152.66 2747.31
   12:48:53.948.18-Jul-2021 4561.50 6687.03 76.53 1.00 152.86 2747.31
   12:48:54.148.18-Jul-2021 4561.50 6690.96 76.53 1.00 153.06 2747.31
   12:48:54.348.18-Jul-2021 4561.50 6690.96 76.53 1.00 153.26 2747.31
   12:48:54.548.18-Jul-2021 4561.50 6683.90 76.53 1.00 153.46 2747.31
   12:48:54.748.18-Jul-2021 4561.50 6691.41 76.53 1.00 153.66 2747.31
   12:48:54.948.18-Jul-2021 4561.50 6681.65 76.53 1.00 153.86 2747.31
   12:48:55.148.18-Jul-2021 4561.50 6683.06 76.53 1.00 154.06 2747.31
   12:48:55.349.18-Jul-2021 4561.50 6683.06 76.53 1.00 154.26 2747.31
   12:48:55.549.18-Jul-2021 4561.50 6684.59 76.52 1.00 154.46 2747.31
   12:48:55.749.18-Jul-2021 4561.50 6681.68 76.52 1.00 154.66 2747.31
   12:48:55.949.18-Jul-2021 4561.50 6691.08 76.52 1.00 154.86 2747.31
   12:48:56.149.18-Jul-2021 4561.50 6682.49 76.52 1.00 155.06 2747.31
   12:48:56.349.18-Jul-2021 4561.50 6682.49 76.52 1.00 155.26 2747.31
   12:48:56.549.18-Jul-2021 4561.50 6684.16 76.52 1.00 155.46 2747.31
   12:48:56.749.18-Jul-2021 4561.50 6678.97 76.52 1.00 155.66 2747.31
   12:48:56.949.18-Jul-2021 4561.50 6680.66 76.52 1.00 155.86 2747.31
   12:48:57.149.18-Jul-2021 4561.50 6681.85 76.52 1.00 156.06 2747.31
   12:48:57.349.18-Jul-2021 4561.50 6681.85 76.52 1.00 156.26 2747.31
   12:48:57.549.18-Jul-2021 4561.50 6681.31 76.52 1.00 156.46 2747.31
   12:48:57.749.18-Jul-2021 4561.50 6682.33 76.52 1.00 156.66 2747.31
   12:48:57.950.18-Jul-2021 4561.50 6680.10 76.52 1.00 156.86 2747.31
   12:48:58.150.18-Jul-2021 4561.50 6681.33 76.52 1.00 157.06 2747.31
   12:48:58.350.18-Jul-2021 4561.50 6681.33 76.52 1.00 157.26 2747.31
   12:48:58.550.18-Jul-2021 4561.50 6680.35 76.52 1.00 157.46 2747.31
   12:48:58.750.18-Jul-2021 4561.50 6686.53 76.52 1.00 157.66 2747.31
   12:48:58.950.18-Jul-2021 4561.50 6688.33 76.52 1.00 157.86 2747.31
   12:48:59.150.18-Jul-2021 4561.50 6681.54 76.52 1.00 158.06 2747.31
   12:48:59.350.18-Jul-2021 4561.50 6681.54 76.52 1.00 158.26 2747.31
   12:48:59.550.18-Jul-2021 4561.50 6684.68 76.52 1.00 158.46 2747.31
   12:48:59.750.18-Jul-2021 4561.50 6680.04 76.52 1.00 158.66 2747.31
   12:48:59.950.18-Jul-2021 4561.50 6680.19 76.52 1.00 158.86 2747.31
   12:49:00.150.18-Jul-2021 4561.50 6681.43 76.52 1.00 159.06 2747.31
   12:49:00.350.18-Jul-2021 4561.50 6681.43 76.52 1.00 159.26 2747.31
   12:49:00.550.18-Jul-2021 4561.50 6679.27 76.52 1.00 159.46 2747.31
   12:49:00.751.18-Jul-2021 4561.50 6681.03 76.52 1.00 159.66 2747.31
   12:49:00.951.18-Jul-2021 4561.50 6679.05 76.52 1.00 159.86 2747.31
   12:49:01.151.18-Jul-2021 4561.50 6677.63 76.52 1.00 160.06 2747.31
   12:49:01.351.18-Jul-2021 4561.50 6677.63 76.52 1.00 160.26 2747.31
   12:49:01.551.18-Jul-2021 4561.50 6685.38 76.52 1.00 160.46 2747.31
   12:49:01.751.18-Jul-2021 4561.50 6678.45 76.52 1.00 160.66 2747.31
   12:49:01.951.18-Jul-2021 4561.50 6688.52 76.52 1.00 160.86 2747.31
