~Version Information
 VERS.                  2.0:   CWLS log ASCII Standard -VERSION 2.0
 WRAP.                   NO:   One line per depth step
~Well Information Block
#MNEM.UNIT     VALUE/NAME     DESCRIPTION
#---------     -----------    ---------------------------
 STRT.S             07:37:07 19-Jul-21: START TIME 07:37:07 19-Jul-21
 STOP.S             07:44:01 19-Jul-21: STOP TIME  07:44:01 19-Jul-21
 STEP.S                   0.00: STEP TIME
 NULL.                 -999.25: NULL VALUE
 MDS .        Operator Entered:  MAG DATA SOURCE
 PDAT.          Mean Sea Level:  PERMANENT DATUM
 UNIT.                     N/A:  LOGGING EQUIPMENT ID
 DCON.         Sperry Drilling:  DIRECTNL CONTR
 DOE .                     N/A:  DOE NUMBER
 RIG .              West Azeri:  RIG NAME
 JOBN.        AZ-XX-0906997913:  JOB TICKET NUMB
 WELL.                     C41:  WELL NAME
 MWDS.                    Baku:  MWD SHOP
 SRVC.          Turan Drilling:  CONTRACTOR
 FLD .                     ACG:  FIELD NAME
 CTRY.              Azerbaijan:  COUNTRY NAME
 PROV.                    Baku:  PROVINCE
 STAT.                    Baku:  STATE NAME
 REGN.                   EESSA:  REGION
 BASE.              Azerbaijan:  LOGGING EQUIPMENT BASE LOCATION
 UWI .                     N/A:  UNIQUE WELL IDENTIFIER
 API .                     N/A:  API NUMBER
 COMP.     BP Exploration (Caspian Sea) Ltd.:  COMPANY
 WTYP.                Deviated:  WELL TYPE
 SON .        AZ-XX-0906997913:  JOB NUMBER
 FTOP.          Formation Tops:  FORM TOPS DESC
 ILTD.               Lithology:  INTERP LTH DESC
 SVYD.                  Survey:  SURVEY DESC
 DMOD.             Drill Model:  DRILL MOD DESC
 HPTY.       Minimum Curvature:  HOLE POS TYPE
 NREF.                    Grid:  NORTH REFERENCE
 SPUD.               16-May-21:  SPUD DATE
 DATE.      21.11.28 17-May-21:  END TIME
 STIM.      21.11.28 17-May-21:  START TIME
 DMF .             Drill Floor:  DRILL MEAS FROM
 DFST.                        :  DIST FSL TEXT
 DFWT.                        :  DIST FWL TEXT
 CNTY.                        :  COUNTY
 LOC .                        :  LOCATION
 LMF .             Drill Floor:  LOG MEASURED FROM
 AGAP.m                  43.42:  AIR GAP
 VSNS.m                  -2.16:  VERT SEC N/S
 VSEW.m                  -6.24:  VERT SEC E/W
 APD .m                  43.42:  DEPTH ABOVE PD
 WDMS.m                 118.27:  WD ELEV
 EGL .m                   0.00:  GROUND ELEVATION
 EPD .m                   0.00:  ELEVATION
 AZTC.deg                 6.29:  AZM TOTAL CORR
 GRDC.deg                 0.18:  GRID CORRECTION
 MDEC.deg                 6.47:  MAGNETIC DECL
 MDIP.deg                59.54:  MAGNETIC DIP
 MFLD.nT              50337.00:  MAGNETIC FIELD
 GVFD.g                   1.00:  GRAVITY FIELD
 VSDR.deg               226.99:  VERT SEC DIRECT
 TDD .m                   0.00:  TOTAL DEPTH (DRILLER)
 SDEP.m                 448.00:  START DEPTH
 DFSL.m                   0.00:  DISTANCE FSL
 DFWL.m                   0.00:  DISTANCE FWL
 UTMY.m             4435799.96:  UTM Y
 UTMX.m              526265.35:  UTM X
 WHEW.m                  -6.24:  WELL HEAD E/W
 WHNS.m                  -2.16:  WELL HEAD N/S
 LONG.deg                51.31:  LONGITUDE
 LATI.deg                40.06:  LATITUDE
 TVDS.m                  43.42:  TVDSS CORRECTN
 EKB .m                  43.42:  KB ELEVATION
 EDF .m                  43.42:  DF ELEVATION
 TDL .m                 288.00:  TOTAL DEPTH (LOGGER)
 MAGU.                 1851863:  MAGUTM CHECKSUM
 VSC .                       0:  VS TO CLOSURE
~Parameter Information Block
#MNEM.UNIT       Value        Description
#---------     -----------    ---------------------------
 AV  .mps                 0.40:  Ann Velocity 
 AVMX.mps                 0.63:  Max Ann Veloc 
 AZIF.deg               158.76:  Azm, Final 
 BHAT.        Rotary Steerable:  BHA Type 
 BROT.°/30m               0.68:  Build Rotating 
 BS  .in                  8.50:  Bit Size 
 BSZ .in                  8.50:  Bit Size 
 BTPL.psig              712.00:  Bit Press Loss 
 CABU.                      No:  Customer Abuse 
 COMM.                     ÌT{:  Run Comments 1 
 TCS .hr                 90.66:  Time Ciculation Ended 
 CV  .mps                 2.02:  Crit Velocity 
 CVMX.mps                 2.14:  Max Crit Veloc 
 DD1 .            Aziz Aliyevu:  Direct Drillr 1 
 DD2 .             Samir Abbas:  Direct Drillr 2 
 DD3 .           Teymur Aliyev:  Direct Drillr 3 
 DDSV.                 iCruise:  DD Service 
 DEFF.%                  85.10:  % Det Eff 
 DLRX.°/30m               1.05:  Dogleg Rot Max 
 DLSO.°/30m               1.01:  Dogleg Oriented 
 DLSX.°/30m               1.05:  Dogleg Str Max 
 DRET.      07.45.00 18-Jul-21:  Drill End Time 
 DRST.      15.00.00 16-Jul-21:  Drill Start Tim 
 DTIM.hr                 23.46:  Time Drilling 
 EDEP.m                4603.00:  End Depth 
 ENG1.       Seymur Iskandarov:  Engineer 1 
 ENG2.         Yevgeniy Ulikov:  Engineer 2 
 ENG3.         Bahruz Mehdiyev:  Engineer 3 
 ENG4.         Elchin Mammadov:  Engineer 4 
 ETIM.      14.00.00 23-Jul-21:  End Time 
 FLOI.gpm               500.00:  Flow In 
 FLON.gpm               450.00:  Flow In Min 
 FLOS.cptm                0.00:  Fluid Loss 
 FLOX.gpm               560.00:  Flow In Max 
 DFT .        Mineral Oil Base:  Mud Type 
 FTRO.       Formation Presure:  FTWD Run Obj 
 HFLO.                      No:  High Flow 
 HPRE.                      No:  High Pressure 
 HTEM.                      No:  High Temp 
 HYDO.m                   1.80:  Hydro Offset 
 IFIN.deg                40.22:  Inc, Final 
 IMAX.deg                40.54:  Inc Max 
 IMIN.deg                39.44:  Inc Min 
 IMND.m                4361.17:  Inc Min Depth 
 IMXD.m                4417.92:  Inc Max Depth 
 JARR.                      No:  Jarring 
 LETM.      07.45.00 18-Jul-21:  Log End Time 
 LOST.hr                    16:  Lost Rig Time 
 LSTM.      15.00.00 16-Jul-21:  Log Start Time 
 MDCL.ppm             36500.00:  Mud Chlorides 
 MDES.     Inversion Oil/Synthetic:  Mud Desc 
 DFD .sg                  1.42:  Mud Density 
 MDMN.sg                  1.42:  Dens Mud Min 
 MDMX.sg                  1.43:  Dens Mud Max 
 MOIL.                      56:  Run Mud Oil % 
 MOWR.                   71:29:  Run Mud OWR 
 MSND.                     0.5:  Run Mud Sand % 
 MSOL.                      21:  Run Mud Solids% 
 DFV .spqt               78.00:  Mud Viscosity 
 MWOD.in                  6.75:  MWD Tool OD 
 MWSI.                     Yes:  Serv Intrp, MWD 
 OTIM.hr                200.73:  Time Operating 
 PCON.           Look Like New:  Pad Condition 
 PMAX.psia            11069.93:  Press Op, Max 
 PV  .cP                 32.00:  Mud PV 
 RUN .                     700:  Run Number 
 ROPA.m/hr               10.00:  ROP Avg 
 ROPN.m/hr                9.00:  ROP Min 
 ROPX.m/hr               16.00:  ROP Max 
 RPMA.rpm               116.00:  RPM Surface Avg 
 RPMN.rpm                80.00:  RPM Surface Min 
 RPMX.rpm               120.00:  RPM Surface Max 
 RRUN.                    L605:  Rig Run Number 
 RTIM.hr                 45.00:  Time Reaming 
 SAZI.deg               159.86:  Azm, Start 
 SDEP.m                4315.00:  Start Depth 
 SIDD.                      No:  Serv Intrp, DD 
 SINC.deg                39.86:  Inc, Start 
 SPPA.psig             3300.00:  SPP Avg 
 SPPN.psig             3040.00:  SPP Min 
 SPPX.psig             3645.00:  SPP Max 
 STIM.      01.00.00 15-Jul-21:  Start Time 
 SVCS.                 DD, MWD:  Services 
 SVER.                    9.20:  Sperry Version 
 TDAT.m                 288.00:  Tot Depth Attmp 
 TDDF.                      No:  Trip for DD 
 TDLG.m                 288.00:  Tot Depth Loggd 
 TFF .                      No:  Trip for Fail 
 TQAA.f-kp               19.00:  Torque Abs Avg 
 TQAN.f-kp               18.00:  Torque Abs Min 
 TQAX.f-kp               21.00:  Torque Abs Max 
 TRRT.°/30m               0.45:  Turn Rotating 
 MRT .                    HCIM:  Maximum Recorded Temperature 
 TTMX.degC               88.24:  Max Tool Temp 
 VS01.                90649157:  Virtual Str1 SN 
 VS02.                90652483:  Virtual Str2 SN 
 VS03.                11671987:  Virtual Str3 SN 
 VS04.                90643411:  Virtual Str4 SN 
 VS05.                90652478:  Virtual Str5 SN 
 VS06.                    6111:  Virtual Str6 SN 
 WBMN.klb                 9.50:  WOB Min 
 WITN.        Grigoriy Sarayev:  Customer Rep 
 WITN.          Rufat Huseynov:  Customer Rep 2 
 WOBA.klb                11.00:  WOB Avg 
 WOBX.klb                15.00:  WOB Max 
 YP  .lhf2               28.00:  Yield Point 
~Curve Information Block
#MNEM.UNIT                 API CODE     Curve Description
#---------               -----------    ---------------------------
 TIME.HHMMSS            00 000 000 000:  GT Time & Date
 GTDEPTH.m              00 000 000 000:  GT Depth
 GTPQH.psia             00 000 000 000:  GT HR Quartz Pressure
 GTTQ.degC              00 000 000 000:  GT Quartz Temperature
 GTTN.NONE              00 000 000 000:  GT Test Number
 GTET.sec               00 000 000 000:  GT Elapsed Test Time
 GTTVD.m                00 000 000 000:  GT True Vertical Depth
#Other Information
#
#WARRANTY: Halliburton will use its best efforts to furnish customers with 
#accurate information and interpretations that are part of, and incident to, the services 
#provided.  However, Halliburton cannot and does not warrant the accuracy 
#or correctness of such information and interpretations.  Under no circumstances should any 
#such information or interpretation be relied upon as the sole basis for any drilling, 
#completion, production, or financial decision or any procedure involving any risk to the 
#safety of any drilling venture, drilling rig or its crew or any other third party.  The 
#Customer has full responsibility for all drilling, completion and production operation.  
#Halliburton makes no representations or warranties, either expressed or 
#implied, including, but not limited to, the implied warranties of merchantability or fitness 
#for a particular purpose, with respect to the services rendered.  In no event will 
#Halliburton be liable for failure to obtain any particular results or for 
#any damages, including, but not limited to, indirect, special or consequential damages, 
#resulting from the use of any information or interpretation provided by Halliburton.
#
~A           TIME           GTDEPTH  GTPQH  GTTQ  GTTN   GTET   GTTVD  
# ...
   07:37:29.682.19-Jul-2021 4415.50 6374.73 69.92 16.00  22.61 2635.75
   07:37:29.882.19-Jul-2021 4415.50 6371.01 69.92 16.00  22.81 2635.75
   07:37:30.082.19-Jul-2021 4415.50 6361.45 69.92 16.00  23.01 2635.75
   07:37:30.282.19-Jul-2021 4415.50 6361.45 69.92 16.00  23.21 2635.75
   07:37:30.482.19-Jul-2021 4415.50 6362.24 69.92 16.00  23.41 2635.75
   07:37:30.682.19-Jul-2021 4415.50 6363.00 69.92 16.00  23.61 2635.75
   07:37:30.882.19-Jul-2021 4415.50 6357.42 69.92 16.00  23.81 2635.75
   07:37:31.082.19-Jul-2021 4415.50 6357.85 69.92 16.00  24.01 2635.75
   07:37:31.282.19-Jul-2021 4415.50 6357.85 69.92 16.00  24.21 2635.75
   07:37:31.482.19-Jul-2021 4415.50 6364.31 69.92 16.00  24.41 2635.75
   07:37:31.682.19-Jul-2021 4415.50 6361.00 69.92 16.00  24.61 2635.75
   07:37:31.882.19-Jul-2021 4415.50 6359.95 69.92 16.00  24.81 2635.75
   07:37:32.083.19-Jul-2021 4415.50 6390.95 69.92 16.00  25.01 2635.75
   07:37:32.283.19-Jul-2021 4415.50 6390.95 69.92 16.00  25.21 2635.75
   07:37:32.483.19-Jul-2021 4415.50 6364.09 69.92 16.00  25.41 2635.75
   07:37:32.683.19-Jul-2021 4415.50 6392.30 69.92 16.00  25.61 2635.75
   07:37:32.883.19-Jul-2021 4415.50 6369.62 69.92 16.00  25.81 2635.75
   07:37:33.083.19-Jul-2021 4415.50 6369.03 69.92 16.00  26.01 2635.75
   07:37:33.283.19-Jul-2021 4415.50 6369.03 69.92 16.00  26.21 2635.75
   07:37:33.483.19-Jul-2021 4415.50 6366.79 69.92 16.00  26.41 2635.75
   07:37:33.683.19-Jul-2021 4415.50 6367.10 69.92 16.00  26.61 2635.75
   07:37:33.883.19-Jul-2021 4415.50 6366.05 69.92 16.00  26.81 2635.75
   07:37:34.083.19-Jul-2021 4415.50 6365.15 69.92 16.00  27.01 2635.75
   07:37:34.283.19-Jul-2021 4415.50 6365.15 69.92 16.00  27.21 2635.75
   07:37:34.483.19-Jul-2021 4415.50 6365.45 69.92 16.00  27.41 2635.75
   07:37:34.683.19-Jul-2021 4415.50 6368.04 69.92 16.00  27.61 2635.75
   07:37:34.884.19-Jul-2021 4415.50 6370.03 69.92 16.00  27.81 2635.75
   07:37:35.084.19-Jul-2021 4415.50 6370.34 69.92 16.00  28.01 2635.75
   07:37:35.284.19-Jul-2021 4415.50 6370.34 69.92 16.00  28.21 2635.75
   07:37:35.484.19-Jul-2021 4415.50 6397.05 69.92 16.00  28.41 2635.75
   07:37:35.684.19-Jul-2021 4415.50 6373.09 69.92 16.00  28.61 2635.75
   07:37:35.884.19-Jul-2021 4415.50 6369.54 69.92 16.00  28.81 2635.75
   07:37:36.084.19-Jul-2021 4415.50 6368.56 69.92 16.00  29.01 2635.75
   07:37:36.284.19-Jul-2021 4415.50 6368.56 69.92 16.00  29.21 2635.75
   07:37:36.484.19-Jul-2021 4415.50 6362.14 69.92 16.00  29.41 2635.75
   07:37:36.684.19-Jul-2021 4415.50 6339.87 69.92 16.00  29.61 2635.75
   07:37:36.884.19-Jul-2021 4415.50 6322.80 69.92 16.00  29.81 2635.75
   07:37:37.084.19-Jul-2021 4415.50 6305.74 69.92 16.00  30.01 2635.75
   07:37:37.284.19-Jul-2021 4415.50 6305.74 69.92 16.00  30.21 2635.75
   07:37:37.485.19-Jul-2021 4415.50 6272.08 69.92 16.00  30.41 2635.75
   07:37:37.685.19-Jul-2021 4415.50 6243.56 69.92 16.00  30.61 2635.75
   07:37:37.885.19-Jul-2021 4415.50 6210.01 69.92 16.00  30.81 2635.75
   07:37:38.085.19-Jul-2021 4415.50 6173.01 69.92 16.00  31.01 2635.75
   07:37:38.285.19-Jul-2021 4415.50 6173.01 69.92 16.00  31.21 2635.75
   07:37:38.485.19-Jul-2021 4415.50 6084.66 69.92 16.00  31.41 2635.75
   07:37:38.685.19-Jul-2021 4415.50 6042.40 69.92 16.00  31.61 2635.75
   07:37:38.885.19-Jul-2021 4415.50 6004.80 69.92 16.00  31.81 2635.75
   07:37:39.085.19-Jul-2021 4415.50 5980.47 69.92 16.00  32.01 2635.75
   07:37:39.285.19-Jul-2021 4415.50 5980.47 69.92 16.00  32.21 2635.75
   07:37:39.485.19-Jul-2021 4415.50 5946.70 69.92 16.00  32.41 2635.75
   07:37:39.685.19-Jul-2021 4415.50 5932.32 69.92 16.00  32.61 2635.75
   07:37:39.885.19-Jul-2021 4415.50 5917.01 69.92 16.00  32.81 2635.75
   07:37:40.085.19-Jul-2021 4415.50 5906.09 69.92 16.00  33.01 2635.75
   07:37:40.286.19-Jul-2021 4415.50 5906.09 69.92 16.00  33.21 2635.75
   07:37:40.486.19-Jul-2021 4415.50 5888.86 69.92 16.00  33.41 2635.75
   07:37:40.686.19-Jul-2021 4415.50 5878.16 69.92 16.00  33.61 2635.75
   07:37:40.886.19-Jul-2021 4415.50 5867.43 69.92 16.00  33.81 2635.75
   07:37:41.086.19-Jul-2021 4415.50 5860.43 69.92 16.00  34.01 2635.75
   07:37:41.286.19-Jul-2021 4415.50 5860.43 69.92 16.00  34.21 2635.75
   07:37:41.486.19-Jul-2021 4415.50 5850.66 69.92 16.00  34.41 2635.75
   07:37:41.686.19-Jul-2021 4415.50 5841.65 69.92 16.00  34.61 2635.75
   07:37:41.886.19-Jul-2021 4415.50 5834.53 69.92 16.00  34.81 2635.75
   07:37:42.086.19-Jul-2021 4415.50 5827.98 69.92 16.00  35.01 2635.75
   07:37:42.286.19-Jul-2021 4415.50 5827.98 69.92 16.00  35.21 2635.75
   07:37:42.486.19-Jul-2021 4415.50 5820.21 69.92 16.00  35.41 2635.75
   07:37:42.686.19-Jul-2021 4415.50 5818.17 69.92 16.00  35.61 2635.75
   07:37:42.887.19-Jul-2021 4415.50 5816.15 69.92 16.00  35.81 2635.75
   07:37:43.087.19-Jul-2021 4415.50 5814.09 69.91 16.00  36.01 2635.75
   07:37:43.287.19-Jul-2021 4415.50 5814.09 69.91 16.00  36.21 2635.75
   07:37:43.487.19-Jul-2021 4415.50 5053.59 69.91 16.00  36.41 2635.75
   07:37:43.687.19-Jul-2021 4415.50 4048.85 69.91 16.00  36.61 2635.75
   07:37:43.887.19-Jul-2021 4415.50 3438.51 69.91 16.00  36.81 2635.75
   07:37:44.087.19-Jul-2021 4415.50 3325.45 69.91 16.00  37.01 2635.75
   07:37:44.287.19-Jul-2021 4415.50 3325.45 69.91 16.00  37.21 2635.75
   07:37:44.487.19-Jul-2021 4415.50 3414.08 69.91 16.00  37.41 2635.75
   07:37:44.687.19-Jul-2021 4415.50 3413.72 69.91 16.00  37.61 2635.75
   07:37:44.887.19-Jul-2021 4415.50 3413.84 69.91 16.00  37.81 2635.75
   07:37:45.087.19-Jul-2021 4415.50 3402.13 69.91 16.00  38.01 2635.75
   07:37:45.287.19-Jul-2021 4415.50 3402.13 69.91 16.00  38.21 2635.75
   07:37:45.487.19-Jul-2021 4415.50 3426.59 69.90 16.00  38.41 2635.75
   07:37:45.688.19-Jul-2021 4415.50 3420.66 69.90 16.00  38.61 2635.75
   07:37:45.888.19-Jul-2021 4415.50 3415.94 69.90 16.00  38.81 2635.75
   07:37:46.088.19-Jul-2021 4415.50 3408.15 69.90 16.00  39.01 2635.75
   07:37:46.288.19-Jul-2021 4415.50 3408.15 69.90 16.00  39.21 2635.75
   07:37:46.488.19-Jul-2021 4415.50 3419.09 69.90 16.00  39.41 2635.75
   07:37:46.688.19-Jul-2021 4415.50 3421.32 69.90 16.00  39.61 2635.75
   07:37:46.888.19-Jul-2021 4415.50 3412.97 69.89 16.00  39.81 2635.75
   07:37:47.088.19-Jul-2021 4415.50 3419.97 69.89 16.00  40.01 2635.75
   07:37:47.288.19-Jul-2021 4415.50 3419.97 69.89 16.00  40.21 2635.75
   07:37:47.488.19-Jul-2021 4415.50 3423.66 69.89 16.00  40.41 2635.75
   07:37:47.688.19-Jul-2021 4415.50 3420.91 69.89 16.00  40.61 2635.75
   07:37:47.888.19-Jul-2021 4415.50 3415.25 69.89 16.00  40.82 2635.75
   07:37:48.088.19-Jul-2021 4415.50 3418.17 69.88 16.00  41.02 2635.75
   07:37:48.288.19-Jul-2021 4415.50 3418.17 69.88 16.00  41.22 2635.75
   07:37:48.489.19-Jul-2021 4415.50 3411.18 69.88 16.00  41.42 2635.75
   07:37:48.689.19-Jul-2021 4415.50 3409.50 69.88 16.00  41.62 2635.75
   07:37:48.889.19-Jul-2021 4415.50 3412.68 69.88 16.00  41.82 2635.75
   07:37:49.089.19-Jul-2021 4415.50 3409.35 69.88 16.00  42.02 2635.75
   07:37:49.289.19-Jul-2021 4415.50 3409.35 69.88 16.00  42.22 2635.75
   07:37:49.489.19-Jul-2021 4415.50 3409.05 69.87 16.00  42.42 2635.75
   07:37:49.689.19-Jul-2021 4415.50 3411.96 69.87 16.00  42.62 2635.75
   07:37:49.889.19-Jul-2021 4415.50 3407.09 69.87 16.00  42.82 2635.75
   07:37:50.089.19-Jul-2021 4415.50 3407.74 69.87 16.00  43.02 2635.75
   07:37:50.289.19-Jul-2021 4415.50 3407.74 69.87 16.00  43.22 2635.75
   07:37:50.489.19-Jul-2021 4415.50 3404.87 69.87 16.00  43.42 2635.75
   07:37:50.689.19-Jul-2021 4415.50 3411.88 69.87 16.00  43.62 2635.75
   07:37:50.889.19-Jul-2021 4415.50 3414.82 69.87 16.00  43.82 2635.75
   07:37:51.090.19-Jul-2021 4415.50 3413.96 69.87 16.00  44.02 2635.75
   07:37:51.290.19-Jul-2021 4415.50 3413.96 69.87 16.00  44.22 2635.75
   07:37:51.490.19-Jul-2021 4415.50 3422.76 69.86 16.00  44.42 2635.75
   07:37:51.690.19-Jul-2021 4415.50 3421.51 69.86 16.00  44.62 2635.75
   07:37:51.890.19-Jul-2021 4415.50 3429.61 69.86 16.00  44.82 2635.75
   07:37:52.090.19-Jul-2021 4415.50 3426.02 69.86 16.00  45.02 2635.75
