~Version Information
 VERS.                  2.0:   CWLS log ASCII Standard -VERSION 2.0
 WRAP.                   NO:   One line per depth step
~Well Information Block
#MNEM.UNIT     VALUE/NAME     DESCRIPTION
#---------     -----------    ---------------------------
 STRT.S             05:46:28 19-Jul-21: START TIME 05:46:28 19-Jul-21
 STOP.S             05:53:09 19-Jul-21: STOP TIME  05:53:09 19-Jul-21
 STEP.S                   0.00: STEP TIME
 NULL.                 -999.25: NULL VALUE
 MDS .        Operator Entered:  MAG DATA SOURCE
 PDAT.          Mean Sea Level:  PERMANENT DATUM
 UNIT.                     N/A:  LOGGING EQUIPMENT ID
 DCON.         Sperry Drilling:  DIRECTNL CONTR
 DOE .                     N/A:  DOE NUMBER
 RIG .              West Azeri:  RIG NAME
 JOBN.        AZ-XX-0906997913:  JOB TICKET NUMB
 WELL.                     C41:  WELL NAME
 MWDS.                    Baku:  MWD SHOP
 SRVC.          Turan Drilling:  CONTRACTOR
 FLD .                     ACG:  FIELD NAME
 CTRY.              Azerbaijan:  COUNTRY NAME
 PROV.                    Baku:  PROVINCE
 STAT.                    Baku:  STATE NAME
 REGN.                   EESSA:  REGION
 BASE.              Azerbaijan:  LOGGING EQUIPMENT BASE LOCATION
 UWI .                     N/A:  UNIQUE WELL IDENTIFIER
 API .                     N/A:  API NUMBER
 COMP.     BP Exploration (Caspian Sea) Ltd.:  COMPANY
 WTYP.                Deviated:  WELL TYPE
 SON .        AZ-XX-0906997913:  JOB NUMBER
 FTOP.          Formation Tops:  FORM TOPS DESC
 ILTD.               Lithology:  INTERP LTH DESC
 SVYD.                  Survey:  SURVEY DESC
 DMOD.             Drill Model:  DRILL MOD DESC
 HPTY.       Minimum Curvature:  HOLE POS TYPE
 NREF.                    Grid:  NORTH REFERENCE
 SPUD.               16-May-21:  SPUD DATE
 DATE.      21.11.28 17-May-21:  END TIME
 STIM.      21.11.28 17-May-21:  START TIME
 DMF .             Drill Floor:  DRILL MEAS FROM
 DFST.                        :  DIST FSL TEXT
 DFWT.                        :  DIST FWL TEXT
 CNTY.                        :  COUNTY
 LOC .                        :  LOCATION
 LMF .             Drill Floor:  LOG MEASURED FROM
 AGAP.m                  43.42:  AIR GAP
 VSNS.m                  -2.16:  VERT SEC N/S
 VSEW.m                  -6.24:  VERT SEC E/W
 APD .m                  43.42:  DEPTH ABOVE PD
 WDMS.m                 118.27:  WD ELEV
 EGL .m                   0.00:  GROUND ELEVATION
 EPD .m                   0.00:  ELEVATION
 AZTC.deg                 6.29:  AZM TOTAL CORR
 GRDC.deg                 0.18:  GRID CORRECTION
 MDEC.deg                 6.47:  MAGNETIC DECL
 MDIP.deg                59.54:  MAGNETIC DIP
 MFLD.nT              50337.00:  MAGNETIC FIELD
 GVFD.g                   1.00:  GRAVITY FIELD
 VSDR.deg               226.99:  VERT SEC DIRECT
 TDD .m                   0.00:  TOTAL DEPTH (DRILLER)
 SDEP.m                 448.00:  START DEPTH
 DFSL.m                   0.00:  DISTANCE FSL
 DFWL.m                   0.00:  DISTANCE FWL
 UTMY.m             4435799.96:  UTM Y
 UTMX.m              526265.35:  UTM X
 WHEW.m                  -6.24:  WELL HEAD E/W
 WHNS.m                  -2.16:  WELL HEAD N/S
 LONG.deg                51.31:  LONGITUDE
 LATI.deg                40.06:  LATITUDE
 TVDS.m                  43.42:  TVDSS CORRECTN
 EKB .m                  43.42:  KB ELEVATION
 EDF .m                  43.42:  DF ELEVATION
 TDL .m                 288.00:  TOTAL DEPTH (LOGGER)
 MAGU.                 1851863:  MAGUTM CHECKSUM
 VSC .                       0:  VS TO CLOSURE
~Parameter Information Block
#MNEM.UNIT       Value        Description
#---------     -----------    ---------------------------
 AV  .mps                 0.40:  Ann Velocity 
 AVMX.mps                 0.63:  Max Ann Veloc 
 AZIF.deg               158.76:  Azm, Final 
 BHAT.        Rotary Steerable:  BHA Type 
 BROT.°/30m               0.68:  Build Rotating 
 BS  .in                  8.50:  Bit Size 
 BSZ .in                  8.50:  Bit Size 
 BTPL.psig              712.00:  Bit Press Loss 
 CABU.                      No:  Customer Abuse 
 COMM.                     l%v:  Run Comments 1 
 TCS .hr                 90.66:  Time Ciculation Ended 
 CV  .mps                 2.02:  Crit Velocity 
 CVMX.mps                 2.14:  Max Crit Veloc 
 DD1 .            Aziz Aliyevu:  Direct Drillr 1 
 DD2 .             Samir Abbas:  Direct Drillr 2 
 DD3 .           Teymur Aliyev:  Direct Drillr 3 
 DDSV.                 iCruise:  DD Service 
 DEFF.%                  85.10:  % Det Eff 
 DLRX.°/30m               1.05:  Dogleg Rot Max 
 DLSO.°/30m               1.01:  Dogleg Oriented 
 DLSX.°/30m               1.05:  Dogleg Str Max 
 DRET.      07.45.00 18-Jul-21:  Drill End Time 
 DRST.      15.00.00 16-Jul-21:  Drill Start Tim 
 DTIM.hr                 23.46:  Time Drilling 
 EDEP.m                4603.00:  End Depth 
 ENG1.       Seymur Iskandarov:  Engineer 1 
 ENG2.         Yevgeniy Ulikov:  Engineer 2 
 ENG3.         Bahruz Mehdiyev:  Engineer 3 
 ENG4.         Elchin Mammadov:  Engineer 4 
 ETIM.      14.00.00 23-Jul-21:  End Time 
 FLOI.gpm               500.00:  Flow In 
 FLON.gpm               450.00:  Flow In Min 
 FLOS.cptm                0.00:  Fluid Loss 
 FLOX.gpm               560.00:  Flow In Max 
 DFT .        Mineral Oil Base:  Mud Type 
 FTRO.       Formation Presure:  FTWD Run Obj 
 HFLO.                      No:  High Flow 
 HPRE.                      No:  High Pressure 
 HTEM.                      No:  High Temp 
 HYDO.m                   1.80:  Hydro Offset 
 IFIN.deg                40.22:  Inc, Final 
 IMAX.deg                40.54:  Inc Max 
 IMIN.deg                39.44:  Inc Min 
 IMND.m                4361.17:  Inc Min Depth 
 IMXD.m                4417.92:  Inc Max Depth 
 JARR.                      No:  Jarring 
 LETM.      07.45.00 18-Jul-21:  Log End Time 
 LOST.hr                    16:  Lost Rig Time 
 LSTM.      15.00.00 16-Jul-21:  Log Start Time 
 MDCL.ppm             36500.00:  Mud Chlorides 
 MDES.     Inversion Oil/Synthetic:  Mud Desc 
 DFD .sg                  1.42:  Mud Density 
 MDMN.sg                  1.42:  Dens Mud Min 
 MDMX.sg                  1.43:  Dens Mud Max 
 MOIL.                      56:  Run Mud Oil % 
 MOWR.                   71:29:  Run Mud OWR 
 MSND.                     0.5:  Run Mud Sand % 
 MSOL.                      21:  Run Mud Solids% 
 DFV .spqt               78.00:  Mud Viscosity 
 MWOD.in                  6.75:  MWD Tool OD 
 MWSI.                     Yes:  Serv Intrp, MWD 
 OTIM.hr                200.73:  Time Operating 
 PCON.           Look Like New:  Pad Condition 
 PMAX.psia            11069.93:  Press Op, Max 
 PV  .cP                 32.00:  Mud PV 
 RUN .                     700:  Run Number 
 ROPA.m/hr               10.00:  ROP Avg 
 ROPN.m/hr                9.00:  ROP Min 
 ROPX.m/hr               16.00:  ROP Max 
 RPMA.rpm               116.00:  RPM Surface Avg 
 RPMN.rpm                80.00:  RPM Surface Min 
 RPMX.rpm               120.00:  RPM Surface Max 
 RRUN.                    L605:  Rig Run Number 
 RTIM.hr                 45.00:  Time Reaming 
 SAZI.deg               159.86:  Azm, Start 
 SDEP.m                4315.00:  Start Depth 
 SIDD.                      No:  Serv Intrp, DD 
 SINC.deg                39.86:  Inc, Start 
 SPPA.psig             3300.00:  SPP Avg 
 SPPN.psig             3040.00:  SPP Min 
 SPPX.psig             3645.00:  SPP Max 
 STIM.      01.00.00 15-Jul-21:  Start Time 
 SVCS.                 DD, MWD:  Services 
 SVER.                    9.20:  Sperry Version 
 TDAT.m                 288.00:  Tot Depth Attmp 
 TDDF.                      No:  Trip for DD 
 TDLG.m                 288.00:  Tot Depth Loggd 
 TFF .                      No:  Trip for Fail 
 TQAA.f-kp               19.00:  Torque Abs Avg 
 TQAN.f-kp               18.00:  Torque Abs Min 
 TQAX.f-kp               21.00:  Torque Abs Max 
 TRRT.°/30m               0.45:  Turn Rotating 
 MRT .                    HCIM:  Maximum Recorded Temperature 
 TTMX.degC               88.24:  Max Tool Temp 
 VS01.                90649157:  Virtual Str1 SN 
 VS02.                90652483:  Virtual Str2 SN 
 VS03.                11671987:  Virtual Str3 SN 
 VS04.                90643411:  Virtual Str4 SN 
 VS05.                90652478:  Virtual Str5 SN 
 VS06.                    6111:  Virtual Str6 SN 
 WBMN.klb                 9.50:  WOB Min 
 WITN.        Grigoriy Sarayev:  Customer Rep 
 WITN.          Rufat Huseynov:  Customer Rep 2 
 WOBA.klb                11.00:  WOB Avg 
 WOBX.klb                15.00:  WOB Max 
 YP  .lhf2               28.00:  Yield Point 
~Curve Information Block
#MNEM.UNIT                 API CODE     Curve Description
#---------               -----------    ---------------------------
 TIME.HHMMSS            00 000 000 000:  GT Time & Date
 GTDEPTH.m              00 000 000 000:  GT Depth
 GTPQH.psia             00 000 000 000:  GT HR Quartz Pressure
 GTTQ.degC              00 000 000 000:  GT Quartz Temperature
 GTTN.NONE              00 000 000 000:  GT Test Number
 GTET.sec               00 000 000 000:  GT Elapsed Test Time
 GTTVD.m                00 000 000 000:  GT True Vertical Depth
#Other Information
#
#WARRANTY: Halliburton will use its best efforts to furnish customers with 
#accurate information and interpretations that are part of, and incident to, the services 
#provided.  However, Halliburton cannot and does not warrant the accuracy 
#or correctness of such information and interpretations.  Under no circumstances should any 
#such information or interpretation be relied upon as the sole basis for any drilling, 
#completion, production, or financial decision or any procedure involving any risk to the 
#safety of any drilling venture, drilling rig or its crew or any other third party.  The 
#Customer has full responsibility for all drilling, completion and production operation.  
#Halliburton makes no representations or warranties, either expressed or 
#implied, including, but not limited to, the implied warranties of merchantability or fitness 
#for a particular purpose, with respect to the services rendered.  In no event will 
#Halliburton be liable for failure to obtain any particular results or for 
#any damages, including, but not limited to, indirect, special or consequential damages, 
#resulting from the use of any information or interpretation provided by Halliburton.
#
~A           TIME           GTDEPTH  GTPQH  GTTQ  GTTN   GTET   GTTVD  
# ...
   05:49:52.104.19-Jul-2021 4380.50 4183.17 69.35 13.00 203.47 2608.98
   05:49:52.304.19-Jul-2021 4380.50 4183.53 69.35 13.00 203.67 2608.98
   05:49:52.504.19-Jul-2021 4380.50 4183.94 69.35 13.00 203.88 2608.98
   05:49:52.704.19-Jul-2021 4380.50 4184.34 69.35 13.00 204.08 2608.98
   05:49:52.904.19-Jul-2021 4380.50 4184.34 69.35 13.00 204.28 2608.98
   05:49:53.104.19-Jul-2021 4380.50 4184.80 69.35 13.00 204.48 2608.98
   05:49:53.304.19-Jul-2021 4380.50 4185.55 69.35 13.00 204.68 2608.98
   05:49:53.504.19-Jul-2021 4380.50 4184.98 69.35 13.00 204.88 2608.98
   05:49:53.704.19-Jul-2021 4380.50 4186.18 69.35 13.00 205.08 2608.98
   05:49:53.905.19-Jul-2021 4380.50 4186.18 69.35 13.00 205.28 2608.98
   05:49:54.105.19-Jul-2021 4380.50 4186.95 69.35 13.00 205.48 2608.98
   05:49:54.305.19-Jul-2021 4380.50 4185.78 69.35 13.00 205.68 2608.98
   05:49:54.505.19-Jul-2021 4380.50 4187.81 69.35 13.00 205.88 2608.98
   05:49:54.705.19-Jul-2021 4380.50 4187.62 69.35 13.00 206.08 2608.98
   05:49:54.905.19-Jul-2021 4380.50 4187.62 69.35 13.00 206.28 2608.98
   05:49:55.105.19-Jul-2021 4380.50 4186.96 69.35 13.00 206.48 2608.98
   05:49:55.305.19-Jul-2021 4380.50 4188.26 69.35 13.00 206.68 2608.98
   05:49:55.505.19-Jul-2021 4380.50 4188.58 69.35 13.00 206.88 2608.98
   05:49:55.705.19-Jul-2021 4380.50 4189.32 69.35 13.00 207.08 2608.98
   05:49:55.905.19-Jul-2021 4380.50 4189.32 69.35 13.00 207.28 2608.98
   05:49:56.105.19-Jul-2021 4380.50 4188.55 69.35 13.00 207.48 2608.98
   05:49:56.305.19-Jul-2021 4380.50 4189.71 69.35 13.00 207.68 2608.98
   05:49:56.506.19-Jul-2021 4380.50 4190.15 69.35 13.00 207.88 2608.98
   05:49:56.706.19-Jul-2021 4380.50 4190.92 69.35 13.00 208.08 2608.98
   05:49:56.906.19-Jul-2021 4380.50 4190.92 69.35 13.00 208.28 2608.98
   05:49:57.106.19-Jul-2021 4380.50 4191.14 69.35 13.00 208.48 2608.98
   05:49:57.306.19-Jul-2021 4380.50 4191.36 69.35 13.00 208.68 2608.98
   05:49:57.506.19-Jul-2021 4380.50 4191.72 69.35 13.00 208.88 2608.98
   05:49:57.706.19-Jul-2021 4380.50 4191.99 69.35 13.00 209.08 2608.98
   05:49:57.906.19-Jul-2021 4380.50 4191.99 69.35 13.00 209.28 2608.98
   05:49:58.106.19-Jul-2021 4380.50 4192.51 69.35 13.00 209.48 2608.98
   05:49:58.306.19-Jul-2021 4380.50 4192.81 69.35 13.00 209.68 2608.98
   05:49:58.506.19-Jul-2021 4380.50 4193.03 69.35 13.00 209.88 2608.98
   05:49:58.706.19-Jul-2021 4380.50 4193.15 69.35 13.00 210.08 2608.98
   05:49:58.906.19-Jul-2021 4380.50 4193.15 69.35 13.00 210.28 2608.98
   05:49:59.106.19-Jul-2021 4380.50 4193.93 69.35 13.00 210.48 2608.98
   05:49:59.307.19-Jul-2021 4380.50 4194.20 69.35 13.00 210.68 2608.98
   05:49:59.507.19-Jul-2021 4380.50 4194.82 69.35 13.00 210.88 2608.98
   05:49:59.707.19-Jul-2021 4380.50 4194.76 69.35 13.00 211.08 2608.98
   05:49:59.907.19-Jul-2021 4380.50 4194.76 69.35 13.00 211.28 2608.98
   05:50:00.107.19-Jul-2021 4380.50 4195.28 69.35 13.00 211.48 2608.98
   05:50:00.307.19-Jul-2021 4380.50 4195.49 69.35 13.00 211.68 2608.98
   05:50:00.507.19-Jul-2021 4380.50 4195.66 69.35 13.00 211.88 2608.98
   05:50:00.707.19-Jul-2021 4380.50 4195.98 69.35 13.00 212.08 2608.98
   05:50:00.907.19-Jul-2021 4380.50 4195.98 69.35 13.00 212.28 2608.98
   05:50:01.107.19-Jul-2021 4380.50 4196.37 69.35 13.00 212.48 2608.98
   05:50:01.307.19-Jul-2021 4380.50 4196.49 69.35 13.00 212.68 2608.98
   05:50:01.507.19-Jul-2021 4380.50 4195.87 69.35 13.00 212.88 2608.98
   05:50:01.707.19-Jul-2021 4380.50 4197.10 69.35 13.00 213.08 2608.98
   05:50:01.908.19-Jul-2021 4380.50 4197.10 69.35 13.00 213.28 2608.98
   05:50:02.108.19-Jul-2021 4380.50 4197.58 69.35 13.00 213.48 2608.98
   05:50:02.308.19-Jul-2021 4380.50 4197.74 69.35 13.00 213.68 2608.98
   05:50:02.508.19-Jul-2021 4380.50 4196.77 69.35 13.00 213.88 2608.98
   05:50:02.708.19-Jul-2021 4380.50 4198.62 69.35 13.00 214.08 2608.98
   05:50:02.908.19-Jul-2021 4380.50 4198.62 69.35 13.00 214.28 2608.98
   05:50:03.108.19-Jul-2021 4380.50 4198.62 69.35 13.00 214.48 2608.98
   05:50:03.308.19-Jul-2021 4380.50 4198.73 69.35 13.00 214.68 2608.98
   05:50:03.508.19-Jul-2021 4380.50 4199.00 69.35 13.00 214.88 2608.98
   05:50:03.708.19-Jul-2021 4380.50 4197.97 69.35 13.00 215.08 2608.98
   05:50:03.908.19-Jul-2021 4380.50 4197.97 69.35 13.00 215.28 2608.98
   05:50:04.108.19-Jul-2021 4380.50 4198.87 69.35 13.00 215.48 2608.98
   05:50:04.308.19-Jul-2021 4380.50 4199.44 69.35 13.00 215.68 2608.98
   05:50:04.508.19-Jul-2021 4380.50 4199.57 69.35 13.00 215.88 2608.98
   05:50:04.709.19-Jul-2021 4380.50 4200.18 69.35 13.00 216.08 2608.98
   05:50:04.909.19-Jul-2021 4380.50 4200.18 69.35 13.00 216.28 2608.98
   05:50:05.109.19-Jul-2021 4380.50 4200.35 69.35 13.00 216.48 2608.98
   05:50:05.309.19-Jul-2021 4380.50 4200.50 69.35 13.00 216.68 2608.98
   05:50:05.509.19-Jul-2021 4380.50 4200.66 69.35 13.00 216.88 2608.98
   05:50:05.709.19-Jul-2021 4380.50 4200.81 69.35 13.00 217.08 2608.98
   05:50:05.909.19-Jul-2021 4380.50 4200.81 69.35 13.00 217.28 2608.98
   05:50:06.109.19-Jul-2021 4380.50 4201.11 69.35 13.00 217.48 2608.98
   05:50:06.309.19-Jul-2021 4380.50 4201.25 69.35 13.00 217.68 2608.98
   05:50:06.509.19-Jul-2021 4380.50 4201.35 69.35 13.00 217.88 2608.98
   05:50:06.709.19-Jul-2021 4380.50 4201.56 69.35 13.00 218.08 2608.98
   05:50:06.909.19-Jul-2021 4380.50 4201.56 69.35 13.00 218.28 2608.98
   05:50:07.109.19-Jul-2021 4380.50 4201.57 69.35 13.00 218.48 2608.98
   05:50:07.309.19-Jul-2021 4380.50 4201.99 69.35 13.00 218.68 2608.98
   05:50:07.510.19-Jul-2021 4380.50 4202.36 69.35 13.00 218.88 2608.98
   05:50:07.710.19-Jul-2021 4380.50 4202.30 69.35 13.00 219.08 2608.98
   05:50:07.910.19-Jul-2021 4380.50 4202.30 69.35 13.00 219.28 2608.98
   05:50:08.110.19-Jul-2021 4380.50 4202.62 69.35 13.00 219.48 2608.98
   05:50:08.310.19-Jul-2021 4380.50 4202.74 69.35 13.00 219.68 2608.98
   05:50:08.510.19-Jul-2021 4380.50 4202.87 69.35 13.00 219.88 2608.98
   05:50:08.710.19-Jul-2021 4380.50 4203.03 69.35 13.00 220.08 2608.98
   05:50:08.910.19-Jul-2021 4380.50 4203.03 69.35 13.00 220.28 2608.98
   05:50:09.110.19-Jul-2021 4380.50 4203.29 69.35 13.00 220.48 2608.98
   05:50:09.310.19-Jul-2021 4380.50 4203.45 69.35 13.00 220.68 2608.98
   05:50:09.510.19-Jul-2021 4380.50 4202.49 69.35 13.00 220.88 2608.98
   05:50:09.710.19-Jul-2021 4380.50 4203.54 69.35 13.00 221.08 2608.98
   05:50:09.910.19-Jul-2021 4380.50 4203.54 69.35 13.00 221.28 2608.98
   05:50:10.111.19-Jul-2021 4380.50 4202.90 69.35 13.00 221.48 2608.98
   05:50:10.311.19-Jul-2021 4380.50 4204.32 69.35 13.00 221.68 2608.98
   05:50:10.511.19-Jul-2021 4380.50 4204.25 69.35 13.00 221.88 2608.98
   05:50:10.711.19-Jul-2021 4380.50 4204.53 69.35 13.00 222.08 2608.98
   05:50:10.911.19-Jul-2021 4380.50 4204.53 69.35 13.00 222.28 2608.98
   05:50:11.111.19-Jul-2021 4380.50 4204.54 69.35 13.00 222.48 2608.98
   05:50:11.311.19-Jul-2021 4380.50 4204.63 69.35 13.00 222.68 2608.98
   05:50:11.511.19-Jul-2021 4380.50 4205.22 69.35 13.00 222.88 2608.98
   05:50:11.711.19-Jul-2021 4380.50 4203.91 69.35 13.00 223.08 2608.98
   05:50:11.911.19-Jul-2021 4380.50 4203.91 69.35 13.00 223.28 2608.98
   05:50:12.111.19-Jul-2021 4380.50 4205.19 69.35 13.00 223.48 2608.98
   05:50:12.311.19-Jul-2021 4380.50 4205.80 69.35 13.00 223.68 2608.98
   05:50:12.511.19-Jul-2021 4380.50 4204.78 69.35 13.00 223.88 2608.98
   05:50:12.711.19-Jul-2021 4380.50 4205.11 69.35 13.00 224.08 2608.98
   05:50:12.912.19-Jul-2021 4380.50 4205.11 69.35 13.00 224.28 2608.98
   05:50:13.112.19-Jul-2021 4380.50 4206.01 69.35 13.00 224.48 2608.98
   05:50:13.312.19-Jul-2021 4380.50 4206.04 69.35 13.00 224.68 2608.98
   05:50:13.512.19-Jul-2021 4380.50 4206.00 69.35 13.00 224.88 2608.98
   05:50:13.712.19-Jul-2021 4380.50 4206.11 69.35 13.00 225.08 2608.98
   05:50:13.912.19-Jul-2021 4380.50 4206.11 69.35 13.00 225.28 2608.98
   05:50:14.112.19-Jul-2021 4380.50 4206.31 69.35 13.00 225.48 2608.98
   05:50:14.312.19-Jul-2021 4380.50 4206.37 69.35 13.00 225.68 2608.98
   05:50:14.512.19-Jul-2021 4380.50 4206.47 69.35 13.00 225.88 2608.98
