~Version Information
 VERS.                  2.0:   CWLS log ASCII Standard -VERSION 2.0
 WRAP.                   NO:   One line per depth step
~Well Information Block
#MNEM.UNIT     VALUE/NAME     DESCRIPTION
#---------     -----------    ---------------------------
 STRT.S             08:29:33 19-Jul-21: START TIME 08:29:33 19-Jul-21
 STOP.S             08:36:27 19-Jul-21: STOP TIME  08:36:27 19-Jul-21
 STEP.S                   0.00: STEP TIME
 NULL.                 -999.25: NULL VALUE
 MDS .        Operator Entered:  MAG DATA SOURCE
 PDAT.          Mean Sea Level:  PERMANENT DATUM
 UNIT.                     N/A:  LOGGING EQUIPMENT ID
 DCON.         Sperry Drilling:  DIRECTNL CONTR
 DOE .                     N/A:  DOE NUMBER
 RIG .              West Azeri:  RIG NAME
 JOBN.        AZ-XX-0906997913:  JOB TICKET NUMB
 WELL.                     C41:  WELL NAME
 MWDS.                    Baku:  MWD SHOP
 SRVC.          Turan Drilling:  CONTRACTOR
 FLD .                     ACG:  FIELD NAME
 CTRY.              Azerbaijan:  COUNTRY NAME
 PROV.                    Baku:  PROVINCE
 STAT.                    Baku:  STATE NAME
 REGN.                   EESSA:  REGION
 BASE.              Azerbaijan:  LOGGING EQUIPMENT BASE LOCATION
 UWI .                     N/A:  UNIQUE WELL IDENTIFIER
 API .                     N/A:  API NUMBER
 COMP.     BP Exploration (Caspian Sea) Ltd.:  COMPANY
 WTYP.                Deviated:  WELL TYPE
 SON .        AZ-XX-0906997913:  JOB NUMBER
 FTOP.          Formation Tops:  FORM TOPS DESC
 ILTD.               Lithology:  INTERP LTH DESC
 SVYD.                  Survey:  SURVEY DESC
 DMOD.             Drill Model:  DRILL MOD DESC
 HPTY.       Minimum Curvature:  HOLE POS TYPE
 NREF.                    Grid:  NORTH REFERENCE
 SPUD.               16-May-21:  SPUD DATE
 DATE.      21.11.28 17-May-21:  END TIME
 STIM.      21.11.28 17-May-21:  START TIME
 DMF .             Drill Floor:  DRILL MEAS FROM
 DFST.                        :  DIST FSL TEXT
 DFWT.                        :  DIST FWL TEXT
 CNTY.                        :  COUNTY
 LOC .                        :  LOCATION
 LMF .             Drill Floor:  LOG MEASURED FROM
 AGAP.m                  43.42:  AIR GAP
 VSNS.m                  -2.16:  VERT SEC N/S
 VSEW.m                  -6.24:  VERT SEC E/W
 APD .m                  43.42:  DEPTH ABOVE PD
 WDMS.m                 118.27:  WD ELEV
 EGL .m                   0.00:  GROUND ELEVATION
 EPD .m                   0.00:  ELEVATION
 AZTC.deg                 6.29:  AZM TOTAL CORR
 GRDC.deg                 0.18:  GRID CORRECTION
 MDEC.deg                 6.47:  MAGNETIC DECL
 MDIP.deg                59.54:  MAGNETIC DIP
 MFLD.nT              50337.00:  MAGNETIC FIELD
 GVFD.g                   1.00:  GRAVITY FIELD
 VSDR.deg               226.99:  VERT SEC DIRECT
 TDD .m                   0.00:  TOTAL DEPTH (DRILLER)
 SDEP.m                 448.00:  START DEPTH
 DFSL.m                   0.00:  DISTANCE FSL
 DFWL.m                   0.00:  DISTANCE FWL
 UTMY.m             4435799.96:  UTM Y
 UTMX.m              526265.35:  UTM X
 WHEW.m                  -6.24:  WELL HEAD E/W
 WHNS.m                  -2.16:  WELL HEAD N/S
 LONG.deg                51.31:  LONGITUDE
 LATI.deg                40.06:  LATITUDE
 TVDS.m                  43.42:  TVDSS CORRECTN
 EKB .m                  43.42:  KB ELEVATION
 EDF .m                  43.42:  DF ELEVATION
 TDL .m                 288.00:  TOTAL DEPTH (LOGGER)
 MAGU.                 1851863:  MAGUTM CHECKSUM
 VSC .                       0:  VS TO CLOSURE
~Parameter Information Block
#MNEM.UNIT       Value        Description
#---------     -----------    ---------------------------
 AV  .mps                 0.40:  Ann Velocity 
 AVMX.mps                 0.63:  Max Ann Veloc 
 AZIF.deg               158.76:  Azm, Final 
 BHAT.        Rotary Steerable:  BHA Type 
 BROT.°/30m               0.68:  Build Rotating 
 BS  .in                  8.50:  Bit Size 
 BSZ .in                  8.50:  Bit Size 
 BTPL.psig              712.00:  Bit Press Loss 
 CABU.                      No:  Customer Abuse 
 COMM.                     ìk:  Run Comments 1 
 TCS .hr                 90.66:  Time Ciculation Ended 
 CV  .mps                 2.02:  Crit Velocity 
 CVMX.mps                 2.14:  Max Crit Veloc 
 DD1 .            Aziz Aliyevu:  Direct Drillr 1 
 DD2 .             Samir Abbas:  Direct Drillr 2 
 DD3 .           Teymur Aliyev:  Direct Drillr 3 
 DDSV.                 iCruise:  DD Service 
 DEFF.%                  85.10:  % Det Eff 
 DLRX.°/30m               1.05:  Dogleg Rot Max 
 DLSO.°/30m               1.01:  Dogleg Oriented 
 DLSX.°/30m               1.05:  Dogleg Str Max 
 DRET.      07.45.00 18-Jul-21:  Drill End Time 
 DRST.      15.00.00 16-Jul-21:  Drill Start Tim 
 DTIM.hr                 23.46:  Time Drilling 
 EDEP.m                4603.00:  End Depth 
 ENG1.       Seymur Iskandarov:  Engineer 1 
 ENG2.         Yevgeniy Ulikov:  Engineer 2 
 ENG3.         Bahruz Mehdiyev:  Engineer 3 
 ENG4.         Elchin Mammadov:  Engineer 4 
 ETIM.      14.00.00 23-Jul-21:  End Time 
 FLOI.gpm               500.00:  Flow In 
 FLON.gpm               450.00:  Flow In Min 
 FLOS.cptm                0.00:  Fluid Loss 
 FLOX.gpm               560.00:  Flow In Max 
 DFT .        Mineral Oil Base:  Mud Type 
 FTRO.       Formation Presure:  FTWD Run Obj 
 HFLO.                      No:  High Flow 
 HPRE.                      No:  High Pressure 
 HTEM.                      No:  High Temp 
 HYDO.m                   1.80:  Hydro Offset 
 IFIN.deg                40.22:  Inc, Final 
 IMAX.deg                40.54:  Inc Max 
 IMIN.deg                39.44:  Inc Min 
 IMND.m                4361.17:  Inc Min Depth 
 IMXD.m                4417.92:  Inc Max Depth 
 JARR.                      No:  Jarring 
 LETM.      07.45.00 18-Jul-21:  Log End Time 
 LOST.hr                    16:  Lost Rig Time 
 LSTM.      15.00.00 16-Jul-21:  Log Start Time 
 MDCL.ppm             36500.00:  Mud Chlorides 
 MDES.     Inversion Oil/Synthetic:  Mud Desc 
 DFD .sg                  1.42:  Mud Density 
 MDMN.sg                  1.42:  Dens Mud Min 
 MDMX.sg                  1.43:  Dens Mud Max 
 MOIL.                      56:  Run Mud Oil % 
 MOWR.                   71:29:  Run Mud OWR 
 MSND.                     0.5:  Run Mud Sand % 
 MSOL.                      21:  Run Mud Solids% 
 DFV .spqt               78.00:  Mud Viscosity 
 MWOD.in                  6.75:  MWD Tool OD 
 MWSI.                     Yes:  Serv Intrp, MWD 
 OTIM.hr                200.73:  Time Operating 
 PCON.           Look Like New:  Pad Condition 
 PMAX.psia            11069.93:  Press Op, Max 
 PV  .cP                 32.00:  Mud PV 
 RUN .                     700:  Run Number 
 ROPA.m/hr               10.00:  ROP Avg 
 ROPN.m/hr                9.00:  ROP Min 
 ROPX.m/hr               16.00:  ROP Max 
 RPMA.rpm               116.00:  RPM Surface Avg 
 RPMN.rpm                80.00:  RPM Surface Min 
 RPMX.rpm               120.00:  RPM Surface Max 
 RRUN.                    L605:  Rig Run Number 
 RTIM.hr                 45.00:  Time Reaming 
 SAZI.deg               159.86:  Azm, Start 
 SDEP.m                4315.00:  Start Depth 
 SIDD.                      No:  Serv Intrp, DD 
 SINC.deg                39.86:  Inc, Start 
 SPPA.psig             3300.00:  SPP Avg 
 SPPN.psig             3040.00:  SPP Min 
 SPPX.psig             3645.00:  SPP Max 
 STIM.      01.00.00 15-Jul-21:  Start Time 
 SVCS.                 DD, MWD:  Services 
 SVER.                    9.20:  Sperry Version 
 TDAT.m                 288.00:  Tot Depth Attmp 
 TDDF.                      No:  Trip for DD 
 TDLG.m                 288.00:  Tot Depth Loggd 
 TFF .                      No:  Trip for Fail 
 TQAA.f-kp               19.00:  Torque Abs Avg 
 TQAN.f-kp               18.00:  Torque Abs Min 
 TQAX.f-kp               21.00:  Torque Abs Max 
 TRRT.°/30m               0.45:  Turn Rotating 
 MRT .                    HCIM:  Maximum Recorded Temperature 
 TTMX.degC               88.24:  Max Tool Temp 
 VS01.                90649157:  Virtual Str1 SN 
 VS02.                90652483:  Virtual Str2 SN 
 VS03.                11671987:  Virtual Str3 SN 
 VS04.                90643411:  Virtual Str4 SN 
 VS05.                90652478:  Virtual Str5 SN 
 VS06.                    6111:  Virtual Str6 SN 
 WBMN.klb                 9.50:  WOB Min 
 WITN.        Grigoriy Sarayev:  Customer Rep 
 WITN.          Rufat Huseynov:  Customer Rep 2 
 WOBA.klb                11.00:  WOB Avg 
 WOBX.klb                15.00:  WOB Max 
 YP  .lhf2               28.00:  Yield Point 
~Curve Information Block
#MNEM.UNIT                 API CODE     Curve Description
#---------               -----------    ---------------------------
 TIME.HHMMSS            00 000 000 000:  GT Time & Date
 GTDEPTH.m              00 000 000 000:  GT Depth
 GTPQH.psia             00 000 000 000:  GT HR Quartz Pressure
 GTTQ.degC              00 000 000 000:  GT Quartz Temperature
 GTTN.NONE              00 000 000 000:  GT Test Number
 GTET.sec               00 000 000 000:  GT Elapsed Test Time
 GTTVD.m                00 000 000 000:  GT True Vertical Depth
#Other Information
#
#WARRANTY: Halliburton will use its best efforts to furnish customers with 
#accurate information and interpretations that are part of, and incident to, the services 
#provided.  However, Halliburton cannot and does not warrant the accuracy 
#or correctness of such information and interpretations.  Under no circumstances should any 
#such information or interpretation be relied upon as the sole basis for any drilling, 
#completion, production, or financial decision or any procedure involving any risk to the 
#safety of any drilling venture, drilling rig or its crew or any other third party.  The 
#Customer has full responsibility for all drilling, completion and production operation.  
#Halliburton makes no representations or warranties, either expressed or 
#implied, including, but not limited to, the implied warranties of merchantability or fitness 
#for a particular purpose, with respect to the services rendered.  In no event will 
#Halliburton be liable for failure to obtain any particular results or for 
#any damages, including, but not limited to, indirect, special or consequential damages, 
#resulting from the use of any information or interpretation provided by Halliburton.
#
~A           TIME           GTDEPTH  GTPQH  GTTQ  GTTN   GTET   GTTVD  
# ...
   08:34:04.532.19-Jul-2021 4431.00 3570.99 70.28 18.00 271.30 2647.54
   08:34:04.732.19-Jul-2021 4431.00 3571.03 70.28 18.00 271.50 2647.54
   08:34:04.932.19-Jul-2021 4431.00 3570.90 70.28 18.00 271.70 2647.54
   08:34:05.132.19-Jul-2021 4431.00 3571.00 70.28 18.00 271.90 2647.54
   08:34:05.332.19-Jul-2021 4431.00 3570.95 70.28 18.00 272.10 2647.54
   08:34:05.532.19-Jul-2021 4431.00 3570.95 70.28 18.00 272.30 2647.54
   08:34:05.732.19-Jul-2021 4431.00 3571.01 70.28 18.00 272.50 2647.54
   08:34:05.932.19-Jul-2021 4431.00 3570.98 70.28 18.00 272.70 2647.54
   08:34:06.132.19-Jul-2021 4431.00 3570.96 70.28 18.00 272.90 2647.54
   08:34:06.332.19-Jul-2021 4431.00 3570.95 70.28 18.00 273.10 2647.54
   08:34:06.532.19-Jul-2021 4431.00 3570.95 70.28 18.00 273.30 2647.54
   08:34:06.732.19-Jul-2021 4431.00 3570.96 70.28 18.00 273.50 2647.54
   08:34:06.933.19-Jul-2021 4431.00 3570.99 70.28 18.00 273.70 2647.54
   08:34:07.133.19-Jul-2021 4431.00 3570.96 70.28 18.00 273.90 2647.54
   08:34:07.333.19-Jul-2021 4431.00 3570.96 70.28 18.00 274.10 2647.54
   08:34:07.533.19-Jul-2021 4431.00 3570.96 70.28 18.00 274.30 2647.54
   08:34:07.733.19-Jul-2021 4431.00 3570.97 70.28 18.00 274.50 2647.54
   08:34:07.933.19-Jul-2021 4431.00 3570.97 70.28 18.00 274.70 2647.54
   08:34:08.133.19-Jul-2021 4431.00 3570.99 70.28 18.00 274.90 2647.54
   08:34:08.333.19-Jul-2021 4431.00 3570.98 70.28 18.00 275.10 2647.54
   08:34:08.533.19-Jul-2021 4431.00 3570.98 70.28 18.00 275.30 2647.54
   08:34:08.733.19-Jul-2021 4431.00 3570.98 70.28 18.00 275.50 2647.54
   08:34:08.933.19-Jul-2021 4431.00 3570.97 70.28 18.00 275.70 2647.54
   08:34:09.133.19-Jul-2021 4431.00 3571.07 70.28 18.00 275.90 2647.54
   08:34:09.333.19-Jul-2021 4431.00 3570.89 70.28 18.00 276.10 2647.54
   08:34:09.534.19-Jul-2021 4431.00 3570.89 70.28 18.00 276.30 2647.54
   08:34:09.734.19-Jul-2021 4431.00 3570.99 70.28 18.00 276.50 2647.54
   08:34:09.934.19-Jul-2021 4431.00 3570.95 70.28 18.00 276.70 2647.54
   08:34:10.134.19-Jul-2021 4431.00 3570.98 70.28 18.00 276.90 2647.54
   08:34:10.334.19-Jul-2021 4431.00 3570.98 70.28 18.00 277.10 2647.54
   08:34:10.534.19-Jul-2021 4431.00 3570.98 70.28 18.00 277.30 2647.54
   08:34:10.734.19-Jul-2021 4431.00 3570.98 70.28 18.00 277.50 2647.54
   08:34:10.934.19-Jul-2021 4431.00 3570.98 70.28 18.00 277.70 2647.54
   08:34:11.134.19-Jul-2021 4431.00 3570.97 70.28 18.00 277.90 2647.54
   08:34:11.334.19-Jul-2021 4431.00 3570.98 70.28 18.00 278.10 2647.54
   08:34:11.534.19-Jul-2021 4431.00 3570.98 70.28 18.00 278.30 2647.54
   08:34:11.734.19-Jul-2021 4431.00 3570.97 70.28 18.00 278.50 2647.54
   08:34:11.934.19-Jul-2021 4431.00 3571.00 70.28 18.00 278.70 2647.54
   08:34:12.134.19-Jul-2021 4431.00 3570.93 70.28 18.00 278.90 2647.54
   08:34:12.335.19-Jul-2021 4431.00 3571.03 70.28 18.00 279.10 2647.54
   08:34:12.535.19-Jul-2021 4431.00 3571.03 70.28 18.00 279.30 2647.54
   08:34:12.735.19-Jul-2021 4431.00 3570.95 70.28 18.00 279.50 2647.54
   08:34:12.935.19-Jul-2021 4431.00 3570.98 70.28 18.00 279.70 2647.54
   08:34:13.135.19-Jul-2021 4431.00 3570.97 70.28 18.00 279.90 2647.54
   08:34:13.335.19-Jul-2021 4431.00 3570.95 70.28 18.00 280.10 2647.54
   08:34:13.535.19-Jul-2021 4431.00 3570.95 70.28 18.00 280.30 2647.54
   08:34:13.735.19-Jul-2021 4431.00 3570.97 70.28 18.00 280.50 2647.54
   08:34:13.935.19-Jul-2021 4431.00 3570.98 70.28 18.00 280.70 2647.54
   08:34:14.135.19-Jul-2021 4431.00 3570.98 70.28 18.00 280.90 2647.54
   08:34:14.335.19-Jul-2021 4431.00 3570.96 70.28 18.00 281.10 2647.54
   08:34:14.535.19-Jul-2021 4431.00 3570.96 70.28 18.00 281.30 2647.54
   08:34:14.735.19-Jul-2021 4431.00 3570.97 70.28 18.00 281.50 2647.54
   08:34:14.935.19-Jul-2021 4431.00 3571.07 70.28 18.00 281.70 2647.54
   08:34:15.136.19-Jul-2021 4431.00 3570.89 70.28 18.00 281.90 2647.54
   08:34:15.336.19-Jul-2021 4431.00 3570.96 70.28 18.00 282.10 2647.54
   08:34:15.536.19-Jul-2021 4431.00 3570.96 70.28 18.00 282.30 2647.54
   08:34:15.736.19-Jul-2021 4431.00 3570.96 70.28 18.00 282.50 2647.54
   08:34:15.936.19-Jul-2021 4431.00 3570.98 70.28 18.00 282.70 2647.54
   08:34:16.136.19-Jul-2021 4431.00 3570.99 70.28 18.00 282.90 2647.54
   08:34:16.336.19-Jul-2021 4431.00 3570.97 70.28 18.00 283.10 2647.54
   08:34:16.536.19-Jul-2021 4431.00 3570.97 70.28 18.00 283.30 2647.54
   08:34:16.736.19-Jul-2021 4431.00 3570.98 70.28 18.00 283.50 2647.54
   08:34:16.936.19-Jul-2021 4431.00 3570.98 70.28 18.00 283.70 2647.54
   08:34:17.136.19-Jul-2021 4431.00 3570.99 70.28 18.00 283.90 2647.54
   08:34:17.336.19-Jul-2021 4431.00 3570.98 70.28 18.00 284.10 2647.54
   08:34:17.536.19-Jul-2021 4431.00 3570.98 70.28 18.00 284.30 2647.54
   08:34:17.737.19-Jul-2021 4431.00 3571.06 70.28 18.00 284.50 2647.54
   08:34:17.937.19-Jul-2021 4431.00 3570.91 70.28 18.00 284.70 2647.54
   08:34:18.137.19-Jul-2021 4431.00 3570.98 70.28 18.00 284.90 2647.54
   08:34:18.337.19-Jul-2021 4431.00 3570.98 70.28 18.00 285.10 2647.54
   08:34:18.537.19-Jul-2021 4431.00 3570.98 70.28 18.00 285.31 2647.54
   08:34:18.737.19-Jul-2021 4431.00 3570.98 70.28 18.00 285.51 2647.54
   08:34:18.937.19-Jul-2021 4431.00 3570.99 70.28 18.00 285.71 2647.54
   08:34:19.137.19-Jul-2021 4431.00 3570.97 70.28 18.00 285.91 2647.54
   08:34:19.337.19-Jul-2021 4431.00 3570.98 70.28 18.00 286.11 2647.54
   08:34:19.537.19-Jul-2021 4431.00 3570.98 70.28 18.00 286.31 2647.54
   08:34:19.737.19-Jul-2021 4431.00 3570.98 70.28 18.00 286.51 2647.54
   08:34:19.937.19-Jul-2021 4431.00 3570.99 70.28 18.00 286.71 2647.54
   08:34:20.137.19-Jul-2021 4431.00 3570.98 70.28 18.00 286.91 2647.54
   08:34:20.337.19-Jul-2021 4431.00 3571.08 70.28 18.00 287.11 2647.54
   08:34:20.538.19-Jul-2021 4431.00 3571.08 70.28 18.00 287.31 2647.54
   08:34:20.738.19-Jul-2021 4431.00 3570.98 70.28 18.00 287.51 2647.54
   08:34:20.938.19-Jul-2021 4431.00 3570.97 70.28 18.00 287.71 2647.54
   08:34:21.138.19-Jul-2021 4431.00 3570.98 70.28 18.00 287.91 2647.54
   08:34:21.338.19-Jul-2021 4431.00 3570.97 70.28 18.00 288.11 2647.54
   08:34:21.538.19-Jul-2021 4431.00 3570.97 70.28 18.00 288.31 2647.54
   08:34:21.738.19-Jul-2021 4431.00 3570.97 70.28 18.00 288.51 2647.54
   08:34:21.938.19-Jul-2021 4431.00 3571.05 70.28 18.00 288.71 2647.54
   08:34:22.138.19-Jul-2021 4431.00 3570.90 70.28 18.00 288.91 2647.54
   08:34:22.338.19-Jul-2021 4431.00 3570.98 70.28 18.00 289.11 2647.54
   08:34:22.538.19-Jul-2021 4431.00 3570.98 70.28 18.00 289.31 2647.54
   08:34:22.738.19-Jul-2021 4431.00 3570.97 70.28 18.00 289.51 2647.54
   08:34:22.938.19-Jul-2021 4431.00 3571.07 70.28 18.00 289.71 2647.54
   08:34:23.139.19-Jul-2021 4431.00 3570.90 70.28 18.00 289.91 2647.54
   08:34:23.339.19-Jul-2021 4431.00 3570.96 70.28 18.00 290.11 2647.54
   08:34:23.539.19-Jul-2021 4431.00 3570.96 70.28 18.00 290.31 2647.54
   08:34:23.739.19-Jul-2021 4431.00 3570.90 70.28 18.00 290.51 2647.54
   08:34:23.939.19-Jul-2021 4431.00 3570.98 70.28 18.00 290.71 2647.54
   08:34:24.139.19-Jul-2021 4431.00 3570.98 70.28 18.00 290.91 2647.54
   08:34:24.339.19-Jul-2021 4431.00 3570.96 70.28 18.00 291.11 2647.54
   08:34:24.539.19-Jul-2021 4431.00 3570.96 70.28 18.00 291.31 2647.54
   08:34:24.739.19-Jul-2021 4431.00 3570.98 70.28 18.00 291.51 2647.54
   08:34:24.939.19-Jul-2021 4431.00 3570.97 70.28 18.00 291.71 2647.54
   08:34:25.139.19-Jul-2021 4431.00 3570.98 70.29 18.00 291.91 2647.54
   08:34:25.339.19-Jul-2021 4431.00 3570.98 70.29 18.00 292.11 2647.54
   08:34:25.539.19-Jul-2021 4431.00 3570.98 70.29 18.00 292.31 2647.54
   08:34:25.739.19-Jul-2021 4431.00 3570.98 70.28 18.00 292.51 2647.54
   08:34:25.940.19-Jul-2021 4431.00 3570.98 70.29 18.00 292.71 2647.54
   08:34:26.140.19-Jul-2021 4431.00 3570.98 70.29 18.00 292.91 2647.54
   08:34:26.340.19-Jul-2021 4431.00 3571.05 70.29 18.00 293.11 2647.54
   08:34:26.540.19-Jul-2021 4431.00 3571.05 70.29 18.00 293.31 2647.54
   08:34:26.740.19-Jul-2021 4431.00 3571.00 70.29 18.00 293.51 2647.54
   08:34:26.940.19-Jul-2021 4431.00 3570.97 70.29 18.00 293.71 2647.54
