~Version Information
 VERS.                  2.0:   CWLS log ASCII Standard -VERSION 2.0
 WRAP.                   NO:   One line per depth step
~Well Information Block
#MNEM.UNIT     VALUE/NAME     DESCRIPTION
#---------     -----------    ---------------------------
 STRT.S             17:59:38 18-Jul-21: START TIME 17:59:38 18-Jul-21
 STOP.S             18:06:07 18-Jul-21: STOP TIME  18:06:07 18-Jul-21
 STEP.S                   0.00: STEP TIME
 NULL.                 -999.25: NULL VALUE
 MDS .        Operator Entered:  MAG DATA SOURCE
 PDAT.          Mean Sea Level:  PERMANENT DATUM
 UNIT.                     N/A:  LOGGING EQUIPMENT ID
 DCON.         Sperry Drilling:  DIRECTNL CONTR
 DOE .                     N/A:  DOE NUMBER
 RIG .              West Azeri:  RIG NAME
 JOBN.        AZ-XX-0906997913:  JOB TICKET NUMB
 WELL.                     C41:  WELL NAME
 MWDS.                    Baku:  MWD SHOP
 SRVC.          Turan Drilling:  CONTRACTOR
 FLD .                     ACG:  FIELD NAME
 CTRY.              Azerbaijan:  COUNTRY NAME
 PROV.                    Baku:  PROVINCE
 STAT.                    Baku:  STATE NAME
 REGN.                   EESSA:  REGION
 BASE.              Azerbaijan:  LOGGING EQUIPMENT BASE LOCATION
 UWI .                     N/A:  UNIQUE WELL IDENTIFIER
 API .                     N/A:  API NUMBER
 COMP.     BP Exploration (Caspian Sea) Ltd.:  COMPANY
 WTYP.                Deviated:  WELL TYPE
 SON .        AZ-XX-0906997913:  JOB NUMBER
 FTOP.          Formation Tops:  FORM TOPS DESC
 ILTD.               Lithology:  INTERP LTH DESC
 SVYD.                  Survey:  SURVEY DESC
 DMOD.             Drill Model:  DRILL MOD DESC
 HPTY.       Minimum Curvature:  HOLE POS TYPE
 NREF.                    Grid:  NORTH REFERENCE
 SPUD.               16-May-21:  SPUD DATE
 DATE.      21.11.28 17-May-21:  END TIME
 STIM.      21.11.28 17-May-21:  START TIME
 DMF .             Drill Floor:  DRILL MEAS FROM
 DFST.                        :  DIST FSL TEXT
 DFWT.                        :  DIST FWL TEXT
 CNTY.                        :  COUNTY
 LOC .                        :  LOCATION
 LMF .             Drill Floor:  LOG MEASURED FROM
 AGAP.m                  43.42:  AIR GAP
 VSNS.m                  -2.16:  VERT SEC N/S
 VSEW.m                  -6.24:  VERT SEC E/W
 APD .m                  43.42:  DEPTH ABOVE PD
 WDMS.m                 118.27:  WD ELEV
 EGL .m                   0.00:  GROUND ELEVATION
 EPD .m                   0.00:  ELEVATION
 AZTC.deg                 6.29:  AZM TOTAL CORR
 GRDC.deg                 0.18:  GRID CORRECTION
 MDEC.deg                 6.47:  MAGNETIC DECL
 MDIP.deg                59.54:  MAGNETIC DIP
 MFLD.nT              50337.00:  MAGNETIC FIELD
 GVFD.g                   1.00:  GRAVITY FIELD
 VSDR.deg               226.99:  VERT SEC DIRECT
 TDD .m                   0.00:  TOTAL DEPTH (DRILLER)
 SDEP.m                 448.00:  START DEPTH
 DFSL.m                   0.00:  DISTANCE FSL
 DFWL.m                   0.00:  DISTANCE FWL
 UTMY.m             4435799.96:  UTM Y
 UTMX.m              526265.35:  UTM X
 WHEW.m                  -6.24:  WELL HEAD E/W
 WHNS.m                  -2.16:  WELL HEAD N/S
 LONG.deg                51.31:  LONGITUDE
 LATI.deg                40.06:  LATITUDE
 TVDS.m                  43.42:  TVDSS CORRECTN
 EKB .m                  43.42:  KB ELEVATION
 EDF .m                  43.42:  DF ELEVATION
 TDL .m                 288.00:  TOTAL DEPTH (LOGGER)
 MAGU.                 1851863:  MAGUTM CHECKSUM
 VSC .                       0:  VS TO CLOSURE
~Parameter Information Block
#MNEM.UNIT       Value        Description
#---------     -----------    ---------------------------
 AV  .mps                 0.40:  Ann Velocity 
 AVMX.mps                 0.63:  Max Ann Veloc 
 AZIF.deg               158.76:  Azm, Final 
 BHAT.        Rotary Steerable:  BHA Type 
 BROT.°/30m               0.68:  Build Rotating 
 BS  .in                  8.50:  Bit Size 
 BSZ .in                  8.50:  Bit Size 
 BTPL.psig              712.00:  Bit Press Loss 
 CABU.                      No:  Customer Abuse 
 COMM.                     Ä"ƒ:  Run Comments 1 
 TCS .hr                 90.66:  Time Ciculation Ended 
 CV  .mps                 2.02:  Crit Velocity 
 CVMX.mps                 2.14:  Max Crit Veloc 
 DD1 .            Aziz Aliyevu:  Direct Drillr 1 
 DD2 .             Samir Abbas:  Direct Drillr 2 
 DD3 .           Teymur Aliyev:  Direct Drillr 3 
 DDSV.                 iCruise:  DD Service 
 DEFF.%                  85.10:  % Det Eff 
 DLRX.°/30m               1.05:  Dogleg Rot Max 
 DLSO.°/30m               1.01:  Dogleg Oriented 
 DLSX.°/30m               1.05:  Dogleg Str Max 
 DRET.      07.45.00 18-Jul-21:  Drill End Time 
 DRST.      15.00.00 16-Jul-21:  Drill Start Tim 
 DTIM.hr                 23.46:  Time Drilling 
 EDEP.m                4603.00:  End Depth 
 ENG1.       Seymur Iskandarov:  Engineer 1 
 ENG2.         Yevgeniy Ulikov:  Engineer 2 
 ENG3.         Bahruz Mehdiyev:  Engineer 3 
 ENG4.         Elchin Mammadov:  Engineer 4 
 ETIM.      14.00.00 23-Jul-21:  End Time 
 FLOI.gpm               500.00:  Flow In 
 FLON.gpm               450.00:  Flow In Min 
 FLOS.cptm                0.00:  Fluid Loss 
 FLOX.gpm               560.00:  Flow In Max 
 DFT .        Mineral Oil Base:  Mud Type 
 FTRO.       Formation Presure:  FTWD Run Obj 
 HFLO.                      No:  High Flow 
 HPRE.                      No:  High Pressure 
 HTEM.                      No:  High Temp 
 HYDO.m                   1.80:  Hydro Offset 
 IFIN.deg                40.22:  Inc, Final 
 IMAX.deg                40.54:  Inc Max 
 IMIN.deg                39.44:  Inc Min 
 IMND.m                4361.17:  Inc Min Depth 
 IMXD.m                4417.92:  Inc Max Depth 
 JARR.                      No:  Jarring 
 LETM.      07.45.00 18-Jul-21:  Log End Time 
 LOST.hr                    16:  Lost Rig Time 
 LSTM.      15.00.00 16-Jul-21:  Log Start Time 
 MDCL.ppm             36500.00:  Mud Chlorides 
 MDES.     Inversion Oil/Synthetic:  Mud Desc 
 DFD .sg                  1.42:  Mud Density 
 MDMN.sg                  1.42:  Dens Mud Min 
 MDMX.sg                  1.43:  Dens Mud Max 
 MOIL.                      56:  Run Mud Oil % 
 MOWR.                   71:29:  Run Mud OWR 
 MSND.                     0.5:  Run Mud Sand % 
 MSOL.                      21:  Run Mud Solids% 
 DFV .spqt               78.00:  Mud Viscosity 
 MWOD.in                  6.75:  MWD Tool OD 
 MWSI.                     Yes:  Serv Intrp, MWD 
 OTIM.hr                200.73:  Time Operating 
 PCON.           Look Like New:  Pad Condition 
 PMAX.psia            11069.93:  Press Op, Max 
 PV  .cP                 32.00:  Mud PV 
 RUN .                     700:  Run Number 
 ROPA.m/hr               10.00:  ROP Avg 
 ROPN.m/hr                9.00:  ROP Min 
 ROPX.m/hr               16.00:  ROP Max 
 RPMA.rpm               116.00:  RPM Surface Avg 
 RPMN.rpm                80.00:  RPM Surface Min 
 RPMX.rpm               120.00:  RPM Surface Max 
 RRUN.                    L605:  Rig Run Number 
 RTIM.hr                 45.00:  Time Reaming 
 SAZI.deg               159.86:  Azm, Start 
 SDEP.m                4315.00:  Start Depth 
 SIDD.                      No:  Serv Intrp, DD 
 SINC.deg                39.86:  Inc, Start 
 SPPA.psig             3300.00:  SPP Avg 
 SPPN.psig             3040.00:  SPP Min 
 SPPX.psig             3645.00:  SPP Max 
 STIM.      01.00.00 15-Jul-21:  Start Time 
 SVCS.                 DD, MWD:  Services 
 SVER.                    9.20:  Sperry Version 
 TDAT.m                 288.00:  Tot Depth Attmp 
 TDDF.                      No:  Trip for DD 
 TDLG.m                 288.00:  Tot Depth Loggd 
 TFF .                      No:  Trip for Fail 
 TQAA.f-kp               19.00:  Torque Abs Avg 
 TQAN.f-kp               18.00:  Torque Abs Min 
 TQAX.f-kp               21.00:  Torque Abs Max 
 TRRT.°/30m               0.45:  Turn Rotating 
 MRT .                    HCIM:  Maximum Recorded Temperature 
 TTMX.degC               88.24:  Max Tool Temp 
 VS01.                90649157:  Virtual Str1 SN 
 VS02.                90652483:  Virtual Str2 SN 
 VS03.                11671987:  Virtual Str3 SN 
 VS04.                90643411:  Virtual Str4 SN 
 VS05.                90652478:  Virtual Str5 SN 
 VS06.                    6111:  Virtual Str6 SN 
 WBMN.klb                 9.50:  WOB Min 
 WITN.        Grigoriy Sarayev:  Customer Rep 
 WITN.          Rufat Huseynov:  Customer Rep 2 
 WOBA.klb                11.00:  WOB Avg 
 WOBX.klb                15.00:  WOB Max 
 YP  .lhf2               28.00:  Yield Point 
~Curve Information Block
#MNEM.UNIT                 API CODE     Curve Description
#---------               -----------    ---------------------------
 TIME.HHMMSS            00 000 000 000:  GT Time & Date
 GTDEPTH.m              00 000 000 000:  GT Depth
 GTPQH.psia             00 000 000 000:  GT HR Quartz Pressure
 GTTQ.degC              00 000 000 000:  GT Quartz Temperature
 GTTN.NONE              00 000 000 000:  GT Test Number
 GTET.sec               00 000 000 000:  GT Elapsed Test Time
 GTTVD.m                00 000 000 000:  GT True Vertical Depth
#Other Information
#
#WARRANTY: Halliburton will use its best efforts to furnish customers with 
#accurate information and interpretations that are part of, and incident to, the services 
#provided.  However, Halliburton cannot and does not warrant the accuracy 
#or correctness of such information and interpretations.  Under no circumstances should any 
#such information or interpretation be relied upon as the sole basis for any drilling, 
#completion, production, or financial decision or any procedure involving any risk to the 
#safety of any drilling venture, drilling rig or its crew or any other third party.  The 
#Customer has full responsibility for all drilling, completion and production operation.  
#Halliburton makes no representations or warranties, either expressed or 
#implied, including, but not limited to, the implied warranties of merchantability or fitness 
#for a particular purpose, with respect to the services rendered.  In no event will 
#Halliburton be liable for failure to obtain any particular results or for 
#any damages, including, but not limited to, indirect, special or consequential damages, 
#resulting from the use of any information or interpretation provided by Halliburton.
#
~A           TIME           GTDEPTH  GTPQH  GTTQ  GTTN  GTET   GTTVD  
# ...
   18:03:51.106.18-Jul-2021 4487.50 5795.92 73.21 7.00 253.09 2690.71
   18:03:51.306.18-Jul-2021 4487.50 5795.92 73.21 7.00 253.29 2690.71
   18:03:51.506.18-Jul-2021 4487.50 5796.08 73.21 7.00 253.49 2690.71
   18:03:51.706.18-Jul-2021 4487.50 5796.50 73.21 7.00 253.69 2690.71
   18:03:51.906.18-Jul-2021 4487.50 5796.30 73.21 7.00 253.89 2690.71
   18:03:52.107.18-Jul-2021 4487.50 5796.26 73.21 7.00 254.09 2690.71
   18:03:52.307.18-Jul-2021 4487.50 5796.26 73.21 7.00 254.29 2690.71
   18:03:52.507.18-Jul-2021 4487.50 5796.38 73.21 7.00 254.49 2690.71
   18:03:52.707.18-Jul-2021 4487.50 5796.37 73.21 7.00 254.69 2690.71
   18:03:52.907.18-Jul-2021 4487.50 5796.43 73.21 7.00 254.89 2690.71
   18:03:53.107.18-Jul-2021 4487.50 5796.52 73.21 7.00 255.09 2690.71
   18:03:53.307.18-Jul-2021 4487.50 5796.52 73.21 7.00 255.29 2690.71
   18:03:53.507.18-Jul-2021 4487.50 5796.52 73.21 7.00 255.49 2690.71
   18:03:53.707.18-Jul-2021 4487.50 5796.35 73.21 7.00 255.69 2690.71
   18:03:53.907.18-Jul-2021 4487.50 5794.75 73.21 7.00 255.89 2690.71
   18:03:54.107.18-Jul-2021 4487.50 5794.51 73.21 7.00 256.09 2690.71
   18:03:54.307.18-Jul-2021 4487.50 5794.51 73.21 7.00 256.29 2690.71
   18:03:54.507.18-Jul-2021 4487.50 5794.98 73.21 7.00 256.49 2690.71
   18:03:54.707.18-Jul-2021 4487.50 5794.60 73.21 7.00 256.69 2690.71
   18:03:54.908.18-Jul-2021 4487.50 5794.63 73.21 7.00 256.89 2690.71
   18:03:55.108.18-Jul-2021 4487.50 5794.66 73.21 7.00 257.09 2690.71
   18:03:55.308.18-Jul-2021 4487.50 5794.66 73.21 7.00 257.29 2690.71
   18:03:55.508.18-Jul-2021 4487.50 5794.73 73.21 7.00 257.49 2690.71
   18:03:55.708.18-Jul-2021 4487.50 5794.79 73.21 7.00 257.69 2690.71
   18:03:55.908.18-Jul-2021 4487.50 5794.85 73.21 7.00 257.89 2690.71
   18:03:56.108.18-Jul-2021 4487.50 5794.89 73.21 7.00 258.10 2690.71
   18:03:56.308.18-Jul-2021 4487.50 5794.89 73.21 7.00 258.30 2690.71
   18:03:56.508.18-Jul-2021 4487.50 5793.08 73.21 7.00 258.50 2690.71
   18:03:56.708.18-Jul-2021 4487.50 5792.94 73.21 7.00 258.70 2690.71
   18:03:56.908.18-Jul-2021 4487.50 5792.86 73.21 7.00 258.90 2690.71
   18:03:57.108.18-Jul-2021 4487.50 5790.66 73.21 7.00 259.10 2690.71
   18:03:57.308.18-Jul-2021 4487.50 5790.66 73.21 7.00 259.30 2690.71
   18:03:57.509.18-Jul-2021 4487.50 5793.14 73.21 7.00 259.50 2690.71
   18:03:57.709.18-Jul-2021 4487.50 5793.31 73.21 7.00 259.70 2690.71
   18:03:57.909.18-Jul-2021 4487.50 5791.38 73.21 7.00 259.90 2690.71
   18:03:58.109.18-Jul-2021 4487.50 5792.15 73.21 7.00 260.10 2690.71
   18:03:58.309.18-Jul-2021 4487.50 5792.15 73.21 7.00 260.30 2690.71
   18:03:58.509.18-Jul-2021 4487.50 5792.60 73.21 7.00 260.50 2690.71
   18:03:58.709.18-Jul-2021 4487.50 5792.44 73.21 7.00 260.70 2690.71
   18:03:58.909.18-Jul-2021 4487.50 5792.25 73.21 7.00 260.90 2690.71
   18:03:59.109.18-Jul-2021 4487.50 5790.70 73.21 7.00 261.10 2690.71
   18:03:59.309.18-Jul-2021 4487.50 5790.70 73.21 7.00 261.30 2690.71
   18:03:59.509.18-Jul-2021 4487.50 5790.97 73.21 7.00 261.50 2690.71
   18:03:59.709.18-Jul-2021 4487.50 5791.78 73.21 7.00 261.70 2690.71
   18:03:59.909.18-Jul-2021 4487.50 5792.09 73.21 7.00 261.90 2690.71
   18:04:00.109.18-Jul-2021 4487.50 5792.42 73.21 7.00 262.10 2690.71
   18:04:00.310.18-Jul-2021 4487.50 5792.42 73.21 7.00 262.30 2690.71
   18:04:00.510.18-Jul-2021 4487.50 5792.14 73.21 7.00 262.50 2690.71
   18:04:00.710.18-Jul-2021 4487.50 5792.07 73.21 7.00 262.70 2690.71
   18:04:00.910.18-Jul-2021 4487.50 5792.19 73.21 7.00 262.90 2690.71
   18:04:01.110.18-Jul-2021 4487.50 5792.19 73.21 7.00 263.10 2690.71
   18:04:01.310.18-Jul-2021 4487.50 5792.19 73.21 7.00 263.30 2690.71
   18:04:01.510.18-Jul-2021 4487.50 5792.28 73.21 7.00 263.50 2690.71
   18:04:01.710.18-Jul-2021 4487.50 5792.27 73.21 7.00 263.70 2690.71
   18:04:01.910.18-Jul-2021 4487.50 5792.40 73.21 7.00 263.90 2690.71
   18:04:02.110.18-Jul-2021 4487.50 5792.53 73.21 7.00 264.10 2690.71
   18:04:02.310.18-Jul-2021 4487.50 5792.53 73.21 7.00 264.30 2690.71
   18:04:02.510.18-Jul-2021 4487.50 5791.26 73.21 7.00 264.50 2690.71
   18:04:02.710.18-Jul-2021 4487.50 5792.50 73.21 7.00 264.70 2690.71
   18:04:02.911.18-Jul-2021 4487.50 5792.82 73.21 7.00 264.90 2690.71
   18:04:03.111.18-Jul-2021 4487.50 5792.59 73.21 7.00 265.10 2690.71
   18:04:03.311.18-Jul-2021 4487.50 5792.59 73.21 7.00 265.30 2690.71
   18:04:03.511.18-Jul-2021 4487.50 5792.52 73.21 7.00 265.50 2690.71
   18:04:03.711.18-Jul-2021 4487.50 5792.56 73.21 7.00 265.70 2690.71
   18:04:03.911.18-Jul-2021 4487.50 5792.51 73.21 7.00 265.90 2690.71
   18:04:04.111.18-Jul-2021 4487.50 5792.53 73.21 7.00 266.10 2690.71
   18:04:04.311.18-Jul-2021 4487.50 5792.53 73.21 7.00 266.30 2690.71
   18:04:04.511.18-Jul-2021 4487.50 5792.62 73.21 7.00 266.50 2690.71
   18:04:04.711.18-Jul-2021 4487.50 5792.65 73.21 7.00 266.70 2690.71
   18:04:04.911.18-Jul-2021 4487.50 5792.67 73.21 7.00 266.90 2690.71
   18:04:05.111.18-Jul-2021 4487.50 5791.35 73.21 7.00 267.10 2690.71
   18:04:05.311.18-Jul-2021 4487.50 5791.35 73.21 7.00 267.30 2690.71
   18:04:05.511.18-Jul-2021 4487.50 5792.53 73.21 7.00 267.50 2690.71
   18:04:05.712.18-Jul-2021 4487.50 5791.43 73.21 7.00 267.70 2690.71
   18:04:05.912.18-Jul-2021 4487.50 5792.92 73.21 7.00 267.90 2690.71
   18:04:06.112.18-Jul-2021 4487.50 5792.84 73.21 7.00 268.10 2690.71
   18:04:06.312.18-Jul-2021 4487.50 5792.84 73.21 7.00 268.30 2690.71
   18:04:06.512.18-Jul-2021 4487.50 5792.64 73.21 7.00 268.50 2690.71
   18:04:06.712.18-Jul-2021 4487.50 5791.41 73.21 7.00 268.70 2690.71
   18:04:06.912.18-Jul-2021 4487.50 5792.49 73.21 7.00 268.90 2690.71
   18:04:07.112.18-Jul-2021 4487.50 5791.63 73.21 7.00 269.10 2690.71
   18:04:07.312.18-Jul-2021 4487.50 5791.63 73.21 7.00 269.30 2690.71
   18:04:07.512.18-Jul-2021 4487.50 5792.83 73.21 7.00 269.50 2690.71
   18:04:07.712.18-Jul-2021 4487.50 5793.31 73.21 7.00 269.70 2690.71
   18:04:07.912.18-Jul-2021 4487.50 5792.95 73.21 7.00 269.90 2690.71
   18:04:08.112.18-Jul-2021 4487.50 5791.41 73.21 7.00 270.10 2690.71
   18:04:08.313.18-Jul-2021 4487.50 5791.41 73.21 7.00 270.30 2690.71
   18:04:08.513.18-Jul-2021 4487.50 5792.47 73.21 7.00 270.50 2690.71
   18:04:08.713.18-Jul-2021 4487.50 5792.92 73.21 7.00 270.70 2690.71
   18:04:08.913.18-Jul-2021 4487.50 5792.63 73.21 7.00 270.90 2690.71
   18:04:09.113.18-Jul-2021 4487.50 5792.64 73.21 7.00 271.10 2690.71
   18:04:09.313.18-Jul-2021 4487.50 5792.64 73.21 7.00 271.30 2690.71
   18:04:09.513.18-Jul-2021 4487.50 5792.66 73.21 7.00 271.50 2690.71
   18:04:09.713.18-Jul-2021 4487.50 5792.71 73.21 7.00 271.70 2690.71
   18:04:09.913.18-Jul-2021 4487.50 5792.68 73.21 7.00 271.90 2690.71
   18:04:10.113.18-Jul-2021 4487.50 5792.70 73.21 7.00 272.10 2690.71
   18:04:10.313.18-Jul-2021 4487.50 5792.70 73.21 7.00 272.30 2690.71
   18:04:10.513.18-Jul-2021 4487.50 5792.82 73.21 7.00 272.50 2690.71
   18:04:10.713.18-Jul-2021 4487.50 5792.74 73.21 7.00 272.70 2690.71
   18:04:10.913.18-Jul-2021 4487.50 5791.29 73.21 7.00 272.90 2690.71
   18:04:11.114.18-Jul-2021 4487.50 5792.09 73.21 7.00 273.10 2690.71
   18:04:11.314.18-Jul-2021 4487.50 5792.09 73.21 7.00 273.30 2690.71
   18:04:11.514.18-Jul-2021 4487.50 5792.79 73.21 7.00 273.50 2690.71
   18:04:11.714.18-Jul-2021 4487.50 5792.43 73.21 7.00 273.70 2690.71
   18:04:11.914.18-Jul-2021 4487.50 5792.44 73.21 7.00 273.90 2690.71
   18:04:12.114.18-Jul-2021 4487.50 5792.52 73.21 7.00 274.10 2690.71
   18:04:12.314.18-Jul-2021 4487.50 5792.52 73.21 7.00 274.30 2690.71
   18:04:12.514.18-Jul-2021 4487.50 5792.52 73.21 7.00 274.50 2690.71
   18:04:12.714.18-Jul-2021 4487.50 5792.58 73.21 7.00 274.70 2690.71
   18:04:12.914.18-Jul-2021 4487.50 5792.66 73.21 7.00 274.90 2690.71
   18:04:13.114.18-Jul-2021 4487.50 5792.76 73.21 7.00 275.10 2690.71
   18:04:13.314.18-Jul-2021 4487.50 5792.76 73.21 7.00 275.30 2690.71
   18:04:13.514.18-Jul-2021 4487.50 5791.25 73.21 7.00 275.50 2690.71
   18:04:13.714.18-Jul-2021 4487.50 5792.42 73.21 7.00 275.70 2690.71
   18:04:13.915.18-Jul-2021 4487.50 5793.03 73.21 7.00 275.90 2690.71
