~Version Information
 VERS.                  2.0:   CWLS log ASCII Standard -VERSION 2.0
 WRAP.                   NO:   One line per depth step
~Well Information Block
#MNEM.UNIT     VALUE/NAME     DESCRIPTION
#---------     -----------    ---------------------------
 STRT.S             04:43:18 19-Jul-21: START TIME 04:43:18 19-Jul-21
 STOP.S             04:49:54 19-Jul-21: STOP TIME  04:49:54 19-Jul-21
 STEP.S                   0.00: STEP TIME
 NULL.                 -999.25: NULL VALUE
 MDS .        Operator Entered:  MAG DATA SOURCE
 PDAT.          Mean Sea Level:  PERMANENT DATUM
 UNIT.                     N/A:  LOGGING EQUIPMENT ID
 DCON.         Sperry Drilling:  DIRECTNL CONTR
 DOE .                     N/A:  DOE NUMBER
 RIG .              West Azeri:  RIG NAME
 JOBN.        AZ-XX-0906997913:  JOB TICKET NUMB
 WELL.                     C41:  WELL NAME
 MWDS.                    Baku:  MWD SHOP
 SRVC.          Turan Drilling:  CONTRACTOR
 FLD .                     ACG:  FIELD NAME
 CTRY.              Azerbaijan:  COUNTRY NAME
 PROV.                    Baku:  PROVINCE
 STAT.                    Baku:  STATE NAME
 REGN.                   EESSA:  REGION
 BASE.              Azerbaijan:  LOGGING EQUIPMENT BASE LOCATION
 UWI .                     N/A:  UNIQUE WELL IDENTIFIER
 API .                     N/A:  API NUMBER
 COMP.     BP Exploration (Caspian Sea) Ltd.:  COMPANY
 WTYP.                Deviated:  WELL TYPE
 SON .        AZ-XX-0906997913:  JOB NUMBER
 FTOP.          Formation Tops:  FORM TOPS DESC
 ILTD.               Lithology:  INTERP LTH DESC
 SVYD.                  Survey:  SURVEY DESC
 DMOD.             Drill Model:  DRILL MOD DESC
 HPTY.       Minimum Curvature:  HOLE POS TYPE
 NREF.                    Grid:  NORTH REFERENCE
 SPUD.               16-May-21:  SPUD DATE
 DATE.      21.11.28 17-May-21:  END TIME
 STIM.      21.11.28 17-May-21:  START TIME
 DMF .             Drill Floor:  DRILL MEAS FROM
 DFST.                        :  DIST FSL TEXT
 DFWT.                        :  DIST FWL TEXT
 CNTY.                        :  COUNTY
 LOC .                        :  LOCATION
 LMF .             Drill Floor:  LOG MEASURED FROM
 AGAP.m                  43.42:  AIR GAP
 VSNS.m                  -2.16:  VERT SEC N/S
 VSEW.m                  -6.24:  VERT SEC E/W
 APD .m                  43.42:  DEPTH ABOVE PD
 WDMS.m                 118.27:  WD ELEV
 EGL .m                   0.00:  GROUND ELEVATION
 EPD .m                   0.00:  ELEVATION
 AZTC.deg                 6.29:  AZM TOTAL CORR
 GRDC.deg                 0.18:  GRID CORRECTION
 MDEC.deg                 6.47:  MAGNETIC DECL
 MDIP.deg                59.54:  MAGNETIC DIP
 MFLD.nT              50337.00:  MAGNETIC FIELD
 GVFD.g                   1.00:  GRAVITY FIELD
 VSDR.deg               226.99:  VERT SEC DIRECT
 TDD .m                   0.00:  TOTAL DEPTH (DRILLER)
 SDEP.m                 448.00:  START DEPTH
 DFSL.m                   0.00:  DISTANCE FSL
 DFWL.m                   0.00:  DISTANCE FWL
 UTMY.m             4435799.96:  UTM Y
 UTMX.m              526265.35:  UTM X
 WHEW.m                  -6.24:  WELL HEAD E/W
 WHNS.m                  -2.16:  WELL HEAD N/S
 LONG.deg                51.31:  LONGITUDE
 LATI.deg                40.06:  LATITUDE
 TVDS.m                  43.42:  TVDSS CORRECTN
 EKB .m                  43.42:  KB ELEVATION
 EDF .m                  43.42:  DF ELEVATION
 TDL .m                 288.00:  TOTAL DEPTH (LOGGER)
 MAGU.                 1851863:  MAGUTM CHECKSUM
 VSC .                       0:  VS TO CLOSURE
~Parameter Information Block
#MNEM.UNIT       Value        Description
#---------     -----------    ---------------------------
 AV  .mps                 0.40:  Ann Velocity 
 AVMX.mps                 0.63:  Max Ann Veloc 
 AZIF.deg               158.76:  Azm, Final 
 BHAT.        Rotary Steerable:  BHA Type 
 BROT.°/30m               0.68:  Build Rotating 
 BS  .in                  8.50:  Bit Size 
 BSZ .in                  8.50:  Bit Size 
 BTPL.psig              712.00:  Bit Press Loss 
 CABU.                      No:  Customer Abuse 
 COMM.                     ”™f:  Run Comments 1 
 TCS .hr                 90.66:  Time Ciculation Ended 
 CV  .mps                 2.02:  Crit Velocity 
 CVMX.mps                 2.14:  Max Crit Veloc 
 DD1 .            Aziz Aliyevu:  Direct Drillr 1 
 DD2 .             Samir Abbas:  Direct Drillr 2 
 DD3 .           Teymur Aliyev:  Direct Drillr 3 
 DDSV.                 iCruise:  DD Service 
 DEFF.%                  85.10:  % Det Eff 
 DLRX.°/30m               1.05:  Dogleg Rot Max 
 DLSO.°/30m               1.01:  Dogleg Oriented 
 DLSX.°/30m               1.05:  Dogleg Str Max 
 DRET.      07.45.00 18-Jul-21:  Drill End Time 
 DRST.      15.00.00 16-Jul-21:  Drill Start Tim 
 DTIM.hr                 23.46:  Time Drilling 
 EDEP.m                4603.00:  End Depth 
 ENG1.       Seymur Iskandarov:  Engineer 1 
 ENG2.         Yevgeniy Ulikov:  Engineer 2 
 ENG3.         Bahruz Mehdiyev:  Engineer 3 
 ENG4.         Elchin Mammadov:  Engineer 4 
 ETIM.      14.00.00 23-Jul-21:  End Time 
 FLOI.gpm               500.00:  Flow In 
 FLON.gpm               450.00:  Flow In Min 
 FLOS.cptm                0.00:  Fluid Loss 
 FLOX.gpm               560.00:  Flow In Max 
 DFT .        Mineral Oil Base:  Mud Type 
 FTRO.       Formation Presure:  FTWD Run Obj 
 HFLO.                      No:  High Flow 
 HPRE.                      No:  High Pressure 
 HTEM.                      No:  High Temp 
 HYDO.m                   1.80:  Hydro Offset 
 IFIN.deg                40.22:  Inc, Final 
 IMAX.deg                40.54:  Inc Max 
 IMIN.deg                39.44:  Inc Min 
 IMND.m                4361.17:  Inc Min Depth 
 IMXD.m                4417.92:  Inc Max Depth 
 JARR.                      No:  Jarring 
 LETM.      07.45.00 18-Jul-21:  Log End Time 
 LOST.hr                    16:  Lost Rig Time 
 LSTM.      15.00.00 16-Jul-21:  Log Start Time 
 MDCL.ppm             36500.00:  Mud Chlorides 
 MDES.     Inversion Oil/Synthetic:  Mud Desc 
 DFD .sg                  1.42:  Mud Density 
 MDMN.sg                  1.42:  Dens Mud Min 
 MDMX.sg                  1.43:  Dens Mud Max 
 MOIL.                      56:  Run Mud Oil % 
 MOWR.                   71:29:  Run Mud OWR 
 MSND.                     0.5:  Run Mud Sand % 
 MSOL.                      21:  Run Mud Solids% 
 DFV .spqt               78.00:  Mud Viscosity 
 MWOD.in                  6.75:  MWD Tool OD 
 MWSI.                     Yes:  Serv Intrp, MWD 
 OTIM.hr                200.73:  Time Operating 
 PCON.           Look Like New:  Pad Condition 
 PMAX.psia            11069.93:  Press Op, Max 
 PV  .cP                 32.00:  Mud PV 
 RUN .                     700:  Run Number 
 ROPA.m/hr               10.00:  ROP Avg 
 ROPN.m/hr                9.00:  ROP Min 
 ROPX.m/hr               16.00:  ROP Max 
 RPMA.rpm               116.00:  RPM Surface Avg 
 RPMN.rpm                80.00:  RPM Surface Min 
 RPMX.rpm               120.00:  RPM Surface Max 
 RRUN.                    L605:  Rig Run Number 
 RTIM.hr                 45.00:  Time Reaming 
 SAZI.deg               159.86:  Azm, Start 
 SDEP.m                4315.00:  Start Depth 
 SIDD.                      No:  Serv Intrp, DD 
 SINC.deg                39.86:  Inc, Start 
 SPPA.psig             3300.00:  SPP Avg 
 SPPN.psig             3040.00:  SPP Min 
 SPPX.psig             3645.00:  SPP Max 
 STIM.      01.00.00 15-Jul-21:  Start Time 
 SVCS.                 DD, MWD:  Services 
 SVER.                    9.20:  Sperry Version 
 TDAT.m                 288.00:  Tot Depth Attmp 
 TDDF.                      No:  Trip for DD 
 TDLG.m                 288.00:  Tot Depth Loggd 
 TFF .                      No:  Trip for Fail 
 TQAA.f-kp               19.00:  Torque Abs Avg 
 TQAN.f-kp               18.00:  Torque Abs Min 
 TQAX.f-kp               21.00:  Torque Abs Max 
 TRRT.°/30m               0.45:  Turn Rotating 
 MRT .                    HCIM:  Maximum Recorded Temperature 
 TTMX.degC               88.24:  Max Tool Temp 
 VS01.                90649157:  Virtual Str1 SN 
 VS02.                90652483:  Virtual Str2 SN 
 VS03.                11671987:  Virtual Str3 SN 
 VS04.                90643411:  Virtual Str4 SN 
 VS05.                90652478:  Virtual Str5 SN 
 VS06.                    6111:  Virtual Str6 SN 
 WBMN.klb                 9.50:  WOB Min 
 WITN.        Grigoriy Sarayev:  Customer Rep 
 WITN.          Rufat Huseynov:  Customer Rep 2 
 WOBA.klb                11.00:  WOB Avg 
 WOBX.klb                15.00:  WOB Max 
 YP  .lhf2               28.00:  Yield Point 
~Curve Information Block
#MNEM.UNIT                 API CODE     Curve Description
#---------               -----------    ---------------------------
 TIME.HHMMSS            00 000 000 000:  GT Time & Date
 GTDEPTH.m              00 000 000 000:  GT Depth
 GTPQH.psia             00 000 000 000:  GT HR Quartz Pressure
 GTTQ.degC              00 000 000 000:  GT Quartz Temperature
 GTTN.NONE              00 000 000 000:  GT Test Number
 GTET.sec               00 000 000 000:  GT Elapsed Test Time
 GTTVD.m                00 000 000 000:  GT True Vertical Depth
#Other Information
#
#WARRANTY: Halliburton will use its best efforts to furnish customers with 
#accurate information and interpretations that are part of, and incident to, the services 
#provided.  However, Halliburton cannot and does not warrant the accuracy 
#or correctness of such information and interpretations.  Under no circumstances should any 
#such information or interpretation be relied upon as the sole basis for any drilling, 
#completion, production, or financial decision or any procedure involving any risk to the 
#safety of any drilling venture, drilling rig or its crew or any other third party.  The 
#Customer has full responsibility for all drilling, completion and production operation.  
#Halliburton makes no representations or warranties, either expressed or 
#implied, including, but not limited to, the implied warranties of merchantability or fitness 
#for a particular purpose, with respect to the services rendered.  In no event will 
#Halliburton be liable for failure to obtain any particular results or for 
#any damages, including, but not limited to, indirect, special or consequential damages, 
#resulting from the use of any information or interpretation provided by Halliburton.
#
~A           TIME           GTDEPTH  GTPQH  GTTQ  GTTN   GTET   GTTVD  
# ...
   04:49:19.967.19-Jul-2021 4355.50 6345.11 68.76 11.00 361.73 2589.71
   04:49:20.167.19-Jul-2021 4355.50 6345.25 68.77 11.00 361.93 2589.71
   04:49:20.367.19-Jul-2021 4355.50 6346.34 68.77 11.00 362.13 2589.71
   04:49:20.567.19-Jul-2021 4355.50 6346.34 68.77 11.00 362.33 2589.71
   04:49:20.767.19-Jul-2021 4355.50 6348.44 68.78 11.00 362.53 2589.71
   04:49:20.967.19-Jul-2021 4355.50 6349.70 68.78 11.00 362.73 2589.71
   04:49:21.167.19-Jul-2021 4355.50 6356.39 68.78 11.00 362.93 2589.71
   04:49:21.367.19-Jul-2021 4355.50 6371.69 68.79 11.00 363.13 2589.71
   04:49:21.567.19-Jul-2021 4355.50 6371.69 68.79 11.00 363.33 2589.71
   04:49:21.767.19-Jul-2021 4355.50 6354.07 68.79 11.00 363.53 2589.71
   04:49:21.967.19-Jul-2021 4355.50 6351.36 68.80 11.00 363.73 2589.71
   04:49:22.167.19-Jul-2021 4355.50 6350.29 68.80 11.00 363.93 2589.71
   04:49:22.367.19-Jul-2021 4355.50 6351.41 68.80 11.00 364.13 2589.71
   04:49:22.567.19-Jul-2021 4355.50 6351.41 68.80 11.00 364.33 2589.71
   04:49:22.768.19-Jul-2021 4355.50 6349.24 68.81 11.00 364.53 2589.71
   04:49:22.968.19-Jul-2021 4355.50 6348.81 68.81 11.00 364.73 2589.71
   04:49:23.168.19-Jul-2021 4355.50 6349.29 68.82 11.00 364.93 2589.71
   04:49:23.368.19-Jul-2021 4355.50 6349.78 68.82 11.00 365.13 2589.71
   04:49:23.568.19-Jul-2021 4355.50 6349.78 68.82 11.00 365.33 2589.71
   04:49:23.768.19-Jul-2021 4355.50 6378.62 68.82 11.00 365.53 2589.71
   04:49:23.968.19-Jul-2021 4355.50 6349.20 68.83 11.00 365.73 2589.71
   04:49:24.168.19-Jul-2021 4355.50 6349.03 68.83 11.00 365.93 2589.71
   04:49:24.368.19-Jul-2021 4355.50 6384.15 68.83 11.00 366.13 2589.71
   04:49:24.568.19-Jul-2021 4355.50 6384.15 68.83 11.00 366.33 2589.71
   04:49:24.768.19-Jul-2021 4355.50 6353.95 68.84 11.00 366.53 2589.71
   04:49:24.968.19-Jul-2021 4355.50 6356.65 68.84 11.00 366.74 2589.71
   04:49:25.168.19-Jul-2021 4355.50 6351.16 68.84 11.00 366.94 2589.71
   04:49:25.369.19-Jul-2021 4355.50 6383.44 68.84 11.00 367.14 2589.71
   04:49:25.569.19-Jul-2021 4355.50 6383.44 68.84 11.00 367.34 2589.71
   04:49:25.769.19-Jul-2021 4355.50 6354.04 68.85 11.00 367.54 2589.71
   04:49:25.969.19-Jul-2021 4355.50 6383.76 68.85 11.00 367.74 2589.71
   04:49:26.169.19-Jul-2021 4355.50 6353.72 68.85 11.00 367.94 2589.71
   04:49:26.369.19-Jul-2021 4355.50 6355.84 68.85 11.00 368.14 2589.71
   04:49:26.569.19-Jul-2021 4355.50 6355.84 68.85 11.00 368.34 2589.71
   04:49:26.769.19-Jul-2021 4355.50 6352.90 68.86 11.00 368.54 2589.71
   04:49:26.969.19-Jul-2021 4355.50 6353.80 68.86 11.00 368.74 2589.71
   04:49:27.169.19-Jul-2021 4355.50 6360.08 68.86 11.00 368.94 2589.71
   04:49:27.369.19-Jul-2021 4355.50 6352.72 68.86 11.00 369.14 2589.71
   04:49:27.569.19-Jul-2021 4355.50 6352.72 68.86 11.00 369.34 2589.71
   04:49:27.769.19-Jul-2021 4355.50 6354.42 68.86 11.00 369.54 2589.71
   04:49:27.969.19-Jul-2021 4355.50 6353.85 68.86 11.00 369.74 2589.71
   04:49:28.170.19-Jul-2021 4355.50 6355.84 68.87 11.00 369.94 2589.71
   04:49:28.370.19-Jul-2021 4355.50 6355.64 68.87 11.00 370.14 2589.71
   04:49:28.570.19-Jul-2021 4355.50 6355.64 68.87 11.00 370.34 2589.71
   04:49:28.770.19-Jul-2021 4355.50 6354.90 68.87 11.00 370.54 2589.71
   04:49:28.970.19-Jul-2021 4355.50 6355.64 68.87 11.00 370.74 2589.71
   04:49:29.170.19-Jul-2021 4355.50 6355.91 68.87 11.00 370.94 2589.71
   04:49:29.370.19-Jul-2021 4355.50 6372.78 68.87 11.00 371.14 2589.71
   04:49:29.570.19-Jul-2021 4355.50 6372.78 68.87 11.00 371.34 2589.71
   04:49:29.770.19-Jul-2021 4355.50 6356.06 68.87 11.00 371.54 2589.71
   04:49:29.970.19-Jul-2021 4355.50 6358.57 68.87 11.00 371.74 2589.71
   04:49:30.170.19-Jul-2021 4355.50 6353.94 68.88 11.00 371.94 2589.71
   04:49:30.370.19-Jul-2021 4355.50 6354.09 68.88 11.00 372.14 2589.71
   04:49:30.570.19-Jul-2021 4355.50 6354.09 68.88 11.00 372.34 2589.71
   04:49:30.770.19-Jul-2021 4355.50 6352.38 68.88 11.00 372.54 2589.71
   04:49:30.971.19-Jul-2021 4355.50 6352.47 68.88 11.00 372.74 2589.71
   04:49:31.171.19-Jul-2021 4355.50 6352.29 68.88 11.00 372.94 2589.71
   04:49:31.371.19-Jul-2021 4355.50 6352.98 68.88 11.00 373.14 2589.71
   04:49:31.571.19-Jul-2021 4355.50 6352.98 68.88 11.00 373.34 2589.71
   04:49:31.771.19-Jul-2021 4355.50 6353.60 68.88 11.00 373.54 2589.71
   04:49:31.971.19-Jul-2021 4355.50 6370.68 68.88 11.00 373.74 2589.71
   04:49:32.171.19-Jul-2021 4355.50 6363.48 68.88 11.00 373.94 2589.71
   04:49:32.371.19-Jul-2021 4355.50 6354.79 68.88 11.00 374.14 2589.71
   04:49:32.571.19-Jul-2021 4355.50 6354.79 68.88 11.00 374.34 2589.71
   04:49:32.771.19-Jul-2021 4355.50 6353.22 68.88 11.00 374.54 2589.71
   04:49:32.971.19-Jul-2021 4355.50 6353.88 68.88 11.00 374.74 2589.71
   04:49:33.171.19-Jul-2021 4355.50 6364.06 68.88 11.00 374.94 2589.71
   04:49:33.371.19-Jul-2021 4355.50 6361.20 68.88 11.00 375.14 2589.71
   04:49:33.572.19-Jul-2021 4355.50 6361.20 68.88 11.00 375.34 2589.71
   04:49:33.772.19-Jul-2021 4355.50 6361.20 68.88 11.00 375.54 2589.71
   04:49:33.972.19-Jul-2021 4355.50 6359.76 68.88 11.00 375.74 2589.71
   04:49:34.172.19-Jul-2021 4355.50 6355.65 68.88 11.00 375.94 2589.71
   04:49:34.372.19-Jul-2021 4355.50 6363.18 68.88 11.00 376.14 2589.71
   04:49:34.572.19-Jul-2021 4355.50 6363.18 68.88 11.00 376.34 2589.71
   04:49:34.772.19-Jul-2021 4355.50 6353.83 68.88 11.00 376.54 2589.71
   04:49:34.972.19-Jul-2021 4355.50 6358.89 68.88 11.00 376.74 2589.71
   04:49:35.172.19-Jul-2021 4355.50 6382.42 68.88 11.00 376.94 2589.71
   04:49:35.372.19-Jul-2021 4355.50 6354.61 68.88 11.00 377.14 2589.71
   04:49:35.572.19-Jul-2021 4355.50 6354.61 68.88 11.00 377.34 2589.71
   04:49:35.772.19-Jul-2021 4355.50 6360.67 68.88 11.00 377.54 2589.71
   04:49:35.972.19-Jul-2021 4355.50 6355.80 68.88 11.00 377.74 2589.71
   04:49:36.172.19-Jul-2021 4355.50 6357.14 68.88 11.00 377.94 2589.71
   04:49:36.373.19-Jul-2021 4355.50 6357.39 68.88 11.00 378.14 2589.71
   04:49:36.573.19-Jul-2021 4355.50 6357.39 68.88 11.00 378.34 2589.71
   04:49:36.773.19-Jul-2021 4355.50 6356.44 68.88 11.00 378.54 2589.71
   04:49:36.973.19-Jul-2021 4355.50 6356.03 68.88 11.00 378.74 2589.71
   04:49:37.173.19-Jul-2021 4355.50 6357.02 68.88 11.00 378.94 2589.71
   04:49:37.373.19-Jul-2021 4355.50 6356.43 68.88 11.00 379.14 2589.71
   04:49:37.573.19-Jul-2021 4355.50 6356.43 68.88 11.00 379.34 2589.71
   04:49:37.773.19-Jul-2021 4355.50 6353.94 68.88 11.00 379.54 2589.71
   04:49:37.973.19-Jul-2021 4355.50 6371.17 68.88 11.00 379.74 2589.71
   04:49:38.173.19-Jul-2021 4355.50 6361.99 68.88 11.00 379.94 2589.71
   04:49:38.373.19-Jul-2021 4355.50 6354.40 68.88 11.00 380.14 2589.71
   04:49:38.573.19-Jul-2021 4355.50 6354.40 68.88 11.00 380.34 2589.71
   04:49:38.773.19-Jul-2021 4355.50 6353.67 68.88 11.00 380.54 2589.71
   04:49:38.974.19-Jul-2021 4355.50 6355.29 68.88 11.00 380.74 2589.71
   04:49:39.174.19-Jul-2021 4355.50 6356.38 68.88 11.00 380.94 2589.71
   04:49:39.374.19-Jul-2021 4355.50 6354.53 68.88 11.00 381.14 2589.71
   04:49:39.574.19-Jul-2021 4355.50 6354.53 68.88 11.00 381.34 2589.71
   04:49:39.774.19-Jul-2021 4355.50 6356.18 68.88 11.00 381.54 2589.71
   04:49:39.974.19-Jul-2021 4355.50 6356.10 68.88 11.00 381.74 2589.71
   04:49:40.174.19-Jul-2021 4355.50 6354.52 68.88 11.00 381.94 2589.71
   04:49:40.374.19-Jul-2021 4355.50 6355.07 68.88 11.00 382.14 2589.71
   04:49:40.574.19-Jul-2021 4355.50 6355.07 68.88 11.00 382.34 2589.71
   04:49:40.774.19-Jul-2021 4355.50 6362.61 68.88 11.00 382.54 2589.71
   04:49:40.974.19-Jul-2021 4355.50 6354.60 68.88 11.00 382.74 2589.71
   04:49:41.174.19-Jul-2021 4355.50 6388.27 68.88 11.00 382.94 2589.71
   04:49:41.374.19-Jul-2021 4355.50 6354.05 68.88 11.00 383.14 2589.71
   04:49:41.574.19-Jul-2021 4355.50 6354.05 68.88 11.00 383.34 2589.71
   04:49:41.775.19-Jul-2021 4355.50 6361.68 68.88 11.00 383.54 2589.71
   04:49:41.975.19-Jul-2021 4355.50 6361.18 68.88 11.00 383.74 2589.71
   04:49:42.175.19-Jul-2021 4355.50 6376.96 68.88 11.00 383.94 2589.71
   04:49:42.375.19-Jul-2021 4355.50 6355.95 68.88 11.00 384.14 2589.71
