~Version Information
 VERS.                  2.0:   CWLS log ASCII Standard -VERSION 2.0
 WRAP.                   NO:   One line per depth step
~Well Information Block
#MNEM.UNIT     VALUE/NAME     DESCRIPTION
#---------     -----------    ---------------------------
 STRT.S             13:27:26 19-Jul-21: START TIME 13:27:26 19-Jul-21
 STOP.S             13:34:19 19-Jul-21: STOP TIME  13:34:19 19-Jul-21
 STEP.S                   0.00: STEP TIME
 NULL.                 -999.25: NULL VALUE
 MDS .        Operator Entered:  MAG DATA SOURCE
 PDAT.          Mean Sea Level:  PERMANENT DATUM
 UNIT.                     N/A:  LOGGING EQUIPMENT ID
 DCON.         Sperry Drilling:  DIRECTNL CONTR
 DOE .                     N/A:  DOE NUMBER
 RIG .              West Azeri:  RIG NAME
 JOBN.        AZ-XX-0906997913:  JOB TICKET NUMB
 WELL.                     C41:  WELL NAME
 MWDS.                    Baku:  MWD SHOP
 SRVC.          Turan Drilling:  CONTRACTOR
 FLD .                     ACG:  FIELD NAME
 CTRY.              Azerbaijan:  COUNTRY NAME
 PROV.                    Baku:  PROVINCE
 STAT.                    Baku:  STATE NAME
 REGN.                   EESSA:  REGION
 BASE.              Azerbaijan:  LOGGING EQUIPMENT BASE LOCATION
 UWI .                     N/A:  UNIQUE WELL IDENTIFIER
 API .                     N/A:  API NUMBER
 COMP.     BP Exploration (Caspian Sea) Ltd.:  COMPANY
 WTYP.                Deviated:  WELL TYPE
 SON .        AZ-XX-0906997913:  JOB NUMBER
 FTOP.          Formation Tops:  FORM TOPS DESC
 ILTD.               Lithology:  INTERP LTH DESC
 SVYD.                  Survey:  SURVEY DESC
 DMOD.             Drill Model:  DRILL MOD DESC
 HPTY.       Minimum Curvature:  HOLE POS TYPE
 NREF.                    Grid:  NORTH REFERENCE
 SPUD.               16-May-21:  SPUD DATE
 DATE.      21.11.28 17-May-21:  END TIME
 STIM.      21.11.28 17-May-21:  START TIME
 DMF .             Drill Floor:  DRILL MEAS FROM
 DFST.                        :  DIST FSL TEXT
 DFWT.                        :  DIST FWL TEXT
 CNTY.                        :  COUNTY
 LOC .                        :  LOCATION
 LMF .             Drill Floor:  LOG MEASURED FROM
 AGAP.m                  43.42:  AIR GAP
 VSNS.m                  -2.16:  VERT SEC N/S
 VSEW.m                  -6.24:  VERT SEC E/W
 APD .m                  43.42:  DEPTH ABOVE PD
 WDMS.m                 118.27:  WD ELEV
 EGL .m                   0.00:  GROUND ELEVATION
 EPD .m                   0.00:  ELEVATION
 AZTC.deg                 6.29:  AZM TOTAL CORR
 GRDC.deg                 0.18:  GRID CORRECTION
 MDEC.deg                 6.47:  MAGNETIC DECL
 MDIP.deg                59.54:  MAGNETIC DIP
 MFLD.nT              50337.00:  MAGNETIC FIELD
 GVFD.g                   1.00:  GRAVITY FIELD
 VSDR.deg               226.99:  VERT SEC DIRECT
 TDD .m                   0.00:  TOTAL DEPTH (DRILLER)
 SDEP.m                 448.00:  START DEPTH
 DFSL.m                   0.00:  DISTANCE FSL
 DFWL.m                   0.00:  DISTANCE FWL
 UTMY.m             4435799.96:  UTM Y
 UTMX.m              526265.35:  UTM X
 WHEW.m                  -6.24:  WELL HEAD E/W
 WHNS.m                  -2.16:  WELL HEAD N/S
 LONG.deg                51.31:  LONGITUDE
 LATI.deg                40.06:  LATITUDE
 TVDS.m                  43.42:  TVDSS CORRECTN
 EKB .m                  43.42:  KB ELEVATION
 EDF .m                  43.42:  DF ELEVATION
 TDL .m                 288.00:  TOTAL DEPTH (LOGGER)
 MAGU.                 1851863:  MAGUTM CHECKSUM
 VSC .                       0:  VS TO CLOSURE
~Parameter Information Block
#MNEM.UNIT       Value        Description
#---------     -----------    ---------------------------
 AV  .mps                 0.40:  Ann Velocity 
 AVMX.mps                 0.63:  Max Ann Veloc 
 AZIF.deg               158.76:  Azm, Final 
 BHAT.        Rotary Steerable:  BHA Type 
 BROT.°/30m               0.68:  Build Rotating 
 BS  .in                  8.50:  Bit Size 
 BSZ .in                  8.50:  Bit Size 
 BTPL.psig              712.00:  Bit Press Loss 
 CABU.                      No:  Customer Abuse 
 COMM.                     „;b:  Run Comments 1 
 TCS .hr                 90.66:  Time Ciculation Ended 
 CV  .mps                 2.02:  Crit Velocity 
 CVMX.mps                 2.14:  Max Crit Veloc 
 DD1 .            Aziz Aliyevu:  Direct Drillr 1 
 DD2 .             Samir Abbas:  Direct Drillr 2 
 DD3 .           Teymur Aliyev:  Direct Drillr 3 
 DDSV.                 iCruise:  DD Service 
 DEFF.%                  85.10:  % Det Eff 
 DLRX.°/30m               1.05:  Dogleg Rot Max 
 DLSO.°/30m               1.01:  Dogleg Oriented 
 DLSX.°/30m               1.05:  Dogleg Str Max 
 DRET.      07.45.00 18-Jul-21:  Drill End Time 
 DRST.      15.00.00 16-Jul-21:  Drill Start Tim 
 DTIM.hr                 23.46:  Time Drilling 
 EDEP.m                4603.00:  End Depth 
 ENG1.       Seymur Iskandarov:  Engineer 1 
 ENG2.         Yevgeniy Ulikov:  Engineer 2 
 ENG3.         Bahruz Mehdiyev:  Engineer 3 
 ENG4.         Elchin Mammadov:  Engineer 4 
 ETIM.      14.00.00 23-Jul-21:  End Time 
 FLOI.gpm               500.00:  Flow In 
 FLON.gpm               450.00:  Flow In Min 
 FLOS.cptm                0.00:  Fluid Loss 
 FLOX.gpm               560.00:  Flow In Max 
 DFT .        Mineral Oil Base:  Mud Type 
 FTRO.       Formation Presure:  FTWD Run Obj 
 HFLO.                      No:  High Flow 
 HPRE.                      No:  High Pressure 
 HTEM.                      No:  High Temp 
 HYDO.m                   1.80:  Hydro Offset 
 IFIN.deg                40.22:  Inc, Final 
 IMAX.deg                40.54:  Inc Max 
 IMIN.deg                39.44:  Inc Min 
 IMND.m                4361.17:  Inc Min Depth 
 IMXD.m                4417.92:  Inc Max Depth 
 JARR.                      No:  Jarring 
 LETM.      07.45.00 18-Jul-21:  Log End Time 
 LOST.hr                    16:  Lost Rig Time 
 LSTM.      15.00.00 16-Jul-21:  Log Start Time 
 MDCL.ppm             36500.00:  Mud Chlorides 
 MDES.     Inversion Oil/Synthetic:  Mud Desc 
 DFD .sg                  1.42:  Mud Density 
 MDMN.sg                  1.42:  Dens Mud Min 
 MDMX.sg                  1.43:  Dens Mud Max 
 MOIL.                      56:  Run Mud Oil % 
 MOWR.                   71:29:  Run Mud OWR 
 MSND.                     0.5:  Run Mud Sand % 
 MSOL.                      21:  Run Mud Solids% 
 DFV .spqt               78.00:  Mud Viscosity 
 MWOD.in                  6.75:  MWD Tool OD 
 MWSI.                     Yes:  Serv Intrp, MWD 
 OTIM.hr                200.73:  Time Operating 
 PCON.           Look Like New:  Pad Condition 
 PMAX.psia            11069.93:  Press Op, Max 
 PV  .cP                 32.00:  Mud PV 
 RUN .                     700:  Run Number 
 ROPA.m/hr               10.00:  ROP Avg 
 ROPN.m/hr                9.00:  ROP Min 
 ROPX.m/hr               16.00:  ROP Max 
 RPMA.rpm               116.00:  RPM Surface Avg 
 RPMN.rpm                80.00:  RPM Surface Min 
 RPMX.rpm               120.00:  RPM Surface Max 
 RRUN.                    L605:  Rig Run Number 
 RTIM.hr                 45.00:  Time Reaming 
 SAZI.deg               159.86:  Azm, Start 
 SDEP.m                4315.00:  Start Depth 
 SIDD.                      No:  Serv Intrp, DD 
 SINC.deg                39.86:  Inc, Start 
 SPPA.psig             3300.00:  SPP Avg 
 SPPN.psig             3040.00:  SPP Min 
 SPPX.psig             3645.00:  SPP Max 
 STIM.      01.00.00 15-Jul-21:  Start Time 
 SVCS.                 DD, MWD:  Services 
 SVER.                    9.20:  Sperry Version 
 TDAT.m                 288.00:  Tot Depth Attmp 
 TDDF.                      No:  Trip for DD 
 TDLG.m                 288.00:  Tot Depth Loggd 
 TFF .                      No:  Trip for Fail 
 TQAA.f-kp               19.00:  Torque Abs Avg 
 TQAN.f-kp               18.00:  Torque Abs Min 
 TQAX.f-kp               21.00:  Torque Abs Max 
 TRRT.°/30m               0.45:  Turn Rotating 
 MRT .                    HCIM:  Maximum Recorded Temperature 
 TTMX.degC               88.24:  Max Tool Temp 
 VS01.                90649157:  Virtual Str1 SN 
 VS02.                90652483:  Virtual Str2 SN 
 VS03.                11671987:  Virtual Str3 SN 
 VS04.                90643411:  Virtual Str4 SN 
 VS05.                90652478:  Virtual Str5 SN 
 VS06.                    6111:  Virtual Str6 SN 
 WBMN.klb                 9.50:  WOB Min 
 WITN.        Grigoriy Sarayev:  Customer Rep 
 WITN.          Rufat Huseynov:  Customer Rep 2 
 WOBA.klb                11.00:  WOB Avg 
 WOBX.klb                15.00:  WOB Max 
 YP  .lhf2               28.00:  Yield Point 
~Curve Information Block
#MNEM.UNIT                 API CODE     Curve Description
#---------               -----------    ---------------------------
 TIME.HHMMSS            00 000 000 000:  GT Time & Date
 GTDEPTH.m              00 000 000 000:  GT Depth
 GTPQH.psia             00 000 000 000:  GT HR Quartz Pressure
 GTTQ.degC              00 000 000 000:  GT Quartz Temperature
 GTTN.NONE              00 000 000 000:  GT Test Number
 GTET.sec               00 000 000 000:  GT Elapsed Test Time
 GTTVD.m                00 000 000 000:  GT True Vertical Depth
#Other Information
#
#WARRANTY: Halliburton will use its best efforts to furnish customers with 
#accurate information and interpretations that are part of, and incident to, the services 
#provided.  However, Halliburton cannot and does not warrant the accuracy 
#or correctness of such information and interpretations.  Under no circumstances should any 
#such information or interpretation be relied upon as the sole basis for any drilling, 
#completion, production, or financial decision or any procedure involving any risk to the 
#safety of any drilling venture, drilling rig or its crew or any other third party.  The 
#Customer has full responsibility for all drilling, completion and production operation.  
#Halliburton makes no representations or warranties, either expressed or 
#implied, including, but not limited to, the implied warranties of merchantability or fitness 
#for a particular purpose, with respect to the services rendered.  In no event will 
#Halliburton be liable for failure to obtain any particular results or for 
#any damages, including, but not limited to, indirect, special or consequential damages, 
#resulting from the use of any information or interpretation provided by Halliburton.
#
~A           TIME           GTDEPTH  GTPQH  GTTQ  GTTN   GTET   GTTVD  
# ...
   13:31:12.896.19-Jul-2021 4559.00 3613.18 71.14 29.00 226.08 2745.40
   13:31:13.096.19-Jul-2021 4559.00 3613.18 71.14 29.00 226.28 2745.40
   13:31:13.296.19-Jul-2021 4559.00 3613.22 71.14 29.00 226.48 2745.40
   13:31:13.496.19-Jul-2021 4559.00 3613.41 71.14 29.00 226.68 2745.40
   13:31:13.697.19-Jul-2021 4559.00 3613.09 71.14 29.00 226.88 2745.40
   13:31:13.897.19-Jul-2021 4559.00 3613.35 71.14 29.00 227.08 2745.40
   13:31:14.097.19-Jul-2021 4559.00 3613.35 71.14 29.00 227.28 2745.40
   13:31:14.297.19-Jul-2021 4559.00 3613.20 71.14 29.00 227.48 2745.40
   13:31:14.497.19-Jul-2021 4559.00 3613.35 71.14 29.00 227.68 2745.40
   13:31:14.697.19-Jul-2021 4559.00 3613.26 71.14 29.00 227.88 2745.40
   13:31:14.897.19-Jul-2021 4559.00 3612.86 71.14 29.00 228.08 2745.40
   13:31:15.097.19-Jul-2021 4559.00 3612.86 71.14 29.00 228.28 2745.40
   13:31:15.297.19-Jul-2021 4559.00 3613.36 71.14 29.00 228.48 2745.40
   13:31:15.497.19-Jul-2021 4559.00 3613.10 71.14 29.00 228.68 2745.40
   13:31:15.697.19-Jul-2021 4559.00 3613.20 71.14 29.00 228.88 2745.40
   13:31:15.897.19-Jul-2021 4559.00 3613.41 71.14 29.00 229.08 2745.40
   13:31:16.097.19-Jul-2021 4559.00 3613.41 71.14 29.00 229.28 2745.40
   13:31:16.297.19-Jul-2021 4559.00 3613.37 71.14 29.00 229.48 2745.40
   13:31:16.498.19-Jul-2021 4559.00 3613.19 71.14 29.00 229.68 2745.40
   13:31:16.698.19-Jul-2021 4559.00 3613.16 71.14 29.00 229.88 2745.40
   13:31:16.898.19-Jul-2021 4559.00 3613.36 71.14 29.00 230.08 2745.40
   13:31:17.098.19-Jul-2021 4559.00 3613.36 71.14 29.00 230.28 2745.40
   13:31:17.298.19-Jul-2021 4559.00 3613.31 71.14 29.00 230.48 2745.40
   13:31:17.498.19-Jul-2021 4559.00 3613.42 71.14 29.00 230.68 2745.40
   13:31:17.698.19-Jul-2021 4559.00 3612.90 71.14 29.00 230.89 2745.40
   13:31:17.898.19-Jul-2021 4559.00 3613.39 71.14 29.00 231.09 2745.40
   13:31:18.098.19-Jul-2021 4559.00 3613.39 71.14 29.00 231.29 2745.40
   13:31:18.298.19-Jul-2021 4559.00 3613.22 71.14 29.00 231.49 2745.40
   13:31:18.498.19-Jul-2021 4559.00 3613.21 71.14 29.00 231.69 2745.40
   13:31:18.698.19-Jul-2021 4559.00 3613.41 71.14 29.00 231.89 2745.40
   13:31:18.898.19-Jul-2021 4559.00 3613.26 71.14 29.00 232.09 2745.40
   13:31:19.099.19-Jul-2021 4559.00 3613.26 71.14 29.00 232.29 2745.40
   13:31:19.299.19-Jul-2021 4559.00 3613.18 71.14 29.00 232.49 2745.40
   13:31:19.499.19-Jul-2021 4559.00 3613.32 71.14 29.00 232.69 2745.40
   13:31:19.699.19-Jul-2021 4559.00 3613.14 71.14 29.00 232.89 2745.40
   13:31:19.899.19-Jul-2021 4559.00 3613.23 71.14 29.00 233.09 2745.40
   13:31:20.099.19-Jul-2021 4559.00 3613.23 71.14 29.00 233.29 2745.40
   13:31:20.299.19-Jul-2021 4559.00 3613.50 71.14 29.00 233.49 2745.40
   13:31:20.499.19-Jul-2021 4559.00 3612.86 71.14 29.00 233.69 2745.40
   13:31:20.699.19-Jul-2021 4559.00 3613.33 71.14 29.00 233.89 2745.40
   13:31:20.899.19-Jul-2021 4559.00 3613.17 71.14 29.00 234.09 2745.40
   13:31:21.099.19-Jul-2021 4559.00 3613.17 71.14 29.00 234.29 2745.40
   13:31:21.299.19-Jul-2021 4559.00 3613.16 71.14 29.00 234.49 2745.40
   13:31:21.499.19-Jul-2021 4559.00 3613.24 71.14 29.00 234.69 2745.40
   13:31:21.699.19-Jul-2021 4559.00 3613.30 71.14 29.00 234.89 2745.40
   13:31:21.900.19-Jul-2021 4559.00 3613.26 71.14 29.00 235.09 2745.40
   13:31:22.100.19-Jul-2021 4559.00 3613.26 71.14 29.00 235.29 2745.40
   13:31:22.300.19-Jul-2021 4559.00 3613.24 71.14 29.00 235.49 2745.40
   13:31:22.500.19-Jul-2021 4559.00 3613.27 71.14 29.00 235.69 2745.40
   13:31:22.700.19-Jul-2021 4559.00 3613.28 71.14 29.00 235.89 2745.40
   13:31:22.900.19-Jul-2021 4559.00 3613.31 71.14 29.00 236.09 2745.40
   13:31:23.100.19-Jul-2021 4559.00 3613.31 71.14 29.00 236.29 2745.40
   13:31:23.300.19-Jul-2021 4559.00 3613.75 71.14 29.00 236.49 2745.40
   13:31:23.500.19-Jul-2021 4559.00 3613.29 71.14 29.00 236.69 2745.40
   13:31:23.700.19-Jul-2021 4559.00 3613.11 71.14 29.00 236.89 2745.40
   13:31:23.900.19-Jul-2021 4559.00 3613.16 71.14 29.00 237.09 2745.40
   13:31:24.100.19-Jul-2021 4559.00 3613.16 71.14 29.00 237.29 2745.40
   13:31:24.300.19-Jul-2021 4559.00 3613.12 71.14 29.00 237.49 2745.40
   13:31:24.501.19-Jul-2021 4559.00 3613.24 71.14 29.00 237.69 2745.40
   13:31:24.701.19-Jul-2021 4559.00 3613.27 71.14 29.00 237.89 2745.40
   13:31:24.901.19-Jul-2021 4559.00 3613.17 71.14 29.00 238.09 2745.40
   13:31:25.101.19-Jul-2021 4559.00 3613.17 71.14 29.00 238.29 2745.40
   13:31:25.301.19-Jul-2021 4559.00 3613.18 71.14 29.00 238.49 2745.40
   13:31:25.501.19-Jul-2021 4559.00 3613.26 71.14 29.00 238.69 2745.40
   13:31:25.701.19-Jul-2021 4559.00 3613.52 71.14 29.00 238.89 2745.40
   13:31:25.901.19-Jul-2021 4559.00 3612.88 71.14 29.00 239.09 2745.40
   13:31:26.101.19-Jul-2021 4559.00 3612.88 71.14 29.00 239.29 2745.40
   13:31:26.301.19-Jul-2021 4559.00 3613.40 71.14 29.00 239.49 2745.40
   13:31:26.501.19-Jul-2021 4559.00 3613.19 71.14 29.00 239.69 2745.40
   13:31:26.701.19-Jul-2021 4559.00 3613.06 71.14 29.00 239.89 2745.40
   13:31:26.901.19-Jul-2021 4559.00 3613.53 71.14 29.00 240.09 2745.40
   13:31:27.101.19-Jul-2021 4559.00 3613.53 71.14 29.00 240.29 2745.40
   13:31:27.302.19-Jul-2021 4559.00 3613.05 71.14 29.00 240.49 2745.40
   13:31:27.502.19-Jul-2021 4559.00 3613.34 71.14 29.00 240.69 2745.40
   13:31:27.702.19-Jul-2021 4559.00 3613.28 71.14 29.00 240.89 2745.40
   13:31:27.902.19-Jul-2021 4559.00 3613.05 71.14 29.00 241.09 2745.40
   13:31:28.102.19-Jul-2021 4559.00 3613.05 71.14 29.00 241.29 2745.40
   13:31:28.302.19-Jul-2021 4559.00 3613.35 71.14 29.00 241.49 2745.40
   13:31:28.502.19-Jul-2021 4559.00 3613.42 71.14 29.00 241.69 2745.40
   13:31:28.702.19-Jul-2021 4559.00 3612.88 71.14 29.00 241.89 2745.40
   13:31:28.902.19-Jul-2021 4559.00 3613.38 71.14 29.00 242.09 2745.40
   13:31:29.102.19-Jul-2021 4559.00 3613.38 71.14 29.00 242.29 2745.40
   13:31:29.302.19-Jul-2021 4559.00 3613.30 71.14 29.00 242.49 2745.40
   13:31:29.502.19-Jul-2021 4559.00 3613.14 71.14 29.00 242.69 2745.40
   13:31:29.702.19-Jul-2021 4559.00 3613.36 71.14 29.00 242.89 2745.40
   13:31:29.903.19-Jul-2021 4559.00 3613.20 71.14 29.00 243.09 2745.40
   13:31:30.103.19-Jul-2021 4559.00 3613.20 71.14 29.00 243.29 2745.40
   13:31:30.303.19-Jul-2021 4559.00 3613.27 71.14 29.00 243.49 2745.40
   13:31:30.503.19-Jul-2021 4559.00 3613.15 71.14 29.00 243.69 2745.40
   13:31:30.703.19-Jul-2021 4559.00 3613.25 71.14 29.00 243.89 2745.40
   13:31:30.903.19-Jul-2021 4559.00 3613.33 71.14 29.00 244.09 2745.40
   13:31:31.103.19-Jul-2021 4559.00 3613.33 71.14 29.00 244.29 2745.40
   13:31:31.303.19-Jul-2021 4559.00 3612.89 71.14 29.00 244.49 2745.40
   13:31:31.503.19-Jul-2021 4559.00 3613.72 71.14 29.00 244.69 2745.40
   13:31:31.703.19-Jul-2021 4559.00 3613.28 71.14 29.00 244.89 2745.40
   13:31:31.903.19-Jul-2021 4559.00 3613.08 71.14 29.00 245.09 2745.40
   13:31:32.103.19-Jul-2021 4559.00 3613.08 71.14 29.00 245.29 2745.40
   13:31:32.303.19-Jul-2021 4559.00 3613.40 71.14 29.00 245.49 2745.40
   13:31:32.503.19-Jul-2021 4559.00 3613.03 71.14 29.00 245.69 2745.40
   13:31:32.704.19-Jul-2021 4559.00 3613.37 71.14 29.00 245.89 2745.40
   13:31:32.904.19-Jul-2021 4559.00 3613.17 71.14 29.00 246.09 2745.40
   13:31:33.104.19-Jul-2021 4559.00 3613.17 71.14 29.00 246.29 2745.40
   13:31:33.304.19-Jul-2021 4559.00 3613.22 71.14 29.00 246.49 2745.40
   13:31:33.504.19-Jul-2021 4559.00 3613.24 71.14 29.00 246.69 2745.40
   13:31:33.704.19-Jul-2021 4559.00 3613.26 71.14 29.00 246.89 2745.40
   13:31:33.904.19-Jul-2021 4559.00 3613.45 71.14 29.00 247.09 2745.40
   13:31:34.104.19-Jul-2021 4559.00 3613.45 71.14 29.00 247.29 2745.40
   13:31:34.304.19-Jul-2021 4559.00 3613.20 71.14 29.00 247.49 2745.40
   13:31:34.504.19-Jul-2021 4559.00 3613.48 71.14 29.00 247.69 2745.40
   13:31:34.704.19-Jul-2021 4559.00 3613.10 71.14 29.00 247.89 2745.40
   13:31:34.904.19-Jul-2021 4559.00 3613.19 71.14 29.00 248.09 2745.40
   13:31:35.104.19-Jul-2021 4559.00 3613.19 71.14 29.00 248.29 2745.40
   13:31:35.304.19-Jul-2021 4559.00 3613.27 71.14 29.00 248.49 2745.40
