~Version Information
 VERS.                  2.0:   CWLS log ASCII Standard -VERSION 2.0
 WRAP.                   NO:   One line per depth step
~Well Information Block
#MNEM.UNIT     VALUE/NAME     DESCRIPTION
#---------     -----------    ---------------------------
 STRT.S             13:44:38 19-Jul-21: START TIME 13:44:38 19-Jul-21
 STOP.S             13:51:30 19-Jul-21: STOP TIME  13:51:30 19-Jul-21
 STEP.S                   0.00: STEP TIME
 NULL.                 -999.25: NULL VALUE
 MDS .        Operator Entered:  MAG DATA SOURCE
 PDAT.          Mean Sea Level:  PERMANENT DATUM
 UNIT.                     N/A:  LOGGING EQUIPMENT ID
 DCON.         Sperry Drilling:  DIRECTNL CONTR
 DOE .                     N/A:  DOE NUMBER
 RIG .              West Azeri:  RIG NAME
 JOBN.        AZ-XX-0906997913:  JOB TICKET NUMB
 WELL.                     C41:  WELL NAME
 MWDS.                    Baku:  MWD SHOP
 SRVC.          Turan Drilling:  CONTRACTOR
 FLD .                     ACG:  FIELD NAME
 CTRY.              Azerbaijan:  COUNTRY NAME
 PROV.                    Baku:  PROVINCE
 STAT.                    Baku:  STATE NAME
 REGN.                   EESSA:  REGION
 BASE.              Azerbaijan:  LOGGING EQUIPMENT BASE LOCATION
 UWI .                     N/A:  UNIQUE WELL IDENTIFIER
 API .                     N/A:  API NUMBER
 COMP.     BP Exploration (Caspian Sea) Ltd.:  COMPANY
 WTYP.                Deviated:  WELL TYPE
 SON .        AZ-XX-0906997913:  JOB NUMBER
 FTOP.          Formation Tops:  FORM TOPS DESC
 ILTD.               Lithology:  INTERP LTH DESC
 SVYD.                  Survey:  SURVEY DESC
 DMOD.             Drill Model:  DRILL MOD DESC
 HPTY.       Minimum Curvature:  HOLE POS TYPE
 NREF.                    Grid:  NORTH REFERENCE
 SPUD.               16-May-21:  SPUD DATE
 DATE.      21.11.28 17-May-21:  END TIME
 STIM.      21.11.28 17-May-21:  START TIME
 DMF .             Drill Floor:  DRILL MEAS FROM
 DFST.                        :  DIST FSL TEXT
 DFWT.                        :  DIST FWL TEXT
 CNTY.                        :  COUNTY
 LOC .                        :  LOCATION
 LMF .             Drill Floor:  LOG MEASURED FROM
 AGAP.m                  43.42:  AIR GAP
 VSNS.m                  -2.16:  VERT SEC N/S
 VSEW.m                  -6.24:  VERT SEC E/W
 APD .m                  43.42:  DEPTH ABOVE PD
 WDMS.m                 118.27:  WD ELEV
 EGL .m                   0.00:  GROUND ELEVATION
 EPD .m                   0.00:  ELEVATION
 AZTC.deg                 6.29:  AZM TOTAL CORR
 GRDC.deg                 0.18:  GRID CORRECTION
 MDEC.deg                 6.47:  MAGNETIC DECL
 MDIP.deg                59.54:  MAGNETIC DIP
 MFLD.nT              50337.00:  MAGNETIC FIELD
 GVFD.g                   1.00:  GRAVITY FIELD
 VSDR.deg               226.99:  VERT SEC DIRECT
 TDD .m                   0.00:  TOTAL DEPTH (DRILLER)
 SDEP.m                 448.00:  START DEPTH
 DFSL.m                   0.00:  DISTANCE FSL
 DFWL.m                   0.00:  DISTANCE FWL
 UTMY.m             4435799.96:  UTM Y
 UTMX.m              526265.35:  UTM X
 WHEW.m                  -6.24:  WELL HEAD E/W
 WHNS.m                  -2.16:  WELL HEAD N/S
 LONG.deg                51.31:  LONGITUDE
 LATI.deg                40.06:  LATITUDE
 TVDS.m                  43.42:  TVDSS CORRECTN
 EKB .m                  43.42:  KB ELEVATION
 EDF .m                  43.42:  DF ELEVATION
 TDL .m                 288.00:  TOTAL DEPTH (LOGGER)
 MAGU.                 1851863:  MAGUTM CHECKSUM
 VSC .                       0:  VS TO CLOSURE
~Parameter Information Block
#MNEM.UNIT       Value        Description
#---------     -----------    ---------------------------
 AV  .mps                 0.40:  Ann Velocity 
 AVMX.mps                 0.63:  Max Ann Veloc 
 AZIF.deg               158.76:  Azm, Final 
 BHAT.        Rotary Steerable:  BHA Type 
 BROT.°/30m               0.68:  Build Rotating 
 BS  .in                  8.50:  Bit Size 
 BSZ .in                  8.50:  Bit Size 
 BTPL.psig              712.00:  Bit Press Loss 
 CABU.                      No:  Customer Abuse 
 COMM.                     ÌÇp:  Run Comments 1 
 TCS .hr                 90.66:  Time Ciculation Ended 
 CV  .mps                 2.02:  Crit Velocity 
 CVMX.mps                 2.14:  Max Crit Veloc 
 DD1 .            Aziz Aliyevu:  Direct Drillr 1 
 DD2 .             Samir Abbas:  Direct Drillr 2 
 DD3 .           Teymur Aliyev:  Direct Drillr 3 
 DDSV.                 iCruise:  DD Service 
 DEFF.%                  85.10:  % Det Eff 
 DLRX.°/30m               1.05:  Dogleg Rot Max 
 DLSO.°/30m               1.01:  Dogleg Oriented 
 DLSX.°/30m               1.05:  Dogleg Str Max 
 DRET.      07.45.00 18-Jul-21:  Drill End Time 
 DRST.      15.00.00 16-Jul-21:  Drill Start Tim 
 DTIM.hr                 23.46:  Time Drilling 
 EDEP.m                4603.00:  End Depth 
 ENG1.       Seymur Iskandarov:  Engineer 1 
 ENG2.         Yevgeniy Ulikov:  Engineer 2 
 ENG3.         Bahruz Mehdiyev:  Engineer 3 
 ENG4.         Elchin Mammadov:  Engineer 4 
 ETIM.      14.00.00 23-Jul-21:  End Time 
 FLOI.gpm               500.00:  Flow In 
 FLON.gpm               450.00:  Flow In Min 
 FLOS.cptm                0.00:  Fluid Loss 
 FLOX.gpm               560.00:  Flow In Max 
 DFT .        Mineral Oil Base:  Mud Type 
 FTRO.       Formation Presure:  FTWD Run Obj 
 HFLO.                      No:  High Flow 
 HPRE.                      No:  High Pressure 
 HTEM.                      No:  High Temp 
 HYDO.m                   1.80:  Hydro Offset 
 IFIN.deg                40.22:  Inc, Final 
 IMAX.deg                40.54:  Inc Max 
 IMIN.deg                39.44:  Inc Min 
 IMND.m                4361.17:  Inc Min Depth 
 IMXD.m                4417.92:  Inc Max Depth 
 JARR.                      No:  Jarring 
 LETM.      07.45.00 18-Jul-21:  Log End Time 
 LOST.hr                    16:  Lost Rig Time 
 LSTM.      15.00.00 16-Jul-21:  Log Start Time 
 MDCL.ppm             36500.00:  Mud Chlorides 
 MDES.     Inversion Oil/Synthetic:  Mud Desc 
 DFD .sg                  1.42:  Mud Density 
 MDMN.sg                  1.42:  Dens Mud Min 
 MDMX.sg                  1.43:  Dens Mud Max 
 MOIL.                      56:  Run Mud Oil % 
 MOWR.                   71:29:  Run Mud OWR 
 MSND.                     0.5:  Run Mud Sand % 
 MSOL.                      21:  Run Mud Solids% 
 DFV .spqt               78.00:  Mud Viscosity 
 MWOD.in                  6.75:  MWD Tool OD 
 MWSI.                     Yes:  Serv Intrp, MWD 
 OTIM.hr                200.73:  Time Operating 
 PCON.           Look Like New:  Pad Condition 
 PMAX.psia            11069.93:  Press Op, Max 
 PV  .cP                 32.00:  Mud PV 
 RUN .                     700:  Run Number 
 ROPA.m/hr               10.00:  ROP Avg 
 ROPN.m/hr                9.00:  ROP Min 
 ROPX.m/hr               16.00:  ROP Max 
 RPMA.rpm               116.00:  RPM Surface Avg 
 RPMN.rpm                80.00:  RPM Surface Min 
 RPMX.rpm               120.00:  RPM Surface Max 
 RRUN.                    L605:  Rig Run Number 
 RTIM.hr                 45.00:  Time Reaming 
 SAZI.deg               159.86:  Azm, Start 
 SDEP.m                4315.00:  Start Depth 
 SIDD.                      No:  Serv Intrp, DD 
 SINC.deg                39.86:  Inc, Start 
 SPPA.psig             3300.00:  SPP Avg 
 SPPN.psig             3040.00:  SPP Min 
 SPPX.psig             3645.00:  SPP Max 
 STIM.      01.00.00 15-Jul-21:  Start Time 
 SVCS.                 DD, MWD:  Services 
 SVER.                    9.20:  Sperry Version 
 TDAT.m                 288.00:  Tot Depth Attmp 
 TDDF.                      No:  Trip for DD 
 TDLG.m                 288.00:  Tot Depth Loggd 
 TFF .                      No:  Trip for Fail 
 TQAA.f-kp               19.00:  Torque Abs Avg 
 TQAN.f-kp               18.00:  Torque Abs Min 
 TQAX.f-kp               21.00:  Torque Abs Max 
 TRRT.°/30m               0.45:  Turn Rotating 
 MRT .                    HCIM:  Maximum Recorded Temperature 
 TTMX.degC               88.24:  Max Tool Temp 
 VS01.                90649157:  Virtual Str1 SN 
 VS02.                90652483:  Virtual Str2 SN 
 VS03.                11671987:  Virtual Str3 SN 
 VS04.                90643411:  Virtual Str4 SN 
 VS05.                90652478:  Virtual Str5 SN 
 VS06.                    6111:  Virtual Str6 SN 
 WBMN.klb                 9.50:  WOB Min 
 WITN.        Grigoriy Sarayev:  Customer Rep 
 WITN.          Rufat Huseynov:  Customer Rep 2 
 WOBA.klb                11.00:  WOB Avg 
 WOBX.klb                15.00:  WOB Max 
 YP  .lhf2               28.00:  Yield Point 
~Curve Information Block
#MNEM.UNIT                 API CODE     Curve Description
#---------               -----------    ---------------------------
 TIME.HHMMSS            00 000 000 000:  GT Time & Date
 GTDEPTH.m              00 000 000 000:  GT Depth
 GTPQH.psia             00 000 000 000:  GT HR Quartz Pressure
 GTTQ.degC              00 000 000 000:  GT Quartz Temperature
 GTTN.NONE              00 000 000 000:  GT Test Number
 GTET.sec               00 000 000 000:  GT Elapsed Test Time
 GTTVD.m                00 000 000 000:  GT True Vertical Depth
#Other Information
#
#WARRANTY: Halliburton will use its best efforts to furnish customers with 
#accurate information and interpretations that are part of, and incident to, the services 
#provided.  However, Halliburton cannot and does not warrant the accuracy 
#or correctness of such information and interpretations.  Under no circumstances should any 
#such information or interpretation be relied upon as the sole basis for any drilling, 
#completion, production, or financial decision or any procedure involving any risk to the 
#safety of any drilling venture, drilling rig or its crew or any other third party.  The 
#Customer has full responsibility for all drilling, completion and production operation.  
#Halliburton makes no representations or warranties, either expressed or 
#implied, including, but not limited to, the implied warranties of merchantability or fitness 
#for a particular purpose, with respect to the services rendered.  In no event will 
#Halliburton be liable for failure to obtain any particular results or for 
#any damages, including, but not limited to, indirect, special or consequential damages, 
#resulting from the use of any information or interpretation provided by Halliburton.
#
~A           TIME           GTDEPTH  GTPQH  GTTQ  GTTN   GTET   GTTVD  
# ...
   13:45:00.801.19-Jul-2021 4561.50 6679.38 71.30 30.00  22.61 2747.31
   13:45:01.001.19-Jul-2021 4561.50 6659.81 71.30 30.00  22.81 2747.31
   13:45:01.201.19-Jul-2021 4561.50 6664.78 71.30 30.00  23.01 2747.31
   13:45:01.401.19-Jul-2021 4561.50 6664.78 71.30 30.00  23.21 2747.31
   13:45:01.601.19-Jul-2021 4561.50 6662.86 71.30 30.00  23.41 2747.31
   13:45:01.801.19-Jul-2021 4561.50 6663.80 71.30 30.00  23.61 2747.31
   13:45:02.002.19-Jul-2021 4561.50 6665.12 71.30 30.00  23.81 2747.31
   13:45:02.202.19-Jul-2021 4561.50 6665.13 71.30 30.00  24.01 2747.31
   13:45:02.402.19-Jul-2021 4561.50 6665.13 71.30 30.00  24.21 2747.31
   13:45:02.602.19-Jul-2021 4561.50 6665.21 71.30 30.00  24.41 2747.31
   13:45:02.802.19-Jul-2021 4561.50 6668.37 71.30 30.00  24.61 2747.31
   13:45:03.002.19-Jul-2021 4561.50 6668.32 71.30 30.00  24.81 2747.31
   13:45:03.202.19-Jul-2021 4561.50 6664.33 71.30 30.00  25.01 2747.31
   13:45:03.402.19-Jul-2021 4561.50 6664.33 71.30 30.00  25.21 2747.31
   13:45:03.602.19-Jul-2021 4561.50 6688.12 71.30 30.00  25.41 2747.31
   13:45:03.802.19-Jul-2021 4561.50 6672.17 71.30 30.00  25.61 2747.31
   13:45:04.002.19-Jul-2021 4561.50 6664.64 71.30 30.00  25.81 2747.31
   13:45:04.202.19-Jul-2021 4561.50 6673.57 71.30 30.00  26.01 2747.31
   13:45:04.402.19-Jul-2021 4561.50 6673.57 71.30 30.00  26.21 2747.31
   13:45:04.602.19-Jul-2021 4561.50 6664.87 71.30 30.00  26.41 2747.31
   13:45:04.803.19-Jul-2021 4561.50 6665.53 71.30 30.00  26.61 2747.31
   13:45:05.003.19-Jul-2021 4561.50 6665.86 71.30 30.00  26.81 2747.31
   13:45:05.203.19-Jul-2021 4561.50 6665.49 71.30 30.00  27.01 2747.31
   13:45:05.403.19-Jul-2021 4561.50 6665.49 71.30 30.00  27.21 2747.31
   13:45:05.603.19-Jul-2021 4561.50 6668.74 71.30 30.00  27.41 2747.31
   13:45:05.803.19-Jul-2021 4561.50 6666.61 71.30 30.00  27.61 2747.31
   13:45:06.003.19-Jul-2021 4561.50 6665.38 71.30 30.00  27.81 2747.31
   13:45:06.203.19-Jul-2021 4561.50 6691.04 71.30 30.00  28.01 2747.31
   13:45:06.403.19-Jul-2021 4561.50 6691.04 71.30 30.00  28.21 2747.31
   13:45:06.603.19-Jul-2021 4561.50 6663.66 71.30 30.00  28.41 2747.31
   13:45:06.803.19-Jul-2021 4561.50 6700.15 71.30 30.00  28.61 2747.31
   13:45:07.003.19-Jul-2021 4561.50 6675.01 71.30 30.00  28.81 2747.31
   13:45:07.203.19-Jul-2021 4561.50 6676.99 71.30 30.00  29.01 2747.31
   13:45:07.404.19-Jul-2021 4561.50 6676.99 71.30 30.00  29.21 2747.31
   13:45:07.604.19-Jul-2021 4561.50 6688.56 71.30 30.00  29.41 2747.31
   13:45:07.804.19-Jul-2021 4561.50 6700.85 71.30 30.00  29.61 2747.31
   13:45:08.004.19-Jul-2021 4561.50 6697.92 71.30 30.00  29.81 2747.31
   13:45:08.204.19-Jul-2021 4561.50 6687.57 71.30 30.00  30.01 2747.31
   13:45:08.404.19-Jul-2021 4561.50 6687.57 71.30 30.00  30.21 2747.31
   13:45:08.604.19-Jul-2021 4561.50 6662.21 71.30 30.00  30.41 2747.31
   13:45:08.804.19-Jul-2021 4561.50 6660.32 71.30 30.00  30.61 2747.31
   13:45:09.004.19-Jul-2021 4561.50 6659.22 71.30 30.00  30.81 2747.31
   13:45:09.204.19-Jul-2021 4561.50 6652.36 71.30 30.00  31.01 2747.31
   13:45:09.404.19-Jul-2021 4561.50 6652.36 71.30 30.00  31.21 2747.31
   13:45:09.604.19-Jul-2021 4561.50 6645.12 71.30 30.00  31.41 2747.31
   13:45:09.804.19-Jul-2021 4561.50 6642.85 71.30 30.00  31.61 2747.31
   13:45:10.004.19-Jul-2021 4561.50 6640.60 71.30 30.00  31.81 2747.31
   13:45:10.205.19-Jul-2021 4561.50 6639.21 71.30 30.00  32.01 2747.31
   13:45:10.405.19-Jul-2021 4561.50 6639.21 71.30 30.00  32.21 2747.31
   13:45:10.605.19-Jul-2021 4561.50 6636.56 71.30 30.00  32.41 2747.31
   13:45:10.805.19-Jul-2021 4561.50 6634.91 71.30 30.00  32.61 2747.31
   13:45:11.005.19-Jul-2021 4561.50 6633.58 71.30 30.00  32.81 2747.31
   13:45:11.205.19-Jul-2021 4561.50 6631.88 71.30 30.00  33.01 2747.31
   13:45:11.405.19-Jul-2021 4561.50 6631.88 71.30 30.00  33.21 2747.31
   13:45:11.605.19-Jul-2021 4561.50 6626.89 71.30 30.00  33.41 2747.31
   13:45:11.805.19-Jul-2021 4561.50 6632.73 71.30 30.00  33.61 2747.31
   13:45:12.005.19-Jul-2021 4561.50 6628.43 71.30 30.00  33.81 2747.31
   13:45:12.205.19-Jul-2021 4561.50 6627.15 71.30 30.00  34.01 2747.31
   13:45:12.405.19-Jul-2021 4561.50 6627.15 71.30 30.00  34.21 2747.31
   13:45:12.605.19-Jul-2021 4561.50 6638.20 71.30 30.00  34.41 2747.31
   13:45:12.806.19-Jul-2021 4561.50 6502.32 71.30 30.00  34.61 2747.31
   13:45:13.006.19-Jul-2021 4561.50 5723.75 71.30 30.00  34.81 2747.31
   13:45:13.206.19-Jul-2021 4561.50 4726.46 71.30 30.00  35.01 2747.31
   13:45:13.406.19-Jul-2021 4561.50 4726.46 71.30 30.00  35.21 2747.31
   13:45:13.606.19-Jul-2021 4561.50 3442.28 71.30 30.00  35.41 2747.31
   13:45:13.806.19-Jul-2021 4561.50 3503.65 71.30 30.00  35.61 2747.31
   13:45:14.006.19-Jul-2021 4561.50 3521.89 71.30 30.00  35.81 2747.31
   13:45:14.206.19-Jul-2021 4561.50 3532.58 71.29 30.00  36.01 2747.31
   13:45:14.406.19-Jul-2021 4561.50 3532.58 71.29 30.00  36.21 2747.31
   13:45:14.606.19-Jul-2021 4561.50 3525.42 71.29 30.00  36.41 2747.31
   13:45:14.806.19-Jul-2021 4561.50 3530.44 71.29 30.00  36.61 2747.31
   13:45:15.006.19-Jul-2021 4561.50 3529.50 71.29 30.00  36.81 2747.31
   13:45:15.206.19-Jul-2021 4561.50 3525.60 71.29 30.00  37.01 2747.31
   13:45:15.406.19-Jul-2021 4561.50 3525.60 71.29 30.00  37.21 2747.31
   13:45:15.607.19-Jul-2021 4561.50 3525.46 71.28 30.00  37.41 2747.31
   13:45:15.807.19-Jul-2021 4561.50 3524.10 71.28 30.00  37.61 2747.31
   13:45:16.007.19-Jul-2021 4561.50 3526.85 71.28 30.00  37.81 2747.31
   13:45:16.207.19-Jul-2021 4561.50 3521.65 71.28 30.00  38.01 2747.31
   13:45:16.407.19-Jul-2021 4561.50 3521.65 71.28 30.00  38.21 2747.31
   13:45:16.607.19-Jul-2021 4561.50 3525.69 71.27 30.00  38.41 2747.31
   13:45:16.807.19-Jul-2021 4561.50 3522.37 71.27 30.00  38.61 2747.31
   13:45:17.007.19-Jul-2021 4561.50 3522.40 71.27 30.00  38.81 2747.31
   13:45:17.207.19-Jul-2021 4561.50 3523.26 71.27 30.00  39.01 2747.31
   13:45:17.407.19-Jul-2021 4561.50 3523.26 71.27 30.00  39.21 2747.31
   13:45:17.607.19-Jul-2021 4561.50 3522.16 71.27 30.00  39.41 2747.31
   13:45:17.807.19-Jul-2021 4561.50 3521.94 71.26 30.00  39.61 2747.31
   13:45:18.007.19-Jul-2021 4561.50 3523.66 71.26 30.00  39.81 2747.31
   13:45:18.207.19-Jul-2021 4561.50 3522.45 71.26 30.00  40.01 2747.31
   13:45:18.408.19-Jul-2021 4561.50 3522.45 71.26 30.00  40.21 2747.31
   13:45:18.608.19-Jul-2021 4561.50 3522.83 71.26 30.00  40.41 2747.31
   13:45:18.808.19-Jul-2021 4561.50 3522.50 71.26 30.00  40.61 2747.31
   13:45:19.008.19-Jul-2021 4561.50 3521.94 71.25 30.00  40.82 2747.31
   13:45:19.208.19-Jul-2021 4561.50 3521.97 71.25 30.00  41.02 2747.31
   13:45:19.408.19-Jul-2021 4561.50 3521.97 71.25 30.00  41.22 2747.31
   13:45:19.608.19-Jul-2021 4561.50 3522.67 71.25 30.00  41.42 2747.31
   13:45:19.808.19-Jul-2021 4561.50 3523.59 71.25 30.00  41.62 2747.31
   13:45:20.008.19-Jul-2021 4561.50 3524.13 71.25 30.00  41.82 2747.31
   13:45:20.208.19-Jul-2021 4561.50 3522.15 71.25 30.00  42.02 2747.31
   13:45:20.408.19-Jul-2021 4561.50 3522.15 71.25 30.00  42.22 2747.31
   13:45:20.608.19-Jul-2021 4561.50 3523.46 71.24 30.00  42.42 2747.31
   13:45:20.808.19-Jul-2021 4561.50 3522.73 71.24 30.00  42.62 2747.31
   13:45:21.009.19-Jul-2021 4561.50 3522.44 71.24 30.00  42.82 2747.31
   13:45:21.209.19-Jul-2021 4561.50 3522.98 71.24 30.00  43.02 2747.31
   13:45:21.409.19-Jul-2021 4561.50 3522.98 71.24 30.00  43.22 2747.31
   13:45:21.609.19-Jul-2021 4561.50 3521.86 71.24 30.00  43.42 2747.31
   13:45:21.809.19-Jul-2021 4561.50 3523.01 71.24 30.00  43.62 2747.31
   13:45:22.009.19-Jul-2021 4561.50 3524.82 71.24 30.00  43.82 2747.31
   13:45:22.209.19-Jul-2021 4561.50 3521.96 71.24 30.00  44.02 2747.31
   13:45:22.409.19-Jul-2021 4561.50 3521.96 71.24 30.00  44.22 2747.31
   13:45:22.609.19-Jul-2021 4561.50 3529.08 71.23 30.00  44.42 2747.31
   13:45:22.809.19-Jul-2021 4561.50 3604.65 71.23 30.00  44.62 2747.31
   13:45:23.009.19-Jul-2021 4561.50 3614.23 71.23 30.00  44.82 2747.31
   13:45:23.209.19-Jul-2021 4561.50 3614.24 71.23 30.00  45.02 2747.31
