~Version Information
 VERS.                  2.0:   CWLS log ASCII Standard -VERSION 2.0
 WRAP.                   NO:   One line per depth step
~Well Information Block
#MNEM.UNIT     VALUE/NAME     DESCRIPTION
#---------     -----------    ---------------------------
 STRT.S             14:45:19 18-Jul-21: START TIME 14:45:19 18-Jul-21
 STOP.S             14:51:50 18-Jul-21: STOP TIME  14:51:50 18-Jul-21
 STEP.S                   0.00: STEP TIME
 NULL.                 -999.25: NULL VALUE
 MDS .        Operator Entered:  MAG DATA SOURCE
 PDAT.          Mean Sea Level:  PERMANENT DATUM
 UNIT.                     N/A:  LOGGING EQUIPMENT ID
 DCON.         Sperry Drilling:  DIRECTNL CONTR
 DOE .                     N/A:  DOE NUMBER
 RIG .              West Azeri:  RIG NAME
 JOBN.        AZ-XX-0906997913:  JOB TICKET NUMB
 WELL.                     C41:  WELL NAME
 MWDS.                    Baku:  MWD SHOP
 SRVC.          Turan Drilling:  CONTRACTOR
 FLD .                     ACG:  FIELD NAME
 CTRY.              Azerbaijan:  COUNTRY NAME
 PROV.                    Baku:  PROVINCE
 STAT.                    Baku:  STATE NAME
 REGN.                   EESSA:  REGION
 BASE.              Azerbaijan:  LOGGING EQUIPMENT BASE LOCATION
 UWI .                     N/A:  UNIQUE WELL IDENTIFIER
 API .                     N/A:  API NUMBER
 COMP.     BP Exploration (Caspian Sea) Ltd.:  COMPANY
 WTYP.                Deviated:  WELL TYPE
 SON .        AZ-XX-0906997913:  JOB NUMBER
 FTOP.          Formation Tops:  FORM TOPS DESC
 ILTD.               Lithology:  INTERP LTH DESC
 SVYD.                  Survey:  SURVEY DESC
 DMOD.             Drill Model:  DRILL MOD DESC
 HPTY.       Minimum Curvature:  HOLE POS TYPE
 NREF.                    Grid:  NORTH REFERENCE
 SPUD.               16-May-21:  SPUD DATE
 DATE.      21.11.28 17-May-21:  END TIME
 STIM.      21.11.28 17-May-21:  START TIME
 DMF .             Drill Floor:  DRILL MEAS FROM
 DFST.                        :  DIST FSL TEXT
 DFWT.                        :  DIST FWL TEXT
 CNTY.                        :  COUNTY
 LOC .                        :  LOCATION
 LMF .             Drill Floor:  LOG MEASURED FROM
 AGAP.m                  43.42:  AIR GAP
 VSNS.m                  -2.16:  VERT SEC N/S
 VSEW.m                  -6.24:  VERT SEC E/W
 APD .m                  43.42:  DEPTH ABOVE PD
 WDMS.m                 118.27:  WD ELEV
 EGL .m                   0.00:  GROUND ELEVATION
 EPD .m                   0.00:  ELEVATION
 AZTC.deg                 6.29:  AZM TOTAL CORR
 GRDC.deg                 0.18:  GRID CORRECTION
 MDEC.deg                 6.47:  MAGNETIC DECL
 MDIP.deg                59.54:  MAGNETIC DIP
 MFLD.nT              50337.00:  MAGNETIC FIELD
 GVFD.g                   1.00:  GRAVITY FIELD
 VSDR.deg               226.99:  VERT SEC DIRECT
 TDD .m                   0.00:  TOTAL DEPTH (DRILLER)
 SDEP.m                 448.00:  START DEPTH
 DFSL.m                   0.00:  DISTANCE FSL
 DFWL.m                   0.00:  DISTANCE FWL
 UTMY.m             4435799.96:  UTM Y
 UTMX.m              526265.35:  UTM X
 WHEW.m                  -6.24:  WELL HEAD E/W
 WHNS.m                  -2.16:  WELL HEAD N/S
 LONG.deg                51.31:  LONGITUDE
 LATI.deg                40.06:  LATITUDE
 TVDS.m                  43.42:  TVDSS CORRECTN
 EKB .m                  43.42:  KB ELEVATION
 EDF .m                  43.42:  DF ELEVATION
 TDL .m                 288.00:  TOTAL DEPTH (LOGGER)
 MAGU.                 1851863:  MAGUTM CHECKSUM
 VSC .                       0:  VS TO CLOSURE
~Parameter Information Block
#MNEM.UNIT       Value        Description
#---------     -----------    ---------------------------
 AV  .mps                 0.40:  Ann Velocity 
 AVMX.mps                 0.63:  Max Ann Veloc 
 AZIF.deg               158.76:  Azm, Final 
 BHAT.        Rotary Steerable:  BHA Type 
 BROT.°/30m               0.68:  Build Rotating 
 BS  .in                  8.50:  Bit Size 
 BSZ .in                  8.50:  Bit Size 
 BTPL.psig              712.00:  Bit Press Loss 
 CABU.                      No:  Customer Abuse 
 TCS .hr                 90.66:  Time Ciculation Ended 
 CV  .mps                 2.02:  Crit Velocity 
 CVMX.mps                 2.14:  Max Crit Veloc 
 DD1 .            Aziz Aliyevu:  Direct Drillr 1 
 DD2 .             Samir Abbas:  Direct Drillr 2 
 DD3 .           Teymur Aliyev:  Direct Drillr 3 
 DDSV.                 iCruise:  DD Service 
 DEFF.%                  85.10:  % Det Eff 
 DLRX.°/30m               1.05:  Dogleg Rot Max 
 DLSO.°/30m               1.01:  Dogleg Oriented 
 DLSX.°/30m               1.05:  Dogleg Str Max 
 DRET.      07.45.00 18-Jul-21:  Drill End Time 
 DRST.      15.00.00 16-Jul-21:  Drill Start Tim 
 DTIM.hr                 23.46:  Time Drilling 
 EDEP.m                4603.00:  End Depth 
 ENG1.       Seymur Iskandarov:  Engineer 1 
 ENG2.         Yevgeniy Ulikov:  Engineer 2 
 ENG3.         Bahruz Mehdiyev:  Engineer 3 
 ENG4.         Elchin Mammadov:  Engineer 4 
 ETIM.      14.00.00 23-Jul-21:  End Time 
 FLOI.gpm               500.00:  Flow In 
 FLON.gpm               450.00:  Flow In Min 
 FLOS.cptm                0.00:  Fluid Loss 
 FLOX.gpm               560.00:  Flow In Max 
 DFT .        Mineral Oil Base:  Mud Type 
 FTRO.       Formation Presure:  FTWD Run Obj 
 HFLO.                      No:  High Flow 
 HPRE.                      No:  High Pressure 
 HTEM.                      No:  High Temp 
 HYDO.m                   1.80:  Hydro Offset 
 IFIN.deg                40.22:  Inc, Final 
 IMAX.deg                40.54:  Inc Max 
 IMIN.deg                39.44:  Inc Min 
 IMND.m                4361.17:  Inc Min Depth 
 IMXD.m                4417.92:  Inc Max Depth 
 JARR.                      No:  Jarring 
 LETM.      07.45.00 18-Jul-21:  Log End Time 
 LOST.hr                    16:  Lost Rig Time 
 LSTM.      15.00.00 16-Jul-21:  Log Start Time 
 MDCL.ppm             36500.00:  Mud Chlorides 
 MDES.     Inversion Oil/Synthetic:  Mud Desc 
 DFD .sg                  1.42:  Mud Density 
 MDMN.sg                  1.42:  Dens Mud Min 
 MDMX.sg                  1.43:  Dens Mud Max 
 MOIL.                      56:  Run Mud Oil % 
 MOWR.                   71:29:  Run Mud OWR 
 MSND.                     0.5:  Run Mud Sand % 
 MSOL.                      21:  Run Mud Solids% 
 DFV .spqt               78.00:  Mud Viscosity 
 MWOD.in                  6.75:  MWD Tool OD 
 MWSI.                     Yes:  Serv Intrp, MWD 
 OTIM.hr                200.73:  Time Operating 
 PCON.           Look Like New:  Pad Condition 
 PMAX.psia            11069.93:  Press Op, Max 
 PV  .cP                 32.00:  Mud PV 
 RUN .                     700:  Run Number 
 ROPA.m/hr               10.00:  ROP Avg 
 ROPN.m/hr                9.00:  ROP Min 
 ROPX.m/hr               16.00:  ROP Max 
 RPMA.rpm               116.00:  RPM Surface Avg 
 RPMN.rpm                80.00:  RPM Surface Min 
 RPMX.rpm               120.00:  RPM Surface Max 
 RRUN.                    L605:  Rig Run Number 
 RTIM.hr                 45.00:  Time Reaming 
 SAZI.deg               159.86:  Azm, Start 
 SDEP.m                4315.00:  Start Depth 
 SIDD.                      No:  Serv Intrp, DD 
 SINC.deg                39.86:  Inc, Start 
 SPPA.psig             3300.00:  SPP Avg 
 SPPN.psig             3040.00:  SPP Min 
 SPPX.psig             3645.00:  SPP Max 
 STIM.      01.00.00 15-Jul-21:  Start Time 
 SVCS.                 DD, MWD:  Services 
 SVER.                    9.20:  Sperry Version 
 TDAT.m                 288.00:  Tot Depth Attmp 
 TDDF.                      No:  Trip for DD 
 TDLG.m                 288.00:  Tot Depth Loggd 
 TFF .                      No:  Trip for Fail 
 TQAA.f-kp               19.00:  Torque Abs Avg 
 TQAN.f-kp               18.00:  Torque Abs Min 
 TQAX.f-kp               21.00:  Torque Abs Max 
 TRRT.°/30m               0.45:  Turn Rotating 
 MRT .                    HCIM:  Maximum Recorded Temperature 
 TTMX.degC               88.24:  Max Tool Temp 
 VS01.                90649157:  Virtual Str1 SN 
 VS02.                90652483:  Virtual Str2 SN 
 VS03.                11671987:  Virtual Str3 SN 
 VS04.                90643411:  Virtual Str4 SN 
 VS05.                90652478:  Virtual Str5 SN 
 VS06.                    6111:  Virtual Str6 SN 
 WBMN.klb                 9.50:  WOB Min 
 WITN.        Grigoriy Sarayev:  Customer Rep 
 WITN.          Rufat Huseynov:  Customer Rep 2 
 WOBA.klb                11.00:  WOB Avg 
 WOBX.klb                15.00:  WOB Max 
 YP  .lhf2               28.00:  Yield Point 
~Curve Information Block
#MNEM.UNIT                 API CODE     Curve Description
#---------               -----------    ---------------------------
 TIME.HHMMSS            00 000 000 000:  GT Time & Date
 GTDEPTH.m              00 000 000 000:  GT Depth
 GTPQH.psia             00 000 000 000:  GT HR Quartz Pressure
 GTTQ.degC              00 000 000 000:  GT Quartz Temperature
 GTTN.NONE              00 000 000 000:  GT Test Number
 GTET.sec               00 000 000 000:  GT Elapsed Test Time
 GTTVD.m                00 000 000 000:  GT True Vertical Depth
#Other Information
#
#WARRANTY: Halliburton will use its best efforts to furnish customers with 
#accurate information and interpretations that are part of, and incident to, the services 
#provided.  However, Halliburton cannot and does not warrant the accuracy 
#or correctness of such information and interpretations.  Under no circumstances should any 
#such information or interpretation be relied upon as the sole basis for any drilling, 
#completion, production, or financial decision or any procedure involving any risk to the 
#safety of any drilling venture, drilling rig or its crew or any other third party.  The 
#Customer has full responsibility for all drilling, completion and production operation.  
#Halliburton makes no representations or warranties, either expressed or 
#implied, including, but not limited to, the implied warranties of merchantability or fitness 
#for a particular purpose, with respect to the services rendered.  In no event will 
#Halliburton be liable for failure to obtain any particular results or for 
#any damages, including, but not limited to, indirect, special or consequential damages, 
#resulting from the use of any information or interpretation provided by Halliburton.
#
~A           TIME           GTDEPTH  GTPQH  GTTQ  GTTN  GTET   GTTVD  
# ...
   14:49:32.813.18-Jul-2021 4553.00 6619.51 75.27 5.00 253.09 2740.81
   14:49:33.014.18-Jul-2021 4553.00 6619.51 75.27 5.00 253.29 2740.81
   14:49:33.214.18-Jul-2021 4553.00 6619.12 75.27 5.00 253.49 2740.81
   14:49:33.414.18-Jul-2021 4553.00 6619.31 75.27 5.00 253.69 2740.81
   14:49:33.614.18-Jul-2021 4553.00 6618.57 75.27 5.00 253.89 2740.81
   14:49:33.814.18-Jul-2021 4553.00 6618.02 75.27 5.00 254.09 2740.81
   14:49:34.014.18-Jul-2021 4553.00 6618.02 75.27 5.00 254.29 2740.81
   14:49:34.214.18-Jul-2021 4553.00 6619.11 75.27 5.00 254.49 2740.81
   14:49:34.414.18-Jul-2021 4553.00 6619.42 75.27 5.00 254.69 2740.81
   14:49:34.614.18-Jul-2021 4553.00 6619.29 75.27 5.00 254.89 2740.81
   14:49:34.814.18-Jul-2021 4553.00 6618.99 75.27 5.00 255.09 2740.81
   14:49:35.014.18-Jul-2021 4553.00 6618.99 75.27 5.00 255.29 2740.81
   14:49:35.214.18-Jul-2021 4553.00 6618.92 75.27 5.00 255.49 2740.81
   14:49:35.414.18-Jul-2021 4553.00 6618.64 75.27 5.00 255.69 2740.81
   14:49:35.614.18-Jul-2021 4553.00 6618.86 75.27 5.00 255.89 2740.81
   14:49:35.815.18-Jul-2021 4553.00 6618.83 75.27 5.00 256.09 2740.81
   14:49:36.015.18-Jul-2021 4553.00 6618.83 75.27 5.00 256.29 2740.81
   14:49:36.215.18-Jul-2021 4553.00 6618.37 75.27 5.00 256.49 2740.81
   14:49:36.415.18-Jul-2021 4553.00 6618.21 75.27 5.00 256.69 2740.81
   14:49:36.615.18-Jul-2021 4553.00 6617.66 75.27 5.00 256.89 2740.81
   14:49:36.815.18-Jul-2021 4553.00 6619.99 75.27 5.00 257.09 2740.81
   14:49:37.015.18-Jul-2021 4553.00 6619.99 75.27 5.00 257.29 2740.81
   14:49:37.215.18-Jul-2021 4553.00 6618.50 75.27 5.00 257.49 2740.81
   14:49:37.415.18-Jul-2021 4553.00 6618.52 75.27 5.00 257.69 2740.81
   14:49:37.615.18-Jul-2021 4553.00 6618.21 75.27 5.00 257.89 2740.81
   14:49:37.815.18-Jul-2021 4553.00 6617.93 75.27 5.00 258.10 2740.81
   14:49:38.015.18-Jul-2021 4553.00 6617.93 75.27 5.00 258.30 2740.81
   14:49:38.215.18-Jul-2021 4553.00 6617.86 75.27 5.00 258.50 2740.81
   14:49:38.416.18-Jul-2021 4553.00 6618.05 75.27 5.00 258.70 2740.81
   14:49:38.616.18-Jul-2021 4553.00 6617.95 75.27 5.00 258.90 2740.81
   14:49:38.816.18-Jul-2021 4553.00 6617.68 75.27 5.00 259.10 2740.81
   14:49:39.016.18-Jul-2021 4553.00 6617.68 75.27 5.00 259.30 2740.81
   14:49:39.216.18-Jul-2021 4553.00 6616.73 75.27 5.00 259.50 2740.81
   14:49:39.416.18-Jul-2021 4553.00 6618.86 75.27 5.00 259.70 2740.81
   14:49:39.616.18-Jul-2021 4553.00 6617.39 75.27 5.00 259.90 2740.81
   14:49:39.816.18-Jul-2021 4553.00 6616.97 75.27 5.00 260.10 2740.81
   14:49:40.016.18-Jul-2021 4553.00 6616.97 75.27 5.00 260.30 2740.81
   14:49:40.216.18-Jul-2021 4553.00 6618.92 75.27 5.00 260.50 2740.81
   14:49:40.416.18-Jul-2021 4553.00 6618.97 75.27 5.00 260.70 2740.81
   14:49:40.616.18-Jul-2021 4553.00 6619.35 75.27 5.00 260.90 2740.81
   14:49:40.816.18-Jul-2021 4553.00 6619.55 75.27 5.00 261.10 2740.81
   14:49:41.016.18-Jul-2021 4553.00 6619.55 75.27 5.00 261.30 2740.81
   14:49:41.217.18-Jul-2021 4553.00 6618.80 75.27 5.00 261.50 2740.81
   14:49:41.417.18-Jul-2021 4553.00 6619.08 75.27 5.00 261.70 2740.81
   14:49:41.617.18-Jul-2021 4553.00 6618.70 75.27 5.00 261.90 2740.81
   14:49:41.817.18-Jul-2021 4553.00 6617.61 75.27 5.00 262.10 2740.81
   14:49:42.017.18-Jul-2021 4553.00 6617.61 75.27 5.00 262.30 2740.81
   14:49:42.217.18-Jul-2021 4553.00 6619.84 75.27 5.00 262.50 2740.81
   14:49:42.417.18-Jul-2021 4553.00 6619.21 75.27 5.00 262.70 2740.81
   14:49:42.617.18-Jul-2021 4553.00 6618.99 75.27 5.00 262.90 2740.81
   14:49:42.817.18-Jul-2021 4553.00 6618.68 75.27 5.00 263.10 2740.81
   14:49:43.017.18-Jul-2021 4553.00 6618.68 75.27 5.00 263.30 2740.81
   14:49:43.217.18-Jul-2021 4553.00 6620.10 75.27 5.00 263.50 2740.81
   14:49:43.417.18-Jul-2021 4553.00 6618.97 75.27 5.00 263.70 2740.81
   14:49:43.617.18-Jul-2021 4553.00 6619.50 75.27 5.00 263.90 2740.81
   14:49:43.818.18-Jul-2021 4553.00 6619.08 75.27 5.00 264.10 2740.81
   14:49:44.018.18-Jul-2021 4553.00 6619.08 75.27 5.00 264.30 2740.81
   14:49:44.218.18-Jul-2021 4553.00 6618.64 75.27 5.00 264.50 2740.81
   14:49:44.418.18-Jul-2021 4553.00 6618.71 75.27 5.00 264.70 2740.81
   14:49:44.618.18-Jul-2021 4553.00 6618.53 75.27 5.00 264.90 2740.81
   14:49:44.818.18-Jul-2021 4553.00 6618.84 75.27 5.00 265.10 2740.81
   14:49:45.018.18-Jul-2021 4553.00 6618.84 75.27 5.00 265.30 2740.81
   14:49:45.218.18-Jul-2021 4553.00 6618.44 75.27 5.00 265.50 2740.81
   14:49:45.418.18-Jul-2021 4553.00 6618.32 75.27 5.00 265.70 2740.81
   14:49:45.618.18-Jul-2021 4553.00 6618.22 75.27 5.00 265.90 2740.81
   14:49:45.818.18-Jul-2021 4553.00 6617.99 75.27 5.00 266.10 2740.81
   14:49:46.018.18-Jul-2021 4553.00 6617.99 75.27 5.00 266.30 2740.81
   14:49:46.218.18-Jul-2021 4553.00 6618.19 75.27 5.00 266.50 2740.81
   14:49:46.418.18-Jul-2021 4553.00 6618.98 75.27 5.00 266.70 2740.81
   14:49:46.619.18-Jul-2021 4553.00 6618.84 75.27 5.00 266.90 2740.81
   14:49:46.819.18-Jul-2021 4553.00 6618.54 75.27 5.00 267.10 2740.81
   14:49:47.019.18-Jul-2021 4553.00 6618.54 75.27 5.00 267.30 2740.81
   14:49:47.219.18-Jul-2021 4553.00 6618.37 75.27 5.00 267.50 2740.81
   14:49:47.419.18-Jul-2021 4553.00 6618.48 75.27 5.00 267.70 2740.81
   14:49:47.619.18-Jul-2021 4553.00 6618.37 75.27 5.00 267.90 2740.81
   14:49:47.819.18-Jul-2021 4553.00 6618.28 75.27 5.00 268.10 2740.81
   14:49:48.019.18-Jul-2021 4553.00 6618.28 75.27 5.00 268.30 2740.81
   14:49:48.219.18-Jul-2021 4553.00 6618.04 75.27 5.00 268.50 2740.81
   14:49:48.419.18-Jul-2021 4553.00 6617.32 75.27 5.00 268.70 2740.81
   14:49:48.619.18-Jul-2021 4553.00 6619.25 75.27 5.00 268.90 2740.81
   14:49:48.819.18-Jul-2021 4553.00 6618.21 75.27 5.00 269.10 2740.81
   14:49:49.019.18-Jul-2021 4553.00 6618.21 75.27 5.00 269.30 2740.81
   14:49:49.220.18-Jul-2021 4553.00 6620.90 75.27 5.00 269.50 2740.81
   14:49:49.420.18-Jul-2021 4553.00 6618.51 75.27 5.00 269.70 2740.81
   14:49:49.620.18-Jul-2021 4553.00 6618.44 75.27 5.00 269.90 2740.81
   14:49:49.820.18-Jul-2021 4553.00 6618.51 75.27 5.00 270.10 2740.81
   14:49:50.020.18-Jul-2021 4553.00 6618.51 75.27 5.00 270.30 2740.81
   14:49:50.220.18-Jul-2021 4553.00 6619.16 75.27 5.00 270.50 2740.81
   14:49:50.420.18-Jul-2021 4553.00 6618.12 75.27 5.00 270.70 2740.81
   14:49:50.620.18-Jul-2021 4553.00 6618.34 75.27 5.00 270.90 2740.81
   14:49:50.820.18-Jul-2021 4553.00 6617.76 75.27 5.00 271.10 2740.81
   14:49:51.020.18-Jul-2021 4553.00 6617.76 75.27 5.00 271.30 2740.81
   14:49:51.220.18-Jul-2021 4553.00 6619.37 75.27 5.00 271.50 2740.81
   14:49:51.420.18-Jul-2021 4553.00 6618.58 75.27 5.00 271.70 2740.81
   14:49:51.620.18-Jul-2021 4553.00 6618.85 75.27 5.00 271.90 2740.81
   14:49:51.820.18-Jul-2021 4553.00 6617.22 75.27 5.00 272.10 2740.81
   14:49:52.021.18-Jul-2021 4553.00 6617.22 75.27 5.00 272.30 2740.81
   14:49:52.221.18-Jul-2021 4553.00 6618.58 75.27 5.00 272.50 2740.81
   14:49:52.421.18-Jul-2021 4553.00 6618.55 75.27 5.00 272.70 2740.81
   14:49:52.621.18-Jul-2021 4553.00 6618.62 75.27 5.00 272.90 2740.81
   14:49:52.821.18-Jul-2021 4553.00 6618.03 75.27 5.00 273.10 2740.81
   14:49:53.021.18-Jul-2021 4553.00 6618.03 75.27 5.00 273.30 2740.81
   14:49:53.221.18-Jul-2021 4553.00 6617.96 75.27 5.00 273.50 2740.81
   14:49:53.421.18-Jul-2021 4553.00 6618.01 75.27 5.00 273.70 2740.81
   14:49:53.621.18-Jul-2021 4553.00 6617.99 75.27 5.00 273.90 2740.81
   14:49:53.821.18-Jul-2021 4553.00 6618.01 75.27 5.00 274.10 2740.81
   14:49:54.021.18-Jul-2021 4553.00 6618.01 75.27 5.00 274.30 2740.81
   14:49:54.221.18-Jul-2021 4553.00 6617.96 75.27 5.00 274.50 2740.81
   14:49:54.421.18-Jul-2021 4553.00 6617.86 75.27 5.00 274.70 2740.81
   14:49:54.621.18-Jul-2021 4553.00 6617.51 75.27 5.00 274.90 2740.81
   14:49:54.822.18-Jul-2021 4553.00 6618.56 75.27 5.00 275.10 2740.81
   14:49:55.022.18-Jul-2021 4553.00 6618.56 75.27 5.00 275.30 2740.81
   14:49:55.222.18-Jul-2021 4553.00 6618.27 75.27 5.00 275.50 2740.81
   14:49:55.422.18-Jul-2021 4553.00 6619.05 75.27 5.00 275.70 2740.81
   14:49:55.622.18-Jul-2021 4553.00 6618.12 75.27 5.00 275.90 2740.81
