~Version Information
 VERS.                  2.0:   CWLS log ASCII Standard -VERSION 2.0
 WRAP.                   NO:   One line per depth step
~Well Information Block
#MNEM.UNIT     VALUE/NAME     DESCRIPTION
#---------     -----------    ---------------------------
 STRT.S             12:47:54 19-Jul-21: START TIME 12:47:54 19-Jul-21
 STOP.S             12:54:48 19-Jul-21: STOP TIME  12:54:48 19-Jul-21
 STEP.S                   0.00: STEP TIME
 NULL.                 -999.25: NULL VALUE
 MDS .        Operator Entered:  MAG DATA SOURCE
 PDAT.          Mean Sea Level:  PERMANENT DATUM
 UNIT.                     N/A:  LOGGING EQUIPMENT ID
 DCON.         Sperry Drilling:  DIRECTNL CONTR
 DOE .                     N/A:  DOE NUMBER
 RIG .              West Azeri:  RIG NAME
 JOBN.        AZ-XX-0906997913:  JOB TICKET NUMB
 WELL.                     C41:  WELL NAME
 MWDS.                    Baku:  MWD SHOP
 SRVC.          Turan Drilling:  CONTRACTOR
 FLD .                     ACG:  FIELD NAME
 CTRY.              Azerbaijan:  COUNTRY NAME
 PROV.                    Baku:  PROVINCE
 STAT.                    Baku:  STATE NAME
 REGN.                   EESSA:  REGION
 BASE.              Azerbaijan:  LOGGING EQUIPMENT BASE LOCATION
 UWI .                     N/A:  UNIQUE WELL IDENTIFIER
 API .                     N/A:  API NUMBER
 COMP.     BP Exploration (Caspian Sea) Ltd.:  COMPANY
 WTYP.                Deviated:  WELL TYPE
 SON .        AZ-XX-0906997913:  JOB NUMBER
 FTOP.          Formation Tops:  FORM TOPS DESC
 ILTD.               Lithology:  INTERP LTH DESC
 SVYD.                  Survey:  SURVEY DESC
 DMOD.             Drill Model:  DRILL MOD DESC
 HPTY.       Minimum Curvature:  HOLE POS TYPE
 NREF.                    Grid:  NORTH REFERENCE
 SPUD.               16-May-21:  SPUD DATE
 DATE.      21.11.28 17-May-21:  END TIME
 STIM.      21.11.28 17-May-21:  START TIME
 DMF .             Drill Floor:  DRILL MEAS FROM
 DFST.                        :  DIST FSL TEXT
 DFWT.                        :  DIST FWL TEXT
 CNTY.                        :  COUNTY
 LOC .                        :  LOCATION
 LMF .             Drill Floor:  LOG MEASURED FROM
 AGAP.m                  43.42:  AIR GAP
 VSNS.m                  -2.16:  VERT SEC N/S
 VSEW.m                  -6.24:  VERT SEC E/W
 APD .m                  43.42:  DEPTH ABOVE PD
 WDMS.m                 118.27:  WD ELEV
 EGL .m                   0.00:  GROUND ELEVATION
 EPD .m                   0.00:  ELEVATION
 AZTC.deg                 6.29:  AZM TOTAL CORR
 GRDC.deg                 0.18:  GRID CORRECTION
 MDEC.deg                 6.47:  MAGNETIC DECL
 MDIP.deg                59.54:  MAGNETIC DIP
 MFLD.nT              50337.00:  MAGNETIC FIELD
 GVFD.g                   1.00:  GRAVITY FIELD
 VSDR.deg               226.99:  VERT SEC DIRECT
 TDD .m                   0.00:  TOTAL DEPTH (DRILLER)
 SDEP.m                 448.00:  START DEPTH
 DFSL.m                   0.00:  DISTANCE FSL
 DFWL.m                   0.00:  DISTANCE FWL
 UTMY.m             4435799.96:  UTM Y
 UTMX.m              526265.35:  UTM X
 WHEW.m                  -6.24:  WELL HEAD E/W
 WHNS.m                  -2.16:  WELL HEAD N/S
 LONG.deg                51.31:  LONGITUDE
 LATI.deg                40.06:  LATITUDE
 TVDS.m                  43.42:  TVDSS CORRECTN
 EKB .m                  43.42:  KB ELEVATION
 EDF .m                  43.42:  DF ELEVATION
 TDL .m                 288.00:  TOTAL DEPTH (LOGGER)
 MAGU.                 1851863:  MAGUTM CHECKSUM
 VSC .                       0:  VS TO CLOSURE
~Parameter Information Block
#MNEM.UNIT       Value        Description
#---------     -----------    ---------------------------
 AV  .mps                 0.40:  Ann Velocity 
 AVMX.mps                 0.63:  Max Ann Veloc 
 AZIF.deg               158.76:  Azm, Final 
 BHAT.        Rotary Steerable:  BHA Type 
 BROT.°/30m               0.68:  Build Rotating 
 BS  .in                  8.50:  Bit Size 
 BSZ .in                  8.50:  Bit Size 
 BTPL.psig              712.00:  Bit Press Loss 
 CABU.                      No:  Customer Abuse 
 TCS .hr                 90.66:  Time Ciculation Ended 
 CV  .mps                 2.02:  Crit Velocity 
 CVMX.mps                 2.14:  Max Crit Veloc 
 DD1 .            Aziz Aliyevu:  Direct Drillr 1 
 DD2 .             Samir Abbas:  Direct Drillr 2 
 DD3 .           Teymur Aliyev:  Direct Drillr 3 
 DDSV.                 iCruise:  DD Service 
 DEFF.%                  85.10:  % Det Eff 
 DLRX.°/30m               1.05:  Dogleg Rot Max 
 DLSO.°/30m               1.01:  Dogleg Oriented 
 DLSX.°/30m               1.05:  Dogleg Str Max 
 DRET.      07.45.00 18-Jul-21:  Drill End Time 
 DRST.      15.00.00 16-Jul-21:  Drill Start Tim 
 DTIM.hr                 23.46:  Time Drilling 
 EDEP.m                4603.00:  End Depth 
 ENG1.       Seymur Iskandarov:  Engineer 1 
 ENG2.         Yevgeniy Ulikov:  Engineer 2 
 ENG3.         Bahruz Mehdiyev:  Engineer 3 
 ENG4.         Elchin Mammadov:  Engineer 4 
 ETIM.      14.00.00 23-Jul-21:  End Time 
 FLOI.gpm               500.00:  Flow In 
 FLON.gpm               450.00:  Flow In Min 
 FLOS.cptm                0.00:  Fluid Loss 
 FLOX.gpm               560.00:  Flow In Max 
 DFT .        Mineral Oil Base:  Mud Type 
 FTRO.       Formation Presure:  FTWD Run Obj 
 HFLO.                      No:  High Flow 
 HPRE.                      No:  High Pressure 
 HTEM.                      No:  High Temp 
 HYDO.m                   1.80:  Hydro Offset 
 IFIN.deg                40.22:  Inc, Final 
 IMAX.deg                40.54:  Inc Max 
 IMIN.deg                39.44:  Inc Min 
 IMND.m                4361.17:  Inc Min Depth 
 IMXD.m                4417.92:  Inc Max Depth 
 JARR.                      No:  Jarring 
 LETM.      07.45.00 18-Jul-21:  Log End Time 
 LOST.hr                    16:  Lost Rig Time 
 LSTM.      15.00.00 16-Jul-21:  Log Start Time 
 MDCL.ppm             36500.00:  Mud Chlorides 
 MDES.     Inversion Oil/Synthetic:  Mud Desc 
 DFD .sg                  1.42:  Mud Density 
 MDMN.sg                  1.42:  Dens Mud Min 
 MDMX.sg                  1.43:  Dens Mud Max 
 MOIL.                      56:  Run Mud Oil % 
 MOWR.                   71:29:  Run Mud OWR 
 MSND.                     0.5:  Run Mud Sand % 
 MSOL.                      21:  Run Mud Solids% 
 DFV .spqt               78.00:  Mud Viscosity 
 MWOD.in                  6.75:  MWD Tool OD 
 MWSI.                     Yes:  Serv Intrp, MWD 
 OTIM.hr                200.73:  Time Operating 
 PCON.           Look Like New:  Pad Condition 
 PMAX.psia            11069.93:  Press Op, Max 
 PV  .cP                 32.00:  Mud PV 
 RUN .                     700:  Run Number 
 ROPA.m/hr               10.00:  ROP Avg 
 ROPN.m/hr                9.00:  ROP Min 
 ROPX.m/hr               16.00:  ROP Max 
 RPMA.rpm               116.00:  RPM Surface Avg 
 RPMN.rpm                80.00:  RPM Surface Min 
 RPMX.rpm               120.00:  RPM Surface Max 
 RRUN.                    L605:  Rig Run Number 
 RTIM.hr                 45.00:  Time Reaming 
 SAZI.deg               159.86:  Azm, Start 
 SDEP.m                4315.00:  Start Depth 
 SIDD.                      No:  Serv Intrp, DD 
 SINC.deg                39.86:  Inc, Start 
 SPPA.psig             3300.00:  SPP Avg 
 SPPN.psig             3040.00:  SPP Min 
 SPPX.psig             3645.00:  SPP Max 
 STIM.      01.00.00 15-Jul-21:  Start Time 
 SVCS.                 DD, MWD:  Services 
 SVER.                    9.20:  Sperry Version 
 TDAT.m                 288.00:  Tot Depth Attmp 
 TDDF.                      No:  Trip for DD 
 TDLG.m                 288.00:  Tot Depth Loggd 
 TFF .                      No:  Trip for Fail 
 TQAA.f-kp               19.00:  Torque Abs Avg 
 TQAN.f-kp               18.00:  Torque Abs Min 
 TQAX.f-kp               21.00:  Torque Abs Max 
 TRRT.°/30m               0.45:  Turn Rotating 
 MRT .                    HCIM:  Maximum Recorded Temperature 
 TTMX.degC               88.24:  Max Tool Temp 
 VS01.                90649157:  Virtual Str1 SN 
 VS02.                90652483:  Virtual Str2 SN 
 VS03.                11671987:  Virtual Str3 SN 
 VS04.                90643411:  Virtual Str4 SN 
 VS05.                90652478:  Virtual Str5 SN 
 VS06.                    6111:  Virtual Str6 SN 
 WBMN.klb                 9.50:  WOB Min 
 WITN.        Grigoriy Sarayev:  Customer Rep 
 WITN.          Rufat Huseynov:  Customer Rep 2 
 WOBA.klb                11.00:  WOB Avg 
 WOBX.klb                15.00:  WOB Max 
 YP  .lhf2               28.00:  Yield Point 
~Curve Information Block
#MNEM.UNIT                 API CODE     Curve Description
#---------               -----------    ---------------------------
 TIME.HHMMSS            00 000 000 000:  GT Time & Date
 GTDEPTH.m              00 000 000 000:  GT Depth
 GTPQH.psia             00 000 000 000:  GT HR Quartz Pressure
 GTTQ.degC              00 000 000 000:  GT Quartz Temperature
 GTTN.NONE              00 000 000 000:  GT Test Number
 GTET.sec               00 000 000 000:  GT Elapsed Test Time
 GTTVD.m                00 000 000 000:  GT True Vertical Depth
#Other Information
#
#WARRANTY: Halliburton will use its best efforts to furnish customers with 
#accurate information and interpretations that are part of, and incident to, the services 
#provided.  However, Halliburton cannot and does not warrant the accuracy 
#or correctness of such information and interpretations.  Under no circumstances should any 
#such information or interpretation be relied upon as the sole basis for any drilling, 
#completion, production, or financial decision or any procedure involving any risk to the 
#safety of any drilling venture, drilling rig or its crew or any other third party.  The 
#Customer has full responsibility for all drilling, completion and production operation.  
#Halliburton makes no representations or warranties, either expressed or 
#implied, including, but not limited to, the implied warranties of merchantability or fitness 
#for a particular purpose, with respect to the services rendered.  In no event will 
#Halliburton be liable for failure to obtain any particular results or for 
#any damages, including, but not limited to, indirect, special or consequential damages, 
#resulting from the use of any information or interpretation provided by Halliburton.
#
~A           TIME           GTDEPTH  GTPQH  GTTQ  GTTN   GTET   GTTVD  
# ...
   12:48:17.548.19-Jul-2021 4545.00 6608.09 70.99 27.00  22.61 2734.68
   12:48:17.748.19-Jul-2021 4545.00 6605.66 70.99 27.00  22.81 2734.68
   12:48:17.948.19-Jul-2021 4545.00 6632.08 70.99 27.00  23.01 2734.68
   12:48:18.148.19-Jul-2021 4545.00 6632.08 70.99 27.00  23.21 2734.68
   12:48:18.348.19-Jul-2021 4545.00 6604.91 70.99 27.00  23.41 2734.68
   12:48:18.548.19-Jul-2021 4545.00 6614.05 70.99 27.00  23.61 2734.68
   12:48:18.748.19-Jul-2021 4545.00 6638.29 70.99 27.00  23.81 2734.68
   12:48:18.948.19-Jul-2021 4545.00 6609.44 70.99 27.00  24.01 2734.68
   12:48:19.149.19-Jul-2021 4545.00 6609.44 70.99 27.00  24.21 2734.68
   12:48:19.349.19-Jul-2021 4545.00 6613.25 70.99 27.00  24.41 2734.68
   12:48:19.549.19-Jul-2021 4545.00 6631.65 70.99 27.00  24.61 2734.68
   12:48:19.749.19-Jul-2021 4545.00 6615.70 70.99 27.00  24.81 2734.68
   12:48:19.949.19-Jul-2021 4545.00 6610.34 70.99 27.00  25.01 2734.68
   12:48:20.149.19-Jul-2021 4545.00 6610.34 70.99 27.00  25.21 2734.68
   12:48:20.349.19-Jul-2021 4545.00 6626.90 70.99 27.00  25.41 2734.68
   12:48:20.549.19-Jul-2021 4545.00 6622.60 70.99 27.00  25.61 2734.68
   12:48:20.749.19-Jul-2021 4545.00 6612.63 70.99 27.00  25.81 2734.68
   12:48:20.949.19-Jul-2021 4545.00 6613.52 70.99 27.00  26.01 2734.68
   12:48:21.149.19-Jul-2021 4545.00 6613.52 70.99 27.00  26.21 2734.68
   12:48:21.349.19-Jul-2021 4545.00 6612.53 70.99 27.00  26.41 2734.68
   12:48:21.549.19-Jul-2021 4545.00 6611.64 70.99 27.00  26.61 2734.68
   12:48:21.750.19-Jul-2021 4545.00 6612.63 70.99 27.00  26.81 2734.68
   12:48:21.950.19-Jul-2021 4545.00 6612.89 70.99 27.00  27.01 2734.68
   12:48:22.150.19-Jul-2021 4545.00 6612.89 70.99 27.00  27.21 2734.68
   12:48:22.350.19-Jul-2021 4545.00 6612.73 70.99 27.00  27.41 2734.68
   12:48:22.550.19-Jul-2021 4545.00 6612.84 70.99 27.00  27.61 2734.68
   12:48:22.750.19-Jul-2021 4545.00 6613.24 70.99 27.00  27.81 2734.68
   12:48:22.950.19-Jul-2021 4545.00 6614.81 70.99 27.00  28.01 2734.68
   12:48:23.150.19-Jul-2021 4545.00 6614.81 70.99 27.00  28.21 2734.68
   12:48:23.350.19-Jul-2021 4545.00 6632.95 70.99 27.00  28.41 2734.68
   12:48:23.550.19-Jul-2021 4545.00 6620.18 70.99 27.00  28.61 2734.68
   12:48:23.750.19-Jul-2021 4545.00 6615.70 70.99 27.00  28.81 2734.68
   12:48:23.950.19-Jul-2021 4545.00 6620.46 70.99 27.00  29.01 2734.68
   12:48:24.150.19-Jul-2021 4545.00 6620.46 70.99 27.00  29.21 2734.68
   12:48:24.350.19-Jul-2021 4545.00 6614.45 70.99 27.00  29.41 2734.68
   12:48:24.551.19-Jul-2021 4545.00 6614.50 70.99 27.00  29.61 2734.68
   12:48:24.751.19-Jul-2021 4545.00 6616.54 70.99 27.00  29.81 2734.68
   12:48:24.951.19-Jul-2021 4545.00 6619.68 70.99 27.00  30.01 2734.68
   12:48:25.151.19-Jul-2021 4545.00 6619.68 70.99 27.00  30.21 2734.68
   12:48:25.351.19-Jul-2021 4545.00 6602.17 70.99 27.00  30.41 2734.68
   12:48:25.551.19-Jul-2021 4545.00 6593.33 70.99 27.00  30.61 2734.68
   12:48:25.751.19-Jul-2021 4545.00 6577.90 70.99 27.00  30.81 2734.68
   12:48:25.951.19-Jul-2021 4545.00 6559.50 70.99 27.00  31.01 2734.68
   12:48:26.151.19-Jul-2021 4545.00 6559.50 70.99 27.00  31.21 2734.68
   12:48:26.351.19-Jul-2021 4545.00 6483.29 70.99 27.00  31.41 2734.68
   12:48:26.551.19-Jul-2021 4545.00 6462.81 70.99 27.00  31.61 2734.68
   12:48:26.751.19-Jul-2021 4545.00 6436.56 70.99 27.00  31.81 2734.68
   12:48:26.951.19-Jul-2021 4545.00 6415.67 70.99 27.00  32.01 2734.68
   12:48:27.152.19-Jul-2021 4545.00 6415.67 70.99 27.00  32.21 2734.68
   12:48:27.352.19-Jul-2021 4545.00 6391.36 70.99 27.00  32.41 2734.68
   12:48:27.552.19-Jul-2021 4545.00 6381.61 70.99 27.00  32.61 2734.68
   12:48:27.752.19-Jul-2021 4545.00 6372.78 70.99 27.00  32.81 2734.68
   12:48:27.952.19-Jul-2021 4545.00 6367.53 70.99 27.00  33.01 2734.68
   12:48:28.152.19-Jul-2021 4545.00 6367.53 70.99 27.00  33.21 2734.68
   12:48:28.352.19-Jul-2021 4545.00 6355.98 70.99 27.00  33.41 2734.68
   12:48:28.552.19-Jul-2021 4545.00 6349.94 70.99 27.00  33.61 2734.68
   12:48:28.752.19-Jul-2021 4545.00 6344.60 70.99 27.00  33.81 2734.68
   12:48:28.952.19-Jul-2021 4545.00 6340.18 70.99 27.00  34.01 2734.68
   12:48:29.152.19-Jul-2021 4545.00 6340.18 70.99 27.00  34.21 2734.68
   12:48:29.352.19-Jul-2021 4545.00 6340.18 70.99 27.00  34.41 2734.68
   12:48:29.552.19-Jul-2021 4545.00 6326.86 70.99 27.00  34.61 2734.68
   12:48:29.752.19-Jul-2021 4545.00 6325.48 70.99 27.00  34.81 2734.68
   12:48:29.953.19-Jul-2021 4545.00 6324.27 70.99 27.00  35.01 2734.68
   12:48:30.153.19-Jul-2021 4545.00 6324.27 70.99 27.00  35.21 2734.68
   12:48:30.353.19-Jul-2021 4545.00 6322.43 70.99 27.00  35.41 2734.68
   12:48:30.553.19-Jul-2021 4545.00 6321.70 70.99 27.00  35.61 2734.68
   12:48:30.753.19-Jul-2021 4545.00 6320.58 70.99 27.00  35.81 2734.68
   12:48:30.953.19-Jul-2021 4545.00 6291.22 70.99 27.00  36.01 2734.68
   12:48:31.153.19-Jul-2021 4545.00 6291.22 70.99 27.00  36.21 2734.68
   12:48:31.353.19-Jul-2021 4545.00 4656.59 70.99 27.00  36.41 2734.68
   12:48:31.553.19-Jul-2021 4545.00 3930.30 70.99 27.00  36.61 2734.68
   12:48:31.753.19-Jul-2021 4545.00 3908.17 70.99 27.00  36.81 2734.68
   12:48:31.953.19-Jul-2021 4545.00 3929.00 70.99 27.00  37.01 2734.68
   12:48:32.153.19-Jul-2021 4545.00 3929.00 70.99 27.00  37.21 2734.68
   12:48:32.353.19-Jul-2021 4545.00 3923.54 70.99 27.00  37.41 2734.68
   12:48:32.553.19-Jul-2021 4545.00 3926.56 70.98 27.00  37.61 2734.68
   12:48:32.754.19-Jul-2021 4545.00 3920.73 70.98 27.00  37.81 2734.68
   12:48:32.954.19-Jul-2021 4545.00 3921.87 70.98 27.00  38.01 2734.68
   12:48:33.154.19-Jul-2021 4545.00 3921.87 70.98 27.00  38.21 2734.68
   12:48:33.354.19-Jul-2021 4545.00 3920.62 70.98 27.00  38.41 2734.68
   12:48:33.554.19-Jul-2021 4545.00 3919.74 70.98 27.00  38.61 2734.68
   12:48:33.754.19-Jul-2021 4545.00 3914.68 70.98 27.00  38.81 2734.68
   12:48:33.954.19-Jul-2021 4545.00 3918.30 70.98 27.00  39.01 2734.68
   12:48:34.154.19-Jul-2021 4545.00 3918.30 70.98 27.00  39.21 2734.68
   12:48:34.354.19-Jul-2021 4545.00 3918.97 70.97 27.00  39.41 2734.68
   12:48:34.554.19-Jul-2021 4545.00 3916.34 70.97 27.00  39.61 2734.68
   12:48:34.754.19-Jul-2021 4545.00 3913.90 70.97 27.00  39.81 2734.68
   12:48:34.954.19-Jul-2021 4545.00 3916.32 70.97 27.00  40.01 2734.68
   12:48:35.154.19-Jul-2021 4545.00 3916.32 70.97 27.00  40.21 2734.68
   12:48:35.355.19-Jul-2021 4545.00 3917.80 70.97 27.00  40.41 2734.68
   12:48:35.555.19-Jul-2021 4545.00 3909.76 70.96 27.00  40.61 2734.68
   12:48:35.755.19-Jul-2021 4545.00 3915.10 70.96 27.00  40.82 2734.68
   12:48:35.955.19-Jul-2021 4545.00 3915.09 70.96 27.00  41.02 2734.68
   12:48:36.155.19-Jul-2021 4545.00 3915.09 70.96 27.00  41.22 2734.68
   12:48:36.355.19-Jul-2021 4545.00 3915.62 70.96 27.00  41.42 2734.68
   12:48:36.555.19-Jul-2021 4545.00 3910.58 70.96 27.00  41.62 2734.68
   12:48:36.755.19-Jul-2021 4545.00 3915.30 70.95 27.00  41.82 2734.68
   12:48:36.955.19-Jul-2021 4545.00 3914.73 70.95 27.00  42.02 2734.68
   12:48:37.155.19-Jul-2021 4545.00 3914.73 70.95 27.00  42.22 2734.68
   12:48:37.355.19-Jul-2021 4545.00 3910.84 70.95 27.00  42.42 2734.68
   12:48:37.555.19-Jul-2021 4545.00 3908.62 70.95 27.00  42.62 2734.68
   12:48:37.755.19-Jul-2021 4545.00 3917.76 70.95 27.00  42.82 2734.68
   12:48:37.955.19-Jul-2021 4545.00 3913.15 70.95 27.00  43.02 2734.68
   12:48:38.156.19-Jul-2021 4545.00 3913.15 70.95 27.00  43.22 2734.68
   12:48:38.356.19-Jul-2021 4545.00 3911.20 70.95 27.00  43.42 2734.68
   12:48:38.556.19-Jul-2021 4545.00 3912.70 70.95 27.00  43.62 2734.68
   12:48:38.756.19-Jul-2021 4545.00 3916.14 70.94 27.00  43.82 2734.68
   12:48:38.956.19-Jul-2021 4545.00 3907.37 70.94 27.00  44.02 2734.68
   12:48:39.156.19-Jul-2021 4545.00 3907.37 70.94 27.00  44.22 2734.68
   12:48:39.356.19-Jul-2021 4545.00 3913.93 70.94 27.00  44.42 2734.68
   12:48:39.556.19-Jul-2021 4545.00 3913.47 70.94 27.00  44.62 2734.68
   12:48:39.756.19-Jul-2021 4545.00 3912.08 70.94 27.00  44.82 2734.68
   12:48:39.956.19-Jul-2021 4545.00 3913.15 70.94 27.00  45.02 2734.68
