~Version Information
 VERS.                  2.0:   CWLS log ASCII Standard -VERSION 2.0
 WRAP.                   NO:   One line per depth step
~Well Information Block
#MNEM.UNIT     VALUE/NAME     DESCRIPTION
#---------     -----------    ---------------------------
 STRT.S             17:59:38 18-Jul-21: START TIME 17:59:38 18-Jul-21
 STOP.S             18:06:07 18-Jul-21: STOP TIME  18:06:07 18-Jul-21
 STEP.S                   0.00: STEP TIME
 NULL.                 -999.25: NULL VALUE
 MDS .        Operator Entered:  MAG DATA SOURCE
 PDAT.          Mean Sea Level:  PERMANENT DATUM
 UNIT.                     N/A:  LOGGING EQUIPMENT ID
 DCON.         Sperry Drilling:  DIRECTNL CONTR
 DOE .                     N/A:  DOE NUMBER
 RIG .              West Azeri:  RIG NAME
 JOBN.        AZ-XX-0906997913:  JOB TICKET NUMB
 WELL.                     C41:  WELL NAME
 MWDS.                    Baku:  MWD SHOP
 SRVC.          Turan Drilling:  CONTRACTOR
 FLD .                     ACG:  FIELD NAME
 CTRY.              Azerbaijan:  COUNTRY NAME
 PROV.                    Baku:  PROVINCE
 STAT.                    Baku:  STATE NAME
 REGN.                   EESSA:  REGION
 BASE.              Azerbaijan:  LOGGING EQUIPMENT BASE LOCATION
 UWI .                     N/A:  UNIQUE WELL IDENTIFIER
 API .                     N/A:  API NUMBER
 COMP.     BP Exploration (Caspian Sea) Ltd.:  COMPANY
 WTYP.                Deviated:  WELL TYPE
 SON .        AZ-XX-0906997913:  JOB NUMBER
 FTOP.          Formation Tops:  FORM TOPS DESC
 ILTD.               Lithology:  INTERP LTH DESC
 SVYD.                  Survey:  SURVEY DESC
 DMOD.             Drill Model:  DRILL MOD DESC
 HPTY.       Minimum Curvature:  HOLE POS TYPE
 NREF.                    Grid:  NORTH REFERENCE
 SPUD.               16-May-21:  SPUD DATE
 DATE.      21.11.28 17-May-21:  END TIME
 STIM.      21.11.28 17-May-21:  START TIME
 DMF .             Drill Floor:  DRILL MEAS FROM
 DFST.                        :  DIST FSL TEXT
 DFWT.                        :  DIST FWL TEXT
 CNTY.                        :  COUNTY
 LOC .                        :  LOCATION
 LMF .             Drill Floor:  LOG MEASURED FROM
 AGAP.m                  43.42:  AIR GAP
 VSNS.m                  -2.16:  VERT SEC N/S
 VSEW.m                  -6.24:  VERT SEC E/W
 APD .m                  43.42:  DEPTH ABOVE PD
 WDMS.m                 118.27:  WD ELEV
 EGL .m                   0.00:  GROUND ELEVATION
 EPD .m                   0.00:  ELEVATION
 AZTC.deg                 6.29:  AZM TOTAL CORR
 GRDC.deg                 0.18:  GRID CORRECTION
 MDEC.deg                 6.47:  MAGNETIC DECL
 MDIP.deg                59.54:  MAGNETIC DIP
 MFLD.nT              50337.00:  MAGNETIC FIELD
 GVFD.g                   1.00:  GRAVITY FIELD
 VSDR.deg               226.99:  VERT SEC DIRECT
 TDD .m                   0.00:  TOTAL DEPTH (DRILLER)
 SDEP.m                 448.00:  START DEPTH
 DFSL.m                   0.00:  DISTANCE FSL
 DFWL.m                   0.00:  DISTANCE FWL
 UTMY.m             4435799.96:  UTM Y
 UTMX.m              526265.35:  UTM X
 WHEW.m                  -6.24:  WELL HEAD E/W
 WHNS.m                  -2.16:  WELL HEAD N/S
 LONG.deg                51.31:  LONGITUDE
 LATI.deg                40.06:  LATITUDE
 TVDS.m                  43.42:  TVDSS CORRECTN
 EKB .m                  43.42:  KB ELEVATION
 EDF .m                  43.42:  DF ELEVATION
 TDL .m                 288.00:  TOTAL DEPTH (LOGGER)
 MAGU.                 1851863:  MAGUTM CHECKSUM
 VSC .                       0:  VS TO CLOSURE
~Parameter Information Block
#MNEM.UNIT       Value        Description
#---------     -----------    ---------------------------
 AV  .mps                 0.40:  Ann Velocity 
 AVMX.mps                 0.63:  Max Ann Veloc 
 AZIF.deg               158.76:  Azm, Final 
 BHAT.        Rotary Steerable:  BHA Type 
 BROT.°/30m               0.68:  Build Rotating 
 BS  .in                  8.50:  Bit Size 
 BSZ .in                  8.50:  Bit Size 
 BTPL.psig              712.00:  Bit Press Loss 
 CABU.                      No:  Customer Abuse 
 COMM.                     Ä"ƒ:  Run Comments 1 
 TCS .hr                 90.66:  Time Ciculation Ended 
 CV  .mps                 2.02:  Crit Velocity 
 CVMX.mps                 2.14:  Max Crit Veloc 
 DD1 .            Aziz Aliyevu:  Direct Drillr 1 
 DD2 .             Samir Abbas:  Direct Drillr 2 
 DD3 .           Teymur Aliyev:  Direct Drillr 3 
 DDSV.                 iCruise:  DD Service 
 DEFF.%                  85.10:  % Det Eff 
 DLRX.°/30m               1.05:  Dogleg Rot Max 
 DLSO.°/30m               1.01:  Dogleg Oriented 
 DLSX.°/30m               1.05:  Dogleg Str Max 
 DRET.      07.45.00 18-Jul-21:  Drill End Time 
 DRST.      15.00.00 16-Jul-21:  Drill Start Tim 
 DTIM.hr                 23.46:  Time Drilling 
 EDEP.m                4603.00:  End Depth 
 ENG1.       Seymur Iskandarov:  Engineer 1 
 ENG2.         Yevgeniy Ulikov:  Engineer 2 
 ENG3.         Bahruz Mehdiyev:  Engineer 3 
 ENG4.         Elchin Mammadov:  Engineer 4 
 ETIM.      14.00.00 23-Jul-21:  End Time 
 FLOI.gpm               500.00:  Flow In 
 FLON.gpm               450.00:  Flow In Min 
 FLOS.cptm                0.00:  Fluid Loss 
 FLOX.gpm               560.00:  Flow In Max 
 DFT .        Mineral Oil Base:  Mud Type 
 FTRO.       Formation Presure:  FTWD Run Obj 
 HFLO.                      No:  High Flow 
 HPRE.                      No:  High Pressure 
 HTEM.                      No:  High Temp 
 HYDO.m                   1.80:  Hydro Offset 
 IFIN.deg                40.22:  Inc, Final 
 IMAX.deg                40.54:  Inc Max 
 IMIN.deg                39.44:  Inc Min 
 IMND.m                4361.17:  Inc Min Depth 
 IMXD.m                4417.92:  Inc Max Depth 
 JARR.                      No:  Jarring 
 LETM.      07.45.00 18-Jul-21:  Log End Time 
 LOST.hr                    16:  Lost Rig Time 
 LSTM.      15.00.00 16-Jul-21:  Log Start Time 
 MDCL.ppm             36500.00:  Mud Chlorides 
 MDES.     Inversion Oil/Synthetic:  Mud Desc 
 DFD .sg                  1.42:  Mud Density 
 MDMN.sg                  1.42:  Dens Mud Min 
 MDMX.sg                  1.43:  Dens Mud Max 
 MOIL.                      56:  Run Mud Oil % 
 MOWR.                   71:29:  Run Mud OWR 
 MSND.                     0.5:  Run Mud Sand % 
 MSOL.                      21:  Run Mud Solids% 
 DFV .spqt               78.00:  Mud Viscosity 
 MWOD.in                  6.75:  MWD Tool OD 
 MWSI.                     Yes:  Serv Intrp, MWD 
 OTIM.hr                200.73:  Time Operating 
 PCON.           Look Like New:  Pad Condition 
 PMAX.psia            11069.93:  Press Op, Max 
 PV  .cP                 32.00:  Mud PV 
 RUN .                     700:  Run Number 
 ROPA.m/hr               10.00:  ROP Avg 
 ROPN.m/hr                9.00:  ROP Min 
 ROPX.m/hr               16.00:  ROP Max 
 RPMA.rpm               116.00:  RPM Surface Avg 
 RPMN.rpm                80.00:  RPM Surface Min 
 RPMX.rpm               120.00:  RPM Surface Max 
 RRUN.                    L605:  Rig Run Number 
 RTIM.hr                 45.00:  Time Reaming 
 SAZI.deg               159.86:  Azm, Start 
 SDEP.m                4315.00:  Start Depth 
 SIDD.                      No:  Serv Intrp, DD 
 SINC.deg                39.86:  Inc, Start 
 SPPA.psig             3300.00:  SPP Avg 
 SPPN.psig             3040.00:  SPP Min 
 SPPX.psig             3645.00:  SPP Max 
 STIM.      01.00.00 15-Jul-21:  Start Time 
 SVCS.                 DD, MWD:  Services 
 SVER.                    9.20:  Sperry Version 
 TDAT.m                 288.00:  Tot Depth Attmp 
 TDDF.                      No:  Trip for DD 
 TDLG.m                 288.00:  Tot Depth Loggd 
 TFF .                      No:  Trip for Fail 
 TQAA.f-kp               19.00:  Torque Abs Avg 
 TQAN.f-kp               18.00:  Torque Abs Min 
 TQAX.f-kp               21.00:  Torque Abs Max 
 TRRT.°/30m               0.45:  Turn Rotating 
 MRT .                    HCIM:  Maximum Recorded Temperature 
 TTMX.degC               88.24:  Max Tool Temp 
 VS01.                90649157:  Virtual Str1 SN 
 VS02.                90652483:  Virtual Str2 SN 
 VS03.                11671987:  Virtual Str3 SN 
 VS04.                90643411:  Virtual Str4 SN 
 VS05.                90652478:  Virtual Str5 SN 
 VS06.                    6111:  Virtual Str6 SN 
 WBMN.klb                 9.50:  WOB Min 
 WITN.        Grigoriy Sarayev:  Customer Rep 
 WITN.          Rufat Huseynov:  Customer Rep 2 
 WOBA.klb                11.00:  WOB Avg 
 WOBX.klb                15.00:  WOB Max 
 YP  .lhf2               28.00:  Yield Point 
~Curve Information Block
#MNEM.UNIT                 API CODE     Curve Description
#---------               -----------    ---------------------------
 TIME.HHMMSS            00 000 000 000:  GT Time & Date
 GTDEPTH.m              00 000 000 000:  GT Depth
 GTPQH.psia             00 000 000 000:  GT HR Quartz Pressure
 GTTQ.degC              00 000 000 000:  GT Quartz Temperature
 GTTN.NONE              00 000 000 000:  GT Test Number
 GTET.sec               00 000 000 000:  GT Elapsed Test Time
 GTTVD.m                00 000 000 000:  GT True Vertical Depth
#Other Information
#
#WARRANTY: Halliburton will use its best efforts to furnish customers with 
#accurate information and interpretations that are part of, and incident to, the services 
#provided.  However, Halliburton cannot and does not warrant the accuracy 
#or correctness of such information and interpretations.  Under no circumstances should any 
#such information or interpretation be relied upon as the sole basis for any drilling, 
#completion, production, or financial decision or any procedure involving any risk to the 
#safety of any drilling venture, drilling rig or its crew or any other third party.  The 
#Customer has full responsibility for all drilling, completion and production operation.  
#Halliburton makes no representations or warranties, either expressed or 
#implied, including, but not limited to, the implied warranties of merchantability or fitness 
#for a particular purpose, with respect to the services rendered.  In no event will 
#Halliburton be liable for failure to obtain any particular results or for 
#any damages, including, but not limited to, indirect, special or consequential damages, 
#resulting from the use of any information or interpretation provided by Halliburton.
#
~A           TIME           GTDEPTH  GTPQH  GTTQ  GTTN  GTET   GTTVD  
# ...
   18:03:28.098.18-Jul-2021 4487.50 5848.09 73.22 7.00 230.08 2690.71
   18:03:28.298.18-Jul-2021 4487.50 5848.09 73.22 7.00 230.28 2690.71
   18:03:28.498.18-Jul-2021 4487.50 5847.99 73.22 7.00 230.48 2690.71
   18:03:28.698.18-Jul-2021 4487.50 5848.03 73.22 7.00 230.68 2690.71
   18:03:28.898.18-Jul-2021 4487.50 5848.10 73.22 7.00 230.89 2690.71
   18:03:29.098.18-Jul-2021 4487.50 5848.09 73.22 7.00 231.09 2690.71
   18:03:29.298.18-Jul-2021 4487.50 5848.09 73.22 7.00 231.29 2690.71
   18:03:29.498.18-Jul-2021 4487.50 5848.01 73.22 7.00 231.49 2690.71
   18:03:29.698.18-Jul-2021 4487.50 5846.23 73.22 7.00 231.69 2690.71
   18:03:29.898.18-Jul-2021 4487.50 5848.14 73.22 7.00 231.89 2690.71
   18:03:30.098.18-Jul-2021 4487.50 5847.84 73.22 7.00 232.09 2690.71
   18:03:30.299.18-Jul-2021 4487.50 5847.84 73.22 7.00 232.29 2690.71
   18:03:30.499.18-Jul-2021 4487.50 5847.72 73.22 7.00 232.49 2690.71
   18:03:30.699.18-Jul-2021 4487.50 5847.44 73.22 7.00 232.69 2690.71
   18:03:30.899.18-Jul-2021 4487.50 5847.68 73.22 7.00 232.89 2690.71
   18:03:31.099.18-Jul-2021 4487.50 5846.35 73.22 7.00 233.09 2690.71
   18:03:31.299.18-Jul-2021 4487.50 5846.35 73.22 7.00 233.29 2690.71
   18:03:31.499.18-Jul-2021 4487.50 5847.52 73.22 7.00 233.49 2690.71
   18:03:31.699.18-Jul-2021 4487.50 5847.45 73.22 7.00 233.69 2690.71
   18:03:31.899.18-Jul-2021 4487.50 5847.01 73.22 7.00 233.89 2690.71
   18:03:32.099.18-Jul-2021 4487.50 5846.94 73.22 7.00 234.09 2690.71
   18:03:32.299.18-Jul-2021 4487.50 5846.94 73.22 7.00 234.29 2690.71
   18:03:32.499.18-Jul-2021 4487.50 5846.99 73.22 7.00 234.49 2690.71
   18:03:32.699.18-Jul-2021 4487.50 5846.50 73.22 7.00 234.69 2690.71
   18:03:32.899.18-Jul-2021 4487.50 5846.94 73.22 7.00 234.89 2690.71
   18:03:33.100.18-Jul-2021 4487.50 5846.60 73.22 7.00 235.09 2690.71
   18:03:33.300.18-Jul-2021 4487.50 5846.60 73.22 7.00 235.29 2690.71
   18:03:33.500.18-Jul-2021 4487.50 5846.34 73.22 7.00 235.49 2690.71
   18:03:33.700.18-Jul-2021 4487.50 5846.72 73.22 7.00 235.69 2690.71
   18:03:33.900.18-Jul-2021 4487.50 5846.62 73.22 7.00 235.89 2690.71
   18:03:34.100.18-Jul-2021 4487.50 5846.39 73.22 7.00 236.09 2690.71
   18:03:34.300.18-Jul-2021 4487.50 5846.39 73.22 7.00 236.29 2690.71
   18:03:34.500.18-Jul-2021 4487.50 5846.34 73.22 7.00 236.49 2690.71
   18:03:34.700.18-Jul-2021 4487.50 5846.34 73.22 7.00 236.69 2690.71
   18:03:34.900.18-Jul-2021 4487.50 5846.43 73.22 7.00 236.89 2690.71
   18:03:35.100.18-Jul-2021 4487.50 5846.45 73.22 7.00 237.09 2690.71
   18:03:35.300.18-Jul-2021 4487.50 5846.45 73.22 7.00 237.29 2690.71
   18:03:35.500.18-Jul-2021 4487.50 5846.19 73.22 7.00 237.49 2690.71
   18:03:35.700.18-Jul-2021 4487.50 5846.17 73.22 7.00 237.69 2690.71
   18:03:35.901.18-Jul-2021 4487.50 5846.20 73.22 7.00 237.89 2690.71
   18:03:36.101.18-Jul-2021 4487.50 5844.92 73.22 7.00 238.09 2690.71
   18:03:36.301.18-Jul-2021 4487.50 5844.92 73.22 7.00 238.29 2690.71
   18:03:36.501.18-Jul-2021 4487.50 5846.38 73.22 7.00 238.49 2690.71
   18:03:36.701.18-Jul-2021 4487.50 5846.24 73.22 7.00 238.69 2690.71
   18:03:36.901.18-Jul-2021 4487.50 5846.05 73.22 7.00 238.89 2690.71
   18:03:37.101.18-Jul-2021 4487.50 5846.05 73.22 7.00 239.09 2690.71
   18:03:37.301.18-Jul-2021 4487.50 5846.05 73.22 7.00 239.29 2690.71
   18:03:37.501.18-Jul-2021 4487.50 5846.11 73.22 7.00 239.49 2690.71
   18:03:37.701.18-Jul-2021 4487.50 5846.21 73.22 7.00 239.69 2690.71
   18:03:37.901.18-Jul-2021 4487.50 5846.17 73.22 7.00 239.89 2690.71
   18:03:38.101.18-Jul-2021 4487.50 5846.06 73.22 7.00 240.09 2690.71
   18:03:38.301.18-Jul-2021 4487.50 5846.06 73.22 7.00 240.29 2690.71
   18:03:38.502.18-Jul-2021 4487.50 5845.99 73.22 7.00 240.49 2690.71
   18:03:38.702.18-Jul-2021 4487.50 5845.84 73.22 7.00 240.69 2690.71
   18:03:38.902.18-Jul-2021 4487.50 5844.46 73.22 7.00 240.89 2690.71
   18:03:39.102.18-Jul-2021 4487.50 5845.88 73.22 7.00 241.09 2690.71
   18:03:39.302.18-Jul-2021 4487.50 5845.88 73.22 7.00 241.29 2690.71
   18:03:39.502.18-Jul-2021 4487.50 5845.97 73.22 7.00 241.49 2690.71
   18:03:39.702.18-Jul-2021 4487.50 5845.82 73.22 7.00 241.69 2690.71
   18:03:39.902.18-Jul-2021 4487.50 5846.09 73.22 7.00 241.89 2690.71
   18:03:40.102.18-Jul-2021 4487.50 5845.95 73.22 7.00 242.09 2690.71
   18:03:40.302.18-Jul-2021 4487.50 5845.95 73.22 7.00 242.29 2690.71
   18:03:40.502.18-Jul-2021 4487.50 5844.28 73.22 7.00 242.49 2690.71
   18:03:40.702.18-Jul-2021 4487.50 5845.73 73.22 7.00 242.69 2690.71
   18:03:40.902.18-Jul-2021 4487.50 5846.02 73.22 7.00 242.89 2690.71
   18:03:41.102.18-Jul-2021 4487.50 5845.60 73.22 7.00 243.09 2690.71
   18:03:41.303.18-Jul-2021 4487.50 5845.60 73.22 7.00 243.29 2690.71
   18:03:41.503.18-Jul-2021 4487.50 5845.92 73.22 7.00 243.49 2690.71
   18:03:41.703.18-Jul-2021 4487.50 5845.36 73.22 7.00 243.69 2690.71
   18:03:41.903.18-Jul-2021 4487.50 5845.57 73.22 7.00 243.89 2690.71
   18:03:42.103.18-Jul-2021 4487.50 5845.18 73.22 7.00 244.09 2690.71
   18:03:42.303.18-Jul-2021 4487.50 5845.18 73.22 7.00 244.29 2690.71
   18:03:42.503.18-Jul-2021 4487.50 5844.98 73.22 7.00 244.49 2690.71
   18:03:42.703.18-Jul-2021 4487.50 5845.41 73.22 7.00 244.69 2690.71
   18:03:42.903.18-Jul-2021 4487.50 5845.23 73.22 7.00 244.89 2690.71
   18:03:43.103.18-Jul-2021 4487.50 5845.05 73.21 7.00 245.09 2690.71
   18:03:43.303.18-Jul-2021 4487.50 5845.05 73.21 7.00 245.29 2690.71
   18:03:43.503.18-Jul-2021 4487.50 5844.94 73.21 7.00 245.49 2690.71
   18:03:43.703.18-Jul-2021 4487.50 5844.87 73.21 7.00 245.69 2690.71
   18:03:43.904.18-Jul-2021 4487.50 5844.96 73.21 7.00 245.89 2690.71
   18:03:44.104.18-Jul-2021 4487.50 5844.89 73.21 7.00 246.09 2690.71
   18:03:44.304.18-Jul-2021 4487.50 5844.89 73.21 7.00 246.29 2690.71
   18:03:44.504.18-Jul-2021 4487.50 5844.80 73.21 7.00 246.49 2690.71
   18:03:44.704.18-Jul-2021 4487.50 5844.61 73.21 7.00 246.69 2690.71
   18:03:44.904.18-Jul-2021 4487.50 5844.68 73.21 7.00 246.89 2690.71
   18:03:45.104.18-Jul-2021 4487.50 5843.45 73.21 7.00 247.09 2690.71
   18:03:45.304.18-Jul-2021 4487.50 5843.45 73.21 7.00 247.29 2690.71
   18:03:45.504.18-Jul-2021 4487.50 5844.76 73.21 7.00 247.49 2690.71
   18:03:45.704.18-Jul-2021 4487.50 5844.51 73.21 7.00 247.69 2690.71
   18:03:45.904.18-Jul-2021 4487.50 5844.32 73.21 7.00 247.89 2690.71
   18:03:46.104.18-Jul-2021 4487.50 5844.42 73.21 7.00 248.09 2690.71
   18:03:46.304.18-Jul-2021 4487.50 5844.42 73.21 7.00 248.29 2690.71
   18:03:46.504.18-Jul-2021 4487.50 5844.35 73.21 7.00 248.49 2690.71
   18:03:46.705.18-Jul-2021 4487.50 5836.63 73.21 7.00 248.69 2690.71
   18:03:46.905.18-Jul-2021 4487.50 5824.54 73.21 7.00 248.89 2690.71
   18:03:47.105.18-Jul-2021 4487.50 5820.30 73.21 7.00 249.09 2690.71
   18:03:47.305.18-Jul-2021 4487.50 5820.30 73.21 7.00 249.29 2690.71
   18:03:47.505.18-Jul-2021 4487.50 5814.34 73.21 7.00 249.49 2690.71
   18:03:47.705.18-Jul-2021 4487.50 5813.19 73.21 7.00 249.69 2690.71
   18:03:47.905.18-Jul-2021 4487.50 5808.73 73.21 7.00 249.89 2690.71
   18:03:48.105.18-Jul-2021 4487.50 5807.33 73.21 7.00 250.09 2690.71
   18:03:48.305.18-Jul-2021 4487.50 5807.33 73.21 7.00 250.29 2690.71
   18:03:48.505.18-Jul-2021 4487.50 5804.35 73.21 7.00 250.49 2690.71
   18:03:48.705.18-Jul-2021 4487.50 5803.21 73.21 7.00 250.69 2690.71
   18:03:48.905.18-Jul-2021 4487.50 5802.84 73.21 7.00 250.89 2690.71
   18:03:49.105.18-Jul-2021 4487.50 5802.52 73.21 7.00 251.09 2690.71
   18:03:49.306.18-Jul-2021 4487.50 5802.52 73.21 7.00 251.29 2690.71
   18:03:49.506.18-Jul-2021 4487.50 5800.00 73.21 7.00 251.49 2690.71
   18:03:49.706.18-Jul-2021 4487.50 5799.91 73.21 7.00 251.69 2690.71
   18:03:49.906.18-Jul-2021 4487.50 5800.02 73.21 7.00 251.89 2690.71
   18:03:50.106.18-Jul-2021 4487.50 5799.81 73.21 7.00 252.09 2690.71
   18:03:50.306.18-Jul-2021 4487.50 5799.81 73.21 7.00 252.29 2690.71
   18:03:50.506.18-Jul-2021 4487.50 5798.30 73.21 7.00 252.49 2690.71
   18:03:50.706.18-Jul-2021 4487.50 5798.23 73.21 7.00 252.69 2690.71
   18:03:50.906.18-Jul-2021 4487.50 5797.79 73.21 7.00 252.89 2690.71
