~Version Information
 VERS.                  2.0:   CWLS log ASCII Standard -VERSION 2.0
 WRAP.                   NO:   One line per depth step
~Well Information Block
#MNEM.UNIT     VALUE/NAME     DESCRIPTION
#---------     -----------    ---------------------------
 STRT.S             17:59:38 18-Jul-21: START TIME 17:59:38 18-Jul-21
 STOP.S             18:06:07 18-Jul-21: STOP TIME  18:06:07 18-Jul-21
 STEP.S                   0.00: STEP TIME
 NULL.                 -999.25: NULL VALUE
 MDS .        Operator Entered:  MAG DATA SOURCE
 PDAT.          Mean Sea Level:  PERMANENT DATUM
 UNIT.                     N/A:  LOGGING EQUIPMENT ID
 DCON.         Sperry Drilling:  DIRECTNL CONTR
 DOE .                     N/A:  DOE NUMBER
 RIG .              West Azeri:  RIG NAME
 JOBN.        AZ-XX-0906997913:  JOB TICKET NUMB
 WELL.                     C41:  WELL NAME
 MWDS.                    Baku:  MWD SHOP
 SRVC.          Turan Drilling:  CONTRACTOR
 FLD .                     ACG:  FIELD NAME
 CTRY.              Azerbaijan:  COUNTRY NAME
 PROV.                    Baku:  PROVINCE
 STAT.                    Baku:  STATE NAME
 REGN.                   EESSA:  REGION
 BASE.              Azerbaijan:  LOGGING EQUIPMENT BASE LOCATION
 UWI .                     N/A:  UNIQUE WELL IDENTIFIER
 API .                     N/A:  API NUMBER
 COMP.     BP Exploration (Caspian Sea) Ltd.:  COMPANY
 WTYP.                Deviated:  WELL TYPE
 SON .        AZ-XX-0906997913:  JOB NUMBER
 FTOP.          Formation Tops:  FORM TOPS DESC
 ILTD.               Lithology:  INTERP LTH DESC
 SVYD.                  Survey:  SURVEY DESC
 DMOD.             Drill Model:  DRILL MOD DESC
 HPTY.       Minimum Curvature:  HOLE POS TYPE
 NREF.                    Grid:  NORTH REFERENCE
 SPUD.               16-May-21:  SPUD DATE
 DATE.      21.11.28 17-May-21:  END TIME
 STIM.      21.11.28 17-May-21:  START TIME
 DMF .             Drill Floor:  DRILL MEAS FROM
 DFST.                        :  DIST FSL TEXT
 DFWT.                        :  DIST FWL TEXT
 CNTY.                        :  COUNTY
 LOC .                        :  LOCATION
 LMF .             Drill Floor:  LOG MEASURED FROM
 AGAP.m                  43.42:  AIR GAP
 VSNS.m                  -2.16:  VERT SEC N/S
 VSEW.m                  -6.24:  VERT SEC E/W
 APD .m                  43.42:  DEPTH ABOVE PD
 WDMS.m                 118.27:  WD ELEV
 EGL .m                   0.00:  GROUND ELEVATION
 EPD .m                   0.00:  ELEVATION
 AZTC.deg                 6.29:  AZM TOTAL CORR
 GRDC.deg                 0.18:  GRID CORRECTION
 MDEC.deg                 6.47:  MAGNETIC DECL
 MDIP.deg                59.54:  MAGNETIC DIP
 MFLD.nT              50337.00:  MAGNETIC FIELD
 GVFD.g                   1.00:  GRAVITY FIELD
 VSDR.deg               226.99:  VERT SEC DIRECT
 TDD .m                   0.00:  TOTAL DEPTH (DRILLER)
 SDEP.m                 448.00:  START DEPTH
 DFSL.m                   0.00:  DISTANCE FSL
 DFWL.m                   0.00:  DISTANCE FWL
 UTMY.m             4435799.96:  UTM Y
 UTMX.m              526265.35:  UTM X
 WHEW.m                  -6.24:  WELL HEAD E/W
 WHNS.m                  -2.16:  WELL HEAD N/S
 LONG.deg                51.31:  LONGITUDE
 LATI.deg                40.06:  LATITUDE
 TVDS.m                  43.42:  TVDSS CORRECTN
 EKB .m                  43.42:  KB ELEVATION
 EDF .m                  43.42:  DF ELEVATION
 TDL .m                 288.00:  TOTAL DEPTH (LOGGER)
 MAGU.                 1851863:  MAGUTM CHECKSUM
 VSC .                       0:  VS TO CLOSURE
~Parameter Information Block
#MNEM.UNIT       Value        Description
#---------     -----------    ---------------------------
 AV  .mps                 0.40:  Ann Velocity 
 AVMX.mps                 0.63:  Max Ann Veloc 
 AZIF.deg               158.76:  Azm, Final 
 BHAT.        Rotary Steerable:  BHA Type 
 BROT.°/30m               0.68:  Build Rotating 
 BS  .in                  8.50:  Bit Size 
 BSZ .in                  8.50:  Bit Size 
 BTPL.psig              712.00:  Bit Press Loss 
 CABU.                      No:  Customer Abuse 
 COMM.                     Ä"ƒ:  Run Comments 1 
 TCS .hr                 90.66:  Time Ciculation Ended 
 CV  .mps                 2.02:  Crit Velocity 
 CVMX.mps                 2.14:  Max Crit Veloc 
 DD1 .            Aziz Aliyevu:  Direct Drillr 1 
 DD2 .             Samir Abbas:  Direct Drillr 2 
 DD3 .           Teymur Aliyev:  Direct Drillr 3 
 DDSV.                 iCruise:  DD Service 
 DEFF.%                  85.10:  % Det Eff 
 DLRX.°/30m               1.05:  Dogleg Rot Max 
 DLSO.°/30m               1.01:  Dogleg Oriented 
 DLSX.°/30m               1.05:  Dogleg Str Max 
 DRET.      07.45.00 18-Jul-21:  Drill End Time 
 DRST.      15.00.00 16-Jul-21:  Drill Start Tim 
 DTIM.hr                 23.46:  Time Drilling 
 EDEP.m                4603.00:  End Depth 
 ENG1.       Seymur Iskandarov:  Engineer 1 
 ENG2.         Yevgeniy Ulikov:  Engineer 2 
 ENG3.         Bahruz Mehdiyev:  Engineer 3 
 ENG4.         Elchin Mammadov:  Engineer 4 
 ETIM.      14.00.00 23-Jul-21:  End Time 
 FLOI.gpm               500.00:  Flow In 
 FLON.gpm               450.00:  Flow In Min 
 FLOS.cptm                0.00:  Fluid Loss 
 FLOX.gpm               560.00:  Flow In Max 
 DFT .        Mineral Oil Base:  Mud Type 
 FTRO.       Formation Presure:  FTWD Run Obj 
 HFLO.                      No:  High Flow 
 HPRE.                      No:  High Pressure 
 HTEM.                      No:  High Temp 
 HYDO.m                   1.80:  Hydro Offset 
 IFIN.deg                40.22:  Inc, Final 
 IMAX.deg                40.54:  Inc Max 
 IMIN.deg                39.44:  Inc Min 
 IMND.m                4361.17:  Inc Min Depth 
 IMXD.m                4417.92:  Inc Max Depth 
 JARR.                      No:  Jarring 
 LETM.      07.45.00 18-Jul-21:  Log End Time 
 LOST.hr                    16:  Lost Rig Time 
 LSTM.      15.00.00 16-Jul-21:  Log Start Time 
 MDCL.ppm             36500.00:  Mud Chlorides 
 MDES.     Inversion Oil/Synthetic:  Mud Desc 
 DFD .sg                  1.42:  Mud Density 
 MDMN.sg                  1.42:  Dens Mud Min 
 MDMX.sg                  1.43:  Dens Mud Max 
 MOIL.                      56:  Run Mud Oil % 
 MOWR.                   71:29:  Run Mud OWR 
 MSND.                     0.5:  Run Mud Sand % 
 MSOL.                      21:  Run Mud Solids% 
 DFV .spqt               78.00:  Mud Viscosity 
 MWOD.in                  6.75:  MWD Tool OD 
 MWSI.                     Yes:  Serv Intrp, MWD 
 OTIM.hr                200.73:  Time Operating 
 PCON.           Look Like New:  Pad Condition 
 PMAX.psia            11069.93:  Press Op, Max 
 PV  .cP                 32.00:  Mud PV 
 RUN .                     700:  Run Number 
 ROPA.m/hr               10.00:  ROP Avg 
 ROPN.m/hr                9.00:  ROP Min 
 ROPX.m/hr               16.00:  ROP Max 
 RPMA.rpm               116.00:  RPM Surface Avg 
 RPMN.rpm                80.00:  RPM Surface Min 
 RPMX.rpm               120.00:  RPM Surface Max 
 RRUN.                    L605:  Rig Run Number 
 RTIM.hr                 45.00:  Time Reaming 
 SAZI.deg               159.86:  Azm, Start 
 SDEP.m                4315.00:  Start Depth 
 SIDD.                      No:  Serv Intrp, DD 
 SINC.deg                39.86:  Inc, Start 
 SPPA.psig             3300.00:  SPP Avg 
 SPPN.psig             3040.00:  SPP Min 
 SPPX.psig             3645.00:  SPP Max 
 STIM.      01.00.00 15-Jul-21:  Start Time 
 SVCS.                 DD, MWD:  Services 
 SVER.                    9.20:  Sperry Version 
 TDAT.m                 288.00:  Tot Depth Attmp 
 TDDF.                      No:  Trip for DD 
 TDLG.m                 288.00:  Tot Depth Loggd 
 TFF .                      No:  Trip for Fail 
 TQAA.f-kp               19.00:  Torque Abs Avg 
 TQAN.f-kp               18.00:  Torque Abs Min 
 TQAX.f-kp               21.00:  Torque Abs Max 
 TRRT.°/30m               0.45:  Turn Rotating 
 MRT .                    HCIM:  Maximum Recorded Temperature 
 TTMX.degC               88.24:  Max Tool Temp 
 VS01.                90649157:  Virtual Str1 SN 
 VS02.                90652483:  Virtual Str2 SN 
 VS03.                11671987:  Virtual Str3 SN 
 VS04.                90643411:  Virtual Str4 SN 
 VS05.                90652478:  Virtual Str5 SN 
 VS06.                    6111:  Virtual Str6 SN 
 WBMN.klb                 9.50:  WOB Min 
 WITN.        Grigoriy Sarayev:  Customer Rep 
 WITN.          Rufat Huseynov:  Customer Rep 2 
 WOBA.klb                11.00:  WOB Avg 
 WOBX.klb                15.00:  WOB Max 
 YP  .lhf2               28.00:  Yield Point 
~Curve Information Block
#MNEM.UNIT                 API CODE     Curve Description
#---------               -----------    ---------------------------
 TIME.HHMMSS            00 000 000 000:  GT Time & Date
 GTDEPTH.m              00 000 000 000:  GT Depth
 GTPQH.psia             00 000 000 000:  GT HR Quartz Pressure
 GTTQ.degC              00 000 000 000:  GT Quartz Temperature
 GTTN.NONE              00 000 000 000:  GT Test Number
 GTET.sec               00 000 000 000:  GT Elapsed Test Time
 GTTVD.m                00 000 000 000:  GT True Vertical Depth
#Other Information
#
#WARRANTY: Halliburton will use its best efforts to furnish customers with 
#accurate information and interpretations that are part of, and incident to, the services 
#provided.  However, Halliburton cannot and does not warrant the accuracy 
#or correctness of such information and interpretations.  Under no circumstances should any 
#such information or interpretation be relied upon as the sole basis for any drilling, 
#completion, production, or financial decision or any procedure involving any risk to the 
#safety of any drilling venture, drilling rig or its crew or any other third party.  The 
#Customer has full responsibility for all drilling, completion and production operation.  
#Halliburton makes no representations or warranties, either expressed or 
#implied, including, but not limited to, the implied warranties of merchantability or fitness 
#for a particular purpose, with respect to the services rendered.  In no event will 
#Halliburton be liable for failure to obtain any particular results or for 
#any damages, including, but not limited to, indirect, special or consequential damages, 
#resulting from the use of any information or interpretation provided by Halliburton.
#
~A           TIME           GTDEPTH  GTPQH  GTTQ  GTTN  GTET   GTTVD  
# ...
   18:05:46.149.18-Jul-2021 4487.50 6583.85 73.21 7.00 368.14 2690.71
   18:05:46.349.18-Jul-2021 4487.50 6583.85 73.21 7.00 368.34 2690.71
   18:05:46.549.18-Jul-2021 4487.50 6581.91 73.21 7.00 368.54 2690.71
   18:05:46.749.18-Jul-2021 4487.50 6580.90 73.21 7.00 368.74 2690.71
   18:05:46.949.18-Jul-2021 4487.50 6580.63 73.21 7.00 368.94 2690.71
   18:05:47.149.18-Jul-2021 4487.50 6580.46 73.21 7.00 369.14 2690.71
   18:05:47.349.18-Jul-2021 4487.50 6580.46 73.21 7.00 369.34 2690.71
   18:05:47.549.18-Jul-2021 4487.50 6580.10 73.21 7.00 369.54 2690.71
   18:05:47.749.18-Jul-2021 4487.50 6580.82 73.21 7.00 369.74 2690.71
   18:05:47.949.18-Jul-2021 4487.50 6607.09 73.21 7.00 369.94 2690.71
   18:05:48.149.18-Jul-2021 4487.50 6574.40 73.21 7.00 370.14 2690.71
   18:05:48.349.18-Jul-2021 4487.50 6574.40 73.21 7.00 370.34 2690.71
   18:05:48.549.18-Jul-2021 4487.50 6606.45 73.21 7.00 370.54 2690.71
   18:05:48.749.18-Jul-2021 4487.50 6587.28 73.21 7.00 370.74 2690.71
   18:05:48.950.18-Jul-2021 4487.50 6586.60 73.21 7.00 370.94 2690.71
   18:05:49.150.18-Jul-2021 4487.50 6585.05 73.21 7.00 371.14 2690.71
   18:05:49.350.18-Jul-2021 4487.50 6585.05 73.21 7.00 371.34 2690.71
   18:05:49.550.18-Jul-2021 4487.50 6601.88 73.21 7.00 371.54 2690.71
   18:05:49.750.18-Jul-2021 4487.50 6577.54 73.21 7.00 371.74 2690.71
   18:05:49.950.18-Jul-2021 4487.50 6591.65 73.21 7.00 371.94 2690.71
   18:05:50.150.18-Jul-2021 4487.50 6585.50 73.21 7.00 372.14 2690.71
   18:05:50.350.18-Jul-2021 4487.50 6585.50 73.21 7.00 372.34 2690.71
   18:05:50.550.18-Jul-2021 4487.50 6587.21 73.21 7.00 372.54 2690.71
   18:05:50.750.18-Jul-2021 4487.50 6587.40 73.21 7.00 372.74 2690.71
   18:05:50.950.18-Jul-2021 4487.50 6585.02 73.21 7.00 372.94 2690.71
   18:05:51.150.18-Jul-2021 4487.50 6593.29 73.21 7.00 373.14 2690.71
   18:05:51.350.18-Jul-2021 4487.50 6593.29 73.21 7.00 373.34 2690.71
   18:05:51.551.18-Jul-2021 4487.50 6593.16 73.21 7.00 373.54 2690.71
   18:05:51.751.18-Jul-2021 4487.50 6585.92 73.21 7.00 373.74 2690.71
   18:05:51.951.18-Jul-2021 4487.50 6585.58 73.21 7.00 373.94 2690.71
   18:05:52.151.18-Jul-2021 4487.50 6585.73 73.21 7.00 374.14 2690.71
   18:05:52.351.18-Jul-2021 4487.50 6585.73 73.21 7.00 374.34 2690.71
   18:05:52.551.18-Jul-2021 4487.50 6583.73 73.21 7.00 374.54 2690.71
   18:05:52.751.18-Jul-2021 4487.50 6584.39 73.21 7.00 374.74 2690.71
   18:05:52.951.18-Jul-2021 4487.50 6583.69 73.21 7.00 374.94 2690.71
   18:05:53.151.18-Jul-2021 4487.50 6583.50 73.21 7.00 375.14 2690.71
   18:05:53.351.18-Jul-2021 4487.50 6583.50 73.21 7.00 375.34 2690.71
   18:05:53.551.18-Jul-2021 4487.50 6585.08 73.21 7.00 375.54 2690.71
   18:05:53.751.18-Jul-2021 4487.50 6583.95 73.21 7.00 375.74 2690.71
   18:05:53.951.18-Jul-2021 4487.50 6581.59 73.21 7.00 375.94 2690.71
   18:05:54.151.18-Jul-2021 4487.50 6597.16 73.21 7.00 376.14 2690.71
   18:05:54.352.18-Jul-2021 4487.50 6597.16 73.21 7.00 376.34 2690.71
   18:05:54.552.18-Jul-2021 4487.50 6584.75 73.21 7.00 376.54 2690.71
   18:05:54.752.18-Jul-2021 4487.50 6584.42 73.21 7.00 376.74 2690.71
   18:05:54.952.18-Jul-2021 4487.50 6583.75 73.21 7.00 376.94 2690.71
   18:05:55.152.18-Jul-2021 4487.50 6581.55 73.21 7.00 377.14 2690.71
   18:05:55.352.18-Jul-2021 4487.50 6581.55 73.21 7.00 377.34 2690.71
   18:05:55.552.18-Jul-2021 4487.50 6580.75 73.21 7.00 377.54 2690.71
   18:05:55.752.18-Jul-2021 4487.50 6580.33 73.21 7.00 377.74 2690.71
   18:05:55.952.18-Jul-2021 4487.50 6580.55 73.21 7.00 377.94 2690.71
   18:05:56.152.18-Jul-2021 4487.50 6581.00 73.21 7.00 378.14 2690.71
   18:05:56.352.18-Jul-2021 4487.50 6581.00 73.21 7.00 378.34 2690.71
   18:05:56.552.18-Jul-2021 4487.50 6580.11 73.21 7.00 378.54 2690.71
   18:05:56.752.18-Jul-2021 4487.50 6600.56 73.21 7.00 378.74 2690.71
   18:05:56.953.18-Jul-2021 4487.50 6583.79 73.21 7.00 378.94 2690.71
   18:05:57.153.18-Jul-2021 4487.50 6584.81 73.21 7.00 379.14 2690.71
   18:05:57.353.18-Jul-2021 4487.50 6584.81 73.21 7.00 379.34 2690.71
   18:05:57.553.18-Jul-2021 4487.50 6591.82 73.21 7.00 379.54 2690.71
   18:05:57.753.18-Jul-2021 4487.50 6586.41 73.21 7.00 379.74 2690.71
   18:05:57.953.18-Jul-2021 4487.50 6586.59 73.21 7.00 379.94 2690.71
   18:05:58.153.18-Jul-2021 4487.50 6583.58 73.21 7.00 380.14 2690.71
   18:05:58.353.18-Jul-2021 4487.50 6583.58 73.21 7.00 380.34 2690.71
   18:05:58.553.18-Jul-2021 4487.50 6590.60 73.21 7.00 380.54 2690.71
   18:05:58.753.18-Jul-2021 4487.50 6585.24 73.21 7.00 380.74 2690.71
   18:05:58.953.18-Jul-2021 4487.50 6583.57 73.21 7.00 380.94 2690.71
   18:05:59.153.18-Jul-2021 4487.50 6599.11 73.21 7.00 381.14 2690.71
   18:05:59.353.18-Jul-2021 4487.50 6599.11 73.21 7.00 381.34 2690.71
   18:05:59.553.18-Jul-2021 4487.50 6586.33 73.21 7.00 381.54 2690.71
   18:05:59.754.18-Jul-2021 4487.50 6594.77 73.21 7.00 381.74 2690.71
   18:05:59.954.18-Jul-2021 4487.50 6588.81 73.21 7.00 381.94 2690.71
   18:06:00.154.18-Jul-2021 4487.50 6591.46 73.21 7.00 382.14 2690.71
   18:06:00.354.18-Jul-2021 4487.50 6591.46 73.21 7.00 382.34 2690.71
   18:06:00.554.18-Jul-2021 4487.50 6585.88 73.21 7.00 382.54 2690.71
   18:06:00.754.18-Jul-2021 4487.50 6585.95 73.21 7.00 382.74 2690.71
   18:06:00.954.18-Jul-2021 4487.50 6583.29 73.21 7.00 382.94 2690.71
   18:06:01.154.18-Jul-2021 4487.50 6583.57 73.21 7.00 383.14 2690.71
   18:06:01.354.18-Jul-2021 4487.50 6583.57 73.21 7.00 383.34 2690.71
   18:06:01.554.18-Jul-2021 4487.50 6583.60 73.21 7.00 383.54 2690.71
   18:06:01.754.18-Jul-2021 4487.50 6583.55 73.21 7.00 383.74 2690.71
   18:06:01.954.18-Jul-2021 4487.50 6582.99 73.21 7.00 383.94 2690.71
   18:06:02.154.18-Jul-2021 4487.50 6583.80 73.21 7.00 384.14 2690.71
   18:06:02.354.18-Jul-2021 4487.50 6583.80 73.21 7.00 384.34 2690.71
   18:06:02.555.18-Jul-2021 4487.50 6581.41 73.21 7.00 384.54 2690.71
   18:06:02.755.18-Jul-2021 4487.50 6596.21 73.21 7.00 384.74 2690.71
   18:06:02.955.18-Jul-2021 4487.50 6588.29 73.21 7.00 384.94 2690.71
   18:06:03.155.18-Jul-2021 4487.50 6583.64 73.21 7.00 385.14 2690.71
   18:06:03.355.18-Jul-2021 4487.50 6583.64 73.21 7.00 385.34 2690.71
   18:06:03.555.18-Jul-2021 4487.50 6583.67 73.21 7.00 385.54 2690.71
   18:06:03.755.18-Jul-2021 4487.50 6581.65 73.21 7.00 385.74 2690.71
   18:06:03.955.18-Jul-2021 4487.50 6581.35 73.21 7.00 385.94 2690.71
   18:06:04.155.18-Jul-2021 4487.50 6580.80 73.21 7.00 386.14 2690.71
   18:06:04.355.18-Jul-2021 4487.50 6580.80 73.21 7.00 386.34 2690.71
   18:06:04.555.18-Jul-2021 4487.50 6580.57 73.21 7.00 386.54 2690.71
   18:06:04.755.18-Jul-2021 4487.50 6581.35 73.21 7.00 386.74 2690.71
   18:06:04.955.18-Jul-2021 4487.50 6582.12 73.21 7.00 386.94 2690.71
   18:06:05.156.18-Jul-2021 4487.50 6581.40 73.21 7.00 387.14 2690.71
   18:06:05.356.18-Jul-2021 4487.50 6581.40 73.21 7.00 387.34 2690.71
   18:06:05.556.18-Jul-2021 4487.50 6584.45 73.21 7.00 387.54 2690.71
   18:06:05.756.18-Jul-2021 4487.50 6585.57 73.21 7.00 387.74 2690.71
   18:06:05.956.18-Jul-2021 4487.50 6599.96 73.21 7.00 387.94 2690.71
   18:06:06.156.18-Jul-2021 4487.50 6590.53 73.21 7.00 388.14 2690.71
   18:06:06.356.18-Jul-2021 4487.50 6590.53 73.21 7.00 388.34 2690.71
   18:06:06.556.18-Jul-2021 4487.50 6585.47 73.21 7.00 388.54 2690.71
   18:06:06.756.18-Jul-2021 4487.50 6583.07 73.21 7.00 388.74 2690.71
   18:06:06.956.18-Jul-2021 4487.50 6595.85 73.21 7.00 388.94 2690.71
   18:06:07.156.18-Jul-2021 4487.50 6588.84 73.21 7.00 389.14 2690.71
   18:06:07.356.18-Jul-2021 4487.50 6588.84 73.21 7.00 389.34 2690.71
   18:06:07.556.18-Jul-2021 4487.50 6584.19 73.21 7.00 389.54 2690.71
   18:06:07.756.18-Jul-2021 4487.50 6599.16 73.21 7.00 389.74 2690.71
   18:06:07.957.18-Jul-2021 4487.50 6589.55 73.21 7.00 389.94 2690.71
