~Version Information
 VERS.                  2.0:   CWLS log ASCII Standard -VERSION 2.0
 WRAP.                   NO:   One line per depth step
~Well Information Block
#MNEM.UNIT     VALUE/NAME     DESCRIPTION
#---------     -----------    ---------------------------
 STRT.S             11:46:53 19-Jul-21: START TIME 11:46:53 19-Jul-21
 STOP.S             11:53:47 19-Jul-21: STOP TIME  11:53:47 19-Jul-21
 STEP.S                   0.00: STEP TIME
 NULL.                 -999.25: NULL VALUE
 MDS .        Operator Entered:  MAG DATA SOURCE
 PDAT.          Mean Sea Level:  PERMANENT DATUM
 UNIT.                     N/A:  LOGGING EQUIPMENT ID
 DCON.         Sperry Drilling:  DIRECTNL CONTR
 DOE .                     N/A:  DOE NUMBER
 RIG .              West Azeri:  RIG NAME
 JOBN.        AZ-XX-0906997913:  JOB TICKET NUMB
 WELL.                     C41:  WELL NAME
 MWDS.                    Baku:  MWD SHOP
 SRVC.          Turan Drilling:  CONTRACTOR
 FLD .                     ACG:  FIELD NAME
 CTRY.              Azerbaijan:  COUNTRY NAME
 PROV.                    Baku:  PROVINCE
 STAT.                    Baku:  STATE NAME
 REGN.                   EESSA:  REGION
 BASE.              Azerbaijan:  LOGGING EQUIPMENT BASE LOCATION
 UWI .                     N/A:  UNIQUE WELL IDENTIFIER
 API .                     N/A:  API NUMBER
 COMP.     BP Exploration (Caspian Sea) Ltd.:  COMPANY
 WTYP.                Deviated:  WELL TYPE
 SON .        AZ-XX-0906997913:  JOB NUMBER
 FTOP.          Formation Tops:  FORM TOPS DESC
 ILTD.               Lithology:  INTERP LTH DESC
 SVYD.                  Survey:  SURVEY DESC
 DMOD.             Drill Model:  DRILL MOD DESC
 HPTY.       Minimum Curvature:  HOLE POS TYPE
 NREF.                    Grid:  NORTH REFERENCE
 SPUD.               16-May-21:  SPUD DATE
 DATE.      21.11.28 17-May-21:  END TIME
 STIM.      21.11.28 17-May-21:  START TIME
 DMF .             Drill Floor:  DRILL MEAS FROM
 DFST.                        :  DIST FSL TEXT
 DFWT.                        :  DIST FWL TEXT
 CNTY.                        :  COUNTY
 LOC .                        :  LOCATION
 LMF .             Drill Floor:  LOG MEASURED FROM
 AGAP.m                  43.42:  AIR GAP
 VSNS.m                  -2.16:  VERT SEC N/S
 VSEW.m                  -6.24:  VERT SEC E/W
 APD .m                  43.42:  DEPTH ABOVE PD
 WDMS.m                 118.27:  WD ELEV
 EGL .m                   0.00:  GROUND ELEVATION
 EPD .m                   0.00:  ELEVATION
 AZTC.deg                 6.29:  AZM TOTAL CORR
 GRDC.deg                 0.18:  GRID CORRECTION
 MDEC.deg                 6.47:  MAGNETIC DECL
 MDIP.deg                59.54:  MAGNETIC DIP
 MFLD.nT              50337.00:  MAGNETIC FIELD
 GVFD.g                   1.00:  GRAVITY FIELD
 VSDR.deg               226.99:  VERT SEC DIRECT
 TDD .m                   0.00:  TOTAL DEPTH (DRILLER)
 SDEP.m                 448.00:  START DEPTH
 DFSL.m                   0.00:  DISTANCE FSL
 DFWL.m                   0.00:  DISTANCE FWL
 UTMY.m             4435799.96:  UTM Y
 UTMX.m              526265.35:  UTM X
 WHEW.m                  -6.24:  WELL HEAD E/W
 WHNS.m                  -2.16:  WELL HEAD N/S
 LONG.deg                51.31:  LONGITUDE
 LATI.deg                40.06:  LATITUDE
 TVDS.m                  43.42:  TVDSS CORRECTN
 EKB .m                  43.42:  KB ELEVATION
 EDF .m                  43.42:  DF ELEVATION
 TDL .m                 288.00:  TOTAL DEPTH (LOGGER)
 MAGU.                 1851863:  MAGUTM CHECKSUM
 VSC .                       0:  VS TO CLOSURE
~Parameter Information Block
#MNEM.UNIT       Value        Description
#---------     -----------    ---------------------------
 AV  .mps                 0.40:  Ann Velocity 
 AVMX.mps                 0.63:  Max Ann Veloc 
 AZIF.deg               158.76:  Azm, Final 
 BHAT.        Rotary Steerable:  BHA Type 
 BROT.°/30m               0.68:  Build Rotating 
 BS  .in                  8.50:  Bit Size 
 BSZ .in                  8.50:  Bit Size 
 BTPL.psig              712.00:  Bit Press Loss 
 CABU.                      No:  Customer Abuse 
 COMM.                     œ_R:  Run Comments 1 
 TCS .hr                 90.66:  Time Ciculation Ended 
 CV  .mps                 2.02:  Crit Velocity 
 CVMX.mps                 2.14:  Max Crit Veloc 
 DD1 .            Aziz Aliyevu:  Direct Drillr 1 
 DD2 .             Samir Abbas:  Direct Drillr 2 
 DD3 .           Teymur Aliyev:  Direct Drillr 3 
 DDSV.                 iCruise:  DD Service 
 DEFF.%                  85.10:  % Det Eff 
 DLRX.°/30m               1.05:  Dogleg Rot Max 
 DLSO.°/30m               1.01:  Dogleg Oriented 
 DLSX.°/30m               1.05:  Dogleg Str Max 
 DRET.      07.45.00 18-Jul-21:  Drill End Time 
 DRST.      15.00.00 16-Jul-21:  Drill Start Tim 
 DTIM.hr                 23.46:  Time Drilling 
 EDEP.m                4603.00:  End Depth 
 ENG1.       Seymur Iskandarov:  Engineer 1 
 ENG2.         Yevgeniy Ulikov:  Engineer 2 
 ENG3.         Bahruz Mehdiyev:  Engineer 3 
 ENG4.         Elchin Mammadov:  Engineer 4 
 ETIM.      14.00.00 23-Jul-21:  End Time 
 FLOI.gpm               500.00:  Flow In 
 FLON.gpm               450.00:  Flow In Min 
 FLOS.cptm                0.00:  Fluid Loss 
 FLOX.gpm               560.00:  Flow In Max 
 DFT .        Mineral Oil Base:  Mud Type 
 FTRO.       Formation Presure:  FTWD Run Obj 
 HFLO.                      No:  High Flow 
 HPRE.                      No:  High Pressure 
 HTEM.                      No:  High Temp 
 HYDO.m                   1.80:  Hydro Offset 
 IFIN.deg                40.22:  Inc, Final 
 IMAX.deg                40.54:  Inc Max 
 IMIN.deg                39.44:  Inc Min 
 IMND.m                4361.17:  Inc Min Depth 
 IMXD.m                4417.92:  Inc Max Depth 
 JARR.                      No:  Jarring 
 LETM.      07.45.00 18-Jul-21:  Log End Time 
 LOST.hr                    16:  Lost Rig Time 
 LSTM.      15.00.00 16-Jul-21:  Log Start Time 
 MDCL.ppm             36500.00:  Mud Chlorides 
 MDES.     Inversion Oil/Synthetic:  Mud Desc 
 DFD .sg                  1.42:  Mud Density 
 MDMN.sg                  1.42:  Dens Mud Min 
 MDMX.sg                  1.43:  Dens Mud Max 
 MOIL.                      56:  Run Mud Oil % 
 MOWR.                   71:29:  Run Mud OWR 
 MSND.                     0.5:  Run Mud Sand % 
 MSOL.                      21:  Run Mud Solids% 
 DFV .spqt               78.00:  Mud Viscosity 
 MWOD.in                  6.75:  MWD Tool OD 
 MWSI.                     Yes:  Serv Intrp, MWD 
 OTIM.hr                200.73:  Time Operating 
 PCON.           Look Like New:  Pad Condition 
 PMAX.psia            11069.93:  Press Op, Max 
 PV  .cP                 32.00:  Mud PV 
 RUN .                     700:  Run Number 
 ROPA.m/hr               10.00:  ROP Avg 
 ROPN.m/hr                9.00:  ROP Min 
 ROPX.m/hr               16.00:  ROP Max 
 RPMA.rpm               116.00:  RPM Surface Avg 
 RPMN.rpm                80.00:  RPM Surface Min 
 RPMX.rpm               120.00:  RPM Surface Max 
 RRUN.                    L605:  Rig Run Number 
 RTIM.hr                 45.00:  Time Reaming 
 SAZI.deg               159.86:  Azm, Start 
 SDEP.m                4315.00:  Start Depth 
 SIDD.                      No:  Serv Intrp, DD 
 SINC.deg                39.86:  Inc, Start 
 SPPA.psig             3300.00:  SPP Avg 
 SPPN.psig             3040.00:  SPP Min 
 SPPX.psig             3645.00:  SPP Max 
 STIM.      01.00.00 15-Jul-21:  Start Time 
 SVCS.                 DD, MWD:  Services 
 SVER.                    9.20:  Sperry Version 
 TDAT.m                 288.00:  Tot Depth Attmp 
 TDDF.                      No:  Trip for DD 
 TDLG.m                 288.00:  Tot Depth Loggd 
 TFF .                      No:  Trip for Fail 
 TQAA.f-kp               19.00:  Torque Abs Avg 
 TQAN.f-kp               18.00:  Torque Abs Min 
 TQAX.f-kp               21.00:  Torque Abs Max 
 TRRT.°/30m               0.45:  Turn Rotating 
 MRT .                    HCIM:  Maximum Recorded Temperature 
 TTMX.degC               88.24:  Max Tool Temp 
 VS01.                90649157:  Virtual Str1 SN 
 VS02.                90652483:  Virtual Str2 SN 
 VS03.                11671987:  Virtual Str3 SN 
 VS04.                90643411:  Virtual Str4 SN 
 VS05.                90652478:  Virtual Str5 SN 
 VS06.                    6111:  Virtual Str6 SN 
 WBMN.klb                 9.50:  WOB Min 
 WITN.        Grigoriy Sarayev:  Customer Rep 
 WITN.          Rufat Huseynov:  Customer Rep 2 
 WOBA.klb                11.00:  WOB Avg 
 WOBX.klb                15.00:  WOB Max 
 YP  .lhf2               28.00:  Yield Point 
~Curve Information Block
#MNEM.UNIT                 API CODE     Curve Description
#---------               -----------    ---------------------------
 TIME.HHMMSS            00 000 000 000:  GT Time & Date
 GTDEPTH.m              00 000 000 000:  GT Depth
 GTPQH.psia             00 000 000 000:  GT HR Quartz Pressure
 GTTQ.degC              00 000 000 000:  GT Quartz Temperature
 GTTN.NONE              00 000 000 000:  GT Test Number
 GTET.sec               00 000 000 000:  GT Elapsed Test Time
 GTTVD.m                00 000 000 000:  GT True Vertical Depth
#Other Information
#
#WARRANTY: Halliburton will use its best efforts to furnish customers with 
#accurate information and interpretations that are part of, and incident to, the services 
#provided.  However, Halliburton cannot and does not warrant the accuracy 
#or correctness of such information and interpretations.  Under no circumstances should any 
#such information or interpretation be relied upon as the sole basis for any drilling, 
#completion, production, or financial decision or any procedure involving any risk to the 
#safety of any drilling venture, drilling rig or its crew or any other third party.  The 
#Customer has full responsibility for all drilling, completion and production operation.  
#Halliburton makes no representations or warranties, either expressed or 
#implied, including, but not limited to, the implied warranties of merchantability or fitness 
#for a particular purpose, with respect to the services rendered.  In no event will 
#Halliburton be liable for failure to obtain any particular results or for 
#any damages, including, but not limited to, indirect, special or consequential damages, 
#resulting from the use of any information or interpretation provided by Halliburton.
#
~A           TIME           GTDEPTH  GTPQH  GTTQ  GTTN   GTET   GTTVD  
   11:46:53.592.19-Jul-2021 4516.00 6544.51 70.90 25.00   0.00 2712.47
   11:46:53.792.19-Jul-2021 4516.00 6544.51 70.90 25.00   0.20 2712.47
   11:46:53.992.19-Jul-2021 4516.00 6556.96 70.90 25.00   0.40 2712.47
   11:46:54.192.19-Jul-2021 4516.00 6541.93 70.90 25.00   0.60 2712.47
   11:46:54.392.19-Jul-2021 4516.00 6544.93 70.90 25.00   0.80 2712.47
   11:46:54.592.19-Jul-2021 4516.00 6566.82 70.90 25.00   1.00 2712.47
   11:46:54.792.19-Jul-2021 4516.00 6566.82 70.90 25.00   1.20 2712.47
   11:46:54.992.19-Jul-2021 4516.00 6545.14 70.90 25.00   1.40 2712.47
   11:46:55.192.19-Jul-2021 4516.00 6563.31 70.90 25.00   1.60 2712.47
   11:46:55.392.19-Jul-2021 4516.00 6548.98 70.90 25.00   1.80 2712.47
   11:46:55.592.19-Jul-2021 4516.00 6549.40 70.90 25.00   2.00 2712.47
   11:46:55.792.19-Jul-2021 4516.00 6549.40 70.90 25.00   2.20 2712.47
   11:46:55.992.19-Jul-2021 4516.00 6551.60 70.90 25.00   2.40 2712.47
   11:46:56.192.19-Jul-2021 4516.00 6552.28 70.90 25.00   2.60 2712.47
   11:46:56.393.19-Jul-2021 4516.00 6547.80 70.90 25.00   2.80 2712.47
   11:46:56.593.19-Jul-2021 4516.00 6554.36 70.90 25.00   3.00 2712.47
   11:46:56.793.19-Jul-2021 4516.00 6554.36 70.90 25.00   3.20 2712.47
   11:46:56.993.19-Jul-2021 4516.00 6555.96 70.90 25.00   3.40 2712.47
   11:46:57.193.19-Jul-2021 4516.00 6550.90 70.90 25.00   3.60 2712.47
   11:46:57.393.19-Jul-2021 4516.00 6553.24 70.90 25.00   3.80 2712.47
   11:46:57.593.19-Jul-2021 4516.00 6549.49 70.90 25.00   4.00 2712.47
   11:46:57.793.19-Jul-2021 4516.00 6549.49 70.90 25.00   4.20 2712.47
   11:46:57.993.19-Jul-2021 4516.00 6546.58 70.90 25.00   4.40 2712.47
   11:46:58.193.19-Jul-2021 4516.00 6548.47 70.90 25.00   4.60 2712.47
   11:46:58.393.19-Jul-2021 4516.00 6549.04 70.90 25.00   4.80 2712.47
   11:46:58.593.19-Jul-2021 4516.00 6549.41 70.90 25.00   5.00 2712.47
   11:46:58.793.19-Jul-2021 4516.00 6549.41 70.90 25.00   5.20 2712.47
   11:46:58.993.19-Jul-2021 4516.00 6549.92 70.90 25.00   5.40 2712.47
   11:46:59.194.19-Jul-2021 4516.00 6551.25 70.90 25.00   5.60 2712.47
   11:46:59.394.19-Jul-2021 4516.00 6567.87 70.90 25.00   5.80 2712.47
   11:46:59.594.19-Jul-2021 4516.00 6553.15 70.90 25.00   6.00 2712.47
   11:46:59.794.19-Jul-2021 4516.00 6553.15 70.90 25.00   6.20 2712.47
   11:46:59.994.19-Jul-2021 4516.00 6553.75 70.90 25.00   6.40 2712.47
   11:47:00.194.19-Jul-2021 4516.00 6555.98 70.90 25.00   6.60 2712.47
   11:47:00.394.19-Jul-2021 4516.00 6552.67 70.90 25.00   6.80 2712.47
   11:47:00.594.19-Jul-2021 4516.00 6549.51 70.90 25.00   7.00 2712.47
   11:47:00.794.19-Jul-2021 4516.00 6549.51 70.90 25.00   7.20 2712.47
   11:47:00.994.19-Jul-2021 4516.00 6550.43 70.90 25.00   7.40 2712.47
   11:47:01.194.19-Jul-2021 4516.00 6550.03 70.90 25.00   7.60 2712.47
   11:47:01.394.19-Jul-2021 4516.00 6548.85 70.90 25.00   7.80 2712.47
   11:47:01.594.19-Jul-2021 4516.00 6548.73 70.90 25.00   8.00 2712.47
   11:47:01.795.19-Jul-2021 4516.00 6548.73 70.90 25.00   8.20 2712.47
   11:47:01.995.19-Jul-2021 4516.00 6546.69 70.90 25.00   8.40 2712.47
   11:47:02.195.19-Jul-2021 4516.00 6562.15 70.90 25.00   8.60 2712.47
   11:47:02.395.19-Jul-2021 4516.00 6560.68 70.90 25.00   8.80 2712.47
   11:47:02.595.19-Jul-2021 4516.00 6555.04 70.90 25.00   9.00 2712.47
   11:47:02.795.19-Jul-2021 4516.00 6555.04 70.90 25.00   9.20 2712.47
   11:47:02.995.19-Jul-2021 4516.00 6569.81 70.90 25.00   9.40 2712.47
   11:47:03.195.19-Jul-2021 4516.00 6553.36 70.90 25.00   9.60 2712.47
   11:47:03.395.19-Jul-2021 4516.00 6557.25 70.90 25.00   9.80 2712.47
   11:47:03.595.19-Jul-2021 4516.00 6555.60 70.90 25.00  10.00 2712.47
   11:47:03.795.19-Jul-2021 4516.00 6555.60 70.90 25.00  10.20 2712.47
   11:47:03.995.19-Jul-2021 4516.00 6564.78 70.90 25.00  10.40 2712.47
   11:47:04.195.19-Jul-2021 4516.00 6562.28 70.90 25.00  10.60 2712.47
   11:47:04.395.19-Jul-2021 4516.00 6556.14 70.90 25.00  10.80 2712.47
   11:47:04.596.19-Jul-2021 4516.00 6553.64 70.90 25.00  11.00 2712.47
   11:47:04.796.19-Jul-2021 4516.00 6553.64 70.90 25.00  11.20 2712.47
   11:47:04.996.19-Jul-2021 4516.00 6557.30 70.90 25.00  11.40 2712.47
   11:47:05.196.19-Jul-2021 4516.00 6559.60 70.90 25.00  11.60 2712.47
   11:47:05.396.19-Jul-2021 4516.00 6570.49 70.90 25.00  11.80 2712.47
   11:47:05.596.19-Jul-2021 4516.00 6568.21 70.90 25.00  12.00 2712.47
   11:47:05.796.19-Jul-2021 4516.00 6568.21 70.90 25.00  12.20 2712.47
   11:47:05.996.19-Jul-2021 4516.00 6560.08 70.90 25.00  12.40 2712.47
   11:47:06.196.19-Jul-2021 4516.00 6560.72 70.90 25.00  12.60 2712.47
   11:47:06.396.19-Jul-2021 4516.00 6581.06 70.90 25.00  12.80 2712.47
   11:47:06.596.19-Jul-2021 4516.00 6559.79 70.90 25.00  13.00 2712.47
   11:47:06.796.19-Jul-2021 4516.00 6559.79 70.90 25.00  13.20 2712.47
   11:47:06.996.19-Jul-2021 4516.00 6565.10 70.90 25.00  13.40 2712.47
   11:47:07.197.19-Jul-2021 4516.00 6565.63 70.90 25.00  13.61 2712.47
   11:47:07.397.19-Jul-2021 4516.00 6563.13 70.90 25.00  13.81 2712.47
   11:47:07.597.19-Jul-2021 4516.00 6564.58 70.90 25.00  14.01 2712.47
   11:47:07.797.19-Jul-2021 4516.00 6564.58 70.90 25.00  14.21 2712.47
   11:47:07.997.19-Jul-2021 4516.00 6564.58 70.90 25.00  14.41 2712.47
   11:47:08.197.19-Jul-2021 4516.00 6561.00 70.90 25.00  14.61 2712.47
   11:47:08.397.19-Jul-2021 4516.00 6561.03 70.90 25.00  14.81 2712.47
   11:47:08.597.19-Jul-2021 4516.00 6561.79 70.90 25.00  15.01 2712.47
   11:47:08.797.19-Jul-2021 4516.00 6561.79 70.90 25.00  15.21 2712.47
   11:47:08.997.19-Jul-2021 4516.00 6562.14 70.90 25.00  15.41 2712.47
   11:47:09.197.19-Jul-2021 4516.00 6578.45 70.90 25.00  15.61 2712.47
   11:47:09.397.19-Jul-2021 4516.00 6565.34 70.90 25.00  15.81 2712.47
   11:47:09.597.19-Jul-2021 4516.00 6569.23 70.90 25.00  16.01 2712.47
   11:47:09.797.19-Jul-2021 4516.00 6569.23 70.90 25.00  16.21 2712.47
   11:47:09.998.19-Jul-2021 4516.00 6567.81 70.90 25.00  16.41 2712.47
   11:47:10.198.19-Jul-2021 4516.00 6565.96 70.90 25.00  16.61 2712.47
   11:47:10.398.19-Jul-2021 4516.00 6566.41 70.90 25.00  16.81 2712.47
   11:47:10.598.19-Jul-2021 4516.00 6565.82 70.90 25.00  17.01 2712.47
   11:47:10.798.19-Jul-2021 4516.00 6565.82 70.90 25.00  17.21 2712.47
   11:47:10.998.19-Jul-2021 4516.00 6562.79 70.90 25.00  17.41 2712.47
   11:47:11.198.19-Jul-2021 4516.00 6564.46 70.90 25.00  17.61 2712.47
   11:47:11.398.19-Jul-2021 4516.00 6565.61 70.90 25.00  17.81 2712.47
   11:47:11.598.19-Jul-2021 4516.00 6563.77 70.90 25.00  18.01 2712.47
   11:47:11.798.19-Jul-2021 4516.00 6563.77 70.90 25.00  18.21 2712.47
   11:47:11.998.19-Jul-2021 4516.00 6571.01 70.90 25.00  18.41 2712.47
   11:47:12.198.19-Jul-2021 4516.00 6572.76 70.90 25.00  18.61 2712.47
   11:47:12.398.19-Jul-2021 4516.00 6583.08 70.90 25.00  18.81 2712.47
   11:47:12.599.19-Jul-2021 4516.00 6568.36 70.90 25.00  19.01 2712.47
   11:47:12.799.19-Jul-2021 4516.00 6568.36 70.90 25.00  19.21 2712.47
   11:47:12.999.19-Jul-2021 4516.00 6566.51 70.90 25.00  19.41 2712.47
   11:47:13.199.19-Jul-2021 4516.00 6568.67 70.90 25.00  19.61 2712.47
   11:47:13.399.19-Jul-2021 4516.00 6578.41 70.90 25.00  19.81 2712.47
   11:47:13.599.19-Jul-2021 4516.00 6574.33 70.90 25.00  20.01 2712.47
   11:47:13.799.19-Jul-2021 4516.00 6574.33 70.90 25.00  20.21 2712.47
   11:47:13.999.19-Jul-2021 4516.00 6574.65 70.90 25.00  20.41 2712.47
   11:47:14.199.19-Jul-2021 4516.00 6576.49 70.90 25.00  20.61 2712.47
   11:47:14.399.19-Jul-2021 4516.00 6575.82 70.90 25.00  20.81 2712.47
   11:47:14.599.19-Jul-2021 4516.00 6588.94 70.90 25.00  21.01 2712.47
   11:47:14.799.19-Jul-2021 4516.00 6588.94 70.90 25.00  21.21 2712.47
   11:47:14.999.19-Jul-2021 4516.00 6577.14 70.90 25.00  21.41 2712.47
   11:47:15.199.19-Jul-2021 4516.00 6572.04 70.90 25.00  21.61 2712.47
   11:47:15.400.19-Jul-2021 4516.00 6574.26 70.90 25.00  21.81 2712.47
   11:47:15.600.19-Jul-2021 4516.00 6572.94 70.90 25.00  22.01 2712.47
   11:47:15.800.19-Jul-2021 4516.00 6572.94 70.90 25.00  22.21 2712.47
   11:47:16.000.19-Jul-2021 4516.00 6571.51 70.90 25.00  22.41 2712.47
