~Version Information
 VERS.                  2.0:   CWLS log ASCII Standard -VERSION 2.0
 WRAP.                   NO:   One line per depth step
~Well Information Block
#MNEM.UNIT     VALUE/NAME     DESCRIPTION
#---------     -----------    ---------------------------
 STRT.S             06:08:07 19-Jul-21: START TIME 06:08:07 19-Jul-21
 STOP.S             06:15:04 19-Jul-21: STOP TIME  06:15:04 19-Jul-21
 STEP.S                   0.00: STEP TIME
 NULL.                 -999.25: NULL VALUE
 MDS .        Operator Entered:  MAG DATA SOURCE
 PDAT.          Mean Sea Level:  PERMANENT DATUM
 UNIT.                     N/A:  LOGGING EQUIPMENT ID
 DCON.         Sperry Drilling:  DIRECTNL CONTR
 DOE .                     N/A:  DOE NUMBER
 RIG .              West Azeri:  RIG NAME
 JOBN.        AZ-XX-0906997913:  JOB TICKET NUMB
 WELL.                     C41:  WELL NAME
 MWDS.                    Baku:  MWD SHOP
 SRVC.          Turan Drilling:  CONTRACTOR
 FLD .                     ACG:  FIELD NAME
 CTRY.              Azerbaijan:  COUNTRY NAME
 PROV.                    Baku:  PROVINCE
 STAT.                    Baku:  STATE NAME
 REGN.                   EESSA:  REGION
 BASE.              Azerbaijan:  LOGGING EQUIPMENT BASE LOCATION
 UWI .                     N/A:  UNIQUE WELL IDENTIFIER
 API .                     N/A:  API NUMBER
 COMP.     BP Exploration (Caspian Sea) Ltd.:  COMPANY
 WTYP.                Deviated:  WELL TYPE
 SON .        AZ-XX-0906997913:  JOB NUMBER
 FTOP.          Formation Tops:  FORM TOPS DESC
 ILTD.               Lithology:  INTERP LTH DESC
 SVYD.                  Survey:  SURVEY DESC
 DMOD.             Drill Model:  DRILL MOD DESC
 HPTY.       Minimum Curvature:  HOLE POS TYPE
 NREF.                    Grid:  NORTH REFERENCE
 SPUD.               16-May-21:  SPUD DATE
 DATE.      21.11.28 17-May-21:  END TIME
 STIM.      21.11.28 17-May-21:  START TIME
 DMF .             Drill Floor:  DRILL MEAS FROM
 DFST.                        :  DIST FSL TEXT
 DFWT.                        :  DIST FWL TEXT
 CNTY.                        :  COUNTY
 LOC .                        :  LOCATION
 LMF .             Drill Floor:  LOG MEASURED FROM
 AGAP.m                  43.42:  AIR GAP
 VSNS.m                  -2.16:  VERT SEC N/S
 VSEW.m                  -6.24:  VERT SEC E/W
 APD .m                  43.42:  DEPTH ABOVE PD
 WDMS.m                 118.27:  WD ELEV
 EGL .m                   0.00:  GROUND ELEVATION
 EPD .m                   0.00:  ELEVATION
 AZTC.deg                 6.29:  AZM TOTAL CORR
 GRDC.deg                 0.18:  GRID CORRECTION
 MDEC.deg                 6.47:  MAGNETIC DECL
 MDIP.deg                59.54:  MAGNETIC DIP
 MFLD.nT              50337.00:  MAGNETIC FIELD
 GVFD.g                   1.00:  GRAVITY FIELD
 VSDR.deg               226.99:  VERT SEC DIRECT
 TDD .m                   0.00:  TOTAL DEPTH (DRILLER)
 SDEP.m                 448.00:  START DEPTH
 DFSL.m                   0.00:  DISTANCE FSL
 DFWL.m                   0.00:  DISTANCE FWL
 UTMY.m             4435799.96:  UTM Y
 UTMX.m              526265.35:  UTM X
 WHEW.m                  -6.24:  WELL HEAD E/W
 WHNS.m                  -2.16:  WELL HEAD N/S
 LONG.deg                51.31:  LONGITUDE
 LATI.deg                40.06:  LATITUDE
 TVDS.m                  43.42:  TVDSS CORRECTN
 EKB .m                  43.42:  KB ELEVATION
 EDF .m                  43.42:  DF ELEVATION
 TDL .m                 288.00:  TOTAL DEPTH (LOGGER)
 MAGU.                 1851863:  MAGUTM CHECKSUM
 VSC .                       0:  VS TO CLOSURE
~Parameter Information Block
#MNEM.UNIT       Value        Description
#---------     -----------    ---------------------------
 AV  .mps                 0.40:  Ann Velocity 
 AVMX.mps                 0.63:  Max Ann Veloc 
 AZIF.deg               158.76:  Azm, Final 
 BHAT.        Rotary Steerable:  BHA Type 
 BROT.°/30m               0.68:  Build Rotating 
 BS  .in                  8.50:  Bit Size 
 BSZ .in                  8.50:  Bit Size 
 BTPL.psig              712.00:  Bit Press Loss 
 CABU.                      No:  Customer Abuse 
 TCS .hr                 90.66:  Time Ciculation Ended 
 CV  .mps                 2.02:  Crit Velocity 
 CVMX.mps                 2.14:  Max Crit Veloc 
 DD1 .            Aziz Aliyevu:  Direct Drillr 1 
 DD2 .             Samir Abbas:  Direct Drillr 2 
 DD3 .           Teymur Aliyev:  Direct Drillr 3 
 DDSV.                 iCruise:  DD Service 
 DEFF.%                  85.10:  % Det Eff 
 DLRX.°/30m               1.05:  Dogleg Rot Max 
 DLSO.°/30m               1.01:  Dogleg Oriented 
 DLSX.°/30m               1.05:  Dogleg Str Max 
 DRET.      07.45.00 18-Jul-21:  Drill End Time 
 DRST.      15.00.00 16-Jul-21:  Drill Start Tim 
 DTIM.hr                 23.46:  Time Drilling 
 EDEP.m                4603.00:  End Depth 
 ENG1.       Seymur Iskandarov:  Engineer 1 
 ENG2.         Yevgeniy Ulikov:  Engineer 2 
 ENG3.         Bahruz Mehdiyev:  Engineer 3 
 ENG4.         Elchin Mammadov:  Engineer 4 
 ETIM.      14.00.00 23-Jul-21:  End Time 
 FLOI.gpm               500.00:  Flow In 
 FLON.gpm               450.00:  Flow In Min 
 FLOS.cptm                0.00:  Fluid Loss 
 FLOX.gpm               560.00:  Flow In Max 
 DFT .        Mineral Oil Base:  Mud Type 
 FTRO.       Formation Presure:  FTWD Run Obj 
 HFLO.                      No:  High Flow 
 HPRE.                      No:  High Pressure 
 HTEM.                      No:  High Temp 
 HYDO.m                   1.80:  Hydro Offset 
 IFIN.deg                40.22:  Inc, Final 
 IMAX.deg                40.54:  Inc Max 
 IMIN.deg                39.44:  Inc Min 
 IMND.m                4361.17:  Inc Min Depth 
 IMXD.m                4417.92:  Inc Max Depth 
 JARR.                      No:  Jarring 
 LETM.      07.45.00 18-Jul-21:  Log End Time 
 LOST.hr                    16:  Lost Rig Time 
 LSTM.      15.00.00 16-Jul-21:  Log Start Time 
 MDCL.ppm             36500.00:  Mud Chlorides 
 MDES.     Inversion Oil/Synthetic:  Mud Desc 
 DFD .sg                  1.42:  Mud Density 
 MDMN.sg                  1.42:  Dens Mud Min 
 MDMX.sg                  1.43:  Dens Mud Max 
 MOIL.                      56:  Run Mud Oil % 
 MOWR.                   71:29:  Run Mud OWR 
 MSND.                     0.5:  Run Mud Sand % 
 MSOL.                      21:  Run Mud Solids% 
 DFV .spqt               78.00:  Mud Viscosity 
 MWOD.in                  6.75:  MWD Tool OD 
 MWSI.                     Yes:  Serv Intrp, MWD 
 OTIM.hr                200.73:  Time Operating 
 PCON.           Look Like New:  Pad Condition 
 PMAX.psia            11069.93:  Press Op, Max 
 PV  .cP                 32.00:  Mud PV 
 RUN .                     700:  Run Number 
 ROPA.m/hr               10.00:  ROP Avg 
 ROPN.m/hr                9.00:  ROP Min 
 ROPX.m/hr               16.00:  ROP Max 
 RPMA.rpm               116.00:  RPM Surface Avg 
 RPMN.rpm                80.00:  RPM Surface Min 
 RPMX.rpm               120.00:  RPM Surface Max 
 RRUN.                    L605:  Rig Run Number 
 RTIM.hr                 45.00:  Time Reaming 
 SAZI.deg               159.86:  Azm, Start 
 SDEP.m                4315.00:  Start Depth 
 SIDD.                      No:  Serv Intrp, DD 
 SINC.deg                39.86:  Inc, Start 
 SPPA.psig             3300.00:  SPP Avg 
 SPPN.psig             3040.00:  SPP Min 
 SPPX.psig             3645.00:  SPP Max 
 STIM.      01.00.00 15-Jul-21:  Start Time 
 SVCS.                 DD, MWD:  Services 
 SVER.                    9.20:  Sperry Version 
 TDAT.m                 288.00:  Tot Depth Attmp 
 TDDF.                      No:  Trip for DD 
 TDLG.m                 288.00:  Tot Depth Loggd 
 TFF .                      No:  Trip for Fail 
 TQAA.f-kp               19.00:  Torque Abs Avg 
 TQAN.f-kp               18.00:  Torque Abs Min 
 TQAX.f-kp               21.00:  Torque Abs Max 
 TRRT.°/30m               0.45:  Turn Rotating 
 MRT .                    HCIM:  Maximum Recorded Temperature 
 TTMX.degC               88.24:  Max Tool Temp 
 VS01.                90649157:  Virtual Str1 SN 
 VS02.                90652483:  Virtual Str2 SN 
 VS03.                11671987:  Virtual Str3 SN 
 VS04.                90643411:  Virtual Str4 SN 
 VS05.                90652478:  Virtual Str5 SN 
 VS06.                    6111:  Virtual Str6 SN 
 WBMN.klb                 9.50:  WOB Min 
 WITN.        Grigoriy Sarayev:  Customer Rep 
 WITN.          Rufat Huseynov:  Customer Rep 2 
 WOBA.klb                11.00:  WOB Avg 
 WOBX.klb                15.00:  WOB Max 
 YP  .lhf2               28.00:  Yield Point 
~Curve Information Block
#MNEM.UNIT                 API CODE     Curve Description
#---------               -----------    ---------------------------
 TIME.HHMMSS            00 000 000 000:  GT Time & Date
 GTDEPTH.m              00 000 000 000:  GT Depth
 GTPQH.psia             00 000 000 000:  GT HR Quartz Pressure
 GTTQ.degC              00 000 000 000:  GT Quartz Temperature
 GTTN.NONE              00 000 000 000:  GT Test Number
 GTET.sec               00 000 000 000:  GT Elapsed Test Time
 GTTVD.m                00 000 000 000:  GT True Vertical Depth
#Other Information
#
#WARRANTY: Halliburton will use its best efforts to furnish customers with 
#accurate information and interpretations that are part of, and incident to, the services 
#provided.  However, Halliburton cannot and does not warrant the accuracy 
#or correctness of such information and interpretations.  Under no circumstances should any 
#such information or interpretation be relied upon as the sole basis for any drilling, 
#completion, production, or financial decision or any procedure involving any risk to the 
#safety of any drilling venture, drilling rig or its crew or any other third party.  The 
#Customer has full responsibility for all drilling, completion and production operation.  
#Halliburton makes no representations or warranties, either expressed or 
#implied, including, but not limited to, the implied warranties of merchantability or fitness 
#for a particular purpose, with respect to the services rendered.  In no event will 
#Halliburton be liable for failure to obtain any particular results or for 
#any damages, including, but not limited to, indirect, special or consequential damages, 
#resulting from the use of any information or interpretation provided by Halliburton.
#
~A           TIME           GTDEPTH  GTPQH  GTTQ  GTTN   GTET   GTTVD  
   06:08:07.107.19-Jul-2021 4380.90 6286.90 69.36 14.00   0.00 2609.29
   06:08:07.307.19-Jul-2021 4380.90 6286.90 69.36 14.00   0.20 2609.29
   06:08:07.507.19-Jul-2021 4380.90 6290.04 69.36 14.00   0.40 2609.29
   06:08:07.707.19-Jul-2021 4380.90 6288.49 69.36 14.00   0.60 2609.29
   06:08:07.907.19-Jul-2021 4380.90 6288.89 69.36 14.00   0.80 2609.29
   06:08:08.107.19-Jul-2021 4380.90 6287.94 69.36 14.00   1.00 2609.29
   06:08:08.308.19-Jul-2021 4380.90 6287.94 69.36 14.00   1.20 2609.29
   06:08:08.508.19-Jul-2021 4380.90 6286.59 69.36 14.00   1.40 2609.29
   06:08:08.708.19-Jul-2021 4380.90 6286.08 69.36 14.00   1.60 2609.29
   06:08:08.908.19-Jul-2021 4380.90 6286.14 69.36 14.00   1.80 2609.29
   06:08:09.108.19-Jul-2021 4380.90 6286.20 69.36 14.00   2.00 2609.29
   06:08:09.308.19-Jul-2021 4380.90 6286.20 69.36 14.00   2.20 2609.29
   06:08:09.508.19-Jul-2021 4380.90 6309.75 69.36 14.00   2.40 2609.29
   06:08:09.708.19-Jul-2021 4380.90 6287.60 69.36 14.00   2.60 2609.29
   06:08:09.908.19-Jul-2021 4380.90 6294.94 69.36 14.00   2.80 2609.29
   06:08:10.108.19-Jul-2021 4380.90 6314.31 69.36 14.00   3.00 2609.29
   06:08:10.308.19-Jul-2021 4380.90 6314.31 69.36 14.00   3.20 2609.29
   06:08:10.508.19-Jul-2021 4380.90 6298.06 69.36 14.00   3.40 2609.29
   06:08:10.708.19-Jul-2021 4380.90 6292.99 69.36 14.00   3.60 2609.29
   06:08:10.908.19-Jul-2021 4380.90 6315.37 69.36 14.00   3.80 2609.29
   06:08:11.109.19-Jul-2021 4380.90 6296.01 69.36 14.00   4.00 2609.29
   06:08:11.309.19-Jul-2021 4380.90 6296.01 69.36 14.00   4.20 2609.29
   06:08:11.509.19-Jul-2021 4380.90 6295.47 69.36 14.00   4.40 2609.29
   06:08:11.709.19-Jul-2021 4380.90 6294.91 69.36 14.00   4.60 2609.29
   06:08:11.909.19-Jul-2021 4380.90 6307.68 69.36 14.00   4.80 2609.29
   06:08:12.109.19-Jul-2021 4380.90 6302.90 69.36 14.00   5.00 2609.29
   06:08:12.309.19-Jul-2021 4380.90 6302.90 69.36 14.00   5.20 2609.29
   06:08:12.509.19-Jul-2021 4380.90 6323.91 69.36 14.00   5.40 2609.29
   06:08:12.709.19-Jul-2021 4380.90 6296.65 69.36 14.00   5.60 2609.29
   06:08:12.909.19-Jul-2021 4380.90 6296.90 69.36 14.00   5.80 2609.29
   06:08:13.109.19-Jul-2021 4380.90 6324.79 69.36 14.00   6.00 2609.29
   06:08:13.309.19-Jul-2021 4380.90 6324.79 69.36 14.00   6.20 2609.29
   06:08:13.509.19-Jul-2021 4380.90 6303.23 69.36 14.00   6.40 2609.29
   06:08:13.710.19-Jul-2021 4380.90 6301.15 69.36 14.00   6.60 2609.29
   06:08:13.910.19-Jul-2021 4380.90 6301.55 69.36 14.00   6.80 2609.29
   06:08:14.110.19-Jul-2021 4380.90 6314.76 69.36 14.00   7.00 2609.29
   06:08:14.310.19-Jul-2021 4380.90 6314.76 69.36 14.00   7.20 2609.29
   06:08:14.510.19-Jul-2021 4380.90 6300.19 69.36 14.00   7.40 2609.29
   06:08:14.710.19-Jul-2021 4380.90 6332.41 69.36 14.00   7.60 2609.29
   06:08:14.910.19-Jul-2021 4380.90 6303.17 69.36 14.00   7.80 2609.29
   06:08:15.110.19-Jul-2021 4380.90 6305.67 69.36 14.00   8.00 2609.29
   06:08:15.310.19-Jul-2021 4380.90 6305.67 69.36 14.00   8.20 2609.29
   06:08:15.510.19-Jul-2021 4380.90 6304.69 69.36 14.00   8.40 2609.29
   06:08:15.710.19-Jul-2021 4380.90 6326.36 69.36 14.00   8.60 2609.29
   06:08:15.910.19-Jul-2021 4380.90 6305.19 69.36 14.00   8.80 2609.29
   06:08:16.110.19-Jul-2021 4380.90 6308.65 69.36 14.00   9.00 2609.29
   06:08:16.310.19-Jul-2021 4380.90 6308.65 69.36 14.00   9.20 2609.29
   06:08:16.511.19-Jul-2021 4380.90 6306.84 69.36 14.00   9.40 2609.29
   06:08:16.711.19-Jul-2021 4380.90 6307.24 69.36 14.00   9.60 2609.29
   06:08:16.911.19-Jul-2021 4380.90 6305.78 69.36 14.00   9.80 2609.29
   06:08:17.111.19-Jul-2021 4380.90 6306.50 69.36 14.00  10.00 2609.29
   06:08:17.311.19-Jul-2021 4380.90 6306.50 69.36 14.00  10.20 2609.29
   06:08:17.511.19-Jul-2021 4380.90 6307.38 69.36 14.00  10.40 2609.29
   06:08:17.711.19-Jul-2021 4380.90 6307.50 69.36 14.00  10.60 2609.29
   06:08:17.911.19-Jul-2021 4380.90 6307.21 69.36 14.00  10.80 2609.29
   06:08:18.111.19-Jul-2021 4380.90 6307.75 69.36 14.00  11.00 2609.29
   06:08:18.311.19-Jul-2021 4380.90 6307.75 69.36 14.00  11.20 2609.29
   06:08:18.511.19-Jul-2021 4380.90 6324.52 69.36 14.00  11.40 2609.29
   06:08:18.711.19-Jul-2021 4380.90 6307.71 69.36 14.00  11.60 2609.29
   06:08:18.911.19-Jul-2021 4380.90 6312.45 69.36 14.00  11.80 2609.29
   06:08:19.112.19-Jul-2021 4380.90 6309.03 69.36 14.00  12.00 2609.29
   06:08:19.312.19-Jul-2021 4380.90 6309.03 69.36 14.00  12.20 2609.29
   06:08:19.512.19-Jul-2021 4380.90 6309.03 69.36 14.00  12.40 2609.29
   06:08:19.712.19-Jul-2021 4380.90 6306.75 69.36 14.00  12.60 2609.29
   06:08:19.912.19-Jul-2021 4380.90 6307.39 69.36 14.00  12.80 2609.29
   06:08:20.112.19-Jul-2021 4380.90 6306.66 69.36 14.00  13.00 2609.29
   06:08:20.312.19-Jul-2021 4380.90 6306.66 69.36 14.00  13.20 2609.29
   06:08:20.512.19-Jul-2021 4380.90 6307.09 69.36 14.00  13.40 2609.29
   06:08:20.712.19-Jul-2021 4380.90 6306.55 69.36 14.00  13.61 2609.29
   06:08:20.912.19-Jul-2021 4380.90 6306.53 69.36 14.00  13.81 2609.29
   06:08:21.112.19-Jul-2021 4380.90 6330.10 69.36 14.00  14.01 2609.29
   06:08:21.312.19-Jul-2021 4380.90 6330.10 69.36 14.00  14.21 2609.29
   06:08:21.512.19-Jul-2021 4380.90 6307.72 69.36 14.00  14.41 2609.29
   06:08:21.712.19-Jul-2021 4380.90 6312.19 69.36 14.00  14.61 2609.29
   06:08:21.913.19-Jul-2021 4380.90 6312.46 69.36 14.00  14.81 2609.29
   06:08:22.113.19-Jul-2021 4380.90 6329.04 69.36 14.00  15.01 2609.29
   06:08:22.313.19-Jul-2021 4380.90 6329.04 69.36 14.00  15.21 2609.29
   06:08:22.513.19-Jul-2021 4380.90 6314.69 69.36 14.00  15.41 2609.29
   06:08:22.713.19-Jul-2021 4380.90 6312.27 69.35 14.00  15.61 2609.29
   06:08:22.913.19-Jul-2021 4380.90 6334.01 69.35 14.00  15.81 2609.29
   06:08:23.113.19-Jul-2021 4380.90 6311.06 69.35 14.00  16.01 2609.29
   06:08:23.313.19-Jul-2021 4380.90 6311.06 69.35 14.00  16.21 2609.29
   06:08:23.513.19-Jul-2021 4380.90 6316.51 69.35 14.00  16.41 2609.29
   06:08:23.713.19-Jul-2021 4380.90 6333.75 69.35 14.00  16.61 2609.29
   06:08:23.913.19-Jul-2021 4380.90 6314.29 69.35 14.00  16.81 2609.29
   06:08:24.113.19-Jul-2021 4380.90 6310.81 69.35 14.00  17.01 2609.29
   06:08:24.313.19-Jul-2021 4380.90 6310.81 69.35 14.00  17.21 2609.29
   06:08:24.514.19-Jul-2021 4380.90 6311.08 69.35 14.00  17.41 2609.29
   06:08:24.714.19-Jul-2021 4380.90 6316.27 69.35 14.00  17.61 2609.29
   06:08:24.914.19-Jul-2021 4380.90 6319.13 69.35 14.00  17.81 2609.29
   06:08:25.114.19-Jul-2021 4380.90 6316.07 69.35 14.00  18.01 2609.29
   06:08:25.314.19-Jul-2021 4380.90 6316.07 69.35 14.00  18.21 2609.29
   06:08:25.514.19-Jul-2021 4380.90 6325.09 69.35 14.00  18.41 2609.29
   06:08:25.714.19-Jul-2021 4380.90 6315.79 69.35 14.00  18.61 2609.29
   06:08:25.914.19-Jul-2021 4380.90 6324.56 69.35 14.00  18.81 2609.29
   06:08:26.114.19-Jul-2021 4380.90 6318.64 69.35 14.00  19.01 2609.29
   06:08:26.314.19-Jul-2021 4380.90 6318.64 69.35 14.00  19.21 2609.29
   06:08:26.514.19-Jul-2021 4380.90 6320.45 69.35 14.00  19.41 2609.29
   06:08:26.714.19-Jul-2021 4380.90 6318.55 69.35 14.00  19.61 2609.29
   06:08:26.914.19-Jul-2021 4380.90 6318.55 69.35 14.00  19.81 2609.29
   06:08:27.114.19-Jul-2021 4380.90 6317.78 69.35 14.00  20.01 2609.29
   06:08:27.315.19-Jul-2021 4380.90 6317.78 69.35 14.00  20.21 2609.29
   06:08:27.515.19-Jul-2021 4380.90 6316.65 69.35 14.00  20.41 2609.29
   06:08:27.715.19-Jul-2021 4380.90 6316.52 69.35 14.00  20.61 2609.29
   06:08:27.915.19-Jul-2021 4380.90 6316.72 69.35 14.00  20.81 2609.29
   06:08:28.115.19-Jul-2021 4380.90 6320.76 69.35 14.00  21.01 2609.29
   06:08:28.315.19-Jul-2021 4380.90 6320.76 69.35 14.00  21.21 2609.29
   06:08:28.515.19-Jul-2021 4380.90 6317.55 69.35 14.00  21.41 2609.29
   06:08:28.715.19-Jul-2021 4380.90 6322.47 69.35 14.00  21.61 2609.29
   06:08:28.915.19-Jul-2021 4380.90 6320.94 69.35 14.00  21.81 2609.29
   06:08:29.115.19-Jul-2021 4380.90 6320.76 69.35 14.00  22.01 2609.29
   06:08:29.315.19-Jul-2021 4380.90 6320.76 69.35 14.00  22.21 2609.29
   06:08:29.515.19-Jul-2021 4380.90 6317.98 69.35 14.00  22.41 2609.29
