~Version Information
 VERS.                  2.0:   CWLS log ASCII Standard -VERSION 2.0
 WRAP.                   NO:   One line per depth step
~Well Information Block
#MNEM.UNIT     VALUE/NAME     DESCRIPTION
#---------     -----------    ---------------------------
 STRT.S             03:40:15 19-Jul-21: START TIME 03:40:15 19-Jul-21
 STOP.S             03:47:11 19-Jul-21: STOP TIME  03:47:11 19-Jul-21
 STEP.S                   0.00: STEP TIME
 NULL.                 -999.25: NULL VALUE
 MDS .        Operator Entered:  MAG DATA SOURCE
 PDAT.          Mean Sea Level:  PERMANENT DATUM
 UNIT.                     N/A:  LOGGING EQUIPMENT ID
 DCON.         Sperry Drilling:  DIRECTNL CONTR
 DOE .                     N/A:  DOE NUMBER
 RIG .              West Azeri:  RIG NAME
 JOBN.        AZ-XX-0906997913:  JOB TICKET NUMB
 WELL.                     C41:  WELL NAME
 MWDS.                    Baku:  MWD SHOP
 SRVC.          Turan Drilling:  CONTRACTOR
 FLD .                     ACG:  FIELD NAME
 CTRY.              Azerbaijan:  COUNTRY NAME
 PROV.                    Baku:  PROVINCE
 STAT.                    Baku:  STATE NAME
 REGN.                   EESSA:  REGION
 BASE.              Azerbaijan:  LOGGING EQUIPMENT BASE LOCATION
 UWI .                     N/A:  UNIQUE WELL IDENTIFIER
 API .                     N/A:  API NUMBER
 COMP.     BP Exploration (Caspian Sea) Ltd.:  COMPANY
 WTYP.                Deviated:  WELL TYPE
 SON .        AZ-XX-0906997913:  JOB NUMBER
 FTOP.          Formation Tops:  FORM TOPS DESC
 ILTD.               Lithology:  INTERP LTH DESC
 SVYD.                  Survey:  SURVEY DESC
 DMOD.             Drill Model:  DRILL MOD DESC
 HPTY.       Minimum Curvature:  HOLE POS TYPE
 NREF.                    Grid:  NORTH REFERENCE
 SPUD.               16-May-21:  SPUD DATE
 DATE.      21.11.28 17-May-21:  END TIME
 STIM.      21.11.28 17-May-21:  START TIME
 DMF .             Drill Floor:  DRILL MEAS FROM
 DFST.                        :  DIST FSL TEXT
 DFWT.                        :  DIST FWL TEXT
 CNTY.                        :  COUNTY
 LOC .                        :  LOCATION
 LMF .             Drill Floor:  LOG MEASURED FROM
 AGAP.m                  43.42:  AIR GAP
 VSNS.m                  -2.16:  VERT SEC N/S
 VSEW.m                  -6.24:  VERT SEC E/W
 APD .m                  43.42:  DEPTH ABOVE PD
 WDMS.m                 118.27:  WD ELEV
 EGL .m                   0.00:  GROUND ELEVATION
 EPD .m                   0.00:  ELEVATION
 AZTC.deg                 6.29:  AZM TOTAL CORR
 GRDC.deg                 0.18:  GRID CORRECTION
 MDEC.deg                 6.47:  MAGNETIC DECL
 MDIP.deg                59.54:  MAGNETIC DIP
 MFLD.nT              50337.00:  MAGNETIC FIELD
 GVFD.g                   1.00:  GRAVITY FIELD
 VSDR.deg               226.99:  VERT SEC DIRECT
 TDD .m                   0.00:  TOTAL DEPTH (DRILLER)
 SDEP.m                 448.00:  START DEPTH
 DFSL.m                   0.00:  DISTANCE FSL
 DFWL.m                   0.00:  DISTANCE FWL
 UTMY.m             4435799.96:  UTM Y
 UTMX.m              526265.35:  UTM X
 WHEW.m                  -6.24:  WELL HEAD E/W
 WHNS.m                  -2.16:  WELL HEAD N/S
 LONG.deg                51.31:  LONGITUDE
 LATI.deg                40.06:  LATITUDE
 TVDS.m                  43.42:  TVDSS CORRECTN
 EKB .m                  43.42:  KB ELEVATION
 EDF .m                  43.42:  DF ELEVATION
 TDL .m                 288.00:  TOTAL DEPTH (LOGGER)
 MAGU.                 1851863:  MAGUTM CHECKSUM
 VSC .                       0:  VS TO CLOSURE
~Parameter Information Block
#MNEM.UNIT       Value        Description
#---------     -----------    ---------------------------
 AV  .mps                 0.40:  Ann Velocity 
 AVMX.mps                 0.63:  Max Ann Veloc 
 AZIF.deg               158.76:  Azm, Final 
 BHAT.        Rotary Steerable:  BHA Type 
 BROT.∞/30m               0.68:  Build Rotating 
 BS  .in                  8.50:  Bit Size 
 BSZ .in                  8.50:  Bit Size 
 BTPL.psig              712.00:  Bit Press Loss 
 CABU.                      No:  Customer Abuse 
 COMM.                     ÙZ]:  Run Comments 1 
 TCS .hr                 90.66:  Time Ciculation Ended 
 CV  .mps                 2.02:  Crit Velocity 
 CVMX.mps                 2.14:  Max Crit Veloc 
 DD1 .            Aziz Aliyevu:  Direct Drillr 1 
 DD2 .             Samir Abbas:  Direct Drillr 2 
 DD3 .           Teymur Aliyev:  Direct Drillr 3 
 DDSV.                 iCruise:  DD Service 
 DEFF.%                  85.10:  % Det Eff 
 DLRX.∞/30m               1.05:  Dogleg Rot Max 
 DLSO.∞/30m               1.01:  Dogleg Oriented 
 DLSX.∞/30m               1.05:  Dogleg Str Max 
 DRET.      07.45.00 18-Jul-21:  Drill End Time 
 DRST.      15.00.00 16-Jul-21:  Drill Start Tim 
 DTIM.hr                 23.46:  Time Drilling 
 EDEP.m                4603.00:  End Depth 
 ENG1.       Seymur Iskandarov:  Engineer 1 
 ENG2.         Yevgeniy Ulikov:  Engineer 2 
 ENG3.         Bahruz Mehdiyev:  Engineer 3 
 ENG4.         Elchin Mammadov:  Engineer 4 
 ETIM.      14.00.00 23-Jul-21:  End Time 
 FLOI.gpm               500.00:  Flow In 
 FLON.gpm               450.00:  Flow In Min 
 FLOS.cptm                0.00:  Fluid Loss 
 FLOX.gpm               560.00:  Flow In Max 
 DFT .        Mineral Oil Base:  Mud Type 
 FTRO.       Formation Presure:  FTWD Run Obj 
 HFLO.                      No:  High Flow 
 HPRE.                      No:  High Pressure 
 HTEM.                      No:  High Temp 
 HYDO.m                   1.80:  Hydro Offset 
 IFIN.deg                40.22:  Inc, Final 
 IMAX.deg                40.54:  Inc Max 
 IMIN.deg                39.44:  Inc Min 
 IMND.m                4361.17:  Inc Min Depth 
 IMXD.m                4417.92:  Inc Max Depth 
 JARR.                      No:  Jarring 
 LETM.      07.45.00 18-Jul-21:  Log End Time 
 LOST.hr                    16:  Lost Rig Time 
 LSTM.      15.00.00 16-Jul-21:  Log Start Time 
 MDCL.ppm             36500.00:  Mud Chlorides 
 MDES.     Inversion Oil/Synthetic:  Mud Desc 
 DFD .sg                  1.42:  Mud Density 
 MDMN.sg                  1.42:  Dens Mud Min 
 MDMX.sg                  1.43:  Dens Mud Max 
 MOIL.                      56:  Run Mud Oil % 
 MOWR.                   71:29:  Run Mud OWR 
 MSND.                     0.5:  Run Mud Sand % 
 MSOL.                      21:  Run Mud Solids% 
 DFV .spqt               78.00:  Mud Viscosity 
 MWOD.in                  6.75:  MWD Tool OD 
 MWSI.                     Yes:  Serv Intrp, MWD 
 OTIM.hr                200.73:  Time Operating 
 PCON.           Look Like New:  Pad Condition 
 PMAX.psia            11069.93:  Press Op, Max 
 PV  .cP                 32.00:  Mud PV 
 RUN .                     700:  Run Number 
 ROPA.m/hr               10.00:  ROP Avg 
 ROPN.m/hr                9.00:  ROP Min 
 ROPX.m/hr               16.00:  ROP Max 
 RPMA.rpm               116.00:  RPM Surface Avg 
 RPMN.rpm                80.00:  RPM Surface Min 
 RPMX.rpm               120.00:  RPM Surface Max 
 RRUN.                    L605:  Rig Run Number 
 RTIM.hr                 45.00:  Time Reaming 
 SAZI.deg               159.86:  Azm, Start 
 SDEP.m                4315.00:  Start Depth 
 SIDD.                      No:  Serv Intrp, DD 
 SINC.deg                39.86:  Inc, Start 
 SPPA.psig             3300.00:  SPP Avg 
 SPPN.psig             3040.00:  SPP Min 
 SPPX.psig             3645.00:  SPP Max 
 STIM.      01.00.00 15-Jul-21:  Start Time 
 SVCS.                 DD, MWD:  Services 
 SVER.                    9.20:  Sperry Version 
 TDAT.m                 288.00:  Tot Depth Attmp 
 TDDF.                      No:  Trip for DD 
 TDLG.m                 288.00:  Tot Depth Loggd 
 TFF .                      No:  Trip for Fail 
 TQAA.f-kp               19.00:  Torque Abs Avg 
 TQAN.f-kp               18.00:  Torque Abs Min 
 TQAX.f-kp               21.00:  Torque Abs Max 
 TRRT.∞/30m               0.45:  Turn Rotating 
 MRT .                    HCIM:  Maximum Recorded Temperature 
 TTMX.degC               88.24:  Max Tool Temp 
 VS01.                90649157:  Virtual Str1 SN 
 VS02.                90652483:  Virtual Str2 SN 
 VS03.                11671987:  Virtual Str3 SN 
 VS04.                90643411:  Virtual Str4 SN 
 VS05.                90652478:  Virtual Str5 SN 
 VS06.                    6111:  Virtual Str6 SN 
 WBMN.klb                 9.50:  WOB Min 
 WITN.        Grigoriy Sarayev:  Customer Rep 
 WITN.          Rufat Huseynov:  Customer Rep 2 
 WOBA.klb                11.00:  WOB Avg 
 WOBX.klb                15.00:  WOB Max 
 YP  .lhf2               28.00:  Yield Point 
~Curve Information Block
#MNEM.UNIT                 API CODE     Curve Description
#---------               -----------    ---------------------------
 TIME.HHMMSS            00 000 000 000:  GT Time & Date
 GTDEPTH.m              00 000 000 000:  GT Depth
 GTPQH.psia             00 000 000 000:  GT HR Quartz Pressure
 GTTQ.degC              00 000 000 000:  GT Quartz Temperature
 GTTN.NONE              00 000 000 000:  GT Test Number
 GTET.sec               00 000 000 000:  GT Elapsed Test Time
 GTTVD.m                00 000 000 000:  GT True Vertical Depth
#Other Information
#
#WARRANTY: Halliburton will use its best efforts to furnish customers with 
#accurate information and interpretations that are part of, and incident to, the services 
#provided.  However, Halliburton cannot and does not warrant the accuracy 
#or correctness of such information and interpretations.  Under no circumstances should any 
#such information or interpretation be relied upon as the sole basis for any drilling, 
#completion, production, or financial decision or any procedure involving any risk to the 
#safety of any drilling venture, drilling rig or its crew or any other third party.  The 
#Customer has full responsibility for all drilling, completion and production operation.  
#Halliburton makes no representations or warranties, either expressed or 
#implied, including, but not limited to, the implied warranties of merchantability or fitness 
#for a particular purpose, with respect to the services rendered.  In no event will 
#Halliburton be liable for failure to obtain any particular results or for 
#any damages, including, but not limited to, indirect, special or consequential damages, 
#resulting from the use of any information or interpretation provided by Halliburton.
#
~A           TIME           GTDEPTH  GTPQH  GTTQ  GTTN   GTET   GTTVD  
# ...
   03:46:17.574.19-Jul-2021 4323.50 6293.11 69.06 10.00 361.73 2565.11
   03:46:17.774.19-Jul-2021 4323.50 6296.09 69.06 10.00 361.93 2565.11
   03:46:17.974.19-Jul-2021 4323.50 6294.05 69.06 10.00 362.13 2565.11
   03:46:18.174.19-Jul-2021 4323.50 6294.05 69.06 10.00 362.33 2565.11
   03:46:18.374.19-Jul-2021 4323.50 6292.28 69.06 10.00 362.53 2565.11
   03:46:18.574.19-Jul-2021 4323.50 6292.07 69.06 10.00 362.73 2565.11
   03:46:18.774.19-Jul-2021 4323.50 6293.39 69.07 10.00 362.93 2565.11
   03:46:18.974.19-Jul-2021 4323.50 6291.99 69.07 10.00 363.13 2565.11
   03:46:19.174.19-Jul-2021 4323.50 6291.99 69.07 10.00 363.33 2565.11
   03:46:19.374.19-Jul-2021 4323.50 6292.75 69.07 10.00 363.53 2565.11
   03:46:19.575.19-Jul-2021 4323.50 6292.33 69.07 10.00 363.73 2565.11
   03:46:19.775.19-Jul-2021 4323.50 6308.91 69.07 10.00 363.93 2565.11
   03:46:19.975.19-Jul-2021 4323.50 6290.96 69.07 10.00 364.13 2565.11
   03:46:20.175.19-Jul-2021 4323.50 6290.96 69.07 10.00 364.33 2565.11
   03:46:20.375.19-Jul-2021 4323.50 6297.25 69.08 10.00 364.53 2565.11
   03:46:20.575.19-Jul-2021 4323.50 6293.27 69.08 10.00 364.73 2565.11
   03:46:20.775.19-Jul-2021 4323.50 6291.56 69.08 10.00 364.93 2565.11
   03:46:20.975.19-Jul-2021 4323.50 6294.85 69.08 10.00 365.13 2565.11
   03:46:21.175.19-Jul-2021 4323.50 6294.85 69.08 10.00 365.33 2565.11
   03:46:21.375.19-Jul-2021 4323.50 6291.07 69.08 10.00 365.53 2565.11
   03:46:21.575.19-Jul-2021 4323.50 6290.62 69.08 10.00 365.73 2565.11
   03:46:21.775.19-Jul-2021 4323.50 6290.43 69.08 10.00 365.93 2565.11
   03:46:21.975.19-Jul-2021 4323.50 6291.05 69.08 10.00 366.13 2565.11
   03:46:22.175.19-Jul-2021 4323.50 6291.05 69.08 10.00 366.33 2565.11
   03:46:22.376.19-Jul-2021 4323.50 6307.56 69.08 10.00 366.53 2565.11
   03:46:22.576.19-Jul-2021 4323.50 6290.17 69.08 10.00 366.74 2565.11
   03:46:22.776.19-Jul-2021 4323.50 6290.48 69.09 10.00 366.94 2565.11
   03:46:22.976.19-Jul-2021 4323.50 6321.33 69.09 10.00 367.14 2565.11
   03:46:23.176.19-Jul-2021 4323.50 6321.33 69.09 10.00 367.34 2565.11
   03:46:23.376.19-Jul-2021 4323.50 6288.76 69.09 10.00 367.54 2565.11
   03:46:23.576.19-Jul-2021 4323.50 6321.20 69.09 10.00 367.74 2565.11
   03:46:23.776.19-Jul-2021 4323.50 6290.86 69.09 10.00 367.94 2565.11
   03:46:23.976.19-Jul-2021 4323.50 6290.06 69.09 10.00 368.14 2565.11
   03:46:24.176.19-Jul-2021 4323.50 6290.06 69.09 10.00 368.34 2565.11
   03:46:24.376.19-Jul-2021 4323.50 6292.83 69.09 10.00 368.54 2565.11
   03:46:24.576.19-Jul-2021 4323.50 6313.01 69.09 10.00 368.74 2565.11
   03:46:24.776.19-Jul-2021 4323.50 6296.38 69.09 10.00 368.94 2565.11
   03:46:24.977.19-Jul-2021 4323.50 6291.90 69.09 10.00 369.14 2565.11
   03:46:25.177.19-Jul-2021 4323.50 6291.90 69.09 10.00 369.34 2565.11
   03:46:25.377.19-Jul-2021 4323.50 6311.11 69.09 10.00 369.54 2565.11
   03:46:25.577.19-Jul-2021 4323.50 6296.04 69.09 10.00 369.74 2565.11
   03:46:25.777.19-Jul-2021 4323.50 6292.69 69.09 10.00 369.94 2565.11
   03:46:25.977.19-Jul-2021 4323.50 6300.75 69.09 10.00 370.14 2565.11
   03:46:26.177.19-Jul-2021 4323.50 6300.75 69.09 10.00 370.34 2565.11
   03:46:26.377.19-Jul-2021 4323.50 6295.09 69.09 10.00 370.54 2565.11
   03:46:26.577.19-Jul-2021 4323.50 6293.94 69.09 10.00 370.74 2565.11
   03:46:26.777.19-Jul-2021 4323.50 6293.12 69.09 10.00 370.94 2565.11
   03:46:26.977.19-Jul-2021 4323.50 6294.10 69.10 10.00 371.14 2565.11
   03:46:27.177.19-Jul-2021 4323.50 6294.10 69.10 10.00 371.34 2565.11
   03:46:27.377.19-Jul-2021 4323.50 6293.39 69.10 10.00 371.54 2565.11
   03:46:27.577.19-Jul-2021 4323.50 6293.89 69.10 10.00 371.74 2565.11
   03:46:27.778.19-Jul-2021 4323.50 6293.82 69.10 10.00 371.94 2565.11
   03:46:27.978.19-Jul-2021 4323.50 6292.43 69.10 10.00 372.14 2565.11
   03:46:28.178.19-Jul-2021 4323.50 6292.43 69.10 10.00 372.34 2565.11
   03:46:28.378.19-Jul-2021 4323.50 6313.60 69.10 10.00 372.54 2565.11
   03:46:28.578.19-Jul-2021 4323.50 6291.25 69.10 10.00 372.74 2565.11
   03:46:28.778.19-Jul-2021 4323.50 6300.45 69.10 10.00 372.94 2565.11
   03:46:28.978.19-Jul-2021 4323.50 6293.54 69.10 10.00 373.14 2565.11
   03:46:29.178.19-Jul-2021 4323.50 6293.54 69.10 10.00 373.34 2565.11
   03:46:29.378.19-Jul-2021 4323.50 6293.90 69.10 10.00 373.54 2565.11
   03:46:29.578.19-Jul-2021 4323.50 6291.24 69.10 10.00 373.74 2565.11
   03:46:29.778.19-Jul-2021 4323.50 6291.41 69.10 10.00 373.94 2565.11
   03:46:29.978.19-Jul-2021 4323.50 6290.68 69.10 10.00 374.14 2565.11
   03:46:30.178.19-Jul-2021 4323.50 6290.68 69.10 10.00 374.34 2565.11
   03:46:30.379.19-Jul-2021 4323.50 6291.09 69.10 10.00 374.54 2565.11
   03:46:30.579.19-Jul-2021 4323.50 6289.73 69.10 10.00 374.74 2565.11
   03:46:30.779.19-Jul-2021 4323.50 6311.92 69.10 10.00 374.94 2565.11
   03:46:30.979.19-Jul-2021 4323.50 6286.88 69.10 10.00 375.14 2565.11
   03:46:31.179.19-Jul-2021 4323.50 6286.88 69.10 10.00 375.34 2565.11
   03:46:31.379.19-Jul-2021 4323.50 6317.70 69.10 10.00 375.54 2565.11
   03:46:31.579.19-Jul-2021 4323.50 6292.69 69.10 10.00 375.74 2565.11
   03:46:31.779.19-Jul-2021 4323.50 6289.26 69.10 10.00 375.94 2565.11
   03:46:31.979.19-Jul-2021 4323.50 6302.75 69.10 10.00 376.14 2565.11
   03:46:32.179.19-Jul-2021 4323.50 6302.75 69.10 10.00 376.34 2565.11
   03:46:32.379.19-Jul-2021 4323.50 6291.44 69.10 10.00 376.54 2565.11
   03:46:32.579.19-Jul-2021 4323.50 6290.46 69.10 10.00 376.74 2565.11
   03:46:32.779.19-Jul-2021 4323.50 6299.63 69.10 10.00 376.94 2565.11
   03:46:32.979.19-Jul-2021 4323.50 6317.32 69.10 10.00 377.14 2565.11
   03:46:33.180.19-Jul-2021 4323.50 6317.32 69.10 10.00 377.34 2565.11
   03:46:33.380.19-Jul-2021 4323.50 6293.02 69.10 10.00 377.54 2565.11
   03:46:33.580.19-Jul-2021 4323.50 6300.19 69.10 10.00 377.74 2565.11
   03:46:33.780.19-Jul-2021 4323.50 6312.37 69.10 10.00 377.94 2565.11
   03:46:33.980.19-Jul-2021 4323.50 6292.95 69.10 10.00 378.14 2565.11
   03:46:34.180.19-Jul-2021 4323.50 6292.95 69.10 10.00 378.34 2565.11
   03:46:34.380.19-Jul-2021 4323.50 6301.98 69.10 10.00 378.54 2565.11
   03:46:34.580.19-Jul-2021 4323.50 6295.05 69.10 10.00 378.74 2565.11
   03:46:34.780.19-Jul-2021 4323.50 6295.99 69.10 10.00 378.94 2565.11
   03:46:34.980.19-Jul-2021 4323.50 6295.17 69.10 10.00 379.14 2565.11
   03:46:35.180.19-Jul-2021 4323.50 6295.17 69.10 10.00 379.34 2565.11
   03:46:35.380.19-Jul-2021 4323.50 6295.38 69.10 10.00 379.54 2565.11
   03:46:35.580.19-Jul-2021 4323.50 6294.08 69.10 10.00 379.74 2565.11
   03:46:35.781.19-Jul-2021 4323.50 6294.61 69.10 10.00 379.94 2565.11
   03:46:35.981.19-Jul-2021 4323.50 6294.46 69.10 10.00 380.14 2565.11
   03:46:36.181.19-Jul-2021 4323.50 6294.46 69.10 10.00 380.34 2565.11
   03:46:36.381.19-Jul-2021 4323.50 6291.60 69.10 10.00 380.54 2565.11
   03:46:36.581.19-Jul-2021 4323.50 6312.60 69.10 10.00 380.74 2565.11
   03:46:36.781.19-Jul-2021 4323.50 6287.53 69.10 10.00 380.94 2565.11
   03:46:36.981.19-Jul-2021 4323.50 6289.50 69.10 10.00 381.14 2565.11
   03:46:37.181.19-Jul-2021 4323.50 6289.50 69.10 10.00 381.34 2565.11
   03:46:37.381.19-Jul-2021 4323.50 6292.16 69.10 10.00 381.54 2565.11
   03:46:37.581.19-Jul-2021 4323.50 6290.39 69.10 10.00 381.74 2565.11
   03:46:37.781.19-Jul-2021 4323.50 6292.88 69.10 10.00 381.94 2565.11
   03:46:37.981.19-Jul-2021 4323.50 6291.01 69.10 10.00 382.14 2565.11
   03:46:38.181.19-Jul-2021 4323.50 6291.01 69.10 10.00 382.34 2565.11
   03:46:38.381.19-Jul-2021 4323.50 6291.22 69.09 10.00 382.54 2565.11
   03:46:38.582.19-Jul-2021 4323.50 6291.75 69.09 10.00 382.74 2565.11
   03:46:38.782.19-Jul-2021 4323.50 6291.14 69.09 10.00 382.94 2565.11
   03:46:38.982.19-Jul-2021 4323.50 6290.93 69.09 10.00 383.14 2565.11
   03:46:39.182.19-Jul-2021 4323.50 6290.93 69.09 10.00 383.34 2565.11
   03:46:39.382.19-Jul-2021 4323.50 6286.98 69.09 10.00 383.54 2565.11
   03:46:39.582.19-Jul-2021 4323.50 6288.58 69.09 10.00 383.74 2565.11
   03:46:39.782.19-Jul-2021 4323.50 6317.92 69.09 10.00 383.94 2565.11
   03:46:39.982.19-Jul-2021 4323.50 6293.60 69.09 10.00 384.14 2565.11
