~Version Information
 VERS.                  2.0:   CWLS log ASCII Standard -VERSION 2.0
 WRAP.                   NO:   One line per depth step
~Well Information Block
#MNEM.UNIT     VALUE/NAME     DESCRIPTION
#---------     -----------    ---------------------------
 STRT.S             10:59:18 19-Jul-21: START TIME 10:59:18 19-Jul-21
 STOP.S             11:06:11 19-Jul-21: STOP TIME  11:06:11 19-Jul-21
 STEP.S                   0.00: STEP TIME
 NULL.                 -999.25: NULL VALUE
 MDS .        Operator Entered:  MAG DATA SOURCE
 PDAT.          Mean Sea Level:  PERMANENT DATUM
 UNIT.                     N/A:  LOGGING EQUIPMENT ID
 DCON.         Sperry Drilling:  DIRECTNL CONTR
 DOE .                     N/A:  DOE NUMBER
 RIG .              West Azeri:  RIG NAME
 JOBN.        AZ-XX-0906997913:  JOB TICKET NUMB
 WELL.                     C41:  WELL NAME
 MWDS.                    Baku:  MWD SHOP
 SRVC.          Turan Drilling:  CONTRACTOR
 FLD .                     ACG:  FIELD NAME
 CTRY.              Azerbaijan:  COUNTRY NAME
 PROV.                    Baku:  PROVINCE
 STAT.                    Baku:  STATE NAME
 REGN.                   EESSA:  REGION
 BASE.              Azerbaijan:  LOGGING EQUIPMENT BASE LOCATION
 UWI .                     N/A:  UNIQUE WELL IDENTIFIER
 API .                     N/A:  API NUMBER
 COMP.     BP Exploration (Caspian Sea) Ltd.:  COMPANY
 WTYP.                Deviated:  WELL TYPE
 SON .        AZ-XX-0906997913:  JOB NUMBER
 FTOP.          Formation Tops:  FORM TOPS DESC
 ILTD.               Lithology:  INTERP LTH DESC
 SVYD.                  Survey:  SURVEY DESC
 DMOD.             Drill Model:  DRILL MOD DESC
 HPTY.       Minimum Curvature:  HOLE POS TYPE
 NREF.                    Grid:  NORTH REFERENCE
 SPUD.               16-May-21:  SPUD DATE
 DATE.      21.11.28 17-May-21:  END TIME
 STIM.      21.11.28 17-May-21:  START TIME
 DMF .             Drill Floor:  DRILL MEAS FROM
 DFST.                        :  DIST FSL TEXT
 DFWT.                        :  DIST FWL TEXT
 CNTY.                        :  COUNTY
 LOC .                        :  LOCATION
 LMF .             Drill Floor:  LOG MEASURED FROM
 AGAP.m                  43.42:  AIR GAP
 VSNS.m                  -2.16:  VERT SEC N/S
 VSEW.m                  -6.24:  VERT SEC E/W
 APD .m                  43.42:  DEPTH ABOVE PD
 WDMS.m                 118.27:  WD ELEV
 EGL .m                   0.00:  GROUND ELEVATION
 EPD .m                   0.00:  ELEVATION
 AZTC.deg                 6.29:  AZM TOTAL CORR
 GRDC.deg                 0.18:  GRID CORRECTION
 MDEC.deg                 6.47:  MAGNETIC DECL
 MDIP.deg                59.54:  MAGNETIC DIP
 MFLD.nT              50337.00:  MAGNETIC FIELD
 GVFD.g                   1.00:  GRAVITY FIELD
 VSDR.deg               226.99:  VERT SEC DIRECT
 TDD .m                   0.00:  TOTAL DEPTH (DRILLER)
 SDEP.m                 448.00:  START DEPTH
 DFSL.m                   0.00:  DISTANCE FSL
 DFWL.m                   0.00:  DISTANCE FWL
 UTMY.m             4435799.96:  UTM Y
 UTMX.m              526265.35:  UTM X
 WHEW.m                  -6.24:  WELL HEAD E/W
 WHNS.m                  -2.16:  WELL HEAD N/S
 LONG.deg                51.31:  LONGITUDE
 LATI.deg                40.06:  LATITUDE
 TVDS.m                  43.42:  TVDSS CORRECTN
 EKB .m                  43.42:  KB ELEVATION
 EDF .m                  43.42:  DF ELEVATION
 TDL .m                 288.00:  TOTAL DEPTH (LOGGER)
 MAGU.                 1851863:  MAGUTM CHECKSUM
 VSC .                       0:  VS TO CLOSURE
~Parameter Information Block
#MNEM.UNIT       Value        Description
#---------     -----------    ---------------------------
 AV  .mps                 0.40:  Ann Velocity 
 AVMX.mps                 0.63:  Max Ann Veloc 
 AZIF.deg               158.76:  Azm, Final 
 BHAT.        Rotary Steerable:  BHA Type 
 BROT.°/30m               0.68:  Build Rotating 
 BS  .in                  8.50:  Bit Size 
 BSZ .in                  8.50:  Bit Size 
 BTPL.psig              712.00:  Bit Press Loss 
 CABU.                      No:  Customer Abuse 
 COMM.                     ô:x:  Run Comments 1 
 TCS .hr                 90.66:  Time Ciculation Ended 
 CV  .mps                 2.02:  Crit Velocity 
 CVMX.mps                 2.14:  Max Crit Veloc 
 DD1 .            Aziz Aliyevu:  Direct Drillr 1 
 DD2 .             Samir Abbas:  Direct Drillr 2 
 DD3 .           Teymur Aliyev:  Direct Drillr 3 
 DDSV.                 iCruise:  DD Service 
 DEFF.%                  85.10:  % Det Eff 
 DLRX.°/30m               1.05:  Dogleg Rot Max 
 DLSO.°/30m               1.01:  Dogleg Oriented 
 DLSX.°/30m               1.05:  Dogleg Str Max 
 DRET.      07.45.00 18-Jul-21:  Drill End Time 
 DRST.      15.00.00 16-Jul-21:  Drill Start Tim 
 DTIM.hr                 23.46:  Time Drilling 
 EDEP.m                4603.00:  End Depth 
 ENG1.       Seymur Iskandarov:  Engineer 1 
 ENG2.         Yevgeniy Ulikov:  Engineer 2 
 ENG3.         Bahruz Mehdiyev:  Engineer 3 
 ENG4.         Elchin Mammadov:  Engineer 4 
 ETIM.      14.00.00 23-Jul-21:  End Time 
 FLOI.gpm               500.00:  Flow In 
 FLON.gpm               450.00:  Flow In Min 
 FLOS.cptm                0.00:  Fluid Loss 
 FLOX.gpm               560.00:  Flow In Max 
 DFT .        Mineral Oil Base:  Mud Type 
 FTRO.       Formation Presure:  FTWD Run Obj 
 HFLO.                      No:  High Flow 
 HPRE.                      No:  High Pressure 
 HTEM.                      No:  High Temp 
 HYDO.m                   1.80:  Hydro Offset 
 IFIN.deg                40.22:  Inc, Final 
 IMAX.deg                40.54:  Inc Max 
 IMIN.deg                39.44:  Inc Min 
 IMND.m                4361.17:  Inc Min Depth 
 IMXD.m                4417.92:  Inc Max Depth 
 JARR.                      No:  Jarring 
 LETM.      07.45.00 18-Jul-21:  Log End Time 
 LOST.hr                    16:  Lost Rig Time 
 LSTM.      15.00.00 16-Jul-21:  Log Start Time 
 MDCL.ppm             36500.00:  Mud Chlorides 
 MDES.     Inversion Oil/Synthetic:  Mud Desc 
 DFD .sg                  1.42:  Mud Density 
 MDMN.sg                  1.42:  Dens Mud Min 
 MDMX.sg                  1.43:  Dens Mud Max 
 MOIL.                      56:  Run Mud Oil % 
 MOWR.                   71:29:  Run Mud OWR 
 MSND.                     0.5:  Run Mud Sand % 
 MSOL.                      21:  Run Mud Solids% 
 DFV .spqt               78.00:  Mud Viscosity 
 MWOD.in                  6.75:  MWD Tool OD 
 MWSI.                     Yes:  Serv Intrp, MWD 
 OTIM.hr                200.73:  Time Operating 
 PCON.           Look Like New:  Pad Condition 
 PMAX.psia            11069.93:  Press Op, Max 
 PV  .cP                 32.00:  Mud PV 
 RUN .                     700:  Run Number 
 ROPA.m/hr               10.00:  ROP Avg 
 ROPN.m/hr                9.00:  ROP Min 
 ROPX.m/hr               16.00:  ROP Max 
 RPMA.rpm               116.00:  RPM Surface Avg 
 RPMN.rpm                80.00:  RPM Surface Min 
 RPMX.rpm               120.00:  RPM Surface Max 
 RRUN.                    L605:  Rig Run Number 
 RTIM.hr                 45.00:  Time Reaming 
 SAZI.deg               159.86:  Azm, Start 
 SDEP.m                4315.00:  Start Depth 
 SIDD.                      No:  Serv Intrp, DD 
 SINC.deg                39.86:  Inc, Start 
 SPPA.psig             3300.00:  SPP Avg 
 SPPN.psig             3040.00:  SPP Min 
 SPPX.psig             3645.00:  SPP Max 
 STIM.      01.00.00 15-Jul-21:  Start Time 
 SVCS.                 DD, MWD:  Services 
 SVER.                    9.20:  Sperry Version 
 TDAT.m                 288.00:  Tot Depth Attmp 
 TDDF.                      No:  Trip for DD 
 TDLG.m                 288.00:  Tot Depth Loggd 
 TFF .                      No:  Trip for Fail 
 TQAA.f-kp               19.00:  Torque Abs Avg 
 TQAN.f-kp               18.00:  Torque Abs Min 
 TQAX.f-kp               21.00:  Torque Abs Max 
 TRRT.°/30m               0.45:  Turn Rotating 
 MRT .                    HCIM:  Maximum Recorded Temperature 
 TTMX.degC               88.24:  Max Tool Temp 
 VS01.                90649157:  Virtual Str1 SN 
 VS02.                90652483:  Virtual Str2 SN 
 VS03.                11671987:  Virtual Str3 SN 
 VS04.                90643411:  Virtual Str4 SN 
 VS05.                90652478:  Virtual Str5 SN 
 VS06.                    6111:  Virtual Str6 SN 
 WBMN.klb                 9.50:  WOB Min 
 WITN.        Grigoriy Sarayev:  Customer Rep 
 WITN.          Rufat Huseynov:  Customer Rep 2 
 WOBA.klb                11.00:  WOB Avg 
 WOBX.klb                15.00:  WOB Max 
 YP  .lhf2               28.00:  Yield Point 
~Curve Information Block
#MNEM.UNIT                 API CODE     Curve Description
#---------               -----------    ---------------------------
 TIME.HHMMSS            00 000 000 000:  GT Time & Date
 GTDEPTH.m              00 000 000 000:  GT Depth
 GTPQH.psia             00 000 000 000:  GT HR Quartz Pressure
 GTTQ.degC              00 000 000 000:  GT Quartz Temperature
 GTTN.NONE              00 000 000 000:  GT Test Number
 GTET.sec               00 000 000 000:  GT Elapsed Test Time
 GTTVD.m                00 000 000 000:  GT True Vertical Depth
#Other Information
#
#WARRANTY: Halliburton will use its best efforts to furnish customers with 
#accurate information and interpretations that are part of, and incident to, the services 
#provided.  However, Halliburton cannot and does not warrant the accuracy 
#or correctness of such information and interpretations.  Under no circumstances should any 
#such information or interpretation be relied upon as the sole basis for any drilling, 
#completion, production, or financial decision or any procedure involving any risk to the 
#safety of any drilling venture, drilling rig or its crew or any other third party.  The 
#Customer has full responsibility for all drilling, completion and production operation.  
#Halliburton makes no representations or warranties, either expressed or 
#implied, including, but not limited to, the implied warranties of merchantability or fitness 
#for a particular purpose, with respect to the services rendered.  In no event will 
#Halliburton be liable for failure to obtain any particular results or for 
#any damages, including, but not limited to, indirect, special or consequential damages, 
#resulting from the use of any information or interpretation provided by Halliburton.
#
~A           TIME           GTDEPTH  GTPQH  GTTQ  GTTN   GTET   GTTVD  
# ...
   11:04:57.665.19-Jul-2021 4503.50 3538.65 70.64 24.00 339.12 2702.92
   11:04:57.865.19-Jul-2021 4503.50 3538.65 70.64 24.00 339.32 2702.92
   11:04:58.065.19-Jul-2021 4503.50 3538.67 70.64 24.00 339.53 2702.92
   11:04:58.265.19-Jul-2021 4503.50 3538.66 70.64 24.00 339.73 2702.92
   11:04:58.465.19-Jul-2021 4503.50 3538.68 70.64 24.00 339.93 2702.92
   11:04:58.665.19-Jul-2021 4503.50 3538.68 70.64 24.00 340.13 2702.92
   11:04:58.866.19-Jul-2021 4503.50 3538.68 70.64 24.00 340.33 2702.92
   11:04:59.066.19-Jul-2021 4503.50 3538.79 70.64 24.00 340.53 2702.92
   11:04:59.266.19-Jul-2021 4503.50 3538.57 70.64 24.00 340.73 2702.92
   11:04:59.466.19-Jul-2021 4503.50 3538.70 70.64 24.00 340.93 2702.92
   11:04:59.666.19-Jul-2021 4503.50 3538.75 70.64 24.00 341.13 2702.92
   11:04:59.866.19-Jul-2021 4503.50 3538.75 70.64 24.00 341.33 2702.92
   11:05:00.066.19-Jul-2021 4503.50 3538.65 70.64 24.00 341.53 2702.92
   11:05:00.266.19-Jul-2021 4503.50 3538.68 70.64 24.00 341.73 2702.92
   11:05:00.466.19-Jul-2021 4503.50 3538.69 70.64 24.00 341.93 2702.92
   11:05:00.666.19-Jul-2021 4503.50 3538.63 70.64 24.00 342.13 2702.92
   11:05:00.866.19-Jul-2021 4503.50 3538.63 70.64 24.00 342.33 2702.92
   11:05:01.066.19-Jul-2021 4503.50 3538.69 70.64 24.00 342.53 2702.92
   11:05:01.266.19-Jul-2021 4503.50 3538.66 70.64 24.00 342.73 2702.92
   11:05:01.467.19-Jul-2021 4503.50 3538.69 70.64 24.00 342.93 2702.92
   11:05:01.667.19-Jul-2021 4503.50 3538.66 70.64 24.00 343.13 2702.92
   11:05:01.867.19-Jul-2021 4503.50 3538.66 70.64 24.00 343.33 2702.92
   11:05:02.067.19-Jul-2021 4503.50 3538.74 70.64 24.00 343.53 2702.92
   11:05:02.267.19-Jul-2021 4503.50 3538.64 70.64 24.00 343.73 2702.92
   11:05:02.467.19-Jul-2021 4503.50 3538.68 70.64 24.00 343.93 2702.92
   11:05:02.667.19-Jul-2021 4503.50 3538.70 70.64 24.00 344.13 2702.92
   11:05:02.867.19-Jul-2021 4503.50 3538.70 70.64 24.00 344.33 2702.92
   11:05:03.067.19-Jul-2021 4503.50 3538.67 70.64 24.00 344.53 2702.92
   11:05:03.267.19-Jul-2021 4503.50 3538.67 70.64 24.00 344.73 2702.92
   11:05:03.467.19-Jul-2021 4503.50 3538.66 70.64 24.00 344.93 2702.92
   11:05:03.667.19-Jul-2021 4503.50 3538.67 70.64 24.00 345.13 2702.92
   11:05:03.867.19-Jul-2021 4503.50 3538.67 70.64 24.00 345.33 2702.92
   11:05:04.067.19-Jul-2021 4503.50 3538.67 70.64 24.00 345.53 2702.92
   11:05:04.268.19-Jul-2021 4503.50 3538.68 70.64 24.00 345.73 2702.92
   11:05:04.468.19-Jul-2021 4503.50 3538.66 70.64 24.00 345.93 2702.92
   11:05:04.668.19-Jul-2021 4503.50 3538.69 70.64 24.00 346.13 2702.92
   11:05:04.868.19-Jul-2021 4503.50 3538.69 70.64 24.00 346.33 2702.92
   11:05:05.068.19-Jul-2021 4503.50 3538.63 70.65 24.00 346.53 2702.92
   11:05:05.268.19-Jul-2021 4503.50 3538.73 70.64 24.00 346.73 2702.92
   11:05:05.468.19-Jul-2021 4503.50 3538.67 70.65 24.00 346.93 2702.92
   11:05:05.668.19-Jul-2021 4503.50 3538.67 70.65 24.00 347.13 2702.92
   11:05:05.868.19-Jul-2021 4503.50 3538.67 70.65 24.00 347.33 2702.92
   11:05:06.068.19-Jul-2021 4503.50 3538.67 70.65 24.00 347.53 2702.92
   11:05:06.268.19-Jul-2021 4503.50 3538.68 70.65 24.00 347.73 2702.92
   11:05:06.468.19-Jul-2021 4503.50 3538.67 70.65 24.00 347.93 2702.92
   11:05:06.668.19-Jul-2021 4503.50 3538.67 70.65 24.00 348.13 2702.92
   11:05:06.869.19-Jul-2021 4503.50 3538.67 70.65 24.00 348.33 2702.92
   11:05:07.069.19-Jul-2021 4503.50 3538.68 70.65 24.00 348.53 2702.92
   11:05:07.269.19-Jul-2021 4503.50 3538.67 70.65 24.00 348.73 2702.92
   11:05:07.469.19-Jul-2021 4503.50 3538.70 70.65 24.00 348.93 2702.92
   11:05:07.669.19-Jul-2021 4503.50 3538.66 70.65 24.00 349.13 2702.92
   11:05:07.869.19-Jul-2021 4503.50 3538.66 70.65 24.00 349.33 2702.92
   11:05:08.069.19-Jul-2021 4503.50 3538.82 70.65 24.00 349.53 2702.92
   11:05:08.269.19-Jul-2021 4503.50 3538.54 70.65 24.00 349.73 2702.92
   11:05:08.469.19-Jul-2021 4503.50 3538.71 70.65 24.00 349.93 2702.92
   11:05:08.669.19-Jul-2021 4503.50 3538.65 70.65 24.00 350.13 2702.92
   11:05:08.869.19-Jul-2021 4503.50 3538.65 70.65 24.00 350.33 2702.92
   11:05:09.069.19-Jul-2021 4503.50 3538.63 70.65 24.00 350.53 2702.92
   11:05:09.269.19-Jul-2021 4503.50 3538.71 70.65 24.00 350.73 2702.92
   11:05:09.469.19-Jul-2021 4503.50 3538.69 70.65 24.00 350.93 2702.92
   11:05:09.670.19-Jul-2021 4503.50 3538.67 70.65 24.00 351.13 2702.92
   11:05:09.870.19-Jul-2021 4503.50 3538.67 70.65 24.00 351.33 2702.92
   11:05:10.070.19-Jul-2021 4503.50 3538.66 70.65 24.00 351.53 2702.92
   11:05:10.270.19-Jul-2021 4503.50 3538.71 70.65 24.00 351.73 2702.92
   11:05:10.470.19-Jul-2021 4503.50 3538.63 70.65 24.00 351.93 2702.92
   11:05:10.670.19-Jul-2021 4503.50 3538.68 70.65 24.00 352.13 2702.92
   11:05:10.870.19-Jul-2021 4503.50 3538.68 70.65 24.00 352.33 2702.92
   11:05:11.070.19-Jul-2021 4503.50 3538.70 70.65 24.00 352.53 2702.92
   11:05:11.270.19-Jul-2021 4503.50 3538.69 70.65 24.00 352.73 2702.92
   11:05:11.470.19-Jul-2021 4503.50 3538.66 70.65 24.00 352.93 2702.92
   11:05:11.670.19-Jul-2021 4503.50 3538.69 70.65 24.00 353.13 2702.92
   11:05:11.870.19-Jul-2021 4503.50 3538.69 70.65 24.00 353.33 2702.92
   11:05:12.070.19-Jul-2021 4503.50 3538.69 70.65 24.00 353.53 2702.92
   11:05:12.270.19-Jul-2021 4503.50 3538.67 70.65 24.00 353.73 2702.92
   11:05:12.471.19-Jul-2021 4503.50 3538.69 70.65 24.00 353.93 2702.92
   11:05:12.671.19-Jul-2021 4503.50 3538.67 70.65 24.00 354.13 2702.92
   11:05:12.871.19-Jul-2021 4503.50 3538.67 70.65 24.00 354.33 2702.92
   11:05:13.071.19-Jul-2021 4503.50 3538.69 70.65 24.00 354.53 2702.92
   11:05:13.271.19-Jul-2021 4503.50 3538.66 70.65 24.00 354.73 2702.92
   11:05:13.471.19-Jul-2021 4503.50 3538.75 70.65 24.00 354.93 2702.92
   11:05:13.671.19-Jul-2021 4503.50 3538.63 70.65 24.00 355.13 2702.92
   11:05:13.871.19-Jul-2021 4503.50 3538.63 70.65 24.00 355.33 2702.92
   11:05:14.071.19-Jul-2021 4503.50 3538.68 70.65 24.00 355.53 2702.92
   11:05:14.271.19-Jul-2021 4503.50 3538.66 70.65 24.00 355.73 2702.92
   11:05:14.471.19-Jul-2021 4503.50 3538.65 70.65 24.00 355.93 2702.92
   11:05:14.671.19-Jul-2021 4503.50 3538.69 70.65 24.00 356.13 2702.92
   11:05:14.871.19-Jul-2021 4503.50 3538.69 70.65 24.00 356.33 2702.92
   11:05:15.072.19-Jul-2021 4503.50 3538.68 70.65 24.00 356.53 2702.92
   11:05:15.272.19-Jul-2021 4503.50 3538.69 70.65 24.00 356.73 2702.92
   11:05:15.472.19-Jul-2021 4503.50 3542.33 70.65 24.00 356.93 2702.92
   11:05:15.672.19-Jul-2021 4503.50 3542.92 70.65 24.00 357.13 2702.92
   11:05:15.872.19-Jul-2021 4503.50 3542.92 70.65 24.00 357.33 2702.92
   11:05:16.072.19-Jul-2021 4503.50 6584.13 70.65 24.00 357.53 2702.92
   11:05:16.272.19-Jul-2021 4503.50 6567.18 70.65 24.00 357.73 2702.92
   11:05:16.472.19-Jul-2021 4503.50 6574.25 70.65 24.00 357.93 2702.92
   11:05:16.672.19-Jul-2021 4503.50 6578.72 70.65 24.00 358.13 2702.92
   11:05:16.872.19-Jul-2021 4503.50 6578.72 70.65 24.00 358.33 2702.92
   11:05:17.072.19-Jul-2021 4503.50 6566.62 70.65 24.00 358.53 2702.92
   11:05:17.272.19-Jul-2021 4503.50 6566.91 70.65 24.00 358.73 2702.92
   11:05:17.472.19-Jul-2021 4503.50 6590.24 70.66 24.00 358.93 2702.92
   11:05:17.672.19-Jul-2021 4503.50 6562.52 70.66 24.00 359.13 2702.92
   11:05:17.873.19-Jul-2021 4503.50 6562.52 70.66 24.00 359.33 2702.92
   11:05:18.073.19-Jul-2021 4503.50 6567.96 70.66 24.00 359.53 2702.92
   11:05:18.273.19-Jul-2021 4503.50 6569.93 70.66 24.00 359.73 2702.92
   11:05:18.473.19-Jul-2021 4503.50 6593.39 70.66 24.00 359.93 2702.92
   11:05:18.673.19-Jul-2021 4503.50 6567.83 70.67 24.00 360.13 2702.92
   11:05:18.873.19-Jul-2021 4503.50 6567.83 70.67 24.00 360.33 2702.92
   11:05:19.073.19-Jul-2021 4503.50 6595.18 70.67 24.00 360.53 2702.92
   11:05:19.273.19-Jul-2021 4503.50 6569.85 70.67 24.00 360.73 2702.92
   11:05:19.473.19-Jul-2021 4503.50 6572.67 70.67 24.00 360.93 2702.92
   11:05:19.673.19-Jul-2021 4503.50 6570.89 70.68 24.00 361.13 2702.92
   11:05:19.873.19-Jul-2021 4503.50 6570.89 70.68 24.00 361.33 2702.92
   11:05:20.073.19-Jul-2021 4503.50 6569.44 70.68 24.00 361.53 2702.92
