~Version Information
 VERS.                  2.0:   CWLS log ASCII Standard -VERSION 2.0
 WRAP.                   NO:   One line per depth step
~Well Information Block
#MNEM.UNIT     VALUE/NAME     DESCRIPTION
#---------     -----------    ---------------------------
 STRT.S             12:46:21 18-Jul-21: START TIME 12:46:21 18-Jul-21
 STOP.S             12:52:54 18-Jul-21: STOP TIME  12:52:54 18-Jul-21
 STEP.S                   0.00: STEP TIME
 NULL.                 -999.25: NULL VALUE
 MDS .        Operator Entered:  MAG DATA SOURCE
 PDAT.          Mean Sea Level:  PERMANENT DATUM
 UNIT.                     N/A:  LOGGING EQUIPMENT ID
 DCON.         Sperry Drilling:  DIRECTNL CONTR
 DOE .                     N/A:  DOE NUMBER
 RIG .              West Azeri:  RIG NAME
 JOBN.        AZ-XX-0906997913:  JOB TICKET NUMB
 WELL.                     C41:  WELL NAME
 MWDS.                    Baku:  MWD SHOP
 SRVC.          Turan Drilling:  CONTRACTOR
 FLD .                     ACG:  FIELD NAME
 CTRY.              Azerbaijan:  COUNTRY NAME
 PROV.                    Baku:  PROVINCE
 STAT.                    Baku:  STATE NAME
 REGN.                   EESSA:  REGION
 BASE.              Azerbaijan:  LOGGING EQUIPMENT BASE LOCATION
 UWI .                     N/A:  UNIQUE WELL IDENTIFIER
 API .                     N/A:  API NUMBER
 COMP.     BP Exploration (Caspian Sea) Ltd.:  COMPANY
 WTYP.                Deviated:  WELL TYPE
 SON .        AZ-XX-0906997913:  JOB NUMBER
 FTOP.          Formation Tops:  FORM TOPS DESC
 ILTD.               Lithology:  INTERP LTH DESC
 SVYD.                  Survey:  SURVEY DESC
 DMOD.             Drill Model:  DRILL MOD DESC
 HPTY.       Minimum Curvature:  HOLE POS TYPE
 NREF.                    Grid:  NORTH REFERENCE
 SPUD.               16-May-21:  SPUD DATE
 DATE.      21.11.28 17-May-21:  END TIME
 STIM.      21.11.28 17-May-21:  START TIME
 DMF .             Drill Floor:  DRILL MEAS FROM
 DFST.                        :  DIST FSL TEXT
 DFWT.                        :  DIST FWL TEXT
 CNTY.                        :  COUNTY
 LOC .                        :  LOCATION
 LMF .             Drill Floor:  LOG MEASURED FROM
 AGAP.m                  43.42:  AIR GAP
 VSNS.m                  -2.16:  VERT SEC N/S
 VSEW.m                  -6.24:  VERT SEC E/W
 APD .m                  43.42:  DEPTH ABOVE PD
 WDMS.m                 118.27:  WD ELEV
 EGL .m                   0.00:  GROUND ELEVATION
 EPD .m                   0.00:  ELEVATION
 AZTC.deg                 6.29:  AZM TOTAL CORR
 GRDC.deg                 0.18:  GRID CORRECTION
 MDEC.deg                 6.47:  MAGNETIC DECL
 MDIP.deg                59.54:  MAGNETIC DIP
 MFLD.nT              50337.00:  MAGNETIC FIELD
 GVFD.g                   1.00:  GRAVITY FIELD
 VSDR.deg               226.99:  VERT SEC DIRECT
 TDD .m                   0.00:  TOTAL DEPTH (DRILLER)
 SDEP.m                 448.00:  START DEPTH
 DFSL.m                   0.00:  DISTANCE FSL
 DFWL.m                   0.00:  DISTANCE FWL
 UTMY.m             4435799.96:  UTM Y
 UTMX.m              526265.35:  UTM X
 WHEW.m                  -6.24:  WELL HEAD E/W
 WHNS.m                  -2.16:  WELL HEAD N/S
 LONG.deg                51.31:  LONGITUDE
 LATI.deg                40.06:  LATITUDE
 TVDS.m                  43.42:  TVDSS CORRECTN
 EKB .m                  43.42:  KB ELEVATION
 EDF .m                  43.42:  DF ELEVATION
 TDL .m                 288.00:  TOTAL DEPTH (LOGGER)
 MAGU.                 1851863:  MAGUTM CHECKSUM
 VSC .                       0:  VS TO CLOSURE
~Parameter Information Block
#MNEM.UNIT       Value        Description
#---------     -----------    ---------------------------
 AV  .mps                 0.40:  Ann Velocity 
 AVMX.mps                 0.63:  Max Ann Veloc 
 AZIF.deg               158.76:  Azm, Final 
 BHAT.        Rotary Steerable:  BHA Type 
 BROT.°/30m               0.68:  Build Rotating 
 BS  .in                  8.50:  Bit Size 
 BSZ .in                  8.50:  Bit Size 
 BTPL.psig              712.00:  Bit Press Loss 
 CABU.                      No:  Customer Abuse 
 COMM.                     üëZ:  Run Comments 1 
 TCS .hr                 90.66:  Time Ciculation Ended 
 CV  .mps                 2.02:  Crit Velocity 
 CVMX.mps                 2.14:  Max Crit Veloc 
 DD1 .            Aziz Aliyevu:  Direct Drillr 1 
 DD2 .             Samir Abbas:  Direct Drillr 2 
 DD3 .           Teymur Aliyev:  Direct Drillr 3 
 DDSV.                 iCruise:  DD Service 
 DEFF.%                  85.10:  % Det Eff 
 DLRX.°/30m               1.05:  Dogleg Rot Max 
 DLSO.°/30m               1.01:  Dogleg Oriented 
 DLSX.°/30m               1.05:  Dogleg Str Max 
 DRET.      07.45.00 18-Jul-21:  Drill End Time 
 DRST.      15.00.00 16-Jul-21:  Drill Start Tim 
 DTIM.hr                 23.46:  Time Drilling 
 EDEP.m                4603.00:  End Depth 
 ENG1.       Seymur Iskandarov:  Engineer 1 
 ENG2.         Yevgeniy Ulikov:  Engineer 2 
 ENG3.         Bahruz Mehdiyev:  Engineer 3 
 ENG4.         Elchin Mammadov:  Engineer 4 
 ETIM.      14.00.00 23-Jul-21:  End Time 
 FLOI.gpm               500.00:  Flow In 
 FLON.gpm               450.00:  Flow In Min 
 FLOS.cptm                0.00:  Fluid Loss 
 FLOX.gpm               560.00:  Flow In Max 
 DFT .        Mineral Oil Base:  Mud Type 
 FTRO.       Formation Presure:  FTWD Run Obj 
 HFLO.                      No:  High Flow 
 HPRE.                      No:  High Pressure 
 HTEM.                      No:  High Temp 
 HYDO.m                   1.80:  Hydro Offset 
 IFIN.deg                40.22:  Inc, Final 
 IMAX.deg                40.54:  Inc Max 
 IMIN.deg                39.44:  Inc Min 
 IMND.m                4361.17:  Inc Min Depth 
 IMXD.m                4417.92:  Inc Max Depth 
 JARR.                      No:  Jarring 
 LETM.      07.45.00 18-Jul-21:  Log End Time 
 LOST.hr                    16:  Lost Rig Time 
 LSTM.      15.00.00 16-Jul-21:  Log Start Time 
 MDCL.ppm             36500.00:  Mud Chlorides 
 MDES.     Inversion Oil/Synthetic:  Mud Desc 
 DFD .sg                  1.42:  Mud Density 
 MDMN.sg                  1.42:  Dens Mud Min 
 MDMX.sg                  1.43:  Dens Mud Max 
 MOIL.                      56:  Run Mud Oil % 
 MOWR.                   71:29:  Run Mud OWR 
 MSND.                     0.5:  Run Mud Sand % 
 MSOL.                      21:  Run Mud Solids% 
 DFV .spqt               78.00:  Mud Viscosity 
 MWOD.in                  6.75:  MWD Tool OD 
 MWSI.                     Yes:  Serv Intrp, MWD 
 OTIM.hr                200.73:  Time Operating 
 PCON.           Look Like New:  Pad Condition 
 PMAX.psia            11069.93:  Press Op, Max 
 PV  .cP                 32.00:  Mud PV 
 RUN .                     700:  Run Number 
 ROPA.m/hr               10.00:  ROP Avg 
 ROPN.m/hr                9.00:  ROP Min 
 ROPX.m/hr               16.00:  ROP Max 
 RPMA.rpm               116.00:  RPM Surface Avg 
 RPMN.rpm                80.00:  RPM Surface Min 
 RPMX.rpm               120.00:  RPM Surface Max 
 RRUN.                    L605:  Rig Run Number 
 RTIM.hr                 45.00:  Time Reaming 
 SAZI.deg               159.86:  Azm, Start 
 SDEP.m                4315.00:  Start Depth 
 SIDD.                      No:  Serv Intrp, DD 
 SINC.deg                39.86:  Inc, Start 
 SPPA.psig             3300.00:  SPP Avg 
 SPPN.psig             3040.00:  SPP Min 
 SPPX.psig             3645.00:  SPP Max 
 STIM.      01.00.00 15-Jul-21:  Start Time 
 SVCS.                 DD, MWD:  Services 
 SVER.                    9.20:  Sperry Version 
 TDAT.m                 288.00:  Tot Depth Attmp 
 TDDF.                      No:  Trip for DD 
 TDLG.m                 288.00:  Tot Depth Loggd 
 TFF .                      No:  Trip for Fail 
 TQAA.f-kp               19.00:  Torque Abs Avg 
 TQAN.f-kp               18.00:  Torque Abs Min 
 TQAX.f-kp               21.00:  Torque Abs Max 
 TRRT.°/30m               0.45:  Turn Rotating 
 MRT .                    HCIM:  Maximum Recorded Temperature 
 TTMX.degC               88.24:  Max Tool Temp 
 VS01.                90649157:  Virtual Str1 SN 
 VS02.                90652483:  Virtual Str2 SN 
 VS03.                11671987:  Virtual Str3 SN 
 VS04.                90643411:  Virtual Str4 SN 
 VS05.                90652478:  Virtual Str5 SN 
 VS06.                    6111:  Virtual Str6 SN 
 WBMN.klb                 9.50:  WOB Min 
 WITN.        Grigoriy Sarayev:  Customer Rep 
 WITN.          Rufat Huseynov:  Customer Rep 2 
 WOBA.klb                11.00:  WOB Avg 
 WOBX.klb                15.00:  WOB Max 
 YP  .lhf2               28.00:  Yield Point 
~Curve Information Block
#MNEM.UNIT                 API CODE     Curve Description
#---------               -----------    ---------------------------
 TIME.HHMMSS            00 000 000 000:  GT Time & Date
 GTDEPTH.m              00 000 000 000:  GT Depth
 GTPQH.psia             00 000 000 000:  GT HR Quartz Pressure
 GTTQ.degC              00 000 000 000:  GT Quartz Temperature
 GTTN.NONE              00 000 000 000:  GT Test Number
 GTET.sec               00 000 000 000:  GT Elapsed Test Time
 GTTVD.m                00 000 000 000:  GT True Vertical Depth
#Other Information
#
#WARRANTY: Halliburton will use its best efforts to furnish customers with 
#accurate information and interpretations that are part of, and incident to, the services 
#provided.  However, Halliburton cannot and does not warrant the accuracy 
#or correctness of such information and interpretations.  Under no circumstances should any 
#such information or interpretation be relied upon as the sole basis for any drilling, 
#completion, production, or financial decision or any procedure involving any risk to the 
#safety of any drilling venture, drilling rig or its crew or any other third party.  The 
#Customer has full responsibility for all drilling, completion and production operation.  
#Halliburton makes no representations or warranties, either expressed or 
#implied, including, but not limited to, the implied warranties of merchantability or fitness 
#for a particular purpose, with respect to the services rendered.  In no event will 
#Halliburton be liable for failure to obtain any particular results or for 
#any damages, including, but not limited to, indirect, special or consequential damages, 
#resulting from the use of any information or interpretation provided by Halliburton.
#
~A           TIME           GTDEPTH  GTPQH  GTTQ  GTTN  GTET   GTTVD  
# ...
   12:50:34.185.18-Jul-2021 4561.50 6654.82 76.47 1.00 253.09 2747.31
   12:50:34.385.18-Jul-2021 4561.50 6654.82 76.47 1.00 253.29 2747.31
   12:50:34.585.18-Jul-2021 4561.50 6654.49 76.47 1.00 253.49 2747.31
   12:50:34.785.18-Jul-2021 4561.50 6654.72 76.47 1.00 253.69 2747.31
   12:50:34.985.18-Jul-2021 4561.50 6658.88 76.47 1.00 253.89 2747.31
   12:50:35.185.18-Jul-2021 4561.50 6658.43 76.47 1.00 254.09 2747.31
   12:50:35.385.18-Jul-2021 4561.50 6658.43 76.47 1.00 254.29 2747.31
   12:50:35.585.18-Jul-2021 4561.50 6656.13 76.47 1.00 254.49 2747.31
   12:50:35.786.18-Jul-2021 4561.50 6656.02 76.47 1.00 254.69 2747.31
   12:50:35.986.18-Jul-2021 4561.50 6654.60 76.47 1.00 254.89 2747.31
   12:50:36.186.18-Jul-2021 4561.50 6654.77 76.47 1.00 255.09 2747.31
   12:50:36.386.18-Jul-2021 4561.50 6654.77 76.47 1.00 255.29 2747.31
   12:50:36.586.18-Jul-2021 4561.50 6654.67 76.47 1.00 255.49 2747.31
   12:50:36.786.18-Jul-2021 4561.50 6657.02 76.47 1.00 255.69 2747.31
   12:50:36.986.18-Jul-2021 4561.50 6656.65 76.47 1.00 255.89 2747.31
   12:50:37.186.18-Jul-2021 4561.50 6656.10 76.47 1.00 256.09 2747.31
   12:50:37.386.18-Jul-2021 4561.50 6656.10 76.47 1.00 256.29 2747.31
   12:50:37.586.18-Jul-2021 4561.50 6654.78 76.47 1.00 256.49 2747.31
   12:50:37.786.18-Jul-2021 4561.50 6657.47 76.47 1.00 256.69 2747.31
   12:50:37.986.18-Jul-2021 4561.50 6661.90 76.47 1.00 256.89 2747.31
   12:50:38.186.18-Jul-2021 4561.50 6655.93 76.47 1.00 257.09 2747.31
   12:50:38.387.18-Jul-2021 4561.50 6655.93 76.47 1.00 257.29 2747.31
   12:50:38.587.18-Jul-2021 4561.50 6658.70 76.47 1.00 257.49 2747.31
   12:50:38.787.18-Jul-2021 4561.50 6655.51 76.47 1.00 257.69 2747.31
   12:50:38.987.18-Jul-2021 4561.50 6653.93 76.47 1.00 257.89 2747.31
   12:50:39.187.18-Jul-2021 4561.50 6655.48 76.47 1.00 258.10 2747.31
   12:50:39.387.18-Jul-2021 4561.50 6655.48 76.47 1.00 258.30 2747.31
   12:50:39.587.18-Jul-2021 4561.50 6655.40 76.47 1.00 258.50 2747.31
   12:50:39.787.18-Jul-2021 4561.50 6655.87 76.47 1.00 258.70 2747.31
   12:50:39.987.18-Jul-2021 4561.50 6655.72 76.47 1.00 258.90 2747.31
   12:50:40.187.18-Jul-2021 4561.50 6654.95 76.47 1.00 259.10 2747.31
   12:50:40.387.18-Jul-2021 4561.50 6654.95 76.47 1.00 259.30 2747.31
   12:50:40.587.18-Jul-2021 4561.50 6661.93 76.47 1.00 259.50 2747.31
   12:50:40.787.18-Jul-2021 4561.50 6654.48 76.47 1.00 259.70 2747.31
   12:50:40.987.18-Jul-2021 4561.50 6659.23 76.47 1.00 259.90 2747.31
   12:50:41.188.18-Jul-2021 4561.50 6667.87 76.47 1.00 260.10 2747.31
   12:50:41.388.18-Jul-2021 4561.50 6667.87 76.47 1.00 260.30 2747.31
   12:50:41.588.18-Jul-2021 4561.50 6657.63 76.47 1.00 260.50 2747.31
   12:50:41.788.18-Jul-2021 4561.50 6657.82 76.47 1.00 260.70 2747.31
   12:50:41.988.18-Jul-2021 4561.50 6655.61 76.47 1.00 260.90 2747.31
   12:50:42.188.18-Jul-2021 4561.50 6663.02 76.47 1.00 261.10 2747.31
   12:50:42.388.18-Jul-2021 4561.50 6663.02 76.47 1.00 261.30 2747.31
   12:50:42.588.18-Jul-2021 4561.50 6657.39 76.47 1.00 261.50 2747.31
   12:50:42.788.18-Jul-2021 4561.50 6657.92 76.47 1.00 261.70 2747.31
   12:50:42.988.18-Jul-2021 4561.50 6657.56 76.47 1.00 261.90 2747.31
   12:50:43.188.18-Jul-2021 4561.50 6664.72 76.47 1.00 262.10 2747.31
   12:50:43.388.18-Jul-2021 4561.50 6664.72 76.47 1.00 262.30 2747.31
   12:50:43.588.18-Jul-2021 4561.50 6658.89 76.47 1.00 262.50 2747.31
   12:50:43.788.18-Jul-2021 4561.50 6659.31 76.47 1.00 262.70 2747.31
   12:50:43.989.18-Jul-2021 4561.50 6657.78 76.47 1.00 262.90 2747.31
   12:50:44.189.18-Jul-2021 4561.50 6665.94 76.47 1.00 263.10 2747.31
   12:50:44.389.18-Jul-2021 4561.50 6665.94 76.47 1.00 263.30 2747.31
   12:50:44.589.18-Jul-2021 4561.50 6658.28 76.47 1.00 263.50 2747.31
   12:50:44.789.18-Jul-2021 4561.50 6661.88 76.47 1.00 263.70 2747.31
   12:50:44.989.18-Jul-2021 4561.50 6659.22 76.47 1.00 263.90 2747.31
   12:50:45.189.18-Jul-2021 4561.50 6659.76 76.47 1.00 264.10 2747.31
   12:50:45.389.18-Jul-2021 4561.50 6659.76 76.47 1.00 264.30 2747.31
   12:50:45.589.18-Jul-2021 4561.50 6658.82 76.47 1.00 264.50 2747.31
   12:50:45.789.18-Jul-2021 4561.50 6659.94 76.47 1.00 264.70 2747.31
   12:50:45.989.18-Jul-2021 4561.50 6660.08 76.47 1.00 264.90 2747.31
   12:50:46.189.18-Jul-2021 4561.50 6659.23 76.47 1.00 265.10 2747.31
   12:50:46.389.18-Jul-2021 4561.50 6659.23 76.47 1.00 265.30 2747.31
   12:50:46.590.18-Jul-2021 4561.50 6659.06 76.47 1.00 265.50 2747.31
   12:50:46.790.18-Jul-2021 4561.50 6657.81 76.47 1.00 265.70 2747.31
   12:50:46.990.18-Jul-2021 4561.50 6664.43 76.47 1.00 265.90 2747.31
   12:50:47.190.18-Jul-2021 4561.50 6662.90 76.47 1.00 266.10 2747.31
   12:50:47.390.18-Jul-2021 4561.50 6662.90 76.47 1.00 266.30 2747.31
   12:50:47.590.18-Jul-2021 4561.50 6660.95 76.47 1.00 266.50 2747.31
   12:50:47.790.18-Jul-2021 4561.50 6659.55 76.47 1.00 266.70 2747.31
   12:50:47.990.18-Jul-2021 4561.50 6657.75 76.47 1.00 266.90 2747.31
   12:50:48.190.18-Jul-2021 4561.50 6658.62 76.47 1.00 267.10 2747.31
   12:50:48.390.18-Jul-2021 4561.50 6658.62 76.47 1.00 267.30 2747.31
   12:50:48.590.18-Jul-2021 4561.50 6658.11 76.47 1.00 267.50 2747.31
   12:50:48.790.18-Jul-2021 4561.50 6659.50 76.47 1.00 267.70 2747.31
   12:50:48.990.18-Jul-2021 4561.50 6658.83 76.47 1.00 267.90 2747.31
   12:50:49.190.18-Jul-2021 4561.50 6656.29 76.47 1.00 268.10 2747.31
   12:50:49.391.18-Jul-2021 4561.50 6656.29 76.47 1.00 268.30 2747.31
   12:50:49.591.18-Jul-2021 4561.50 6657.46 76.47 1.00 268.50 2747.31
   12:50:49.791.18-Jul-2021 4561.50 6661.37 76.47 1.00 268.70 2747.31
   12:50:49.991.18-Jul-2021 4561.50 6656.73 76.47 1.00 268.90 2747.31
   12:50:50.191.18-Jul-2021 4561.50 6665.73 76.47 1.00 269.10 2747.31
   12:50:50.391.18-Jul-2021 4561.50 6665.73 76.47 1.00 269.30 2747.31
   12:50:50.591.18-Jul-2021 4561.50 6658.80 76.47 1.00 269.50 2747.31
   12:50:50.791.18-Jul-2021 4561.50 6660.84 76.47 1.00 269.70 2747.31
   12:50:50.991.18-Jul-2021 4561.50 6655.81 76.47 1.00 269.90 2747.31
   12:50:51.191.18-Jul-2021 4561.50 6656.26 76.47 1.00 270.10 2747.31
   12:50:51.391.18-Jul-2021 4561.50 6656.26 76.47 1.00 270.30 2747.31
   12:50:51.591.18-Jul-2021 4561.50 6657.90 76.47 1.00 270.50 2747.31
   12:50:51.791.18-Jul-2021 4561.50 6658.07 76.47 1.00 270.70 2747.31
   12:50:51.992.18-Jul-2021 4561.50 6660.03 76.47 1.00 270.90 2747.31
   12:50:52.192.18-Jul-2021 4561.50 6656.58 76.47 1.00 271.10 2747.31
   12:50:52.392.18-Jul-2021 4561.50 6656.58 76.47 1.00 271.30 2747.31
   12:50:52.592.18-Jul-2021 4561.50 6664.45 76.47 1.00 271.50 2747.31
   12:50:52.792.18-Jul-2021 4561.50 6659.35 76.47 1.00 271.70 2747.31
   12:50:52.992.18-Jul-2021 4561.50 6658.27 76.47 1.00 271.90 2747.31
   12:50:53.192.18-Jul-2021 4561.50 6659.32 76.47 1.00 272.10 2747.31
   12:50:53.392.18-Jul-2021 4561.50 6659.32 76.47 1.00 272.30 2747.31
   12:50:53.592.18-Jul-2021 4561.50 6664.39 76.47 1.00 272.50 2747.31
   12:50:53.792.18-Jul-2021 4561.50 6657.89 76.47 1.00 272.70 2747.31
   12:50:53.992.18-Jul-2021 4561.50 6660.27 76.47 1.00 272.90 2747.31
   12:50:54.192.18-Jul-2021 4561.50 6658.21 76.47 1.00 273.10 2747.31
   12:50:54.392.18-Jul-2021 4561.50 6658.21 76.47 1.00 273.30 2747.31
   12:50:54.592.18-Jul-2021 4561.50 6658.48 76.46 1.00 273.50 2747.31
   12:50:54.793.18-Jul-2021 4561.50 6658.05 76.47 1.00 273.70 2747.31
   12:50:54.993.18-Jul-2021 4561.50 6658.54 76.46 1.00 273.90 2747.31
   12:50:55.193.18-Jul-2021 4561.50 6658.98 76.46 1.00 274.10 2747.31
   12:50:55.393.18-Jul-2021 4561.50 6658.98 76.46 1.00 274.30 2747.31
   12:50:55.593.18-Jul-2021 4561.50 6659.14 76.46 1.00 274.50 2747.31
   12:50:55.793.18-Jul-2021 4561.50 6658.03 76.46 1.00 274.70 2747.31
   12:50:55.993.18-Jul-2021 4561.50 6658.09 76.46 1.00 274.90 2747.31
   12:50:56.193.18-Jul-2021 4561.50 6661.83 76.46 1.00 275.10 2747.31
   12:50:56.393.18-Jul-2021 4561.50 6661.83 76.46 1.00 275.30 2747.31
   12:50:56.593.18-Jul-2021 4561.50 6658.81 76.46 1.00 275.50 2747.31
   12:50:56.793.18-Jul-2021 4561.50 6659.08 76.46 1.00 275.70 2747.31
   12:50:56.993.18-Jul-2021 4561.50 6660.01 76.46 1.00 275.90 2747.31
