~Version Information
 VERS.                  2.0:   CWLS log ASCII Standard -VERSION 2.0
 WRAP.                   NO:   One line per depth step
~Well Information Block
#MNEM.UNIT     VALUE/NAME     DESCRIPTION
#---------     -----------    ---------------------------
 STRT.S             13:07:56 19-Jul-21: START TIME 13:07:56 19-Jul-21
 STOP.S             13:14:51 19-Jul-21: STOP TIME  13:14:51 19-Jul-21
 STEP.S                   0.00: STEP TIME
 NULL.                 -999.25: NULL VALUE
 MDS .        Operator Entered:  MAG DATA SOURCE
 PDAT.          Mean Sea Level:  PERMANENT DATUM
 UNIT.                     N/A:  LOGGING EQUIPMENT ID
 DCON.         Sperry Drilling:  DIRECTNL CONTR
 DOE .                     N/A:  DOE NUMBER
 RIG .              West Azeri:  RIG NAME
 JOBN.        AZ-XX-0906997913:  JOB TICKET NUMB
 WELL.                     C41:  WELL NAME
 MWDS.                    Baku:  MWD SHOP
 SRVC.          Turan Drilling:  CONTRACTOR
 FLD .                     ACG:  FIELD NAME
 CTRY.              Azerbaijan:  COUNTRY NAME
 PROV.                    Baku:  PROVINCE
 STAT.                    Baku:  STATE NAME
 REGN.                   EESSA:  REGION
 BASE.              Azerbaijan:  LOGGING EQUIPMENT BASE LOCATION
 UWI .                     N/A:  UNIQUE WELL IDENTIFIER
 API .                     N/A:  API NUMBER
 COMP.     BP Exploration (Caspian Sea) Ltd.:  COMPANY
 WTYP.                Deviated:  WELL TYPE
 SON .        AZ-XX-0906997913:  JOB NUMBER
 FTOP.          Formation Tops:  FORM TOPS DESC
 ILTD.               Lithology:  INTERP LTH DESC
 SVYD.                  Survey:  SURVEY DESC
 DMOD.             Drill Model:  DRILL MOD DESC
 HPTY.       Minimum Curvature:  HOLE POS TYPE
 NREF.                    Grid:  NORTH REFERENCE
 SPUD.               16-May-21:  SPUD DATE
 DATE.      21.11.28 17-May-21:  END TIME
 STIM.      21.11.28 17-May-21:  START TIME
 DMF .             Drill Floor:  DRILL MEAS FROM
 DFST.                        :  DIST FSL TEXT
 DFWT.                        :  DIST FWL TEXT
 CNTY.                        :  COUNTY
 LOC .                        :  LOCATION
 LMF .             Drill Floor:  LOG MEASURED FROM
 AGAP.m                  43.42:  AIR GAP
 VSNS.m                  -2.16:  VERT SEC N/S
 VSEW.m                  -6.24:  VERT SEC E/W
 APD .m                  43.42:  DEPTH ABOVE PD
 WDMS.m                 118.27:  WD ELEV
 EGL .m                   0.00:  GROUND ELEVATION
 EPD .m                   0.00:  ELEVATION
 AZTC.deg                 6.29:  AZM TOTAL CORR
 GRDC.deg                 0.18:  GRID CORRECTION
 MDEC.deg                 6.47:  MAGNETIC DECL
 MDIP.deg                59.54:  MAGNETIC DIP
 MFLD.nT              50337.00:  MAGNETIC FIELD
 GVFD.g                   1.00:  GRAVITY FIELD
 VSDR.deg               226.99:  VERT SEC DIRECT
 TDD .m                   0.00:  TOTAL DEPTH (DRILLER)
 SDEP.m                 448.00:  START DEPTH
 DFSL.m                   0.00:  DISTANCE FSL
 DFWL.m                   0.00:  DISTANCE FWL
 UTMY.m             4435799.96:  UTM Y
 UTMX.m              526265.35:  UTM X
 WHEW.m                  -6.24:  WELL HEAD E/W
 WHNS.m                  -2.16:  WELL HEAD N/S
 LONG.deg                51.31:  LONGITUDE
 LATI.deg                40.06:  LATITUDE
 TVDS.m                  43.42:  TVDSS CORRECTN
 EKB .m                  43.42:  KB ELEVATION
 EDF .m                  43.42:  DF ELEVATION
 TDL .m                 288.00:  TOTAL DEPTH (LOGGER)
 MAGU.                 1851863:  MAGUTM CHECKSUM
 VSC .                       0:  VS TO CLOSURE
~Parameter Information Block
#MNEM.UNIT       Value        Description
#---------     -----------    ---------------------------
 AV  .mps                 0.40:  Ann Velocity 
 AVMX.mps                 0.63:  Max Ann Veloc 
 AZIF.deg               158.76:  Azm, Final 
 BHAT.        Rotary Steerable:  BHA Type 
 BROT.°/30m               0.68:  Build Rotating 
 BS  .in                  8.50:  Bit Size 
 BSZ .in                  8.50:  Bit Size 
 BTPL.psig              712.00:  Bit Press Loss 
 CABU.                      No:  Customer Abuse 
 COMM.                     „e:  Run Comments 1 
 TCS .hr                 90.66:  Time Ciculation Ended 
 CV  .mps                 2.02:  Crit Velocity 
 CVMX.mps                 2.14:  Max Crit Veloc 
 DD1 .            Aziz Aliyevu:  Direct Drillr 1 
 DD2 .             Samir Abbas:  Direct Drillr 2 
 DD3 .           Teymur Aliyev:  Direct Drillr 3 
 DDSV.                 iCruise:  DD Service 
 DEFF.%                  85.10:  % Det Eff 
 DLRX.°/30m               1.05:  Dogleg Rot Max 
 DLSO.°/30m               1.01:  Dogleg Oriented 
 DLSX.°/30m               1.05:  Dogleg Str Max 
 DRET.      07.45.00 18-Jul-21:  Drill End Time 
 DRST.      15.00.00 16-Jul-21:  Drill Start Tim 
 DTIM.hr                 23.46:  Time Drilling 
 EDEP.m                4603.00:  End Depth 
 ENG1.       Seymur Iskandarov:  Engineer 1 
 ENG2.         Yevgeniy Ulikov:  Engineer 2 
 ENG3.         Bahruz Mehdiyev:  Engineer 3 
 ENG4.         Elchin Mammadov:  Engineer 4 
 ETIM.      14.00.00 23-Jul-21:  End Time 
 FLOI.gpm               500.00:  Flow In 
 FLON.gpm               450.00:  Flow In Min 
 FLOS.cptm                0.00:  Fluid Loss 
 FLOX.gpm               560.00:  Flow In Max 
 DFT .        Mineral Oil Base:  Mud Type 
 FTRO.       Formation Presure:  FTWD Run Obj 
 HFLO.                      No:  High Flow 
 HPRE.                      No:  High Pressure 
 HTEM.                      No:  High Temp 
 HYDO.m                   1.80:  Hydro Offset 
 IFIN.deg                40.22:  Inc, Final 
 IMAX.deg                40.54:  Inc Max 
 IMIN.deg                39.44:  Inc Min 
 IMND.m                4361.17:  Inc Min Depth 
 IMXD.m                4417.92:  Inc Max Depth 
 JARR.                      No:  Jarring 
 LETM.      07.45.00 18-Jul-21:  Log End Time 
 LOST.hr                    16:  Lost Rig Time 
 LSTM.      15.00.00 16-Jul-21:  Log Start Time 
 MDCL.ppm             36500.00:  Mud Chlorides 
 MDES.     Inversion Oil/Synthetic:  Mud Desc 
 DFD .sg                  1.42:  Mud Density 
 MDMN.sg                  1.42:  Dens Mud Min 
 MDMX.sg                  1.43:  Dens Mud Max 
 MOIL.                      56:  Run Mud Oil % 
 MOWR.                   71:29:  Run Mud OWR 
 MSND.                     0.5:  Run Mud Sand % 
 MSOL.                      21:  Run Mud Solids% 
 DFV .spqt               78.00:  Mud Viscosity 
 MWOD.in                  6.75:  MWD Tool OD 
 MWSI.                     Yes:  Serv Intrp, MWD 
 OTIM.hr                200.73:  Time Operating 
 PCON.           Look Like New:  Pad Condition 
 PMAX.psia            11069.93:  Press Op, Max 
 PV  .cP                 32.00:  Mud PV 
 RUN .                     700:  Run Number 
 ROPA.m/hr               10.00:  ROP Avg 
 ROPN.m/hr                9.00:  ROP Min 
 ROPX.m/hr               16.00:  ROP Max 
 RPMA.rpm               116.00:  RPM Surface Avg 
 RPMN.rpm                80.00:  RPM Surface Min 
 RPMX.rpm               120.00:  RPM Surface Max 
 RRUN.                    L605:  Rig Run Number 
 RTIM.hr                 45.00:  Time Reaming 
 SAZI.deg               159.86:  Azm, Start 
 SDEP.m                4315.00:  Start Depth 
 SIDD.                      No:  Serv Intrp, DD 
 SINC.deg                39.86:  Inc, Start 
 SPPA.psig             3300.00:  SPP Avg 
 SPPN.psig             3040.00:  SPP Min 
 SPPX.psig             3645.00:  SPP Max 
 STIM.      01.00.00 15-Jul-21:  Start Time 
 SVCS.                 DD, MWD:  Services 
 SVER.                    9.20:  Sperry Version 
 TDAT.m                 288.00:  Tot Depth Attmp 
 TDDF.                      No:  Trip for DD 
 TDLG.m                 288.00:  Tot Depth Loggd 
 TFF .                      No:  Trip for Fail 
 TQAA.f-kp               19.00:  Torque Abs Avg 
 TQAN.f-kp               18.00:  Torque Abs Min 
 TQAX.f-kp               21.00:  Torque Abs Max 
 TRRT.°/30m               0.45:  Turn Rotating 
 MRT .                    HCIM:  Maximum Recorded Temperature 
 TTMX.degC               88.24:  Max Tool Temp 
 VS01.                90649157:  Virtual Str1 SN 
 VS02.                90652483:  Virtual Str2 SN 
 VS03.                11671987:  Virtual Str3 SN 
 VS04.                90643411:  Virtual Str4 SN 
 VS05.                90652478:  Virtual Str5 SN 
 VS06.                    6111:  Virtual Str6 SN 
 WBMN.klb                 9.50:  WOB Min 
 WITN.        Grigoriy Sarayev:  Customer Rep 
 WITN.          Rufat Huseynov:  Customer Rep 2 
 WOBA.klb                11.00:  WOB Avg 
 WOBX.klb                15.00:  WOB Max 
 YP  .lhf2               28.00:  Yield Point 
~Curve Information Block
#MNEM.UNIT                 API CODE     Curve Description
#---------               -----------    ---------------------------
 TIME.HHMMSS            00 000 000 000:  GT Time & Date
 GTDEPTH.m              00 000 000 000:  GT Depth
 GTPQH.psia             00 000 000 000:  GT HR Quartz Pressure
 GTTQ.degC              00 000 000 000:  GT Quartz Temperature
 GTTN.NONE              00 000 000 000:  GT Test Number
 GTET.sec               00 000 000 000:  GT Elapsed Test Time
 GTTVD.m                00 000 000 000:  GT True Vertical Depth
#Other Information
#
#WARRANTY: Halliburton will use its best efforts to furnish customers with 
#accurate information and interpretations that are part of, and incident to, the services 
#provided.  However, Halliburton cannot and does not warrant the accuracy 
#or correctness of such information and interpretations.  Under no circumstances should any 
#such information or interpretation be relied upon as the sole basis for any drilling, 
#completion, production, or financial decision or any procedure involving any risk to the 
#safety of any drilling venture, drilling rig or its crew or any other third party.  The 
#Customer has full responsibility for all drilling, completion and production operation.  
#Halliburton makes no representations or warranties, either expressed or 
#implied, including, but not limited to, the implied warranties of merchantability or fitness 
#for a particular purpose, with respect to the services rendered.  In no event will 
#Halliburton be liable for failure to obtain any particular results or for 
#any damages, including, but not limited to, indirect, special or consequential damages, 
#resulting from the use of any information or interpretation provided by Halliburton.
#
~A           TIME           GTDEPTH  GTPQH  GTTQ  GTTN   GTET   GTTVD  
# ...
   13:11:19.857.19-Jul-2021 4553.00 3613.20 71.06 28.00 203.47 2740.81
   13:11:20.057.19-Jul-2021 4553.00 3612.87 71.06 28.00 203.67 2740.81
   13:11:20.257.19-Jul-2021 4553.00 3612.93 71.06 28.00 203.88 2740.81
   13:11:20.457.19-Jul-2021 4553.00 3613.08 71.06 28.00 204.08 2740.81
   13:11:20.657.19-Jul-2021 4553.00 3613.08 71.06 28.00 204.28 2740.81
   13:11:20.857.19-Jul-2021 4553.00 3612.97 71.06 28.00 204.48 2740.81
   13:11:21.057.19-Jul-2021 4553.00 3613.02 71.06 28.00 204.68 2740.81
   13:11:21.257.19-Jul-2021 4553.00 3612.98 71.06 28.00 204.88 2740.81
   13:11:21.458.19-Jul-2021 4553.00 3613.00 71.06 28.00 205.08 2740.81
   13:11:21.658.19-Jul-2021 4553.00 3613.00 71.06 28.00 205.28 2740.81
   13:11:21.858.19-Jul-2021 4553.00 3613.00 71.06 28.00 205.48 2740.81
   13:11:22.058.19-Jul-2021 4553.00 3613.01 71.06 28.00 205.68 2740.81
   13:11:22.258.19-Jul-2021 4553.00 3612.79 71.06 28.00 205.88 2740.81
   13:11:22.458.19-Jul-2021 4553.00 3613.33 71.06 28.00 206.08 2740.81
   13:11:22.658.19-Jul-2021 4553.00 3613.33 71.06 28.00 206.28 2740.81
   13:11:22.858.19-Jul-2021 4553.00 3613.14 71.06 28.00 206.48 2740.81
   13:11:23.058.19-Jul-2021 4553.00 3613.04 71.06 28.00 206.68 2740.81
   13:11:23.258.19-Jul-2021 4553.00 3612.90 71.06 28.00 206.88 2740.81
   13:11:23.458.19-Jul-2021 4553.00 3613.05 71.06 28.00 207.08 2740.81
   13:11:23.658.19-Jul-2021 4553.00 3613.05 71.06 28.00 207.28 2740.81
   13:11:23.858.19-Jul-2021 4553.00 3612.92 71.06 28.00 207.48 2740.81
   13:11:24.058.19-Jul-2021 4553.00 3613.02 71.06 28.00 207.68 2740.81
   13:11:24.259.19-Jul-2021 4553.00 3612.95 71.06 28.00 207.88 2740.81
   13:11:24.459.19-Jul-2021 4553.00 3613.08 71.06 28.00 208.08 2740.81
   13:11:24.659.19-Jul-2021 4553.00 3613.08 71.06 28.00 208.28 2740.81
   13:11:24.859.19-Jul-2021 4553.00 3613.03 71.06 28.00 208.48 2740.81
   13:11:25.059.19-Jul-2021 4553.00 3612.76 71.06 28.00 208.68 2740.81
   13:11:25.259.19-Jul-2021 4553.00 3613.34 71.06 28.00 208.88 2740.81
   13:11:25.459.19-Jul-2021 4553.00 3612.84 71.06 28.00 209.08 2740.81
   13:11:25.659.19-Jul-2021 4553.00 3612.84 71.06 28.00 209.28 2740.81
   13:11:25.859.19-Jul-2021 4553.00 3612.91 71.06 28.00 209.48 2740.81
   13:11:26.059.19-Jul-2021 4553.00 3612.98 71.06 28.00 209.68 2740.81
   13:11:26.259.19-Jul-2021 4553.00 3613.01 71.06 28.00 209.88 2740.81
   13:11:26.459.19-Jul-2021 4553.00 3612.99 71.06 28.00 210.08 2740.81
   13:11:26.659.19-Jul-2021 4553.00 3612.99 71.06 28.00 210.28 2740.81
   13:11:26.860.19-Jul-2021 4553.00 3613.01 71.06 28.00 210.48 2740.81
   13:11:27.060.19-Jul-2021 4553.00 3613.00 71.06 28.00 210.68 2740.81
   13:11:27.260.19-Jul-2021 4553.00 3613.00 71.06 28.00 210.88 2740.81
   13:11:27.460.19-Jul-2021 4553.00 3613.00 71.06 28.00 211.08 2740.81
   13:11:27.660.19-Jul-2021 4553.00 3613.00 71.06 28.00 211.28 2740.81
   13:11:27.860.19-Jul-2021 4553.00 3613.01 71.06 28.00 211.48 2740.81
   13:11:28.060.19-Jul-2021 4553.00 3613.21 71.06 28.00 211.68 2740.81
   13:11:28.260.19-Jul-2021 4553.00 3612.87 71.06 28.00 211.88 2740.81
   13:11:28.460.19-Jul-2021 4553.00 3612.92 71.06 28.00 212.08 2740.81
   13:11:28.660.19-Jul-2021 4553.00 3612.92 71.06 28.00 212.28 2740.81
   13:11:28.860.19-Jul-2021 4553.00 3612.96 71.06 28.00 212.48 2740.81
   13:11:29.060.19-Jul-2021 4553.00 3612.96 71.06 28.00 212.68 2740.81
   13:11:29.260.19-Jul-2021 4553.00 3613.02 71.06 28.00 212.88 2740.81
   13:11:29.460.19-Jul-2021 4553.00 3612.99 71.06 28.00 213.08 2740.81
   13:11:29.661.19-Jul-2021 4553.00 3612.99 71.06 28.00 213.28 2740.81
   13:11:29.861.19-Jul-2021 4553.00 3612.99 71.06 28.00 213.48 2740.81
   13:11:30.061.19-Jul-2021 4553.00 3613.00 71.06 28.00 213.68 2740.81
   13:11:30.261.19-Jul-2021 4553.00 3613.01 71.06 28.00 213.88 2740.81
   13:11:30.461.19-Jul-2021 4553.00 3612.77 71.06 28.00 214.08 2740.81
   13:11:30.661.19-Jul-2021 4553.00 3612.77 71.06 28.00 214.28 2740.81
   13:11:30.861.19-Jul-2021 4553.00 3612.87 71.06 28.00 214.48 2740.81
   13:11:31.061.19-Jul-2021 4553.00 3613.13 71.06 28.00 214.68 2740.81
   13:11:31.261.19-Jul-2021 4553.00 3613.05 71.06 28.00 214.88 2740.81
   13:11:31.461.19-Jul-2021 4553.00 3612.90 71.06 28.00 215.08 2740.81
   13:11:31.661.19-Jul-2021 4553.00 3612.90 71.06 28.00 215.28 2740.81
   13:11:31.861.19-Jul-2021 4553.00 3613.09 71.06 28.00 215.48 2740.81
   13:11:32.061.19-Jul-2021 4553.00 3612.91 71.06 28.00 215.68 2740.81
   13:11:32.262.19-Jul-2021 4553.00 3613.01 71.06 28.00 215.88 2740.81
   13:11:32.462.19-Jul-2021 4553.00 3612.96 71.06 28.00 216.08 2740.81
   13:11:32.662.19-Jul-2021 4553.00 3612.96 71.06 28.00 216.28 2740.81
   13:11:32.862.19-Jul-2021 4553.00 3612.92 71.06 28.00 216.48 2740.81
   13:11:33.062.19-Jul-2021 4553.00 3613.01 71.06 28.00 216.68 2740.81
   13:11:33.262.19-Jul-2021 4553.00 3612.76 71.06 28.00 216.88 2740.81
   13:11:33.462.19-Jul-2021 4553.00 3613.33 71.06 28.00 217.08 2740.81
   13:11:33.662.19-Jul-2021 4553.00 3613.33 71.06 28.00 217.28 2740.81
   13:11:33.862.19-Jul-2021 4553.00 3613.14 71.06 28.00 217.48 2740.81
   13:11:34.062.19-Jul-2021 4553.00 3612.91 71.06 28.00 217.68 2740.81
   13:11:34.262.19-Jul-2021 4553.00 3612.96 71.06 28.00 217.88 2740.81
   13:11:34.462.19-Jul-2021 4553.00 3613.02 71.06 28.00 218.08 2740.81
   13:11:34.662.19-Jul-2021 4553.00 3613.02 71.06 28.00 218.28 2740.81
   13:11:34.862.19-Jul-2021 4553.00 3612.99 71.06 28.00 218.48 2740.81
   13:11:35.063.19-Jul-2021 4553.00 3613.00 71.06 28.00 218.68 2740.81
   13:11:35.263.19-Jul-2021 4553.00 3612.99 71.06 28.00 218.88 2740.81
   13:11:35.463.19-Jul-2021 4553.00 3613.00 71.06 28.00 219.08 2740.81
   13:11:35.663.19-Jul-2021 4553.00 3613.00 71.06 28.00 219.28 2740.81
   13:11:35.863.19-Jul-2021 4553.00 3612.99 71.06 28.00 219.48 2740.81
   13:11:36.063.19-Jul-2021 4553.00 3613.02 71.06 28.00 219.68 2740.81
   13:11:36.263.19-Jul-2021 4553.00 3613.18 71.06 28.00 219.88 2740.81
   13:11:36.463.19-Jul-2021 4553.00 3612.87 71.06 28.00 220.08 2740.81
   13:11:36.663.19-Jul-2021 4553.00 3612.87 71.06 28.00 220.28 2740.81
   13:11:36.863.19-Jul-2021 4553.00 3613.05 71.06 28.00 220.48 2740.81
   13:11:37.063.19-Jul-2021 4553.00 3612.95 71.06 28.00 220.68 2740.81
   13:11:37.263.19-Jul-2021 4553.00 3612.96 71.06 28.00 220.88 2740.81
   13:11:37.463.19-Jul-2021 4553.00 3613.01 71.06 28.00 221.08 2740.81
   13:11:37.664.19-Jul-2021 4553.00 3613.01 71.06 28.00 221.28 2740.81
   13:11:37.864.19-Jul-2021 4553.00 3612.99 71.06 28.00 221.48 2740.81
   13:11:38.064.19-Jul-2021 4553.00 3612.98 71.06 28.00 221.68 2740.81
   13:11:38.264.19-Jul-2021 4553.00 3613.01 71.06 28.00 221.88 2740.81
   13:11:38.464.19-Jul-2021 4553.00 3612.99 71.06 28.00 222.08 2740.81
   13:11:38.664.19-Jul-2021 4553.00 3612.99 71.06 28.00 222.28 2740.81
   13:11:38.864.19-Jul-2021 4553.00 3613.34 71.06 28.00 222.48 2740.81
   13:11:39.064.19-Jul-2021 4553.00 3612.86 71.06 28.00 222.68 2740.81
   13:11:39.264.19-Jul-2021 4553.00 3613.12 71.06 28.00 222.88 2740.81
   13:11:39.464.19-Jul-2021 4553.00 3613.04 71.06 28.00 223.08 2740.81
   13:11:39.664.19-Jul-2021 4553.00 3613.04 71.06 28.00 223.28 2740.81
   13:11:39.864.19-Jul-2021 4553.00 3613.04 71.06 28.00 223.48 2740.81
   13:11:40.064.19-Jul-2021 4553.00 3613.09 71.06 28.00 223.68 2740.81
   13:11:40.264.19-Jul-2021 4553.00 3612.90 71.06 28.00 223.88 2740.81
   13:11:40.465.19-Jul-2021 4553.00 3613.01 71.06 28.00 224.08 2740.81
   13:11:40.665.19-Jul-2021 4553.00 3613.01 71.06 28.00 224.28 2740.81
   13:11:40.865.19-Jul-2021 4553.00 3612.99 71.06 28.00 224.48 2740.81
   13:11:41.065.19-Jul-2021 4553.00 3612.78 71.06 28.00 224.68 2740.81
   13:11:41.265.19-Jul-2021 4553.00 3613.13 71.06 28.00 224.88 2740.81
   13:11:41.465.19-Jul-2021 4553.00 3612.90 71.06 28.00 225.08 2740.81
   13:11:41.665.19-Jul-2021 4553.00 3612.90 71.06 28.00 225.28 2740.81
   13:11:41.865.19-Jul-2021 4553.00 3612.95 71.06 28.00 225.48 2740.81
   13:11:42.065.19-Jul-2021 4553.00 3613.03 71.06 28.00 225.68 2740.81
   13:11:42.265.19-Jul-2021 4553.00 3613.01 71.06 28.00 225.88 2740.81
