~Version Information
 VERS.                  2.0:   CWLS log ASCII Standard -VERSION 2.0
 WRAP.                   NO:   One line per depth step
~Well Information Block
#MNEM.UNIT     VALUE/NAME     DESCRIPTION
#---------     -----------    ---------------------------
 STRT.S             04:43:18 19-Jul-21: START TIME 04:43:18 19-Jul-21
 STOP.S             04:49:54 19-Jul-21: STOP TIME  04:49:54 19-Jul-21
 STEP.S                   0.00: STEP TIME
 NULL.                 -999.25: NULL VALUE
 MDS .        Operator Entered:  MAG DATA SOURCE
 PDAT.          Mean Sea Level:  PERMANENT DATUM
 UNIT.                     N/A:  LOGGING EQUIPMENT ID
 DCON.         Sperry Drilling:  DIRECTNL CONTR
 DOE .                     N/A:  DOE NUMBER
 RIG .              West Azeri:  RIG NAME
 JOBN.        AZ-XX-0906997913:  JOB TICKET NUMB
 WELL.                     C41:  WELL NAME
 MWDS.                    Baku:  MWD SHOP
 SRVC.          Turan Drilling:  CONTRACTOR
 FLD .                     ACG:  FIELD NAME
 CTRY.              Azerbaijan:  COUNTRY NAME
 PROV.                    Baku:  PROVINCE
 STAT.                    Baku:  STATE NAME
 REGN.                   EESSA:  REGION
 BASE.              Azerbaijan:  LOGGING EQUIPMENT BASE LOCATION
 UWI .                     N/A:  UNIQUE WELL IDENTIFIER
 API .                     N/A:  API NUMBER
 COMP.     BP Exploration (Caspian Sea) Ltd.:  COMPANY
 WTYP.                Deviated:  WELL TYPE
 SON .        AZ-XX-0906997913:  JOB NUMBER
 FTOP.          Formation Tops:  FORM TOPS DESC
 ILTD.               Lithology:  INTERP LTH DESC
 SVYD.                  Survey:  SURVEY DESC
 DMOD.             Drill Model:  DRILL MOD DESC
 HPTY.       Minimum Curvature:  HOLE POS TYPE
 NREF.                    Grid:  NORTH REFERENCE
 SPUD.               16-May-21:  SPUD DATE
 DATE.      21.11.28 17-May-21:  END TIME
 STIM.      21.11.28 17-May-21:  START TIME
 DMF .             Drill Floor:  DRILL MEAS FROM
 DFST.                        :  DIST FSL TEXT
 DFWT.                        :  DIST FWL TEXT
 CNTY.                        :  COUNTY
 LOC .                        :  LOCATION
 LMF .             Drill Floor:  LOG MEASURED FROM
 AGAP.m                  43.42:  AIR GAP
 VSNS.m                  -2.16:  VERT SEC N/S
 VSEW.m                  -6.24:  VERT SEC E/W
 APD .m                  43.42:  DEPTH ABOVE PD
 WDMS.m                 118.27:  WD ELEV
 EGL .m                   0.00:  GROUND ELEVATION
 EPD .m                   0.00:  ELEVATION
 AZTC.deg                 6.29:  AZM TOTAL CORR
 GRDC.deg                 0.18:  GRID CORRECTION
 MDEC.deg                 6.47:  MAGNETIC DECL
 MDIP.deg                59.54:  MAGNETIC DIP
 MFLD.nT              50337.00:  MAGNETIC FIELD
 GVFD.g                   1.00:  GRAVITY FIELD
 VSDR.deg               226.99:  VERT SEC DIRECT
 TDD .m                   0.00:  TOTAL DEPTH (DRILLER)
 SDEP.m                 448.00:  START DEPTH
 DFSL.m                   0.00:  DISTANCE FSL
 DFWL.m                   0.00:  DISTANCE FWL
 UTMY.m             4435799.96:  UTM Y
 UTMX.m              526265.35:  UTM X
 WHEW.m                  -6.24:  WELL HEAD E/W
 WHNS.m                  -2.16:  WELL HEAD N/S
 LONG.deg                51.31:  LONGITUDE
 LATI.deg                40.06:  LATITUDE
 TVDS.m                  43.42:  TVDSS CORRECTN
 EKB .m                  43.42:  KB ELEVATION
 EDF .m                  43.42:  DF ELEVATION
 TDL .m                 288.00:  TOTAL DEPTH (LOGGER)
 MAGU.                 1851863:  MAGUTM CHECKSUM
 VSC .                       0:  VS TO CLOSURE
~Parameter Information Block
#MNEM.UNIT       Value        Description
#---------     -----------    ---------------------------
 AV  .mps                 0.40:  Ann Velocity 
 AVMX.mps                 0.63:  Max Ann Veloc 
 AZIF.deg               158.76:  Azm, Final 
 BHAT.        Rotary Steerable:  BHA Type 
 BROT.°/30m               0.68:  Build Rotating 
 BS  .in                  8.50:  Bit Size 
 BSZ .in                  8.50:  Bit Size 
 BTPL.psig              712.00:  Bit Press Loss 
 CABU.                      No:  Customer Abuse 
 COMM.                     ”™f:  Run Comments 1 
 TCS .hr                 90.66:  Time Ciculation Ended 
 CV  .mps                 2.02:  Crit Velocity 
 CVMX.mps                 2.14:  Max Crit Veloc 
 DD1 .            Aziz Aliyevu:  Direct Drillr 1 
 DD2 .             Samir Abbas:  Direct Drillr 2 
 DD3 .           Teymur Aliyev:  Direct Drillr 3 
 DDSV.                 iCruise:  DD Service 
 DEFF.%                  85.10:  % Det Eff 
 DLRX.°/30m               1.05:  Dogleg Rot Max 
 DLSO.°/30m               1.01:  Dogleg Oriented 
 DLSX.°/30m               1.05:  Dogleg Str Max 
 DRET.      07.45.00 18-Jul-21:  Drill End Time 
 DRST.      15.00.00 16-Jul-21:  Drill Start Tim 
 DTIM.hr                 23.46:  Time Drilling 
 EDEP.m                4603.00:  End Depth 
 ENG1.       Seymur Iskandarov:  Engineer 1 
 ENG2.         Yevgeniy Ulikov:  Engineer 2 
 ENG3.         Bahruz Mehdiyev:  Engineer 3 
 ENG4.         Elchin Mammadov:  Engineer 4 
 ETIM.      14.00.00 23-Jul-21:  End Time 
 FLOI.gpm               500.00:  Flow In 
 FLON.gpm               450.00:  Flow In Min 
 FLOS.cptm                0.00:  Fluid Loss 
 FLOX.gpm               560.00:  Flow In Max 
 DFT .        Mineral Oil Base:  Mud Type 
 FTRO.       Formation Presure:  FTWD Run Obj 
 HFLO.                      No:  High Flow 
 HPRE.                      No:  High Pressure 
 HTEM.                      No:  High Temp 
 HYDO.m                   1.80:  Hydro Offset 
 IFIN.deg                40.22:  Inc, Final 
 IMAX.deg                40.54:  Inc Max 
 IMIN.deg                39.44:  Inc Min 
 IMND.m                4361.17:  Inc Min Depth 
 IMXD.m                4417.92:  Inc Max Depth 
 JARR.                      No:  Jarring 
 LETM.      07.45.00 18-Jul-21:  Log End Time 
 LOST.hr                    16:  Lost Rig Time 
 LSTM.      15.00.00 16-Jul-21:  Log Start Time 
 MDCL.ppm             36500.00:  Mud Chlorides 
 MDES.     Inversion Oil/Synthetic:  Mud Desc 
 DFD .sg                  1.42:  Mud Density 
 MDMN.sg                  1.42:  Dens Mud Min 
 MDMX.sg                  1.43:  Dens Mud Max 
 MOIL.                      56:  Run Mud Oil % 
 MOWR.                   71:29:  Run Mud OWR 
 MSND.                     0.5:  Run Mud Sand % 
 MSOL.                      21:  Run Mud Solids% 
 DFV .spqt               78.00:  Mud Viscosity 
 MWOD.in                  6.75:  MWD Tool OD 
 MWSI.                     Yes:  Serv Intrp, MWD 
 OTIM.hr                200.73:  Time Operating 
 PCON.           Look Like New:  Pad Condition 
 PMAX.psia            11069.93:  Press Op, Max 
 PV  .cP                 32.00:  Mud PV 
 RUN .                     700:  Run Number 
 ROPA.m/hr               10.00:  ROP Avg 
 ROPN.m/hr                9.00:  ROP Min 
 ROPX.m/hr               16.00:  ROP Max 
 RPMA.rpm               116.00:  RPM Surface Avg 
 RPMN.rpm                80.00:  RPM Surface Min 
 RPMX.rpm               120.00:  RPM Surface Max 
 RRUN.                    L605:  Rig Run Number 
 RTIM.hr                 45.00:  Time Reaming 
 SAZI.deg               159.86:  Azm, Start 
 SDEP.m                4315.00:  Start Depth 
 SIDD.                      No:  Serv Intrp, DD 
 SINC.deg                39.86:  Inc, Start 
 SPPA.psig             3300.00:  SPP Avg 
 SPPN.psig             3040.00:  SPP Min 
 SPPX.psig             3645.00:  SPP Max 
 STIM.      01.00.00 15-Jul-21:  Start Time 
 SVCS.                 DD, MWD:  Services 
 SVER.                    9.20:  Sperry Version 
 TDAT.m                 288.00:  Tot Depth Attmp 
 TDDF.                      No:  Trip for DD 
 TDLG.m                 288.00:  Tot Depth Loggd 
 TFF .                      No:  Trip for Fail 
 TQAA.f-kp               19.00:  Torque Abs Avg 
 TQAN.f-kp               18.00:  Torque Abs Min 
 TQAX.f-kp               21.00:  Torque Abs Max 
 TRRT.°/30m               0.45:  Turn Rotating 
 MRT .                    HCIM:  Maximum Recorded Temperature 
 TTMX.degC               88.24:  Max Tool Temp 
 VS01.                90649157:  Virtual Str1 SN 
 VS02.                90652483:  Virtual Str2 SN 
 VS03.                11671987:  Virtual Str3 SN 
 VS04.                90643411:  Virtual Str4 SN 
 VS05.                90652478:  Virtual Str5 SN 
 VS06.                    6111:  Virtual Str6 SN 
 WBMN.klb                 9.50:  WOB Min 
 WITN.        Grigoriy Sarayev:  Customer Rep 
 WITN.          Rufat Huseynov:  Customer Rep 2 
 WOBA.klb                11.00:  WOB Avg 
 WOBX.klb                15.00:  WOB Max 
 YP  .lhf2               28.00:  Yield Point 
~Curve Information Block
#MNEM.UNIT                 API CODE     Curve Description
#---------               -----------    ---------------------------
 TIME.HHMMSS            00 000 000 000:  GT Time & Date
 GTDEPTH.m              00 000 000 000:  GT Depth
 GTPQH.psia             00 000 000 000:  GT HR Quartz Pressure
 GTTQ.degC              00 000 000 000:  GT Quartz Temperature
 GTTN.NONE              00 000 000 000:  GT Test Number
 GTET.sec               00 000 000 000:  GT Elapsed Test Time
 GTTVD.m                00 000 000 000:  GT True Vertical Depth
#Other Information
#
#WARRANTY: Halliburton will use its best efforts to furnish customers with 
#accurate information and interpretations that are part of, and incident to, the services 
#provided.  However, Halliburton cannot and does not warrant the accuracy 
#or correctness of such information and interpretations.  Under no circumstances should any 
#such information or interpretation be relied upon as the sole basis for any drilling, 
#completion, production, or financial decision or any procedure involving any risk to the 
#safety of any drilling venture, drilling rig or its crew or any other third party.  The 
#Customer has full responsibility for all drilling, completion and production operation.  
#Halliburton makes no representations or warranties, either expressed or 
#implied, including, but not limited to, the implied warranties of merchantability or fitness 
#for a particular purpose, with respect to the services rendered.  In no event will 
#Halliburton be liable for failure to obtain any particular results or for 
#any damages, including, but not limited to, indirect, special or consequential damages, 
#resulting from the use of any information or interpretation provided by Halliburton.
#
~A           TIME           GTDEPTH  GTPQH  GTTQ  GTTN   GTET   GTTVD  
# ...
   04:44:03.450.19-Jul-2021 4355.50  599.50 68.64 11.00  45.22 2589.71
   04:44:03.650.19-Jul-2021 4355.50  593.75 68.63 11.00  45.42 2589.71
   04:44:03.850.19-Jul-2021 4355.50  591.63 68.63 11.00  45.62 2589.71
   04:44:04.050.19-Jul-2021 4355.50  589.79 68.63 11.00  45.82 2589.71
   04:44:04.250.19-Jul-2021 4355.50  587.59 68.62 11.00  46.02 2589.71
   04:44:04.450.19-Jul-2021 4355.50  587.59 68.62 11.00  46.22 2589.71
   04:44:04.650.19-Jul-2021 4355.50  586.23 68.62 11.00  46.42 2589.71
   04:44:04.850.19-Jul-2021 4355.50  589.02 68.62 11.00  46.62 2589.71
   04:44:05.051.19-Jul-2021 4355.50  591.07 68.61 11.00  46.82 2589.71
   04:44:05.251.19-Jul-2021 4355.50  592.47 68.61 11.00  47.02 2589.71
   04:44:05.451.19-Jul-2021 4355.50  592.47 68.61 11.00  47.22 2589.71
   04:44:05.651.19-Jul-2021 4355.50  591.89 68.61 11.00  47.42 2589.71
   04:44:05.851.19-Jul-2021 4355.50  590.42 68.60 11.00  47.62 2589.71
   04:44:06.051.19-Jul-2021 4355.50  590.63 68.60 11.00  47.82 2589.71
   04:44:06.251.19-Jul-2021 4355.50  593.77 68.60 11.00  48.02 2589.71
   04:44:06.451.19-Jul-2021 4355.50  593.77 68.60 11.00  48.22 2589.71
   04:44:06.651.19-Jul-2021 4355.50  602.45 68.60 11.00  48.42 2589.71
   04:44:06.851.19-Jul-2021 4355.50  605.92 68.59 11.00  48.62 2589.71
   04:44:07.051.19-Jul-2021 4355.50  609.77 68.59 11.00  48.82 2589.71
   04:44:07.251.19-Jul-2021 4355.50  613.75 68.59 11.00  49.02 2589.71
   04:44:07.451.19-Jul-2021 4355.50  613.75 68.59 11.00  49.22 2589.71
   04:44:07.652.19-Jul-2021 4355.50  620.81 68.59 11.00  49.42 2589.71
   04:44:07.852.19-Jul-2021 4355.50  625.76 68.59 11.00  49.62 2589.71
   04:44:08.052.19-Jul-2021 4355.50  630.55 68.58 11.00  49.82 2589.71
   04:44:08.252.19-Jul-2021 4355.50  635.63 68.58 11.00  50.02 2589.71
   04:44:08.452.19-Jul-2021 4355.50  635.63 68.58 11.00  50.22 2589.71
   04:44:08.652.19-Jul-2021 4355.50  642.75 68.58 11.00  50.42 2589.71
   04:44:08.852.19-Jul-2021 4355.50  648.70 68.58 11.00  50.62 2589.71
   04:44:09.052.19-Jul-2021 4355.50  653.55 68.58 11.00  50.82 2589.71
   04:44:09.252.19-Jul-2021 4355.50  658.46 68.58 11.00  51.02 2589.71
   04:44:09.452.19-Jul-2021 4355.50  658.46 68.58 11.00  51.22 2589.71
   04:44:09.652.19-Jul-2021 4355.50  667.75 68.58 11.00  51.42 2589.71
   04:44:09.852.19-Jul-2021 4355.50  672.21 68.57 11.00  51.62 2589.71
   04:44:10.052.19-Jul-2021 4355.50  676.93 68.57 11.00  51.82 2589.71
   04:44:10.252.19-Jul-2021 4355.50  680.34 68.57 11.00  52.02 2589.71
   04:44:10.453.19-Jul-2021 4355.50  680.34 68.57 11.00  52.22 2589.71
   04:44:10.653.19-Jul-2021 4355.50  697.60 68.57 11.00  52.42 2589.71
   04:44:10.853.19-Jul-2021 4355.50  702.23 68.57 11.00  52.62 2589.71
   04:44:11.053.19-Jul-2021 4355.50  706.69 68.57 11.00  52.82 2589.71
   04:44:11.253.19-Jul-2021 4355.50  709.75 68.57 11.00  53.02 2589.71
   04:44:11.453.19-Jul-2021 4355.50  709.75 68.57 11.00  53.22 2589.71
   04:44:11.653.19-Jul-2021 4355.50  715.74 68.57 11.00  53.42 2589.71
   04:44:11.853.19-Jul-2021 4355.50  718.45 68.57 11.00  53.62 2589.71
   04:44:12.053.19-Jul-2021 4355.50  721.15 68.57 11.00  53.82 2589.71
   04:44:12.253.19-Jul-2021 4355.50  723.63 68.57 11.00  54.02 2589.71
   04:44:12.453.19-Jul-2021 4355.50  723.63 68.57 11.00  54.22 2589.71
   04:44:12.653.19-Jul-2021 4355.50  728.23 68.57 11.00  54.42 2589.71
   04:44:12.853.19-Jul-2021 4355.50  730.64 68.57 11.00  54.62 2589.71
   04:44:13.054.19-Jul-2021 4355.50  732.88 68.57 11.00  54.82 2589.71
   04:44:13.254.19-Jul-2021 4355.50  733.48 68.57 11.00  55.02 2589.71
   04:44:13.454.19-Jul-2021 4355.50  733.48 68.57 11.00  55.22 2589.71
   04:44:13.654.19-Jul-2021 4355.50  739.22 68.56 11.00  55.42 2589.71
   04:44:13.854.19-Jul-2021 4355.50  742.51 68.56 11.00  55.62 2589.71
   04:44:14.054.19-Jul-2021 4355.50  744.74 68.56 11.00  55.82 2589.71
   04:44:14.254.19-Jul-2021 4355.50  747.28 68.56 11.00  56.02 2589.71
   04:44:14.454.19-Jul-2021 4355.50  747.28 68.56 11.00  56.22 2589.71
   04:44:14.654.19-Jul-2021 4355.50  751.96 68.56 11.00  56.42 2589.71
   04:44:14.854.19-Jul-2021 4355.50  754.24 68.56 11.00  56.62 2589.71
   04:44:15.054.19-Jul-2021 4355.50  756.35 68.56 11.00  56.82 2589.71
   04:44:15.254.19-Jul-2021 4355.50  758.33 68.56 11.00  57.02 2589.71
   04:44:15.454.19-Jul-2021 4355.50  758.33 68.56 11.00  57.22 2589.71
   04:44:15.654.19-Jul-2021 4355.50  761.09 68.56 11.00  57.42 2589.71
   04:44:15.855.19-Jul-2021 4355.50  763.42 68.56 11.00  57.62 2589.71
   04:44:16.055.19-Jul-2021 4355.50  765.83 68.56 11.00  57.82 2589.71
   04:44:16.255.19-Jul-2021 4355.50  766.98 68.56 11.00  58.02 2589.71
   04:44:16.455.19-Jul-2021 4355.50  766.98 68.56 11.00  58.22 2589.71
   04:44:16.655.19-Jul-2021 4355.50  773.43 68.56 11.00  58.42 2589.71
   04:44:16.855.19-Jul-2021 4355.50  775.41 68.56 11.00  58.62 2589.71
   04:44:17.055.19-Jul-2021 4355.50  778.65 68.56 11.00  58.82 2589.71
   04:44:17.255.19-Jul-2021 4355.50  781.96 68.56 11.00  59.02 2589.71
   04:44:17.455.19-Jul-2021 4355.50  781.96 68.56 11.00  59.22 2589.71
   04:44:17.655.19-Jul-2021 4355.50  786.80 68.56 11.00  59.42 2589.71
   04:44:17.855.19-Jul-2021 4355.50  788.12 68.56 11.00  59.62 2589.71
   04:44:18.055.19-Jul-2021 4355.50  791.91 68.56 11.00  59.82 2589.71
   04:44:18.255.19-Jul-2021 4355.50  795.45 68.56 11.00  60.02 2589.71
   04:44:18.455.19-Jul-2021 4355.50  795.45 68.56 11.00  60.22 2589.71
   04:44:18.656.19-Jul-2021 4355.50  801.52 68.57 11.00  60.42 2589.71
   04:44:18.856.19-Jul-2021 4355.50  804.73 68.57 11.00  60.62 2589.71
   04:44:19.056.19-Jul-2021 4355.50  807.65 68.57 11.00  60.82 2589.71
   04:44:19.256.19-Jul-2021 4355.50  809.55 68.57 11.00  61.02 2589.71
   04:44:19.456.19-Jul-2021 4355.50  809.55 68.57 11.00  61.22 2589.71
   04:44:19.656.19-Jul-2021 4355.50  813.68 68.57 11.00  61.42 2589.71
   04:44:19.856.19-Jul-2021 4355.50  815.56 68.57 11.00  61.62 2589.71
   04:44:20.056.19-Jul-2021 4355.50  817.27 68.57 11.00  61.82 2589.71
   04:44:20.256.19-Jul-2021 4355.50  819.00 68.57 11.00  62.02 2589.71
   04:44:20.456.19-Jul-2021 4355.50  819.00 68.57 11.00  62.22 2589.71
   04:44:20.656.19-Jul-2021 4355.50  822.31 68.57 11.00  62.42 2589.71
   04:44:20.856.19-Jul-2021 4355.50  824.01 68.57 11.00  62.62 2589.71
   04:44:21.056.19-Jul-2021 4355.50  825.62 68.57 11.00  62.82 2589.71
   04:44:21.257.19-Jul-2021 4355.50  825.32 68.57 11.00  63.02 2589.71
   04:44:21.457.19-Jul-2021 4355.50  825.32 68.57 11.00  63.22 2589.71
   04:44:21.657.19-Jul-2021 4355.50  829.72 68.57 11.00  63.42 2589.71
   04:44:21.857.19-Jul-2021 4355.50  832.04 68.57 11.00  63.62 2589.71
   04:44:22.057.19-Jul-2021 4355.50  833.61 68.57 11.00  63.82 2589.71
   04:44:22.257.19-Jul-2021 4355.50  835.49 68.57 11.00  64.02 2589.71
   04:44:22.457.19-Jul-2021 4355.50  835.49 68.57 11.00  64.22 2589.71
   04:44:22.657.19-Jul-2021 4355.50  838.83 68.57 11.00  64.42 2589.71
   04:44:22.857.19-Jul-2021 4355.50  840.42 68.57 11.00  64.62 2589.71
   04:44:23.057.19-Jul-2021 4355.50  841.93 68.57 11.00  64.82 2589.71
   04:44:23.257.19-Jul-2021 4355.50  843.50 68.57 11.00  65.02 2589.71
   04:44:23.457.19-Jul-2021 4355.50  843.50 68.57 11.00  65.22 2589.71
   04:44:23.657.19-Jul-2021 4355.50  844.95 68.57 11.00  65.42 2589.71
   04:44:23.857.19-Jul-2021 4355.50  846.27 68.57 11.00  65.62 2589.71
   04:44:24.058.19-Jul-2021 4355.50  848.19 68.57 11.00  65.82 2589.71
   04:44:24.258.19-Jul-2021 4355.50  848.46 68.57 11.00  66.02 2589.71
   04:44:24.458.19-Jul-2021 4355.50  848.46 68.57 11.00  66.22 2589.71
   04:44:24.658.19-Jul-2021 4355.50  853.19 68.57 11.00  66.42 2589.71
   04:44:24.858.19-Jul-2021 4355.50  855.54 68.57 11.00  66.62 2589.71
   04:44:25.058.19-Jul-2021 4355.50  855.50 68.57 11.00  66.82 2589.71
   04:44:25.258.19-Jul-2021 4355.50  857.60 68.57 11.00  67.02 2589.71
   04:44:25.458.19-Jul-2021 4355.50  857.60 68.57 11.00  67.22 2589.71
   04:44:25.658.19-Jul-2021 4355.50  861.76 68.57 11.00  67.42 2589.71
   04:44:25.858.19-Jul-2021 4355.50  863.20 68.58 11.00  67.62 2589.71
