~Version Information
 VERS.                  2.0:   CWLS log ASCII Standard -VERSION 2.0
 WRAP.                   NO:   One line per depth step
~Well Information Block
#MNEM.UNIT     VALUE/NAME     DESCRIPTION
#---------     -----------    ---------------------------
 STRT.S             14:22:27 18-Jul-21: START TIME 14:22:27 18-Jul-21
 STOP.S             14:29:00 18-Jul-21: STOP TIME  14:29:00 18-Jul-21
 STEP.S                   0.00: STEP TIME
 NULL.                 -999.25: NULL VALUE
 MDS .        Operator Entered:  MAG DATA SOURCE
 PDAT.          Mean Sea Level:  PERMANENT DATUM
 UNIT.                     N/A:  LOGGING EQUIPMENT ID
 DCON.         Sperry Drilling:  DIRECTNL CONTR
 DOE .                     N/A:  DOE NUMBER
 RIG .              West Azeri:  RIG NAME
 JOBN.        AZ-XX-0906997913:  JOB TICKET NUMB
 WELL.                     C41:  WELL NAME
 MWDS.                    Baku:  MWD SHOP
 SRVC.          Turan Drilling:  CONTRACTOR
 FLD .                     ACG:  FIELD NAME
 CTRY.              Azerbaijan:  COUNTRY NAME
 PROV.                    Baku:  PROVINCE
 STAT.                    Baku:  STATE NAME
 REGN.                   EESSA:  REGION
 BASE.              Azerbaijan:  LOGGING EQUIPMENT BASE LOCATION
 UWI .                     N/A:  UNIQUE WELL IDENTIFIER
 API .                     N/A:  API NUMBER
 COMP.     BP Exploration (Caspian Sea) Ltd.:  COMPANY
 WTYP.                Deviated:  WELL TYPE
 SON .        AZ-XX-0906997913:  JOB NUMBER
 FTOP.          Formation Tops:  FORM TOPS DESC
 ILTD.               Lithology:  INTERP LTH DESC
 SVYD.                  Survey:  SURVEY DESC
 DMOD.             Drill Model:  DRILL MOD DESC
 HPTY.       Minimum Curvature:  HOLE POS TYPE
 NREF.                    Grid:  NORTH REFERENCE
 SPUD.               16-May-21:  SPUD DATE
 DATE.      21.11.28 17-May-21:  END TIME
 STIM.      21.11.28 17-May-21:  START TIME
 DMF .             Drill Floor:  DRILL MEAS FROM
 DFST.                        :  DIST FSL TEXT
 DFWT.                        :  DIST FWL TEXT
 CNTY.                        :  COUNTY
 LOC .                        :  LOCATION
 LMF .             Drill Floor:  LOG MEASURED FROM
 AGAP.m                  43.42:  AIR GAP
 VSNS.m                  -2.16:  VERT SEC N/S
 VSEW.m                  -6.24:  VERT SEC E/W
 APD .m                  43.42:  DEPTH ABOVE PD
 WDMS.m                 118.27:  WD ELEV
 EGL .m                   0.00:  GROUND ELEVATION
 EPD .m                   0.00:  ELEVATION
 AZTC.deg                 6.29:  AZM TOTAL CORR
 GRDC.deg                 0.18:  GRID CORRECTION
 MDEC.deg                 6.47:  MAGNETIC DECL
 MDIP.deg                59.54:  MAGNETIC DIP
 MFLD.nT              50337.00:  MAGNETIC FIELD
 GVFD.g                   1.00:  GRAVITY FIELD
 VSDR.deg               226.99:  VERT SEC DIRECT
 TDD .m                   0.00:  TOTAL DEPTH (DRILLER)
 SDEP.m                 448.00:  START DEPTH
 DFSL.m                   0.00:  DISTANCE FSL
 DFWL.m                   0.00:  DISTANCE FWL
 UTMY.m             4435799.96:  UTM Y
 UTMX.m              526265.35:  UTM X
 WHEW.m                  -6.24:  WELL HEAD E/W
 WHNS.m                  -2.16:  WELL HEAD N/S
 LONG.deg                51.31:  LONGITUDE
 LATI.deg                40.06:  LATITUDE
 TVDS.m                  43.42:  TVDSS CORRECTN
 EKB .m                  43.42:  KB ELEVATION
 EDF .m                  43.42:  DF ELEVATION
 TDL .m                 288.00:  TOTAL DEPTH (LOGGER)
 MAGU.                 1851863:  MAGUTM CHECKSUM
 VSC .                       0:  VS TO CLOSURE
~Parameter Information Block
#MNEM.UNIT       Value        Description
#---------     -----------    ---------------------------
 AV  .mps                 0.40:  Ann Velocity 
 AVMX.mps                 0.63:  Max Ann Veloc 
 AZIF.deg               158.76:  Azm, Final 
 BHAT.        Rotary Steerable:  BHA Type 
 BROT.°/30m               0.68:  Build Rotating 
 BS  .in                  8.50:  Bit Size 
 BSZ .in                  8.50:  Bit Size 
 BTPL.psig              712.00:  Bit Press Loss 
 CABU.                      No:  Customer Abuse 
 COMM.                     |«g:  Run Comments 1 
 TCS .hr                 90.66:  Time Ciculation Ended 
 CV  .mps                 2.02:  Crit Velocity 
 CVMX.mps                 2.14:  Max Crit Veloc 
 DD1 .            Aziz Aliyevu:  Direct Drillr 1 
 DD2 .             Samir Abbas:  Direct Drillr 2 
 DD3 .           Teymur Aliyev:  Direct Drillr 3 
 DDSV.                 iCruise:  DD Service 
 DEFF.%                  85.10:  % Det Eff 
 DLRX.°/30m               1.05:  Dogleg Rot Max 
 DLSO.°/30m               1.01:  Dogleg Oriented 
 DLSX.°/30m               1.05:  Dogleg Str Max 
 DRET.      07.45.00 18-Jul-21:  Drill End Time 
 DRST.      15.00.00 16-Jul-21:  Drill Start Tim 
 DTIM.hr                 23.46:  Time Drilling 
 EDEP.m                4603.00:  End Depth 
 ENG1.       Seymur Iskandarov:  Engineer 1 
 ENG2.         Yevgeniy Ulikov:  Engineer 2 
 ENG3.         Bahruz Mehdiyev:  Engineer 3 
 ENG4.         Elchin Mammadov:  Engineer 4 
 ETIM.      14.00.00 23-Jul-21:  End Time 
 FLOI.gpm               500.00:  Flow In 
 FLON.gpm               450.00:  Flow In Min 
 FLOS.cptm                0.00:  Fluid Loss 
 FLOX.gpm               560.00:  Flow In Max 
 DFT .        Mineral Oil Base:  Mud Type 
 FTRO.       Formation Presure:  FTWD Run Obj 
 HFLO.                      No:  High Flow 
 HPRE.                      No:  High Pressure 
 HTEM.                      No:  High Temp 
 HYDO.m                   1.80:  Hydro Offset 
 IFIN.deg                40.22:  Inc, Final 
 IMAX.deg                40.54:  Inc Max 
 IMIN.deg                39.44:  Inc Min 
 IMND.m                4361.17:  Inc Min Depth 
 IMXD.m                4417.92:  Inc Max Depth 
 JARR.                      No:  Jarring 
 LETM.      07.45.00 18-Jul-21:  Log End Time 
 LOST.hr                    16:  Lost Rig Time 
 LSTM.      15.00.00 16-Jul-21:  Log Start Time 
 MDCL.ppm             36500.00:  Mud Chlorides 
 MDES.     Inversion Oil/Synthetic:  Mud Desc 
 DFD .sg                  1.42:  Mud Density 
 MDMN.sg                  1.42:  Dens Mud Min 
 MDMX.sg                  1.43:  Dens Mud Max 
 MOIL.                      56:  Run Mud Oil % 
 MOWR.                   71:29:  Run Mud OWR 
 MSND.                     0.5:  Run Mud Sand % 
 MSOL.                      21:  Run Mud Solids% 
 DFV .spqt               78.00:  Mud Viscosity 
 MWOD.in                  6.75:  MWD Tool OD 
 MWSI.                     Yes:  Serv Intrp, MWD 
 OTIM.hr                200.73:  Time Operating 
 PCON.           Look Like New:  Pad Condition 
 PMAX.psia            11069.93:  Press Op, Max 
 PV  .cP                 32.00:  Mud PV 
 RUN .                     700:  Run Number 
 ROPA.m/hr               10.00:  ROP Avg 
 ROPN.m/hr                9.00:  ROP Min 
 ROPX.m/hr               16.00:  ROP Max 
 RPMA.rpm               116.00:  RPM Surface Avg 
 RPMN.rpm                80.00:  RPM Surface Min 
 RPMX.rpm               120.00:  RPM Surface Max 
 RRUN.                    L605:  Rig Run Number 
 RTIM.hr                 45.00:  Time Reaming 
 SAZI.deg               159.86:  Azm, Start 
 SDEP.m                4315.00:  Start Depth 
 SIDD.                      No:  Serv Intrp, DD 
 SINC.deg                39.86:  Inc, Start 
 SPPA.psig             3300.00:  SPP Avg 
 SPPN.psig             3040.00:  SPP Min 
 SPPX.psig             3645.00:  SPP Max 
 STIM.      01.00.00 15-Jul-21:  Start Time 
 SVCS.                 DD, MWD:  Services 
 SVER.                    9.20:  Sperry Version 
 TDAT.m                 288.00:  Tot Depth Attmp 
 TDDF.                      No:  Trip for DD 
 TDLG.m                 288.00:  Tot Depth Loggd 
 TFF .                      No:  Trip for Fail 
 TQAA.f-kp               19.00:  Torque Abs Avg 
 TQAN.f-kp               18.00:  Torque Abs Min 
 TQAX.f-kp               21.00:  Torque Abs Max 
 TRRT.°/30m               0.45:  Turn Rotating 
 MRT .                    HCIM:  Maximum Recorded Temperature 
 TTMX.degC               88.24:  Max Tool Temp 
 VS01.                90649157:  Virtual Str1 SN 
 VS02.                90652483:  Virtual Str2 SN 
 VS03.                11671987:  Virtual Str3 SN 
 VS04.                90643411:  Virtual Str4 SN 
 VS05.                90652478:  Virtual Str5 SN 
 VS06.                    6111:  Virtual Str6 SN 
 WBMN.klb                 9.50:  WOB Min 
 WITN.        Grigoriy Sarayev:  Customer Rep 
 WITN.          Rufat Huseynov:  Customer Rep 2 
 WOBA.klb                11.00:  WOB Avg 
 WOBX.klb                15.00:  WOB Max 
 YP  .lhf2               28.00:  Yield Point 
~Curve Information Block
#MNEM.UNIT                 API CODE     Curve Description
#---------               -----------    ---------------------------
 TIME.HHMMSS            00 000 000 000:  GT Time & Date
 GTDEPTH.m              00 000 000 000:  GT Depth
 GTPQH.psia             00 000 000 000:  GT HR Quartz Pressure
 GTTQ.degC              00 000 000 000:  GT Quartz Temperature
 GTTN.NONE              00 000 000 000:  GT Test Number
 GTET.sec               00 000 000 000:  GT Elapsed Test Time
 GTTVD.m                00 000 000 000:  GT True Vertical Depth
#Other Information
#
#WARRANTY: Halliburton will use its best efforts to furnish customers with 
#accurate information and interpretations that are part of, and incident to, the services 
#provided.  However, Halliburton cannot and does not warrant the accuracy 
#or correctness of such information and interpretations.  Under no circumstances should any 
#such information or interpretation be relied upon as the sole basis for any drilling, 
#completion, production, or financial decision or any procedure involving any risk to the 
#safety of any drilling venture, drilling rig or its crew or any other third party.  The 
#Customer has full responsibility for all drilling, completion and production operation.  
#Halliburton makes no representations or warranties, either expressed or 
#implied, including, but not limited to, the implied warranties of merchantability or fitness 
#for a particular purpose, with respect to the services rendered.  In no event will 
#Halliburton be liable for failure to obtain any particular results or for 
#any damages, including, but not limited to, indirect, special or consequential damages, 
#resulting from the use of any information or interpretation provided by Halliburton.
#
~A           TIME           GTDEPTH  GTPQH  GTTQ  GTTN  GTET   GTTVD  
# ...
   14:25:54.291.18-Jul-2021 4558.50 6654.16 75.32 4.00 207.08 2745.02
   14:25:54.491.18-Jul-2021 4558.50 6654.16 75.32 4.00 207.28 2745.02
   14:25:54.691.18-Jul-2021 4558.50 6653.57 75.32 4.00 207.48 2745.02
   14:25:54.891.18-Jul-2021 4558.50 6653.52 75.32 4.00 207.68 2745.02
   14:25:55.091.18-Jul-2021 4558.50 6654.08 75.32 4.00 207.88 2745.02
   14:25:55.292.18-Jul-2021 4558.50 6653.47 75.32 4.00 208.08 2745.02
   14:25:55.492.18-Jul-2021 4558.50 6653.47 75.32 4.00 208.28 2745.02
   14:25:55.692.18-Jul-2021 4558.50 6653.19 75.32 4.00 208.48 2745.02
   14:25:55.892.18-Jul-2021 4558.50 6652.18 75.32 4.00 208.68 2745.02
   14:25:56.092.18-Jul-2021 4558.50 6652.49 75.32 4.00 208.88 2745.02
   14:25:56.292.18-Jul-2021 4558.50 6652.82 75.32 4.00 209.08 2745.02
   14:25:56.492.18-Jul-2021 4558.50 6652.82 75.32 4.00 209.28 2745.02
   14:25:56.692.18-Jul-2021 4558.50 6656.04 75.32 4.00 209.48 2745.02
   14:25:56.892.18-Jul-2021 4558.50 6653.16 75.32 4.00 209.68 2745.02
   14:25:57.092.18-Jul-2021 4558.50 6655.23 75.32 4.00 209.88 2745.02
   14:25:57.292.18-Jul-2021 4558.50 6653.88 75.32 4.00 210.08 2745.02
   14:25:57.492.18-Jul-2021 4558.50 6653.88 75.32 4.00 210.28 2745.02
   14:25:57.692.18-Jul-2021 4558.50 6652.98 75.32 4.00 210.48 2745.02
   14:25:57.892.18-Jul-2021 4558.50 6652.90 75.32 4.00 210.68 2745.02
   14:25:58.093.18-Jul-2021 4558.50 6653.19 75.32 4.00 210.88 2745.02
   14:25:58.293.18-Jul-2021 4558.50 6652.87 75.32 4.00 211.08 2745.02
   14:25:58.493.18-Jul-2021 4558.50 6652.87 75.32 4.00 211.28 2745.02
   14:25:58.693.18-Jul-2021 4558.50 6652.96 75.32 4.00 211.48 2745.02
   14:25:58.893.18-Jul-2021 4558.50 6652.11 75.32 4.00 211.68 2745.02
   14:25:59.093.18-Jul-2021 4558.50 6654.84 75.32 4.00 211.88 2745.02
   14:25:59.293.18-Jul-2021 4558.50 6653.61 75.32 4.00 212.08 2745.02
   14:25:59.493.18-Jul-2021 4558.50 6653.61 75.32 4.00 212.28 2745.02
   14:25:59.693.18-Jul-2021 4558.50 6656.72 75.32 4.00 212.48 2745.02
   14:25:59.893.18-Jul-2021 4558.50 6655.08 75.32 4.00 212.68 2745.02
   14:26:00.093.18-Jul-2021 4558.50 6651.71 75.32 4.00 212.88 2745.02
   14:26:00.293.18-Jul-2021 4558.50 6653.60 75.32 4.00 213.08 2745.02
   14:26:00.493.18-Jul-2021 4558.50 6653.60 75.32 4.00 213.28 2745.02
   14:26:00.694.18-Jul-2021 4558.50 6652.31 75.32 4.00 213.48 2745.02
   14:26:00.894.18-Jul-2021 4558.50 6656.30 75.32 4.00 213.68 2745.02
   14:26:01.094.18-Jul-2021 4558.50 6651.93 75.32 4.00 213.88 2745.02
   14:26:01.294.18-Jul-2021 4558.50 6652.84 75.32 4.00 214.08 2745.02
   14:26:01.494.18-Jul-2021 4558.50 6652.84 75.32 4.00 214.28 2745.02
   14:26:01.694.18-Jul-2021 4558.50 6652.76 75.32 4.00 214.48 2745.02
   14:26:01.894.18-Jul-2021 4558.50 6657.62 75.32 4.00 214.68 2745.02
   14:26:02.094.18-Jul-2021 4558.50 6654.47 75.32 4.00 214.88 2745.02
   14:26:02.294.18-Jul-2021 4558.50 6653.00 75.32 4.00 215.08 2745.02
   14:26:02.494.18-Jul-2021 4558.50 6653.00 75.32 4.00 215.28 2745.02
   14:26:02.694.18-Jul-2021 4558.50 6652.67 75.32 4.00 215.48 2745.02
   14:26:02.894.18-Jul-2021 4558.50 6655.95 75.32 4.00 215.68 2745.02
   14:26:03.094.18-Jul-2021 4558.50 6655.03 75.32 4.00 215.88 2745.02
   14:26:03.294.18-Jul-2021 4558.50 6653.43 75.32 4.00 216.08 2745.02
   14:26:03.495.18-Jul-2021 4558.50 6653.43 75.32 4.00 216.28 2745.02
   14:26:03.695.18-Jul-2021 4558.50 6653.71 75.32 4.00 216.48 2745.02
   14:26:03.895.18-Jul-2021 4558.50 6653.56 75.32 4.00 216.68 2745.02
   14:26:04.095.18-Jul-2021 4558.50 6653.29 75.32 4.00 216.88 2745.02
   14:26:04.295.18-Jul-2021 4558.50 6653.10 75.32 4.00 217.08 2745.02
   14:26:04.495.18-Jul-2021 4558.50 6653.10 75.32 4.00 217.28 2745.02
   14:26:04.695.18-Jul-2021 4558.50 6652.92 75.32 4.00 217.48 2745.02
   14:26:04.895.18-Jul-2021 4558.50 6653.13 75.32 4.00 217.68 2745.02
   14:26:05.095.18-Jul-2021 4558.50 6652.16 75.32 4.00 217.88 2745.02
   14:26:05.295.18-Jul-2021 4558.50 6652.04 75.32 4.00 218.08 2745.02
   14:26:05.495.18-Jul-2021 4558.50 6652.04 75.32 4.00 218.28 2745.02
   14:26:05.695.18-Jul-2021 4558.50 6655.21 75.32 4.00 218.48 2745.02
   14:26:05.895.18-Jul-2021 4558.50 6654.71 75.32 4.00 218.68 2745.02
   14:26:06.095.18-Jul-2021 4558.50 6653.37 75.32 4.00 218.88 2745.02
   14:26:06.296.18-Jul-2021 4558.50 6653.51 75.32 4.00 219.08 2745.02
   14:26:06.496.18-Jul-2021 4558.50 6653.51 75.32 4.00 219.28 2745.02
   14:26:06.696.18-Jul-2021 4558.50 6652.94 75.32 4.00 219.48 2745.02
   14:26:06.896.18-Jul-2021 4558.50 6652.11 75.32 4.00 219.68 2745.02
   14:26:07.096.18-Jul-2021 4558.50 6652.70 75.32 4.00 219.88 2745.02
   14:26:07.296.18-Jul-2021 4558.50 6652.80 75.32 4.00 220.08 2745.02
   14:26:07.496.18-Jul-2021 4558.50 6652.80 75.32 4.00 220.28 2745.02
   14:26:07.696.18-Jul-2021 4558.50 6652.60 75.32 4.00 220.48 2745.02
   14:26:07.896.18-Jul-2021 4558.50 6652.37 75.32 4.00 220.68 2745.02
   14:26:08.096.18-Jul-2021 4558.50 6651.89 75.32 4.00 220.88 2745.02
   14:26:08.296.18-Jul-2021 4558.50 6653.54 75.32 4.00 221.08 2745.02
   14:26:08.496.18-Jul-2021 4558.50 6653.54 75.32 4.00 221.28 2745.02
   14:26:08.696.18-Jul-2021 4558.50 6651.19 75.32 4.00 221.48 2745.02
   14:26:08.897.18-Jul-2021 4558.50 6656.04 75.32 4.00 221.68 2745.02
   14:26:09.097.18-Jul-2021 4558.50 6655.20 75.32 4.00 221.88 2745.02
   14:26:09.297.18-Jul-2021 4558.50 6652.36 75.32 4.00 222.08 2745.02
   14:26:09.497.18-Jul-2021 4558.50 6652.36 75.32 4.00 222.28 2745.02
   14:26:09.697.18-Jul-2021 4558.50 6652.53 75.32 4.00 222.48 2745.02
   14:26:09.897.18-Jul-2021 4558.50 6653.00 75.32 4.00 222.68 2745.02
   14:26:10.097.18-Jul-2021 4558.50 6656.64 75.32 4.00 222.88 2745.02
   14:26:10.297.18-Jul-2021 4558.50 6653.48 75.32 4.00 223.08 2745.02
   14:26:10.497.18-Jul-2021 4558.50 6653.48 75.32 4.00 223.28 2745.02
   14:26:10.697.18-Jul-2021 4558.50 6652.82 75.32 4.00 223.48 2745.02
   14:26:10.897.18-Jul-2021 4558.50 6652.22 75.32 4.00 223.68 2745.02
   14:26:11.097.18-Jul-2021 4558.50 6655.96 75.32 4.00 223.88 2745.02
   14:26:11.297.18-Jul-2021 4558.50 6654.93 75.32 4.00 224.08 2745.02
   14:26:11.497.18-Jul-2021 4558.50 6654.93 75.32 4.00 224.28 2745.02
   14:26:11.698.18-Jul-2021 4558.50 6653.25 75.32 4.00 224.48 2745.02
   14:26:11.898.18-Jul-2021 4558.50 6652.36 75.32 4.00 224.68 2745.02
   14:26:12.098.18-Jul-2021 4558.50 6655.56 75.32 4.00 224.88 2745.02
   14:26:12.298.18-Jul-2021 4558.50 6654.59 75.32 4.00 225.08 2745.02
   14:26:12.498.18-Jul-2021 4558.50 6654.59 75.32 4.00 225.28 2745.02
   14:26:12.698.18-Jul-2021 4558.50 6654.34 75.32 4.00 225.48 2745.02
   14:26:12.898.18-Jul-2021 4558.50 6653.63 75.32 4.00 225.68 2745.02
   14:26:13.098.18-Jul-2021 4558.50 6653.36 75.32 4.00 225.88 2745.02
   14:26:13.298.18-Jul-2021 4558.50 6653.24 75.32 4.00 226.08 2745.02
   14:26:13.498.18-Jul-2021 4558.50 6653.24 75.32 4.00 226.28 2745.02
   14:26:13.698.18-Jul-2021 4558.50 6653.31 75.32 4.00 226.48 2745.02
   14:26:13.898.18-Jul-2021 4558.50 6653.11 75.32 4.00 226.68 2745.02
   14:26:14.098.18-Jul-2021 4558.50 6653.21 75.32 4.00 226.88 2745.02
   14:26:14.299.18-Jul-2021 4558.50 6652.40 75.32 4.00 227.08 2745.02
   14:26:14.499.18-Jul-2021 4558.50 6652.40 75.32 4.00 227.28 2745.02
   14:26:14.699.18-Jul-2021 4558.50 6652.16 75.32 4.00 227.48 2745.02
   14:26:14.899.18-Jul-2021 4558.50 6654.13 75.32 4.00 227.68 2745.02
   14:26:15.099.18-Jul-2021 4558.50 6655.95 75.32 4.00 227.88 2745.02
   14:26:15.299.18-Jul-2021 4558.50 6652.71 75.32 4.00 228.08 2745.02
   14:26:15.499.18-Jul-2021 4558.50 6652.71 75.32 4.00 228.28 2745.02
   14:26:15.699.18-Jul-2021 4558.50 6653.20 75.32 4.00 228.48 2745.02
   14:26:15.899.18-Jul-2021 4558.50 6653.14 75.32 4.00 228.68 2745.02
   14:26:16.099.18-Jul-2021 4558.50 6652.68 75.32 4.00 228.88 2745.02
   14:26:16.299.18-Jul-2021 4558.50 6653.02 75.32 4.00 229.08 2745.02
   14:26:16.499.18-Jul-2021 4558.50 6653.02 75.32 4.00 229.28 2745.02
   14:26:16.699.18-Jul-2021 4558.50 6652.63 75.32 4.00 229.48 2745.02
   14:26:16.899.18-Jul-2021 4558.50 6652.05 75.32 4.00 229.68 2745.02
   14:26:17.100.18-Jul-2021 4558.50 6652.04 75.32 4.00 229.88 2745.02
