~Version Information
 VERS.                  2.0:   CWLS log ASCII Standard -VERSION 2.0
 WRAP.                   NO:   One line per depth step
~Well Information Block
#MNEM.UNIT     VALUE/NAME     DESCRIPTION
#---------     -----------    ---------------------------
 STRT.S             07:37:07 19-Jul-21: START TIME 07:37:07 19-Jul-21
 STOP.S             07:44:01 19-Jul-21: STOP TIME  07:44:01 19-Jul-21
 STEP.S                   0.00: STEP TIME
 NULL.                 -999.25: NULL VALUE
 MDS .        Operator Entered:  MAG DATA SOURCE
 PDAT.          Mean Sea Level:  PERMANENT DATUM
 UNIT.                     N/A:  LOGGING EQUIPMENT ID
 DCON.         Sperry Drilling:  DIRECTNL CONTR
 DOE .                     N/A:  DOE NUMBER
 RIG .              West Azeri:  RIG NAME
 JOBN.        AZ-XX-0906997913:  JOB TICKET NUMB
 WELL.                     C41:  WELL NAME
 MWDS.                    Baku:  MWD SHOP
 SRVC.          Turan Drilling:  CONTRACTOR
 FLD .                     ACG:  FIELD NAME
 CTRY.              Azerbaijan:  COUNTRY NAME
 PROV.                    Baku:  PROVINCE
 STAT.                    Baku:  STATE NAME
 REGN.                   EESSA:  REGION
 BASE.              Azerbaijan:  LOGGING EQUIPMENT BASE LOCATION
 UWI .                     N/A:  UNIQUE WELL IDENTIFIER
 API .                     N/A:  API NUMBER
 COMP.     BP Exploration (Caspian Sea) Ltd.:  COMPANY
 WTYP.                Deviated:  WELL TYPE
 SON .        AZ-XX-0906997913:  JOB NUMBER
 FTOP.          Formation Tops:  FORM TOPS DESC
 ILTD.               Lithology:  INTERP LTH DESC
 SVYD.                  Survey:  SURVEY DESC
 DMOD.             Drill Model:  DRILL MOD DESC
 HPTY.       Minimum Curvature:  HOLE POS TYPE
 NREF.                    Grid:  NORTH REFERENCE
 SPUD.               16-May-21:  SPUD DATE
 DATE.      21.11.28 17-May-21:  END TIME
 STIM.      21.11.28 17-May-21:  START TIME
 DMF .             Drill Floor:  DRILL MEAS FROM
 DFST.                        :  DIST FSL TEXT
 DFWT.                        :  DIST FWL TEXT
 CNTY.                        :  COUNTY
 LOC .                        :  LOCATION
 LMF .             Drill Floor:  LOG MEASURED FROM
 AGAP.m                  43.42:  AIR GAP
 VSNS.m                  -2.16:  VERT SEC N/S
 VSEW.m                  -6.24:  VERT SEC E/W
 APD .m                  43.42:  DEPTH ABOVE PD
 WDMS.m                 118.27:  WD ELEV
 EGL .m                   0.00:  GROUND ELEVATION
 EPD .m                   0.00:  ELEVATION
 AZTC.deg                 6.29:  AZM TOTAL CORR
 GRDC.deg                 0.18:  GRID CORRECTION
 MDEC.deg                 6.47:  MAGNETIC DECL
 MDIP.deg                59.54:  MAGNETIC DIP
 MFLD.nT              50337.00:  MAGNETIC FIELD
 GVFD.g                   1.00:  GRAVITY FIELD
 VSDR.deg               226.99:  VERT SEC DIRECT
 TDD .m                   0.00:  TOTAL DEPTH (DRILLER)
 SDEP.m                 448.00:  START DEPTH
 DFSL.m                   0.00:  DISTANCE FSL
 DFWL.m                   0.00:  DISTANCE FWL
 UTMY.m             4435799.96:  UTM Y
 UTMX.m              526265.35:  UTM X
 WHEW.m                  -6.24:  WELL HEAD E/W
 WHNS.m                  -2.16:  WELL HEAD N/S
 LONG.deg                51.31:  LONGITUDE
 LATI.deg                40.06:  LATITUDE
 TVDS.m                  43.42:  TVDSS CORRECTN
 EKB .m                  43.42:  KB ELEVATION
 EDF .m                  43.42:  DF ELEVATION
 TDL .m                 288.00:  TOTAL DEPTH (LOGGER)
 MAGU.                 1851863:  MAGUTM CHECKSUM
 VSC .                       0:  VS TO CLOSURE
~Parameter Information Block
#MNEM.UNIT       Value        Description
#---------     -----------    ---------------------------
 AV  .mps                 0.40:  Ann Velocity 
 AVMX.mps                 0.63:  Max Ann Veloc 
 AZIF.deg               158.76:  Azm, Final 
 BHAT.        Rotary Steerable:  BHA Type 
 BROT.°/30m               0.68:  Build Rotating 
 BS  .in                  8.50:  Bit Size 
 BSZ .in                  8.50:  Bit Size 
 BTPL.psig              712.00:  Bit Press Loss 
 CABU.                      No:  Customer Abuse 
 COMM.                     ÌT{:  Run Comments 1 
 TCS .hr                 90.66:  Time Ciculation Ended 
 CV  .mps                 2.02:  Crit Velocity 
 CVMX.mps                 2.14:  Max Crit Veloc 
 DD1 .            Aziz Aliyevu:  Direct Drillr 1 
 DD2 .             Samir Abbas:  Direct Drillr 2 
 DD3 .           Teymur Aliyev:  Direct Drillr 3 
 DDSV.                 iCruise:  DD Service 
 DEFF.%                  85.10:  % Det Eff 
 DLRX.°/30m               1.05:  Dogleg Rot Max 
 DLSO.°/30m               1.01:  Dogleg Oriented 
 DLSX.°/30m               1.05:  Dogleg Str Max 
 DRET.      07.45.00 18-Jul-21:  Drill End Time 
 DRST.      15.00.00 16-Jul-21:  Drill Start Tim 
 DTIM.hr                 23.46:  Time Drilling 
 EDEP.m                4603.00:  End Depth 
 ENG1.       Seymur Iskandarov:  Engineer 1 
 ENG2.         Yevgeniy Ulikov:  Engineer 2 
 ENG3.         Bahruz Mehdiyev:  Engineer 3 
 ENG4.         Elchin Mammadov:  Engineer 4 
 ETIM.      14.00.00 23-Jul-21:  End Time 
 FLOI.gpm               500.00:  Flow In 
 FLON.gpm               450.00:  Flow In Min 
 FLOS.cptm                0.00:  Fluid Loss 
 FLOX.gpm               560.00:  Flow In Max 
 DFT .        Mineral Oil Base:  Mud Type 
 FTRO.       Formation Presure:  FTWD Run Obj 
 HFLO.                      No:  High Flow 
 HPRE.                      No:  High Pressure 
 HTEM.                      No:  High Temp 
 HYDO.m                   1.80:  Hydro Offset 
 IFIN.deg                40.22:  Inc, Final 
 IMAX.deg                40.54:  Inc Max 
 IMIN.deg                39.44:  Inc Min 
 IMND.m                4361.17:  Inc Min Depth 
 IMXD.m                4417.92:  Inc Max Depth 
 JARR.                      No:  Jarring 
 LETM.      07.45.00 18-Jul-21:  Log End Time 
 LOST.hr                    16:  Lost Rig Time 
 LSTM.      15.00.00 16-Jul-21:  Log Start Time 
 MDCL.ppm             36500.00:  Mud Chlorides 
 MDES.     Inversion Oil/Synthetic:  Mud Desc 
 DFD .sg                  1.42:  Mud Density 
 MDMN.sg                  1.42:  Dens Mud Min 
 MDMX.sg                  1.43:  Dens Mud Max 
 MOIL.                      56:  Run Mud Oil % 
 MOWR.                   71:29:  Run Mud OWR 
 MSND.                     0.5:  Run Mud Sand % 
 MSOL.                      21:  Run Mud Solids% 
 DFV .spqt               78.00:  Mud Viscosity 
 MWOD.in                  6.75:  MWD Tool OD 
 MWSI.                     Yes:  Serv Intrp, MWD 
 OTIM.hr                200.73:  Time Operating 
 PCON.           Look Like New:  Pad Condition 
 PMAX.psia            11069.93:  Press Op, Max 
 PV  .cP                 32.00:  Mud PV 
 RUN .                     700:  Run Number 
 ROPA.m/hr               10.00:  ROP Avg 
 ROPN.m/hr                9.00:  ROP Min 
 ROPX.m/hr               16.00:  ROP Max 
 RPMA.rpm               116.00:  RPM Surface Avg 
 RPMN.rpm                80.00:  RPM Surface Min 
 RPMX.rpm               120.00:  RPM Surface Max 
 RRUN.                    L605:  Rig Run Number 
 RTIM.hr                 45.00:  Time Reaming 
 SAZI.deg               159.86:  Azm, Start 
 SDEP.m                4315.00:  Start Depth 
 SIDD.                      No:  Serv Intrp, DD 
 SINC.deg                39.86:  Inc, Start 
 SPPA.psig             3300.00:  SPP Avg 
 SPPN.psig             3040.00:  SPP Min 
 SPPX.psig             3645.00:  SPP Max 
 STIM.      01.00.00 15-Jul-21:  Start Time 
 SVCS.                 DD, MWD:  Services 
 SVER.                    9.20:  Sperry Version 
 TDAT.m                 288.00:  Tot Depth Attmp 
 TDDF.                      No:  Trip for DD 
 TDLG.m                 288.00:  Tot Depth Loggd 
 TFF .                      No:  Trip for Fail 
 TQAA.f-kp               19.00:  Torque Abs Avg 
 TQAN.f-kp               18.00:  Torque Abs Min 
 TQAX.f-kp               21.00:  Torque Abs Max 
 TRRT.°/30m               0.45:  Turn Rotating 
 MRT .                    HCIM:  Maximum Recorded Temperature 
 TTMX.degC               88.24:  Max Tool Temp 
 VS01.                90649157:  Virtual Str1 SN 
 VS02.                90652483:  Virtual Str2 SN 
 VS03.                11671987:  Virtual Str3 SN 
 VS04.                90643411:  Virtual Str4 SN 
 VS05.                90652478:  Virtual Str5 SN 
 VS06.                    6111:  Virtual Str6 SN 
 WBMN.klb                 9.50:  WOB Min 
 WITN.        Grigoriy Sarayev:  Customer Rep 
 WITN.          Rufat Huseynov:  Customer Rep 2 
 WOBA.klb                11.00:  WOB Avg 
 WOBX.klb                15.00:  WOB Max 
 YP  .lhf2               28.00:  Yield Point 
~Curve Information Block
#MNEM.UNIT                 API CODE     Curve Description
#---------               -----------    ---------------------------
 TIME.HHMMSS            00 000 000 000:  GT Time & Date
 GTDEPTH.m              00 000 000 000:  GT Depth
 GTPQH.psia             00 000 000 000:  GT HR Quartz Pressure
 GTTQ.degC              00 000 000 000:  GT Quartz Temperature
 GTTN.NONE              00 000 000 000:  GT Test Number
 GTET.sec               00 000 000 000:  GT Elapsed Test Time
 GTTVD.m                00 000 000 000:  GT True Vertical Depth
#Other Information
#
#WARRANTY: Halliburton will use its best efforts to furnish customers with 
#accurate information and interpretations that are part of, and incident to, the services 
#provided.  However, Halliburton cannot and does not warrant the accuracy 
#or correctness of such information and interpretations.  Under no circumstances should any 
#such information or interpretation be relied upon as the sole basis for any drilling, 
#completion, production, or financial decision or any procedure involving any risk to the 
#safety of any drilling venture, drilling rig or its crew or any other third party.  The 
#Customer has full responsibility for all drilling, completion and production operation.  
#Halliburton makes no representations or warranties, either expressed or 
#implied, including, but not limited to, the implied warranties of merchantability or fitness 
#for a particular purpose, with respect to the services rendered.  In no event will 
#Halliburton be liable for failure to obtain any particular results or for 
#any damages, including, but not limited to, indirect, special or consequential damages, 
#resulting from the use of any information or interpretation provided by Halliburton.
#
~A           TIME           GTDEPTH  GTPQH  GTTQ  GTTN   GTET   GTTVD  
# ...
   07:39:22.723.19-Jul-2021 4415.50 3902.74 69.90 16.00 135.65 2635.75
   07:39:22.923.19-Jul-2021 4415.50 3902.21 69.90 16.00 135.85 2635.75
   07:39:23.123.19-Jul-2021 4415.50 3903.14 69.90 16.00 136.05 2635.75
   07:39:23.323.19-Jul-2021 4415.50 3903.14 69.90 16.00 136.25 2635.75
   07:39:23.524.19-Jul-2021 4415.50 3902.92 69.90 16.00 136.45 2635.75
   07:39:23.724.19-Jul-2021 4415.50 3902.12 69.90 16.00 136.65 2635.75
   07:39:23.924.19-Jul-2021 4415.50 3903.42 69.90 16.00 136.85 2635.75
   07:39:24.124.19-Jul-2021 4415.50 3902.71 69.90 16.00 137.05 2635.75
   07:39:24.324.19-Jul-2021 4415.50 3902.71 69.90 16.00 137.25 2635.75
   07:39:24.524.19-Jul-2021 4415.50 3901.91 69.90 16.00 137.45 2635.75
   07:39:24.724.19-Jul-2021 4415.50 3903.46 69.90 16.00 137.65 2635.75
   07:39:24.924.19-Jul-2021 4415.50 3902.85 69.90 16.00 137.85 2635.75
   07:39:25.124.19-Jul-2021 4415.50 3903.20 69.90 16.00 138.05 2635.75
   07:39:25.324.19-Jul-2021 4415.50 3903.20 69.90 16.00 138.25 2635.75
   07:39:25.524.19-Jul-2021 4415.50 3902.16 69.90 16.00 138.45 2635.75
   07:39:25.724.19-Jul-2021 4415.50 3903.10 69.90 16.00 138.65 2635.75
   07:39:25.924.19-Jul-2021 4415.50 3902.94 69.90 16.00 138.85 2635.75
   07:39:26.125.19-Jul-2021 4415.50 3903.18 69.90 16.00 139.05 2635.75
   07:39:26.325.19-Jul-2021 4415.50 3903.18 69.90 16.00 139.25 2635.75
   07:39:26.525.19-Jul-2021 4415.50 3903.05 69.90 16.00 139.45 2635.75
   07:39:26.725.19-Jul-2021 4415.50 3903.05 69.90 16.00 139.65 2635.75
   07:39:26.925.19-Jul-2021 4415.50 3903.06 69.90 16.00 139.85 2635.75
   07:39:27.125.19-Jul-2021 4415.50 3902.93 69.90 16.00 140.05 2635.75
   07:39:27.325.19-Jul-2021 4415.50 3902.93 69.90 16.00 140.25 2635.75
   07:39:27.525.19-Jul-2021 4415.50 3902.85 69.90 16.00 140.45 2635.75
   07:39:27.725.19-Jul-2021 4415.50 3903.08 69.90 16.00 140.65 2635.75
   07:39:27.925.19-Jul-2021 4415.50 3902.81 69.90 16.00 140.85 2635.75
   07:39:28.125.19-Jul-2021 4415.50 3902.93 69.90 16.00 141.05 2635.75
   07:39:28.325.19-Jul-2021 4415.50 3902.93 69.90 16.00 141.25 2635.75
   07:39:28.525.19-Jul-2021 4415.50 3902.49 69.90 16.00 141.45 2635.75
   07:39:28.725.19-Jul-2021 4415.50 3902.50 69.90 16.00 141.65 2635.75
   07:39:28.926.19-Jul-2021 4415.50 3902.68 69.90 16.00 141.85 2635.75
   07:39:29.126.19-Jul-2021 4415.50 3903.02 69.90 16.00 142.05 2635.75
   07:39:29.326.19-Jul-2021 4415.50 3903.02 69.90 16.00 142.25 2635.75
   07:39:29.526.19-Jul-2021 4415.50 3903.07 69.90 16.00 142.45 2635.75
   07:39:29.726.19-Jul-2021 4415.50 3902.96 69.90 16.00 142.65 2635.75
   07:39:29.926.19-Jul-2021 4415.50 3903.13 69.90 16.00 142.85 2635.75
   07:39:30.126.19-Jul-2021 4415.50 3685.87 69.90 16.00 143.05 2635.75
   07:39:30.326.19-Jul-2021 4415.50 3685.87 69.90 16.00 143.25 2635.75
   07:39:30.526.19-Jul-2021 4415.50 3418.20 69.90 16.00 143.45 2635.75
   07:39:30.726.19-Jul-2021 4415.50 3399.52 69.90 16.00 143.65 2635.75
   07:39:30.926.19-Jul-2021 4415.50 3390.77 69.90 16.00 143.85 2635.75
   07:39:31.126.19-Jul-2021 4415.50 3390.14 69.90 16.00 144.05 2635.75
   07:39:31.326.19-Jul-2021 4415.50 3390.14 69.90 16.00 144.25 2635.75
   07:39:31.527.19-Jul-2021 4415.50 3379.18 69.90 16.00 144.45 2635.75
   07:39:31.727.19-Jul-2021 4415.50 3383.27 69.90 16.00 144.65 2635.75
   07:39:31.927.19-Jul-2021 4415.50 3377.56 69.90 16.00 144.85 2635.75
   07:39:32.127.19-Jul-2021 4415.50 3374.95 69.90 16.00 145.05 2635.75
   07:39:32.327.19-Jul-2021 4415.50 3374.95 69.90 16.00 145.25 2635.75
   07:39:32.527.19-Jul-2021 4415.50 3377.59 69.90 16.00 145.45 2635.75
   07:39:32.727.19-Jul-2021 4415.50 3373.53 69.90 16.00 145.65 2635.75
   07:39:32.927.19-Jul-2021 4415.50 3377.97 69.90 16.00 145.85 2635.75
   07:39:33.127.19-Jul-2021 4415.50 3379.53 69.90 16.00 146.05 2635.75
   07:39:33.327.19-Jul-2021 4415.50 3379.53 69.90 16.00 146.25 2635.75
   07:39:33.527.19-Jul-2021 4415.50 3377.76 69.90 16.00 146.45 2635.75
   07:39:33.727.19-Jul-2021 4415.50 3377.77 69.90 16.00 146.65 2635.75
   07:39:33.927.19-Jul-2021 4415.50 3377.75 69.90 16.00 146.85 2635.75
   07:39:34.127.19-Jul-2021 4415.50 3377.69 69.90 16.00 147.05 2635.75
   07:39:34.328.19-Jul-2021 4415.50 3377.69 69.90 16.00 147.25 2635.75
   07:39:34.528.19-Jul-2021 4415.50 3373.58 69.90 16.00 147.45 2635.75
   07:39:34.728.19-Jul-2021 4415.50 3378.99 69.90 16.00 147.65 2635.75
   07:39:34.928.19-Jul-2021 4415.50 3378.26 69.90 16.00 147.85 2635.75
   07:39:35.128.19-Jul-2021 4415.50 3377.54 69.90 16.00 148.05 2635.75
   07:39:35.328.19-Jul-2021 4415.50 3377.54 69.90 16.00 148.25 2635.75
   07:39:35.528.19-Jul-2021 4415.50 3378.45 69.90 16.00 148.45 2635.75
   07:39:35.728.19-Jul-2021 4415.50 3375.78 69.90 16.00 148.65 2635.75
   07:39:35.928.19-Jul-2021 4415.50 3376.03 69.89 16.00 148.85 2635.75
   07:39:36.128.19-Jul-2021 4415.50 3376.62 69.89 16.00 149.05 2635.75
   07:39:36.328.19-Jul-2021 4415.50 3376.62 69.89 16.00 149.25 2635.75
   07:39:36.528.19-Jul-2021 4415.50 3378.38 69.89 16.00 149.46 2635.75
   07:39:36.728.19-Jul-2021 4415.50 3377.16 69.89 16.00 149.66 2635.75
   07:39:36.928.19-Jul-2021 4415.50 3376.94 69.89 16.00 149.86 2635.75
   07:39:37.129.19-Jul-2021 4415.50 3382.91 69.89 16.00 150.06 2635.75
   07:39:37.329.19-Jul-2021 4415.50 3382.91 69.89 16.00 150.26 2635.75
   07:39:37.529.19-Jul-2021 4415.50 3371.25 69.89 16.00 150.46 2635.75
   07:39:37.729.19-Jul-2021 4415.50 3375.28 69.89 16.00 150.66 2635.75
   07:39:37.929.19-Jul-2021 4415.50 3375.86 69.89 16.00 150.86 2635.75
   07:39:38.129.19-Jul-2021 4415.50 3381.97 69.89 16.00 151.06 2635.75
   07:39:38.329.19-Jul-2021 4415.50 3381.97 69.89 16.00 151.26 2635.75
   07:39:38.529.19-Jul-2021 4415.50 3379.36 69.89 16.00 151.46 2635.75
   07:39:38.729.19-Jul-2021 4415.50 3377.86 69.89 16.00 151.66 2635.75
   07:39:38.929.19-Jul-2021 4415.50 3376.47 69.89 16.00 151.86 2635.75
   07:39:39.129.19-Jul-2021 4415.50 3374.39 69.89 16.00 152.06 2635.75
   07:39:39.329.19-Jul-2021 4415.50 3374.39 69.89 16.00 152.26 2635.75
   07:39:39.529.19-Jul-2021 4415.50 3375.69 69.89 16.00 152.46 2635.75
   07:39:39.730.19-Jul-2021 4415.50 3382.94 69.89 16.00 152.66 2635.75
   07:39:39.930.19-Jul-2021 4415.50 3369.28 69.89 16.00 152.86 2635.75
   07:39:40.130.19-Jul-2021 4415.50 3439.06 69.89 16.00 153.06 2635.75
   07:39:40.330.19-Jul-2021 4415.50 3439.06 69.89 16.00 153.26 2635.75
   07:39:40.530.19-Jul-2021 4415.50 3816.08 69.89 16.00 153.46 2635.75
   07:39:40.730.19-Jul-2021 4415.50 3863.54 69.89 16.00 153.66 2635.75
   07:39:40.930.19-Jul-2021 4415.50 3879.78 69.89 16.00 153.86 2635.75
   07:39:41.130.19-Jul-2021 4415.50 3889.44 69.89 16.00 154.06 2635.75
   07:39:41.330.19-Jul-2021 4415.50 3889.44 69.89 16.00 154.26 2635.75
   07:39:41.530.19-Jul-2021 4415.50 3893.62 69.89 16.00 154.46 2635.75
   07:39:41.730.19-Jul-2021 4415.50 3893.91 69.89 16.00 154.66 2635.75
   07:39:41.930.19-Jul-2021 4415.50 3895.95 69.89 16.00 154.86 2635.75
   07:39:42.130.19-Jul-2021 4415.50 3896.90 69.89 16.00 155.06 2635.75
   07:39:42.330.19-Jul-2021 4415.50 3896.90 69.89 16.00 155.26 2635.75
   07:39:42.531.19-Jul-2021 4415.50 3897.63 69.89 16.00 155.46 2635.75
   07:39:42.731.19-Jul-2021 4415.50 3898.08 69.89 16.00 155.66 2635.75
   07:39:42.931.19-Jul-2021 4415.50 3898.40 69.89 16.00 155.86 2635.75
   07:39:43.131.19-Jul-2021 4415.50 3899.12 69.89 16.00 156.06 2635.75
   07:39:43.331.19-Jul-2021 4415.50 3899.12 69.89 16.00 156.26 2635.75
   07:39:43.531.19-Jul-2021 4415.50 3899.65 69.90 16.00 156.46 2635.75
   07:39:43.731.19-Jul-2021 4415.50 3899.67 69.90 16.00 156.66 2635.75
   07:39:43.931.19-Jul-2021 4415.50 3899.84 69.90 16.00 156.86 2635.75
   07:39:44.131.19-Jul-2021 4415.50 3900.13 69.90 16.00 157.06 2635.75
   07:39:44.331.19-Jul-2021 4415.50 3900.13 69.90 16.00 157.26 2635.75
   07:39:44.531.19-Jul-2021 4415.50 3900.27 69.90 16.00 157.46 2635.75
   07:39:44.731.19-Jul-2021 4415.50 3900.31 69.90 16.00 157.66 2635.75
   07:39:44.931.19-Jul-2021 4415.50 3900.46 69.90 16.00 157.86 2635.75
   07:39:45.132.19-Jul-2021 4415.50 3900.54 69.90 16.00 158.06 2635.75
