~Version Information
 VERS.                  2.0:   CWLS log ASCII Standard -VERSION 2.0
 WRAP.                   NO:   One line per depth step
~Well Information Block
#MNEM.UNIT     VALUE/NAME     DESCRIPTION
#---------     -----------    ---------------------------
 STRT.S             14:22:27 18-Jul-21: START TIME 14:22:27 18-Jul-21
 STOP.S             14:29:00 18-Jul-21: STOP TIME  14:29:00 18-Jul-21
 STEP.S                   0.00: STEP TIME
 NULL.                 -999.25: NULL VALUE
 MDS .        Operator Entered:  MAG DATA SOURCE
 PDAT.          Mean Sea Level:  PERMANENT DATUM
 UNIT.                     N/A:  LOGGING EQUIPMENT ID
 DCON.         Sperry Drilling:  DIRECTNL CONTR
 DOE .                     N/A:  DOE NUMBER
 RIG .              West Azeri:  RIG NAME
 JOBN.        AZ-XX-0906997913:  JOB TICKET NUMB
 WELL.                     C41:  WELL NAME
 MWDS.                    Baku:  MWD SHOP
 SRVC.          Turan Drilling:  CONTRACTOR
 FLD .                     ACG:  FIELD NAME
 CTRY.              Azerbaijan:  COUNTRY NAME
 PROV.                    Baku:  PROVINCE
 STAT.                    Baku:  STATE NAME
 REGN.                   EESSA:  REGION
 BASE.              Azerbaijan:  LOGGING EQUIPMENT BASE LOCATION
 UWI .                     N/A:  UNIQUE WELL IDENTIFIER
 API .                     N/A:  API NUMBER
 COMP.     BP Exploration (Caspian Sea) Ltd.:  COMPANY
 WTYP.                Deviated:  WELL TYPE
 SON .        AZ-XX-0906997913:  JOB NUMBER
 FTOP.          Formation Tops:  FORM TOPS DESC
 ILTD.               Lithology:  INTERP LTH DESC
 SVYD.                  Survey:  SURVEY DESC
 DMOD.             Drill Model:  DRILL MOD DESC
 HPTY.       Minimum Curvature:  HOLE POS TYPE
 NREF.                    Grid:  NORTH REFERENCE
 SPUD.               16-May-21:  SPUD DATE
 DATE.      21.11.28 17-May-21:  END TIME
 STIM.      21.11.28 17-May-21:  START TIME
 DMF .             Drill Floor:  DRILL MEAS FROM
 DFST.                        :  DIST FSL TEXT
 DFWT.                        :  DIST FWL TEXT
 CNTY.                        :  COUNTY
 LOC .                        :  LOCATION
 LMF .             Drill Floor:  LOG MEASURED FROM
 AGAP.m                  43.42:  AIR GAP
 VSNS.m                  -2.16:  VERT SEC N/S
 VSEW.m                  -6.24:  VERT SEC E/W
 APD .m                  43.42:  DEPTH ABOVE PD
 WDMS.m                 118.27:  WD ELEV
 EGL .m                   0.00:  GROUND ELEVATION
 EPD .m                   0.00:  ELEVATION
 AZTC.deg                 6.29:  AZM TOTAL CORR
 GRDC.deg                 0.18:  GRID CORRECTION
 MDEC.deg                 6.47:  MAGNETIC DECL
 MDIP.deg                59.54:  MAGNETIC DIP
 MFLD.nT              50337.00:  MAGNETIC FIELD
 GVFD.g                   1.00:  GRAVITY FIELD
 VSDR.deg               226.99:  VERT SEC DIRECT
 TDD .m                   0.00:  TOTAL DEPTH (DRILLER)
 SDEP.m                 448.00:  START DEPTH
 DFSL.m                   0.00:  DISTANCE FSL
 DFWL.m                   0.00:  DISTANCE FWL
 UTMY.m             4435799.96:  UTM Y
 UTMX.m              526265.35:  UTM X
 WHEW.m                  -6.24:  WELL HEAD E/W
 WHNS.m                  -2.16:  WELL HEAD N/S
 LONG.deg                51.31:  LONGITUDE
 LATI.deg                40.06:  LATITUDE
 TVDS.m                  43.42:  TVDSS CORRECTN
 EKB .m                  43.42:  KB ELEVATION
 EDF .m                  43.42:  DF ELEVATION
 TDL .m                 288.00:  TOTAL DEPTH (LOGGER)
 MAGU.                 1851863:  MAGUTM CHECKSUM
 VSC .                       0:  VS TO CLOSURE
~Parameter Information Block
#MNEM.UNIT       Value        Description
#---------     -----------    ---------------------------
 AV  .mps                 0.40:  Ann Velocity 
 AVMX.mps                 0.63:  Max Ann Veloc 
 AZIF.deg               158.76:  Azm, Final 
 BHAT.        Rotary Steerable:  BHA Type 
 BROT.°/30m               0.68:  Build Rotating 
 BS  .in                  8.50:  Bit Size 
 BSZ .in                  8.50:  Bit Size 
 BTPL.psig              712.00:  Bit Press Loss 
 CABU.                      No:  Customer Abuse 
 COMM.                     |«g:  Run Comments 1 
 TCS .hr                 90.66:  Time Ciculation Ended 
 CV  .mps                 2.02:  Crit Velocity 
 CVMX.mps                 2.14:  Max Crit Veloc 
 DD1 .            Aziz Aliyevu:  Direct Drillr 1 
 DD2 .             Samir Abbas:  Direct Drillr 2 
 DD3 .           Teymur Aliyev:  Direct Drillr 3 
 DDSV.                 iCruise:  DD Service 
 DEFF.%                  85.10:  % Det Eff 
 DLRX.°/30m               1.05:  Dogleg Rot Max 
 DLSO.°/30m               1.01:  Dogleg Oriented 
 DLSX.°/30m               1.05:  Dogleg Str Max 
 DRET.      07.45.00 18-Jul-21:  Drill End Time 
 DRST.      15.00.00 16-Jul-21:  Drill Start Tim 
 DTIM.hr                 23.46:  Time Drilling 
 EDEP.m                4603.00:  End Depth 
 ENG1.       Seymur Iskandarov:  Engineer 1 
 ENG2.         Yevgeniy Ulikov:  Engineer 2 
 ENG3.         Bahruz Mehdiyev:  Engineer 3 
 ENG4.         Elchin Mammadov:  Engineer 4 
 ETIM.      14.00.00 23-Jul-21:  End Time 
 FLOI.gpm               500.00:  Flow In 
 FLON.gpm               450.00:  Flow In Min 
 FLOS.cptm                0.00:  Fluid Loss 
 FLOX.gpm               560.00:  Flow In Max 
 DFT .        Mineral Oil Base:  Mud Type 
 FTRO.       Formation Presure:  FTWD Run Obj 
 HFLO.                      No:  High Flow 
 HPRE.                      No:  High Pressure 
 HTEM.                      No:  High Temp 
 HYDO.m                   1.80:  Hydro Offset 
 IFIN.deg                40.22:  Inc, Final 
 IMAX.deg                40.54:  Inc Max 
 IMIN.deg                39.44:  Inc Min 
 IMND.m                4361.17:  Inc Min Depth 
 IMXD.m                4417.92:  Inc Max Depth 
 JARR.                      No:  Jarring 
 LETM.      07.45.00 18-Jul-21:  Log End Time 
 LOST.hr                    16:  Lost Rig Time 
 LSTM.      15.00.00 16-Jul-21:  Log Start Time 
 MDCL.ppm             36500.00:  Mud Chlorides 
 MDES.     Inversion Oil/Synthetic:  Mud Desc 
 DFD .sg                  1.42:  Mud Density 
 MDMN.sg                  1.42:  Dens Mud Min 
 MDMX.sg                  1.43:  Dens Mud Max 
 MOIL.                      56:  Run Mud Oil % 
 MOWR.                   71:29:  Run Mud OWR 
 MSND.                     0.5:  Run Mud Sand % 
 MSOL.                      21:  Run Mud Solids% 
 DFV .spqt               78.00:  Mud Viscosity 
 MWOD.in                  6.75:  MWD Tool OD 
 MWSI.                     Yes:  Serv Intrp, MWD 
 OTIM.hr                200.73:  Time Operating 
 PCON.           Look Like New:  Pad Condition 
 PMAX.psia            11069.93:  Press Op, Max 
 PV  .cP                 32.00:  Mud PV 
 RUN .                     700:  Run Number 
 ROPA.m/hr               10.00:  ROP Avg 
 ROPN.m/hr                9.00:  ROP Min 
 ROPX.m/hr               16.00:  ROP Max 
 RPMA.rpm               116.00:  RPM Surface Avg 
 RPMN.rpm                80.00:  RPM Surface Min 
 RPMX.rpm               120.00:  RPM Surface Max 
 RRUN.                    L605:  Rig Run Number 
 RTIM.hr                 45.00:  Time Reaming 
 SAZI.deg               159.86:  Azm, Start 
 SDEP.m                4315.00:  Start Depth 
 SIDD.                      No:  Serv Intrp, DD 
 SINC.deg                39.86:  Inc, Start 
 SPPA.psig             3300.00:  SPP Avg 
 SPPN.psig             3040.00:  SPP Min 
 SPPX.psig             3645.00:  SPP Max 
 STIM.      01.00.00 15-Jul-21:  Start Time 
 SVCS.                 DD, MWD:  Services 
 SVER.                    9.20:  Sperry Version 
 TDAT.m                 288.00:  Tot Depth Attmp 
 TDDF.                      No:  Trip for DD 
 TDLG.m                 288.00:  Tot Depth Loggd 
 TFF .                      No:  Trip for Fail 
 TQAA.f-kp               19.00:  Torque Abs Avg 
 TQAN.f-kp               18.00:  Torque Abs Min 
 TQAX.f-kp               21.00:  Torque Abs Max 
 TRRT.°/30m               0.45:  Turn Rotating 
 MRT .                    HCIM:  Maximum Recorded Temperature 
 TTMX.degC               88.24:  Max Tool Temp 
 VS01.                90649157:  Virtual Str1 SN 
 VS02.                90652483:  Virtual Str2 SN 
 VS03.                11671987:  Virtual Str3 SN 
 VS04.                90643411:  Virtual Str4 SN 
 VS05.                90652478:  Virtual Str5 SN 
 VS06.                    6111:  Virtual Str6 SN 
 WBMN.klb                 9.50:  WOB Min 
 WITN.        Grigoriy Sarayev:  Customer Rep 
 WITN.          Rufat Huseynov:  Customer Rep 2 
 WOBA.klb                11.00:  WOB Avg 
 WOBX.klb                15.00:  WOB Max 
 YP  .lhf2               28.00:  Yield Point 
~Curve Information Block
#MNEM.UNIT                 API CODE     Curve Description
#---------               -----------    ---------------------------
 TIME.HHMMSS            00 000 000 000:  GT Time & Date
 GTDEPTH.m              00 000 000 000:  GT Depth
 GTPQH.psia             00 000 000 000:  GT HR Quartz Pressure
 GTTQ.degC              00 000 000 000:  GT Quartz Temperature
 GTTN.NONE              00 000 000 000:  GT Test Number
 GTET.sec               00 000 000 000:  GT Elapsed Test Time
 GTTVD.m                00 000 000 000:  GT True Vertical Depth
#Other Information
#
#WARRANTY: Halliburton will use its best efforts to furnish customers with 
#accurate information and interpretations that are part of, and incident to, the services 
#provided.  However, Halliburton cannot and does not warrant the accuracy 
#or correctness of such information and interpretations.  Under no circumstances should any 
#such information or interpretation be relied upon as the sole basis for any drilling, 
#completion, production, or financial decision or any procedure involving any risk to the 
#safety of any drilling venture, drilling rig or its crew or any other third party.  The 
#Customer has full responsibility for all drilling, completion and production operation.  
#Halliburton makes no representations or warranties, either expressed or 
#implied, including, but not limited to, the implied warranties of merchantability or fitness 
#for a particular purpose, with respect to the services rendered.  In no event will 
#Halliburton be liable for failure to obtain any particular results or for 
#any damages, including, but not limited to, indirect, special or consequential damages, 
#resulting from the use of any information or interpretation provided by Halliburton.
#
~A           TIME           GTDEPTH  GTPQH  GTTQ  GTTN  GTET   GTTVD  
# ...
   14:28:12.342.18-Jul-2021 4558.50 6647.90 75.32 4.00 345.13 2745.02
   14:28:12.542.18-Jul-2021 4558.50 6647.90 75.32 4.00 345.33 2745.02
   14:28:12.742.18-Jul-2021 4558.50 6647.59 75.32 4.00 345.53 2745.02
   14:28:12.942.18-Jul-2021 4558.50 6647.62 75.32 4.00 345.73 2745.02
   14:28:13.142.18-Jul-2021 4558.50 6647.92 75.32 4.00 345.93 2745.02
   14:28:13.342.18-Jul-2021 4558.50 6647.61 75.32 4.00 346.13 2745.02
   14:28:13.542.18-Jul-2021 4558.50 6647.61 75.32 4.00 346.33 2745.02
   14:28:13.743.18-Jul-2021 4558.50 6649.59 75.32 4.00 346.53 2745.02
   14:28:13.943.18-Jul-2021 4558.50 6647.18 75.32 4.00 346.73 2745.02
   14:28:14.143.18-Jul-2021 4558.50 6647.55 75.32 4.00 346.93 2745.02
   14:28:14.343.18-Jul-2021 4558.50 6647.52 75.32 4.00 347.13 2745.02
   14:28:14.543.18-Jul-2021 4558.50 6647.52 75.32 4.00 347.33 2745.02
   14:28:14.743.18-Jul-2021 4558.50 6645.88 75.32 4.00 347.53 2745.02
   14:28:14.943.18-Jul-2021 4558.50 6646.62 75.32 4.00 347.73 2745.02
   14:28:15.143.18-Jul-2021 4558.50 6646.65 75.32 4.00 347.93 2745.02
   14:28:15.343.18-Jul-2021 4558.50 6646.34 75.32 4.00 348.13 2745.02
   14:28:15.543.18-Jul-2021 4558.50 6646.34 75.32 4.00 348.33 2745.02
   14:28:15.743.18-Jul-2021 4558.50 6646.51 75.32 4.00 348.53 2745.02
   14:28:15.943.18-Jul-2021 4558.50 6646.21 75.32 4.00 348.73 2745.02
   14:28:16.143.18-Jul-2021 4558.50 6647.01 75.32 4.00 348.93 2745.02
   14:28:16.343.18-Jul-2021 4558.50 6649.12 75.32 4.00 349.13 2745.02
   14:28:16.544.18-Jul-2021 4558.50 6649.12 75.32 4.00 349.33 2745.02
   14:28:16.744.18-Jul-2021 4558.50 6647.96 75.32 4.00 349.53 2745.02
   14:28:16.944.18-Jul-2021 4558.50 6650.22 75.32 4.00 349.73 2745.02
   14:28:17.144.18-Jul-2021 4558.50 6647.13 75.32 4.00 349.93 2745.02
   14:28:17.344.18-Jul-2021 4558.50 6647.47 75.32 4.00 350.13 2745.02
   14:28:17.544.18-Jul-2021 4558.50 6647.47 75.32 4.00 350.33 2745.02
   14:28:17.744.18-Jul-2021 4558.50 6646.38 75.32 4.00 350.53 2745.02
   14:28:17.944.18-Jul-2021 4558.50 6648.92 75.32 4.00 350.73 2745.02
   14:28:18.144.18-Jul-2021 4558.50 6647.14 75.32 4.00 350.93 2745.02
   14:28:18.344.18-Jul-2021 4558.50 6647.08 75.32 4.00 351.13 2745.02
   14:28:18.544.18-Jul-2021 4558.50 6647.08 75.32 4.00 351.33 2745.02
   14:28:18.744.18-Jul-2021 4558.50 6646.35 75.32 4.00 351.53 2745.02
   14:28:18.944.18-Jul-2021 4558.50 6649.19 75.32 4.00 351.73 2745.02
   14:28:19.144.18-Jul-2021 4558.50 6649.12 75.32 4.00 351.93 2745.02
   14:28:19.345.18-Jul-2021 4558.50 6647.37 75.32 4.00 352.13 2745.02
   14:28:19.545.18-Jul-2021 4558.50 6647.37 75.32 4.00 352.33 2745.02
   14:28:19.745.18-Jul-2021 4558.50 6650.85 75.32 4.00 352.53 2745.02
   14:28:19.945.18-Jul-2021 4558.50 6648.00 75.32 4.00 352.73 2745.02
   14:28:20.145.18-Jul-2021 4558.50 6648.72 75.32 4.00 352.93 2745.02
   14:28:20.345.18-Jul-2021 4558.50 6648.77 75.32 4.00 353.13 2745.02
   14:28:20.545.18-Jul-2021 4558.50 6648.77 75.32 4.00 353.33 2745.02
   14:28:20.745.18-Jul-2021 4558.50 6647.27 75.32 4.00 353.53 2745.02
   14:28:20.945.18-Jul-2021 4558.50 6647.39 75.32 4.00 353.73 2745.02
   14:28:21.145.18-Jul-2021 4558.50 6647.38 75.32 4.00 353.93 2745.02
   14:28:21.345.18-Jul-2021 4558.50 6647.42 75.32 4.00 354.13 2745.02
   14:28:21.545.18-Jul-2021 4558.50 6647.42 75.32 4.00 354.33 2745.02
   14:28:21.745.18-Jul-2021 4558.50 6647.50 75.32 4.00 354.53 2745.02
   14:28:21.946.18-Jul-2021 4558.50 6647.56 75.32 4.00 354.73 2745.02
   14:28:22.146.18-Jul-2021 4558.50 6647.32 75.32 4.00 354.93 2745.02
   14:28:22.346.18-Jul-2021 4558.50 6647.12 75.32 4.00 355.13 2745.02
   14:28:22.546.18-Jul-2021 4558.50 6647.12 75.32 4.00 355.33 2745.02
   14:28:22.746.18-Jul-2021 4558.50 6647.40 75.32 4.00 355.53 2745.02
   14:28:22.946.18-Jul-2021 4558.50 6646.94 75.32 4.00 355.73 2745.02
   14:28:23.146.18-Jul-2021 4558.50 6647.60 75.32 4.00 355.93 2745.02
   14:28:23.346.18-Jul-2021 4558.50 6646.87 75.32 4.00 356.13 2745.02
   14:28:23.546.18-Jul-2021 4558.50 6646.87 75.32 4.00 356.33 2745.02
   14:28:23.746.18-Jul-2021 4558.50 6646.72 75.32 4.00 356.53 2745.02
   14:28:23.946.18-Jul-2021 4558.50 6646.75 75.32 4.00 356.73 2745.02
   14:28:24.146.18-Jul-2021 4558.50 6646.43 75.32 4.00 356.93 2745.02
   14:28:24.346.18-Jul-2021 4558.50 6646.66 75.32 4.00 357.13 2745.02
   14:28:24.546.18-Jul-2021 4558.50 6646.66 75.32 4.00 357.33 2745.02
   14:28:24.747.18-Jul-2021 4558.50 6646.05 75.32 4.00 357.53 2745.02
   14:28:24.947.18-Jul-2021 4558.50 6645.60 75.32 4.00 357.73 2745.02
   14:28:25.147.18-Jul-2021 4558.50 6649.20 75.32 4.00 357.93 2745.02
   14:28:25.347.18-Jul-2021 4558.50 6646.33 75.32 4.00 358.13 2745.02
   14:28:25.547.18-Jul-2021 4558.50 6646.33 75.32 4.00 358.33 2745.02
   14:28:25.747.18-Jul-2021 4558.50 6663.42 75.32 4.00 358.53 2745.02
   14:28:25.947.18-Jul-2021 4558.50 6673.47 75.32 4.00 358.73 2745.02
   14:28:26.147.18-Jul-2021 4558.50 6671.95 75.32 4.00 358.93 2745.02
   14:28:26.347.18-Jul-2021 4558.50 6673.64 75.32 4.00 359.13 2745.02
   14:28:26.547.18-Jul-2021 4558.50 6673.64 75.32 4.00 359.33 2745.02
   14:28:26.747.18-Jul-2021 4558.50 6681.39 75.32 4.00 359.53 2745.02
   14:28:26.947.18-Jul-2021 4558.50 6670.15 75.32 4.00 359.73 2745.02
   14:28:27.147.18-Jul-2021 4558.50 6675.66 75.32 4.00 359.93 2745.02
   14:28:27.348.18-Jul-2021 4558.50 6678.17 75.32 4.00 360.13 2745.02
   14:28:27.548.18-Jul-2021 4558.50 6678.17 75.32 4.00 360.33 2745.02
   14:28:27.748.18-Jul-2021 4558.50 6693.50 75.32 4.00 360.53 2745.02
   14:28:27.948.18-Jul-2021 4558.50 6683.69 75.32 4.00 360.73 2745.02
   14:28:28.148.18-Jul-2021 4558.50 6670.62 75.32 4.00 360.93 2745.02
   14:28:28.348.18-Jul-2021 4558.50 6676.68 75.32 4.00 361.13 2745.02
   14:28:28.548.18-Jul-2021 4558.50 6676.68 75.32 4.00 361.33 2745.02
   14:28:28.748.18-Jul-2021 4558.50 6681.68 75.32 4.00 361.53 2745.02
   14:28:28.948.18-Jul-2021 4558.50 6672.36 75.32 4.00 361.73 2745.02
   14:28:29.148.18-Jul-2021 4558.50 6679.34 75.32 4.00 361.93 2745.02
   14:28:29.348.18-Jul-2021 4558.50 6673.47 75.32 4.00 362.13 2745.02
   14:28:29.548.18-Jul-2021 4558.50 6673.47 75.32 4.00 362.33 2745.02
   14:28:29.748.18-Jul-2021 4558.50 6672.49 75.32 4.00 362.53 2745.02
   14:28:29.948.18-Jul-2021 4558.50 6673.39 75.32 4.00 362.73 2745.02
   14:28:30.149.18-Jul-2021 4558.50 6672.49 75.32 4.00 362.93 2745.02
   14:28:30.349.18-Jul-2021 4558.50 6672.64 75.32 4.00 363.13 2745.02
   14:28:30.549.18-Jul-2021 4558.50 6672.64 75.32 4.00 363.33 2745.02
   14:28:30.749.18-Jul-2021 4558.50 6674.32 75.32 4.00 363.53 2745.02
   14:28:30.949.18-Jul-2021 4558.50 6672.71 75.32 4.00 363.73 2745.02
   14:28:31.149.18-Jul-2021 4558.50 6669.12 75.32 4.00 363.93 2745.02
   14:28:31.349.18-Jul-2021 4558.50 6694.90 75.32 4.00 364.13 2745.02
   14:28:31.549.18-Jul-2021 4558.50 6694.90 75.32 4.00 364.33 2745.02
   14:28:31.749.18-Jul-2021 4558.50 6670.89 75.32 4.00 364.53 2745.02
   14:28:31.949.18-Jul-2021 4558.50 6677.16 75.32 4.00 364.73 2745.02
   14:28:32.149.18-Jul-2021 4558.50 6675.70 75.32 4.00 364.93 2745.02
   14:28:32.349.18-Jul-2021 4558.50 6671.76 75.32 4.00 365.13 2745.02
   14:28:32.549.18-Jul-2021 4558.50 6671.76 75.32 4.00 365.33 2745.02
   14:28:32.749.18-Jul-2021 4558.50 6672.88 75.32 4.00 365.53 2745.02
   14:28:32.950.18-Jul-2021 4558.50 6672.21 75.32 4.00 365.73 2745.02
   14:28:33.150.18-Jul-2021 4558.50 6672.30 75.32 4.00 365.93 2745.02
   14:28:33.350.18-Jul-2021 4558.50 6673.15 75.32 4.00 366.13 2745.02
   14:28:33.550.18-Jul-2021 4558.50 6673.15 75.32 4.00 366.33 2745.02
   14:28:33.750.18-Jul-2021 4558.50 6667.97 75.32 4.00 366.53 2745.02
   14:28:33.950.18-Jul-2021 4558.50 6689.29 75.32 4.00 366.74 2745.02
   14:28:34.150.18-Jul-2021 4558.50 6681.66 75.32 4.00 366.94 2745.02
   14:28:34.350.18-Jul-2021 4558.50 6665.46 75.32 4.00 367.14 2745.02
   14:28:34.550.18-Jul-2021 4558.50 6665.46 75.32 4.00 367.34 2745.02
   14:28:34.750.18-Jul-2021 4558.50 6684.53 75.32 4.00 367.54 2745.02
   14:28:34.950.18-Jul-2021 4558.50 6669.99 75.32 4.00 367.74 2745.02
   14:28:35.150.18-Jul-2021 4558.50 6675.18 75.32 4.00 367.94 2745.02
