~Version Information
 VERS.                  2.0:   CWLS log ASCII Standard -VERSION 2.0
 WRAP.                   NO:   One line per depth step
~Well Information Block
#MNEM.UNIT     VALUE/NAME     DESCRIPTION
#---------     -----------    ---------------------------
 STRT.S             23:00:58 18-Jul-21: START TIME 23:00:58 18-Jul-21
 STOP.S             23:07:34 18-Jul-21: STOP TIME  23:07:34 18-Jul-21
 STEP.S                   0.00: STEP TIME
 NULL.                 -999.25: NULL VALUE
 MDS .        Operator Entered:  MAG DATA SOURCE
 PDAT.          Mean Sea Level:  PERMANENT DATUM
 UNIT.                     N/A:  LOGGING EQUIPMENT ID
 DCON.         Sperry Drilling:  DIRECTNL CONTR
 DOE .                     N/A:  DOE NUMBER
 RIG .              West Azeri:  RIG NAME
 JOBN.        AZ-XX-0906997913:  JOB TICKET NUMB
 WELL.                     C41:  WELL NAME
 MWDS.                    Baku:  MWD SHOP
 SRVC.          Turan Drilling:  CONTRACTOR
 FLD .                     ACG:  FIELD NAME
 CTRY.              Azerbaijan:  COUNTRY NAME
 PROV.                    Baku:  PROVINCE
 STAT.                    Baku:  STATE NAME
 REGN.                   EESSA:  REGION
 BASE.              Azerbaijan:  LOGGING EQUIPMENT BASE LOCATION
 UWI .                     N/A:  UNIQUE WELL IDENTIFIER
 API .                     N/A:  API NUMBER
 COMP.     BP Exploration (Caspian Sea) Ltd.:  COMPANY
 WTYP.                Deviated:  WELL TYPE
 SON .        AZ-XX-0906997913:  JOB NUMBER
 FTOP.          Formation Tops:  FORM TOPS DESC
 ILTD.               Lithology:  INTERP LTH DESC
 SVYD.                  Survey:  SURVEY DESC
 DMOD.             Drill Model:  DRILL MOD DESC
 HPTY.       Minimum Curvature:  HOLE POS TYPE
 NREF.                    Grid:  NORTH REFERENCE
 SPUD.               16-May-21:  SPUD DATE
 DATE.      21.11.28 17-May-21:  END TIME
 STIM.      21.11.28 17-May-21:  START TIME
 DMF .             Drill Floor:  DRILL MEAS FROM
 DFST.                        :  DIST FSL TEXT
 DFWT.                        :  DIST FWL TEXT
 CNTY.                        :  COUNTY
 LOC .                        :  LOCATION
 LMF .             Drill Floor:  LOG MEASURED FROM
 AGAP.m                  43.42:  AIR GAP
 VSNS.m                  -2.16:  VERT SEC N/S
 VSEW.m                  -6.24:  VERT SEC E/W
 APD .m                  43.42:  DEPTH ABOVE PD
 WDMS.m                 118.27:  WD ELEV
 EGL .m                   0.00:  GROUND ELEVATION
 EPD .m                   0.00:  ELEVATION
 AZTC.deg                 6.29:  AZM TOTAL CORR
 GRDC.deg                 0.18:  GRID CORRECTION
 MDEC.deg                 6.47:  MAGNETIC DECL
 MDIP.deg                59.54:  MAGNETIC DIP
 MFLD.nT              50337.00:  MAGNETIC FIELD
 GVFD.g                   1.00:  GRAVITY FIELD
 VSDR.deg               226.99:  VERT SEC DIRECT
 TDD .m                   0.00:  TOTAL DEPTH (DRILLER)
 SDEP.m                 448.00:  START DEPTH
 DFSL.m                   0.00:  DISTANCE FSL
 DFWL.m                   0.00:  DISTANCE FWL
 UTMY.m             4435799.96:  UTM Y
 UTMX.m              526265.35:  UTM X
 WHEW.m                  -6.24:  WELL HEAD E/W
 WHNS.m                  -2.16:  WELL HEAD N/S
 LONG.deg                51.31:  LONGITUDE
 LATI.deg                40.06:  LATITUDE
 TVDS.m                  43.42:  TVDSS CORRECTN
 EKB .m                  43.42:  KB ELEVATION
 EDF .m                  43.42:  DF ELEVATION
 TDL .m                 288.00:  TOTAL DEPTH (LOGGER)
 MAGU.                 1851863:  MAGUTM CHECKSUM
 VSC .                       0:  VS TO CLOSURE
~Parameter Information Block
#MNEM.UNIT       Value        Description
#---------     -----------    ---------------------------
 AV  .mps                 0.40:  Ann Velocity 
 AVMX.mps                 0.63:  Max Ann Veloc 
 AZIF.deg               158.76:  Azm, Final 
 BHAT.        Rotary Steerable:  BHA Type 
 BROT.°/30m               0.68:  Build Rotating 
 BS  .in                  8.50:  Bit Size 
 BSZ .in                  8.50:  Bit Size 
 BTPL.psig              712.00:  Bit Press Loss 
 CABU.                      No:  Customer Abuse 
 COMM.                     ¼2`:  Run Comments 1 
 TCS .hr                 90.66:  Time Ciculation Ended 
 CV  .mps                 2.02:  Crit Velocity 
 CVMX.mps                 2.14:  Max Crit Veloc 
 DD1 .            Aziz Aliyevu:  Direct Drillr 1 
 DD2 .             Samir Abbas:  Direct Drillr 2 
 DD3 .           Teymur Aliyev:  Direct Drillr 3 
 DDSV.                 iCruise:  DD Service 
 DEFF.%                  85.10:  % Det Eff 
 DLRX.°/30m               1.05:  Dogleg Rot Max 
 DLSO.°/30m               1.01:  Dogleg Oriented 
 DLSX.°/30m               1.05:  Dogleg Str Max 
 DRET.      07.45.00 18-Jul-21:  Drill End Time 
 DRST.      15.00.00 16-Jul-21:  Drill Start Tim 
 DTIM.hr                 23.46:  Time Drilling 
 EDEP.m                4603.00:  End Depth 
 ENG1.       Seymur Iskandarov:  Engineer 1 
 ENG2.         Yevgeniy Ulikov:  Engineer 2 
 ENG3.         Bahruz Mehdiyev:  Engineer 3 
 ENG4.         Elchin Mammadov:  Engineer 4 
 ETIM.      14.00.00 23-Jul-21:  End Time 
 FLOI.gpm               500.00:  Flow In 
 FLON.gpm               450.00:  Flow In Min 
 FLOS.cptm                0.00:  Fluid Loss 
 FLOX.gpm               560.00:  Flow In Max 
 DFT .        Mineral Oil Base:  Mud Type 
 FTRO.       Formation Presure:  FTWD Run Obj 
 HFLO.                      No:  High Flow 
 HPRE.                      No:  High Pressure 
 HTEM.                      No:  High Temp 
 HYDO.m                   1.80:  Hydro Offset 
 IFIN.deg                40.22:  Inc, Final 
 IMAX.deg                40.54:  Inc Max 
 IMIN.deg                39.44:  Inc Min 
 IMND.m                4361.17:  Inc Min Depth 
 IMXD.m                4417.92:  Inc Max Depth 
 JARR.                      No:  Jarring 
 LETM.      07.45.00 18-Jul-21:  Log End Time 
 LOST.hr                    16:  Lost Rig Time 
 LSTM.      15.00.00 16-Jul-21:  Log Start Time 
 MDCL.ppm             36500.00:  Mud Chlorides 
 MDES.     Inversion Oil/Synthetic:  Mud Desc 
 DFD .sg                  1.42:  Mud Density 
 MDMN.sg                  1.42:  Dens Mud Min 
 MDMX.sg                  1.43:  Dens Mud Max 
 MOIL.                      56:  Run Mud Oil % 
 MOWR.                   71:29:  Run Mud OWR 
 MSND.                     0.5:  Run Mud Sand % 
 MSOL.                      21:  Run Mud Solids% 
 DFV .spqt               78.00:  Mud Viscosity 
 MWOD.in                  6.75:  MWD Tool OD 
 MWSI.                     Yes:  Serv Intrp, MWD 
 OTIM.hr                200.73:  Time Operating 
 PCON.           Look Like New:  Pad Condition 
 PMAX.psia            11069.93:  Press Op, Max 
 PV  .cP                 32.00:  Mud PV 
 RUN .                     700:  Run Number 
 ROPA.m/hr               10.00:  ROP Avg 
 ROPN.m/hr                9.00:  ROP Min 
 ROPX.m/hr               16.00:  ROP Max 
 RPMA.rpm               116.00:  RPM Surface Avg 
 RPMN.rpm                80.00:  RPM Surface Min 
 RPMX.rpm               120.00:  RPM Surface Max 
 RRUN.                    L605:  Rig Run Number 
 RTIM.hr                 45.00:  Time Reaming 
 SAZI.deg               159.86:  Azm, Start 
 SDEP.m                4315.00:  Start Depth 
 SIDD.                      No:  Serv Intrp, DD 
 SINC.deg                39.86:  Inc, Start 
 SPPA.psig             3300.00:  SPP Avg 
 SPPN.psig             3040.00:  SPP Min 
 SPPX.psig             3645.00:  SPP Max 
 STIM.      01.00.00 15-Jul-21:  Start Time 
 SVCS.                 DD, MWD:  Services 
 SVER.                    9.20:  Sperry Version 
 TDAT.m                 288.00:  Tot Depth Attmp 
 TDDF.                      No:  Trip for DD 
 TDLG.m                 288.00:  Tot Depth Loggd 
 TFF .                      No:  Trip for Fail 
 TQAA.f-kp               19.00:  Torque Abs Avg 
 TQAN.f-kp               18.00:  Torque Abs Min 
 TQAX.f-kp               21.00:  Torque Abs Max 
 TRRT.°/30m               0.45:  Turn Rotating 
 MRT .                    HCIM:  Maximum Recorded Temperature 
 TTMX.degC               88.24:  Max Tool Temp 
 VS01.                90649157:  Virtual Str1 SN 
 VS02.                90652483:  Virtual Str2 SN 
 VS03.                11671987:  Virtual Str3 SN 
 VS04.                90643411:  Virtual Str4 SN 
 VS05.                90652478:  Virtual Str5 SN 
 VS06.                    6111:  Virtual Str6 SN 
 WBMN.klb                 9.50:  WOB Min 
 WITN.        Grigoriy Sarayev:  Customer Rep 
 WITN.          Rufat Huseynov:  Customer Rep 2 
 WOBA.klb                11.00:  WOB Avg 
 WOBX.klb                15.00:  WOB Max 
 YP  .lhf2               28.00:  Yield Point 
~Curve Information Block
#MNEM.UNIT                 API CODE     Curve Description
#---------               -----------    ---------------------------
 TIME.HHMMSS            00 000 000 000:  GT Time & Date
 GTDEPTH.m              00 000 000 000:  GT Depth
 GTPQH.psia             00 000 000 000:  GT HR Quartz Pressure
 GTTQ.degC              00 000 000 000:  GT Quartz Temperature
 GTTN.NONE              00 000 000 000:  GT Test Number
 GTET.sec               00 000 000 000:  GT Elapsed Test Time
 GTTVD.m                00 000 000 000:  GT True Vertical Depth
#Other Information
#
#WARRANTY: Halliburton will use its best efforts to furnish customers with 
#accurate information and interpretations that are part of, and incident to, the services 
#provided.  However, Halliburton cannot and does not warrant the accuracy 
#or correctness of such information and interpretations.  Under no circumstances should any 
#such information or interpretation be relied upon as the sole basis for any drilling, 
#completion, production, or financial decision or any procedure involving any risk to the 
#safety of any drilling venture, drilling rig or its crew or any other third party.  The 
#Customer has full responsibility for all drilling, completion and production operation.  
#Halliburton makes no representations or warranties, either expressed or 
#implied, including, but not limited to, the implied warranties of merchantability or fitness 
#for a particular purpose, with respect to the services rendered.  In no event will 
#Halliburton be liable for failure to obtain any particular results or for 
#any damages, including, but not limited to, indirect, special or consequential damages, 
#resulting from the use of any information or interpretation provided by Halliburton.
#
~A           TIME           GTDEPTH  GTPQH  GTTQ  GTTN  GTET   GTTVD  
# ...
   23:07:06.806.18-Jul-2021 4247.58 6292.85 69.68 8.00 368.14 2507.04
   23:07:07.006.18-Jul-2021 4247.58 6292.85 69.68 8.00 368.34 2507.04
   23:07:07.206.18-Jul-2021 4247.58 6297.76 69.68 8.00 368.54 2507.04
   23:07:07.406.18-Jul-2021 4247.58 6318.95 69.68 8.00 368.74 2507.04
   23:07:07.606.18-Jul-2021 4247.58 6280.60 69.68 8.00 368.94 2507.04
   23:07:07.806.18-Jul-2021 4247.58 6287.47 69.68 8.00 369.14 2507.04
   23:07:08.006.18-Jul-2021 4247.58 6287.47 69.68 8.00 369.34 2507.04
   23:07:08.207.18-Jul-2021 4247.58 6324.40 69.68 8.00 369.54 2507.04
   23:07:08.407.18-Jul-2021 4247.58 6281.24 69.68 8.00 369.74 2507.04
   23:07:08.607.18-Jul-2021 4247.58 6287.93 69.68 8.00 369.94 2507.04
   23:07:08.807.18-Jul-2021 4247.58 6289.56 69.68 8.00 370.14 2507.04
   23:07:09.007.18-Jul-2021 4247.58 6289.56 69.68 8.00 370.34 2507.04
   23:07:09.207.18-Jul-2021 4247.58 6290.61 69.68 8.00 370.54 2507.04
   23:07:09.407.18-Jul-2021 4247.58 6287.75 69.68 8.00 370.74 2507.04
   23:07:09.607.18-Jul-2021 4247.58 6290.81 69.68 8.00 370.94 2507.04
   23:07:09.807.18-Jul-2021 4247.58 6288.72 69.68 8.00 371.14 2507.04
   23:07:10.007.18-Jul-2021 4247.58 6288.72 69.68 8.00 371.34 2507.04
   23:07:10.207.18-Jul-2021 4247.58 6288.90 69.68 8.00 371.54 2507.04
   23:07:10.407.18-Jul-2021 4247.58 6288.53 69.68 8.00 371.74 2507.04
   23:07:10.607.18-Jul-2021 4247.58 6286.14 69.68 8.00 371.94 2507.04
   23:07:10.807.18-Jul-2021 4247.58 6286.73 69.68 8.00 372.14 2507.04
   23:07:11.008.18-Jul-2021 4247.58 6286.73 69.68 8.00 372.34 2507.04
   23:07:11.208.18-Jul-2021 4247.58 6283.19 69.68 8.00 372.54 2507.04
   23:07:11.408.18-Jul-2021 4247.58 6287.03 69.68 8.00 372.74 2507.04
   23:07:11.608.18-Jul-2021 4247.58 6286.89 69.68 8.00 372.94 2507.04
   23:07:11.808.18-Jul-2021 4247.58 6293.03 69.68 8.00 373.14 2507.04
   23:07:12.008.18-Jul-2021 4247.58 6293.03 69.68 8.00 373.34 2507.04
   23:07:12.208.18-Jul-2021 4247.58 6285.05 69.68 8.00 373.54 2507.04
   23:07:12.408.18-Jul-2021 4247.58 6288.94 69.68 8.00 373.74 2507.04
   23:07:12.608.18-Jul-2021 4247.58 6286.05 69.68 8.00 373.94 2507.04
   23:07:12.808.18-Jul-2021 4247.58 6286.19 69.68 8.00 374.14 2507.04
   23:07:13.008.18-Jul-2021 4247.58 6286.19 69.68 8.00 374.34 2507.04
   23:07:13.208.18-Jul-2021 4247.58 6285.58 69.68 8.00 374.54 2507.04
   23:07:13.408.18-Jul-2021 4247.58 6284.81 69.68 8.00 374.74 2507.04
   23:07:13.609.18-Jul-2021 4247.58 6307.41 69.68 8.00 374.94 2507.04
   23:07:13.809.18-Jul-2021 4247.58 6282.32 69.68 8.00 375.14 2507.04
   23:07:14.009.18-Jul-2021 4247.58 6282.32 69.68 8.00 375.34 2507.04
   23:07:14.209.18-Jul-2021 4247.58 6316.19 69.68 8.00 375.54 2507.04
   23:07:14.409.18-Jul-2021 4247.58 6283.49 69.68 8.00 375.74 2507.04
   23:07:14.609.18-Jul-2021 4247.58 6287.81 69.68 8.00 375.94 2507.04
   23:07:14.809.18-Jul-2021 4247.58 6285.89 69.68 8.00 376.14 2507.04
   23:07:15.009.18-Jul-2021 4247.58 6285.89 69.68 8.00 376.34 2507.04
   23:07:15.209.18-Jul-2021 4247.58 6314.18 69.68 8.00 376.54 2507.04
   23:07:15.409.18-Jul-2021 4247.58 6277.96 69.68 8.00 376.74 2507.04
   23:07:15.609.18-Jul-2021 4247.58 6290.35 69.68 8.00 376.94 2507.04
   23:07:15.809.18-Jul-2021 4247.58 6319.71 69.68 8.00 377.14 2507.04
   23:07:16.009.18-Jul-2021 4247.58 6319.71 69.68 8.00 377.34 2507.04
   23:07:16.209.18-Jul-2021 4247.58 6288.17 69.68 8.00 377.54 2507.04
   23:07:16.410.18-Jul-2021 4247.58 6317.59 69.68 8.00 377.74 2507.04
   23:07:16.610.18-Jul-2021 4247.58 6290.32 69.68 8.00 377.94 2507.04
   23:07:16.810.18-Jul-2021 4247.58 6290.07 69.68 8.00 378.14 2507.04
   23:07:17.010.18-Jul-2021 4247.58 6290.07 69.68 8.00 378.34 2507.04
   23:07:17.210.18-Jul-2021 4247.58 6301.36 69.68 8.00 378.54 2507.04
   23:07:17.410.18-Jul-2021 4247.58 6291.23 69.68 8.00 378.74 2507.04
   23:07:17.610.18-Jul-2021 4247.58 6288.18 69.68 8.00 378.94 2507.04
   23:07:17.810.18-Jul-2021 4247.58 6292.75 69.68 8.00 379.14 2507.04
   23:07:18.010.18-Jul-2021 4247.58 6292.75 69.68 8.00 379.34 2507.04
   23:07:18.210.18-Jul-2021 4247.58 6288.81 69.68 8.00 379.54 2507.04
   23:07:18.410.18-Jul-2021 4247.58 6289.82 69.68 8.00 379.74 2507.04
   23:07:18.610.18-Jul-2021 4247.58 6289.67 69.68 8.00 379.94 2507.04
   23:07:18.810.18-Jul-2021 4247.58 6288.86 69.68 8.00 380.14 2507.04
   23:07:19.010.18-Jul-2021 4247.58 6288.86 69.68 8.00 380.34 2507.04
   23:07:19.211.18-Jul-2021 4247.58 6308.95 69.68 8.00 380.54 2507.04
   23:07:19.411.18-Jul-2021 4247.58 6284.62 69.68 8.00 380.74 2507.04
   23:07:19.611.18-Jul-2021 4247.58 6288.00 69.68 8.00 380.94 2507.04
   23:07:19.811.18-Jul-2021 4247.58 6287.25 69.68 8.00 381.14 2507.04
   23:07:20.011.18-Jul-2021 4247.58 6287.25 69.68 8.00 381.34 2507.04
   23:07:20.211.18-Jul-2021 4247.58 6289.33 69.68 8.00 381.54 2507.04
   23:07:20.411.18-Jul-2021 4247.58 6285.96 69.68 8.00 381.74 2507.04
   23:07:20.611.18-Jul-2021 4247.58 6289.23 69.68 8.00 381.94 2507.04
   23:07:20.811.18-Jul-2021 4247.58 6286.70 69.68 8.00 382.14 2507.04
   23:07:21.011.18-Jul-2021 4247.58 6286.70 69.68 8.00 382.34 2507.04
   23:07:21.211.18-Jul-2021 4247.58 6287.43 69.68 8.00 382.54 2507.04
   23:07:21.411.18-Jul-2021 4247.58 6286.84 69.68 8.00 382.74 2507.04
   23:07:21.611.18-Jul-2021 4247.58 6284.95 69.68 8.00 382.94 2507.04
   23:07:21.812.18-Jul-2021 4247.58 6307.99 69.68 8.00 383.14 2507.04
   23:07:22.012.18-Jul-2021 4247.58 6307.99 69.68 8.00 383.34 2507.04
   23:07:22.212.18-Jul-2021 4247.58 6285.73 69.68 8.00 383.54 2507.04
   23:07:22.412.18-Jul-2021 4247.58 6315.24 69.68 8.00 383.74 2507.04
   23:07:22.612.18-Jul-2021 4247.58 6285.61 69.68 8.00 383.94 2507.04
   23:07:22.812.18-Jul-2021 4247.58 6288.97 69.68 8.00 384.14 2507.04
   23:07:23.012.18-Jul-2021 4247.58 6288.97 69.68 8.00 384.34 2507.04
   23:07:23.212.18-Jul-2021 4247.58 6299.08 69.68 8.00 384.54 2507.04
   23:07:23.412.18-Jul-2021 4247.58 6316.82 69.68 8.00 384.74 2507.04
   23:07:23.612.18-Jul-2021 4247.58 6279.67 69.68 8.00 384.94 2507.04
   23:07:23.812.18-Jul-2021 4247.58 6287.55 69.68 8.00 385.14 2507.04
   23:07:24.012.18-Jul-2021 4247.58 6287.55 69.68 8.00 385.34 2507.04
   23:07:24.212.18-Jul-2021 4247.58 6296.47 69.68 8.00 385.54 2507.04
   23:07:24.412.18-Jul-2021 4247.58 6287.58 69.68 8.00 385.74 2507.04
   23:07:24.613.18-Jul-2021 4247.58 6300.90 69.68 8.00 385.94 2507.04
   23:07:24.813.18-Jul-2021 4247.58 6307.07 69.68 8.00 386.14 2507.04
   23:07:25.013.18-Jul-2021 4247.58 6307.07 69.68 8.00 386.34 2507.04
   23:07:25.213.18-Jul-2021 4247.58 6288.67 69.68 8.00 386.54 2507.04
   23:07:25.413.18-Jul-2021 4247.58 6296.85 69.68 8.00 386.74 2507.04
   23:07:25.613.18-Jul-2021 4247.58 6291.59 69.68 8.00 386.94 2507.04
   23:07:25.813.18-Jul-2021 4247.58 6289.76 69.68 8.00 387.14 2507.04
   23:07:26.013.18-Jul-2021 4247.58 6289.76 69.68 8.00 387.34 2507.04
   23:07:26.213.18-Jul-2021 4247.58 6290.03 69.68 8.00 387.54 2507.04
   23:07:26.413.18-Jul-2021 4247.58 6289.40 69.68 8.00 387.74 2507.04
   23:07:26.613.18-Jul-2021 4247.58 6288.89 69.68 8.00 387.94 2507.04
   23:07:26.813.18-Jul-2021 4247.58 6289.07 69.68 8.00 388.14 2507.04
   23:07:27.013.18-Jul-2021 4247.58 6289.07 69.68 8.00 388.34 2507.04
   23:07:27.214.18-Jul-2021 4247.58 6286.03 69.68 8.00 388.54 2507.04
   23:07:27.414.18-Jul-2021 4247.58 6285.88 69.68 8.00 388.74 2507.04
   23:07:27.614.18-Jul-2021 4247.58 6304.40 69.68 8.00 388.94 2507.04
   23:07:27.814.18-Jul-2021 4247.58 6286.87 69.68 8.00 389.14 2507.04
   23:07:28.014.18-Jul-2021 4247.58 6286.87 69.68 8.00 389.34 2507.04
   23:07:28.214.18-Jul-2021 4247.58 6290.51 69.68 8.00 389.54 2507.04
   23:07:28.414.18-Jul-2021 4247.58 6290.75 69.68 8.00 389.74 2507.04
   23:07:28.614.18-Jul-2021 4247.58 6287.02 69.68 8.00 389.94 2507.04
   23:07:28.814.18-Jul-2021 4247.58 6287.00 69.68 8.00 390.14 2507.04
   23:07:29.014.18-Jul-2021 4247.58 6287.00 69.68 8.00 390.34 2507.04
   23:07:29.214.18-Jul-2021 4247.58 6286.59 69.68 8.00 390.54 2507.04
   23:07:29.414.18-Jul-2021 4247.58 6287.31 69.68 8.00 390.74 2507.04
   23:07:29.614.18-Jul-2021 4247.58 6287.18 69.68 8.00 390.94 2507.04
