~Version Information
 VERS.                  2.0:   CWLS log ASCII Standard -VERSION 2.0
 WRAP.                   NO:   One line per depth step
~Well Information Block
#MNEM.UNIT     VALUE/NAME     DESCRIPTION
#---------     -----------    ---------------------------
 STRT.S             07:16:19 19-Jul-21: START TIME 07:16:19 19-Jul-21
 STOP.S             07:23:16 19-Jul-21: STOP TIME  07:23:16 19-Jul-21
 STEP.S                   0.00: STEP TIME
 NULL.                 -999.25: NULL VALUE
 MDS .        Operator Entered:  MAG DATA SOURCE
 PDAT.          Mean Sea Level:  PERMANENT DATUM
 UNIT.                     N/A:  LOGGING EQUIPMENT ID
 DCON.         Sperry Drilling:  DIRECTNL CONTR
 DOE .                     N/A:  DOE NUMBER
 RIG .              West Azeri:  RIG NAME
 JOBN.        AZ-XX-0906997913:  JOB TICKET NUMB
 WELL.                     C41:  WELL NAME
 MWDS.                    Baku:  MWD SHOP
 SRVC.          Turan Drilling:  CONTRACTOR
 FLD .                     ACG:  FIELD NAME
 CTRY.              Azerbaijan:  COUNTRY NAME
 PROV.                    Baku:  PROVINCE
 STAT.                    Baku:  STATE NAME
 REGN.                   EESSA:  REGION
 BASE.              Azerbaijan:  LOGGING EQUIPMENT BASE LOCATION
 UWI .                     N/A:  UNIQUE WELL IDENTIFIER
 API .                     N/A:  API NUMBER
 COMP.     BP Exploration (Caspian Sea) Ltd.:  COMPANY
 WTYP.                Deviated:  WELL TYPE
 SON .        AZ-XX-0906997913:  JOB NUMBER
 FTOP.          Formation Tops:  FORM TOPS DESC
 ILTD.               Lithology:  INTERP LTH DESC
 SVYD.                  Survey:  SURVEY DESC
 DMOD.             Drill Model:  DRILL MOD DESC
 HPTY.       Minimum Curvature:  HOLE POS TYPE
 NREF.                    Grid:  NORTH REFERENCE
 SPUD.               16-May-21:  SPUD DATE
 DATE.      21.11.28 17-May-21:  END TIME
 STIM.      21.11.28 17-May-21:  START TIME
 DMF .             Drill Floor:  DRILL MEAS FROM
 DFST.                        :  DIST FSL TEXT
 DFWT.                        :  DIST FWL TEXT
 CNTY.                        :  COUNTY
 LOC .                        :  LOCATION
 LMF .             Drill Floor:  LOG MEASURED FROM
 AGAP.m                  43.42:  AIR GAP
 VSNS.m                  -2.16:  VERT SEC N/S
 VSEW.m                  -6.24:  VERT SEC E/W
 APD .m                  43.42:  DEPTH ABOVE PD
 WDMS.m                 118.27:  WD ELEV
 EGL .m                   0.00:  GROUND ELEVATION
 EPD .m                   0.00:  ELEVATION
 AZTC.deg                 6.29:  AZM TOTAL CORR
 GRDC.deg                 0.18:  GRID CORRECTION
 MDEC.deg                 6.47:  MAGNETIC DECL
 MDIP.deg                59.54:  MAGNETIC DIP
 MFLD.nT              50337.00:  MAGNETIC FIELD
 GVFD.g                   1.00:  GRAVITY FIELD
 VSDR.deg               226.99:  VERT SEC DIRECT
 TDD .m                   0.00:  TOTAL DEPTH (DRILLER)
 SDEP.m                 448.00:  START DEPTH
 DFSL.m                   0.00:  DISTANCE FSL
 DFWL.m                   0.00:  DISTANCE FWL
 UTMY.m             4435799.96:  UTM Y
 UTMX.m              526265.35:  UTM X
 WHEW.m                  -6.24:  WELL HEAD E/W
 WHNS.m                  -2.16:  WELL HEAD N/S
 LONG.deg                51.31:  LONGITUDE
 LATI.deg                40.06:  LATITUDE
 TVDS.m                  43.42:  TVDSS CORRECTN
 EKB .m                  43.42:  KB ELEVATION
 EDF .m                  43.42:  DF ELEVATION
 TDL .m                 288.00:  TOTAL DEPTH (LOGGER)
 MAGU.                 1851863:  MAGUTM CHECKSUM
 VSC .                       0:  VS TO CLOSURE
~Parameter Information Block
#MNEM.UNIT       Value        Description
#---------     -----------    ---------------------------
 AV  .mps                 0.40:  Ann Velocity 
 AVMX.mps                 0.63:  Max Ann Veloc 
 AZIF.deg               158.76:  Azm, Final 
 BHAT.        Rotary Steerable:  BHA Type 
 BROT.°/30m               0.68:  Build Rotating 
 BS  .in                  8.50:  Bit Size 
 BSZ .in                  8.50:  Bit Size 
 BTPL.psig              712.00:  Bit Press Loss 
 CABU.                      No:  Customer Abuse 
 COMM.                     ôK:  Run Comments 1 
 TCS .hr                 90.66:  Time Ciculation Ended 
 CV  .mps                 2.02:  Crit Velocity 
 CVMX.mps                 2.14:  Max Crit Veloc 
 DD1 .            Aziz Aliyevu:  Direct Drillr 1 
 DD2 .             Samir Abbas:  Direct Drillr 2 
 DD3 .           Teymur Aliyev:  Direct Drillr 3 
 DDSV.                 iCruise:  DD Service 
 DEFF.%                  85.10:  % Det Eff 
 DLRX.°/30m               1.05:  Dogleg Rot Max 
 DLSO.°/30m               1.01:  Dogleg Oriented 
 DLSX.°/30m               1.05:  Dogleg Str Max 
 DRET.      07.45.00 18-Jul-21:  Drill End Time 
 DRST.      15.00.00 16-Jul-21:  Drill Start Tim 
 DTIM.hr                 23.46:  Time Drilling 
 EDEP.m                4603.00:  End Depth 
 ENG1.       Seymur Iskandarov:  Engineer 1 
 ENG2.         Yevgeniy Ulikov:  Engineer 2 
 ENG3.         Bahruz Mehdiyev:  Engineer 3 
 ENG4.         Elchin Mammadov:  Engineer 4 
 ETIM.      14.00.00 23-Jul-21:  End Time 
 FLOI.gpm               500.00:  Flow In 
 FLON.gpm               450.00:  Flow In Min 
 FLOS.cptm                0.00:  Fluid Loss 
 FLOX.gpm               560.00:  Flow In Max 
 DFT .        Mineral Oil Base:  Mud Type 
 FTRO.       Formation Presure:  FTWD Run Obj 
 HFLO.                      No:  High Flow 
 HPRE.                      No:  High Pressure 
 HTEM.                      No:  High Temp 
 HYDO.m                   1.80:  Hydro Offset 
 IFIN.deg                40.22:  Inc, Final 
 IMAX.deg                40.54:  Inc Max 
 IMIN.deg                39.44:  Inc Min 
 IMND.m                4361.17:  Inc Min Depth 
 IMXD.m                4417.92:  Inc Max Depth 
 JARR.                      No:  Jarring 
 LETM.      07.45.00 18-Jul-21:  Log End Time 
 LOST.hr                    16:  Lost Rig Time 
 LSTM.      15.00.00 16-Jul-21:  Log Start Time 
 MDCL.ppm             36500.00:  Mud Chlorides 
 MDES.     Inversion Oil/Synthetic:  Mud Desc 
 DFD .sg                  1.42:  Mud Density 
 MDMN.sg                  1.42:  Dens Mud Min 
 MDMX.sg                  1.43:  Dens Mud Max 
 MOIL.                      56:  Run Mud Oil % 
 MOWR.                   71:29:  Run Mud OWR 
 MSND.                     0.5:  Run Mud Sand % 
 MSOL.                      21:  Run Mud Solids% 
 DFV .spqt               78.00:  Mud Viscosity 
 MWOD.in                  6.75:  MWD Tool OD 
 MWSI.                     Yes:  Serv Intrp, MWD 
 OTIM.hr                200.73:  Time Operating 
 PCON.           Look Like New:  Pad Condition 
 PMAX.psia            11069.93:  Press Op, Max 
 PV  .cP                 32.00:  Mud PV 
 RUN .                     700:  Run Number 
 ROPA.m/hr               10.00:  ROP Avg 
 ROPN.m/hr                9.00:  ROP Min 
 ROPX.m/hr               16.00:  ROP Max 
 RPMA.rpm               116.00:  RPM Surface Avg 
 RPMN.rpm                80.00:  RPM Surface Min 
 RPMX.rpm               120.00:  RPM Surface Max 
 RRUN.                    L605:  Rig Run Number 
 RTIM.hr                 45.00:  Time Reaming 
 SAZI.deg               159.86:  Azm, Start 
 SDEP.m                4315.00:  Start Depth 
 SIDD.                      No:  Serv Intrp, DD 
 SINC.deg                39.86:  Inc, Start 
 SPPA.psig             3300.00:  SPP Avg 
 SPPN.psig             3040.00:  SPP Min 
 SPPX.psig             3645.00:  SPP Max 
 STIM.      01.00.00 15-Jul-21:  Start Time 
 SVCS.                 DD, MWD:  Services 
 SVER.                    9.20:  Sperry Version 
 TDAT.m                 288.00:  Tot Depth Attmp 
 TDDF.                      No:  Trip for DD 
 TDLG.m                 288.00:  Tot Depth Loggd 
 TFF .                      No:  Trip for Fail 
 TQAA.f-kp               19.00:  Torque Abs Avg 
 TQAN.f-kp               18.00:  Torque Abs Min 
 TQAX.f-kp               21.00:  Torque Abs Max 
 TRRT.°/30m               0.45:  Turn Rotating 
 MRT .                    HCIM:  Maximum Recorded Temperature 
 TTMX.degC               88.24:  Max Tool Temp 
 VS01.                90649157:  Virtual Str1 SN 
 VS02.                90652483:  Virtual Str2 SN 
 VS03.                11671987:  Virtual Str3 SN 
 VS04.                90643411:  Virtual Str4 SN 
 VS05.                90652478:  Virtual Str5 SN 
 VS06.                    6111:  Virtual Str6 SN 
 WBMN.klb                 9.50:  WOB Min 
 WITN.        Grigoriy Sarayev:  Customer Rep 
 WITN.          Rufat Huseynov:  Customer Rep 2 
 WOBA.klb                11.00:  WOB Avg 
 WOBX.klb                15.00:  WOB Max 
 YP  .lhf2               28.00:  Yield Point 
~Curve Information Block
#MNEM.UNIT                 API CODE     Curve Description
#---------               -----------    ---------------------------
 TIME.HHMMSS            00 000 000 000:  GT Time & Date
 GTDEPTH.m              00 000 000 000:  GT Depth
 GTPQH.psia             00 000 000 000:  GT HR Quartz Pressure
 GTTQ.degC              00 000 000 000:  GT Quartz Temperature
 GTTN.NONE              00 000 000 000:  GT Test Number
 GTET.sec               00 000 000 000:  GT Elapsed Test Time
 GTTVD.m                00 000 000 000:  GT True Vertical Depth
#Other Information
#
#WARRANTY: Halliburton will use its best efforts to furnish customers with 
#accurate information and interpretations that are part of, and incident to, the services 
#provided.  However, Halliburton cannot and does not warrant the accuracy 
#or correctness of such information and interpretations.  Under no circumstances should any 
#such information or interpretation be relied upon as the sole basis for any drilling, 
#completion, production, or financial decision or any procedure involving any risk to the 
#safety of any drilling venture, drilling rig or its crew or any other third party.  The 
#Customer has full responsibility for all drilling, completion and production operation.  
#Halliburton makes no representations or warranties, either expressed or 
#implied, including, but not limited to, the implied warranties of merchantability or fitness 
#for a particular purpose, with respect to the services rendered.  In no event will 
#Halliburton be liable for failure to obtain any particular results or for 
#any damages, including, but not limited to, indirect, special or consequential damages, 
#resulting from the use of any information or interpretation provided by Halliburton.
#
~A           TIME           GTDEPTH  GTPQH  GTTQ  GTTN   GTET   GTTVD  
# ...
   07:21:36.131.19-Jul-2021 4406.50 4331.02 69.79 15.00 316.52 2628.90
   07:21:36.331.19-Jul-2021 4406.50 4330.93 69.79 15.00 316.72 2628.90
   07:21:36.531.19-Jul-2021 4406.50 4331.42 69.79 15.00 316.92 2628.90
   07:21:36.731.19-Jul-2021 4406.50 4330.75 69.79 15.00 317.12 2628.90
   07:21:36.931.19-Jul-2021 4406.50 4330.75 69.79 15.00 317.32 2628.90
   07:21:37.131.19-Jul-2021 4406.50 4331.68 69.79 15.00 317.52 2628.90
   07:21:37.331.19-Jul-2021 4406.50 4330.20 69.79 15.00 317.72 2628.90
   07:21:37.531.19-Jul-2021 4406.50 4331.15 69.79 15.00 317.92 2628.90
   07:21:37.731.19-Jul-2021 4406.50 4330.81 69.79 15.00 318.12 2628.90
   07:21:37.931.19-Jul-2021 4406.50 4330.81 69.79 15.00 318.32 2628.90
   07:21:38.131.19-Jul-2021 4406.50 4330.73 69.79 15.00 318.52 2628.90
   07:21:38.331.19-Jul-2021 4406.50 4331.21 69.79 15.00 318.72 2628.90
   07:21:38.531.19-Jul-2021 4406.50 4330.87 69.79 15.00 318.92 2628.90
   07:21:38.731.19-Jul-2021 4406.50 4331.17 69.79 15.00 319.12 2628.90
   07:21:38.932.19-Jul-2021 4406.50 4331.17 69.79 15.00 319.32 2628.90
   07:21:39.132.19-Jul-2021 4406.50 4331.17 69.79 15.00 319.52 2628.90
   07:21:39.332.19-Jul-2021 4406.50 4330.80 69.79 15.00 319.72 2628.90
   07:21:39.532.19-Jul-2021 4406.50 4331.26 69.79 15.00 319.92 2628.90
   07:21:39.732.19-Jul-2021 4406.50 4330.70 69.79 15.00 320.12 2628.90
   07:21:39.932.19-Jul-2021 4406.50 4330.70 69.79 15.00 320.32 2628.90
   07:21:40.132.19-Jul-2021 4406.50 4331.02 69.79 15.00 320.52 2628.90
   07:21:40.332.19-Jul-2021 4406.50 4330.83 69.79 15.00 320.72 2628.90
   07:21:40.532.19-Jul-2021 4406.50 4331.02 69.79 15.00 320.92 2628.90
   07:21:40.732.19-Jul-2021 4406.50 4330.90 69.79 15.00 321.12 2628.90
   07:21:40.932.19-Jul-2021 4406.50 4330.90 69.79 15.00 321.32 2628.90
   07:21:41.132.19-Jul-2021 4406.50 4330.93 69.79 15.00 321.52 2628.90
   07:21:41.332.19-Jul-2021 4406.50 4330.97 69.79 15.00 321.72 2628.90
   07:21:41.533.19-Jul-2021 4406.50 4330.99 69.79 15.00 321.92 2628.90
   07:21:41.733.19-Jul-2021 4406.50 4331.06 69.79 15.00 322.12 2628.90
   07:21:41.933.19-Jul-2021 4406.50 4331.06 69.79 15.00 322.32 2628.90
   07:21:42.133.19-Jul-2021 4406.50 4330.94 69.79 15.00 322.52 2628.90
   07:21:42.333.19-Jul-2021 4406.50 4331.39 69.79 15.00 322.72 2628.90
   07:21:42.533.19-Jul-2021 4406.50 4330.77 69.79 15.00 322.92 2628.90
   07:21:42.733.19-Jul-2021 4406.50 4330.90 69.79 15.00 323.12 2628.90
   07:21:42.933.19-Jul-2021 4406.50 4330.90 69.79 15.00 323.32 2628.90
   07:21:43.133.19-Jul-2021 4406.50 4330.90 69.79 15.00 323.52 2628.90
   07:21:43.333.19-Jul-2021 4406.50 4330.95 69.79 15.00 323.72 2628.90
   07:21:43.533.19-Jul-2021 4406.50 4330.97 69.79 15.00 323.92 2628.90
   07:21:43.733.19-Jul-2021 4406.50 4330.95 69.79 15.00 324.12 2628.90
   07:21:43.933.19-Jul-2021 4406.50 4330.95 69.79 15.00 324.32 2628.90
   07:21:44.133.19-Jul-2021 4406.50 4330.93 69.79 15.00 324.52 2628.90
   07:21:44.334.19-Jul-2021 4406.50 4330.99 69.79 15.00 324.72 2628.90
   07:21:44.534.19-Jul-2021 4406.50 4330.98 69.79 15.00 324.92 2628.90
   07:21:44.734.19-Jul-2021 4406.50 4330.90 69.79 15.00 325.12 2628.90
   07:21:44.934.19-Jul-2021 4406.50 4330.90 69.79 15.00 325.32 2628.90
   07:21:45.134.19-Jul-2021 4406.50 4330.75 69.79 15.00 325.52 2628.90
   07:21:45.334.19-Jul-2021 4406.50 4330.92 69.79 15.00 325.72 2628.90
   07:21:45.534.19-Jul-2021 4406.50 4331.70 69.79 15.00 325.92 2628.90
   07:21:45.734.19-Jul-2021 4406.50 4330.20 69.79 15.00 326.12 2628.90
   07:21:45.934.19-Jul-2021 4406.50 4330.20 69.79 15.00 326.32 2628.90
   07:21:46.134.19-Jul-2021 4406.50 4330.83 69.79 15.00 326.52 2628.90
   07:21:46.334.19-Jul-2021 4406.50 4330.90 69.79 15.00 326.72 2628.90
   07:21:46.534.19-Jul-2021 4406.50 4330.74 69.79 15.00 326.92 2628.90
   07:21:46.734.19-Jul-2021 4406.50 4331.20 69.79 15.00 327.12 2628.90
   07:21:46.935.19-Jul-2021 4406.50 4331.20 69.79 15.00 327.32 2628.90
   07:21:47.135.19-Jul-2021 4406.50 4331.21 69.79 15.00 327.52 2628.90
   07:21:47.335.19-Jul-2021 4406.50 4330.74 69.79 15.00 327.72 2628.90
   07:21:47.535.19-Jul-2021 4406.50 4331.17 69.79 15.00 327.92 2628.90
   07:21:47.735.19-Jul-2021 4406.50 4330.79 69.79 15.00 328.12 2628.90
   07:21:47.935.19-Jul-2021 4406.50 4330.79 69.79 15.00 328.32 2628.90
   07:21:48.135.19-Jul-2021 4406.50 4330.72 69.79 15.00 328.52 2628.90
   07:21:48.335.19-Jul-2021 4406.50 4330.98 69.79 15.00 328.72 2628.90
   07:21:48.535.19-Jul-2021 4406.50 4331.07 69.79 15.00 328.92 2628.90
   07:21:48.735.19-Jul-2021 4406.50 4330.88 69.79 15.00 329.12 2628.90
   07:21:48.935.19-Jul-2021 4406.50 4330.88 69.79 15.00 329.32 2628.90
   07:21:49.135.19-Jul-2021 4406.50 4330.91 69.79 15.00 329.52 2628.90
   07:21:49.335.19-Jul-2021 4406.50 4330.95 69.79 15.00 329.72 2628.90
   07:21:49.535.19-Jul-2021 4406.50 4330.99 69.79 15.00 329.92 2628.90
   07:21:49.736.19-Jul-2021 4406.50 4330.93 69.79 15.00 330.12 2628.90
   07:21:49.936.19-Jul-2021 4406.50 4330.93 69.79 15.00 330.32 2628.90
   07:21:50.136.19-Jul-2021 4406.50 4330.98 69.79 15.00 330.52 2628.90
   07:21:50.336.19-Jul-2021 4406.50 4330.98 69.79 15.00 330.72 2628.90
   07:21:50.536.19-Jul-2021 4406.50 4330.92 69.79 15.00 330.92 2628.90
   07:21:50.736.19-Jul-2021 4406.50 4331.37 69.79 15.00 331.12 2628.90
   07:21:50.936.19-Jul-2021 4406.50 4331.37 69.79 15.00 331.32 2628.90
   07:21:51.136.19-Jul-2021 4406.50 4330.87 69.79 15.00 331.52 2628.90
   07:21:51.336.19-Jul-2021 4406.50 4331.01 69.79 15.00 331.72 2628.90
   07:21:51.536.19-Jul-2021 4406.50 4330.87 69.79 15.00 331.92 2628.90
   07:21:51.736.19-Jul-2021 4406.50 4330.99 69.79 15.00 332.12 2628.90
   07:21:51.936.19-Jul-2021 4406.50 4330.99 69.79 15.00 332.32 2628.90
   07:21:52.136.19-Jul-2021 4406.50 4330.97 69.79 15.00 332.52 2628.90
   07:21:52.337.19-Jul-2021 4406.50 4330.99 69.79 15.00 332.72 2628.90
   07:21:52.537.19-Jul-2021 4406.50 4330.96 69.79 15.00 332.92 2628.90
   07:21:52.737.19-Jul-2021 4406.50 4330.99 69.79 15.00 333.12 2628.90
   07:21:52.937.19-Jul-2021 4406.50 4330.99 69.79 15.00 333.32 2628.90
   07:21:53.137.19-Jul-2021 4406.50 4330.96 69.79 15.00 333.52 2628.90
   07:21:53.337.19-Jul-2021 4406.50 4331.44 69.79 15.00 333.72 2628.90
   07:21:53.537.19-Jul-2021 4406.50 4330.74 69.79 15.00 333.92 2628.90
   07:21:53.737.19-Jul-2021 4406.50 4330.83 69.79 15.00 334.12 2628.90
   07:21:53.937.19-Jul-2021 4406.50 4330.83 69.79 15.00 334.32 2628.90
   07:21:54.137.19-Jul-2021 4406.50 4330.20 69.79 15.00 334.52 2628.90
   07:21:54.337.19-Jul-2021 4406.50 4331.13 69.79 15.00 334.72 2628.90
   07:21:54.537.19-Jul-2021 4406.50 4330.83 69.79 15.00 334.92 2628.90
   07:21:54.737.19-Jul-2021 4406.50 4330.94 69.79 15.00 335.12 2628.90
   07:21:54.937.19-Jul-2021 4406.50 4330.94 69.79 15.00 335.32 2628.90
   07:21:55.138.19-Jul-2021 4406.50 4331.29 69.79 15.00 335.52 2628.90
   07:21:55.338.19-Jul-2021 4406.50 4330.86 69.79 15.00 335.72 2628.90
   07:21:55.538.19-Jul-2021 4406.50 4331.22 69.79 15.00 335.92 2628.90
   07:21:55.738.19-Jul-2021 4406.50 4330.82 69.79 15.00 336.12 2628.90
   07:21:55.938.19-Jul-2021 4406.50 4330.82 69.79 15.00 336.32 2628.90
   07:21:56.138.19-Jul-2021 4406.50 4331.21 69.79 15.00 336.52 2628.90
   07:21:56.338.19-Jul-2021 4406.50 4331.33 69.79 15.00 336.72 2628.90
   07:21:56.538.19-Jul-2021 4406.50 4330.78 69.79 15.00 336.92 2628.90
   07:21:56.738.19-Jul-2021 4406.50 4331.04 69.79 15.00 337.12 2628.90
   07:21:56.938.19-Jul-2021 4406.50 4331.04 69.79 15.00 337.32 2628.90
   07:21:57.138.19-Jul-2021 4406.50 4330.90 69.79 15.00 337.52 2628.90
   07:21:57.338.19-Jul-2021 4406.50 4330.99 69.79 15.00 337.72 2628.90
   07:21:57.538.19-Jul-2021 4406.50 4330.88 69.79 15.00 337.92 2628.90
   07:21:57.738.19-Jul-2021 4406.50 4331.00 69.79 15.00 338.12 2628.90
   07:21:57.939.19-Jul-2021 4406.50 4331.00 69.79 15.00 338.32 2628.90
   07:21:58.139.19-Jul-2021 4406.50 4330.95 69.79 15.00 338.52 2628.90
   07:21:58.339.19-Jul-2021 4406.50 4330.99 69.79 15.00 338.72 2628.90
   07:21:58.539.19-Jul-2021 4406.50 4331.00 69.79 15.00 338.92 2628.90
