~Version Information
 VERS.                  2.0:   CWLS log ASCII Standard -VERSION 2.0
 WRAP.                   NO:   One line per depth step
~Well Information Block
#MNEM.UNIT     VALUE/NAME     DESCRIPTION
#---------     -----------    ---------------------------
 STRT.S             14:45:19 18-Jul-21: START TIME 14:45:19 18-Jul-21
 STOP.S             14:51:50 18-Jul-21: STOP TIME  14:51:50 18-Jul-21
 STEP.S                   0.00: STEP TIME
 NULL.                 -999.25: NULL VALUE
 MDS .        Operator Entered:  MAG DATA SOURCE
 PDAT.          Mean Sea Level:  PERMANENT DATUM
 UNIT.                     N/A:  LOGGING EQUIPMENT ID
 DCON.         Sperry Drilling:  DIRECTNL CONTR
 DOE .                     N/A:  DOE NUMBER
 RIG .              West Azeri:  RIG NAME
 JOBN.        AZ-XX-0906997913:  JOB TICKET NUMB
 WELL.                     C41:  WELL NAME
 MWDS.                    Baku:  MWD SHOP
 SRVC.          Turan Drilling:  CONTRACTOR
 FLD .                     ACG:  FIELD NAME
 CTRY.              Azerbaijan:  COUNTRY NAME
 PROV.                    Baku:  PROVINCE
 STAT.                    Baku:  STATE NAME
 REGN.                   EESSA:  REGION
 BASE.              Azerbaijan:  LOGGING EQUIPMENT BASE LOCATION
 UWI .                     N/A:  UNIQUE WELL IDENTIFIER
 API .                     N/A:  API NUMBER
 COMP.     BP Exploration (Caspian Sea) Ltd.:  COMPANY
 WTYP.                Deviated:  WELL TYPE
 SON .        AZ-XX-0906997913:  JOB NUMBER
 FTOP.          Formation Tops:  FORM TOPS DESC
 ILTD.               Lithology:  INTERP LTH DESC
 SVYD.                  Survey:  SURVEY DESC
 DMOD.             Drill Model:  DRILL MOD DESC
 HPTY.       Minimum Curvature:  HOLE POS TYPE
 NREF.                    Grid:  NORTH REFERENCE
 SPUD.               16-May-21:  SPUD DATE
 DATE.      21.11.28 17-May-21:  END TIME
 STIM.      21.11.28 17-May-21:  START TIME
 DMF .             Drill Floor:  DRILL MEAS FROM
 DFST.                        :  DIST FSL TEXT
 DFWT.                        :  DIST FWL TEXT
 CNTY.                        :  COUNTY
 LOC .                        :  LOCATION
 LMF .             Drill Floor:  LOG MEASURED FROM
 AGAP.m                  43.42:  AIR GAP
 VSNS.m                  -2.16:  VERT SEC N/S
 VSEW.m                  -6.24:  VERT SEC E/W
 APD .m                  43.42:  DEPTH ABOVE PD
 WDMS.m                 118.27:  WD ELEV
 EGL .m                   0.00:  GROUND ELEVATION
 EPD .m                   0.00:  ELEVATION
 AZTC.deg                 6.29:  AZM TOTAL CORR
 GRDC.deg                 0.18:  GRID CORRECTION
 MDEC.deg                 6.47:  MAGNETIC DECL
 MDIP.deg                59.54:  MAGNETIC DIP
 MFLD.nT              50337.00:  MAGNETIC FIELD
 GVFD.g                   1.00:  GRAVITY FIELD
 VSDR.deg               226.99:  VERT SEC DIRECT
 TDD .m                   0.00:  TOTAL DEPTH (DRILLER)
 SDEP.m                 448.00:  START DEPTH
 DFSL.m                   0.00:  DISTANCE FSL
 DFWL.m                   0.00:  DISTANCE FWL
 UTMY.m             4435799.96:  UTM Y
 UTMX.m              526265.35:  UTM X
 WHEW.m                  -6.24:  WELL HEAD E/W
 WHNS.m                  -2.16:  WELL HEAD N/S
 LONG.deg                51.31:  LONGITUDE
 LATI.deg                40.06:  LATITUDE
 TVDS.m                  43.42:  TVDSS CORRECTN
 EKB .m                  43.42:  KB ELEVATION
 EDF .m                  43.42:  DF ELEVATION
 TDL .m                 288.00:  TOTAL DEPTH (LOGGER)
 MAGU.                 1851863:  MAGUTM CHECKSUM
 VSC .                       0:  VS TO CLOSURE
~Parameter Information Block
#MNEM.UNIT       Value        Description
#---------     -----------    ---------------------------
 AV  .mps                 0.40:  Ann Velocity 
 AVMX.mps                 0.63:  Max Ann Veloc 
 AZIF.deg               158.76:  Azm, Final 
 BHAT.        Rotary Steerable:  BHA Type 
 BROT.°/30m               0.68:  Build Rotating 
 BS  .in                  8.50:  Bit Size 
 BSZ .in                  8.50:  Bit Size 
 BTPL.psig              712.00:  Bit Press Loss 
 CABU.                      No:  Customer Abuse 
 TCS .hr                 90.66:  Time Ciculation Ended 
 CV  .mps                 2.02:  Crit Velocity 
 CVMX.mps                 2.14:  Max Crit Veloc 
 DD1 .            Aziz Aliyevu:  Direct Drillr 1 
 DD2 .             Samir Abbas:  Direct Drillr 2 
 DD3 .           Teymur Aliyev:  Direct Drillr 3 
 DDSV.                 iCruise:  DD Service 
 DEFF.%                  85.10:  % Det Eff 
 DLRX.°/30m               1.05:  Dogleg Rot Max 
 DLSO.°/30m               1.01:  Dogleg Oriented 
 DLSX.°/30m               1.05:  Dogleg Str Max 
 DRET.      07.45.00 18-Jul-21:  Drill End Time 
 DRST.      15.00.00 16-Jul-21:  Drill Start Tim 
 DTIM.hr                 23.46:  Time Drilling 
 EDEP.m                4603.00:  End Depth 
 ENG1.       Seymur Iskandarov:  Engineer 1 
 ENG2.         Yevgeniy Ulikov:  Engineer 2 
 ENG3.         Bahruz Mehdiyev:  Engineer 3 
 ENG4.         Elchin Mammadov:  Engineer 4 
 ETIM.      14.00.00 23-Jul-21:  End Time 
 FLOI.gpm               500.00:  Flow In 
 FLON.gpm               450.00:  Flow In Min 
 FLOS.cptm                0.00:  Fluid Loss 
 FLOX.gpm               560.00:  Flow In Max 
 DFT .        Mineral Oil Base:  Mud Type 
 FTRO.       Formation Presure:  FTWD Run Obj 
 HFLO.                      No:  High Flow 
 HPRE.                      No:  High Pressure 
 HTEM.                      No:  High Temp 
 HYDO.m                   1.80:  Hydro Offset 
 IFIN.deg                40.22:  Inc, Final 
 IMAX.deg                40.54:  Inc Max 
 IMIN.deg                39.44:  Inc Min 
 IMND.m                4361.17:  Inc Min Depth 
 IMXD.m                4417.92:  Inc Max Depth 
 JARR.                      No:  Jarring 
 LETM.      07.45.00 18-Jul-21:  Log End Time 
 LOST.hr                    16:  Lost Rig Time 
 LSTM.      15.00.00 16-Jul-21:  Log Start Time 
 MDCL.ppm             36500.00:  Mud Chlorides 
 MDES.     Inversion Oil/Synthetic:  Mud Desc 
 DFD .sg                  1.42:  Mud Density 
 MDMN.sg                  1.42:  Dens Mud Min 
 MDMX.sg                  1.43:  Dens Mud Max 
 MOIL.                      56:  Run Mud Oil % 
 MOWR.                   71:29:  Run Mud OWR 
 MSND.                     0.5:  Run Mud Sand % 
 MSOL.                      21:  Run Mud Solids% 
 DFV .spqt               78.00:  Mud Viscosity 
 MWOD.in                  6.75:  MWD Tool OD 
 MWSI.                     Yes:  Serv Intrp, MWD 
 OTIM.hr                200.73:  Time Operating 
 PCON.           Look Like New:  Pad Condition 
 PMAX.psia            11069.93:  Press Op, Max 
 PV  .cP                 32.00:  Mud PV 
 RUN .                     700:  Run Number 
 ROPA.m/hr               10.00:  ROP Avg 
 ROPN.m/hr                9.00:  ROP Min 
 ROPX.m/hr               16.00:  ROP Max 
 RPMA.rpm               116.00:  RPM Surface Avg 
 RPMN.rpm                80.00:  RPM Surface Min 
 RPMX.rpm               120.00:  RPM Surface Max 
 RRUN.                    L605:  Rig Run Number 
 RTIM.hr                 45.00:  Time Reaming 
 SAZI.deg               159.86:  Azm, Start 
 SDEP.m                4315.00:  Start Depth 
 SIDD.                      No:  Serv Intrp, DD 
 SINC.deg                39.86:  Inc, Start 
 SPPA.psig             3300.00:  SPP Avg 
 SPPN.psig             3040.00:  SPP Min 
 SPPX.psig             3645.00:  SPP Max 
 STIM.      01.00.00 15-Jul-21:  Start Time 
 SVCS.                 DD, MWD:  Services 
 SVER.                    9.20:  Sperry Version 
 TDAT.m                 288.00:  Tot Depth Attmp 
 TDDF.                      No:  Trip for DD 
 TDLG.m                 288.00:  Tot Depth Loggd 
 TFF .                      No:  Trip for Fail 
 TQAA.f-kp               19.00:  Torque Abs Avg 
 TQAN.f-kp               18.00:  Torque Abs Min 
 TQAX.f-kp               21.00:  Torque Abs Max 
 TRRT.°/30m               0.45:  Turn Rotating 
 MRT .                    HCIM:  Maximum Recorded Temperature 
 TTMX.degC               88.24:  Max Tool Temp 
 VS01.                90649157:  Virtual Str1 SN 
 VS02.                90652483:  Virtual Str2 SN 
 VS03.                11671987:  Virtual Str3 SN 
 VS04.                90643411:  Virtual Str4 SN 
 VS05.                90652478:  Virtual Str5 SN 
 VS06.                    6111:  Virtual Str6 SN 
 WBMN.klb                 9.50:  WOB Min 
 WITN.        Grigoriy Sarayev:  Customer Rep 
 WITN.          Rufat Huseynov:  Customer Rep 2 
 WOBA.klb                11.00:  WOB Avg 
 WOBX.klb                15.00:  WOB Max 
 YP  .lhf2               28.00:  Yield Point 
~Curve Information Block
#MNEM.UNIT                 API CODE     Curve Description
#---------               -----------    ---------------------------
 TIME.HHMMSS            00 000 000 000:  GT Time & Date
 GTDEPTH.m              00 000 000 000:  GT Depth
 GTPQH.psia             00 000 000 000:  GT HR Quartz Pressure
 GTTQ.degC              00 000 000 000:  GT Quartz Temperature
 GTTN.NONE              00 000 000 000:  GT Test Number
 GTET.sec               00 000 000 000:  GT Elapsed Test Time
 GTTVD.m                00 000 000 000:  GT True Vertical Depth
#Other Information
#
#WARRANTY: Halliburton will use its best efforts to furnish customers with 
#accurate information and interpretations that are part of, and incident to, the services 
#provided.  However, Halliburton cannot and does not warrant the accuracy 
#or correctness of such information and interpretations.  Under no circumstances should any 
#such information or interpretation be relied upon as the sole basis for any drilling, 
#completion, production, or financial decision or any procedure involving any risk to the 
#safety of any drilling venture, drilling rig or its crew or any other third party.  The 
#Customer has full responsibility for all drilling, completion and production operation.  
#Halliburton makes no representations or warranties, either expressed or 
#implied, including, but not limited to, the implied warranties of merchantability or fitness 
#for a particular purpose, with respect to the services rendered.  In no event will 
#Halliburton be liable for failure to obtain any particular results or for 
#any damages, including, but not limited to, indirect, special or consequential damages, 
#resulting from the use of any information or interpretation provided by Halliburton.
#
~A           TIME           GTDEPTH  GTPQH  GTTQ  GTTN  GTET   GTTVD  
# ...
   14:50:41.839.18-Jul-2021 4553.00 6615.40 75.27 5.00 322.12 2740.81
   14:50:42.039.18-Jul-2021 4553.00 6615.40 75.27 5.00 322.32 2740.81
   14:50:42.239.18-Jul-2021 4553.00 6617.02 75.24 5.00 322.52 2740.81
   14:50:42.439.18-Jul-2021 4553.00 6614.77 75.27 5.00 322.72 2740.81
   14:50:42.639.18-Jul-2021 4553.00 6618.69 75.27 5.00 322.92 2740.81
   14:50:42.839.18-Jul-2021 4553.00 6617.05 75.27 5.00 323.12 2740.81
   14:50:43.039.18-Jul-2021 4553.00 6617.05 75.27 5.00 323.32 2740.81
   14:50:43.239.18-Jul-2021 4553.00 6616.75 75.27 5.00 323.52 2740.81
   14:50:43.439.18-Jul-2021 4553.00 6615.38 75.27 5.00 323.72 2740.81
   14:50:43.640.18-Jul-2021 4553.00 6617.64 75.27 5.00 323.92 2740.81
   14:50:43.840.18-Jul-2021 4553.00 6615.68 75.27 5.00 324.12 2740.81
   14:50:44.040.18-Jul-2021 4553.00 6615.68 75.27 5.00 324.32 2740.81
   14:50:44.240.18-Jul-2021 4553.00 6616.02 75.27 5.00 324.52 2740.81
   14:50:44.440.18-Jul-2021 4553.00 6614.66 75.27 5.00 324.72 2740.81
   14:50:44.640.18-Jul-2021 4553.00 6617.43 75.27 5.00 324.92 2740.81
   14:50:44.840.18-Jul-2021 4553.00 6616.81 75.27 5.00 325.12 2740.81
   14:50:45.040.18-Jul-2021 4553.00 6616.81 75.27 5.00 325.32 2740.81
   14:50:45.240.18-Jul-2021 4553.00 6616.21 75.27 5.00 325.52 2740.81
   14:50:45.440.18-Jul-2021 4553.00 6616.53 75.27 5.00 325.72 2740.81
   14:50:45.640.18-Jul-2021 4553.00 6616.81 75.27 5.00 325.92 2740.81
   14:50:45.840.18-Jul-2021 4553.00 6616.18 75.27 5.00 326.12 2740.81
   14:50:46.040.18-Jul-2021 4553.00 6616.18 75.27 5.00 326.32 2740.81
   14:50:46.241.18-Jul-2021 4553.00 6616.06 75.27 5.00 326.52 2740.81
   14:50:46.441.18-Jul-2021 4553.00 6615.77 75.27 5.00 326.72 2740.81
   14:50:46.641.18-Jul-2021 4553.00 6615.64 75.27 5.00 326.92 2740.81
   14:50:46.841.18-Jul-2021 4553.00 6615.99 75.27 5.00 327.12 2740.81
   14:50:47.041.18-Jul-2021 4553.00 6615.99 75.27 5.00 327.32 2740.81
   14:50:47.241.18-Jul-2021 4553.00 6615.68 75.27 5.00 327.52 2740.81
   14:50:47.441.18-Jul-2021 4553.00 6615.85 75.27 5.00 327.72 2740.81
   14:50:47.641.18-Jul-2021 4553.00 6615.83 75.27 5.00 327.92 2740.81
   14:50:47.841.18-Jul-2021 4553.00 6615.69 75.27 5.00 328.12 2740.81
   14:50:48.041.18-Jul-2021 4553.00 6615.69 75.27 5.00 328.32 2740.81
   14:50:48.241.18-Jul-2021 4553.00 6614.71 75.27 5.00 328.52 2740.81
   14:50:48.441.18-Jul-2021 4553.00 6617.54 75.27 5.00 328.72 2740.81
   14:50:48.641.18-Jul-2021 4553.00 6615.52 75.27 5.00 328.92 2740.81
   14:50:48.841.18-Jul-2021 4553.00 6616.17 75.27 5.00 329.12 2740.81
   14:50:49.042.18-Jul-2021 4553.00 6616.17 75.27 5.00 329.32 2740.81
   14:50:49.242.18-Jul-2021 4553.00 6615.48 75.27 5.00 329.52 2740.81
   14:50:49.442.18-Jul-2021 4553.00 6615.26 75.27 5.00 329.72 2740.81
   14:50:49.642.18-Jul-2021 4553.00 6615.30 75.28 5.00 329.92 2740.81
   14:50:49.842.18-Jul-2021 4553.00 6615.35 75.27 5.00 330.12 2740.81
   14:50:50.042.18-Jul-2021 4553.00 6615.35 75.27 5.00 330.32 2740.81
   14:50:50.242.18-Jul-2021 4553.00 6615.33 75.28 5.00 330.52 2740.81
   14:50:50.442.18-Jul-2021 4553.00 6615.23 75.27 5.00 330.72 2740.81
   14:50:50.642.18-Jul-2021 4553.00 6614.95 75.27 5.00 330.92 2740.81
   14:50:50.842.18-Jul-2021 4553.00 6614.63 75.28 5.00 331.12 2740.81
   14:50:51.042.18-Jul-2021 4553.00 6614.63 75.28 5.00 331.32 2740.81
   14:50:51.242.18-Jul-2021 4553.00 6615.64 75.28 5.00 331.52 2740.81
   14:50:51.442.18-Jul-2021 4553.00 6614.93 75.28 5.00 331.72 2740.81
   14:50:51.642.18-Jul-2021 4553.00 6618.24 75.28 5.00 331.92 2740.81
   14:50:51.843.18-Jul-2021 4553.00 6615.82 75.28 5.00 332.12 2740.81
   14:50:52.043.18-Jul-2021 4553.00 6615.82 75.28 5.00 332.32 2740.81
   14:50:52.243.18-Jul-2021 4553.00 6615.35 75.28 5.00 332.52 2740.81
   14:50:52.443.18-Jul-2021 4553.00 6615.58 75.28 5.00 332.72 2740.81
   14:50:52.643.18-Jul-2021 4553.00 6616.32 75.28 5.00 332.92 2740.81
   14:50:52.843.18-Jul-2021 4553.00 6615.24 75.28 5.00 333.12 2740.81
   14:50:53.043.18-Jul-2021 4553.00 6615.24 75.28 5.00 333.32 2740.81
   14:50:53.243.18-Jul-2021 4553.00 6614.76 75.28 5.00 333.52 2740.81
   14:50:53.443.18-Jul-2021 4553.00 6615.37 75.28 5.00 333.72 2740.81
   14:50:53.643.18-Jul-2021 4553.00 6616.35 75.28 5.00 333.92 2740.81
   14:50:53.843.18-Jul-2021 4553.00 6615.62 75.28 5.00 334.12 2740.81
   14:50:54.043.18-Jul-2021 4553.00 6615.62 75.28 5.00 334.32 2740.81
   14:50:54.243.18-Jul-2021 4553.00 6615.72 75.28 5.00 334.52 2740.81
   14:50:54.444.18-Jul-2021 4553.00 6616.10 75.28 5.00 334.72 2740.81
   14:50:54.644.18-Jul-2021 4553.00 6615.42 75.28 5.00 334.92 2740.81
   14:50:54.844.18-Jul-2021 4553.00 6616.28 75.28 5.00 335.12 2740.81
   14:50:55.044.18-Jul-2021 4553.00 6616.28 75.28 5.00 335.32 2740.81
   14:50:55.244.18-Jul-2021 4553.00 6615.34 75.28 5.00 335.52 2740.81
   14:50:55.444.18-Jul-2021 4553.00 6615.31 75.28 5.00 335.72 2740.81
   14:50:55.644.18-Jul-2021 4553.00 6615.38 75.28 5.00 335.92 2740.81
   14:50:55.844.18-Jul-2021 4553.00 6615.36 75.28 5.00 336.12 2740.81
   14:50:56.044.18-Jul-2021 4553.00 6615.36 75.28 5.00 336.32 2740.81
   14:50:56.244.18-Jul-2021 4553.00 6615.29 75.28 5.00 336.52 2740.81
   14:50:56.444.18-Jul-2021 4553.00 6615.22 75.28 5.00 336.72 2740.81
   14:50:56.644.18-Jul-2021 4553.00 6615.34 75.28 5.00 336.92 2740.81
   14:50:56.844.18-Jul-2021 4553.00 6614.87 75.28 5.00 337.12 2740.81
   14:50:57.044.18-Jul-2021 4553.00 6614.87 75.28 5.00 337.32 2740.81
   14:50:57.245.18-Jul-2021 4553.00 6617.07 75.28 5.00 337.52 2740.81
   14:50:57.445.18-Jul-2021 4553.00 6614.89 75.28 5.00 337.72 2740.81
   14:50:57.645.18-Jul-2021 4553.00 6615.81 75.28 5.00 337.92 2740.81
   14:50:57.845.18-Jul-2021 4553.00 6615.33 75.28 5.00 338.12 2740.81
   14:50:58.045.18-Jul-2021 4553.00 6615.33 75.28 5.00 338.32 2740.81
   14:50:58.245.18-Jul-2021 4553.00 6614.85 75.28 5.00 338.52 2740.81
   14:50:58.445.18-Jul-2021 4553.00 6614.80 75.28 5.00 338.72 2740.81
   14:50:58.645.18-Jul-2021 4553.00 6614.65 75.28 5.00 338.92 2740.81
   14:50:58.845.18-Jul-2021 4553.00 6614.62 75.28 5.00 339.12 2740.81
   14:50:59.045.18-Jul-2021 4553.00 6614.62 75.28 5.00 339.32 2740.81
   14:50:59.245.18-Jul-2021 4553.00 6614.59 75.28 5.00 339.53 2740.81
   14:50:59.445.18-Jul-2021 4553.00 6614.25 75.28 5.00 339.73 2740.81
   14:50:59.645.18-Jul-2021 4553.00 6613.62 75.28 5.00 339.93 2740.81
   14:50:59.846.18-Jul-2021 4553.00 6616.29 75.28 5.00 340.13 2740.81
   14:51:00.046.18-Jul-2021 4553.00 6616.29 75.28 5.00 340.33 2740.81
   14:51:00.246.18-Jul-2021 4553.00 6613.98 75.28 5.00 340.53 2740.81
   14:51:00.446.18-Jul-2021 4553.00 6617.40 75.28 5.00 340.73 2740.81
   14:51:00.646.18-Jul-2021 4553.00 6615.25 75.28 5.00 340.93 2740.81
   14:51:00.846.18-Jul-2021 4553.00 6615.51 75.28 5.00 341.13 2740.81
   14:51:01.046.18-Jul-2021 4553.00 6615.51 75.28 5.00 341.33 2740.81
   14:51:01.246.18-Jul-2021 4553.00 6616.24 75.28 5.00 341.53 2740.81
   14:51:01.446.18-Jul-2021 4553.00 6615.12 75.28 5.00 341.73 2740.81
   14:51:01.646.18-Jul-2021 4553.00 6615.19 75.28 5.00 341.93 2740.81
   14:51:01.846.18-Jul-2021 4553.00 6615.23 75.28 5.00 342.13 2740.81
   14:51:02.046.18-Jul-2021 4553.00 6615.23 75.28 5.00 342.33 2740.81
   14:51:02.246.18-Jul-2021 4553.00 6613.66 75.28 5.00 342.53 2740.81
   14:51:02.446.18-Jul-2021 4553.00 6616.75 75.28 5.00 342.73 2740.81
   14:51:02.647.18-Jul-2021 4553.00 6615.11 75.28 5.00 342.93 2740.81
   14:51:02.847.18-Jul-2021 4553.00 6615.01 75.28 5.00 343.13 2740.81
   14:51:03.047.18-Jul-2021 4553.00 6615.01 75.28 5.00 343.33 2740.81
   14:51:03.247.18-Jul-2021 4553.00 6615.08 75.28 5.00 343.53 2740.81
   14:51:03.447.18-Jul-2021 4553.00 6615.48 75.28 5.00 343.73 2740.81
   14:51:03.647.18-Jul-2021 4553.00 6615.45 75.28 5.00 343.93 2740.81
   14:51:03.847.18-Jul-2021 4553.00 6615.06 75.28 5.00 344.13 2740.81
   14:51:04.047.18-Jul-2021 4553.00 6615.06 75.28 5.00 344.33 2740.81
   14:51:04.247.18-Jul-2021 4553.00 6615.05 75.28 5.00 344.53 2740.81
   14:51:04.447.18-Jul-2021 4553.00 6614.85 75.28 5.00 344.73 2740.81
   14:51:04.647.18-Jul-2021 4553.00 6614.95 75.28 5.00 344.93 2740.81
