~Version Information
 VERS.                  2.0:   CWLS log ASCII Standard -VERSION 2.0
 WRAP.                   NO:   One line per depth step
~Well Information Block
#MNEM.UNIT     VALUE/NAME     DESCRIPTION
#---------     -----------    ---------------------------
 STRT.S             05:02:49 19-Jul-21: START TIME 05:02:49 19-Jul-21
 STOP.S             05:09:40 19-Jul-21: STOP TIME  05:09:40 19-Jul-21
 STEP.S                   0.00: STEP TIME
 NULL.                 -999.25: NULL VALUE
 MDS .        Operator Entered:  MAG DATA SOURCE
 PDAT.          Mean Sea Level:  PERMANENT DATUM
 UNIT.                     N/A:  LOGGING EQUIPMENT ID
 DCON.         Sperry Drilling:  DIRECTNL CONTR
 DOE .                     N/A:  DOE NUMBER
 RIG .              West Azeri:  RIG NAME
 JOBN.        AZ-XX-0906997913:  JOB TICKET NUMB
 WELL.                     C41:  WELL NAME
 MWDS.                    Baku:  MWD SHOP
 SRVC.          Turan Drilling:  CONTRACTOR
 FLD .                     ACG:  FIELD NAME
 CTRY.              Azerbaijan:  COUNTRY NAME
 PROV.                    Baku:  PROVINCE
 STAT.                    Baku:  STATE NAME
 REGN.                   EESSA:  REGION
 BASE.              Azerbaijan:  LOGGING EQUIPMENT BASE LOCATION
 UWI .                     N/A:  UNIQUE WELL IDENTIFIER
 API .                     N/A:  API NUMBER
 COMP.     BP Exploration (Caspian Sea) Ltd.:  COMPANY
 WTYP.                Deviated:  WELL TYPE
 SON .        AZ-XX-0906997913:  JOB NUMBER
 FTOP.          Formation Tops:  FORM TOPS DESC
 ILTD.               Lithology:  INTERP LTH DESC
 SVYD.                  Survey:  SURVEY DESC
 DMOD.             Drill Model:  DRILL MOD DESC
 HPTY.       Minimum Curvature:  HOLE POS TYPE
 NREF.                    Grid:  NORTH REFERENCE
 SPUD.               16-May-21:  SPUD DATE
 DATE.      21.11.28 17-May-21:  END TIME
 STIM.      21.11.28 17-May-21:  START TIME
 DMF .             Drill Floor:  DRILL MEAS FROM
 DFST.                        :  DIST FSL TEXT
 DFWT.                        :  DIST FWL TEXT
 CNTY.                        :  COUNTY
 LOC .                        :  LOCATION
 LMF .             Drill Floor:  LOG MEASURED FROM
 AGAP.m                  43.42:  AIR GAP
 VSNS.m                  -2.16:  VERT SEC N/S
 VSEW.m                  -6.24:  VERT SEC E/W
 APD .m                  43.42:  DEPTH ABOVE PD
 WDMS.m                 118.27:  WD ELEV
 EGL .m                   0.00:  GROUND ELEVATION
 EPD .m                   0.00:  ELEVATION
 AZTC.deg                 6.29:  AZM TOTAL CORR
 GRDC.deg                 0.18:  GRID CORRECTION
 MDEC.deg                 6.47:  MAGNETIC DECL
 MDIP.deg                59.54:  MAGNETIC DIP
 MFLD.nT              50337.00:  MAGNETIC FIELD
 GVFD.g                   1.00:  GRAVITY FIELD
 VSDR.deg               226.99:  VERT SEC DIRECT
 TDD .m                   0.00:  TOTAL DEPTH (DRILLER)
 SDEP.m                 448.00:  START DEPTH
 DFSL.m                   0.00:  DISTANCE FSL
 DFWL.m                   0.00:  DISTANCE FWL
 UTMY.m             4435799.96:  UTM Y
 UTMX.m              526265.35:  UTM X
 WHEW.m                  -6.24:  WELL HEAD E/W
 WHNS.m                  -2.16:  WELL HEAD N/S
 LONG.deg                51.31:  LONGITUDE
 LATI.deg                40.06:  LATITUDE
 TVDS.m                  43.42:  TVDSS CORRECTN
 EKB .m                  43.42:  KB ELEVATION
 EDF .m                  43.42:  DF ELEVATION
 TDL .m                 288.00:  TOTAL DEPTH (LOGGER)
 MAGU.                 1851863:  MAGUTM CHECKSUM
 VSC .                       0:  VS TO CLOSURE
~Parameter Information Block
#MNEM.UNIT       Value        Description
#---------     -----------    ---------------------------
 AV  .mps                 0.40:  Ann Velocity 
 AVMX.mps                 0.63:  Max Ann Veloc 
 AZIF.deg               158.76:  Azm, Final 
 BHAT.        Rotary Steerable:  BHA Type 
 BROT.°/30m               0.68:  Build Rotating 
 BS  .in                  8.50:  Bit Size 
 BSZ .in                  8.50:  Bit Size 
 BTPL.psig              712.00:  Bit Press Loss 
 CABU.                      No:  Customer Abuse 
 COMM.                     'i:  Run Comments 1 
 TCS .hr                 90.66:  Time Ciculation Ended 
 CV  .mps                 2.02:  Crit Velocity 
 CVMX.mps                 2.14:  Max Crit Veloc 
 DD1 .            Aziz Aliyevu:  Direct Drillr 1 
 DD2 .             Samir Abbas:  Direct Drillr 2 
 DD3 .           Teymur Aliyev:  Direct Drillr 3 
 DDSV.                 iCruise:  DD Service 
 DEFF.%                  85.10:  % Det Eff 
 DLRX.°/30m               1.05:  Dogleg Rot Max 
 DLSO.°/30m               1.01:  Dogleg Oriented 
 DLSX.°/30m               1.05:  Dogleg Str Max 
 DRET.      07.45.00 18-Jul-21:  Drill End Time 
 DRST.      15.00.00 16-Jul-21:  Drill Start Tim 
 DTIM.hr                 23.46:  Time Drilling 
 EDEP.m                4603.00:  End Depth 
 ENG1.       Seymur Iskandarov:  Engineer 1 
 ENG2.         Yevgeniy Ulikov:  Engineer 2 
 ENG3.         Bahruz Mehdiyev:  Engineer 3 
 ENG4.         Elchin Mammadov:  Engineer 4 
 ETIM.      14.00.00 23-Jul-21:  End Time 
 FLOI.gpm               500.00:  Flow In 
 FLON.gpm               450.00:  Flow In Min 
 FLOS.cptm                0.00:  Fluid Loss 
 FLOX.gpm               560.00:  Flow In Max 
 DFT .        Mineral Oil Base:  Mud Type 
 FTRO.       Formation Presure:  FTWD Run Obj 
 HFLO.                      No:  High Flow 
 HPRE.                      No:  High Pressure 
 HTEM.                      No:  High Temp 
 HYDO.m                   1.80:  Hydro Offset 
 IFIN.deg                40.22:  Inc, Final 
 IMAX.deg                40.54:  Inc Max 
 IMIN.deg                39.44:  Inc Min 
 IMND.m                4361.17:  Inc Min Depth 
 IMXD.m                4417.92:  Inc Max Depth 
 JARR.                      No:  Jarring 
 LETM.      07.45.00 18-Jul-21:  Log End Time 
 LOST.hr                    16:  Lost Rig Time 
 LSTM.      15.00.00 16-Jul-21:  Log Start Time 
 MDCL.ppm             36500.00:  Mud Chlorides 
 MDES.     Inversion Oil/Synthetic:  Mud Desc 
 DFD .sg                  1.42:  Mud Density 
 MDMN.sg                  1.42:  Dens Mud Min 
 MDMX.sg                  1.43:  Dens Mud Max 
 MOIL.                      56:  Run Mud Oil % 
 MOWR.                   71:29:  Run Mud OWR 
 MSND.                     0.5:  Run Mud Sand % 
 MSOL.                      21:  Run Mud Solids% 
 DFV .spqt               78.00:  Mud Viscosity 
 MWOD.in                  6.75:  MWD Tool OD 
 MWSI.                     Yes:  Serv Intrp, MWD 
 OTIM.hr                200.73:  Time Operating 
 PCON.           Look Like New:  Pad Condition 
 PMAX.psia            11069.93:  Press Op, Max 
 PV  .cP                 32.00:  Mud PV 
 RUN .                     700:  Run Number 
 ROPA.m/hr               10.00:  ROP Avg 
 ROPN.m/hr                9.00:  ROP Min 
 ROPX.m/hr               16.00:  ROP Max 
 RPMA.rpm               116.00:  RPM Surface Avg 
 RPMN.rpm                80.00:  RPM Surface Min 
 RPMX.rpm               120.00:  RPM Surface Max 
 RRUN.                    L605:  Rig Run Number 
 RTIM.hr                 45.00:  Time Reaming 
 SAZI.deg               159.86:  Azm, Start 
 SDEP.m                4315.00:  Start Depth 
 SIDD.                      No:  Serv Intrp, DD 
 SINC.deg                39.86:  Inc, Start 
 SPPA.psig             3300.00:  SPP Avg 
 SPPN.psig             3040.00:  SPP Min 
 SPPX.psig             3645.00:  SPP Max 
 STIM.      01.00.00 15-Jul-21:  Start Time 
 SVCS.                 DD, MWD:  Services 
 SVER.                    9.20:  Sperry Version 
 TDAT.m                 288.00:  Tot Depth Attmp 
 TDDF.                      No:  Trip for DD 
 TDLG.m                 288.00:  Tot Depth Loggd 
 TFF .                      No:  Trip for Fail 
 TQAA.f-kp               19.00:  Torque Abs Avg 
 TQAN.f-kp               18.00:  Torque Abs Min 
 TQAX.f-kp               21.00:  Torque Abs Max 
 TRRT.°/30m               0.45:  Turn Rotating 
 MRT .                    HCIM:  Maximum Recorded Temperature 
 TTMX.degC               88.24:  Max Tool Temp 
 VS01.                90649157:  Virtual Str1 SN 
 VS02.                90652483:  Virtual Str2 SN 
 VS03.                11671987:  Virtual Str3 SN 
 VS04.                90643411:  Virtual Str4 SN 
 VS05.                90652478:  Virtual Str5 SN 
 VS06.                    6111:  Virtual Str6 SN 
 WBMN.klb                 9.50:  WOB Min 
 WITN.        Grigoriy Sarayev:  Customer Rep 
 WITN.          Rufat Huseynov:  Customer Rep 2 
 WOBA.klb                11.00:  WOB Avg 
 WOBX.klb                15.00:  WOB Max 
 YP  .lhf2               28.00:  Yield Point 
~Curve Information Block
#MNEM.UNIT                 API CODE     Curve Description
#---------               -----------    ---------------------------
 TIME.HHMMSS            00 000 000 000:  GT Time & Date
 GTDEPTH.m              00 000 000 000:  GT Depth
 GTPQH.psia             00 000 000 000:  GT HR Quartz Pressure
 GTTQ.degC              00 000 000 000:  GT Quartz Temperature
 GTTN.NONE              00 000 000 000:  GT Test Number
 GTET.sec               00 000 000 000:  GT Elapsed Test Time
 GTTVD.m                00 000 000 000:  GT True Vertical Depth
#Other Information
#
#WARRANTY: Halliburton will use its best efforts to furnish customers with 
#accurate information and interpretations that are part of, and incident to, the services 
#provided.  However, Halliburton cannot and does not warrant the accuracy 
#or correctness of such information and interpretations.  Under no circumstances should any 
#such information or interpretation be relied upon as the sole basis for any drilling, 
#completion, production, or financial decision or any procedure involving any risk to the 
#safety of any drilling venture, drilling rig or its crew or any other third party.  The 
#Customer has full responsibility for all drilling, completion and production operation.  
#Halliburton makes no representations or warranties, either expressed or 
#implied, including, but not limited to, the implied warranties of merchantability or fitness 
#for a particular purpose, with respect to the services rendered.  In no event will 
#Halliburton be liable for failure to obtain any particular results or for 
#any damages, including, but not limited to, indirect, special or consequential damages, 
#resulting from the use of any information or interpretation provided by Halliburton.
#
~A           TIME           GTDEPTH  GTPQH  GTTQ  GTTN   GTET   GTTVD  
   05:02:49.665.19-Jul-2021 4356.00 6286.79 68.85 12.00   0.00 2590.09
   05:02:49.865.19-Jul-2021 4356.00 6286.79 68.85 12.00   0.20 2590.09
   05:02:50.065.19-Jul-2021 4356.00 6303.11 68.85 12.00   0.40 2590.09
   05:02:50.265.19-Jul-2021 4356.00 6277.60 68.85 12.00   0.60 2590.09
   05:02:50.465.19-Jul-2021 4356.00 6279.22 68.85 12.00   0.80 2590.09
   05:02:50.665.19-Jul-2021 4356.00 6288.53 68.85 12.00   1.00 2590.09
   05:02:50.865.19-Jul-2021 4356.00 6288.53 68.85 12.00   1.20 2590.09
   05:02:51.065.19-Jul-2021 4356.00 6282.76 68.85 12.00   1.40 2590.09
   05:02:51.265.19-Jul-2021 4356.00 6280.46 68.85 12.00   1.60 2590.09
   05:02:51.465.19-Jul-2021 4356.00 6281.17 68.85 12.00   1.80 2590.09
   05:02:51.665.19-Jul-2021 4356.00 6281.33 68.85 12.00   2.00 2590.09
   05:02:51.865.19-Jul-2021 4356.00 6281.33 68.85 12.00   2.20 2590.09
   05:02:52.066.19-Jul-2021 4356.00 6282.43 68.85 12.00   2.40 2590.09
   05:02:52.266.19-Jul-2021 4356.00 6281.53 68.85 12.00   2.60 2590.09
   05:02:52.466.19-Jul-2021 4356.00 6281.02 68.85 12.00   2.80 2590.09
   05:02:52.666.19-Jul-2021 4356.00 6281.53 68.85 12.00   3.00 2590.09
   05:02:52.866.19-Jul-2021 4356.00 6281.53 68.85 12.00   3.20 2590.09
   05:02:53.066.19-Jul-2021 4356.00 6282.39 68.85 12.00   3.40 2590.09
   05:02:53.266.19-Jul-2021 4356.00 6281.68 68.85 12.00   3.60 2590.09
   05:02:53.466.19-Jul-2021 4356.00 6298.06 68.85 12.00   3.80 2590.09
   05:02:53.666.19-Jul-2021 4356.00 6285.62 68.85 12.00   4.00 2590.09
   05:02:53.866.19-Jul-2021 4356.00 6285.62 68.85 12.00   4.20 2590.09
   05:02:54.066.19-Jul-2021 4356.00 6290.04 68.85 12.00   4.40 2590.09
   05:02:54.266.19-Jul-2021 4356.00 6303.89 68.85 12.00   4.60 2590.09
   05:02:54.466.19-Jul-2021 4356.00 6284.38 68.85 12.00   4.80 2590.09
   05:02:54.666.19-Jul-2021 4356.00 6286.09 68.85 12.00   5.00 2590.09
   05:02:54.867.19-Jul-2021 4356.00 6286.09 68.85 12.00   5.20 2590.09
   05:02:55.067.19-Jul-2021 4356.00 6301.65 68.85 12.00   5.40 2590.09
   05:02:55.267.19-Jul-2021 4356.00 6289.59 68.85 12.00   5.60 2590.09
   05:02:55.467.19-Jul-2021 4356.00 6285.11 68.84 12.00   5.80 2590.09
   05:02:55.667.19-Jul-2021 4356.00 6316.37 68.84 12.00   6.00 2590.09
   05:02:55.867.19-Jul-2021 4356.00 6316.37 68.84 12.00   6.20 2590.09
   05:02:56.067.19-Jul-2021 4356.00 6286.07 68.84 12.00   6.40 2590.09
   05:02:56.267.19-Jul-2021 4356.00 6297.56 68.84 12.00   6.60 2590.09
   05:02:56.467.19-Jul-2021 4356.00 6310.49 68.84 12.00   6.80 2590.09
   05:02:56.667.19-Jul-2021 4356.00 6284.85 68.84 12.00   7.00 2590.09
   05:02:56.867.19-Jul-2021 4356.00 6284.85 68.84 12.00   7.20 2590.09
   05:02:57.067.19-Jul-2021 4356.00 6322.19 68.84 12.00   7.40 2590.09
   05:02:57.267.19-Jul-2021 4356.00 6284.26 68.84 12.00   7.60 2590.09
   05:02:57.468.19-Jul-2021 4356.00 6290.18 68.84 12.00   7.80 2590.09
   05:02:57.668.19-Jul-2021 4356.00 6307.88 68.84 12.00   8.00 2590.09
   05:02:57.868.19-Jul-2021 4356.00 6307.88 68.84 12.00   8.20 2590.09
   05:02:58.068.19-Jul-2021 4356.00 6294.07 68.84 12.00   8.40 2590.09
   05:02:58.268.19-Jul-2021 4356.00 6298.79 68.84 12.00   8.60 2590.09
   05:02:58.468.19-Jul-2021 4356.00 6294.25 68.84 12.00   8.80 2590.09
   05:02:58.668.19-Jul-2021 4356.00 6293.59 68.84 12.00   9.00 2590.09
   05:02:58.868.19-Jul-2021 4356.00 6293.59 68.84 12.00   9.20 2590.09
   05:02:59.068.19-Jul-2021 4356.00 6291.74 68.84 12.00   9.40 2590.09
   05:02:59.268.19-Jul-2021 4356.00 6295.18 68.84 12.00   9.60 2590.09
   05:02:59.468.19-Jul-2021 4356.00 6299.63 68.84 12.00   9.80 2590.09
   05:02:59.668.19-Jul-2021 4356.00 6318.39 68.84 12.00  10.00 2590.09
   05:02:59.868.19-Jul-2021 4356.00 6318.39 68.84 12.00  10.20 2590.09
   05:03:00.068.19-Jul-2021 4356.00 6294.53 68.84 12.00  10.40 2590.09
   05:03:00.269.19-Jul-2021 4356.00 6329.29 68.84 12.00  10.60 2590.09
   05:03:00.469.19-Jul-2021 4356.00 6293.44 68.84 12.00  10.80 2590.09
   05:03:00.669.19-Jul-2021 4356.00 6306.14 68.84 12.00  11.00 2590.09
   05:03:00.869.19-Jul-2021 4356.00 6306.14 68.84 12.00  11.20 2590.09
   05:03:01.069.19-Jul-2021 4356.00 6299.62 68.84 12.00  11.40 2590.09
   05:03:01.269.19-Jul-2021 4356.00 6310.08 68.84 12.00  11.60 2590.09
   05:03:01.469.19-Jul-2021 4356.00 6302.96 68.84 12.00  11.80 2590.09
   05:03:01.669.19-Jul-2021 4356.00 6302.32 68.84 12.00  12.00 2590.09
   05:03:01.869.19-Jul-2021 4356.00 6302.32 68.84 12.00  12.20 2590.09
   05:03:02.069.19-Jul-2021 4356.00 6301.91 68.84 12.00  12.40 2590.09
   05:03:02.269.19-Jul-2021 4356.00 6301.77 68.84 12.00  12.60 2590.09
   05:03:02.469.19-Jul-2021 4356.00 6299.55 68.84 12.00  12.80 2590.09
   05:03:02.669.19-Jul-2021 4356.00 6299.60 68.84 12.00  13.00 2590.09
   05:03:02.870.19-Jul-2021 4356.00 6299.60 68.84 12.00  13.20 2590.09
   05:03:03.070.19-Jul-2021 4356.00 6299.60 68.84 12.00  13.40 2590.09
   05:03:03.270.19-Jul-2021 4356.00 6299.26 68.84 12.00  13.61 2590.09
   05:03:03.470.19-Jul-2021 4356.00 6315.34 68.84 12.00  13.81 2590.09
   05:03:03.670.19-Jul-2021 4356.00 6302.72 68.84 12.00  14.01 2590.09
   05:03:03.870.19-Jul-2021 4356.00 6302.72 68.84 12.00  14.21 2590.09
   05:03:04.070.19-Jul-2021 4356.00 6307.00 68.84 12.00  14.41 2590.09
   05:03:04.270.19-Jul-2021 4356.00 6300.79 68.84 12.00  14.61 2590.09
   05:03:04.470.19-Jul-2021 4356.00 6301.03 68.84 12.00  14.81 2590.09
   05:03:04.670.19-Jul-2021 4356.00 6301.65 68.84 12.00  15.01 2590.09
   05:03:04.870.19-Jul-2021 4356.00 6301.65 68.84 12.00  15.21 2590.09
   05:03:05.070.19-Jul-2021 4356.00 6301.39 68.84 12.00  15.41 2590.09
   05:03:05.270.19-Jul-2021 4356.00 6299.16 68.84 12.00  15.61 2590.09
   05:03:05.470.19-Jul-2021 4356.00 6299.95 68.84 12.00  15.81 2590.09
   05:03:05.671.19-Jul-2021 4356.00 6299.97 68.84 12.00  16.01 2590.09
   05:03:05.871.19-Jul-2021 4356.00 6299.97 68.84 12.00  16.21 2590.09
   05:03:06.071.19-Jul-2021 4356.00 6298.31 68.84 12.00  16.41 2590.09
   05:03:06.271.19-Jul-2021 4356.00 6317.85 68.84 12.00  16.61 2590.09
   05:03:06.471.19-Jul-2021 4356.00 6297.71 68.84 12.00  16.81 2590.09
   05:03:06.671.19-Jul-2021 4356.00 6300.74 68.84 12.00  17.01 2590.09
   05:03:06.871.19-Jul-2021 4356.00 6300.74 68.84 12.00  17.21 2590.09
   05:03:07.071.19-Jul-2021 4356.00 6315.01 68.84 12.00  17.41 2590.09
   05:03:07.271.19-Jul-2021 4356.00 6304.27 68.84 12.00  17.61 2590.09
   05:03:07.471.19-Jul-2021 4356.00 6299.94 68.84 12.00  17.81 2590.09
   05:03:07.671.19-Jul-2021 4356.00 6308.43 68.84 12.00  18.01 2590.09
   05:03:07.871.19-Jul-2021 4356.00 6308.43 68.84 12.00  18.21 2590.09
   05:03:08.071.19-Jul-2021 4356.00 6321.60 68.84 12.00  18.41 2590.09
   05:03:08.272.19-Jul-2021 4356.00 6302.78 68.84 12.00  18.61 2590.09
   05:03:08.472.19-Jul-2021 4356.00 6302.53 68.84 12.00  18.81 2590.09
   05:03:08.672.19-Jul-2021 4356.00 6308.95 68.84 12.00  19.01 2590.09
   05:03:08.872.19-Jul-2021 4356.00 6308.95 68.84 12.00  19.21 2590.09
   05:03:09.072.19-Jul-2021 4356.00 6301.27 68.84 12.00  19.41 2590.09
   05:03:09.272.19-Jul-2021 4356.00 6301.77 68.84 12.00  19.61 2590.09
   05:03:09.472.19-Jul-2021 4356.00 6331.60 68.84 12.00  19.81 2590.09
   05:03:09.672.19-Jul-2021 4356.00 6303.59 68.84 12.00  20.01 2590.09
   05:03:09.872.19-Jul-2021 4356.00 6303.59 68.84 12.00  20.21 2590.09
   05:03:10.072.19-Jul-2021 4356.00 6311.15 68.84 12.00  20.41 2590.09
   05:03:10.272.19-Jul-2021 4356.00 6306.98 68.84 12.00  20.61 2590.09
   05:03:10.472.19-Jul-2021 4356.00 6332.80 68.84 12.00  20.81 2590.09
   05:03:10.672.19-Jul-2021 4356.00 6302.17 68.84 12.00  21.01 2590.09
   05:03:10.872.19-Jul-2021 4356.00 6302.17 68.84 12.00  21.21 2590.09
   05:03:11.073.19-Jul-2021 4356.00 6316.93 68.84 12.00  21.41 2590.09
   05:03:11.273.19-Jul-2021 4356.00 6308.77 68.84 12.00  21.61 2590.09
   05:03:11.473.19-Jul-2021 4356.00 6311.11 68.84 12.00  21.81 2590.09
   05:03:11.673.19-Jul-2021 4356.00 6309.00 68.84 12.00  22.01 2590.09
   05:03:11.873.19-Jul-2021 4356.00 6309.00 68.84 12.00  22.21 2590.09
   05:03:12.073.19-Jul-2021 4356.00 6307.94 68.84 12.00  22.41 2590.09
