~Version Information
 VERS.                  2.0:   CWLS log ASCII Standard -VERSION 2.0
 WRAP.                   NO:   One line per depth step
~Well Information Block
#MNEM.UNIT     VALUE/NAME     DESCRIPTION
#---------     -----------    ---------------------------
 STRT.S             06:08:07 19-Jul-21: START TIME 06:08:07 19-Jul-21
 STOP.S             06:15:04 19-Jul-21: STOP TIME  06:15:04 19-Jul-21
 STEP.S                   0.00: STEP TIME
 NULL.                 -999.25: NULL VALUE
 MDS .        Operator Entered:  MAG DATA SOURCE
 PDAT.          Mean Sea Level:  PERMANENT DATUM
 UNIT.                     N/A:  LOGGING EQUIPMENT ID
 DCON.         Sperry Drilling:  DIRECTNL CONTR
 DOE .                     N/A:  DOE NUMBER
 RIG .              West Azeri:  RIG NAME
 JOBN.        AZ-XX-0906997913:  JOB TICKET NUMB
 WELL.                     C41:  WELL NAME
 MWDS.                    Baku:  MWD SHOP
 SRVC.          Turan Drilling:  CONTRACTOR
 FLD .                     ACG:  FIELD NAME
 CTRY.              Azerbaijan:  COUNTRY NAME
 PROV.                    Baku:  PROVINCE
 STAT.                    Baku:  STATE NAME
 REGN.                   EESSA:  REGION
 BASE.              Azerbaijan:  LOGGING EQUIPMENT BASE LOCATION
 UWI .                     N/A:  UNIQUE WELL IDENTIFIER
 API .                     N/A:  API NUMBER
 COMP.     BP Exploration (Caspian Sea) Ltd.:  COMPANY
 WTYP.                Deviated:  WELL TYPE
 SON .        AZ-XX-0906997913:  JOB NUMBER
 FTOP.          Formation Tops:  FORM TOPS DESC
 ILTD.               Lithology:  INTERP LTH DESC
 SVYD.                  Survey:  SURVEY DESC
 DMOD.             Drill Model:  DRILL MOD DESC
 HPTY.       Minimum Curvature:  HOLE POS TYPE
 NREF.                    Grid:  NORTH REFERENCE
 SPUD.               16-May-21:  SPUD DATE
 DATE.      21.11.28 17-May-21:  END TIME
 STIM.      21.11.28 17-May-21:  START TIME
 DMF .             Drill Floor:  DRILL MEAS FROM
 DFST.                        :  DIST FSL TEXT
 DFWT.                        :  DIST FWL TEXT
 CNTY.                        :  COUNTY
 LOC .                        :  LOCATION
 LMF .             Drill Floor:  LOG MEASURED FROM
 AGAP.m                  43.42:  AIR GAP
 VSNS.m                  -2.16:  VERT SEC N/S
 VSEW.m                  -6.24:  VERT SEC E/W
 APD .m                  43.42:  DEPTH ABOVE PD
 WDMS.m                 118.27:  WD ELEV
 EGL .m                   0.00:  GROUND ELEVATION
 EPD .m                   0.00:  ELEVATION
 AZTC.deg                 6.29:  AZM TOTAL CORR
 GRDC.deg                 0.18:  GRID CORRECTION
 MDEC.deg                 6.47:  MAGNETIC DECL
 MDIP.deg                59.54:  MAGNETIC DIP
 MFLD.nT              50337.00:  MAGNETIC FIELD
 GVFD.g                   1.00:  GRAVITY FIELD
 VSDR.deg               226.99:  VERT SEC DIRECT
 TDD .m                   0.00:  TOTAL DEPTH (DRILLER)
 SDEP.m                 448.00:  START DEPTH
 DFSL.m                   0.00:  DISTANCE FSL
 DFWL.m                   0.00:  DISTANCE FWL
 UTMY.m             4435799.96:  UTM Y
 UTMX.m              526265.35:  UTM X
 WHEW.m                  -6.24:  WELL HEAD E/W
 WHNS.m                  -2.16:  WELL HEAD N/S
 LONG.deg                51.31:  LONGITUDE
 LATI.deg                40.06:  LATITUDE
 TVDS.m                  43.42:  TVDSS CORRECTN
 EKB .m                  43.42:  KB ELEVATION
 EDF .m                  43.42:  DF ELEVATION
 TDL .m                 288.00:  TOTAL DEPTH (LOGGER)
 MAGU.                 1851863:  MAGUTM CHECKSUM
 VSC .                       0:  VS TO CLOSURE
~Parameter Information Block
#MNEM.UNIT       Value        Description
#---------     -----------    ---------------------------
 AV  .mps                 0.40:  Ann Velocity 
 AVMX.mps                 0.63:  Max Ann Veloc 
 AZIF.deg               158.76:  Azm, Final 
 BHAT.        Rotary Steerable:  BHA Type 
 BROT.°/30m               0.68:  Build Rotating 
 BS  .in                  8.50:  Bit Size 
 BSZ .in                  8.50:  Bit Size 
 BTPL.psig              712.00:  Bit Press Loss 
 CABU.                      No:  Customer Abuse 
 TCS .hr                 90.66:  Time Ciculation Ended 
 CV  .mps                 2.02:  Crit Velocity 
 CVMX.mps                 2.14:  Max Crit Veloc 
 DD1 .            Aziz Aliyevu:  Direct Drillr 1 
 DD2 .             Samir Abbas:  Direct Drillr 2 
 DD3 .           Teymur Aliyev:  Direct Drillr 3 
 DDSV.                 iCruise:  DD Service 
 DEFF.%                  85.10:  % Det Eff 
 DLRX.°/30m               1.05:  Dogleg Rot Max 
 DLSO.°/30m               1.01:  Dogleg Oriented 
 DLSX.°/30m               1.05:  Dogleg Str Max 
 DRET.      07.45.00 18-Jul-21:  Drill End Time 
 DRST.      15.00.00 16-Jul-21:  Drill Start Tim 
 DTIM.hr                 23.46:  Time Drilling 
 EDEP.m                4603.00:  End Depth 
 ENG1.       Seymur Iskandarov:  Engineer 1 
 ENG2.         Yevgeniy Ulikov:  Engineer 2 
 ENG3.         Bahruz Mehdiyev:  Engineer 3 
 ENG4.         Elchin Mammadov:  Engineer 4 
 ETIM.      14.00.00 23-Jul-21:  End Time 
 FLOI.gpm               500.00:  Flow In 
 FLON.gpm               450.00:  Flow In Min 
 FLOS.cptm                0.00:  Fluid Loss 
 FLOX.gpm               560.00:  Flow In Max 
 DFT .        Mineral Oil Base:  Mud Type 
 FTRO.       Formation Presure:  FTWD Run Obj 
 HFLO.                      No:  High Flow 
 HPRE.                      No:  High Pressure 
 HTEM.                      No:  High Temp 
 HYDO.m                   1.80:  Hydro Offset 
 IFIN.deg                40.22:  Inc, Final 
 IMAX.deg                40.54:  Inc Max 
 IMIN.deg                39.44:  Inc Min 
 IMND.m                4361.17:  Inc Min Depth 
 IMXD.m                4417.92:  Inc Max Depth 
 JARR.                      No:  Jarring 
 LETM.      07.45.00 18-Jul-21:  Log End Time 
 LOST.hr                    16:  Lost Rig Time 
 LSTM.      15.00.00 16-Jul-21:  Log Start Time 
 MDCL.ppm             36500.00:  Mud Chlorides 
 MDES.     Inversion Oil/Synthetic:  Mud Desc 
 DFD .sg                  1.42:  Mud Density 
 MDMN.sg                  1.42:  Dens Mud Min 
 MDMX.sg                  1.43:  Dens Mud Max 
 MOIL.                      56:  Run Mud Oil % 
 MOWR.                   71:29:  Run Mud OWR 
 MSND.                     0.5:  Run Mud Sand % 
 MSOL.                      21:  Run Mud Solids% 
 DFV .spqt               78.00:  Mud Viscosity 
 MWOD.in                  6.75:  MWD Tool OD 
 MWSI.                     Yes:  Serv Intrp, MWD 
 OTIM.hr                200.73:  Time Operating 
 PCON.           Look Like New:  Pad Condition 
 PMAX.psia            11069.93:  Press Op, Max 
 PV  .cP                 32.00:  Mud PV 
 RUN .                     700:  Run Number 
 ROPA.m/hr               10.00:  ROP Avg 
 ROPN.m/hr                9.00:  ROP Min 
 ROPX.m/hr               16.00:  ROP Max 
 RPMA.rpm               116.00:  RPM Surface Avg 
 RPMN.rpm                80.00:  RPM Surface Min 
 RPMX.rpm               120.00:  RPM Surface Max 
 RRUN.                    L605:  Rig Run Number 
 RTIM.hr                 45.00:  Time Reaming 
 SAZI.deg               159.86:  Azm, Start 
 SDEP.m                4315.00:  Start Depth 
 SIDD.                      No:  Serv Intrp, DD 
 SINC.deg                39.86:  Inc, Start 
 SPPA.psig             3300.00:  SPP Avg 
 SPPN.psig             3040.00:  SPP Min 
 SPPX.psig             3645.00:  SPP Max 
 STIM.      01.00.00 15-Jul-21:  Start Time 
 SVCS.                 DD, MWD:  Services 
 SVER.                    9.20:  Sperry Version 
 TDAT.m                 288.00:  Tot Depth Attmp 
 TDDF.                      No:  Trip for DD 
 TDLG.m                 288.00:  Tot Depth Loggd 
 TFF .                      No:  Trip for Fail 
 TQAA.f-kp               19.00:  Torque Abs Avg 
 TQAN.f-kp               18.00:  Torque Abs Min 
 TQAX.f-kp               21.00:  Torque Abs Max 
 TRRT.°/30m               0.45:  Turn Rotating 
 MRT .                    HCIM:  Maximum Recorded Temperature 
 TTMX.degC               88.24:  Max Tool Temp 
 VS01.                90649157:  Virtual Str1 SN 
 VS02.                90652483:  Virtual Str2 SN 
 VS03.                11671987:  Virtual Str3 SN 
 VS04.                90643411:  Virtual Str4 SN 
 VS05.                90652478:  Virtual Str5 SN 
 VS06.                    6111:  Virtual Str6 SN 
 WBMN.klb                 9.50:  WOB Min 
 WITN.        Grigoriy Sarayev:  Customer Rep 
 WITN.          Rufat Huseynov:  Customer Rep 2 
 WOBA.klb                11.00:  WOB Avg 
 WOBX.klb                15.00:  WOB Max 
 YP  .lhf2               28.00:  Yield Point 
~Curve Information Block
#MNEM.UNIT                 API CODE     Curve Description
#---------               -----------    ---------------------------
 TIME.HHMMSS            00 000 000 000:  GT Time & Date
 GTDEPTH.m              00 000 000 000:  GT Depth
 GTPQH.psia             00 000 000 000:  GT HR Quartz Pressure
 GTTQ.degC              00 000 000 000:  GT Quartz Temperature
 GTTN.NONE              00 000 000 000:  GT Test Number
 GTET.sec               00 000 000 000:  GT Elapsed Test Time
 GTTVD.m                00 000 000 000:  GT True Vertical Depth
#Other Information
#
#WARRANTY: Halliburton will use its best efforts to furnish customers with 
#accurate information and interpretations that are part of, and incident to, the services 
#provided.  However, Halliburton cannot and does not warrant the accuracy 
#or correctness of such information and interpretations.  Under no circumstances should any 
#such information or interpretation be relied upon as the sole basis for any drilling, 
#completion, production, or financial decision or any procedure involving any risk to the 
#safety of any drilling venture, drilling rig or its crew or any other third party.  The 
#Customer has full responsibility for all drilling, completion and production operation.  
#Halliburton makes no representations or warranties, either expressed or 
#implied, including, but not limited to, the implied warranties of merchantability or fitness 
#for a particular purpose, with respect to the services rendered.  In no event will 
#Halliburton be liable for failure to obtain any particular results or for 
#any damages, including, but not limited to, indirect, special or consequential damages, 
#resulting from the use of any information or interpretation provided by Halliburton.
#
~A           TIME           GTDEPTH  GTPQH  GTTQ  GTTN   GTET   GTTVD  
# ...
   06:08:29.715.19-Jul-2021 4380.90 6318.38 69.35 14.00  22.61 2609.29
   06:08:29.915.19-Jul-2021 4380.90 6318.40 69.35 14.00  22.81 2609.29
   06:08:30.116.19-Jul-2021 4380.90 6318.66 69.35 14.00  23.01 2609.29
   06:08:30.316.19-Jul-2021 4380.90 6318.66 69.35 14.00  23.21 2609.29
   06:08:30.516.19-Jul-2021 4380.90 6317.63 69.35 14.00  23.41 2609.29
   06:08:30.716.19-Jul-2021 4380.90 6322.53 69.35 14.00  23.61 2609.29
   06:08:30.916.19-Jul-2021 4380.90 6336.91 69.35 14.00  23.81 2609.29
   06:08:31.116.19-Jul-2021 4380.90 6318.19 69.35 14.00  24.01 2609.29
   06:08:31.316.19-Jul-2021 4380.90 6318.19 69.35 14.00  24.21 2609.29
   06:08:31.516.19-Jul-2021 4380.90 6330.71 69.35 14.00  24.41 2609.29
   06:08:31.716.19-Jul-2021 4380.90 6318.86 69.35 14.00  24.61 2609.29
   06:08:31.916.19-Jul-2021 4380.90 6328.23 69.35 14.00  24.81 2609.29
   06:08:32.116.19-Jul-2021 4380.90 6320.27 69.35 14.00  25.01 2609.29
   06:08:32.316.19-Jul-2021 4380.90 6320.27 69.35 14.00  25.21 2609.29
   06:08:32.516.19-Jul-2021 4380.90 6338.26 69.35 14.00  25.41 2609.29
   06:08:32.717.19-Jul-2021 4380.90 6319.77 69.35 14.00  25.61 2609.29
   06:08:32.917.19-Jul-2021 4380.90 6345.84 69.35 14.00  25.81 2609.29
   06:08:33.117.19-Jul-2021 4380.90 6323.65 69.35 14.00  26.01 2609.29
   06:08:33.317.19-Jul-2021 4380.90 6323.65 69.35 14.00  26.21 2609.29
   06:08:33.517.19-Jul-2021 4380.90 6330.44 69.35 14.00  26.41 2609.29
   06:08:33.717.19-Jul-2021 4380.90 6322.38 69.35 14.00  26.61 2609.29
   06:08:33.917.19-Jul-2021 4380.90 6339.47 69.35 14.00  26.81 2609.29
   06:08:34.117.19-Jul-2021 4380.90 6332.58 69.35 14.00  27.01 2609.29
   06:08:34.317.19-Jul-2021 4380.90 6332.58 69.35 14.00  27.21 2609.29
   06:08:34.517.19-Jul-2021 4380.90 6331.15 69.35 14.00  27.41 2609.29
   06:08:34.717.19-Jul-2021 4380.90 6325.17 69.35 14.00  27.61 2609.29
   06:08:34.917.19-Jul-2021 4380.90 6326.89 69.35 14.00  27.81 2609.29
   06:08:35.117.19-Jul-2021 4380.90 6326.46 69.35 14.00  28.01 2609.29
   06:08:35.317.19-Jul-2021 4380.90 6326.46 69.35 14.00  28.21 2609.29
   06:08:35.518.19-Jul-2021 4380.90 6325.59 69.35 14.00  28.41 2609.29
   06:08:35.718.19-Jul-2021 4380.90 6325.02 69.35 14.00  28.61 2609.29
   06:08:35.918.19-Jul-2021 4380.90 6325.02 69.35 14.00  28.81 2609.29
   06:08:36.118.19-Jul-2021 4380.90 6325.31 69.35 14.00  29.01 2609.29
   06:08:36.318.19-Jul-2021 4380.90 6325.31 69.35 14.00  29.21 2609.29
   06:08:36.518.19-Jul-2021 4380.90 6323.61 69.35 14.00  29.41 2609.29
   06:08:36.718.19-Jul-2021 4380.90 6327.46 69.35 14.00  29.61 2609.29
   06:08:36.918.19-Jul-2021 4380.90 6342.09 69.35 14.00  29.81 2609.29
   06:08:37.118.19-Jul-2021 4380.90 6323.94 69.35 14.00  30.01 2609.29
   06:08:37.318.19-Jul-2021 4380.90 6323.94 69.35 14.00  30.21 2609.29
   06:08:37.518.19-Jul-2021 4380.90 6326.89 69.35 14.00  30.41 2609.29
   06:08:37.718.19-Jul-2021 4380.90 6327.42 69.35 14.00  30.61 2609.29
   06:08:37.918.19-Jul-2021 4380.90 6327.89 69.35 14.00  30.81 2609.29
   06:08:38.119.19-Jul-2021 4380.90 6326.83 69.35 14.00  31.01 2609.29
   06:08:38.319.19-Jul-2021 4380.90 6326.83 69.35 14.00  31.21 2609.29
   06:08:38.519.19-Jul-2021 4380.90 6327.37 69.35 14.00  31.41 2609.29
   06:08:38.719.19-Jul-2021 4380.90 6328.11 69.35 14.00  31.61 2609.29
   06:08:38.919.19-Jul-2021 4380.90 6312.45 69.35 14.00  31.81 2609.29
   06:08:39.119.19-Jul-2021 4380.90 6261.11 69.35 14.00  32.01 2609.29
   06:08:39.319.19-Jul-2021 4380.90 6261.11 69.35 14.00  32.21 2609.29
   06:08:39.519.19-Jul-2021 4380.90 6216.20 69.35 14.00  32.41 2609.29
   06:08:39.719.19-Jul-2021 4380.90 6195.02 69.35 14.00  32.61 2609.29
   06:08:39.919.19-Jul-2021 4380.90 6182.06 69.35 14.00  32.81 2609.29
   06:08:40.119.19-Jul-2021 4380.90 6164.76 69.35 14.00  33.01 2609.29
   06:08:40.319.19-Jul-2021 4380.90 6164.76 69.35 14.00  33.21 2609.29
   06:08:40.519.19-Jul-2021 4380.90 6140.62 69.35 14.00  33.41 2609.29
   06:08:40.719.19-Jul-2021 4380.90 6111.63 69.35 14.00  33.61 2609.29
   06:08:40.920.19-Jul-2021 4380.90 6070.57 69.35 14.00  33.81 2609.29
   06:08:41.120.19-Jul-2021 4380.90 6033.22 69.35 14.00  34.01 2609.29
   06:08:41.320.19-Jul-2021 4380.90 6033.22 69.35 14.00  34.21 2609.29
   06:08:41.520.19-Jul-2021 4380.90 5971.64 69.35 14.00  34.41 2609.29
   06:08:41.720.19-Jul-2021 4380.90 5957.06 69.35 14.00  34.61 2609.29
   06:08:41.920.19-Jul-2021 4380.90 5945.17 69.35 14.00  34.81 2609.29
   06:08:42.120.19-Jul-2021 4380.90 5939.95 69.35 14.00  35.01 2609.29
   06:08:42.320.19-Jul-2021 4380.90 5939.95 69.35 14.00  35.21 2609.29
   06:08:42.520.19-Jul-2021 4380.90 5931.55 69.35 14.00  35.41 2609.29
   06:08:42.720.19-Jul-2021 4380.90 5928.20 69.35 14.00  35.61 2609.29
   06:08:42.920.19-Jul-2021 4380.90 5927.23 69.35 14.00  35.81 2609.29
   06:08:43.120.19-Jul-2021 4380.90 5926.24 69.35 14.00  36.01 2609.29
   06:08:43.320.19-Jul-2021 4380.90 5926.24 69.35 14.00  36.21 2609.29
   06:08:43.520.19-Jul-2021 4380.90 5925.03 69.34 14.00  36.41 2609.29
   06:08:43.721.19-Jul-2021 4380.90 5924.80 69.34 14.00  36.61 2609.29
   06:08:43.921.19-Jul-2021 4380.90 5924.55 69.34 14.00  36.81 2609.29
   06:08:44.121.19-Jul-2021 4380.90 5924.37 69.34 14.00  37.01 2609.29
   06:08:44.321.19-Jul-2021 4380.90 5924.37 69.34 14.00  37.21 2609.29
   06:08:44.521.19-Jul-2021 4380.90 5924.31 69.34 14.00  37.41 2609.29
   06:08:44.721.19-Jul-2021 4380.90 5924.13 69.34 14.00  37.61 2609.29
   06:08:44.921.19-Jul-2021 4380.90 5923.90 69.34 14.00  37.81 2609.29
   06:08:45.121.19-Jul-2021 4380.90 5921.74 69.34 14.00  38.01 2609.29
   06:08:45.321.19-Jul-2021 4380.90 5921.74 69.34 14.00  38.21 2609.29
   06:08:45.521.19-Jul-2021 4380.90 5919.00 69.34 14.00  38.41 2609.29
   06:08:45.721.19-Jul-2021 4380.90 5918.28 69.34 14.00  38.61 2609.29
   06:08:45.921.19-Jul-2021 4380.90 5917.69 69.34 14.00  38.81 2609.29
   06:08:46.121.19-Jul-2021 4380.90 5474.57 69.34 14.00  39.01 2609.29
   06:08:46.322.19-Jul-2021 4380.90 5474.57 69.34 14.00  39.21 2609.29
   06:08:46.522.19-Jul-2021 4380.90 3503.93 69.34 14.00  39.41 2609.29
   06:08:46.722.19-Jul-2021 4380.90 3170.14 69.34 14.00  39.61 2609.29
   06:08:46.922.19-Jul-2021 4380.90 3587.25 69.34 14.00  39.81 2609.29
   06:08:47.122.19-Jul-2021 4380.90 3785.67 69.34 14.00  40.01 2609.29
   06:08:47.322.19-Jul-2021 4380.90 3785.67 69.34 14.00  40.21 2609.29
   06:08:47.522.19-Jul-2021 4380.90 3831.32 69.34 14.00  40.41 2609.29
   06:08:47.722.19-Jul-2021 4380.90 3844.81 69.33 14.00  40.61 2609.29
   06:08:47.922.19-Jul-2021 4380.90 3847.37 69.33 14.00  40.82 2609.29
   06:08:48.122.19-Jul-2021 4380.90 3836.77 69.33 14.00  41.02 2609.29
   06:08:48.322.19-Jul-2021 4380.90 3836.77 69.33 14.00  41.22 2609.29
   06:08:48.522.19-Jul-2021 4380.90 3847.43 69.33 14.00  41.42 2609.29
   06:08:48.722.19-Jul-2021 4380.90 3855.78 69.33 14.00  41.62 2609.29
   06:08:48.922.19-Jul-2021 4380.90 3855.00 69.33 14.00  41.82 2609.29
   06:08:49.123.19-Jul-2021 4380.90 3850.56 69.33 14.00  42.02 2609.29
   06:08:49.323.19-Jul-2021 4380.90 3850.56 69.33 14.00  42.22 2609.29
   06:08:49.523.19-Jul-2021 4380.90 3845.56 69.32 14.00  42.42 2609.29
   06:08:49.723.19-Jul-2021 4380.90 3856.40 69.32 14.00  42.62 2609.29
   06:08:49.923.19-Jul-2021 4380.90 3843.42 69.32 14.00  42.82 2609.29
   06:08:50.123.19-Jul-2021 4380.90 3848.66 69.32 14.00  43.02 2609.29
   06:08:50.323.19-Jul-2021 4380.90 3848.66 69.32 14.00  43.22 2609.29
   06:08:50.523.19-Jul-2021 4380.90 3849.40 69.32 14.00  43.42 2609.29
   06:08:50.723.19-Jul-2021 4380.90 3833.59 69.31 14.00  43.62 2609.29
   06:08:50.923.19-Jul-2021 4380.90 3833.81 69.31 14.00  43.82 2609.29
   06:08:51.123.19-Jul-2021 4380.90 3837.99 69.31 14.00  44.02 2609.29
   06:08:51.323.19-Jul-2021 4380.90 3837.99 69.31 14.00  44.22 2609.29
   06:08:51.523.19-Jul-2021 4380.90 3829.14 69.31 14.00  44.42 2609.29
   06:08:51.724.19-Jul-2021 4380.90 3828.70 69.31 14.00  44.62 2609.29
   06:08:51.924.19-Jul-2021 4380.90 3824.66 69.31 14.00  44.82 2609.29
   06:08:52.124.19-Jul-2021 4380.90 3827.70 69.30 14.00  45.02 2609.29
