~Version Information
 VERS.                  2.0:   CWLS log ASCII Standard -VERSION 2.0
 WRAP.                   NO:   One line per depth step
~Well Information Block
#MNEM.UNIT     VALUE/NAME     DESCRIPTION
#---------     -----------    ---------------------------
 STRT.S             14:22:27 18-Jul-21: START TIME 14:22:27 18-Jul-21
 STOP.S             14:29:00 18-Jul-21: STOP TIME  14:29:00 18-Jul-21
 STEP.S                   0.00: STEP TIME
 NULL.                 -999.25: NULL VALUE
 MDS .        Operator Entered:  MAG DATA SOURCE
 PDAT.          Mean Sea Level:  PERMANENT DATUM
 UNIT.                     N/A:  LOGGING EQUIPMENT ID
 DCON.         Sperry Drilling:  DIRECTNL CONTR
 DOE .                     N/A:  DOE NUMBER
 RIG .              West Azeri:  RIG NAME
 JOBN.        AZ-XX-0906997913:  JOB TICKET NUMB
 WELL.                     C41:  WELL NAME
 MWDS.                    Baku:  MWD SHOP
 SRVC.          Turan Drilling:  CONTRACTOR
 FLD .                     ACG:  FIELD NAME
 CTRY.              Azerbaijan:  COUNTRY NAME
 PROV.                    Baku:  PROVINCE
 STAT.                    Baku:  STATE NAME
 REGN.                   EESSA:  REGION
 BASE.              Azerbaijan:  LOGGING EQUIPMENT BASE LOCATION
 UWI .                     N/A:  UNIQUE WELL IDENTIFIER
 API .                     N/A:  API NUMBER
 COMP.     BP Exploration (Caspian Sea) Ltd.:  COMPANY
 WTYP.                Deviated:  WELL TYPE
 SON .        AZ-XX-0906997913:  JOB NUMBER
 FTOP.          Formation Tops:  FORM TOPS DESC
 ILTD.               Lithology:  INTERP LTH DESC
 SVYD.                  Survey:  SURVEY DESC
 DMOD.             Drill Model:  DRILL MOD DESC
 HPTY.       Minimum Curvature:  HOLE POS TYPE
 NREF.                    Grid:  NORTH REFERENCE
 SPUD.               16-May-21:  SPUD DATE
 DATE.      21.11.28 17-May-21:  END TIME
 STIM.      21.11.28 17-May-21:  START TIME
 DMF .             Drill Floor:  DRILL MEAS FROM
 DFST.                        :  DIST FSL TEXT
 DFWT.                        :  DIST FWL TEXT
 CNTY.                        :  COUNTY
 LOC .                        :  LOCATION
 LMF .             Drill Floor:  LOG MEASURED FROM
 AGAP.m                  43.42:  AIR GAP
 VSNS.m                  -2.16:  VERT SEC N/S
 VSEW.m                  -6.24:  VERT SEC E/W
 APD .m                  43.42:  DEPTH ABOVE PD
 WDMS.m                 118.27:  WD ELEV
 EGL .m                   0.00:  GROUND ELEVATION
 EPD .m                   0.00:  ELEVATION
 AZTC.deg                 6.29:  AZM TOTAL CORR
 GRDC.deg                 0.18:  GRID CORRECTION
 MDEC.deg                 6.47:  MAGNETIC DECL
 MDIP.deg                59.54:  MAGNETIC DIP
 MFLD.nT              50337.00:  MAGNETIC FIELD
 GVFD.g                   1.00:  GRAVITY FIELD
 VSDR.deg               226.99:  VERT SEC DIRECT
 TDD .m                   0.00:  TOTAL DEPTH (DRILLER)
 SDEP.m                 448.00:  START DEPTH
 DFSL.m                   0.00:  DISTANCE FSL
 DFWL.m                   0.00:  DISTANCE FWL
 UTMY.m             4435799.96:  UTM Y
 UTMX.m              526265.35:  UTM X
 WHEW.m                  -6.24:  WELL HEAD E/W
 WHNS.m                  -2.16:  WELL HEAD N/S
 LONG.deg                51.31:  LONGITUDE
 LATI.deg                40.06:  LATITUDE
 TVDS.m                  43.42:  TVDSS CORRECTN
 EKB .m                  43.42:  KB ELEVATION
 EDF .m                  43.42:  DF ELEVATION
 TDL .m                 288.00:  TOTAL DEPTH (LOGGER)
 MAGU.                 1851863:  MAGUTM CHECKSUM
 VSC .                       0:  VS TO CLOSURE
~Parameter Information Block
#MNEM.UNIT       Value        Description
#---------     -----------    ---------------------------
 AV  .mps                 0.40:  Ann Velocity 
 AVMX.mps                 0.63:  Max Ann Veloc 
 AZIF.deg               158.76:  Azm, Final 
 BHAT.        Rotary Steerable:  BHA Type 
 BROT.°/30m               0.68:  Build Rotating 
 BS  .in                  8.50:  Bit Size 
 BSZ .in                  8.50:  Bit Size 
 BTPL.psig              712.00:  Bit Press Loss 
 CABU.                      No:  Customer Abuse 
 COMM.                     |«g:  Run Comments 1 
 TCS .hr                 90.66:  Time Ciculation Ended 
 CV  .mps                 2.02:  Crit Velocity 
 CVMX.mps                 2.14:  Max Crit Veloc 
 DD1 .            Aziz Aliyevu:  Direct Drillr 1 
 DD2 .             Samir Abbas:  Direct Drillr 2 
 DD3 .           Teymur Aliyev:  Direct Drillr 3 
 DDSV.                 iCruise:  DD Service 
 DEFF.%                  85.10:  % Det Eff 
 DLRX.°/30m               1.05:  Dogleg Rot Max 
 DLSO.°/30m               1.01:  Dogleg Oriented 
 DLSX.°/30m               1.05:  Dogleg Str Max 
 DRET.      07.45.00 18-Jul-21:  Drill End Time 
 DRST.      15.00.00 16-Jul-21:  Drill Start Tim 
 DTIM.hr                 23.46:  Time Drilling 
 EDEP.m                4603.00:  End Depth 
 ENG1.       Seymur Iskandarov:  Engineer 1 
 ENG2.         Yevgeniy Ulikov:  Engineer 2 
 ENG3.         Bahruz Mehdiyev:  Engineer 3 
 ENG4.         Elchin Mammadov:  Engineer 4 
 ETIM.      14.00.00 23-Jul-21:  End Time 
 FLOI.gpm               500.00:  Flow In 
 FLON.gpm               450.00:  Flow In Min 
 FLOS.cptm                0.00:  Fluid Loss 
 FLOX.gpm               560.00:  Flow In Max 
 DFT .        Mineral Oil Base:  Mud Type 
 FTRO.       Formation Presure:  FTWD Run Obj 
 HFLO.                      No:  High Flow 
 HPRE.                      No:  High Pressure 
 HTEM.                      No:  High Temp 
 HYDO.m                   1.80:  Hydro Offset 
 IFIN.deg                40.22:  Inc, Final 
 IMAX.deg                40.54:  Inc Max 
 IMIN.deg                39.44:  Inc Min 
 IMND.m                4361.17:  Inc Min Depth 
 IMXD.m                4417.92:  Inc Max Depth 
 JARR.                      No:  Jarring 
 LETM.      07.45.00 18-Jul-21:  Log End Time 
 LOST.hr                    16:  Lost Rig Time 
 LSTM.      15.00.00 16-Jul-21:  Log Start Time 
 MDCL.ppm             36500.00:  Mud Chlorides 
 MDES.     Inversion Oil/Synthetic:  Mud Desc 
 DFD .sg                  1.42:  Mud Density 
 MDMN.sg                  1.42:  Dens Mud Min 
 MDMX.sg                  1.43:  Dens Mud Max 
 MOIL.                      56:  Run Mud Oil % 
 MOWR.                   71:29:  Run Mud OWR 
 MSND.                     0.5:  Run Mud Sand % 
 MSOL.                      21:  Run Mud Solids% 
 DFV .spqt               78.00:  Mud Viscosity 
 MWOD.in                  6.75:  MWD Tool OD 
 MWSI.                     Yes:  Serv Intrp, MWD 
 OTIM.hr                200.73:  Time Operating 
 PCON.           Look Like New:  Pad Condition 
 PMAX.psia            11069.93:  Press Op, Max 
 PV  .cP                 32.00:  Mud PV 
 RUN .                     700:  Run Number 
 ROPA.m/hr               10.00:  ROP Avg 
 ROPN.m/hr                9.00:  ROP Min 
 ROPX.m/hr               16.00:  ROP Max 
 RPMA.rpm               116.00:  RPM Surface Avg 
 RPMN.rpm                80.00:  RPM Surface Min 
 RPMX.rpm               120.00:  RPM Surface Max 
 RRUN.                    L605:  Rig Run Number 
 RTIM.hr                 45.00:  Time Reaming 
 SAZI.deg               159.86:  Azm, Start 
 SDEP.m                4315.00:  Start Depth 
 SIDD.                      No:  Serv Intrp, DD 
 SINC.deg                39.86:  Inc, Start 
 SPPA.psig             3300.00:  SPP Avg 
 SPPN.psig             3040.00:  SPP Min 
 SPPX.psig             3645.00:  SPP Max 
 STIM.      01.00.00 15-Jul-21:  Start Time 
 SVCS.                 DD, MWD:  Services 
 SVER.                    9.20:  Sperry Version 
 TDAT.m                 288.00:  Tot Depth Attmp 
 TDDF.                      No:  Trip for DD 
 TDLG.m                 288.00:  Tot Depth Loggd 
 TFF .                      No:  Trip for Fail 
 TQAA.f-kp               19.00:  Torque Abs Avg 
 TQAN.f-kp               18.00:  Torque Abs Min 
 TQAX.f-kp               21.00:  Torque Abs Max 
 TRRT.°/30m               0.45:  Turn Rotating 
 MRT .                    HCIM:  Maximum Recorded Temperature 
 TTMX.degC               88.24:  Max Tool Temp 
 VS01.                90649157:  Virtual Str1 SN 
 VS02.                90652483:  Virtual Str2 SN 
 VS03.                11671987:  Virtual Str3 SN 
 VS04.                90643411:  Virtual Str4 SN 
 VS05.                90652478:  Virtual Str5 SN 
 VS06.                    6111:  Virtual Str6 SN 
 WBMN.klb                 9.50:  WOB Min 
 WITN.        Grigoriy Sarayev:  Customer Rep 
 WITN.          Rufat Huseynov:  Customer Rep 2 
 WOBA.klb                11.00:  WOB Avg 
 WOBX.klb                15.00:  WOB Max 
 YP  .lhf2               28.00:  Yield Point 
~Curve Information Block
#MNEM.UNIT                 API CODE     Curve Description
#---------               -----------    ---------------------------
 TIME.HHMMSS            00 000 000 000:  GT Time & Date
 GTDEPTH.m              00 000 000 000:  GT Depth
 GTPQH.psia             00 000 000 000:  GT HR Quartz Pressure
 GTTQ.degC              00 000 000 000:  GT Quartz Temperature
 GTTN.NONE              00 000 000 000:  GT Test Number
 GTET.sec               00 000 000 000:  GT Elapsed Test Time
 GTTVD.m                00 000 000 000:  GT True Vertical Depth
#Other Information
#
#WARRANTY: Halliburton will use its best efforts to furnish customers with 
#accurate information and interpretations that are part of, and incident to, the services 
#provided.  However, Halliburton cannot and does not warrant the accuracy 
#or correctness of such information and interpretations.  Under no circumstances should any 
#such information or interpretation be relied upon as the sole basis for any drilling, 
#completion, production, or financial decision or any procedure involving any risk to the 
#safety of any drilling venture, drilling rig or its crew or any other third party.  The 
#Customer has full responsibility for all drilling, completion and production operation.  
#Halliburton makes no representations or warranties, either expressed or 
#implied, including, but not limited to, the implied warranties of merchantability or fitness 
#for a particular purpose, with respect to the services rendered.  In no event will 
#Halliburton be liable for failure to obtain any particular results or for 
#any damages, including, but not limited to, indirect, special or consequential damages, 
#resulting from the use of any information or interpretation provided by Halliburton.
#
~A           TIME           GTDEPTH  GTPQH  GTTQ  GTTN  GTET   GTTVD  
# ...
   14:22:50.223.18-Jul-2021 4558.50 6648.26 75.36 4.00  23.01 2745.02
   14:22:50.423.18-Jul-2021 4558.50 6648.26 75.36 4.00  23.21 2745.02
   14:22:50.624.18-Jul-2021 4558.50 6627.34 75.36 4.00  23.41 2745.02
   14:22:50.824.18-Jul-2021 4558.50 6636.65 75.36 4.00  23.61 2745.02
   14:22:51.024.18-Jul-2021 4558.50 6629.10 75.36 4.00  23.81 2745.02
   14:22:51.224.18-Jul-2021 4558.50 6628.80 75.36 4.00  24.01 2745.02
   14:22:51.424.18-Jul-2021 4558.50 6628.80 75.36 4.00  24.21 2745.02
   14:22:51.624.18-Jul-2021 4558.50 6630.23 75.36 4.00  24.41 2745.02
   14:22:51.824.18-Jul-2021 4558.50 6629.83 75.36 4.00  24.61 2745.02
   14:22:52.024.18-Jul-2021 4558.50 6630.76 75.36 4.00  24.81 2745.02
   14:22:52.224.18-Jul-2021 4558.50 6631.29 75.36 4.00  25.01 2745.02
   14:22:52.424.18-Jul-2021 4558.50 6631.29 75.36 4.00  25.21 2745.02
   14:22:52.624.18-Jul-2021 4558.50 6633.90 75.36 4.00  25.41 2745.02
   14:22:52.824.18-Jul-2021 4558.50 6632.99 75.36 4.00  25.61 2745.02
   14:22:53.024.18-Jul-2021 4558.50 6651.36 75.36 4.00  25.81 2745.02
   14:22:53.224.18-Jul-2021 4558.50 6639.62 75.36 4.00  26.01 2745.02
   14:22:53.425.18-Jul-2021 4558.50 6639.62 75.36 4.00  26.21 2745.02
   14:22:53.625.18-Jul-2021 4558.50 6638.28 75.36 4.00  26.41 2745.02
   14:22:53.825.18-Jul-2021 4558.50 6633.40 75.36 4.00  26.61 2745.02
   14:22:54.025.18-Jul-2021 4558.50 6630.36 75.36 4.00  26.81 2745.02
   14:22:54.225.18-Jul-2021 4558.50 6630.84 75.36 4.00  27.01 2745.02
   14:22:54.425.18-Jul-2021 4558.50 6630.84 75.36 4.00  27.21 2745.02
   14:22:54.625.18-Jul-2021 4558.50 6630.75 75.36 4.00  27.41 2745.02
   14:22:54.825.18-Jul-2021 4558.50 6630.60 75.36 4.00  27.61 2745.02
   14:22:55.025.18-Jul-2021 4558.50 6631.29 75.36 4.00  27.81 2745.02
   14:22:55.225.18-Jul-2021 4558.50 6633.10 75.36 4.00  28.01 2745.02
   14:22:55.425.18-Jul-2021 4558.50 6633.10 75.36 4.00  28.21 2745.02
   14:22:55.625.18-Jul-2021 4558.50 6652.73 75.36 4.00  28.41 2745.02
   14:22:55.825.18-Jul-2021 4558.50 6638.70 75.36 4.00  28.61 2745.02
   14:22:56.026.18-Jul-2021 4558.50 6629.39 75.36 4.00  28.81 2745.02
   14:22:56.226.18-Jul-2021 4558.50 6656.83 75.36 4.00  29.01 2745.02
   14:22:56.426.18-Jul-2021 4558.50 6656.83 75.36 4.00  29.21 2745.02
   14:22:56.626.18-Jul-2021 4558.50 6631.49 75.36 4.00  29.41 2745.02
   14:22:56.826.18-Jul-2021 4558.50 6639.56 75.36 4.00  29.61 2745.02
   14:22:57.026.18-Jul-2021 4558.50 6632.90 75.36 4.00  29.81 2745.02
   14:22:57.226.18-Jul-2021 4558.50 6652.36 75.36 4.00  30.01 2745.02
   14:22:57.426.18-Jul-2021 4558.50 6652.36 75.36 4.00  30.21 2745.02
   14:22:57.626.18-Jul-2021 4558.50 6634.42 75.36 4.00  30.41 2745.02
   14:22:57.826.18-Jul-2021 4558.50 6642.42 75.36 4.00  30.61 2745.02
   14:22:58.026.18-Jul-2021 4558.50 6632.70 75.36 4.00  30.81 2745.02
   14:22:58.226.18-Jul-2021 4558.50 6655.46 75.36 4.00  31.01 2745.02
   14:22:58.426.18-Jul-2021 4558.50 6655.46 75.36 4.00  31.21 2745.02
   14:22:58.626.18-Jul-2021 4558.50 6636.35 75.36 4.00  31.41 2745.02
   14:22:58.827.18-Jul-2021 4558.50 6639.35 75.36 4.00  31.61 2745.02
   14:22:59.027.18-Jul-2021 4558.50 6673.27 75.36 4.00  31.81 2745.02
   14:22:59.227.18-Jul-2021 4558.50 6693.44 75.36 4.00  32.01 2745.02
   14:22:59.427.18-Jul-2021 4558.50 6693.44 75.36 4.00  32.21 2745.02
   14:22:59.627.18-Jul-2021 4558.50 6650.30 75.36 4.00  32.41 2745.02
   14:22:59.827.18-Jul-2021 4558.50 6662.20 75.36 4.00  32.61 2745.02
   14:23:00.027.18-Jul-2021 4558.50 6674.16 75.36 4.00  32.81 2745.02
   14:23:00.227.18-Jul-2021 4558.50 6692.94 75.36 4.00  33.01 2745.02
   14:23:00.427.18-Jul-2021 4558.50 6692.94 75.36 4.00  33.21 2745.02
   14:23:00.627.18-Jul-2021 4558.50 6690.68 75.36 4.00  33.41 2745.02
   14:23:00.827.18-Jul-2021 4558.50 6688.32 75.36 4.00  33.61 2745.02
   14:23:01.027.18-Jul-2021 4558.50 6683.16 75.36 4.00  33.81 2745.02
   14:23:01.227.18-Jul-2021 4558.50 6682.75 75.36 4.00  34.01 2745.02
   14:23:01.428.18-Jul-2021 4558.50 6682.75 75.36 4.00  34.21 2745.02
   14:23:01.628.18-Jul-2021 4558.50 6678.73 75.36 4.00  34.41 2745.02
   14:23:01.828.18-Jul-2021 4558.50 6683.44 75.36 4.00  34.61 2745.02
   14:23:02.028.18-Jul-2021 4558.50 6684.55 75.36 4.00  34.81 2745.02
   14:23:02.228.18-Jul-2021 4558.50 6679.07 75.36 4.00  35.01 2745.02
   14:23:02.428.18-Jul-2021 4558.50 6679.07 75.36 4.00  35.21 2745.02
   14:23:02.628.18-Jul-2021 4558.50 6678.28 75.36 4.00  35.41 2745.02
   14:23:02.828.18-Jul-2021 4558.50 6676.79 75.36 4.00  35.61 2745.02
   14:23:03.028.18-Jul-2021 4558.50 6676.45 75.36 4.00  35.81 2745.02
   14:23:03.228.18-Jul-2021 4558.50 6676.16 75.36 4.00  36.01 2745.02
   14:23:03.428.18-Jul-2021 4558.50 6676.16 75.36 4.00  36.21 2745.02
   14:23:03.628.18-Jul-2021 4558.50 6671.38 75.36 4.00  36.41 2745.02
   14:23:03.828.18-Jul-2021 4558.50 6670.94 75.36 4.00  36.61 2745.02
   14:23:04.028.18-Jul-2021 4558.50 6669.32 75.36 4.00  36.81 2745.02
   14:23:04.229.18-Jul-2021 4558.50 6668.73 75.36 4.00  37.01 2745.02
   14:23:04.429.18-Jul-2021 4558.50 6668.73 75.36 4.00  37.21 2745.02
   14:23:04.629.18-Jul-2021 4558.50 6673.36 75.36 4.00  37.41 2745.02
   14:23:04.829.18-Jul-2021 4558.50 6670.35 75.36 4.00  37.61 2745.02
   14:23:05.029.18-Jul-2021 4558.50 6668.61 75.36 4.00  37.81 2745.02
   14:23:05.229.18-Jul-2021 4558.50 6662.70 75.36 4.00  38.01 2745.02
   14:23:05.429.18-Jul-2021 4558.50 6662.70 75.36 4.00  38.21 2745.02
   14:23:05.629.18-Jul-2021 4558.50 6662.53 75.36 4.00  38.41 2745.02
   14:23:05.829.18-Jul-2021 4558.50 6656.20 75.36 4.00  38.61 2745.02
   14:23:06.029.18-Jul-2021 4558.50 6656.84 75.36 4.00  38.81 2745.02
   14:23:06.229.18-Jul-2021 4558.50 6656.56 75.36 4.00  39.01 2745.02
   14:23:06.429.18-Jul-2021 4558.50 6656.56 75.36 4.00  39.21 2745.02
   14:23:06.629.18-Jul-2021 4558.50 6658.21 75.36 4.00  39.41 2745.02
   14:23:06.829.18-Jul-2021 4558.50 6656.25 75.36 4.00  39.61 2745.02
   14:23:07.030.18-Jul-2021 4558.50 6656.53 75.36 4.00  39.81 2745.02
   14:23:07.230.18-Jul-2021 4558.50 6659.66 75.36 4.00  40.01 2745.02
   14:23:07.430.18-Jul-2021 4558.50 6659.66 75.36 4.00  40.21 2745.02
   14:23:07.630.18-Jul-2021 4558.50 6656.22 75.36 4.00  40.41 2745.02
   14:23:07.830.18-Jul-2021 4558.50 6661.18 75.36 4.00  40.61 2745.02
   14:23:08.030.18-Jul-2021 4558.50 6655.12 75.36 4.00  40.82 2745.02
   14:23:08.230.18-Jul-2021 4558.50 6654.63 75.36 4.00  41.02 2745.02
   14:23:08.430.18-Jul-2021 4558.50 6654.63 75.36 4.00  41.22 2745.02
   14:23:08.630.18-Jul-2021 4558.50 6654.59 75.36 4.00  41.42 2745.02
   14:23:08.830.18-Jul-2021 4558.50 6657.66 75.36 4.00  41.62 2745.02
   14:23:09.030.18-Jul-2021 4558.50 6656.65 75.36 4.00  41.82 2745.02
   14:23:09.230.18-Jul-2021 4558.50 6653.80 75.36 4.00  42.02 2745.02
   14:23:09.430.18-Jul-2021 4558.50 6653.80 75.36 4.00  42.22 2745.02
   14:23:09.631.18-Jul-2021 4558.50 6654.73 75.36 4.00  42.42 2745.02
   14:23:09.831.18-Jul-2021 4558.50 6654.29 75.36 4.00  42.62 2745.02
   14:23:10.031.18-Jul-2021 4558.50 6654.84 75.36 4.00  42.82 2745.02
   14:23:10.231.18-Jul-2021 4558.50 6655.31 75.36 4.00  43.02 2745.02
   14:23:10.431.18-Jul-2021 4558.50 6655.31 75.36 4.00  43.22 2745.02
   14:23:10.631.18-Jul-2021 4558.50 6653.61 75.36 4.00  43.42 2745.02
   14:23:10.831.18-Jul-2021 4558.50 6653.71 75.36 4.00  43.62 2745.02
   14:23:11.031.18-Jul-2021 4558.50 6654.10 75.36 4.00  43.82 2745.02
   14:23:11.231.18-Jul-2021 4558.50 6654.07 75.36 4.00  44.02 2745.02
   14:23:11.431.18-Jul-2021 4558.50 6654.07 75.36 4.00  44.22 2745.02
   14:23:11.631.18-Jul-2021 4558.50 6653.71 75.36 4.00  44.42 2745.02
   14:23:11.831.18-Jul-2021 4558.50 6657.66 75.36 4.00  44.62 2745.02
   14:23:12.031.18-Jul-2021 4558.50 6655.19 75.36 4.00  44.82 2745.02
   14:23:12.231.18-Jul-2021 4558.50 6654.82 75.36 4.00  45.02 2745.02
   14:23:12.432.18-Jul-2021 4558.50 6654.82 75.36 4.00  45.22 2745.02
   14:23:12.632.18-Jul-2021 4558.50 6654.79 75.36 4.00  45.42 2745.02
   14:23:12.832.18-Jul-2021 4558.50 6654.23 75.36 4.00  45.62 2745.02
   14:23:13.032.18-Jul-2021 4558.50 6654.41 75.36 4.00  45.82 2745.02
