~Version Information
 VERS.                  2.0:   CWLS log ASCII Standard -VERSION 2.0
 WRAP.                   NO:   One line per depth step
~Well Information Block
#MNEM.UNIT     VALUE/NAME     DESCRIPTION
#---------     -----------    ---------------------------
 STRT.S             04:43:18 19-Jul-21: START TIME 04:43:18 19-Jul-21
 STOP.S             04:49:54 19-Jul-21: STOP TIME  04:49:54 19-Jul-21
 STEP.S                   0.00: STEP TIME
 NULL.                 -999.25: NULL VALUE
 MDS .        Operator Entered:  MAG DATA SOURCE
 PDAT.          Mean Sea Level:  PERMANENT DATUM
 UNIT.                     N/A:  LOGGING EQUIPMENT ID
 DCON.         Sperry Drilling:  DIRECTNL CONTR
 DOE .                     N/A:  DOE NUMBER
 RIG .              West Azeri:  RIG NAME
 JOBN.        AZ-XX-0906997913:  JOB TICKET NUMB
 WELL.                     C41:  WELL NAME
 MWDS.                    Baku:  MWD SHOP
 SRVC.          Turan Drilling:  CONTRACTOR
 FLD .                     ACG:  FIELD NAME
 CTRY.              Azerbaijan:  COUNTRY NAME
 PROV.                    Baku:  PROVINCE
 STAT.                    Baku:  STATE NAME
 REGN.                   EESSA:  REGION
 BASE.              Azerbaijan:  LOGGING EQUIPMENT BASE LOCATION
 UWI .                     N/A:  UNIQUE WELL IDENTIFIER
 API .                     N/A:  API NUMBER
 COMP.     BP Exploration (Caspian Sea) Ltd.:  COMPANY
 WTYP.                Deviated:  WELL TYPE
 SON .        AZ-XX-0906997913:  JOB NUMBER
 FTOP.          Formation Tops:  FORM TOPS DESC
 ILTD.               Lithology:  INTERP LTH DESC
 SVYD.                  Survey:  SURVEY DESC
 DMOD.             Drill Model:  DRILL MOD DESC
 HPTY.       Minimum Curvature:  HOLE POS TYPE
 NREF.                    Grid:  NORTH REFERENCE
 SPUD.               16-May-21:  SPUD DATE
 DATE.      21.11.28 17-May-21:  END TIME
 STIM.      21.11.28 17-May-21:  START TIME
 DMF .             Drill Floor:  DRILL MEAS FROM
 DFST.                        :  DIST FSL TEXT
 DFWT.                        :  DIST FWL TEXT
 CNTY.                        :  COUNTY
 LOC .                        :  LOCATION
 LMF .             Drill Floor:  LOG MEASURED FROM
 AGAP.m                  43.42:  AIR GAP
 VSNS.m                  -2.16:  VERT SEC N/S
 VSEW.m                  -6.24:  VERT SEC E/W
 APD .m                  43.42:  DEPTH ABOVE PD
 WDMS.m                 118.27:  WD ELEV
 EGL .m                   0.00:  GROUND ELEVATION
 EPD .m                   0.00:  ELEVATION
 AZTC.deg                 6.29:  AZM TOTAL CORR
 GRDC.deg                 0.18:  GRID CORRECTION
 MDEC.deg                 6.47:  MAGNETIC DECL
 MDIP.deg                59.54:  MAGNETIC DIP
 MFLD.nT              50337.00:  MAGNETIC FIELD
 GVFD.g                   1.00:  GRAVITY FIELD
 VSDR.deg               226.99:  VERT SEC DIRECT
 TDD .m                   0.00:  TOTAL DEPTH (DRILLER)
 SDEP.m                 448.00:  START DEPTH
 DFSL.m                   0.00:  DISTANCE FSL
 DFWL.m                   0.00:  DISTANCE FWL
 UTMY.m             4435799.96:  UTM Y
 UTMX.m              526265.35:  UTM X
 WHEW.m                  -6.24:  WELL HEAD E/W
 WHNS.m                  -2.16:  WELL HEAD N/S
 LONG.deg                51.31:  LONGITUDE
 LATI.deg                40.06:  LATITUDE
 TVDS.m                  43.42:  TVDSS CORRECTN
 EKB .m                  43.42:  KB ELEVATION
 EDF .m                  43.42:  DF ELEVATION
 TDL .m                 288.00:  TOTAL DEPTH (LOGGER)
 MAGU.                 1851863:  MAGUTM CHECKSUM
 VSC .                       0:  VS TO CLOSURE
~Parameter Information Block
#MNEM.UNIT       Value        Description
#---------     -----------    ---------------------------
 AV  .mps                 0.40:  Ann Velocity 
 AVMX.mps                 0.63:  Max Ann Veloc 
 AZIF.deg               158.76:  Azm, Final 
 BHAT.        Rotary Steerable:  BHA Type 
 BROT.°/30m               0.68:  Build Rotating 
 BS  .in                  8.50:  Bit Size 
 BSZ .in                  8.50:  Bit Size 
 BTPL.psig              712.00:  Bit Press Loss 
 CABU.                      No:  Customer Abuse 
 COMM.                     ”™f:  Run Comments 1 
 TCS .hr                 90.66:  Time Ciculation Ended 
 CV  .mps                 2.02:  Crit Velocity 
 CVMX.mps                 2.14:  Max Crit Veloc 
 DD1 .            Aziz Aliyevu:  Direct Drillr 1 
 DD2 .             Samir Abbas:  Direct Drillr 2 
 DD3 .           Teymur Aliyev:  Direct Drillr 3 
 DDSV.                 iCruise:  DD Service 
 DEFF.%                  85.10:  % Det Eff 
 DLRX.°/30m               1.05:  Dogleg Rot Max 
 DLSO.°/30m               1.01:  Dogleg Oriented 
 DLSX.°/30m               1.05:  Dogleg Str Max 
 DRET.      07.45.00 18-Jul-21:  Drill End Time 
 DRST.      15.00.00 16-Jul-21:  Drill Start Tim 
 DTIM.hr                 23.46:  Time Drilling 
 EDEP.m                4603.00:  End Depth 
 ENG1.       Seymur Iskandarov:  Engineer 1 
 ENG2.         Yevgeniy Ulikov:  Engineer 2 
 ENG3.         Bahruz Mehdiyev:  Engineer 3 
 ENG4.         Elchin Mammadov:  Engineer 4 
 ETIM.      14.00.00 23-Jul-21:  End Time 
 FLOI.gpm               500.00:  Flow In 
 FLON.gpm               450.00:  Flow In Min 
 FLOS.cptm                0.00:  Fluid Loss 
 FLOX.gpm               560.00:  Flow In Max 
 DFT .        Mineral Oil Base:  Mud Type 
 FTRO.       Formation Presure:  FTWD Run Obj 
 HFLO.                      No:  High Flow 
 HPRE.                      No:  High Pressure 
 HTEM.                      No:  High Temp 
 HYDO.m                   1.80:  Hydro Offset 
 IFIN.deg                40.22:  Inc, Final 
 IMAX.deg                40.54:  Inc Max 
 IMIN.deg                39.44:  Inc Min 
 IMND.m                4361.17:  Inc Min Depth 
 IMXD.m                4417.92:  Inc Max Depth 
 JARR.                      No:  Jarring 
 LETM.      07.45.00 18-Jul-21:  Log End Time 
 LOST.hr                    16:  Lost Rig Time 
 LSTM.      15.00.00 16-Jul-21:  Log Start Time 
 MDCL.ppm             36500.00:  Mud Chlorides 
 MDES.     Inversion Oil/Synthetic:  Mud Desc 
 DFD .sg                  1.42:  Mud Density 
 MDMN.sg                  1.42:  Dens Mud Min 
 MDMX.sg                  1.43:  Dens Mud Max 
 MOIL.                      56:  Run Mud Oil % 
 MOWR.                   71:29:  Run Mud OWR 
 MSND.                     0.5:  Run Mud Sand % 
 MSOL.                      21:  Run Mud Solids% 
 DFV .spqt               78.00:  Mud Viscosity 
 MWOD.in                  6.75:  MWD Tool OD 
 MWSI.                     Yes:  Serv Intrp, MWD 
 OTIM.hr                200.73:  Time Operating 
 PCON.           Look Like New:  Pad Condition 
 PMAX.psia            11069.93:  Press Op, Max 
 PV  .cP                 32.00:  Mud PV 
 RUN .                     700:  Run Number 
 ROPA.m/hr               10.00:  ROP Avg 
 ROPN.m/hr                9.00:  ROP Min 
 ROPX.m/hr               16.00:  ROP Max 
 RPMA.rpm               116.00:  RPM Surface Avg 
 RPMN.rpm                80.00:  RPM Surface Min 
 RPMX.rpm               120.00:  RPM Surface Max 
 RRUN.                    L605:  Rig Run Number 
 RTIM.hr                 45.00:  Time Reaming 
 SAZI.deg               159.86:  Azm, Start 
 SDEP.m                4315.00:  Start Depth 
 SIDD.                      No:  Serv Intrp, DD 
 SINC.deg                39.86:  Inc, Start 
 SPPA.psig             3300.00:  SPP Avg 
 SPPN.psig             3040.00:  SPP Min 
 SPPX.psig             3645.00:  SPP Max 
 STIM.      01.00.00 15-Jul-21:  Start Time 
 SVCS.                 DD, MWD:  Services 
 SVER.                    9.20:  Sperry Version 
 TDAT.m                 288.00:  Tot Depth Attmp 
 TDDF.                      No:  Trip for DD 
 TDLG.m                 288.00:  Tot Depth Loggd 
 TFF .                      No:  Trip for Fail 
 TQAA.f-kp               19.00:  Torque Abs Avg 
 TQAN.f-kp               18.00:  Torque Abs Min 
 TQAX.f-kp               21.00:  Torque Abs Max 
 TRRT.°/30m               0.45:  Turn Rotating 
 MRT .                    HCIM:  Maximum Recorded Temperature 
 TTMX.degC               88.24:  Max Tool Temp 
 VS01.                90649157:  Virtual Str1 SN 
 VS02.                90652483:  Virtual Str2 SN 
 VS03.                11671987:  Virtual Str3 SN 
 VS04.                90643411:  Virtual Str4 SN 
 VS05.                90652478:  Virtual Str5 SN 
 VS06.                    6111:  Virtual Str6 SN 
 WBMN.klb                 9.50:  WOB Min 
 WITN.        Grigoriy Sarayev:  Customer Rep 
 WITN.          Rufat Huseynov:  Customer Rep 2 
 WOBA.klb                11.00:  WOB Avg 
 WOBX.klb                15.00:  WOB Max 
 YP  .lhf2               28.00:  Yield Point 
~Curve Information Block
#MNEM.UNIT                 API CODE     Curve Description
#---------               -----------    ---------------------------
 TIME.HHMMSS            00 000 000 000:  GT Time & Date
 GTDEPTH.m              00 000 000 000:  GT Depth
 GTPQH.psia             00 000 000 000:  GT HR Quartz Pressure
 GTTQ.degC              00 000 000 000:  GT Quartz Temperature
 GTTN.NONE              00 000 000 000:  GT Test Number
 GTET.sec               00 000 000 000:  GT Elapsed Test Time
 GTTVD.m                00 000 000 000:  GT True Vertical Depth
#Other Information
#
#WARRANTY: Halliburton will use its best efforts to furnish customers with 
#accurate information and interpretations that are part of, and incident to, the services 
#provided.  However, Halliburton cannot and does not warrant the accuracy 
#or correctness of such information and interpretations.  Under no circumstances should any 
#such information or interpretation be relied upon as the sole basis for any drilling, 
#completion, production, or financial decision or any procedure involving any risk to the 
#safety of any drilling venture, drilling rig or its crew or any other third party.  The 
#Customer has full responsibility for all drilling, completion and production operation.  
#Halliburton makes no representations or warranties, either expressed or 
#implied, including, but not limited to, the implied warranties of merchantability or fitness 
#for a particular purpose, with respect to the services rendered.  In no event will 
#Halliburton be liable for failure to obtain any particular results or for 
#any damages, including, but not limited to, indirect, special or consequential damages, 
#resulting from the use of any information or interpretation provided by Halliburton.
#
~A           TIME           GTDEPTH  GTPQH  GTTQ  GTTN   GTET   GTTVD  
# ...
   04:43:40.842.19-Jul-2021 4355.50 6309.70 68.70 11.00  22.61 2589.71
   04:43:41.042.19-Jul-2021 4355.50 6342.31 68.71 11.00  22.81 2589.71
   04:43:41.242.19-Jul-2021 4355.50 6309.27 68.70 11.00  23.01 2589.71
   04:43:41.442.19-Jul-2021 4355.50 6309.27 68.70 11.00  23.21 2589.71
   04:43:41.642.19-Jul-2021 4355.50 6318.62 68.70 11.00  23.41 2589.71
   04:43:41.842.19-Jul-2021 4355.50 6317.57 68.70 11.00  23.61 2589.71
   04:43:42.042.19-Jul-2021 4355.50 6331.41 68.70 11.00  23.81 2589.71
   04:43:42.242.19-Jul-2021 4355.50 6310.48 68.71 11.00  24.01 2589.71
   04:43:42.442.19-Jul-2021 4355.50 6310.48 68.71 11.00  24.21 2589.71
   04:43:42.642.19-Jul-2021 4355.50 6318.84 68.70 11.00  24.41 2589.71
   04:43:42.842.19-Jul-2021 4355.50 6330.64 68.70 11.00  24.61 2589.71
   04:43:43.042.19-Jul-2021 4355.50 6314.42 68.70 11.00  24.81 2589.71
   04:43:43.243.19-Jul-2021 4355.50 6322.49 68.71 11.00  25.01 2589.71
   04:43:43.443.19-Jul-2021 4355.50 6322.49 68.71 11.00  25.21 2589.71
   04:43:43.643.19-Jul-2021 4355.50 6313.23 68.71 11.00  25.41 2589.71
   04:43:43.843.19-Jul-2021 4355.50 6320.69 68.70 11.00  25.61 2589.71
   04:43:44.043.19-Jul-2021 4355.50 6315.65 68.71 11.00  25.81 2589.71
   04:43:44.243.19-Jul-2021 4355.50 6316.54 68.70 11.00  26.01 2589.71
   04:43:44.443.19-Jul-2021 4355.50 6316.54 68.70 11.00  26.21 2589.71
   04:43:44.643.19-Jul-2021 4355.50 6317.02 68.70 11.00  26.41 2589.71
   04:43:44.843.19-Jul-2021 4355.50 6318.15 68.70 11.00  26.61 2589.71
   04:43:45.043.19-Jul-2021 4355.50 6317.07 68.71 11.00  26.81 2589.71
   04:43:45.243.19-Jul-2021 4355.50 6317.60 68.71 11.00  27.01 2589.71
   04:43:45.443.19-Jul-2021 4355.50 6317.60 68.71 11.00  27.21 2589.71
   04:43:45.643.19-Jul-2021 4355.50 6317.66 68.70 11.00  27.41 2589.71
   04:43:45.843.19-Jul-2021 4355.50 6317.65 68.70 11.00  27.61 2589.71
   04:43:46.044.19-Jul-2021 4355.50 6316.39 68.71 11.00  27.81 2589.71
   04:43:46.244.19-Jul-2021 4355.50 6342.56 68.70 11.00  28.01 2589.71
   04:43:46.444.19-Jul-2021 4355.50 6342.56 68.70 11.00  28.21 2589.71
   04:43:46.644.19-Jul-2021 4355.50 6317.57 68.70 11.00  28.41 2589.71
   04:43:46.844.19-Jul-2021 4355.50 6322.23 68.70 11.00  28.61 2589.71
   04:43:47.044.19-Jul-2021 4355.50 6317.82 68.71 11.00  28.81 2589.71
   04:43:47.244.19-Jul-2021 4355.50 6320.43 68.71 11.00  29.01 2589.71
   04:43:47.444.19-Jul-2021 4355.50 6320.43 68.71 11.00  29.21 2589.71
   04:43:47.644.19-Jul-2021 4355.50 6319.67 68.71 11.00  29.41 2589.71
   04:43:47.844.19-Jul-2021 4355.50 6319.65 68.71 11.00  29.61 2589.71
   04:43:48.044.19-Jul-2021 4355.50 6319.76 68.71 11.00  29.81 2589.71
   04:43:48.244.19-Jul-2021 4355.50 6325.28 68.70 11.00  30.01 2589.71
   04:43:48.444.19-Jul-2021 4355.50 6325.28 68.70 11.00  30.21 2589.71
   04:43:48.645.19-Jul-2021 4355.50 6322.32 68.71 11.00  30.41 2589.71
   04:43:48.845.19-Jul-2021 4355.50 6345.74 68.71 11.00  30.61 2589.71
   04:43:49.045.19-Jul-2021 4355.50 6321.67 68.71 11.00  30.81 2589.71
   04:43:49.245.19-Jul-2021 4355.50 6323.60 68.71 11.00  31.01 2589.71
   04:43:49.445.19-Jul-2021 4355.50 6323.60 68.71 11.00  31.21 2589.71
   04:43:49.645.19-Jul-2021 4355.50 6323.77 68.71 11.00  31.41 2589.71
   04:43:49.845.19-Jul-2021 4355.50 6327.36 68.71 11.00  31.61 2589.71
   04:43:50.045.19-Jul-2021 4355.50 6326.82 68.70 11.00  31.81 2589.71
   04:43:50.245.19-Jul-2021 4355.50 6322.80 68.71 11.00  32.01 2589.71
   04:43:50.445.19-Jul-2021 4355.50 6322.80 68.71 11.00  32.21 2589.71
   04:43:50.645.19-Jul-2021 4355.50 6325.39 68.71 11.00  32.41 2589.71
   04:43:50.845.19-Jul-2021 4355.50 6321.15 68.71 11.00  32.61 2589.71
   04:43:51.045.19-Jul-2021 4355.50 6343.66 68.71 11.00  32.81 2589.71
   04:43:51.245.19-Jul-2021 4355.50 6321.08 68.70 11.00  33.01 2589.71
   04:43:51.446.19-Jul-2021 4355.50 6321.08 68.70 11.00  33.21 2589.71
   04:43:51.646.19-Jul-2021 4355.50 6314.76 68.71 11.00  33.41 2589.71
   04:43:51.846.19-Jul-2021 4355.50 6326.33 68.71 11.00  33.61 2589.71
   04:43:52.046.19-Jul-2021 4355.50 6322.64 68.71 11.00  33.81 2589.71
   04:43:52.246.19-Jul-2021 4355.50 6316.65 68.71 11.00  34.01 2589.71
   04:43:52.446.19-Jul-2021 4355.50 6316.65 68.71 11.00  34.21 2589.71
   04:43:52.646.19-Jul-2021 4355.50 6318.06 68.71 11.00  34.41 2589.71
   04:43:52.846.19-Jul-2021 4355.50 6312.76 68.71 11.00  34.61 2589.71
   04:43:53.046.19-Jul-2021 4355.50 6307.02 68.71 11.00  34.81 2589.71
   04:43:53.246.19-Jul-2021 4355.50 6302.53 68.71 11.00  35.01 2589.71
   04:43:53.446.19-Jul-2021 4355.50 6302.53 68.71 11.00  35.21 2589.71
   04:43:53.646.19-Jul-2021 4355.50 6302.53 68.71 11.00  35.41 2589.71
   04:43:53.846.19-Jul-2021 4355.50 6307.46 68.71 11.00  35.61 2589.71
   04:43:54.047.19-Jul-2021 4355.50 6317.55 68.71 11.00  35.81 2589.71
   04:43:54.247.19-Jul-2021 4355.50 6320.04 68.71 11.00  36.01 2589.71
   04:43:54.447.19-Jul-2021 4355.50 6320.04 68.71 11.00  36.21 2589.71
   04:43:54.647.19-Jul-2021 4355.50 6321.84 68.71 11.00  36.41 2589.71
   04:43:54.847.19-Jul-2021 4355.50 6316.92 68.71 11.00  36.61 2589.71
   04:43:55.047.19-Jul-2021 4355.50 6321.39 68.71 11.00  36.81 2589.71
   04:43:55.247.19-Jul-2021 4355.50 6324.93 68.71 11.00  37.01 2589.71
   04:43:55.447.19-Jul-2021 4355.50 6324.93 68.71 11.00  37.21 2589.71
   04:43:55.647.19-Jul-2021 4355.50 6323.78 68.71 11.00  37.41 2589.71
   04:43:55.847.19-Jul-2021 4355.50 6323.64 68.70 11.00  37.61 2589.71
   04:43:56.047.19-Jul-2021 4355.50 6305.40 68.71 11.00  37.81 2589.71
   04:43:56.247.19-Jul-2021 4355.50 6002.91 68.70 11.00  38.01 2589.71
   04:43:56.447.19-Jul-2021 4355.50 6002.91 68.70 11.00  38.21 2589.71
   04:43:56.647.19-Jul-2021 4355.50 5345.38 68.70 11.00  38.41 2589.71
   04:43:56.848.19-Jul-2021 4355.50 5058.08 68.70 11.00  38.61 2589.71
   04:43:57.048.19-Jul-2021 4355.50 4868.60 68.70 11.00  38.81 2589.71
   04:43:57.248.19-Jul-2021 4355.50 4812.50 68.70 11.00  39.01 2589.71
   04:43:57.448.19-Jul-2021 4355.50 4812.50 68.70 11.00  39.21 2589.71
   04:43:57.648.19-Jul-2021 4355.50 4815.15 68.70 11.00  39.41 2589.71
   04:43:57.848.19-Jul-2021 4355.50 4763.63 68.70 11.00  39.61 2589.71
   04:43:58.048.19-Jul-2021 4355.50 4692.94 68.70 11.00  39.81 2589.71
   04:43:58.248.19-Jul-2021 4355.50 4653.92 68.70 11.00  40.01 2589.71
   04:43:58.448.19-Jul-2021 4355.50 4653.92 68.70 11.00  40.21 2589.71
   04:43:58.648.19-Jul-2021 4355.50 3166.78 68.70 11.00  40.41 2589.71
   04:43:58.848.19-Jul-2021 4355.50 2443.52 68.70 11.00  40.61 2589.71
   04:43:59.048.19-Jul-2021 4355.50 1784.08 68.70 11.00  40.82 2589.71
   04:43:59.248.19-Jul-2021 4355.50 1265.74 68.70 11.00  41.02 2589.71
   04:43:59.448.19-Jul-2021 4355.50 1265.74 68.70 11.00  41.22 2589.71
   04:43:59.649.19-Jul-2021 4355.50  770.75 68.69 11.00  41.42 2589.71
   04:43:59.849.19-Jul-2021 4355.50  718.54 68.69 11.00  41.62 2589.71
   04:44:00.049.19-Jul-2021 4355.50  703.30 68.69 11.00  41.82 2589.71
   04:44:00.249.19-Jul-2021 4355.50  680.95 68.69 11.00  42.02 2589.71
   04:44:00.449.19-Jul-2021 4355.50  680.95 68.69 11.00  42.22 2589.71
   04:44:00.649.19-Jul-2021 4355.50  658.40 68.68 11.00  42.42 2589.71
   04:44:00.849.19-Jul-2021 4355.50  648.47 68.68 11.00  42.62 2589.71
   04:44:01.049.19-Jul-2021 4355.50  642.70 68.67 11.00  42.82 2589.71
   04:44:01.249.19-Jul-2021 4355.50  635.20 68.67 11.00  43.02 2589.71
   04:44:01.449.19-Jul-2021 4355.50  635.20 68.67 11.00  43.22 2589.71
   04:44:01.649.19-Jul-2021 4355.50  623.95 68.67 11.00  43.42 2589.71
   04:44:01.849.19-Jul-2021 4355.50  625.10 68.66 11.00  43.62 2589.71
   04:44:02.049.19-Jul-2021 4355.50  627.69 68.66 11.00  43.82 2589.71
   04:44:02.250.19-Jul-2021 4355.50  627.05 68.65 11.00  44.02 2589.71
   04:44:02.450.19-Jul-2021 4355.50  627.05 68.65 11.00  44.22 2589.71
   04:44:02.650.19-Jul-2021 4355.50  615.21 68.65 11.00  44.42 2589.71
   04:44:02.850.19-Jul-2021 4355.50  608.65 68.64 11.00  44.62 2589.71
   04:44:03.050.19-Jul-2021 4355.50  603.73 68.64 11.00  44.82 2589.71
   04:44:03.250.19-Jul-2021 4355.50  599.50 68.64 11.00  45.02 2589.71
