~Version Information
 VERS.                  2.0:   CWLS log ASCII Standard -VERSION 2.0
 WRAP.                   NO:   One line per depth step
~Well Information Block
#MNEM.UNIT     VALUE/NAME     DESCRIPTION
#---------     -----------    ---------------------------
 STRT.S             03:40:15 19-Jul-21: START TIME 03:40:15 19-Jul-21
 STOP.S             03:47:11 19-Jul-21: STOP TIME  03:47:11 19-Jul-21
 STEP.S                   0.00: STEP TIME
 NULL.                 -999.25: NULL VALUE
 MDS .        Operator Entered:  MAG DATA SOURCE
 PDAT.          Mean Sea Level:  PERMANENT DATUM
 UNIT.                     N/A:  LOGGING EQUIPMENT ID
 DCON.         Sperry Drilling:  DIRECTNL CONTR
 DOE .                     N/A:  DOE NUMBER
 RIG .              West Azeri:  RIG NAME
 JOBN.        AZ-XX-0906997913:  JOB TICKET NUMB
 WELL.                     C41:  WELL NAME
 MWDS.                    Baku:  MWD SHOP
 SRVC.          Turan Drilling:  CONTRACTOR
 FLD .                     ACG:  FIELD NAME
 CTRY.              Azerbaijan:  COUNTRY NAME
 PROV.                    Baku:  PROVINCE
 STAT.                    Baku:  STATE NAME
 REGN.                   EESSA:  REGION
 BASE.              Azerbaijan:  LOGGING EQUIPMENT BASE LOCATION
 UWI .                     N/A:  UNIQUE WELL IDENTIFIER
 API .                     N/A:  API NUMBER
 COMP.     BP Exploration (Caspian Sea) Ltd.:  COMPANY
 WTYP.                Deviated:  WELL TYPE
 SON .        AZ-XX-0906997913:  JOB NUMBER
 FTOP.          Formation Tops:  FORM TOPS DESC
 ILTD.               Lithology:  INTERP LTH DESC
 SVYD.                  Survey:  SURVEY DESC
 DMOD.             Drill Model:  DRILL MOD DESC
 HPTY.       Minimum Curvature:  HOLE POS TYPE
 NREF.                    Grid:  NORTH REFERENCE
 SPUD.               16-May-21:  SPUD DATE
 DATE.      21.11.28 17-May-21:  END TIME
 STIM.      21.11.28 17-May-21:  START TIME
 DMF .             Drill Floor:  DRILL MEAS FROM
 DFST.                        :  DIST FSL TEXT
 DFWT.                        :  DIST FWL TEXT
 CNTY.                        :  COUNTY
 LOC .                        :  LOCATION
 LMF .             Drill Floor:  LOG MEASURED FROM
 AGAP.m                  43.42:  AIR GAP
 VSNS.m                  -2.16:  VERT SEC N/S
 VSEW.m                  -6.24:  VERT SEC E/W
 APD .m                  43.42:  DEPTH ABOVE PD
 WDMS.m                 118.27:  WD ELEV
 EGL .m                   0.00:  GROUND ELEVATION
 EPD .m                   0.00:  ELEVATION
 AZTC.deg                 6.29:  AZM TOTAL CORR
 GRDC.deg                 0.18:  GRID CORRECTION
 MDEC.deg                 6.47:  MAGNETIC DECL
 MDIP.deg                59.54:  MAGNETIC DIP
 MFLD.nT              50337.00:  MAGNETIC FIELD
 GVFD.g                   1.00:  GRAVITY FIELD
 VSDR.deg               226.99:  VERT SEC DIRECT
 TDD .m                   0.00:  TOTAL DEPTH (DRILLER)
 SDEP.m                 448.00:  START DEPTH
 DFSL.m                   0.00:  DISTANCE FSL
 DFWL.m                   0.00:  DISTANCE FWL
 UTMY.m             4435799.96:  UTM Y
 UTMX.m              526265.35:  UTM X
 WHEW.m                  -6.24:  WELL HEAD E/W
 WHNS.m                  -2.16:  WELL HEAD N/S
 LONG.deg                51.31:  LONGITUDE
 LATI.deg                40.06:  LATITUDE
 TVDS.m                  43.42:  TVDSS CORRECTN
 EKB .m                  43.42:  KB ELEVATION
 EDF .m                  43.42:  DF ELEVATION
 TDL .m                 288.00:  TOTAL DEPTH (LOGGER)
 MAGU.                 1851863:  MAGUTM CHECKSUM
 VSC .                       0:  VS TO CLOSURE
~Parameter Information Block
#MNEM.UNIT       Value        Description
#---------     -----------    ---------------------------
 AV  .mps                 0.40:  Ann Velocity 
 AVMX.mps                 0.63:  Max Ann Veloc 
 AZIF.deg               158.76:  Azm, Final 
 BHAT.        Rotary Steerable:  BHA Type 
 BROT.∞/30m               0.68:  Build Rotating 
 BS  .in                  8.50:  Bit Size 
 BSZ .in                  8.50:  Bit Size 
 BTPL.psig              712.00:  Bit Press Loss 
 CABU.                      No:  Customer Abuse 
 COMM.                     ÙZ]:  Run Comments 1 
 TCS .hr                 90.66:  Time Ciculation Ended 
 CV  .mps                 2.02:  Crit Velocity 
 CVMX.mps                 2.14:  Max Crit Veloc 
 DD1 .            Aziz Aliyevu:  Direct Drillr 1 
 DD2 .             Samir Abbas:  Direct Drillr 2 
 DD3 .           Teymur Aliyev:  Direct Drillr 3 
 DDSV.                 iCruise:  DD Service 
 DEFF.%                  85.10:  % Det Eff 
 DLRX.∞/30m               1.05:  Dogleg Rot Max 
 DLSO.∞/30m               1.01:  Dogleg Oriented 
 DLSX.∞/30m               1.05:  Dogleg Str Max 
 DRET.      07.45.00 18-Jul-21:  Drill End Time 
 DRST.      15.00.00 16-Jul-21:  Drill Start Tim 
 DTIM.hr                 23.46:  Time Drilling 
 EDEP.m                4603.00:  End Depth 
 ENG1.       Seymur Iskandarov:  Engineer 1 
 ENG2.         Yevgeniy Ulikov:  Engineer 2 
 ENG3.         Bahruz Mehdiyev:  Engineer 3 
 ENG4.         Elchin Mammadov:  Engineer 4 
 ETIM.      14.00.00 23-Jul-21:  End Time 
 FLOI.gpm               500.00:  Flow In 
 FLON.gpm               450.00:  Flow In Min 
 FLOS.cptm                0.00:  Fluid Loss 
 FLOX.gpm               560.00:  Flow In Max 
 DFT .        Mineral Oil Base:  Mud Type 
 FTRO.       Formation Presure:  FTWD Run Obj 
 HFLO.                      No:  High Flow 
 HPRE.                      No:  High Pressure 
 HTEM.                      No:  High Temp 
 HYDO.m                   1.80:  Hydro Offset 
 IFIN.deg                40.22:  Inc, Final 
 IMAX.deg                40.54:  Inc Max 
 IMIN.deg                39.44:  Inc Min 
 IMND.m                4361.17:  Inc Min Depth 
 IMXD.m                4417.92:  Inc Max Depth 
 JARR.                      No:  Jarring 
 LETM.      07.45.00 18-Jul-21:  Log End Time 
 LOST.hr                    16:  Lost Rig Time 
 LSTM.      15.00.00 16-Jul-21:  Log Start Time 
 MDCL.ppm             36500.00:  Mud Chlorides 
 MDES.     Inversion Oil/Synthetic:  Mud Desc 
 DFD .sg                  1.42:  Mud Density 
 MDMN.sg                  1.42:  Dens Mud Min 
 MDMX.sg                  1.43:  Dens Mud Max 
 MOIL.                      56:  Run Mud Oil % 
 MOWR.                   71:29:  Run Mud OWR 
 MSND.                     0.5:  Run Mud Sand % 
 MSOL.                      21:  Run Mud Solids% 
 DFV .spqt               78.00:  Mud Viscosity 
 MWOD.in                  6.75:  MWD Tool OD 
 MWSI.                     Yes:  Serv Intrp, MWD 
 OTIM.hr                200.73:  Time Operating 
 PCON.           Look Like New:  Pad Condition 
 PMAX.psia            11069.93:  Press Op, Max 
 PV  .cP                 32.00:  Mud PV 
 RUN .                     700:  Run Number 
 ROPA.m/hr               10.00:  ROP Avg 
 ROPN.m/hr                9.00:  ROP Min 
 ROPX.m/hr               16.00:  ROP Max 
 RPMA.rpm               116.00:  RPM Surface Avg 
 RPMN.rpm                80.00:  RPM Surface Min 
 RPMX.rpm               120.00:  RPM Surface Max 
 RRUN.                    L605:  Rig Run Number 
 RTIM.hr                 45.00:  Time Reaming 
 SAZI.deg               159.86:  Azm, Start 
 SDEP.m                4315.00:  Start Depth 
 SIDD.                      No:  Serv Intrp, DD 
 SINC.deg                39.86:  Inc, Start 
 SPPA.psig             3300.00:  SPP Avg 
 SPPN.psig             3040.00:  SPP Min 
 SPPX.psig             3645.00:  SPP Max 
 STIM.      01.00.00 15-Jul-21:  Start Time 
 SVCS.                 DD, MWD:  Services 
 SVER.                    9.20:  Sperry Version 
 TDAT.m                 288.00:  Tot Depth Attmp 
 TDDF.                      No:  Trip for DD 
 TDLG.m                 288.00:  Tot Depth Loggd 
 TFF .                      No:  Trip for Fail 
 TQAA.f-kp               19.00:  Torque Abs Avg 
 TQAN.f-kp               18.00:  Torque Abs Min 
 TQAX.f-kp               21.00:  Torque Abs Max 
 TRRT.∞/30m               0.45:  Turn Rotating 
 MRT .                    HCIM:  Maximum Recorded Temperature 
 TTMX.degC               88.24:  Max Tool Temp 
 VS01.                90649157:  Virtual Str1 SN 
 VS02.                90652483:  Virtual Str2 SN 
 VS03.                11671987:  Virtual Str3 SN 
 VS04.                90643411:  Virtual Str4 SN 
 VS05.                90652478:  Virtual Str5 SN 
 VS06.                    6111:  Virtual Str6 SN 
 WBMN.klb                 9.50:  WOB Min 
 WITN.        Grigoriy Sarayev:  Customer Rep 
 WITN.          Rufat Huseynov:  Customer Rep 2 
 WOBA.klb                11.00:  WOB Avg 
 WOBX.klb                15.00:  WOB Max 
 YP  .lhf2               28.00:  Yield Point 
~Curve Information Block
#MNEM.UNIT                 API CODE     Curve Description
#---------               -----------    ---------------------------
 TIME.HHMMSS            00 000 000 000:  GT Time & Date
 GTDEPTH.m              00 000 000 000:  GT Depth
 GTPQH.psia             00 000 000 000:  GT HR Quartz Pressure
 GTTQ.degC              00 000 000 000:  GT Quartz Temperature
 GTTN.NONE              00 000 000 000:  GT Test Number
 GTET.sec               00 000 000 000:  GT Elapsed Test Time
 GTTVD.m                00 000 000 000:  GT True Vertical Depth
#Other Information
#
#WARRANTY: Halliburton will use its best efforts to furnish customers with 
#accurate information and interpretations that are part of, and incident to, the services 
#provided.  However, Halliburton cannot and does not warrant the accuracy 
#or correctness of such information and interpretations.  Under no circumstances should any 
#such information or interpretation be relied upon as the sole basis for any drilling, 
#completion, production, or financial decision or any procedure involving any risk to the 
#safety of any drilling venture, drilling rig or its crew or any other third party.  The 
#Customer has full responsibility for all drilling, completion and production operation.  
#Halliburton makes no representations or warranties, either expressed or 
#implied, including, but not limited to, the implied warranties of merchantability or fitness 
#for a particular purpose, with respect to the services rendered.  In no event will 
#Halliburton be liable for failure to obtain any particular results or for 
#any damages, including, but not limited to, indirect, special or consequential damages, 
#resulting from the use of any information or interpretation provided by Halliburton.
#
~A           TIME           GTDEPTH  GTPQH  GTTQ  GTTN   GTET   GTTVD  
# ...
   03:42:31.491.19-Jul-2021 4323.50 4176.87 69.11 10.00 135.65 2565.11
   03:42:31.691.19-Jul-2021 4323.50 4175.89 69.11 10.00 135.85 2565.11
   03:42:31.891.19-Jul-2021 4323.50 4176.78 69.11 10.00 136.05 2565.11
   03:42:32.091.19-Jul-2021 4323.50 4176.78 69.11 10.00 136.25 2565.11
   03:42:32.291.19-Jul-2021 4323.50 4175.97 69.11 10.00 136.45 2565.11
   03:42:32.491.19-Jul-2021 4323.50 4176.80 69.11 10.00 136.65 2565.11
   03:42:32.691.19-Jul-2021 4323.50 4176.02 69.11 10.00 136.85 2565.11
   03:42:32.891.19-Jul-2021 4323.50 4176.57 69.11 10.00 137.05 2565.11
   03:42:33.091.19-Jul-2021 4323.50 4176.57 69.11 10.00 137.25 2565.11
   03:42:33.291.19-Jul-2021 4323.50 4175.96 69.11 10.00 137.45 2565.11
   03:42:33.491.19-Jul-2021 4323.50 4176.74 69.11 10.00 137.65 2565.11
   03:42:33.691.19-Jul-2021 4323.50 4176.32 69.11 10.00 137.85 2565.11
   03:42:33.891.19-Jul-2021 4323.50 4176.16 69.11 10.00 138.05 2565.11
   03:42:34.092.19-Jul-2021 4323.50 4176.16 69.11 10.00 138.25 2565.11
   03:42:34.292.19-Jul-2021 4323.50 4176.70 69.11 10.00 138.45 2565.11
   03:42:34.492.19-Jul-2021 4323.50 4176.20 69.11 10.00 138.65 2565.11
   03:42:34.692.19-Jul-2021 4323.50 4176.32 69.11 10.00 138.85 2565.11
   03:42:34.892.19-Jul-2021 4323.50 4176.35 69.11 10.00 139.05 2565.11
   03:42:35.092.19-Jul-2021 4323.50 4176.35 69.11 10.00 139.25 2565.11
   03:42:35.292.19-Jul-2021 4323.50 4176.35 69.11 10.00 139.45 2565.11
   03:42:35.492.19-Jul-2021 4323.50 4176.37 69.11 10.00 139.65 2565.11
   03:42:35.692.19-Jul-2021 4323.50 4176.35 69.11 10.00 139.85 2565.11
   03:42:35.892.19-Jul-2021 4323.50 4176.37 69.11 10.00 140.05 2565.11
   03:42:36.092.19-Jul-2021 4323.50 4176.37 69.11 10.00 140.25 2565.11
   03:42:36.292.19-Jul-2021 4323.50 4176.32 69.11 10.00 140.45 2565.11
   03:42:36.492.19-Jul-2021 4323.50 4176.93 69.11 10.00 140.65 2565.11
   03:42:36.692.19-Jul-2021 4323.50 4175.05 69.11 10.00 140.85 2565.11
   03:42:36.893.19-Jul-2021 4323.50 4176.10 69.11 10.00 141.05 2565.11
   03:42:37.093.19-Jul-2021 4323.50 4176.10 69.11 10.00 141.25 2565.11
   03:42:37.293.19-Jul-2021 4323.50 4176.18 69.11 10.00 141.45 2565.11
   03:42:37.493.19-Jul-2021 4323.50 4176.34 69.11 10.00 141.65 2565.11
   03:42:37.693.19-Jul-2021 4323.50 4176.43 69.11 10.00 141.85 2565.11
   03:42:37.893.19-Jul-2021 4323.50 4176.35 69.11 10.00 142.05 2565.11
   03:42:38.093.19-Jul-2021 4323.50 4176.35 69.11 10.00 142.25 2565.11
   03:42:38.293.19-Jul-2021 4323.50 4176.36 69.11 10.00 142.45 2565.11
   03:42:38.493.19-Jul-2021 4323.50 4176.46 69.11 10.00 142.65 2565.11
   03:42:38.693.19-Jul-2021 4323.50 4176.28 69.11 10.00 142.85 2565.11
   03:42:38.893.19-Jul-2021 4323.50 4176.34 69.11 10.00 143.05 2565.11
   03:42:39.093.19-Jul-2021 4323.50 4176.34 69.11 10.00 143.25 2565.11
   03:42:39.293.19-Jul-2021 4323.50 4175.45 69.11 10.00 143.45 2565.11
   03:42:39.493.19-Jul-2021 4323.50 4176.10 69.11 10.00 143.65 2565.11
   03:42:39.694.19-Jul-2021 4323.50 4176.68 69.11 10.00 143.85 2565.11
   03:42:39.894.19-Jul-2021 4323.50 4175.73 69.11 10.00 144.05 2565.11
   03:42:40.094.19-Jul-2021 4323.50 4175.73 69.11 10.00 144.25 2565.11
   03:42:40.294.19-Jul-2021 4323.50 4074.16 69.11 10.00 144.45 2565.11
   03:42:40.494.19-Jul-2021 4323.50 4008.28 69.11 10.00 144.65 2565.11
   03:42:40.694.19-Jul-2021 4323.50 4001.31 69.11 10.00 144.85 2565.11
   03:42:40.894.19-Jul-2021 4323.50 4003.12 69.11 10.00 145.05 2565.11
   03:42:41.094.19-Jul-2021 4323.50 4003.12 69.11 10.00 145.25 2565.11
   03:42:41.294.19-Jul-2021 4323.50 3999.58 69.11 10.00 145.45 2565.11
   03:42:41.494.19-Jul-2021 4323.50 4003.01 69.11 10.00 145.65 2565.11
   03:42:41.694.19-Jul-2021 4323.50 4003.24 69.11 10.00 145.85 2565.11
   03:42:41.894.19-Jul-2021 4323.50 4005.78 69.11 10.00 146.05 2565.11
   03:42:42.094.19-Jul-2021 4323.50 4005.78 69.11 10.00 146.25 2565.11
   03:42:42.295.19-Jul-2021 4323.50 4004.51 69.11 10.00 146.45 2565.11
   03:42:42.495.19-Jul-2021 4323.50 4005.33 69.11 10.00 146.65 2565.11
   03:42:42.695.19-Jul-2021 4323.50 4004.47 69.11 10.00 146.85 2565.11
   03:42:42.895.19-Jul-2021 4323.50 4005.16 69.11 10.00 147.05 2565.11
   03:42:43.095.19-Jul-2021 4323.50 4005.16 69.11 10.00 147.25 2565.11
   03:42:43.295.19-Jul-2021 4323.50 4002.49 69.11 10.00 147.45 2565.11
   03:42:43.495.19-Jul-2021 4323.50 4002.64 69.11 10.00 147.65 2565.11
   03:42:43.695.19-Jul-2021 4323.50 4004.04 69.11 10.00 147.85 2565.11
   03:42:43.895.19-Jul-2021 4323.50 4003.27 69.11 10.00 148.05 2565.11
   03:42:44.095.19-Jul-2021 4323.50 4003.27 69.11 10.00 148.25 2565.11
   03:42:44.295.19-Jul-2021 4323.50 4003.51 69.11 10.00 148.45 2565.11
   03:42:44.495.19-Jul-2021 4323.50 4003.71 69.10 10.00 148.65 2565.11
   03:42:44.695.19-Jul-2021 4323.50 4007.29 69.10 10.00 148.85 2565.11
   03:42:44.895.19-Jul-2021 4323.50 3999.35 69.10 10.00 149.05 2565.11
   03:42:45.096.19-Jul-2021 4323.50 3999.35 69.10 10.00 149.25 2565.11
   03:42:45.296.19-Jul-2021 4323.50 4006.07 69.10 10.00 149.46 2565.11
   03:42:45.496.19-Jul-2021 4323.50 4003.64 69.10 10.00 149.66 2565.11
   03:42:45.696.19-Jul-2021 4323.50 4003.32 69.10 10.00 149.86 2565.11
   03:42:45.896.19-Jul-2021 4323.50 4003.33 69.10 10.00 150.06 2565.11
   03:42:46.096.19-Jul-2021 4323.50 4003.33 69.10 10.00 150.26 2565.11
   03:42:46.296.19-Jul-2021 4323.50 4004.25 69.10 10.00 150.46 2565.11
   03:42:46.496.19-Jul-2021 4323.50 4003.72 69.10 10.00 150.66 2565.11
   03:42:46.696.19-Jul-2021 4323.50 4004.36 69.10 10.00 150.86 2565.11
   03:42:46.896.19-Jul-2021 4323.50 4001.93 69.10 10.00 151.06 2565.11
   03:42:47.096.19-Jul-2021 4323.50 4001.93 69.10 10.00 151.26 2565.11
   03:42:47.296.19-Jul-2021 4323.50 4007.77 69.10 10.00 151.46 2565.11
   03:42:47.496.19-Jul-2021 4323.50 3997.29 69.10 10.00 151.66 2565.11
   03:42:47.697.19-Jul-2021 4323.50 4003.35 69.10 10.00 151.86 2565.11
   03:42:47.897.19-Jul-2021 4323.50 4008.87 69.10 10.00 152.06 2565.11
   03:42:48.097.19-Jul-2021 4323.50 4008.87 69.10 10.00 152.26 2565.11
   03:42:48.297.19-Jul-2021 4323.50 4005.14 69.10 10.00 152.46 2565.11
   03:42:48.497.19-Jul-2021 4323.50 4005.76 69.10 10.00 152.66 2565.11
   03:42:48.697.19-Jul-2021 4323.50 4003.58 69.10 10.00 152.86 2565.11
   03:42:48.897.19-Jul-2021 4323.50 4005.10 69.10 10.00 153.06 2565.11
   03:42:49.097.19-Jul-2021 4323.50 4005.10 69.10 10.00 153.26 2565.11
   03:42:49.297.19-Jul-2021 4323.50 4003.69 69.10 10.00 153.46 2565.11
   03:42:49.497.19-Jul-2021 4323.50 4003.15 69.10 10.00 153.66 2565.11
   03:42:49.697.19-Jul-2021 4323.50 4005.77 69.10 10.00 153.86 2565.11
   03:42:49.897.19-Jul-2021 4323.50 4009.44 69.10 10.00 154.06 2565.11
   03:42:50.097.19-Jul-2021 4323.50 4009.44 69.10 10.00 154.26 2565.11
   03:42:50.297.19-Jul-2021 4323.50 4032.14 69.10 10.00 154.46 2565.11
   03:42:50.498.19-Jul-2021 4323.50 4153.85 69.10 10.00 154.66 2565.11
   03:42:50.698.19-Jul-2021 4323.50 4170.77 69.10 10.00 154.86 2565.11
   03:42:50.898.19-Jul-2021 4323.50 4173.29 69.10 10.00 155.06 2565.11
   03:42:51.098.19-Jul-2021 4323.50 4173.29 69.10 10.00 155.26 2565.11
   03:42:51.298.19-Jul-2021 4323.50 4173.95 69.10 10.00 155.46 2565.11
   03:42:51.498.19-Jul-2021 4323.50 4174.14 69.10 10.00 155.66 2565.11
   03:42:51.698.19-Jul-2021 4323.50 4174.33 69.10 10.00 155.86 2565.11
   03:42:51.898.19-Jul-2021 4323.50 4174.54 69.10 10.00 156.06 2565.11
   03:42:52.098.19-Jul-2021 4323.50 4174.54 69.10 10.00 156.26 2565.11
   03:42:52.298.19-Jul-2021 4323.50 4174.77 69.10 10.00 156.46 2565.11
   03:42:52.498.19-Jul-2021 4323.50 4174.81 69.10 10.00 156.66 2565.11
   03:42:52.698.19-Jul-2021 4323.50 4174.88 69.10 10.00 156.86 2565.11
   03:42:52.898.19-Jul-2021 4323.50 4174.92 69.10 10.00 157.06 2565.11
   03:42:53.099.19-Jul-2021 4323.50 4174.92 69.10 10.00 157.26 2565.11
   03:42:53.299.19-Jul-2021 4323.50 4174.82 69.10 10.00 157.46 2565.11
   03:42:53.499.19-Jul-2021 4323.50 4175.27 69.10 10.00 157.66 2565.11
   03:42:53.699.19-Jul-2021 4323.50 4175.77 69.10 10.00 157.86 2565.11
   03:42:53.899.19-Jul-2021 4323.50 4175.46 69.10 10.00 158.06 2565.11
