~Version Information
 VERS.                  2.0:   CWLS log ASCII Standard -VERSION 2.0
 WRAP.                   NO:   One line per depth step
~Well Information Block
#MNEM.UNIT     VALUE/NAME     DESCRIPTION
#---------     -----------    ---------------------------
 STRT.S             13:07:56 19-Jul-21: START TIME 13:07:56 19-Jul-21
 STOP.S             13:14:51 19-Jul-21: STOP TIME  13:14:51 19-Jul-21
 STEP.S                   0.00: STEP TIME
 NULL.                 -999.25: NULL VALUE
 MDS .        Operator Entered:  MAG DATA SOURCE
 PDAT.          Mean Sea Level:  PERMANENT DATUM
 UNIT.                     N/A:  LOGGING EQUIPMENT ID
 DCON.         Sperry Drilling:  DIRECTNL CONTR
 DOE .                     N/A:  DOE NUMBER
 RIG .              West Azeri:  RIG NAME
 JOBN.        AZ-XX-0906997913:  JOB TICKET NUMB
 WELL.                     C41:  WELL NAME
 MWDS.                    Baku:  MWD SHOP
 SRVC.          Turan Drilling:  CONTRACTOR
 FLD .                     ACG:  FIELD NAME
 CTRY.              Azerbaijan:  COUNTRY NAME
 PROV.                    Baku:  PROVINCE
 STAT.                    Baku:  STATE NAME
 REGN.                   EESSA:  REGION
 BASE.              Azerbaijan:  LOGGING EQUIPMENT BASE LOCATION
 UWI .                     N/A:  UNIQUE WELL IDENTIFIER
 API .                     N/A:  API NUMBER
 COMP.     BP Exploration (Caspian Sea) Ltd.:  COMPANY
 WTYP.                Deviated:  WELL TYPE
 SON .        AZ-XX-0906997913:  JOB NUMBER
 FTOP.          Formation Tops:  FORM TOPS DESC
 ILTD.               Lithology:  INTERP LTH DESC
 SVYD.                  Survey:  SURVEY DESC
 DMOD.             Drill Model:  DRILL MOD DESC
 HPTY.       Minimum Curvature:  HOLE POS TYPE
 NREF.                    Grid:  NORTH REFERENCE
 SPUD.               16-May-21:  SPUD DATE
 DATE.      21.11.28 17-May-21:  END TIME
 STIM.      21.11.28 17-May-21:  START TIME
 DMF .             Drill Floor:  DRILL MEAS FROM
 DFST.                        :  DIST FSL TEXT
 DFWT.                        :  DIST FWL TEXT
 CNTY.                        :  COUNTY
 LOC .                        :  LOCATION
 LMF .             Drill Floor:  LOG MEASURED FROM
 AGAP.m                  43.42:  AIR GAP
 VSNS.m                  -2.16:  VERT SEC N/S
 VSEW.m                  -6.24:  VERT SEC E/W
 APD .m                  43.42:  DEPTH ABOVE PD
 WDMS.m                 118.27:  WD ELEV
 EGL .m                   0.00:  GROUND ELEVATION
 EPD .m                   0.00:  ELEVATION
 AZTC.deg                 6.29:  AZM TOTAL CORR
 GRDC.deg                 0.18:  GRID CORRECTION
 MDEC.deg                 6.47:  MAGNETIC DECL
 MDIP.deg                59.54:  MAGNETIC DIP
 MFLD.nT              50337.00:  MAGNETIC FIELD
 GVFD.g                   1.00:  GRAVITY FIELD
 VSDR.deg               226.99:  VERT SEC DIRECT
 TDD .m                   0.00:  TOTAL DEPTH (DRILLER)
 SDEP.m                 448.00:  START DEPTH
 DFSL.m                   0.00:  DISTANCE FSL
 DFWL.m                   0.00:  DISTANCE FWL
 UTMY.m             4435799.96:  UTM Y
 UTMX.m              526265.35:  UTM X
 WHEW.m                  -6.24:  WELL HEAD E/W
 WHNS.m                  -2.16:  WELL HEAD N/S
 LONG.deg                51.31:  LONGITUDE
 LATI.deg                40.06:  LATITUDE
 TVDS.m                  43.42:  TVDSS CORRECTN
 EKB .m                  43.42:  KB ELEVATION
 EDF .m                  43.42:  DF ELEVATION
 TDL .m                 288.00:  TOTAL DEPTH (LOGGER)
 MAGU.                 1851863:  MAGUTM CHECKSUM
 VSC .                       0:  VS TO CLOSURE
~Parameter Information Block
#MNEM.UNIT       Value        Description
#---------     -----------    ---------------------------
 AV  .mps                 0.40:  Ann Velocity 
 AVMX.mps                 0.63:  Max Ann Veloc 
 AZIF.deg               158.76:  Azm, Final 
 BHAT.        Rotary Steerable:  BHA Type 
 BROT.°/30m               0.68:  Build Rotating 
 BS  .in                  8.50:  Bit Size 
 BSZ .in                  8.50:  Bit Size 
 BTPL.psig              712.00:  Bit Press Loss 
 CABU.                      No:  Customer Abuse 
 COMM.                     „e:  Run Comments 1 
 TCS .hr                 90.66:  Time Ciculation Ended 
 CV  .mps                 2.02:  Crit Velocity 
 CVMX.mps                 2.14:  Max Crit Veloc 
 DD1 .            Aziz Aliyevu:  Direct Drillr 1 
 DD2 .             Samir Abbas:  Direct Drillr 2 
 DD3 .           Teymur Aliyev:  Direct Drillr 3 
 DDSV.                 iCruise:  DD Service 
 DEFF.%                  85.10:  % Det Eff 
 DLRX.°/30m               1.05:  Dogleg Rot Max 
 DLSO.°/30m               1.01:  Dogleg Oriented 
 DLSX.°/30m               1.05:  Dogleg Str Max 
 DRET.      07.45.00 18-Jul-21:  Drill End Time 
 DRST.      15.00.00 16-Jul-21:  Drill Start Tim 
 DTIM.hr                 23.46:  Time Drilling 
 EDEP.m                4603.00:  End Depth 
 ENG1.       Seymur Iskandarov:  Engineer 1 
 ENG2.         Yevgeniy Ulikov:  Engineer 2 
 ENG3.         Bahruz Mehdiyev:  Engineer 3 
 ENG4.         Elchin Mammadov:  Engineer 4 
 ETIM.      14.00.00 23-Jul-21:  End Time 
 FLOI.gpm               500.00:  Flow In 
 FLON.gpm               450.00:  Flow In Min 
 FLOS.cptm                0.00:  Fluid Loss 
 FLOX.gpm               560.00:  Flow In Max 
 DFT .        Mineral Oil Base:  Mud Type 
 FTRO.       Formation Presure:  FTWD Run Obj 
 HFLO.                      No:  High Flow 
 HPRE.                      No:  High Pressure 
 HTEM.                      No:  High Temp 
 HYDO.m                   1.80:  Hydro Offset 
 IFIN.deg                40.22:  Inc, Final 
 IMAX.deg                40.54:  Inc Max 
 IMIN.deg                39.44:  Inc Min 
 IMND.m                4361.17:  Inc Min Depth 
 IMXD.m                4417.92:  Inc Max Depth 
 JARR.                      No:  Jarring 
 LETM.      07.45.00 18-Jul-21:  Log End Time 
 LOST.hr                    16:  Lost Rig Time 
 LSTM.      15.00.00 16-Jul-21:  Log Start Time 
 MDCL.ppm             36500.00:  Mud Chlorides 
 MDES.     Inversion Oil/Synthetic:  Mud Desc 
 DFD .sg                  1.42:  Mud Density 
 MDMN.sg                  1.42:  Dens Mud Min 
 MDMX.sg                  1.43:  Dens Mud Max 
 MOIL.                      56:  Run Mud Oil % 
 MOWR.                   71:29:  Run Mud OWR 
 MSND.                     0.5:  Run Mud Sand % 
 MSOL.                      21:  Run Mud Solids% 
 DFV .spqt               78.00:  Mud Viscosity 
 MWOD.in                  6.75:  MWD Tool OD 
 MWSI.                     Yes:  Serv Intrp, MWD 
 OTIM.hr                200.73:  Time Operating 
 PCON.           Look Like New:  Pad Condition 
 PMAX.psia            11069.93:  Press Op, Max 
 PV  .cP                 32.00:  Mud PV 
 RUN .                     700:  Run Number 
 ROPA.m/hr               10.00:  ROP Avg 
 ROPN.m/hr                9.00:  ROP Min 
 ROPX.m/hr               16.00:  ROP Max 
 RPMA.rpm               116.00:  RPM Surface Avg 
 RPMN.rpm                80.00:  RPM Surface Min 
 RPMX.rpm               120.00:  RPM Surface Max 
 RRUN.                    L605:  Rig Run Number 
 RTIM.hr                 45.00:  Time Reaming 
 SAZI.deg               159.86:  Azm, Start 
 SDEP.m                4315.00:  Start Depth 
 SIDD.                      No:  Serv Intrp, DD 
 SINC.deg                39.86:  Inc, Start 
 SPPA.psig             3300.00:  SPP Avg 
 SPPN.psig             3040.00:  SPP Min 
 SPPX.psig             3645.00:  SPP Max 
 STIM.      01.00.00 15-Jul-21:  Start Time 
 SVCS.                 DD, MWD:  Services 
 SVER.                    9.20:  Sperry Version 
 TDAT.m                 288.00:  Tot Depth Attmp 
 TDDF.                      No:  Trip for DD 
 TDLG.m                 288.00:  Tot Depth Loggd 
 TFF .                      No:  Trip for Fail 
 TQAA.f-kp               19.00:  Torque Abs Avg 
 TQAN.f-kp               18.00:  Torque Abs Min 
 TQAX.f-kp               21.00:  Torque Abs Max 
 TRRT.°/30m               0.45:  Turn Rotating 
 MRT .                    HCIM:  Maximum Recorded Temperature 
 TTMX.degC               88.24:  Max Tool Temp 
 VS01.                90649157:  Virtual Str1 SN 
 VS02.                90652483:  Virtual Str2 SN 
 VS03.                11671987:  Virtual Str3 SN 
 VS04.                90643411:  Virtual Str4 SN 
 VS05.                90652478:  Virtual Str5 SN 
 VS06.                    6111:  Virtual Str6 SN 
 WBMN.klb                 9.50:  WOB Min 
 WITN.        Grigoriy Sarayev:  Customer Rep 
 WITN.          Rufat Huseynov:  Customer Rep 2 
 WOBA.klb                11.00:  WOB Avg 
 WOBX.klb                15.00:  WOB Max 
 YP  .lhf2               28.00:  Yield Point 
~Curve Information Block
#MNEM.UNIT                 API CODE     Curve Description
#---------               -----------    ---------------------------
 TIME.HHMMSS            00 000 000 000:  GT Time & Date
 GTDEPTH.m              00 000 000 000:  GT Depth
 GTPQH.psia             00 000 000 000:  GT HR Quartz Pressure
 GTTQ.degC              00 000 000 000:  GT Quartz Temperature
 GTTN.NONE              00 000 000 000:  GT Test Number
 GTET.sec               00 000 000 000:  GT Elapsed Test Time
 GTTVD.m                00 000 000 000:  GT True Vertical Depth
#Other Information
#
#WARRANTY: Halliburton will use its best efforts to furnish customers with 
#accurate information and interpretations that are part of, and incident to, the services 
#provided.  However, Halliburton cannot and does not warrant the accuracy 
#or correctness of such information and interpretations.  Under no circumstances should any 
#such information or interpretation be relied upon as the sole basis for any drilling, 
#completion, production, or financial decision or any procedure involving any risk to the 
#safety of any drilling venture, drilling rig or its crew or any other third party.  The 
#Customer has full responsibility for all drilling, completion and production operation.  
#Halliburton makes no representations or warranties, either expressed or 
#implied, including, but not limited to, the implied warranties of merchantability or fitness 
#for a particular purpose, with respect to the services rendered.  In no event will 
#Halliburton be liable for failure to obtain any particular results or for 
#any damages, including, but not limited to, indirect, special or consequential damages, 
#resulting from the use of any information or interpretation provided by Halliburton.
#
~A           TIME           GTDEPTH  GTPQH  GTTQ  GTTN   GTET   GTTVD  
# ...
   13:09:04.207.19-Jul-2021 4553.00 3612.74 71.04 28.00  67.82 2740.81
   13:09:04.407.19-Jul-2021 4553.00 3612.74 71.04 28.00  68.03 2740.81
   13:09:04.607.19-Jul-2021 4553.00 3612.74 71.04 28.00  68.23 2740.81
   13:09:04.807.19-Jul-2021 4553.00 3612.97 71.04 28.00  68.43 2740.81
   13:09:05.007.19-Jul-2021 4553.00 3612.65 71.04 28.00  68.63 2740.81
   13:09:05.207.19-Jul-2021 4553.00 3612.74 71.04 28.00  68.83 2740.81
   13:09:05.407.19-Jul-2021 4553.00 3612.83 71.04 28.00  69.03 2740.81
   13:09:05.608.19-Jul-2021 4553.00 3612.83 71.04 28.00  69.23 2740.81
   13:09:05.808.19-Jul-2021 4553.00 3612.77 71.04 28.00  69.43 2740.81
   13:09:06.008.19-Jul-2021 4553.00 3612.84 71.04 28.00  69.63 2740.81
   13:09:06.208.19-Jul-2021 4553.00 3612.82 71.04 28.00  69.83 2740.81
   13:09:06.408.19-Jul-2021 4553.00 3612.84 71.04 28.00  70.03 2740.81
   13:09:06.608.19-Jul-2021 4553.00 3612.84 71.04 28.00  70.23 2740.81
   13:09:06.808.19-Jul-2021 4553.00 3612.84 71.04 28.00  70.43 2740.81
   13:09:07.008.19-Jul-2021 4553.00 3612.87 71.04 28.00  70.63 2740.81
   13:09:07.208.19-Jul-2021 4553.00 3612.88 71.04 28.00  70.83 2740.81
   13:09:07.408.19-Jul-2021 4553.00 3612.89 71.04 28.00  71.03 2740.81
   13:09:07.608.19-Jul-2021 4553.00 3612.89 71.04 28.00  71.23 2740.81
   13:09:07.808.19-Jul-2021 4553.00 3613.02 71.04 28.00  71.43 2740.81
   13:09:08.008.19-Jul-2021 4553.00 3612.79 71.04 28.00  71.63 2740.81
   13:09:08.208.19-Jul-2021 4553.00 3612.84 71.04 28.00  71.83 2740.81
   13:09:08.409.19-Jul-2021 4553.00 3612.84 71.04 28.00  72.03 2740.81
   13:09:08.609.19-Jul-2021 4553.00 3612.84 71.04 28.00  72.23 2740.81
   13:09:08.809.19-Jul-2021 4553.00 3612.86 71.04 28.00  72.43 2740.81
   13:09:09.009.19-Jul-2021 4553.00 3612.88 71.04 28.00  72.63 2740.81
   13:09:09.209.19-Jul-2021 4553.00 3612.90 71.04 28.00  72.83 2740.81
   13:09:09.409.19-Jul-2021 4553.00 3612.89 71.04 28.00  73.03 2740.81
   13:09:09.609.19-Jul-2021 4553.00 3612.89 71.04 28.00  73.23 2740.81
   13:09:09.809.19-Jul-2021 4553.00 3612.92 71.04 28.00  73.43 2740.81
   13:09:10.009.19-Jul-2021 4553.00 3612.94 71.04 28.00  73.63 2740.81
   13:09:10.209.19-Jul-2021 4553.00 3613.09 71.04 28.00  73.83 2740.81
   13:09:10.409.19-Jul-2021 4553.00 3612.79 71.04 28.00  74.03 2740.81
   13:09:10.609.19-Jul-2021 4553.00 3612.79 71.04 28.00  74.23 2740.81
   13:09:10.809.19-Jul-2021 4553.00 3613.12 71.04 28.00  74.43 2740.81
   13:09:11.010.19-Jul-2021 4553.00 3612.81 71.04 28.00  74.63 2740.81
   13:09:11.210.19-Jul-2021 4553.00 3612.84 71.04 28.00  74.83 2740.81
   13:09:11.410.19-Jul-2021 4553.00 3613.07 71.04 28.00  75.03 2740.81
   13:09:11.610.19-Jul-2021 4553.00 3613.07 71.04 28.00  75.23 2740.81
   13:09:11.810.19-Jul-2021 4553.00 3612.92 71.04 28.00  75.43 2740.81
   13:09:12.010.19-Jul-2021 4553.00 3612.69 71.04 28.00  75.63 2740.81
   13:09:12.210.19-Jul-2021 4553.00 3613.19 71.04 28.00  75.83 2740.81
   13:09:12.410.19-Jul-2021 4553.00 3612.78 71.04 28.00  76.03 2740.81
   13:09:12.610.19-Jul-2021 4553.00 3612.78 71.04 28.00  76.23 2740.81
   13:09:12.810.19-Jul-2021 4553.00 3612.82 71.04 28.00  76.43 2740.81
   13:09:13.010.19-Jul-2021 4553.00 3612.95 71.04 28.00  76.63 2740.81
   13:09:13.210.19-Jul-2021 4553.00 3612.96 71.04 28.00  76.83 2740.81
   13:09:13.410.19-Jul-2021 4553.00 3612.75 71.04 28.00  77.03 2740.81
   13:09:13.610.19-Jul-2021 4553.00 3612.75 71.04 28.00  77.23 2740.81
   13:09:13.811.19-Jul-2021 4553.00 3612.91 71.04 28.00  77.43 2740.81
   13:09:14.011.19-Jul-2021 4553.00 3612.93 71.04 28.00  77.63 2740.81
   13:09:14.211.19-Jul-2021 4553.00 3612.94 71.04 28.00  77.83 2740.81
   13:09:14.411.19-Jul-2021 4553.00 3612.95 71.04 28.00  78.03 2740.81
   13:09:14.611.19-Jul-2021 4553.00 3612.95 71.04 28.00  78.23 2740.81
   13:09:14.811.19-Jul-2021 4553.00 3612.96 71.04 28.00  78.43 2740.81
   13:09:15.011.19-Jul-2021 4553.00 3612.98 71.04 28.00  78.63 2740.81
   13:09:15.211.19-Jul-2021 4553.00 3612.98 71.04 28.00  78.83 2740.81
   13:09:15.411.19-Jul-2021 4553.00 3612.97 71.04 28.00  79.03 2740.81
   13:09:15.611.19-Jul-2021 4553.00 3612.97 71.04 28.00  79.23 2740.81
   13:09:15.811.19-Jul-2021 4553.00 3612.74 71.04 28.00  79.43 2740.81
   13:09:16.011.19-Jul-2021 4553.00 3613.32 71.04 28.00  79.63 2740.81
   13:09:16.211.19-Jul-2021 4553.00 3612.84 71.04 28.00  79.83 2740.81
   13:09:16.411.19-Jul-2021 4553.00 3613.07 71.04 28.00  80.03 2740.81
   13:09:16.612.19-Jul-2021 4553.00 3613.07 71.04 28.00  80.23 2740.81
   13:09:16.812.19-Jul-2021 4553.00 3612.94 71.04 28.00  80.43 2740.81
   13:09:17.012.19-Jul-2021 4553.00 3612.98 71.04 28.00  80.63 2740.81
   13:09:17.212.19-Jul-2021 4553.00 3612.96 71.04 28.00  80.83 2740.81
   13:09:17.412.19-Jul-2021 4553.00 3612.98 71.04 28.00  81.03 2740.81
   13:09:17.612.19-Jul-2021 4553.00 3612.98 71.04 28.00  81.23 2740.81
   13:09:17.812.19-Jul-2021 4553.00 3612.99 71.04 28.00  81.43 2740.81
   13:09:18.012.19-Jul-2021 4553.00 3613.01 71.04 28.00  81.63 2740.81
   13:09:18.212.19-Jul-2021 4553.00 3613.03 71.04 28.00  81.83 2740.81
   13:09:18.412.19-Jul-2021 4553.00 3613.06 71.04 28.00  82.03 2740.81
   13:09:18.612.19-Jul-2021 4553.00 3613.06 71.04 28.00  82.23 2740.81
   13:09:18.812.19-Jul-2021 4553.00 3612.83 71.04 28.00  82.43 2740.81
   13:09:19.012.19-Jul-2021 4553.00 3613.31 71.04 28.00  82.63 2740.81
   13:09:19.213.19-Jul-2021 4553.00 3612.87 71.04 28.00  82.83 2740.81
   13:09:19.413.19-Jul-2021 4553.00 3612.93 71.04 28.00  83.03 2740.81
   13:09:19.613.19-Jul-2021 4553.00 3612.93 71.04 28.00  83.23 2740.81
   13:09:19.813.19-Jul-2021 4553.00 3612.82 71.04 28.00  83.43 2740.81
   13:09:20.013.19-Jul-2021 4553.00 3612.91 71.04 28.00  83.63 2740.81
   13:09:20.213.19-Jul-2021 4553.00 3612.99 71.04 28.00  83.83 2740.81
   13:09:20.413.19-Jul-2021 4553.00 3613.06 71.04 28.00  84.03 2740.81
   13:09:20.613.19-Jul-2021 4553.00 3613.06 71.04 28.00  84.23 2740.81
   13:09:20.813.19-Jul-2021 4553.00 3613.03 71.04 28.00  84.43 2740.81
   13:09:21.013.19-Jul-2021 4553.00 3613.00 71.04 28.00  84.63 2740.81
   13:09:21.213.19-Jul-2021 4553.00 3612.91 71.04 28.00  84.83 2740.81
   13:09:21.413.19-Jul-2021 4553.00 3613.15 71.05 28.00  85.03 2740.81
   13:09:21.613.19-Jul-2021 4553.00 3613.15 71.05 28.00  85.23 2740.81
   13:09:21.813.19-Jul-2021 4553.00 3613.00 71.05 28.00  85.43 2740.81
   13:09:22.014.19-Jul-2021 4553.00 3612.97 71.05 28.00  85.63 2740.81
   13:09:22.214.19-Jul-2021 4553.00 3613.01 71.05 28.00  85.83 2740.81
   13:09:22.414.19-Jul-2021 4553.00 3613.00 71.05 28.00  86.03 2740.81
   13:09:22.614.19-Jul-2021 4553.00 3613.00 71.05 28.00  86.23 2740.81
   13:09:22.814.19-Jul-2021 4553.00 3613.03 71.05 28.00  86.43 2740.81
   13:09:23.014.19-Jul-2021 4553.00 3613.02 71.05 28.00  86.63 2740.81
   13:09:23.214.19-Jul-2021 4553.00 3613.03 71.05 28.00  86.83 2740.81
   13:09:23.414.19-Jul-2021 4553.00 3613.04 71.05 28.00  87.03 2740.81
   13:09:23.614.19-Jul-2021 4553.00 3613.04 71.05 28.00  87.23 2740.81
   13:09:23.814.19-Jul-2021 4553.00 3613.05 71.05 28.00  87.43 2740.81
   13:09:24.014.19-Jul-2021 4553.00 3612.98 71.05 28.00  87.63 2740.81
   13:09:24.214.19-Jul-2021 4553.00 3613.14 71.05 28.00  87.83 2740.81
   13:09:24.414.19-Jul-2021 4553.00 3612.98 71.05 28.00  88.03 2740.81
   13:09:24.615.19-Jul-2021 4553.00 3612.98 71.05 28.00  88.23 2740.81
   13:09:24.815.19-Jul-2021 4553.00 3613.02 71.05 28.00  88.43 2740.81
   13:09:25.015.19-Jul-2021 4553.00 3612.99 71.05 28.00  88.63 2740.81
   13:09:25.215.19-Jul-2021 4553.00 3613.01 71.05 28.00  88.83 2740.81
   13:09:25.415.19-Jul-2021 4553.00 3613.05 71.05 28.00  89.03 2740.81
   13:09:25.615.19-Jul-2021 4553.00 3613.05 71.05 28.00  89.23 2740.81
   13:09:25.815.19-Jul-2021 4553.00 3613.03 71.05 28.00  89.43 2740.81
   13:09:26.015.19-Jul-2021 4553.00 3613.05 71.05 28.00  89.63 2740.81
   13:09:26.215.19-Jul-2021 4553.00 3613.05 71.05 28.00  89.83 2740.81
   13:09:26.415.19-Jul-2021 4553.00 3613.07 71.05 28.00  90.03 2740.81
   13:09:26.615.19-Jul-2021 4553.00 3613.07 71.05 28.00  90.23 2740.81
