~Version Information
 VERS.                  2.0:   CWLS log ASCII Standard -VERSION 2.0
 WRAP.                   NO:   One line per depth step
~Well Information Block
#MNEM.UNIT     VALUE/NAME     DESCRIPTION
#---------     -----------    ---------------------------
 STRT.S             10:59:18 19-Jul-21: START TIME 10:59:18 19-Jul-21
 STOP.S             11:06:11 19-Jul-21: STOP TIME  11:06:11 19-Jul-21
 STEP.S                   0.00: STEP TIME
 NULL.                 -999.25: NULL VALUE
 MDS .        Operator Entered:  MAG DATA SOURCE
 PDAT.          Mean Sea Level:  PERMANENT DATUM
 UNIT.                     N/A:  LOGGING EQUIPMENT ID
 DCON.         Sperry Drilling:  DIRECTNL CONTR
 DOE .                     N/A:  DOE NUMBER
 RIG .              West Azeri:  RIG NAME
 JOBN.        AZ-XX-0906997913:  JOB TICKET NUMB
 WELL.                     C41:  WELL NAME
 MWDS.                    Baku:  MWD SHOP
 SRVC.          Turan Drilling:  CONTRACTOR
 FLD .                     ACG:  FIELD NAME
 CTRY.              Azerbaijan:  COUNTRY NAME
 PROV.                    Baku:  PROVINCE
 STAT.                    Baku:  STATE NAME
 REGN.                   EESSA:  REGION
 BASE.              Azerbaijan:  LOGGING EQUIPMENT BASE LOCATION
 UWI .                     N/A:  UNIQUE WELL IDENTIFIER
 API .                     N/A:  API NUMBER
 COMP.     BP Exploration (Caspian Sea) Ltd.:  COMPANY
 WTYP.                Deviated:  WELL TYPE
 SON .        AZ-XX-0906997913:  JOB NUMBER
 FTOP.          Formation Tops:  FORM TOPS DESC
 ILTD.               Lithology:  INTERP LTH DESC
 SVYD.                  Survey:  SURVEY DESC
 DMOD.             Drill Model:  DRILL MOD DESC
 HPTY.       Minimum Curvature:  HOLE POS TYPE
 NREF.                    Grid:  NORTH REFERENCE
 SPUD.               16-May-21:  SPUD DATE
 DATE.      21.11.28 17-May-21:  END TIME
 STIM.      21.11.28 17-May-21:  START TIME
 DMF .             Drill Floor:  DRILL MEAS FROM
 DFST.                        :  DIST FSL TEXT
 DFWT.                        :  DIST FWL TEXT
 CNTY.                        :  COUNTY
 LOC .                        :  LOCATION
 LMF .             Drill Floor:  LOG MEASURED FROM
 AGAP.m                  43.42:  AIR GAP
 VSNS.m                  -2.16:  VERT SEC N/S
 VSEW.m                  -6.24:  VERT SEC E/W
 APD .m                  43.42:  DEPTH ABOVE PD
 WDMS.m                 118.27:  WD ELEV
 EGL .m                   0.00:  GROUND ELEVATION
 EPD .m                   0.00:  ELEVATION
 AZTC.deg                 6.29:  AZM TOTAL CORR
 GRDC.deg                 0.18:  GRID CORRECTION
 MDEC.deg                 6.47:  MAGNETIC DECL
 MDIP.deg                59.54:  MAGNETIC DIP
 MFLD.nT              50337.00:  MAGNETIC FIELD
 GVFD.g                   1.00:  GRAVITY FIELD
 VSDR.deg               226.99:  VERT SEC DIRECT
 TDD .m                   0.00:  TOTAL DEPTH (DRILLER)
 SDEP.m                 448.00:  START DEPTH
 DFSL.m                   0.00:  DISTANCE FSL
 DFWL.m                   0.00:  DISTANCE FWL
 UTMY.m             4435799.96:  UTM Y
 UTMX.m              526265.35:  UTM X
 WHEW.m                  -6.24:  WELL HEAD E/W
 WHNS.m                  -2.16:  WELL HEAD N/S
 LONG.deg                51.31:  LONGITUDE
 LATI.deg                40.06:  LATITUDE
 TVDS.m                  43.42:  TVDSS CORRECTN
 EKB .m                  43.42:  KB ELEVATION
 EDF .m                  43.42:  DF ELEVATION
 TDL .m                 288.00:  TOTAL DEPTH (LOGGER)
 MAGU.                 1851863:  MAGUTM CHECKSUM
 VSC .                       0:  VS TO CLOSURE
~Parameter Information Block
#MNEM.UNIT       Value        Description
#---------     -----------    ---------------------------
 AV  .mps                 0.40:  Ann Velocity 
 AVMX.mps                 0.63:  Max Ann Veloc 
 AZIF.deg               158.76:  Azm, Final 
 BHAT.        Rotary Steerable:  BHA Type 
 BROT.°/30m               0.68:  Build Rotating 
 BS  .in                  8.50:  Bit Size 
 BSZ .in                  8.50:  Bit Size 
 BTPL.psig              712.00:  Bit Press Loss 
 CABU.                      No:  Customer Abuse 
 COMM.                     ô:x:  Run Comments 1 
 TCS .hr                 90.66:  Time Ciculation Ended 
 CV  .mps                 2.02:  Crit Velocity 
 CVMX.mps                 2.14:  Max Crit Veloc 
 DD1 .            Aziz Aliyevu:  Direct Drillr 1 
 DD2 .             Samir Abbas:  Direct Drillr 2 
 DD3 .           Teymur Aliyev:  Direct Drillr 3 
 DDSV.                 iCruise:  DD Service 
 DEFF.%                  85.10:  % Det Eff 
 DLRX.°/30m               1.05:  Dogleg Rot Max 
 DLSO.°/30m               1.01:  Dogleg Oriented 
 DLSX.°/30m               1.05:  Dogleg Str Max 
 DRET.      07.45.00 18-Jul-21:  Drill End Time 
 DRST.      15.00.00 16-Jul-21:  Drill Start Tim 
 DTIM.hr                 23.46:  Time Drilling 
 EDEP.m                4603.00:  End Depth 
 ENG1.       Seymur Iskandarov:  Engineer 1 
 ENG2.         Yevgeniy Ulikov:  Engineer 2 
 ENG3.         Bahruz Mehdiyev:  Engineer 3 
 ENG4.         Elchin Mammadov:  Engineer 4 
 ETIM.      14.00.00 23-Jul-21:  End Time 
 FLOI.gpm               500.00:  Flow In 
 FLON.gpm               450.00:  Flow In Min 
 FLOS.cptm                0.00:  Fluid Loss 
 FLOX.gpm               560.00:  Flow In Max 
 DFT .        Mineral Oil Base:  Mud Type 
 FTRO.       Formation Presure:  FTWD Run Obj 
 HFLO.                      No:  High Flow 
 HPRE.                      No:  High Pressure 
 HTEM.                      No:  High Temp 
 HYDO.m                   1.80:  Hydro Offset 
 IFIN.deg                40.22:  Inc, Final 
 IMAX.deg                40.54:  Inc Max 
 IMIN.deg                39.44:  Inc Min 
 IMND.m                4361.17:  Inc Min Depth 
 IMXD.m                4417.92:  Inc Max Depth 
 JARR.                      No:  Jarring 
 LETM.      07.45.00 18-Jul-21:  Log End Time 
 LOST.hr                    16:  Lost Rig Time 
 LSTM.      15.00.00 16-Jul-21:  Log Start Time 
 MDCL.ppm             36500.00:  Mud Chlorides 
 MDES.     Inversion Oil/Synthetic:  Mud Desc 
 DFD .sg                  1.42:  Mud Density 
 MDMN.sg                  1.42:  Dens Mud Min 
 MDMX.sg                  1.43:  Dens Mud Max 
 MOIL.                      56:  Run Mud Oil % 
 MOWR.                   71:29:  Run Mud OWR 
 MSND.                     0.5:  Run Mud Sand % 
 MSOL.                      21:  Run Mud Solids% 
 DFV .spqt               78.00:  Mud Viscosity 
 MWOD.in                  6.75:  MWD Tool OD 
 MWSI.                     Yes:  Serv Intrp, MWD 
 OTIM.hr                200.73:  Time Operating 
 PCON.           Look Like New:  Pad Condition 
 PMAX.psia            11069.93:  Press Op, Max 
 PV  .cP                 32.00:  Mud PV 
 RUN .                     700:  Run Number 
 ROPA.m/hr               10.00:  ROP Avg 
 ROPN.m/hr                9.00:  ROP Min 
 ROPX.m/hr               16.00:  ROP Max 
 RPMA.rpm               116.00:  RPM Surface Avg 
 RPMN.rpm                80.00:  RPM Surface Min 
 RPMX.rpm               120.00:  RPM Surface Max 
 RRUN.                    L605:  Rig Run Number 
 RTIM.hr                 45.00:  Time Reaming 
 SAZI.deg               159.86:  Azm, Start 
 SDEP.m                4315.00:  Start Depth 
 SIDD.                      No:  Serv Intrp, DD 
 SINC.deg                39.86:  Inc, Start 
 SPPA.psig             3300.00:  SPP Avg 
 SPPN.psig             3040.00:  SPP Min 
 SPPX.psig             3645.00:  SPP Max 
 STIM.      01.00.00 15-Jul-21:  Start Time 
 SVCS.                 DD, MWD:  Services 
 SVER.                    9.20:  Sperry Version 
 TDAT.m                 288.00:  Tot Depth Attmp 
 TDDF.                      No:  Trip for DD 
 TDLG.m                 288.00:  Tot Depth Loggd 
 TFF .                      No:  Trip for Fail 
 TQAA.f-kp               19.00:  Torque Abs Avg 
 TQAN.f-kp               18.00:  Torque Abs Min 
 TQAX.f-kp               21.00:  Torque Abs Max 
 TRRT.°/30m               0.45:  Turn Rotating 
 MRT .                    HCIM:  Maximum Recorded Temperature 
 TTMX.degC               88.24:  Max Tool Temp 
 VS01.                90649157:  Virtual Str1 SN 
 VS02.                90652483:  Virtual Str2 SN 
 VS03.                11671987:  Virtual Str3 SN 
 VS04.                90643411:  Virtual Str4 SN 
 VS05.                90652478:  Virtual Str5 SN 
 VS06.                    6111:  Virtual Str6 SN 
 WBMN.klb                 9.50:  WOB Min 
 WITN.        Grigoriy Sarayev:  Customer Rep 
 WITN.          Rufat Huseynov:  Customer Rep 2 
 WOBA.klb                11.00:  WOB Avg 
 WOBX.klb                15.00:  WOB Max 
 YP  .lhf2               28.00:  Yield Point 
~Curve Information Block
#MNEM.UNIT                 API CODE     Curve Description
#---------               -----------    ---------------------------
 TIME.HHMMSS            00 000 000 000:  GT Time & Date
 GTDEPTH.m              00 000 000 000:  GT Depth
 GTPQH.psia             00 000 000 000:  GT HR Quartz Pressure
 GTTQ.degC              00 000 000 000:  GT Quartz Temperature
 GTTN.NONE              00 000 000 000:  GT Test Number
 GTET.sec               00 000 000 000:  GT Elapsed Test Time
 GTTVD.m                00 000 000 000:  GT True Vertical Depth
#Other Information
#
#WARRANTY: Halliburton will use its best efforts to furnish customers with 
#accurate information and interpretations that are part of, and incident to, the services 
#provided.  However, Halliburton cannot and does not warrant the accuracy 
#or correctness of such information and interpretations.  Under no circumstances should any 
#such information or interpretation be relied upon as the sole basis for any drilling, 
#completion, production, or financial decision or any procedure involving any risk to the 
#safety of any drilling venture, drilling rig or its crew or any other third party.  The 
#Customer has full responsibility for all drilling, completion and production operation.  
#Halliburton makes no representations or warranties, either expressed or 
#implied, including, but not limited to, the implied warranties of merchantability or fitness 
#for a particular purpose, with respect to the services rendered.  In no event will 
#Halliburton be liable for failure to obtain any particular results or for 
#any damages, including, but not limited to, indirect, special or consequential damages, 
#resulting from the use of any information or interpretation provided by Halliburton.
#
~A           TIME           GTDEPTH  GTPQH  GTTQ  GTTN   GTET   GTTVD  
# ...
   11:04:35.057.19-Jul-2021 4503.50 3538.65 70.64 24.00 316.52 2702.92
   11:04:35.257.19-Jul-2021 4503.50 3538.73 70.64 24.00 316.72 2702.92
   11:04:35.457.19-Jul-2021 4503.50 3538.63 70.64 24.00 316.92 2702.92
   11:04:35.657.19-Jul-2021 4503.50 3538.69 70.64 24.00 317.12 2702.92
   11:04:35.857.19-Jul-2021 4503.50 3538.69 70.64 24.00 317.32 2702.92
   11:04:36.057.19-Jul-2021 4503.50 3538.67 70.64 24.00 317.52 2702.92
   11:04:36.257.19-Jul-2021 4503.50 3538.75 70.64 24.00 317.72 2702.92
   11:04:36.457.19-Jul-2021 4503.50 3538.62 70.64 24.00 317.92 2702.92
   11:04:36.657.19-Jul-2021 4503.50 3538.69 70.64 24.00 318.12 2702.92
   11:04:36.857.19-Jul-2021 4503.50 3538.69 70.64 24.00 318.32 2702.92
   11:04:37.058.19-Jul-2021 4503.50 3538.63 70.64 24.00 318.52 2702.92
   11:04:37.258.19-Jul-2021 4503.50 3538.69 70.64 24.00 318.72 2702.92
   11:04:37.458.19-Jul-2021 4503.50 3538.67 70.64 24.00 318.92 2702.92
   11:04:37.658.19-Jul-2021 4503.50 3538.65 70.64 24.00 319.12 2702.92
   11:04:37.858.19-Jul-2021 4503.50 3538.65 70.64 24.00 319.32 2702.92
   11:04:38.058.19-Jul-2021 4503.50 3538.67 70.64 24.00 319.52 2702.92
   11:04:38.258.19-Jul-2021 4503.50 3538.69 70.64 24.00 319.72 2702.92
   11:04:38.458.19-Jul-2021 4503.50 3538.67 70.64 24.00 319.92 2702.92
   11:04:38.658.19-Jul-2021 4503.50 3538.67 70.64 24.00 320.12 2702.92
   11:04:38.858.19-Jul-2021 4503.50 3538.67 70.64 24.00 320.32 2702.92
   11:04:39.058.19-Jul-2021 4503.50 3538.69 70.64 24.00 320.52 2702.92
   11:04:39.258.19-Jul-2021 4503.50 3538.67 70.64 24.00 320.72 2702.92
   11:04:39.458.19-Jul-2021 4503.50 3538.68 70.64 24.00 320.92 2702.92
   11:04:39.658.19-Jul-2021 4503.50 3538.76 70.64 24.00 321.12 2702.92
   11:04:39.859.19-Jul-2021 4503.50 3538.76 70.64 24.00 321.32 2702.92
   11:04:40.059.19-Jul-2021 4503.50 3538.66 70.64 24.00 321.52 2702.92
   11:04:40.259.19-Jul-2021 4503.50 3538.67 70.64 24.00 321.72 2702.92
   11:04:40.459.19-Jul-2021 4503.50 3538.68 70.64 24.00 321.92 2702.92
   11:04:40.659.19-Jul-2021 4503.50 3538.67 70.64 24.00 322.12 2702.92
   11:04:40.859.19-Jul-2021 4503.50 3538.67 70.64 24.00 322.32 2702.92
   11:04:41.059.19-Jul-2021 4503.50 3538.67 70.64 24.00 322.52 2702.92
   11:04:41.259.19-Jul-2021 4503.50 3538.68 70.64 24.00 322.72 2702.92
   11:04:41.459.19-Jul-2021 4503.50 3538.67 70.64 24.00 322.92 2702.92
   11:04:41.659.19-Jul-2021 4503.50 3538.68 70.64 24.00 323.12 2702.92
   11:04:41.859.19-Jul-2021 4503.50 3538.68 70.64 24.00 323.32 2702.92
   11:04:42.059.19-Jul-2021 4503.50 3538.68 70.64 24.00 323.52 2702.92
   11:04:42.259.19-Jul-2021 4503.50 3538.76 70.64 24.00 323.72 2702.92
   11:04:42.460.19-Jul-2021 4503.50 3538.64 70.64 24.00 323.92 2702.92
   11:04:42.660.19-Jul-2021 4503.50 3538.68 70.64 24.00 324.12 2702.92
   11:04:42.860.19-Jul-2021 4503.50 3538.68 70.64 24.00 324.32 2702.92
   11:04:43.060.19-Jul-2021 4503.50 3538.71 70.64 24.00 324.52 2702.92
   11:04:43.260.19-Jul-2021 4503.50 3538.68 70.64 24.00 324.72 2702.92
   11:04:43.460.19-Jul-2021 4503.50 3538.67 70.64 24.00 324.92 2702.92
   11:04:43.660.19-Jul-2021 4503.50 3538.76 70.64 24.00 325.12 2702.92
   11:04:43.860.19-Jul-2021 4503.50 3538.76 70.64 24.00 325.32 2702.92
   11:04:44.060.19-Jul-2021 4503.50 3538.65 70.64 24.00 325.52 2702.92
   11:04:44.260.19-Jul-2021 4503.50 3538.68 70.64 24.00 325.72 2702.92
   11:04:44.460.19-Jul-2021 4503.50 3538.67 70.64 24.00 325.92 2702.92
   11:04:44.660.19-Jul-2021 4503.50 3538.74 70.64 24.00 326.12 2702.92
   11:04:44.860.19-Jul-2021 4503.50 3538.74 70.64 24.00 326.32 2702.92
   11:04:45.060.19-Jul-2021 4503.50 3538.65 70.64 24.00 326.52 2702.92
   11:04:45.261.19-Jul-2021 4503.50 3538.78 70.64 24.00 326.72 2702.92
   11:04:45.461.19-Jul-2021 4503.50 3538.60 70.64 24.00 326.92 2702.92
   11:04:45.661.19-Jul-2021 4503.50 3538.66 70.64 24.00 327.12 2702.92
   11:04:45.861.19-Jul-2021 4503.50 3538.66 70.64 24.00 327.32 2702.92
   11:04:46.061.19-Jul-2021 4503.50 3538.67 70.64 24.00 327.52 2702.92
   11:04:46.261.19-Jul-2021 4503.50 3538.67 70.64 24.00 327.72 2702.92
   11:04:46.461.19-Jul-2021 4503.50 3538.67 70.64 24.00 327.92 2702.92
   11:04:46.661.19-Jul-2021 4503.50 3538.67 70.64 24.00 328.12 2702.92
   11:04:46.861.19-Jul-2021 4503.50 3538.67 70.64 24.00 328.32 2702.92
   11:04:47.061.19-Jul-2021 4503.50 3538.68 70.64 24.00 328.52 2702.92
   11:04:47.261.19-Jul-2021 4503.50 3538.68 70.64 24.00 328.72 2702.92
   11:04:47.461.19-Jul-2021 4503.50 3538.68 70.64 24.00 328.92 2702.92
   11:04:47.661.19-Jul-2021 4503.50 3538.69 70.64 24.00 329.12 2702.92
   11:04:47.862.19-Jul-2021 4503.50 3538.69 70.64 24.00 329.32 2702.92
   11:04:48.062.19-Jul-2021 4503.50 3538.77 70.64 24.00 329.52 2702.92
   11:04:48.262.19-Jul-2021 4503.50 3538.59 70.64 24.00 329.72 2702.92
   11:04:48.462.19-Jul-2021 4503.50 3538.69 70.64 24.00 329.92 2702.92
   11:04:48.662.19-Jul-2021 4503.50 3538.65 70.64 24.00 330.12 2702.92
   11:04:48.862.19-Jul-2021 4503.50 3538.65 70.64 24.00 330.32 2702.92
   11:04:49.062.19-Jul-2021 4503.50 3538.66 70.64 24.00 330.52 2702.92
   11:04:49.262.19-Jul-2021 4503.50 3538.66 70.64 24.00 330.72 2702.92
   11:04:49.462.19-Jul-2021 4503.50 3538.68 70.64 24.00 330.92 2702.92
   11:04:49.662.19-Jul-2021 4503.50 3538.67 70.64 24.00 331.12 2702.92
   11:04:49.862.19-Jul-2021 4503.50 3538.67 70.64 24.00 331.32 2702.92
   11:04:50.062.19-Jul-2021 4503.50 3538.67 70.64 24.00 331.52 2702.92
   11:04:50.262.19-Jul-2021 4503.50 3538.68 70.64 24.00 331.72 2702.92
   11:04:50.462.19-Jul-2021 4503.50 3538.68 70.64 24.00 331.92 2702.92
   11:04:50.663.19-Jul-2021 4503.50 3538.76 70.64 24.00 332.12 2702.92
   11:04:50.863.19-Jul-2021 4503.50 3538.76 70.64 24.00 332.32 2702.92
   11:04:51.063.19-Jul-2021 4503.50 3538.65 70.64 24.00 332.52 2702.92
   11:04:51.263.19-Jul-2021 4503.50 3538.76 70.64 24.00 332.72 2702.92
   11:04:51.463.19-Jul-2021 4503.50 3538.62 70.64 24.00 332.92 2702.92
   11:04:51.663.19-Jul-2021 4503.50 3538.68 70.64 24.00 333.12 2702.92
   11:04:51.863.19-Jul-2021 4503.50 3538.68 70.64 24.00 333.32 2702.92
   11:04:52.063.19-Jul-2021 4503.50 3538.77 70.64 24.00 333.52 2702.92
   11:04:52.263.19-Jul-2021 4503.50 3538.58 70.64 24.00 333.72 2702.92
   11:04:52.463.19-Jul-2021 4503.50 3538.70 70.64 24.00 333.92 2702.92
   11:04:52.663.19-Jul-2021 4503.50 3538.65 70.64 24.00 334.12 2702.92
   11:04:52.863.19-Jul-2021 4503.50 3538.65 70.64 24.00 334.32 2702.92
   11:04:53.063.19-Jul-2021 4503.50 3538.78 70.64 24.00 334.52 2702.92
   11:04:53.263.19-Jul-2021 4503.50 3538.57 70.64 24.00 334.72 2702.92
   11:04:53.464.19-Jul-2021 4503.50 3538.69 70.64 24.00 334.92 2702.92
   11:04:53.664.19-Jul-2021 4503.50 3538.79 70.64 24.00 335.12 2702.92
   11:04:53.864.19-Jul-2021 4503.50 3538.79 70.64 24.00 335.32 2702.92
   11:04:54.064.19-Jul-2021 4503.50 3538.69 70.64 24.00 335.52 2702.92
   11:04:54.264.19-Jul-2021 4503.50 3538.66 70.64 24.00 335.72 2702.92
   11:04:54.464.19-Jul-2021 4503.50 3538.67 70.64 24.00 335.92 2702.92
   11:04:54.664.19-Jul-2021 4503.50 3538.68 70.64 24.00 336.12 2702.92
   11:04:54.864.19-Jul-2021 4503.50 3538.68 70.64 24.00 336.32 2702.92
   11:04:55.064.19-Jul-2021 4503.50 3538.68 70.64 24.00 336.52 2702.92
   11:04:55.264.19-Jul-2021 4503.50 3538.67 70.64 24.00 336.72 2702.92
   11:04:55.464.19-Jul-2021 4503.50 3538.68 70.64 24.00 336.92 2702.92
   11:04:55.664.19-Jul-2021 4503.50 3538.68 70.64 24.00 337.12 2702.92
   11:04:55.864.19-Jul-2021 4503.50 3538.68 70.64 24.00 337.32 2702.92
   11:04:56.065.19-Jul-2021 4503.50 3538.69 70.64 24.00 337.52 2702.92
   11:04:56.265.19-Jul-2021 4503.50 3538.67 70.64 24.00 337.72 2702.92
   11:04:56.465.19-Jul-2021 4503.50 3538.69 70.64 24.00 337.92 2702.92
   11:04:56.665.19-Jul-2021 4503.50 3538.67 70.64 24.00 338.12 2702.92
   11:04:56.865.19-Jul-2021 4503.50 3538.67 70.64 24.00 338.32 2702.92
   11:04:57.065.19-Jul-2021 4503.50 3538.70 70.64 24.00 338.52 2702.92
   11:04:57.265.19-Jul-2021 4503.50 3538.65 70.64 24.00 338.72 2702.92
   11:04:57.465.19-Jul-2021 4503.50 3538.68 70.64 24.00 338.92 2702.92
