~Version Information
 VERS.                  2.0:   CWLS log ASCII Standard -VERSION 2.0
 WRAP.                   NO:   One line per depth step
~Well Information Block
#MNEM.UNIT     VALUE/NAME     DESCRIPTION
#---------     -----------    ---------------------------
 STRT.S             06:08:07 19-Jul-21: START TIME 06:08:07 19-Jul-21
 STOP.S             06:15:04 19-Jul-21: STOP TIME  06:15:04 19-Jul-21
 STEP.S                   0.00: STEP TIME
 NULL.                 -999.25: NULL VALUE
 MDS .        Operator Entered:  MAG DATA SOURCE
 PDAT.          Mean Sea Level:  PERMANENT DATUM
 UNIT.                     N/A:  LOGGING EQUIPMENT ID
 DCON.         Sperry Drilling:  DIRECTNL CONTR
 DOE .                     N/A:  DOE NUMBER
 RIG .              West Azeri:  RIG NAME
 JOBN.        AZ-XX-0906997913:  JOB TICKET NUMB
 WELL.                     C41:  WELL NAME
 MWDS.                    Baku:  MWD SHOP
 SRVC.          Turan Drilling:  CONTRACTOR
 FLD .                     ACG:  FIELD NAME
 CTRY.              Azerbaijan:  COUNTRY NAME
 PROV.                    Baku:  PROVINCE
 STAT.                    Baku:  STATE NAME
 REGN.                   EESSA:  REGION
 BASE.              Azerbaijan:  LOGGING EQUIPMENT BASE LOCATION
 UWI .                     N/A:  UNIQUE WELL IDENTIFIER
 API .                     N/A:  API NUMBER
 COMP.     BP Exploration (Caspian Sea) Ltd.:  COMPANY
 WTYP.                Deviated:  WELL TYPE
 SON .        AZ-XX-0906997913:  JOB NUMBER
 FTOP.          Formation Tops:  FORM TOPS DESC
 ILTD.               Lithology:  INTERP LTH DESC
 SVYD.                  Survey:  SURVEY DESC
 DMOD.             Drill Model:  DRILL MOD DESC
 HPTY.       Minimum Curvature:  HOLE POS TYPE
 NREF.                    Grid:  NORTH REFERENCE
 SPUD.               16-May-21:  SPUD DATE
 DATE.      21.11.28 17-May-21:  END TIME
 STIM.      21.11.28 17-May-21:  START TIME
 DMF .             Drill Floor:  DRILL MEAS FROM
 DFST.                        :  DIST FSL TEXT
 DFWT.                        :  DIST FWL TEXT
 CNTY.                        :  COUNTY
 LOC .                        :  LOCATION
 LMF .             Drill Floor:  LOG MEASURED FROM
 AGAP.m                  43.42:  AIR GAP
 VSNS.m                  -2.16:  VERT SEC N/S
 VSEW.m                  -6.24:  VERT SEC E/W
 APD .m                  43.42:  DEPTH ABOVE PD
 WDMS.m                 118.27:  WD ELEV
 EGL .m                   0.00:  GROUND ELEVATION
 EPD .m                   0.00:  ELEVATION
 AZTC.deg                 6.29:  AZM TOTAL CORR
 GRDC.deg                 0.18:  GRID CORRECTION
 MDEC.deg                 6.47:  MAGNETIC DECL
 MDIP.deg                59.54:  MAGNETIC DIP
 MFLD.nT              50337.00:  MAGNETIC FIELD
 GVFD.g                   1.00:  GRAVITY FIELD
 VSDR.deg               226.99:  VERT SEC DIRECT
 TDD .m                   0.00:  TOTAL DEPTH (DRILLER)
 SDEP.m                 448.00:  START DEPTH
 DFSL.m                   0.00:  DISTANCE FSL
 DFWL.m                   0.00:  DISTANCE FWL
 UTMY.m             4435799.96:  UTM Y
 UTMX.m              526265.35:  UTM X
 WHEW.m                  -6.24:  WELL HEAD E/W
 WHNS.m                  -2.16:  WELL HEAD N/S
 LONG.deg                51.31:  LONGITUDE
 LATI.deg                40.06:  LATITUDE
 TVDS.m                  43.42:  TVDSS CORRECTN
 EKB .m                  43.42:  KB ELEVATION
 EDF .m                  43.42:  DF ELEVATION
 TDL .m                 288.00:  TOTAL DEPTH (LOGGER)
 MAGU.                 1851863:  MAGUTM CHECKSUM
 VSC .                       0:  VS TO CLOSURE
~Parameter Information Block
#MNEM.UNIT       Value        Description
#---------     -----------    ---------------------------
 AV  .mps                 0.40:  Ann Velocity 
 AVMX.mps                 0.63:  Max Ann Veloc 
 AZIF.deg               158.76:  Azm, Final 
 BHAT.        Rotary Steerable:  BHA Type 
 BROT.°/30m               0.68:  Build Rotating 
 BS  .in                  8.50:  Bit Size 
 BSZ .in                  8.50:  Bit Size 
 BTPL.psig              712.00:  Bit Press Loss 
 CABU.                      No:  Customer Abuse 
 TCS .hr                 90.66:  Time Ciculation Ended 
 CV  .mps                 2.02:  Crit Velocity 
 CVMX.mps                 2.14:  Max Crit Veloc 
 DD1 .            Aziz Aliyevu:  Direct Drillr 1 
 DD2 .             Samir Abbas:  Direct Drillr 2 
 DD3 .           Teymur Aliyev:  Direct Drillr 3 
 DDSV.                 iCruise:  DD Service 
 DEFF.%                  85.10:  % Det Eff 
 DLRX.°/30m               1.05:  Dogleg Rot Max 
 DLSO.°/30m               1.01:  Dogleg Oriented 
 DLSX.°/30m               1.05:  Dogleg Str Max 
 DRET.      07.45.00 18-Jul-21:  Drill End Time 
 DRST.      15.00.00 16-Jul-21:  Drill Start Tim 
 DTIM.hr                 23.46:  Time Drilling 
 EDEP.m                4603.00:  End Depth 
 ENG1.       Seymur Iskandarov:  Engineer 1 
 ENG2.         Yevgeniy Ulikov:  Engineer 2 
 ENG3.         Bahruz Mehdiyev:  Engineer 3 
 ENG4.         Elchin Mammadov:  Engineer 4 
 ETIM.      14.00.00 23-Jul-21:  End Time 
 FLOI.gpm               500.00:  Flow In 
 FLON.gpm               450.00:  Flow In Min 
 FLOS.cptm                0.00:  Fluid Loss 
 FLOX.gpm               560.00:  Flow In Max 
 DFT .        Mineral Oil Base:  Mud Type 
 FTRO.       Formation Presure:  FTWD Run Obj 
 HFLO.                      No:  High Flow 
 HPRE.                      No:  High Pressure 
 HTEM.                      No:  High Temp 
 HYDO.m                   1.80:  Hydro Offset 
 IFIN.deg                40.22:  Inc, Final 
 IMAX.deg                40.54:  Inc Max 
 IMIN.deg                39.44:  Inc Min 
 IMND.m                4361.17:  Inc Min Depth 
 IMXD.m                4417.92:  Inc Max Depth 
 JARR.                      No:  Jarring 
 LETM.      07.45.00 18-Jul-21:  Log End Time 
 LOST.hr                    16:  Lost Rig Time 
 LSTM.      15.00.00 16-Jul-21:  Log Start Time 
 MDCL.ppm             36500.00:  Mud Chlorides 
 MDES.     Inversion Oil/Synthetic:  Mud Desc 
 DFD .sg                  1.42:  Mud Density 
 MDMN.sg                  1.42:  Dens Mud Min 
 MDMX.sg                  1.43:  Dens Mud Max 
 MOIL.                      56:  Run Mud Oil % 
 MOWR.                   71:29:  Run Mud OWR 
 MSND.                     0.5:  Run Mud Sand % 
 MSOL.                      21:  Run Mud Solids% 
 DFV .spqt               78.00:  Mud Viscosity 
 MWOD.in                  6.75:  MWD Tool OD 
 MWSI.                     Yes:  Serv Intrp, MWD 
 OTIM.hr                200.73:  Time Operating 
 PCON.           Look Like New:  Pad Condition 
 PMAX.psia            11069.93:  Press Op, Max 
 PV  .cP                 32.00:  Mud PV 
 RUN .                     700:  Run Number 
 ROPA.m/hr               10.00:  ROP Avg 
 ROPN.m/hr                9.00:  ROP Min 
 ROPX.m/hr               16.00:  ROP Max 
 RPMA.rpm               116.00:  RPM Surface Avg 
 RPMN.rpm                80.00:  RPM Surface Min 
 RPMX.rpm               120.00:  RPM Surface Max 
 RRUN.                    L605:  Rig Run Number 
 RTIM.hr                 45.00:  Time Reaming 
 SAZI.deg               159.86:  Azm, Start 
 SDEP.m                4315.00:  Start Depth 
 SIDD.                      No:  Serv Intrp, DD 
 SINC.deg                39.86:  Inc, Start 
 SPPA.psig             3300.00:  SPP Avg 
 SPPN.psig             3040.00:  SPP Min 
 SPPX.psig             3645.00:  SPP Max 
 STIM.      01.00.00 15-Jul-21:  Start Time 
 SVCS.                 DD, MWD:  Services 
 SVER.                    9.20:  Sperry Version 
 TDAT.m                 288.00:  Tot Depth Attmp 
 TDDF.                      No:  Trip for DD 
 TDLG.m                 288.00:  Tot Depth Loggd 
 TFF .                      No:  Trip for Fail 
 TQAA.f-kp               19.00:  Torque Abs Avg 
 TQAN.f-kp               18.00:  Torque Abs Min 
 TQAX.f-kp               21.00:  Torque Abs Max 
 TRRT.°/30m               0.45:  Turn Rotating 
 MRT .                    HCIM:  Maximum Recorded Temperature 
 TTMX.degC               88.24:  Max Tool Temp 
 VS01.                90649157:  Virtual Str1 SN 
 VS02.                90652483:  Virtual Str2 SN 
 VS03.                11671987:  Virtual Str3 SN 
 VS04.                90643411:  Virtual Str4 SN 
 VS05.                90652478:  Virtual Str5 SN 
 VS06.                    6111:  Virtual Str6 SN 
 WBMN.klb                 9.50:  WOB Min 
 WITN.        Grigoriy Sarayev:  Customer Rep 
 WITN.          Rufat Huseynov:  Customer Rep 2 
 WOBA.klb                11.00:  WOB Avg 
 WOBX.klb                15.00:  WOB Max 
 YP  .lhf2               28.00:  Yield Point 
~Curve Information Block
#MNEM.UNIT                 API CODE     Curve Description
#---------               -----------    ---------------------------
 TIME.HHMMSS            00 000 000 000:  GT Time & Date
 GTDEPTH.m              00 000 000 000:  GT Depth
 GTPQH.psia             00 000 000 000:  GT HR Quartz Pressure
 GTTQ.degC              00 000 000 000:  GT Quartz Temperature
 GTTN.NONE              00 000 000 000:  GT Test Number
 GTET.sec               00 000 000 000:  GT Elapsed Test Time
 GTTVD.m                00 000 000 000:  GT True Vertical Depth
#Other Information
#
#WARRANTY: Halliburton will use its best efforts to furnish customers with 
#accurate information and interpretations that are part of, and incident to, the services 
#provided.  However, Halliburton cannot and does not warrant the accuracy 
#or correctness of such information and interpretations.  Under no circumstances should any 
#such information or interpretation be relied upon as the sole basis for any drilling, 
#completion, production, or financial decision or any procedure involving any risk to the 
#safety of any drilling venture, drilling rig or its crew or any other third party.  The 
#Customer has full responsibility for all drilling, completion and production operation.  
#Halliburton makes no representations or warranties, either expressed or 
#implied, including, but not limited to, the implied warranties of merchantability or fitness 
#for a particular purpose, with respect to the services rendered.  In no event will 
#Halliburton be liable for failure to obtain any particular results or for 
#any damages, including, but not limited to, indirect, special or consequential damages, 
#resulting from the use of any information or interpretation provided by Halliburton.
#
~A           TIME           GTDEPTH  GTPQH  GTTQ  GTTN   GTET   GTTVD  
# ...
   06:14:08.840.19-Jul-2021 4380.90 6360.66 69.32 14.00 361.73 2609.29
   06:14:09.040.19-Jul-2021 4380.90 6361.20 69.32 14.00 361.93 2609.29
   06:14:09.240.19-Jul-2021 4380.90 6364.29 69.32 14.00 362.13 2609.29
   06:14:09.441.19-Jul-2021 4380.90 6364.29 69.32 14.00 362.33 2609.29
   06:14:09.641.19-Jul-2021 4380.90 6360.73 69.32 14.00 362.53 2609.29
   06:14:09.841.19-Jul-2021 4380.90 6365.09 69.32 14.00 362.73 2609.29
   06:14:10.041.19-Jul-2021 4380.90 6362.56 69.32 14.00 362.93 2609.29
   06:14:10.241.19-Jul-2021 4380.90 6375.45 69.32 14.00 363.13 2609.29
   06:14:10.441.19-Jul-2021 4380.90 6375.45 69.32 14.00 363.33 2609.29
   06:14:10.641.19-Jul-2021 4380.90 6359.61 69.33 14.00 363.53 2609.29
   06:14:10.841.19-Jul-2021 4380.90 6369.71 69.33 14.00 363.73 2609.29
   06:14:11.041.19-Jul-2021 4380.90 6362.32 69.33 14.00 363.93 2609.29
   06:14:11.241.19-Jul-2021 4380.90 6364.11 69.33 14.00 364.13 2609.29
   06:14:11.441.19-Jul-2021 4380.90 6364.11 69.33 14.00 364.33 2609.29
   06:14:11.641.19-Jul-2021 4380.90 6363.31 69.33 14.00 364.53 2609.29
   06:14:11.841.19-Jul-2021 4380.90 6363.39 69.34 14.00 364.73 2609.29
   06:14:12.041.19-Jul-2021 4380.90 6362.86 69.34 14.00 364.93 2609.29
   06:14:12.242.19-Jul-2021 4380.90 6362.80 69.34 14.00 365.13 2609.29
   06:14:12.442.19-Jul-2021 4380.90 6362.80 69.34 14.00 365.33 2609.29
   06:14:12.642.19-Jul-2021 4380.90 6362.92 69.34 14.00 365.53 2609.29
   06:14:12.842.19-Jul-2021 4380.90 6361.93 69.34 14.00 365.73 2609.29
   06:14:13.042.19-Jul-2021 4380.90 6382.24 69.34 14.00 365.93 2609.29
   06:14:13.242.19-Jul-2021 4380.90 6362.04 69.34 14.00 366.13 2609.29
   06:14:13.442.19-Jul-2021 4380.90 6362.04 69.34 14.00 366.33 2609.29
   06:14:13.642.19-Jul-2021 4380.90 6367.51 69.35 14.00 366.53 2609.29
   06:14:13.842.19-Jul-2021 4380.90 6361.18 69.35 14.00 366.74 2609.29
   06:14:14.042.19-Jul-2021 4380.90 6363.42 69.35 14.00 366.94 2609.29
   06:14:14.242.19-Jul-2021 4380.90 6361.68 69.35 14.00 367.14 2609.29
   06:14:14.442.19-Jul-2021 4380.90 6361.68 69.35 14.00 367.34 2609.29
   06:14:14.642.19-Jul-2021 4380.90 6361.42 69.35 14.00 367.54 2609.29
   06:14:14.842.19-Jul-2021 4380.90 6361.49 69.35 14.00 367.74 2609.29
   06:14:15.043.19-Jul-2021 4380.90 6362.19 69.35 14.00 367.94 2609.29
   06:14:15.243.19-Jul-2021 4380.90 6362.13 69.35 14.00 368.14 2609.29
   06:14:15.443.19-Jul-2021 4380.90 6362.13 69.35 14.00 368.34 2609.29
   06:14:15.643.19-Jul-2021 4380.90 6382.72 69.36 14.00 368.54 2609.29
   06:14:15.843.19-Jul-2021 4380.90 6362.50 69.36 14.00 368.74 2609.29
   06:14:16.043.19-Jul-2021 4380.90 6359.57 69.36 14.00 368.94 2609.29
   06:14:16.243.19-Jul-2021 4380.90 6391.68 69.36 14.00 369.14 2609.29
   06:14:16.443.19-Jul-2021 4380.90 6391.68 69.36 14.00 369.34 2609.29
   06:14:16.643.19-Jul-2021 4380.90 6364.54 69.36 14.00 369.54 2609.29
   06:14:16.843.19-Jul-2021 4380.90 6366.57 69.36 14.00 369.74 2609.29
   06:14:17.043.19-Jul-2021 4380.90 6384.31 69.36 14.00 369.94 2609.29
   06:14:17.243.19-Jul-2021 4380.90 6365.30 69.36 14.00 370.14 2609.29
   06:14:17.443.19-Jul-2021 4380.90 6365.30 69.36 14.00 370.34 2609.29
   06:14:17.644.19-Jul-2021 4380.90 6368.28 69.36 14.00 370.54 2609.29
   06:14:17.844.19-Jul-2021 4380.90 6382.25 69.36 14.00 370.74 2609.29
   06:14:18.044.19-Jul-2021 4380.90 6364.62 69.36 14.00 370.94 2609.29
   06:14:18.244.19-Jul-2021 4380.90 6368.73 69.36 14.00 371.14 2609.29
   06:14:18.444.19-Jul-2021 4380.90 6368.73 69.36 14.00 371.34 2609.29
   06:14:18.644.19-Jul-2021 4380.90 6378.38 69.36 14.00 371.54 2609.29
   06:14:18.844.19-Jul-2021 4380.90 6375.00 69.36 14.00 371.74 2609.29
   06:14:19.044.19-Jul-2021 4380.90 6362.28 69.36 14.00 371.94 2609.29
   06:14:19.244.19-Jul-2021 4380.90 6372.27 69.36 14.00 372.14 2609.29
   06:14:19.444.19-Jul-2021 4380.90 6372.27 69.36 14.00 372.34 2609.29
   06:14:19.644.19-Jul-2021 4380.90 6365.95 69.37 14.00 372.54 2609.29
   06:14:19.844.19-Jul-2021 4380.90 6365.26 69.37 14.00 372.74 2609.29
   06:14:20.044.19-Jul-2021 4380.90 6364.02 69.37 14.00 372.94 2609.29
   06:14:20.244.19-Jul-2021 4380.90 6363.29 69.37 14.00 373.14 2609.29
   06:14:20.445.19-Jul-2021 4380.90 6363.29 69.37 14.00 373.34 2609.29
   06:14:20.645.19-Jul-2021 4380.90 6362.72 69.37 14.00 373.54 2609.29
   06:14:20.845.19-Jul-2021 4380.90 6363.02 69.37 14.00 373.74 2609.29
   06:14:21.045.19-Jul-2021 4380.90 6361.78 69.37 14.00 373.94 2609.29
   06:14:21.245.19-Jul-2021 4380.90 6359.70 69.37 14.00 374.14 2609.29
   06:14:21.445.19-Jul-2021 4380.90 6359.70 69.37 14.00 374.34 2609.29
   06:14:21.645.19-Jul-2021 4380.90 6377.93 69.37 14.00 374.54 2609.29
   06:14:21.845.19-Jul-2021 4380.90 6358.92 69.37 14.00 374.74 2609.29
   06:14:22.045.19-Jul-2021 4380.90 6364.27 69.37 14.00 374.94 2609.29
   06:14:22.245.19-Jul-2021 4380.90 6361.69 69.37 14.00 375.14 2609.29
   06:14:22.445.19-Jul-2021 4380.90 6361.69 69.37 14.00 375.34 2609.29
   06:14:22.645.19-Jul-2021 4380.90 6362.30 69.37 14.00 375.54 2609.29
   06:14:22.845.19-Jul-2021 4380.90 6361.32 69.37 14.00 375.74 2609.29
   06:14:23.046.19-Jul-2021 4380.90 6361.46 69.37 14.00 375.94 2609.29
   06:14:23.246.19-Jul-2021 4380.90 6361.00 69.37 14.00 376.14 2609.29
   06:14:23.446.19-Jul-2021 4380.90 6361.00 69.37 14.00 376.34 2609.29
   06:14:23.646.19-Jul-2021 4380.90 6361.94 69.37 14.00 376.54 2609.29
   06:14:23.846.19-Jul-2021 4380.90 6360.44 69.37 14.00 376.74 2609.29
   06:14:24.046.19-Jul-2021 4380.90 6364.76 69.37 14.00 376.94 2609.29
   06:14:24.246.19-Jul-2021 4380.90 6379.21 69.37 14.00 377.14 2609.29
   06:14:24.446.19-Jul-2021 4380.90 6379.21 69.37 14.00 377.34 2609.29
   06:14:24.646.19-Jul-2021 4380.90 6378.33 69.37 14.00 377.54 2609.29
   06:14:24.846.19-Jul-2021 4380.90 6371.71 69.37 14.00 377.74 2609.29
   06:14:25.046.19-Jul-2021 4380.90 6358.98 69.37 14.00 377.94 2609.29
   06:14:25.246.19-Jul-2021 4380.90 6367.80 69.37 14.00 378.14 2609.29
   06:14:25.446.19-Jul-2021 4380.90 6367.80 69.37 14.00 378.34 2609.29
   06:14:25.646.19-Jul-2021 4380.90 6383.66 69.37 14.00 378.54 2609.29
   06:14:25.847.19-Jul-2021 4380.90 6361.97 69.37 14.00 378.74 2609.29
   06:14:26.047.19-Jul-2021 4380.90 6358.74 69.37 14.00 378.94 2609.29
   06:14:26.247.19-Jul-2021 4380.90 6366.42 69.37 14.00 379.14 2609.29
   06:14:26.447.19-Jul-2021 4380.90 6366.42 69.37 14.00 379.34 2609.29
   06:14:26.647.19-Jul-2021 4380.90 6362.64 69.37 14.00 379.54 2609.29
   06:14:26.847.19-Jul-2021 4380.90 6382.17 69.37 14.00 379.74 2609.29
   06:14:27.047.19-Jul-2021 4380.90 6361.73 69.37 14.00 379.94 2609.29
   06:14:27.247.19-Jul-2021 4380.90 6364.25 69.37 14.00 380.14 2609.29
   06:14:27.447.19-Jul-2021 4380.90 6364.25 69.37 14.00 380.34 2609.29
   06:14:27.647.19-Jul-2021 4380.90 6366.38 69.37 14.00 380.54 2609.29
   06:14:27.847.19-Jul-2021 4380.90 6380.97 69.37 14.00 380.74 2609.29
   06:14:28.047.19-Jul-2021 4380.90 6361.17 69.37 14.00 380.94 2609.29
   06:14:28.247.19-Jul-2021 4380.90 6366.63 69.37 14.00 381.14 2609.29
   06:14:28.448.19-Jul-2021 4380.90 6366.63 69.37 14.00 381.34 2609.29
   06:14:28.648.19-Jul-2021 4380.90 6363.25 69.37 14.00 381.54 2609.29
   06:14:28.848.19-Jul-2021 4380.90 6363.22 69.37 14.00 381.74 2609.29
   06:14:29.048.19-Jul-2021 4380.90 6362.59 69.37 14.00 381.94 2609.29
   06:14:29.248.19-Jul-2021 4380.90 6362.57 69.37 14.00 382.14 2609.29
   06:14:29.448.19-Jul-2021 4380.90 6362.57 69.37 14.00 382.34 2609.29
   06:14:29.648.19-Jul-2021 4380.90 6362.05 69.37 14.00 382.54 2609.29
   06:14:29.848.19-Jul-2021 4380.90 6360.32 69.37 14.00 382.74 2609.29
   06:14:30.048.19-Jul-2021 4380.90 6360.17 69.37 14.00 382.94 2609.29
   06:14:30.248.19-Jul-2021 4380.90 6359.42 69.37 14.00 383.14 2609.29
   06:14:30.448.19-Jul-2021 4380.90 6359.42 69.37 14.00 383.34 2609.29
   06:14:30.648.19-Jul-2021 4380.90 6381.94 69.37 14.00 383.54 2609.29
   06:14:30.848.19-Jul-2021 4380.90 6361.53 69.37 14.00 383.74 2609.29
   06:14:31.048.19-Jul-2021 4380.90 6364.43 69.37 14.00 383.94 2609.29
   06:14:31.249.19-Jul-2021 4380.90 6363.29 69.37 14.00 384.14 2609.29
