~Version Information
 VERS.                  2.0:   CWLS log ASCII Standard -VERSION 2.0
 WRAP.                   NO:   One line per depth step
~Well Information Block
#MNEM.UNIT     VALUE/NAME     DESCRIPTION
#---------     -----------    ---------------------------
 STRT.S             10:23:02 19-Jul-21: START TIME 10:23:02 19-Jul-21
 STOP.S             10:29:56 19-Jul-21: STOP TIME  10:29:56 19-Jul-21
 STEP.S                   0.00: STEP TIME
 NULL.                 -999.25: NULL VALUE
 MDS .        Operator Entered:  MAG DATA SOURCE
 PDAT.          Mean Sea Level:  PERMANENT DATUM
 UNIT.                     N/A:  LOGGING EQUIPMENT ID
 DCON.         Sperry Drilling:  DIRECTNL CONTR
 DOE .                     N/A:  DOE NUMBER
 RIG .              West Azeri:  RIG NAME
 JOBN.        AZ-XX-0906997913:  JOB TICKET NUMB
 WELL.                     C41:  WELL NAME
 MWDS.                    Baku:  MWD SHOP
 SRVC.          Turan Drilling:  CONTRACTOR
 FLD .                     ACG:  FIELD NAME
 CTRY.              Azerbaijan:  COUNTRY NAME
 PROV.                    Baku:  PROVINCE
 STAT.                    Baku:  STATE NAME
 REGN.                   EESSA:  REGION
 BASE.              Azerbaijan:  LOGGING EQUIPMENT BASE LOCATION
 UWI .                     N/A:  UNIQUE WELL IDENTIFIER
 API .                     N/A:  API NUMBER
 COMP.     BP Exploration (Caspian Sea) Ltd.:  COMPANY
 WTYP.                Deviated:  WELL TYPE
 SON .        AZ-XX-0906997913:  JOB NUMBER
 FTOP.          Formation Tops:  FORM TOPS DESC
 ILTD.               Lithology:  INTERP LTH DESC
 SVYD.                  Survey:  SURVEY DESC
 DMOD.             Drill Model:  DRILL MOD DESC
 HPTY.       Minimum Curvature:  HOLE POS TYPE
 NREF.                    Grid:  NORTH REFERENCE
 SPUD.               16-May-21:  SPUD DATE
 DATE.      21.11.28 17-May-21:  END TIME
 STIM.      21.11.28 17-May-21:  START TIME
 DMF .             Drill Floor:  DRILL MEAS FROM
 DFST.                        :  DIST FSL TEXT
 DFWT.                        :  DIST FWL TEXT
 CNTY.                        :  COUNTY
 LOC .                        :  LOCATION
 LMF .             Drill Floor:  LOG MEASURED FROM
 AGAP.m                  43.42:  AIR GAP
 VSNS.m                  -2.16:  VERT SEC N/S
 VSEW.m                  -6.24:  VERT SEC E/W
 APD .m                  43.42:  DEPTH ABOVE PD
 WDMS.m                 118.27:  WD ELEV
 EGL .m                   0.00:  GROUND ELEVATION
 EPD .m                   0.00:  ELEVATION
 AZTC.deg                 6.29:  AZM TOTAL CORR
 GRDC.deg                 0.18:  GRID CORRECTION
 MDEC.deg                 6.47:  MAGNETIC DECL
 MDIP.deg                59.54:  MAGNETIC DIP
 MFLD.nT              50337.00:  MAGNETIC FIELD
 GVFD.g                   1.00:  GRAVITY FIELD
 VSDR.deg               226.99:  VERT SEC DIRECT
 TDD .m                   0.00:  TOTAL DEPTH (DRILLER)
 SDEP.m                 448.00:  START DEPTH
 DFSL.m                   0.00:  DISTANCE FSL
 DFWL.m                   0.00:  DISTANCE FWL
 UTMY.m             4435799.96:  UTM Y
 UTMX.m              526265.35:  UTM X
 WHEW.m                  -6.24:  WELL HEAD E/W
 WHNS.m                  -2.16:  WELL HEAD N/S
 LONG.deg                51.31:  LONGITUDE
 LATI.deg                40.06:  LATITUDE
 TVDS.m                  43.42:  TVDSS CORRECTN
 EKB .m                  43.42:  KB ELEVATION
 EDF .m                  43.42:  DF ELEVATION
 TDL .m                 288.00:  TOTAL DEPTH (LOGGER)
 MAGU.                 1851863:  MAGUTM CHECKSUM
 VSC .                       0:  VS TO CLOSURE
~Parameter Information Block
#MNEM.UNIT       Value        Description
#---------     -----------    ---------------------------
 AV  .mps                 0.40:  Ann Velocity 
 AVMX.mps                 0.63:  Max Ann Veloc 
 AZIF.deg               158.76:  Azm, Final 
 BHAT.        Rotary Steerable:  BHA Type 
 BROT.∞/30m               0.68:  Build Rotating 
 BS  .in                  8.50:  Bit Size 
 BSZ .in                  8.50:  Bit Size 
 BTPL.psig              712.00:  Bit Press Loss 
 CABU.                      No:  Customer Abuse 
 COMM.                     l(ê:  Run Comments 1 
 TCS .hr                 90.66:  Time Ciculation Ended 
 CV  .mps                 2.02:  Crit Velocity 
 CVMX.mps                 2.14:  Max Crit Veloc 
 DD1 .            Aziz Aliyevu:  Direct Drillr 1 
 DD2 .             Samir Abbas:  Direct Drillr 2 
 DD3 .           Teymur Aliyev:  Direct Drillr 3 
 DDSV.                 iCruise:  DD Service 
 DEFF.%                  85.10:  % Det Eff 
 DLRX.∞/30m               1.05:  Dogleg Rot Max 
 DLSO.∞/30m               1.01:  Dogleg Oriented 
 DLSX.∞/30m               1.05:  Dogleg Str Max 
 DRET.      07.45.00 18-Jul-21:  Drill End Time 
 DRST.      15.00.00 16-Jul-21:  Drill Start Tim 
 DTIM.hr                 23.46:  Time Drilling 
 EDEP.m                4603.00:  End Depth 
 ENG1.       Seymur Iskandarov:  Engineer 1 
 ENG2.         Yevgeniy Ulikov:  Engineer 2 
 ENG3.         Bahruz Mehdiyev:  Engineer 3 
 ENG4.         Elchin Mammadov:  Engineer 4 
 ETIM.      14.00.00 23-Jul-21:  End Time 
 FLOI.gpm               500.00:  Flow In 
 FLON.gpm               450.00:  Flow In Min 
 FLOS.cptm                0.00:  Fluid Loss 
 FLOX.gpm               560.00:  Flow In Max 
 DFT .        Mineral Oil Base:  Mud Type 
 FTRO.       Formation Presure:  FTWD Run Obj 
 HFLO.                      No:  High Flow 
 HPRE.                      No:  High Pressure 
 HTEM.                      No:  High Temp 
 HYDO.m                   1.80:  Hydro Offset 
 IFIN.deg                40.22:  Inc, Final 
 IMAX.deg                40.54:  Inc Max 
 IMIN.deg                39.44:  Inc Min 
 IMND.m                4361.17:  Inc Min Depth 
 IMXD.m                4417.92:  Inc Max Depth 
 JARR.                      No:  Jarring 
 LETM.      07.45.00 18-Jul-21:  Log End Time 
 LOST.hr                    16:  Lost Rig Time 
 LSTM.      15.00.00 16-Jul-21:  Log Start Time 
 MDCL.ppm             36500.00:  Mud Chlorides 
 MDES.     Inversion Oil/Synthetic:  Mud Desc 
 DFD .sg                  1.42:  Mud Density 
 MDMN.sg                  1.42:  Dens Mud Min 
 MDMX.sg                  1.43:  Dens Mud Max 
 MOIL.                      56:  Run Mud Oil % 
 MOWR.                   71:29:  Run Mud OWR 
 MSND.                     0.5:  Run Mud Sand % 
 MSOL.                      21:  Run Mud Solids% 
 DFV .spqt               78.00:  Mud Viscosity 
 MWOD.in                  6.75:  MWD Tool OD 
 MWSI.                     Yes:  Serv Intrp, MWD 
 OTIM.hr                200.73:  Time Operating 
 PCON.           Look Like New:  Pad Condition 
 PMAX.psia            11069.93:  Press Op, Max 
 PV  .cP                 32.00:  Mud PV 
 RUN .                     700:  Run Number 
 ROPA.m/hr               10.00:  ROP Avg 
 ROPN.m/hr                9.00:  ROP Min 
 ROPX.m/hr               16.00:  ROP Max 
 RPMA.rpm               116.00:  RPM Surface Avg 
 RPMN.rpm                80.00:  RPM Surface Min 
 RPMX.rpm               120.00:  RPM Surface Max 
 RRUN.                    L605:  Rig Run Number 
 RTIM.hr                 45.00:  Time Reaming 
 SAZI.deg               159.86:  Azm, Start 
 SDEP.m                4315.00:  Start Depth 
 SIDD.                      No:  Serv Intrp, DD 
 SINC.deg                39.86:  Inc, Start 
 SPPA.psig             3300.00:  SPP Avg 
 SPPN.psig             3040.00:  SPP Min 
 SPPX.psig             3645.00:  SPP Max 
 STIM.      01.00.00 15-Jul-21:  Start Time 
 SVCS.                 DD, MWD:  Services 
 SVER.                    9.20:  Sperry Version 
 TDAT.m                 288.00:  Tot Depth Attmp 
 TDDF.                      No:  Trip for DD 
 TDLG.m                 288.00:  Tot Depth Loggd 
 TFF .                      No:  Trip for Fail 
 TQAA.f-kp               19.00:  Torque Abs Avg 
 TQAN.f-kp               18.00:  Torque Abs Min 
 TQAX.f-kp               21.00:  Torque Abs Max 
 TRRT.∞/30m               0.45:  Turn Rotating 
 MRT .                    HCIM:  Maximum Recorded Temperature 
 TTMX.degC               88.24:  Max Tool Temp 
 VS01.                90649157:  Virtual Str1 SN 
 VS02.                90652483:  Virtual Str2 SN 
 VS03.                11671987:  Virtual Str3 SN 
 VS04.                90643411:  Virtual Str4 SN 
 VS05.                90652478:  Virtual Str5 SN 
 VS06.                    6111:  Virtual Str6 SN 
 WBMN.klb                 9.50:  WOB Min 
 WITN.        Grigoriy Sarayev:  Customer Rep 
 WITN.          Rufat Huseynov:  Customer Rep 2 
 WOBA.klb                11.00:  WOB Avg 
 WOBX.klb                15.00:  WOB Max 
 YP  .lhf2               28.00:  Yield Point 
~Curve Information Block
#MNEM.UNIT                 API CODE     Curve Description
#---------               -----------    ---------------------------
 TIME.HHMMSS            00 000 000 000:  GT Time & Date
 GTDEPTH.m              00 000 000 000:  GT Depth
 GTPQH.psia             00 000 000 000:  GT HR Quartz Pressure
 GTTQ.degC              00 000 000 000:  GT Quartz Temperature
 GTTN.NONE              00 000 000 000:  GT Test Number
 GTET.sec               00 000 000 000:  GT Elapsed Test Time
 GTTVD.m                00 000 000 000:  GT True Vertical Depth
#Other Information
#
#WARRANTY: Halliburton will use its best efforts to furnish customers with 
#accurate information and interpretations that are part of, and incident to, the services 
#provided.  However, Halliburton cannot and does not warrant the accuracy 
#or correctness of such information and interpretations.  Under no circumstances should any 
#such information or interpretation be relied upon as the sole basis for any drilling, 
#completion, production, or financial decision or any procedure involving any risk to the 
#safety of any drilling venture, drilling rig or its crew or any other third party.  The 
#Customer has full responsibility for all drilling, completion and production operation.  
#Halliburton makes no representations or warranties, either expressed or 
#implied, including, but not limited to, the implied warranties of merchantability or fitness 
#for a particular purpose, with respect to the services rendered.  In no event will 
#Halliburton be liable for failure to obtain any particular results or for 
#any damages, including, but not limited to, indirect, special or consequential damages, 
#resulting from the use of any information or interpretation provided by Halliburton.
#
~A           TIME           GTDEPTH  GTPQH  GTTQ  GTTN   GTET   GTTVD  
   10:23:02.739.19-Jul-2021 4487.50 6470.54 70.47 22.00   0.00 2690.71
   10:23:02.939.19-Jul-2021 4487.50 6470.54 70.47 22.00   0.20 2690.71
   10:23:03.139.19-Jul-2021 4487.50 6490.97 70.47 22.00   0.40 2690.71
   10:23:03.339.19-Jul-2021 4487.50 6470.23 70.47 22.00   0.60 2690.71
   10:23:03.539.19-Jul-2021 4487.50 6478.09 70.47 22.00   0.80 2690.71
   10:23:03.739.19-Jul-2021 4487.50 6471.76 70.47 22.00   1.00 2690.71
   10:23:03.940.19-Jul-2021 4487.50 6471.76 70.47 22.00   1.20 2690.71
   10:23:04.140.19-Jul-2021 4487.50 6475.83 70.47 22.00   1.40 2690.71
   10:23:04.340.19-Jul-2021 4487.50 6477.71 70.47 22.00   1.60 2690.71
   10:23:04.540.19-Jul-2021 4487.50 6477.96 70.47 22.00   1.80 2690.71
   10:23:04.740.19-Jul-2021 4487.50 6471.32 70.47 22.00   2.00 2690.71
   10:23:04.940.19-Jul-2021 4487.50 6471.32 70.47 22.00   2.20 2690.71
   10:23:05.140.19-Jul-2021 4487.50 6473.76 70.47 22.00   2.40 2690.71
   10:23:05.340.19-Jul-2021 4487.50 6492.17 70.47 22.00   2.60 2690.71
   10:23:05.540.19-Jul-2021 4487.50 6473.57 70.47 22.00   2.80 2690.71
   10:23:05.740.19-Jul-2021 4487.50 6480.90 70.47 22.00   3.00 2690.71
   10:23:05.940.19-Jul-2021 4487.50 6480.90 70.47 22.00   3.20 2690.71
   10:23:06.140.19-Jul-2021 4487.50 6475.68 70.47 22.00   3.40 2690.71
   10:23:06.340.19-Jul-2021 4487.50 6474.40 70.47 22.00   3.60 2690.71
   10:23:06.540.19-Jul-2021 4487.50 6475.66 70.47 22.00   3.80 2690.71
   10:23:06.741.19-Jul-2021 4487.50 6482.07 70.47 22.00   4.00 2690.71
   10:23:06.941.19-Jul-2021 4487.50 6482.07 70.47 22.00   4.20 2690.71
   10:23:07.141.19-Jul-2021 4487.50 6486.08 70.47 22.00   4.40 2690.71
   10:23:07.341.19-Jul-2021 4487.50 6480.18 70.47 22.00   4.60 2690.71
   10:23:07.541.19-Jul-2021 4487.50 6480.49 70.47 22.00   4.80 2690.71
   10:23:07.741.19-Jul-2021 4487.50 6479.54 70.47 22.00   5.00 2690.71
   10:23:07.941.19-Jul-2021 4487.50 6479.54 70.47 22.00   5.20 2690.71
   10:23:08.141.19-Jul-2021 4487.50 6477.17 70.47 22.00   5.40 2690.71
   10:23:08.341.19-Jul-2021 4487.50 6477.04 70.47 22.00   5.60 2690.71
   10:23:08.541.19-Jul-2021 4487.50 6476.18 70.47 22.00   5.80 2690.71
   10:23:08.741.19-Jul-2021 4487.50 6475.17 70.47 22.00   6.00 2690.71
   10:23:08.941.19-Jul-2021 4487.50 6475.17 70.47 22.00   6.20 2690.71
   10:23:09.141.19-Jul-2021 4487.50 6474.31 70.47 22.00   6.40 2690.71
   10:23:09.342.19-Jul-2021 4487.50 6473.30 70.47 22.00   6.60 2690.71
   10:23:09.542.19-Jul-2021 4487.50 6490.22 70.47 22.00   6.80 2690.71
   10:23:09.742.19-Jul-2021 4487.50 6472.84 70.47 22.00   7.00 2690.71
   10:23:09.942.19-Jul-2021 4487.50 6472.84 70.47 22.00   7.20 2690.71
   10:23:10.142.19-Jul-2021 4487.50 6476.95 70.47 22.00   7.40 2690.71
   10:23:10.342.19-Jul-2021 4487.50 6477.86 70.47 22.00   7.60 2690.71
   10:23:10.542.19-Jul-2021 4487.50 6478.64 70.47 22.00   7.80 2690.71
   10:23:10.742.19-Jul-2021 4487.50 6476.94 70.47 22.00   8.00 2690.71
   10:23:10.942.19-Jul-2021 4487.50 6476.94 70.47 22.00   8.20 2690.71
   10:23:11.142.19-Jul-2021 4487.50 6476.52 70.47 22.00   8.40 2690.71
   10:23:11.342.19-Jul-2021 4487.50 6477.37 70.47 22.00   8.60 2690.71
   10:23:11.542.19-Jul-2021 4487.50 6477.57 70.47 22.00   8.80 2690.71
   10:23:11.742.19-Jul-2021 4487.50 6476.11 70.47 22.00   9.00 2690.71
   10:23:11.942.19-Jul-2021 4487.50 6476.11 70.47 22.00   9.20 2690.71
   10:23:12.143.19-Jul-2021 4487.50 6475.16 70.47 22.00   9.40 2690.71
   10:23:12.343.19-Jul-2021 4487.50 6492.79 70.47 22.00   9.60 2690.71
   10:23:12.543.19-Jul-2021 4487.50 6486.96 70.47 22.00   9.80 2690.71
   10:23:12.743.19-Jul-2021 4487.50 6479.89 70.47 22.00  10.00 2690.71
   10:23:12.943.19-Jul-2021 4487.50 6479.89 70.47 22.00  10.20 2690.71
   10:23:13.143.19-Jul-2021 4487.50 6495.20 70.47 22.00  10.40 2690.71
   10:23:13.343.19-Jul-2021 4487.50 6476.25 70.47 22.00  10.60 2690.71
   10:23:13.543.19-Jul-2021 4487.50 6492.85 70.47 22.00  10.80 2690.71
   10:23:13.743.19-Jul-2021 4487.50 6482.55 70.47 22.00  11.00 2690.71
   10:23:13.943.19-Jul-2021 4487.50 6482.55 70.47 22.00  11.20 2690.71
   10:23:14.143.19-Jul-2021 4487.50 6495.67 70.47 22.00  11.40 2690.71
   10:23:14.343.19-Jul-2021 4487.50 6488.07 70.47 22.00  11.60 2690.71
   10:23:14.543.19-Jul-2021 4487.50 6483.61 70.47 22.00  11.80 2690.71
   10:23:14.744.19-Jul-2021 4487.50 6486.00 70.47 22.00  12.00 2690.71
   10:23:14.944.19-Jul-2021 4487.50 6486.00 70.47 22.00  12.20 2690.71
   10:23:15.144.19-Jul-2021 4487.50 6485.38 70.47 22.00  12.40 2690.71
   10:23:15.344.19-Jul-2021 4487.50 6491.77 70.47 22.00  12.60 2690.71
   10:23:15.544.19-Jul-2021 4487.50 6502.29 70.47 22.00  12.80 2690.71
   10:23:15.744.19-Jul-2021 4487.50 6493.74 70.47 22.00  13.00 2690.71
   10:23:15.944.19-Jul-2021 4487.50 6493.74 70.47 22.00  13.20 2690.71
   10:23:16.144.19-Jul-2021 4487.50 6493.74 70.47 22.00  13.40 2690.71
   10:23:16.344.19-Jul-2021 4487.50 6487.39 70.47 22.00  13.61 2690.71
   10:23:16.544.19-Jul-2021 4487.50 6508.88 70.47 22.00  13.81 2690.71
   10:23:16.744.19-Jul-2021 4487.50 6480.75 70.47 22.00  14.01 2690.71
   10:23:16.944.19-Jul-2021 4487.50 6480.75 70.47 22.00  14.21 2690.71
   10:23:17.144.19-Jul-2021 4487.50 6480.75 70.47 22.00  14.41 2690.71
   10:23:17.344.19-Jul-2021 4487.50 6488.58 70.47 22.00  14.61 2690.71
   10:23:17.545.19-Jul-2021 4487.50 6488.74 70.47 22.00  14.81 2690.71
   10:23:17.745.19-Jul-2021 4487.50 6489.48 70.47 22.00  15.01 2690.71
   10:23:17.945.19-Jul-2021 4487.50 6489.48 70.47 22.00  15.21 2690.71
   10:23:18.145.19-Jul-2021 4487.50 6488.63 70.47 22.00  15.41 2690.71
   10:23:18.345.19-Jul-2021 4487.50 6487.41 70.47 22.00  15.61 2690.71
   10:23:18.545.19-Jul-2021 4487.50 6488.21 70.47 22.00  15.81 2690.71
   10:23:18.745.19-Jul-2021 4487.50 6488.93 70.47 22.00  16.01 2690.71
   10:23:18.945.19-Jul-2021 4487.50 6488.93 70.47 22.00  16.21 2690.71
   10:23:19.145.19-Jul-2021 4487.50 6489.31 70.47 22.00  16.41 2690.71
   10:23:19.345.19-Jul-2021 4487.50 6505.94 70.47 22.00  16.61 2690.71
   10:23:19.545.19-Jul-2021 4487.50 6487.53 70.47 22.00  16.81 2690.71
   10:23:19.745.19-Jul-2021 4487.50 6502.43 70.47 22.00  17.01 2690.71
   10:23:19.945.19-Jul-2021 4487.50 6502.43 70.47 22.00  17.21 2690.71
   10:23:20.146.19-Jul-2021 4487.50 6493.55 70.47 22.00  17.41 2690.71
   10:23:20.346.19-Jul-2021 4487.50 6493.15 70.47 22.00  17.61 2690.71
   10:23:20.546.19-Jul-2021 4487.50 6492.13 70.47 22.00  17.81 2690.71
   10:23:20.746.19-Jul-2021 4487.50 6490.75 70.47 22.00  18.01 2690.71
   10:23:20.946.19-Jul-2021 4487.50 6490.75 70.47 22.00  18.21 2690.71
   10:23:21.146.19-Jul-2021 4487.50 6488.81 70.47 22.00  18.41 2690.71
   10:23:21.346.19-Jul-2021 4487.50 6489.71 70.47 22.00  18.61 2690.71
   10:23:21.546.19-Jul-2021 4487.50 6490.69 70.47 22.00  18.81 2690.71
   10:23:21.746.19-Jul-2021 4487.50 6489.21 70.47 22.00  19.01 2690.71
   10:23:21.946.19-Jul-2021 4487.50 6489.21 70.47 22.00  19.21 2690.71
   10:23:22.146.19-Jul-2021 4487.50 6498.11 70.47 22.00  19.41 2690.71
   10:23:22.346.19-Jul-2021 4487.50 6501.17 70.47 22.00  19.61 2690.71
   10:23:22.546.19-Jul-2021 4487.50 6512.40 70.47 22.00  19.81 2690.71
   10:23:22.746.19-Jul-2021 4487.50 6492.29 70.47 22.00  20.01 2690.71
   10:23:22.947.19-Jul-2021 4487.50 6492.29 70.47 22.00  20.21 2690.71
   10:23:23.147.19-Jul-2021 4487.50 6504.33 70.47 22.00  20.41 2690.71
   10:23:23.347.19-Jul-2021 4487.50 6506.60 70.47 22.00  20.61 2690.71
   10:23:23.547.19-Jul-2021 4487.50 6506.50 70.47 22.00  20.81 2690.71
   10:23:23.747.19-Jul-2021 4487.50 6498.94 70.47 22.00  21.01 2690.71
   10:23:23.947.19-Jul-2021 4487.50 6498.94 70.47 22.00  21.21 2690.71
   10:23:24.147.19-Jul-2021 4487.50 6516.22 70.47 22.00  21.41 2690.71
   10:23:24.347.19-Jul-2021 4487.50 6493.76 70.47 22.00  21.61 2690.71
   10:23:24.547.19-Jul-2021 4487.50 6502.18 70.47 22.00  21.81 2690.71
   10:23:24.747.19-Jul-2021 4487.50 6515.57 70.47 22.00  22.01 2690.71
   10:23:24.947.19-Jul-2021 4487.50 6515.57 70.47 22.00  22.21 2690.71
   10:23:25.147.19-Jul-2021 4487.50 6507.73 70.47 22.00  22.41 2690.71
