~Version Information
 VERS.                  2.0:   CWLS log ASCII Standard -VERSION 2.0
 WRAP.                   NO:   One line per depth step
~Well Information Block
#MNEM.UNIT     VALUE/NAME     DESCRIPTION
#---------     -----------    ---------------------------
 STRT.S             13:27:26 19-Jul-21: START TIME 13:27:26 19-Jul-21
 STOP.S             13:34:19 19-Jul-21: STOP TIME  13:34:19 19-Jul-21
 STEP.S                   0.00: STEP TIME
 NULL.                 -999.25: NULL VALUE
 MDS .        Operator Entered:  MAG DATA SOURCE
 PDAT.          Mean Sea Level:  PERMANENT DATUM
 UNIT.                     N/A:  LOGGING EQUIPMENT ID
 DCON.         Sperry Drilling:  DIRECTNL CONTR
 DOE .                     N/A:  DOE NUMBER
 RIG .              West Azeri:  RIG NAME
 JOBN.        AZ-XX-0906997913:  JOB TICKET NUMB
 WELL.                     C41:  WELL NAME
 MWDS.                    Baku:  MWD SHOP
 SRVC.          Turan Drilling:  CONTRACTOR
 FLD .                     ACG:  FIELD NAME
 CTRY.              Azerbaijan:  COUNTRY NAME
 PROV.                    Baku:  PROVINCE
 STAT.                    Baku:  STATE NAME
 REGN.                   EESSA:  REGION
 BASE.              Azerbaijan:  LOGGING EQUIPMENT BASE LOCATION
 UWI .                     N/A:  UNIQUE WELL IDENTIFIER
 API .                     N/A:  API NUMBER
 COMP.     BP Exploration (Caspian Sea) Ltd.:  COMPANY
 WTYP.                Deviated:  WELL TYPE
 SON .        AZ-XX-0906997913:  JOB NUMBER
 FTOP.          Formation Tops:  FORM TOPS DESC
 ILTD.               Lithology:  INTERP LTH DESC
 SVYD.                  Survey:  SURVEY DESC
 DMOD.             Drill Model:  DRILL MOD DESC
 HPTY.       Minimum Curvature:  HOLE POS TYPE
 NREF.                    Grid:  NORTH REFERENCE
 SPUD.               16-May-21:  SPUD DATE
 DATE.      21.11.28 17-May-21:  END TIME
 STIM.      21.11.28 17-May-21:  START TIME
 DMF .             Drill Floor:  DRILL MEAS FROM
 DFST.                        :  DIST FSL TEXT
 DFWT.                        :  DIST FWL TEXT
 CNTY.                        :  COUNTY
 LOC .                        :  LOCATION
 LMF .             Drill Floor:  LOG MEASURED FROM
 AGAP.m                  43.42:  AIR GAP
 VSNS.m                  -2.16:  VERT SEC N/S
 VSEW.m                  -6.24:  VERT SEC E/W
 APD .m                  43.42:  DEPTH ABOVE PD
 WDMS.m                 118.27:  WD ELEV
 EGL .m                   0.00:  GROUND ELEVATION
 EPD .m                   0.00:  ELEVATION
 AZTC.deg                 6.29:  AZM TOTAL CORR
 GRDC.deg                 0.18:  GRID CORRECTION
 MDEC.deg                 6.47:  MAGNETIC DECL
 MDIP.deg                59.54:  MAGNETIC DIP
 MFLD.nT              50337.00:  MAGNETIC FIELD
 GVFD.g                   1.00:  GRAVITY FIELD
 VSDR.deg               226.99:  VERT SEC DIRECT
 TDD .m                   0.00:  TOTAL DEPTH (DRILLER)
 SDEP.m                 448.00:  START DEPTH
 DFSL.m                   0.00:  DISTANCE FSL
 DFWL.m                   0.00:  DISTANCE FWL
 UTMY.m             4435799.96:  UTM Y
 UTMX.m              526265.35:  UTM X
 WHEW.m                  -6.24:  WELL HEAD E/W
 WHNS.m                  -2.16:  WELL HEAD N/S
 LONG.deg                51.31:  LONGITUDE
 LATI.deg                40.06:  LATITUDE
 TVDS.m                  43.42:  TVDSS CORRECTN
 EKB .m                  43.42:  KB ELEVATION
 EDF .m                  43.42:  DF ELEVATION
 TDL .m                 288.00:  TOTAL DEPTH (LOGGER)
 MAGU.                 1851863:  MAGUTM CHECKSUM
 VSC .                       0:  VS TO CLOSURE
~Parameter Information Block
#MNEM.UNIT       Value        Description
#---------     -----------    ---------------------------
 AV  .mps                 0.40:  Ann Velocity 
 AVMX.mps                 0.63:  Max Ann Veloc 
 AZIF.deg               158.76:  Azm, Final 
 BHAT.        Rotary Steerable:  BHA Type 
 BROT.°/30m               0.68:  Build Rotating 
 BS  .in                  8.50:  Bit Size 
 BSZ .in                  8.50:  Bit Size 
 BTPL.psig              712.00:  Bit Press Loss 
 CABU.                      No:  Customer Abuse 
 COMM.                     „;b:  Run Comments 1 
 TCS .hr                 90.66:  Time Ciculation Ended 
 CV  .mps                 2.02:  Crit Velocity 
 CVMX.mps                 2.14:  Max Crit Veloc 
 DD1 .            Aziz Aliyevu:  Direct Drillr 1 
 DD2 .             Samir Abbas:  Direct Drillr 2 
 DD3 .           Teymur Aliyev:  Direct Drillr 3 
 DDSV.                 iCruise:  DD Service 
 DEFF.%                  85.10:  % Det Eff 
 DLRX.°/30m               1.05:  Dogleg Rot Max 
 DLSO.°/30m               1.01:  Dogleg Oriented 
 DLSX.°/30m               1.05:  Dogleg Str Max 
 DRET.      07.45.00 18-Jul-21:  Drill End Time 
 DRST.      15.00.00 16-Jul-21:  Drill Start Tim 
 DTIM.hr                 23.46:  Time Drilling 
 EDEP.m                4603.00:  End Depth 
 ENG1.       Seymur Iskandarov:  Engineer 1 
 ENG2.         Yevgeniy Ulikov:  Engineer 2 
 ENG3.         Bahruz Mehdiyev:  Engineer 3 
 ENG4.         Elchin Mammadov:  Engineer 4 
 ETIM.      14.00.00 23-Jul-21:  End Time 
 FLOI.gpm               500.00:  Flow In 
 FLON.gpm               450.00:  Flow In Min 
 FLOS.cptm                0.00:  Fluid Loss 
 FLOX.gpm               560.00:  Flow In Max 
 DFT .        Mineral Oil Base:  Mud Type 
 FTRO.       Formation Presure:  FTWD Run Obj 
 HFLO.                      No:  High Flow 
 HPRE.                      No:  High Pressure 
 HTEM.                      No:  High Temp 
 HYDO.m                   1.80:  Hydro Offset 
 IFIN.deg                40.22:  Inc, Final 
 IMAX.deg                40.54:  Inc Max 
 IMIN.deg                39.44:  Inc Min 
 IMND.m                4361.17:  Inc Min Depth 
 IMXD.m                4417.92:  Inc Max Depth 
 JARR.                      No:  Jarring 
 LETM.      07.45.00 18-Jul-21:  Log End Time 
 LOST.hr                    16:  Lost Rig Time 
 LSTM.      15.00.00 16-Jul-21:  Log Start Time 
 MDCL.ppm             36500.00:  Mud Chlorides 
 MDES.     Inversion Oil/Synthetic:  Mud Desc 
 DFD .sg                  1.42:  Mud Density 
 MDMN.sg                  1.42:  Dens Mud Min 
 MDMX.sg                  1.43:  Dens Mud Max 
 MOIL.                      56:  Run Mud Oil % 
 MOWR.                   71:29:  Run Mud OWR 
 MSND.                     0.5:  Run Mud Sand % 
 MSOL.                      21:  Run Mud Solids% 
 DFV .spqt               78.00:  Mud Viscosity 
 MWOD.in                  6.75:  MWD Tool OD 
 MWSI.                     Yes:  Serv Intrp, MWD 
 OTIM.hr                200.73:  Time Operating 
 PCON.           Look Like New:  Pad Condition 
 PMAX.psia            11069.93:  Press Op, Max 
 PV  .cP                 32.00:  Mud PV 
 RUN .                     700:  Run Number 
 ROPA.m/hr               10.00:  ROP Avg 
 ROPN.m/hr                9.00:  ROP Min 
 ROPX.m/hr               16.00:  ROP Max 
 RPMA.rpm               116.00:  RPM Surface Avg 
 RPMN.rpm                80.00:  RPM Surface Min 
 RPMX.rpm               120.00:  RPM Surface Max 
 RRUN.                    L605:  Rig Run Number 
 RTIM.hr                 45.00:  Time Reaming 
 SAZI.deg               159.86:  Azm, Start 
 SDEP.m                4315.00:  Start Depth 
 SIDD.                      No:  Serv Intrp, DD 
 SINC.deg                39.86:  Inc, Start 
 SPPA.psig             3300.00:  SPP Avg 
 SPPN.psig             3040.00:  SPP Min 
 SPPX.psig             3645.00:  SPP Max 
 STIM.      01.00.00 15-Jul-21:  Start Time 
 SVCS.                 DD, MWD:  Services 
 SVER.                    9.20:  Sperry Version 
 TDAT.m                 288.00:  Tot Depth Attmp 
 TDDF.                      No:  Trip for DD 
 TDLG.m                 288.00:  Tot Depth Loggd 
 TFF .                      No:  Trip for Fail 
 TQAA.f-kp               19.00:  Torque Abs Avg 
 TQAN.f-kp               18.00:  Torque Abs Min 
 TQAX.f-kp               21.00:  Torque Abs Max 
 TRRT.°/30m               0.45:  Turn Rotating 
 MRT .                    HCIM:  Maximum Recorded Temperature 
 TTMX.degC               88.24:  Max Tool Temp 
 VS01.                90649157:  Virtual Str1 SN 
 VS02.                90652483:  Virtual Str2 SN 
 VS03.                11671987:  Virtual Str3 SN 
 VS04.                90643411:  Virtual Str4 SN 
 VS05.                90652478:  Virtual Str5 SN 
 VS06.                    6111:  Virtual Str6 SN 
 WBMN.klb                 9.50:  WOB Min 
 WITN.        Grigoriy Sarayev:  Customer Rep 
 WITN.          Rufat Huseynov:  Customer Rep 2 
 WOBA.klb                11.00:  WOB Avg 
 WOBX.klb                15.00:  WOB Max 
 YP  .lhf2               28.00:  Yield Point 
~Curve Information Block
#MNEM.UNIT                 API CODE     Curve Description
#---------               -----------    ---------------------------
 TIME.HHMMSS            00 000 000 000:  GT Time & Date
 GTDEPTH.m              00 000 000 000:  GT Depth
 GTPQH.psia             00 000 000 000:  GT HR Quartz Pressure
 GTTQ.degC              00 000 000 000:  GT Quartz Temperature
 GTTN.NONE              00 000 000 000:  GT Test Number
 GTET.sec               00 000 000 000:  GT Elapsed Test Time
 GTTVD.m                00 000 000 000:  GT True Vertical Depth
#Other Information
#
#WARRANTY: Halliburton will use its best efforts to furnish customers with 
#accurate information and interpretations that are part of, and incident to, the services 
#provided.  However, Halliburton cannot and does not warrant the accuracy 
#or correctness of such information and interpretations.  Under no circumstances should any 
#such information or interpretation be relied upon as the sole basis for any drilling, 
#completion, production, or financial decision or any procedure involving any risk to the 
#safety of any drilling venture, drilling rig or its crew or any other third party.  The 
#Customer has full responsibility for all drilling, completion and production operation.  
#Halliburton makes no representations or warranties, either expressed or 
#implied, including, but not limited to, the implied warranties of merchantability or fitness 
#for a particular purpose, with respect to the services rendered.  In no event will 
#Halliburton be liable for failure to obtain any particular results or for 
#any damages, including, but not limited to, indirect, special or consequential damages, 
#resulting from the use of any information or interpretation provided by Halliburton.
#
~A           TIME           GTDEPTH  GTPQH  GTTQ  GTTN   GTET   GTTVD  
# ...
   13:29:42.463.19-Jul-2021 4559.00 3613.40 71.11 29.00 135.65 2745.40
   13:29:42.663.19-Jul-2021 4559.00 3613.46 71.11 29.00 135.85 2745.40
   13:29:42.863.19-Jul-2021 4559.00 3613.38 71.11 29.00 136.05 2745.40
   13:29:43.063.19-Jul-2021 4559.00 3613.38 71.11 29.00 136.25 2745.40
   13:29:43.263.19-Jul-2021 4559.00 3613.34 71.11 29.00 136.45 2745.40
   13:29:43.463.19-Jul-2021 4559.00 3613.57 71.11 29.00 136.65 2745.40
   13:29:43.663.19-Jul-2021 4559.00 3613.36 71.11 29.00 136.85 2745.40
   13:29:43.863.19-Jul-2021 4559.00 3613.15 71.11 29.00 137.05 2745.40
   13:29:44.064.19-Jul-2021 4559.00 3613.15 71.11 29.00 137.25 2745.40
   13:29:44.264.19-Jul-2021 4559.00 3613.26 71.11 29.00 137.45 2745.40
   13:29:44.464.19-Jul-2021 4559.00 3613.54 71.11 29.00 137.65 2745.40
   13:29:44.664.19-Jul-2021 4559.00 3613.42 71.11 29.00 137.85 2745.40
   13:29:44.864.19-Jul-2021 4559.00 3613.57 71.11 29.00 138.05 2745.40
   13:29:45.064.19-Jul-2021 4559.00 3613.57 71.11 29.00 138.25 2745.40
   13:29:45.264.19-Jul-2021 4559.00 3613.52 71.11 29.00 138.45 2745.40
   13:29:45.464.19-Jul-2021 4559.00 3613.41 71.11 29.00 138.65 2745.40
   13:29:45.664.19-Jul-2021 4559.00 3613.34 71.11 29.00 138.85 2745.40
   13:29:45.864.19-Jul-2021 4559.00 3613.52 71.11 29.00 139.05 2745.40
   13:29:46.064.19-Jul-2021 4559.00 3613.52 71.11 29.00 139.25 2745.40
   13:29:46.264.19-Jul-2021 4559.00 3613.42 71.11 29.00 139.45 2745.40
   13:29:46.464.19-Jul-2021 4559.00 3613.50 71.11 29.00 139.65 2745.40
   13:29:46.664.19-Jul-2021 4559.00 3613.41 71.11 29.00 139.85 2745.40
   13:29:46.865.19-Jul-2021 4559.00 3612.69 71.11 29.00 140.05 2745.40
   13:29:47.065.19-Jul-2021 4559.00 3612.69 71.11 29.00 140.25 2745.40
   13:29:47.265.19-Jul-2021 4559.00 3613.40 71.11 29.00 140.45 2745.40
   13:29:47.465.19-Jul-2021 4559.00 3612.79 71.11 29.00 140.65 2745.40
   13:29:47.665.19-Jul-2021 4559.00 3614.08 71.11 29.00 140.85 2745.40
   13:29:47.865.19-Jul-2021 4559.00 3613.31 71.11 29.00 141.05 2745.40
   13:29:48.065.19-Jul-2021 4559.00 3613.31 71.11 29.00 141.25 2745.40
   13:29:48.265.19-Jul-2021 4559.00 3612.68 71.11 29.00 141.45 2745.40
   13:29:48.465.19-Jul-2021 4559.00 3614.04 71.11 29.00 141.65 2745.40
   13:29:48.665.19-Jul-2021 4559.00 3613.71 71.11 29.00 141.85 2745.40
   13:29:48.865.19-Jul-2021 4559.00 3487.66 71.11 29.00 142.05 2745.40
   13:29:49.065.19-Jul-2021 4559.00 3487.66 71.11 29.00 142.25 2745.40
   13:29:49.265.19-Jul-2021 4559.00 3298.75 71.11 29.00 142.45 2745.40
   13:29:49.466.19-Jul-2021 4559.00 3294.85 71.11 29.00 142.65 2745.40
   13:29:49.666.19-Jul-2021 4559.00 3297.00 71.11 29.00 142.85 2745.40
   13:29:49.866.19-Jul-2021 4559.00 3300.51 71.11 29.00 143.05 2745.40
   13:29:50.066.19-Jul-2021 4559.00 3300.51 71.11 29.00 143.25 2745.40
   13:29:50.266.19-Jul-2021 4559.00 3297.35 71.11 29.00 143.45 2745.40
   13:29:50.466.19-Jul-2021 4559.00 3296.33 71.11 29.00 143.65 2745.40
   13:29:50.666.19-Jul-2021 4559.00 3297.52 71.11 29.00 143.85 2745.40
   13:29:50.866.19-Jul-2021 4559.00 3297.32 71.11 29.00 144.05 2745.40
   13:29:51.066.19-Jul-2021 4559.00 3297.32 71.11 29.00 144.25 2745.40
   13:29:51.266.19-Jul-2021 4559.00 3296.26 71.11 29.00 144.45 2745.40
   13:29:51.466.19-Jul-2021 4559.00 3297.34 71.11 29.00 144.65 2745.40
   13:29:51.666.19-Jul-2021 4559.00 3298.31 71.11 29.00 144.85 2745.40
   13:29:51.866.19-Jul-2021 4559.00 3292.20 71.11 29.00 145.05 2745.40
   13:29:52.066.19-Jul-2021 4559.00 3292.20 71.11 29.00 145.25 2745.40
   13:29:52.267.19-Jul-2021 4559.00 3295.26 71.11 29.00 145.45 2745.40
   13:29:52.467.19-Jul-2021 4559.00 3295.29 71.11 29.00 145.65 2745.40
   13:29:52.667.19-Jul-2021 4559.00 3303.68 71.11 29.00 145.85 2745.40
   13:29:52.867.19-Jul-2021 4559.00 3296.25 71.11 29.00 146.05 2745.40
   13:29:53.067.19-Jul-2021 4559.00 3296.25 71.11 29.00 146.25 2745.40
   13:29:53.267.19-Jul-2021 4559.00 3297.60 71.11 29.00 146.45 2745.40
   13:29:53.467.19-Jul-2021 4559.00 3302.55 71.11 29.00 146.65 2745.40
   13:29:53.667.19-Jul-2021 4559.00 3300.87 71.11 29.00 146.85 2745.40
   13:29:53.867.19-Jul-2021 4559.00 3292.68 71.11 29.00 147.05 2745.40
   13:29:54.067.19-Jul-2021 4559.00 3292.68 71.11 29.00 147.25 2745.40
   13:29:54.267.19-Jul-2021 4559.00 3298.11 71.11 29.00 147.45 2745.40
   13:29:54.467.19-Jul-2021 4559.00 3300.62 71.11 29.00 147.65 2745.40
   13:29:54.667.19-Jul-2021 4559.00 3300.11 71.11 29.00 147.85 2745.40
   13:29:54.868.19-Jul-2021 4559.00 3296.22 71.11 29.00 148.05 2745.40
   13:29:55.068.19-Jul-2021 4559.00 3296.22 71.11 29.00 148.25 2745.40
   13:29:55.268.19-Jul-2021 4559.00 3303.54 71.11 29.00 148.45 2745.40
   13:29:55.468.19-Jul-2021 4559.00 3294.88 71.11 29.00 148.65 2745.40
   13:29:55.668.19-Jul-2021 4559.00 3293.99 71.11 29.00 148.85 2745.40
   13:29:55.868.19-Jul-2021 4559.00 3307.98 71.11 29.00 149.05 2745.40
   13:29:56.068.19-Jul-2021 4559.00 3307.98 71.11 29.00 149.25 2745.40
   13:29:56.268.19-Jul-2021 4559.00 3295.45 71.11 29.00 149.46 2745.40
   13:29:56.468.19-Jul-2021 4559.00 3300.58 71.11 29.00 149.66 2745.40
   13:29:56.668.19-Jul-2021 4559.00 3301.69 71.11 29.00 149.86 2745.40
   13:29:56.868.19-Jul-2021 4559.00 3299.82 71.11 29.00 150.06 2745.40
   13:29:57.068.19-Jul-2021 4559.00 3299.82 71.11 29.00 150.26 2745.40
   13:29:57.268.19-Jul-2021 4559.00 3301.74 71.11 29.00 150.46 2745.40
   13:29:57.468.19-Jul-2021 4559.00 3301.43 71.11 29.00 150.66 2745.40
   13:29:57.669.19-Jul-2021 4559.00 3297.40 71.11 29.00 150.86 2745.40
   13:29:57.869.19-Jul-2021 4559.00 3302.60 71.11 29.00 151.06 2745.40
   13:29:58.069.19-Jul-2021 4559.00 3302.60 71.11 29.00 151.26 2745.40
   13:29:58.269.19-Jul-2021 4559.00 3302.75 71.11 29.00 151.46 2745.40
   13:29:58.469.19-Jul-2021 4559.00 3297.05 71.11 29.00 151.66 2745.40
   13:29:58.669.19-Jul-2021 4559.00 3301.01 71.11 29.00 151.86 2745.40
   13:29:58.869.19-Jul-2021 4559.00 3342.72 71.11 29.00 152.06 2745.40
   13:29:59.069.19-Jul-2021 4559.00 3342.72 71.11 29.00 152.26 2745.40
   13:29:59.269.19-Jul-2021 4559.00 3598.76 71.11 29.00 152.46 2745.40
   13:29:59.469.19-Jul-2021 4559.00 3609.41 71.11 29.00 152.66 2745.40
   13:29:59.669.19-Jul-2021 4559.00 3611.09 71.11 29.00 152.86 2745.40
   13:29:59.869.19-Jul-2021 4559.00 3611.66 71.11 29.00 153.06 2745.40
   13:30:00.069.19-Jul-2021 4559.00 3611.66 71.11 29.00 153.26 2745.40
   13:30:00.269.19-Jul-2021 4559.00 3613.20 71.11 29.00 153.46 2745.40
   13:30:00.470.19-Jul-2021 4559.00 3612.36 71.11 29.00 153.66 2745.40
   13:30:00.670.19-Jul-2021 4559.00 3612.41 71.11 29.00 153.86 2745.40
   13:30:00.870.19-Jul-2021 4559.00 3612.67 71.11 29.00 154.06 2745.40
   13:30:01.070.19-Jul-2021 4559.00 3612.67 71.11 29.00 154.26 2745.40
   13:30:01.270.19-Jul-2021 4559.00 3612.65 71.11 29.00 154.46 2745.40
   13:30:01.470.19-Jul-2021 4559.00 3612.77 71.11 29.00 154.66 2745.40
   13:30:01.670.19-Jul-2021 4559.00 3612.75 71.11 29.00 154.86 2745.40
   13:30:01.870.19-Jul-2021 4559.00 3612.83 71.11 29.00 155.06 2745.40
   13:30:02.070.19-Jul-2021 4559.00 3612.83 71.11 29.00 155.26 2745.40
   13:30:02.270.19-Jul-2021 4559.00 3612.86 71.11 29.00 155.46 2745.40
   13:30:02.470.19-Jul-2021 4559.00 3612.89 71.11 29.00 155.66 2745.40
   13:30:02.670.19-Jul-2021 4559.00 3612.36 71.11 29.00 155.86 2745.40
   13:30:02.870.19-Jul-2021 4559.00 3613.63 71.11 29.00 156.06 2745.40
   13:30:03.071.19-Jul-2021 4559.00 3613.63 71.11 29.00 156.26 2745.40
   13:30:03.271.19-Jul-2021 4559.00 3612.61 71.11 29.00 156.46 2745.40
   13:30:03.471.19-Jul-2021 4559.00 3613.52 71.11 29.00 156.66 2745.40
   13:30:03.671.19-Jul-2021 4559.00 3613.23 71.11 29.00 156.86 2745.40
   13:30:03.871.19-Jul-2021 4559.00 3613.05 71.11 29.00 157.06 2745.40
   13:30:04.071.19-Jul-2021 4559.00 3613.05 71.11 29.00 157.26 2745.40
   13:30:04.271.19-Jul-2021 4559.00 3612.62 71.11 29.00 157.46 2745.40
   13:30:04.471.19-Jul-2021 4559.00 3613.50 71.11 29.00 157.66 2745.40
   13:30:04.671.19-Jul-2021 4559.00 3613.11 71.11 29.00 157.86 2745.40
   13:30:04.871.19-Jul-2021 4559.00 3613.34 71.11 29.00 158.06 2745.40
