~Version Information
 VERS.                  2.0:   CWLS log ASCII Standard -VERSION 2.0
 WRAP.                   NO:   One line per depth step
~Well Information Block
#MNEM.UNIT     VALUE/NAME     DESCRIPTION
#---------     -----------    ---------------------------
 STRT.S             04:43:18 19-Jul-21: START TIME 04:43:18 19-Jul-21
 STOP.S             04:49:54 19-Jul-21: STOP TIME  04:49:54 19-Jul-21
 STEP.S                   0.00: STEP TIME
 NULL.                 -999.25: NULL VALUE
 MDS .        Operator Entered:  MAG DATA SOURCE
 PDAT.          Mean Sea Level:  PERMANENT DATUM
 UNIT.                     N/A:  LOGGING EQUIPMENT ID
 DCON.         Sperry Drilling:  DIRECTNL CONTR
 DOE .                     N/A:  DOE NUMBER
 RIG .              West Azeri:  RIG NAME
 JOBN.        AZ-XX-0906997913:  JOB TICKET NUMB
 WELL.                     C41:  WELL NAME
 MWDS.                    Baku:  MWD SHOP
 SRVC.          Turan Drilling:  CONTRACTOR
 FLD .                     ACG:  FIELD NAME
 CTRY.              Azerbaijan:  COUNTRY NAME
 PROV.                    Baku:  PROVINCE
 STAT.                    Baku:  STATE NAME
 REGN.                   EESSA:  REGION
 BASE.              Azerbaijan:  LOGGING EQUIPMENT BASE LOCATION
 UWI .                     N/A:  UNIQUE WELL IDENTIFIER
 API .                     N/A:  API NUMBER
 COMP.     BP Exploration (Caspian Sea) Ltd.:  COMPANY
 WTYP.                Deviated:  WELL TYPE
 SON .        AZ-XX-0906997913:  JOB NUMBER
 FTOP.          Formation Tops:  FORM TOPS DESC
 ILTD.               Lithology:  INTERP LTH DESC
 SVYD.                  Survey:  SURVEY DESC
 DMOD.             Drill Model:  DRILL MOD DESC
 HPTY.       Minimum Curvature:  HOLE POS TYPE
 NREF.                    Grid:  NORTH REFERENCE
 SPUD.               16-May-21:  SPUD DATE
 DATE.      21.11.28 17-May-21:  END TIME
 STIM.      21.11.28 17-May-21:  START TIME
 DMF .             Drill Floor:  DRILL MEAS FROM
 DFST.                        :  DIST FSL TEXT
 DFWT.                        :  DIST FWL TEXT
 CNTY.                        :  COUNTY
 LOC .                        :  LOCATION
 LMF .             Drill Floor:  LOG MEASURED FROM
 AGAP.m                  43.42:  AIR GAP
 VSNS.m                  -2.16:  VERT SEC N/S
 VSEW.m                  -6.24:  VERT SEC E/W
 APD .m                  43.42:  DEPTH ABOVE PD
 WDMS.m                 118.27:  WD ELEV
 EGL .m                   0.00:  GROUND ELEVATION
 EPD .m                   0.00:  ELEVATION
 AZTC.deg                 6.29:  AZM TOTAL CORR
 GRDC.deg                 0.18:  GRID CORRECTION
 MDEC.deg                 6.47:  MAGNETIC DECL
 MDIP.deg                59.54:  MAGNETIC DIP
 MFLD.nT              50337.00:  MAGNETIC FIELD
 GVFD.g                   1.00:  GRAVITY FIELD
 VSDR.deg               226.99:  VERT SEC DIRECT
 TDD .m                   0.00:  TOTAL DEPTH (DRILLER)
 SDEP.m                 448.00:  START DEPTH
 DFSL.m                   0.00:  DISTANCE FSL
 DFWL.m                   0.00:  DISTANCE FWL
 UTMY.m             4435799.96:  UTM Y
 UTMX.m              526265.35:  UTM X
 WHEW.m                  -6.24:  WELL HEAD E/W
 WHNS.m                  -2.16:  WELL HEAD N/S
 LONG.deg                51.31:  LONGITUDE
 LATI.deg                40.06:  LATITUDE
 TVDS.m                  43.42:  TVDSS CORRECTN
 EKB .m                  43.42:  KB ELEVATION
 EDF .m                  43.42:  DF ELEVATION
 TDL .m                 288.00:  TOTAL DEPTH (LOGGER)
 MAGU.                 1851863:  MAGUTM CHECKSUM
 VSC .                       0:  VS TO CLOSURE
~Parameter Information Block
#MNEM.UNIT       Value        Description
#---------     -----------    ---------------------------
 AV  .mps                 0.40:  Ann Velocity 
 AVMX.mps                 0.63:  Max Ann Veloc 
 AZIF.deg               158.76:  Azm, Final 
 BHAT.        Rotary Steerable:  BHA Type 
 BROT.°/30m               0.68:  Build Rotating 
 BS  .in                  8.50:  Bit Size 
 BSZ .in                  8.50:  Bit Size 
 BTPL.psig              712.00:  Bit Press Loss 
 CABU.                      No:  Customer Abuse 
 COMM.                     ”™f:  Run Comments 1 
 TCS .hr                 90.66:  Time Ciculation Ended 
 CV  .mps                 2.02:  Crit Velocity 
 CVMX.mps                 2.14:  Max Crit Veloc 
 DD1 .            Aziz Aliyevu:  Direct Drillr 1 
 DD2 .             Samir Abbas:  Direct Drillr 2 
 DD3 .           Teymur Aliyev:  Direct Drillr 3 
 DDSV.                 iCruise:  DD Service 
 DEFF.%                  85.10:  % Det Eff 
 DLRX.°/30m               1.05:  Dogleg Rot Max 
 DLSO.°/30m               1.01:  Dogleg Oriented 
 DLSX.°/30m               1.05:  Dogleg Str Max 
 DRET.      07.45.00 18-Jul-21:  Drill End Time 
 DRST.      15.00.00 16-Jul-21:  Drill Start Tim 
 DTIM.hr                 23.46:  Time Drilling 
 EDEP.m                4603.00:  End Depth 
 ENG1.       Seymur Iskandarov:  Engineer 1 
 ENG2.         Yevgeniy Ulikov:  Engineer 2 
 ENG3.         Bahruz Mehdiyev:  Engineer 3 
 ENG4.         Elchin Mammadov:  Engineer 4 
 ETIM.      14.00.00 23-Jul-21:  End Time 
 FLOI.gpm               500.00:  Flow In 
 FLON.gpm               450.00:  Flow In Min 
 FLOS.cptm                0.00:  Fluid Loss 
 FLOX.gpm               560.00:  Flow In Max 
 DFT .        Mineral Oil Base:  Mud Type 
 FTRO.       Formation Presure:  FTWD Run Obj 
 HFLO.                      No:  High Flow 
 HPRE.                      No:  High Pressure 
 HTEM.                      No:  High Temp 
 HYDO.m                   1.80:  Hydro Offset 
 IFIN.deg                40.22:  Inc, Final 
 IMAX.deg                40.54:  Inc Max 
 IMIN.deg                39.44:  Inc Min 
 IMND.m                4361.17:  Inc Min Depth 
 IMXD.m                4417.92:  Inc Max Depth 
 JARR.                      No:  Jarring 
 LETM.      07.45.00 18-Jul-21:  Log End Time 
 LOST.hr                    16:  Lost Rig Time 
 LSTM.      15.00.00 16-Jul-21:  Log Start Time 
 MDCL.ppm             36500.00:  Mud Chlorides 
 MDES.     Inversion Oil/Synthetic:  Mud Desc 
 DFD .sg                  1.42:  Mud Density 
 MDMN.sg                  1.42:  Dens Mud Min 
 MDMX.sg                  1.43:  Dens Mud Max 
 MOIL.                      56:  Run Mud Oil % 
 MOWR.                   71:29:  Run Mud OWR 
 MSND.                     0.5:  Run Mud Sand % 
 MSOL.                      21:  Run Mud Solids% 
 DFV .spqt               78.00:  Mud Viscosity 
 MWOD.in                  6.75:  MWD Tool OD 
 MWSI.                     Yes:  Serv Intrp, MWD 
 OTIM.hr                200.73:  Time Operating 
 PCON.           Look Like New:  Pad Condition 
 PMAX.psia            11069.93:  Press Op, Max 
 PV  .cP                 32.00:  Mud PV 
 RUN .                     700:  Run Number 
 ROPA.m/hr               10.00:  ROP Avg 
 ROPN.m/hr                9.00:  ROP Min 
 ROPX.m/hr               16.00:  ROP Max 
 RPMA.rpm               116.00:  RPM Surface Avg 
 RPMN.rpm                80.00:  RPM Surface Min 
 RPMX.rpm               120.00:  RPM Surface Max 
 RRUN.                    L605:  Rig Run Number 
 RTIM.hr                 45.00:  Time Reaming 
 SAZI.deg               159.86:  Azm, Start 
 SDEP.m                4315.00:  Start Depth 
 SIDD.                      No:  Serv Intrp, DD 
 SINC.deg                39.86:  Inc, Start 
 SPPA.psig             3300.00:  SPP Avg 
 SPPN.psig             3040.00:  SPP Min 
 SPPX.psig             3645.00:  SPP Max 
 STIM.      01.00.00 15-Jul-21:  Start Time 
 SVCS.                 DD, MWD:  Services 
 SVER.                    9.20:  Sperry Version 
 TDAT.m                 288.00:  Tot Depth Attmp 
 TDDF.                      No:  Trip for DD 
 TDLG.m                 288.00:  Tot Depth Loggd 
 TFF .                      No:  Trip for Fail 
 TQAA.f-kp               19.00:  Torque Abs Avg 
 TQAN.f-kp               18.00:  Torque Abs Min 
 TQAX.f-kp               21.00:  Torque Abs Max 
 TRRT.°/30m               0.45:  Turn Rotating 
 MRT .                    HCIM:  Maximum Recorded Temperature 
 TTMX.degC               88.24:  Max Tool Temp 
 VS01.                90649157:  Virtual Str1 SN 
 VS02.                90652483:  Virtual Str2 SN 
 VS03.                11671987:  Virtual Str3 SN 
 VS04.                90643411:  Virtual Str4 SN 
 VS05.                90652478:  Virtual Str5 SN 
 VS06.                    6111:  Virtual Str6 SN 
 WBMN.klb                 9.50:  WOB Min 
 WITN.        Grigoriy Sarayev:  Customer Rep 
 WITN.          Rufat Huseynov:  Customer Rep 2 
 WOBA.klb                11.00:  WOB Avg 
 WOBX.klb                15.00:  WOB Max 
 YP  .lhf2               28.00:  Yield Point 
~Curve Information Block
#MNEM.UNIT                 API CODE     Curve Description
#---------               -----------    ---------------------------
 TIME.HHMMSS            00 000 000 000:  GT Time & Date
 GTDEPTH.m              00 000 000 000:  GT Depth
 GTPQH.psia             00 000 000 000:  GT HR Quartz Pressure
 GTTQ.degC              00 000 000 000:  GT Quartz Temperature
 GTTN.NONE              00 000 000 000:  GT Test Number
 GTET.sec               00 000 000 000:  GT Elapsed Test Time
 GTTVD.m                00 000 000 000:  GT True Vertical Depth
#Other Information
#
#WARRANTY: Halliburton will use its best efforts to furnish customers with 
#accurate information and interpretations that are part of, and incident to, the services 
#provided.  However, Halliburton cannot and does not warrant the accuracy 
#or correctness of such information and interpretations.  Under no circumstances should any 
#such information or interpretation be relied upon as the sole basis for any drilling, 
#completion, production, or financial decision or any procedure involving any risk to the 
#safety of any drilling venture, drilling rig or its crew or any other third party.  The 
#Customer has full responsibility for all drilling, completion and production operation.  
#Halliburton makes no representations or warranties, either expressed or 
#implied, including, but not limited to, the implied warranties of merchantability or fitness 
#for a particular purpose, with respect to the services rendered.  In no event will 
#Halliburton be liable for failure to obtain any particular results or for 
#any damages, including, but not limited to, indirect, special or consequential damages, 
#resulting from the use of any information or interpretation provided by Halliburton.
#
~A           TIME           GTDEPTH  GTPQH  GTTQ  GTTN   GTET   GTTVD  
# ...
   04:46:41.708.19-Jul-2021 4355.50  917.46 68.68 11.00 203.47 2589.71
   04:46:41.908.19-Jul-2021 4355.50  918.20 68.68 11.00 203.67 2589.71
   04:46:42.108.19-Jul-2021 4355.50  917.84 68.68 11.00 203.88 2589.71
   04:46:42.308.19-Jul-2021 4355.50  919.05 68.68 11.00 204.08 2589.71
   04:46:42.509.19-Jul-2021 4355.50  919.05 68.68 11.00 204.28 2589.71
   04:46:42.709.19-Jul-2021 4355.50  921.54 68.68 11.00 204.48 2589.71
   04:46:42.909.19-Jul-2021 4355.50  922.03 68.68 11.00 204.68 2589.71
   04:46:43.109.19-Jul-2021 4355.50  922.91 68.68 11.00 204.88 2589.71
   04:46:43.309.19-Jul-2021 4355.50  923.73 68.68 11.00 205.08 2589.71
   04:46:43.509.19-Jul-2021 4355.50  923.73 68.68 11.00 205.28 2589.71
   04:46:43.709.19-Jul-2021 4355.50  925.30 68.68 11.00 205.48 2589.71
   04:46:43.909.19-Jul-2021 4355.50  926.05 68.68 11.00 205.68 2589.71
   04:46:44.109.19-Jul-2021 4355.50  926.95 68.68 11.00 205.88 2589.71
   04:46:44.309.19-Jul-2021 4355.50  927.71 68.68 11.00 206.08 2589.71
   04:46:44.509.19-Jul-2021 4355.50  927.71 68.68 11.00 206.28 2589.71
   04:46:44.709.19-Jul-2021 4355.50  929.00 68.68 11.00 206.48 2589.71
   04:46:44.909.19-Jul-2021 4355.50  929.61 68.68 11.00 206.68 2589.71
   04:46:45.109.19-Jul-2021 4355.50  930.31 68.68 11.00 206.88 2589.71
   04:46:45.310.19-Jul-2021 4355.50  931.02 68.68 11.00 207.08 2589.71
   04:46:45.510.19-Jul-2021 4355.50  931.02 68.68 11.00 207.28 2589.71
   04:46:45.710.19-Jul-2021 4355.50  933.20 68.68 11.00 207.48 2589.71
   04:46:45.910.19-Jul-2021 4355.50  934.56 68.68 11.00 207.68 2589.71
   04:46:46.110.19-Jul-2021 4355.50  936.23 68.68 11.00 207.88 2589.71
   04:46:46.310.19-Jul-2021 4355.50  937.60 68.68 11.00 208.08 2589.71
   04:46:46.510.19-Jul-2021 4355.50  937.60 68.68 11.00 208.28 2589.71
   04:46:46.710.19-Jul-2021 4355.50  938.55 68.68 11.00 208.48 2589.71
   04:46:46.910.19-Jul-2021 4355.50  940.40 68.68 11.00 208.68 2589.71
   04:46:47.110.19-Jul-2021 4355.50  941.35 68.68 11.00 208.88 2589.71
   04:46:47.310.19-Jul-2021 4355.50  942.76 68.68 11.00 209.08 2589.71
   04:46:47.510.19-Jul-2021 4355.50  942.76 68.68 11.00 209.28 2589.71
   04:46:47.710.19-Jul-2021 4355.50  944.17 68.68 11.00 209.48 2589.71
   04:46:47.911.19-Jul-2021 4355.50  945.46 68.68 11.00 209.68 2589.71
   04:46:48.111.19-Jul-2021 4355.50  946.98 68.68 11.00 209.88 2589.71
   04:46:48.311.19-Jul-2021 4355.50  947.55 68.68 11.00 210.08 2589.71
   04:46:48.511.19-Jul-2021 4355.50  947.55 68.68 11.00 210.28 2589.71
   04:46:48.711.19-Jul-2021 4355.50  949.43 68.68 11.00 210.48 2589.71
   04:46:48.911.19-Jul-2021 4355.50  950.36 68.68 11.00 210.68 2589.71
   04:46:49.111.19-Jul-2021 4355.50  951.23 68.68 11.00 210.88 2589.71
   04:46:49.311.19-Jul-2021 4355.50  952.09 68.68 11.00 211.08 2589.71
   04:46:49.511.19-Jul-2021 4355.50  952.09 68.68 11.00 211.28 2589.71
   04:46:49.711.19-Jul-2021 4355.50  953.76 68.68 11.00 211.48 2589.71
   04:46:49.911.19-Jul-2021 4355.50  954.61 68.68 11.00 211.68 2589.71
   04:46:50.111.19-Jul-2021 4355.50  955.29 68.68 11.00 211.88 2589.71
   04:46:50.311.19-Jul-2021 4355.50  954.87 68.68 11.00 212.08 2589.71
   04:46:50.511.19-Jul-2021 4355.50  954.87 68.68 11.00 212.28 2589.71
   04:46:50.712.19-Jul-2021 4355.50  957.21 68.68 11.00 212.48 2589.71
   04:46:50.912.19-Jul-2021 4355.50  958.59 68.69 11.00 212.68 2589.71
   04:46:51.112.19-Jul-2021 4355.50  959.04 68.69 11.00 212.88 2589.71
   04:46:51.312.19-Jul-2021 4355.50  960.00 68.69 11.00 213.08 2589.71
   04:46:51.512.19-Jul-2021 4355.50  960.00 68.69 11.00 213.28 2589.71
   04:46:51.712.19-Jul-2021 4355.50  961.53 68.69 11.00 213.48 2589.71
   04:46:51.912.19-Jul-2021 4355.50  962.26 68.69 11.00 213.68 2589.71
   04:46:52.112.19-Jul-2021 4355.50  963.07 68.69 11.00 213.88 2589.71
   04:46:52.312.19-Jul-2021 4355.50  963.88 68.69 11.00 214.08 2589.71
   04:46:52.512.19-Jul-2021 4355.50  963.88 68.69 11.00 214.28 2589.71
   04:46:52.712.19-Jul-2021 4355.50  964.08 68.69 11.00 214.48 2589.71
   04:46:52.912.19-Jul-2021 4355.50  965.86 68.69 11.00 214.68 2589.71
   04:46:53.112.19-Jul-2021 4355.50  966.43 68.69 11.00 214.88 2589.71
   04:46:53.313.19-Jul-2021 4355.50  967.17 68.69 11.00 215.08 2589.71
   04:46:53.513.19-Jul-2021 4355.50  967.17 68.69 11.00 215.28 2589.71
   04:46:53.713.19-Jul-2021 4355.50  969.25 68.69 11.00 215.48 2589.71
   04:46:53.913.19-Jul-2021 4355.50  970.69 68.69 11.00 215.68 2589.71
   04:46:54.113.19-Jul-2021 4355.50  971.16 68.69 11.00 215.88 2589.71
   04:46:54.313.19-Jul-2021 4355.50  971.20 68.69 11.00 216.08 2589.71
   04:46:54.513.19-Jul-2021 4355.50  971.20 68.69 11.00 216.28 2589.71
   04:46:54.713.19-Jul-2021 4355.50  973.90 68.69 11.00 216.48 2589.71
   04:46:54.913.19-Jul-2021 4355.50  974.00 68.69 11.00 216.68 2589.71
   04:46:55.113.19-Jul-2021 4355.50  975.62 68.69 11.00 216.88 2589.71
   04:46:55.313.19-Jul-2021 4355.50  976.66 68.69 11.00 217.08 2589.71
   04:46:55.513.19-Jul-2021 4355.50  976.66 68.69 11.00 217.28 2589.71
   04:46:55.713.19-Jul-2021 4355.50  978.64 68.69 11.00 217.48 2589.71
   04:46:55.913.19-Jul-2021 4355.50  979.60 68.69 11.00 217.68 2589.71
   04:46:56.114.19-Jul-2021 4355.50  979.71 68.69 11.00 217.88 2589.71
   04:46:56.314.19-Jul-2021 4355.50  981.19 68.69 11.00 218.08 2589.71
   04:46:56.514.19-Jul-2021 4355.50  981.19 68.69 11.00 218.28 2589.71
   04:46:56.714.19-Jul-2021 4355.50  983.73 68.69 11.00 218.48 2589.71
   04:46:56.914.19-Jul-2021 4355.50  984.24 68.69 11.00 218.68 2589.71
   04:46:57.114.19-Jul-2021 4355.50  985.19 68.69 11.00 218.88 2589.71
   04:46:57.314.19-Jul-2021 4355.50  986.03 68.69 11.00 219.08 2589.71
   04:46:57.514.19-Jul-2021 4355.50  986.03 68.69 11.00 219.28 2589.71
   04:46:57.714.19-Jul-2021 4355.50  987.67 68.69 11.00 219.48 2589.71
   04:46:57.914.19-Jul-2021 4355.50  988.51 68.69 11.00 219.68 2589.71
   04:46:58.114.19-Jul-2021 4355.50  989.37 68.69 11.00 219.88 2589.71
   04:46:58.314.19-Jul-2021 4355.50  989.98 68.69 11.00 220.08 2589.71
   04:46:58.514.19-Jul-2021 4355.50  989.98 68.69 11.00 220.28 2589.71
   04:46:58.715.19-Jul-2021 4355.50  991.33 68.69 11.00 220.48 2589.71
   04:46:58.915.19-Jul-2021 4355.50  990.97 68.69 11.00 220.68 2589.71
   04:46:59.115.19-Jul-2021 4355.50  992.17 68.69 11.00 220.88 2589.71
   04:46:59.315.19-Jul-2021 4355.50  993.18 68.69 11.00 221.08 2589.71
   04:46:59.515.19-Jul-2021 4355.50  993.18 68.69 11.00 221.28 2589.71
   04:46:59.715.19-Jul-2021 4355.50  995.08 68.69 11.00 221.48 2589.71
   04:46:59.915.19-Jul-2021 4355.50  995.90 68.69 11.00 221.68 2589.71
   04:47:00.115.19-Jul-2021 4355.50  996.60 68.69 11.00 221.88 2589.71
   04:47:00.315.19-Jul-2021 4355.50  997.37 68.69 11.00 222.08 2589.71
   04:47:00.515.19-Jul-2021 4355.50  997.37 68.69 11.00 222.28 2589.71
   04:47:00.715.19-Jul-2021 4355.50  998.91 68.69 11.00 222.48 2589.71
   04:47:00.915.19-Jul-2021 4355.50  999.52 68.69 11.00 222.68 2589.71
   04:47:01.115.19-Jul-2021 4355.50 1000.26 68.69 11.00 222.88 2589.71
   04:47:01.315.19-Jul-2021 4355.50  999.81 68.69 11.00 223.08 2589.71
   04:47:01.516.19-Jul-2021 4355.50  999.81 68.69 11.00 223.28 2589.71
   04:47:01.716.19-Jul-2021 4355.50 1001.78 68.69 11.00 223.48 2589.71
   04:47:01.916.19-Jul-2021 4355.50 1002.69 68.69 11.00 223.68 2589.71
   04:47:02.116.19-Jul-2021 4355.50 1003.30 68.69 11.00 223.88 2589.71
   04:47:02.316.19-Jul-2021 4355.50 1004.69 68.69 11.00 224.08 2589.71
   04:47:02.516.19-Jul-2021 4355.50 1004.69 68.69 11.00 224.28 2589.71
   04:47:02.716.19-Jul-2021 4355.50 1006.74 68.69 11.00 224.48 2589.71
   04:47:02.916.19-Jul-2021 4355.50 1006.89 68.69 11.00 224.68 2589.71
   04:47:03.116.19-Jul-2021 4355.50 1007.99 68.69 11.00 224.88 2589.71
   04:47:03.316.19-Jul-2021 4355.50 1008.78 68.69 11.00 225.08 2589.71
   04:47:03.516.19-Jul-2021 4355.50 1008.78 68.69 11.00 225.28 2589.71
   04:47:03.716.19-Jul-2021 4355.50 1010.28 68.69 11.00 225.48 2589.71
   04:47:03.916.19-Jul-2021 4355.50 1011.72 68.69 11.00 225.68 2589.71
   04:47:04.116.19-Jul-2021 4355.50 1012.68 68.69 11.00 225.88 2589.71
