~Version Information
 VERS.                  2.0:   CWLS log ASCII Standard -VERSION 2.0
 WRAP.                   NO:   One line per depth step
~Well Information Block
#MNEM.UNIT     VALUE/NAME     DESCRIPTION
#---------     -----------    ---------------------------
 STRT.S             14:22:27 18-Jul-21: START TIME 14:22:27 18-Jul-21
 STOP.S             14:29:00 18-Jul-21: STOP TIME  14:29:00 18-Jul-21
 STEP.S                   0.00: STEP TIME
 NULL.                 -999.25: NULL VALUE
 MDS .        Operator Entered:  MAG DATA SOURCE
 PDAT.          Mean Sea Level:  PERMANENT DATUM
 UNIT.                     N/A:  LOGGING EQUIPMENT ID
 DCON.         Sperry Drilling:  DIRECTNL CONTR
 DOE .                     N/A:  DOE NUMBER
 RIG .              West Azeri:  RIG NAME
 JOBN.        AZ-XX-0906997913:  JOB TICKET NUMB
 WELL.                     C41:  WELL NAME
 MWDS.                    Baku:  MWD SHOP
 SRVC.          Turan Drilling:  CONTRACTOR
 FLD .                     ACG:  FIELD NAME
 CTRY.              Azerbaijan:  COUNTRY NAME
 PROV.                    Baku:  PROVINCE
 STAT.                    Baku:  STATE NAME
 REGN.                   EESSA:  REGION
 BASE.              Azerbaijan:  LOGGING EQUIPMENT BASE LOCATION
 UWI .                     N/A:  UNIQUE WELL IDENTIFIER
 API .                     N/A:  API NUMBER
 COMP.     BP Exploration (Caspian Sea) Ltd.:  COMPANY
 WTYP.                Deviated:  WELL TYPE
 SON .        AZ-XX-0906997913:  JOB NUMBER
 FTOP.          Formation Tops:  FORM TOPS DESC
 ILTD.               Lithology:  INTERP LTH DESC
 SVYD.                  Survey:  SURVEY DESC
 DMOD.             Drill Model:  DRILL MOD DESC
 HPTY.       Minimum Curvature:  HOLE POS TYPE
 NREF.                    Grid:  NORTH REFERENCE
 SPUD.               16-May-21:  SPUD DATE
 DATE.      21.11.28 17-May-21:  END TIME
 STIM.      21.11.28 17-May-21:  START TIME
 DMF .             Drill Floor:  DRILL MEAS FROM
 DFST.                        :  DIST FSL TEXT
 DFWT.                        :  DIST FWL TEXT
 CNTY.                        :  COUNTY
 LOC .                        :  LOCATION
 LMF .             Drill Floor:  LOG MEASURED FROM
 AGAP.m                  43.42:  AIR GAP
 VSNS.m                  -2.16:  VERT SEC N/S
 VSEW.m                  -6.24:  VERT SEC E/W
 APD .m                  43.42:  DEPTH ABOVE PD
 WDMS.m                 118.27:  WD ELEV
 EGL .m                   0.00:  GROUND ELEVATION
 EPD .m                   0.00:  ELEVATION
 AZTC.deg                 6.29:  AZM TOTAL CORR
 GRDC.deg                 0.18:  GRID CORRECTION
 MDEC.deg                 6.47:  MAGNETIC DECL
 MDIP.deg                59.54:  MAGNETIC DIP
 MFLD.nT              50337.00:  MAGNETIC FIELD
 GVFD.g                   1.00:  GRAVITY FIELD
 VSDR.deg               226.99:  VERT SEC DIRECT
 TDD .m                   0.00:  TOTAL DEPTH (DRILLER)
 SDEP.m                 448.00:  START DEPTH
 DFSL.m                   0.00:  DISTANCE FSL
 DFWL.m                   0.00:  DISTANCE FWL
 UTMY.m             4435799.96:  UTM Y
 UTMX.m              526265.35:  UTM X
 WHEW.m                  -6.24:  WELL HEAD E/W
 WHNS.m                  -2.16:  WELL HEAD N/S
 LONG.deg                51.31:  LONGITUDE
 LATI.deg                40.06:  LATITUDE
 TVDS.m                  43.42:  TVDSS CORRECTN
 EKB .m                  43.42:  KB ELEVATION
 EDF .m                  43.42:  DF ELEVATION
 TDL .m                 288.00:  TOTAL DEPTH (LOGGER)
 MAGU.                 1851863:  MAGUTM CHECKSUM
 VSC .                       0:  VS TO CLOSURE
~Parameter Information Block
#MNEM.UNIT       Value        Description
#---------     -----------    ---------------------------
 AV  .mps                 0.40:  Ann Velocity 
 AVMX.mps                 0.63:  Max Ann Veloc 
 AZIF.deg               158.76:  Azm, Final 
 BHAT.        Rotary Steerable:  BHA Type 
 BROT.°/30m               0.68:  Build Rotating 
 BS  .in                  8.50:  Bit Size 
 BSZ .in                  8.50:  Bit Size 
 BTPL.psig              712.00:  Bit Press Loss 
 CABU.                      No:  Customer Abuse 
 COMM.                     |«g:  Run Comments 1 
 TCS .hr                 90.66:  Time Ciculation Ended 
 CV  .mps                 2.02:  Crit Velocity 
 CVMX.mps                 2.14:  Max Crit Veloc 
 DD1 .            Aziz Aliyevu:  Direct Drillr 1 
 DD2 .             Samir Abbas:  Direct Drillr 2 
 DD3 .           Teymur Aliyev:  Direct Drillr 3 
 DDSV.                 iCruise:  DD Service 
 DEFF.%                  85.10:  % Det Eff 
 DLRX.°/30m               1.05:  Dogleg Rot Max 
 DLSO.°/30m               1.01:  Dogleg Oriented 
 DLSX.°/30m               1.05:  Dogleg Str Max 
 DRET.      07.45.00 18-Jul-21:  Drill End Time 
 DRST.      15.00.00 16-Jul-21:  Drill Start Tim 
 DTIM.hr                 23.46:  Time Drilling 
 EDEP.m                4603.00:  End Depth 
 ENG1.       Seymur Iskandarov:  Engineer 1 
 ENG2.         Yevgeniy Ulikov:  Engineer 2 
 ENG3.         Bahruz Mehdiyev:  Engineer 3 
 ENG4.         Elchin Mammadov:  Engineer 4 
 ETIM.      14.00.00 23-Jul-21:  End Time 
 FLOI.gpm               500.00:  Flow In 
 FLON.gpm               450.00:  Flow In Min 
 FLOS.cptm                0.00:  Fluid Loss 
 FLOX.gpm               560.00:  Flow In Max 
 DFT .        Mineral Oil Base:  Mud Type 
 FTRO.       Formation Presure:  FTWD Run Obj 
 HFLO.                      No:  High Flow 
 HPRE.                      No:  High Pressure 
 HTEM.                      No:  High Temp 
 HYDO.m                   1.80:  Hydro Offset 
 IFIN.deg                40.22:  Inc, Final 
 IMAX.deg                40.54:  Inc Max 
 IMIN.deg                39.44:  Inc Min 
 IMND.m                4361.17:  Inc Min Depth 
 IMXD.m                4417.92:  Inc Max Depth 
 JARR.                      No:  Jarring 
 LETM.      07.45.00 18-Jul-21:  Log End Time 
 LOST.hr                    16:  Lost Rig Time 
 LSTM.      15.00.00 16-Jul-21:  Log Start Time 
 MDCL.ppm             36500.00:  Mud Chlorides 
 MDES.     Inversion Oil/Synthetic:  Mud Desc 
 DFD .sg                  1.42:  Mud Density 
 MDMN.sg                  1.42:  Dens Mud Min 
 MDMX.sg                  1.43:  Dens Mud Max 
 MOIL.                      56:  Run Mud Oil % 
 MOWR.                   71:29:  Run Mud OWR 
 MSND.                     0.5:  Run Mud Sand % 
 MSOL.                      21:  Run Mud Solids% 
 DFV .spqt               78.00:  Mud Viscosity 
 MWOD.in                  6.75:  MWD Tool OD 
 MWSI.                     Yes:  Serv Intrp, MWD 
 OTIM.hr                200.73:  Time Operating 
 PCON.           Look Like New:  Pad Condition 
 PMAX.psia            11069.93:  Press Op, Max 
 PV  .cP                 32.00:  Mud PV 
 RUN .                     700:  Run Number 
 ROPA.m/hr               10.00:  ROP Avg 
 ROPN.m/hr                9.00:  ROP Min 
 ROPX.m/hr               16.00:  ROP Max 
 RPMA.rpm               116.00:  RPM Surface Avg 
 RPMN.rpm                80.00:  RPM Surface Min 
 RPMX.rpm               120.00:  RPM Surface Max 
 RRUN.                    L605:  Rig Run Number 
 RTIM.hr                 45.00:  Time Reaming 
 SAZI.deg               159.86:  Azm, Start 
 SDEP.m                4315.00:  Start Depth 
 SIDD.                      No:  Serv Intrp, DD 
 SINC.deg                39.86:  Inc, Start 
 SPPA.psig             3300.00:  SPP Avg 
 SPPN.psig             3040.00:  SPP Min 
 SPPX.psig             3645.00:  SPP Max 
 STIM.      01.00.00 15-Jul-21:  Start Time 
 SVCS.                 DD, MWD:  Services 
 SVER.                    9.20:  Sperry Version 
 TDAT.m                 288.00:  Tot Depth Attmp 
 TDDF.                      No:  Trip for DD 
 TDLG.m                 288.00:  Tot Depth Loggd 
 TFF .                      No:  Trip for Fail 
 TQAA.f-kp               19.00:  Torque Abs Avg 
 TQAN.f-kp               18.00:  Torque Abs Min 
 TQAX.f-kp               21.00:  Torque Abs Max 
 TRRT.°/30m               0.45:  Turn Rotating 
 MRT .                    HCIM:  Maximum Recorded Temperature 
 TTMX.degC               88.24:  Max Tool Temp 
 VS01.                90649157:  Virtual Str1 SN 
 VS02.                90652483:  Virtual Str2 SN 
 VS03.                11671987:  Virtual Str3 SN 
 VS04.                90643411:  Virtual Str4 SN 
 VS05.                90652478:  Virtual Str5 SN 
 VS06.                    6111:  Virtual Str6 SN 
 WBMN.klb                 9.50:  WOB Min 
 WITN.        Grigoriy Sarayev:  Customer Rep 
 WITN.          Rufat Huseynov:  Customer Rep 2 
 WOBA.klb                11.00:  WOB Avg 
 WOBX.klb                15.00:  WOB Max 
 YP  .lhf2               28.00:  Yield Point 
~Curve Information Block
#MNEM.UNIT                 API CODE     Curve Description
#---------               -----------    ---------------------------
 TIME.HHMMSS            00 000 000 000:  GT Time & Date
 GTDEPTH.m              00 000 000 000:  GT Depth
 GTPQH.psia             00 000 000 000:  GT HR Quartz Pressure
 GTTQ.degC              00 000 000 000:  GT Quartz Temperature
 GTTN.NONE              00 000 000 000:  GT Test Number
 GTET.sec               00 000 000 000:  GT Elapsed Test Time
 GTTVD.m                00 000 000 000:  GT True Vertical Depth
#Other Information
#
#WARRANTY: Halliburton will use its best efforts to furnish customers with 
#accurate information and interpretations that are part of, and incident to, the services 
#provided.  However, Halliburton cannot and does not warrant the accuracy 
#or correctness of such information and interpretations.  Under no circumstances should any 
#such information or interpretation be relied upon as the sole basis for any drilling, 
#completion, production, or financial decision or any procedure involving any risk to the 
#safety of any drilling venture, drilling rig or its crew or any other third party.  The 
#Customer has full responsibility for all drilling, completion and production operation.  
#Halliburton makes no representations or warranties, either expressed or 
#implied, including, but not limited to, the implied warranties of merchantability or fitness 
#for a particular purpose, with respect to the services rendered.  In no event will 
#Halliburton be liable for failure to obtain any particular results or for 
#any damages, including, but not limited to, indirect, special or consequential damages, 
#resulting from the use of any information or interpretation provided by Halliburton.
#
~A           TIME           GTDEPTH  GTPQH  GTTQ  GTTN  GTET   GTTVD  
   14:22:27.215.18-Jul-2021 4558.50 6598.98 75.37 4.00   0.00 2745.02
   14:22:27.415.18-Jul-2021 4558.50 6598.98 75.37 4.00   0.20 2745.02
   14:22:27.615.18-Jul-2021 4558.50 6624.58 75.37 4.00   0.40 2745.02
   14:22:27.815.18-Jul-2021 4558.50 6602.22 75.37 4.00   0.60 2745.02
   14:22:28.015.18-Jul-2021 4558.50 6601.89 75.37 4.00   0.80 2745.02
   14:22:28.215.18-Jul-2021 4558.50 6623.36 75.37 4.00   1.00 2745.02
   14:22:28.415.18-Jul-2021 4558.50 6623.36 75.37 4.00   1.20 2745.02
   14:22:28.615.18-Jul-2021 4558.50 6622.50 75.37 4.00   1.40 2745.02
   14:22:28.815.18-Jul-2021 4558.50 6613.14 75.37 4.00   1.60 2745.02
   14:22:29.016.18-Jul-2021 4558.50 6593.96 75.37 4.00   1.80 2745.02
   14:22:29.216.18-Jul-2021 4558.50 6622.85 75.37 4.00   2.00 2745.02
   14:22:29.416.18-Jul-2021 4558.50 6622.85 75.37 4.00   2.20 2745.02
   14:22:29.616.18-Jul-2021 4558.50 6617.61 75.37 4.00   2.40 2745.02
   14:22:29.816.18-Jul-2021 4558.50 6619.66 75.37 4.00   2.60 2745.02
   14:22:30.016.18-Jul-2021 4558.50 6600.97 75.37 4.00   2.80 2745.02
   14:22:30.216.18-Jul-2021 4558.50 6627.82 75.37 4.00   3.00 2745.02
   14:22:30.416.18-Jul-2021 4558.50 6627.82 75.37 4.00   3.20 2745.02
   14:22:30.616.18-Jul-2021 4558.50 6612.47 75.37 4.00   3.40 2745.02
   14:22:30.816.18-Jul-2021 4558.50 6632.64 75.37 4.00   3.60 2745.02
   14:22:31.016.18-Jul-2021 4558.50 6608.60 75.37 4.00   3.80 2745.02
   14:22:31.216.18-Jul-2021 4558.50 6610.32 75.37 4.00   4.00 2745.02
   14:22:31.416.18-Jul-2021 4558.50 6610.32 75.37 4.00   4.20 2745.02
   14:22:31.617.18-Jul-2021 4558.50 6620.66 75.37 4.00   4.40 2745.02
   14:22:31.817.18-Jul-2021 4558.50 6629.79 75.37 4.00   4.60 2745.02
   14:22:32.017.18-Jul-2021 4558.50 6608.70 75.37 4.00   4.80 2745.02
   14:22:32.217.18-Jul-2021 4558.50 6613.37 75.37 4.00   5.00 2745.02
   14:22:32.417.18-Jul-2021 4558.50 6613.37 75.37 4.00   5.20 2745.02
   14:22:32.617.18-Jul-2021 4558.50 6611.38 75.37 4.00   5.40 2745.02
   14:22:32.817.18-Jul-2021 4558.50 6611.69 75.37 4.00   5.60 2745.02
   14:22:33.017.18-Jul-2021 4558.50 6610.96 75.37 4.00   5.80 2745.02
   14:22:33.217.18-Jul-2021 4558.50 6611.02 75.37 4.00   6.00 2745.02
   14:22:33.417.18-Jul-2021 4558.50 6611.02 75.37 4.00   6.20 2745.02
   14:22:33.617.18-Jul-2021 4558.50 6611.52 75.37 4.00   6.40 2745.02
   14:22:33.817.18-Jul-2021 4558.50 6612.51 75.37 4.00   6.60 2745.02
   14:22:34.017.18-Jul-2021 4558.50 6610.52 75.37 4.00   6.80 2745.02
   14:22:34.217.18-Jul-2021 4558.50 6607.03 75.37 4.00   7.00 2745.02
   14:22:34.418.18-Jul-2021 4558.50 6607.03 75.37 4.00   7.20 2745.02
   14:22:34.618.18-Jul-2021 4558.50 6621.59 75.37 4.00   7.40 2745.02
   14:22:34.818.18-Jul-2021 4558.50 6609.41 75.37 4.00   7.60 2745.02
   14:22:35.018.18-Jul-2021 4558.50 6613.23 75.37 4.00   7.80 2745.02
   14:22:35.218.18-Jul-2021 4558.50 6617.59 75.37 4.00   8.00 2745.02
   14:22:35.418.18-Jul-2021 4558.50 6617.59 75.37 4.00   8.20 2745.02
   14:22:35.618.18-Jul-2021 4558.50 6610.73 75.37 4.00   8.40 2745.02
   14:22:35.818.18-Jul-2021 4558.50 6611.50 75.37 4.00   8.60 2745.02
   14:22:36.018.18-Jul-2021 4558.50 6613.56 75.37 4.00   8.80 2745.02
   14:22:36.218.18-Jul-2021 4558.50 6612.23 75.37 4.00   9.00 2745.02
   14:22:36.418.18-Jul-2021 4558.50 6612.23 75.37 4.00   9.20 2745.02
   14:22:36.618.18-Jul-2021 4558.50 6611.91 75.37 4.00   9.40 2745.02
   14:22:36.818.18-Jul-2021 4558.50 6609.71 75.37 4.00   9.60 2745.02
   14:22:37.019.18-Jul-2021 4558.50 6610.18 75.37 4.00   9.80 2745.02
   14:22:37.219.18-Jul-2021 4558.50 6632.38 75.37 4.00  10.00 2745.02
   14:22:37.419.18-Jul-2021 4558.50 6632.38 75.37 4.00  10.20 2745.02
   14:22:37.619.18-Jul-2021 4558.50 6609.67 75.37 4.00  10.40 2745.02
   14:22:37.819.18-Jul-2021 4558.50 6614.85 75.37 4.00  10.60 2745.02
   14:22:38.019.18-Jul-2021 4558.50 6626.90 75.37 4.00  10.80 2745.02
   14:22:38.219.18-Jul-2021 4558.50 6621.72 75.37 4.00  11.00 2745.02
   14:22:38.419.18-Jul-2021 4558.50 6621.72 75.37 4.00  11.20 2745.02
   14:22:38.619.18-Jul-2021 4558.50 6613.35 75.37 4.00  11.40 2745.02
   14:22:38.819.18-Jul-2021 4558.50 6614.67 75.37 4.00  11.60 2745.02
   14:22:39.019.18-Jul-2021 4558.50 6632.33 75.37 4.00  11.80 2745.02
   14:22:39.219.18-Jul-2021 4558.50 6620.17 75.37 4.00  12.00 2745.02
   14:22:39.419.18-Jul-2021 4558.50 6620.17 75.37 4.00  12.20 2745.02
   14:22:39.619.18-Jul-2021 4558.50 6620.17 75.37 4.00  12.40 2745.02
   14:22:39.820.18-Jul-2021 4558.50 6635.62 75.37 4.00  12.60 2745.02
   14:22:40.020.18-Jul-2021 4558.50 6624.96 75.37 4.00  12.80 2745.02
   14:22:40.220.18-Jul-2021 4558.50 6615.94 75.37 4.00  13.00 2745.02
   14:22:40.420.18-Jul-2021 4558.50 6615.94 75.37 4.00  13.20 2745.02
   14:22:40.620.18-Jul-2021 4558.50 6615.94 75.37 4.00  13.40 2745.02
   14:22:40.820.18-Jul-2021 4558.50 6615.94 75.37 4.00  13.61 2745.02
   14:22:41.020.18-Jul-2021 4558.50 6624.57 75.37 4.00  13.81 2745.02
   14:22:41.220.18-Jul-2021 4558.50 6618.35 75.37 4.00  14.01 2745.02
   14:22:41.420.18-Jul-2021 4558.50 6618.35 75.37 4.00  14.21 2745.02
   14:22:41.620.18-Jul-2021 4558.50 6626.18 75.37 4.00  14.41 2745.02
   14:22:41.820.18-Jul-2021 4558.50 6617.45 75.37 4.00  14.61 2745.02
   14:22:42.020.18-Jul-2021 4558.50 6623.50 75.37 4.00  14.81 2745.02
   14:22:42.220.18-Jul-2021 4558.50 6623.55 75.37 4.00  15.01 2745.02
   14:22:42.421.18-Jul-2021 4558.50 6623.55 75.37 4.00  15.21 2745.02
   14:22:42.621.18-Jul-2021 4558.50 6621.70 75.37 4.00  15.41 2745.02
   14:22:42.821.18-Jul-2021 4558.50 6623.25 75.37 4.00  15.61 2745.02
   14:22:43.021.18-Jul-2021 4558.50 6621.47 75.37 4.00  15.81 2745.02
   14:22:43.221.18-Jul-2021 4558.50 6617.76 75.37 4.00  16.01 2745.02
   14:22:43.421.18-Jul-2021 4558.50 6617.76 75.37 4.00  16.21 2745.02
   14:22:43.621.18-Jul-2021 4558.50 6619.64 75.37 4.00  16.41 2745.02
   14:22:43.821.18-Jul-2021 4558.50 6620.34 75.37 4.00  16.61 2745.02
   14:22:44.021.18-Jul-2021 4558.50 6620.71 75.37 4.00  16.81 2745.02
   14:22:44.221.18-Jul-2021 4558.50 6639.60 75.37 4.00  17.01 2745.02
   14:22:44.421.18-Jul-2021 4558.50 6639.60 75.37 4.00  17.21 2745.02
   14:22:44.621.18-Jul-2021 4558.50 6620.58 75.37 4.00  17.41 2745.02
   14:22:44.821.18-Jul-2021 4558.50 6624.92 75.37 4.00  17.61 2745.02
   14:22:45.021.18-Jul-2021 4558.50 6627.85 75.37 4.00  17.81 2745.02
   14:22:45.222.18-Jul-2021 4558.50 6622.85 75.37 4.00  18.01 2745.02
   14:22:45.422.18-Jul-2021 4558.50 6622.85 75.37 4.00  18.21 2745.02
   14:22:45.622.18-Jul-2021 4558.50 6624.57 75.37 4.00  18.41 2745.02
   14:22:45.822.18-Jul-2021 4558.50 6620.89 75.37 4.00  18.61 2745.02
   14:22:46.022.18-Jul-2021 4558.50 6618.69 75.37 4.00  18.81 2745.02
   14:22:46.222.18-Jul-2021 4558.50 6621.34 75.37 4.00  19.01 2745.02
   14:22:46.422.18-Jul-2021 4558.50 6621.34 75.37 4.00  19.21 2745.02
   14:22:46.622.18-Jul-2021 4558.50 6621.32 75.37 4.00  19.41 2745.02
   14:22:46.822.18-Jul-2021 4558.50 6626.03 75.37 4.00  19.61 2745.02
   14:22:47.022.18-Jul-2021 4558.50 6638.80 75.37 4.00  19.81 2745.02
   14:22:47.222.18-Jul-2021 4558.50 6620.72 75.37 4.00  20.01 2745.02
   14:22:47.422.18-Jul-2021 4558.50 6620.72 75.37 4.00  20.21 2745.02
   14:22:47.622.18-Jul-2021 4558.50 6638.49 75.37 4.00  20.41 2745.02
   14:22:47.822.18-Jul-2021 4558.50 6616.19 75.37 4.00  20.61 2745.02
   14:22:48.023.18-Jul-2021 4558.50 6624.77 75.37 4.00  20.81 2745.02
   14:22:48.223.18-Jul-2021 4558.50 6629.61 75.37 4.00  21.01 2745.02
   14:22:48.423.18-Jul-2021 4558.50 6629.61 75.37 4.00  21.21 2745.02
   14:22:48.623.18-Jul-2021 4558.50 6630.23 75.37 4.00  21.41 2745.02
   14:22:48.823.18-Jul-2021 4558.50 6625.41 75.37 4.00  21.61 2745.02
   14:22:49.023.18-Jul-2021 4558.50 6630.38 75.37 4.00  21.81 2745.02
   14:22:49.223.18-Jul-2021 4558.50 6623.07 75.37 4.00  22.01 2745.02
   14:22:49.423.18-Jul-2021 4558.50 6623.07 75.37 4.00  22.21 2745.02
   14:22:49.623.18-Jul-2021 4558.50 6635.79 75.36 4.00  22.41 2745.02
   14:22:49.823.18-Jul-2021 4558.50 6626.96 75.36 4.00  22.61 2745.02
   14:22:50.023.18-Jul-2021 4558.50 6631.88 75.36 4.00  22.81 2745.02
