~Version Information
 VERS.                  2.0:   CWLS log ASCII Standard -VERSION 2.0
 WRAP.                   NO:   One line per depth step
~Well Information Block
#MNEM.UNIT     VALUE/NAME     DESCRIPTION
#---------     -----------    ---------------------------
 STRT.S             05:46:28 19-Jul-21: START TIME 05:46:28 19-Jul-21
 STOP.S             05:53:09 19-Jul-21: STOP TIME  05:53:09 19-Jul-21
 STEP.S                   0.00: STEP TIME
 NULL.                 -999.25: NULL VALUE
 MDS .        Operator Entered:  MAG DATA SOURCE
 PDAT.          Mean Sea Level:  PERMANENT DATUM
 UNIT.                     N/A:  LOGGING EQUIPMENT ID
 DCON.         Sperry Drilling:  DIRECTNL CONTR
 DOE .                     N/A:  DOE NUMBER
 RIG .              West Azeri:  RIG NAME
 JOBN.        AZ-XX-0906997913:  JOB TICKET NUMB
 WELL.                     C41:  WELL NAME
 MWDS.                    Baku:  MWD SHOP
 SRVC.          Turan Drilling:  CONTRACTOR
 FLD .                     ACG:  FIELD NAME
 CTRY.              Azerbaijan:  COUNTRY NAME
 PROV.                    Baku:  PROVINCE
 STAT.                    Baku:  STATE NAME
 REGN.                   EESSA:  REGION
 BASE.              Azerbaijan:  LOGGING EQUIPMENT BASE LOCATION
 UWI .                     N/A:  UNIQUE WELL IDENTIFIER
 API .                     N/A:  API NUMBER
 COMP.     BP Exploration (Caspian Sea) Ltd.:  COMPANY
 WTYP.                Deviated:  WELL TYPE
 SON .        AZ-XX-0906997913:  JOB NUMBER
 FTOP.          Formation Tops:  FORM TOPS DESC
 ILTD.               Lithology:  INTERP LTH DESC
 SVYD.                  Survey:  SURVEY DESC
 DMOD.             Drill Model:  DRILL MOD DESC
 HPTY.       Minimum Curvature:  HOLE POS TYPE
 NREF.                    Grid:  NORTH REFERENCE
 SPUD.               16-May-21:  SPUD DATE
 DATE.      21.11.28 17-May-21:  END TIME
 STIM.      21.11.28 17-May-21:  START TIME
 DMF .             Drill Floor:  DRILL MEAS FROM
 DFST.                        :  DIST FSL TEXT
 DFWT.                        :  DIST FWL TEXT
 CNTY.                        :  COUNTY
 LOC .                        :  LOCATION
 LMF .             Drill Floor:  LOG MEASURED FROM
 AGAP.m                  43.42:  AIR GAP
 VSNS.m                  -2.16:  VERT SEC N/S
 VSEW.m                  -6.24:  VERT SEC E/W
 APD .m                  43.42:  DEPTH ABOVE PD
 WDMS.m                 118.27:  WD ELEV
 EGL .m                   0.00:  GROUND ELEVATION
 EPD .m                   0.00:  ELEVATION
 AZTC.deg                 6.29:  AZM TOTAL CORR
 GRDC.deg                 0.18:  GRID CORRECTION
 MDEC.deg                 6.47:  MAGNETIC DECL
 MDIP.deg                59.54:  MAGNETIC DIP
 MFLD.nT              50337.00:  MAGNETIC FIELD
 GVFD.g                   1.00:  GRAVITY FIELD
 VSDR.deg               226.99:  VERT SEC DIRECT
 TDD .m                   0.00:  TOTAL DEPTH (DRILLER)
 SDEP.m                 448.00:  START DEPTH
 DFSL.m                   0.00:  DISTANCE FSL
 DFWL.m                   0.00:  DISTANCE FWL
 UTMY.m             4435799.96:  UTM Y
 UTMX.m              526265.35:  UTM X
 WHEW.m                  -6.24:  WELL HEAD E/W
 WHNS.m                  -2.16:  WELL HEAD N/S
 LONG.deg                51.31:  LONGITUDE
 LATI.deg                40.06:  LATITUDE
 TVDS.m                  43.42:  TVDSS CORRECTN
 EKB .m                  43.42:  KB ELEVATION
 EDF .m                  43.42:  DF ELEVATION
 TDL .m                 288.00:  TOTAL DEPTH (LOGGER)
 MAGU.                 1851863:  MAGUTM CHECKSUM
 VSC .                       0:  VS TO CLOSURE
~Parameter Information Block
#MNEM.UNIT       Value        Description
#---------     -----------    ---------------------------
 AV  .mps                 0.40:  Ann Velocity 
 AVMX.mps                 0.63:  Max Ann Veloc 
 AZIF.deg               158.76:  Azm, Final 
 BHAT.        Rotary Steerable:  BHA Type 
 BROT.°/30m               0.68:  Build Rotating 
 BS  .in                  8.50:  Bit Size 
 BSZ .in                  8.50:  Bit Size 
 BTPL.psig              712.00:  Bit Press Loss 
 CABU.                      No:  Customer Abuse 
 COMM.                     l%v:  Run Comments 1 
 TCS .hr                 90.66:  Time Ciculation Ended 
 CV  .mps                 2.02:  Crit Velocity 
 CVMX.mps                 2.14:  Max Crit Veloc 
 DD1 .            Aziz Aliyevu:  Direct Drillr 1 
 DD2 .             Samir Abbas:  Direct Drillr 2 
 DD3 .           Teymur Aliyev:  Direct Drillr 3 
 DDSV.                 iCruise:  DD Service 
 DEFF.%                  85.10:  % Det Eff 
 DLRX.°/30m               1.05:  Dogleg Rot Max 
 DLSO.°/30m               1.01:  Dogleg Oriented 
 DLSX.°/30m               1.05:  Dogleg Str Max 
 DRET.      07.45.00 18-Jul-21:  Drill End Time 
 DRST.      15.00.00 16-Jul-21:  Drill Start Tim 
 DTIM.hr                 23.46:  Time Drilling 
 EDEP.m                4603.00:  End Depth 
 ENG1.       Seymur Iskandarov:  Engineer 1 
 ENG2.         Yevgeniy Ulikov:  Engineer 2 
 ENG3.         Bahruz Mehdiyev:  Engineer 3 
 ENG4.         Elchin Mammadov:  Engineer 4 
 ETIM.      14.00.00 23-Jul-21:  End Time 
 FLOI.gpm               500.00:  Flow In 
 FLON.gpm               450.00:  Flow In Min 
 FLOS.cptm                0.00:  Fluid Loss 
 FLOX.gpm               560.00:  Flow In Max 
 DFT .        Mineral Oil Base:  Mud Type 
 FTRO.       Formation Presure:  FTWD Run Obj 
 HFLO.                      No:  High Flow 
 HPRE.                      No:  High Pressure 
 HTEM.                      No:  High Temp 
 HYDO.m                   1.80:  Hydro Offset 
 IFIN.deg                40.22:  Inc, Final 
 IMAX.deg                40.54:  Inc Max 
 IMIN.deg                39.44:  Inc Min 
 IMND.m                4361.17:  Inc Min Depth 
 IMXD.m                4417.92:  Inc Max Depth 
 JARR.                      No:  Jarring 
 LETM.      07.45.00 18-Jul-21:  Log End Time 
 LOST.hr                    16:  Lost Rig Time 
 LSTM.      15.00.00 16-Jul-21:  Log Start Time 
 MDCL.ppm             36500.00:  Mud Chlorides 
 MDES.     Inversion Oil/Synthetic:  Mud Desc 
 DFD .sg                  1.42:  Mud Density 
 MDMN.sg                  1.42:  Dens Mud Min 
 MDMX.sg                  1.43:  Dens Mud Max 
 MOIL.                      56:  Run Mud Oil % 
 MOWR.                   71:29:  Run Mud OWR 
 MSND.                     0.5:  Run Mud Sand % 
 MSOL.                      21:  Run Mud Solids% 
 DFV .spqt               78.00:  Mud Viscosity 
 MWOD.in                  6.75:  MWD Tool OD 
 MWSI.                     Yes:  Serv Intrp, MWD 
 OTIM.hr                200.73:  Time Operating 
 PCON.           Look Like New:  Pad Condition 
 PMAX.psia            11069.93:  Press Op, Max 
 PV  .cP                 32.00:  Mud PV 
 RUN .                     700:  Run Number 
 ROPA.m/hr               10.00:  ROP Avg 
 ROPN.m/hr                9.00:  ROP Min 
 ROPX.m/hr               16.00:  ROP Max 
 RPMA.rpm               116.00:  RPM Surface Avg 
 RPMN.rpm                80.00:  RPM Surface Min 
 RPMX.rpm               120.00:  RPM Surface Max 
 RRUN.                    L605:  Rig Run Number 
 RTIM.hr                 45.00:  Time Reaming 
 SAZI.deg               159.86:  Azm, Start 
 SDEP.m                4315.00:  Start Depth 
 SIDD.                      No:  Serv Intrp, DD 
 SINC.deg                39.86:  Inc, Start 
 SPPA.psig             3300.00:  SPP Avg 
 SPPN.psig             3040.00:  SPP Min 
 SPPX.psig             3645.00:  SPP Max 
 STIM.      01.00.00 15-Jul-21:  Start Time 
 SVCS.                 DD, MWD:  Services 
 SVER.                    9.20:  Sperry Version 
 TDAT.m                 288.00:  Tot Depth Attmp 
 TDDF.                      No:  Trip for DD 
 TDLG.m                 288.00:  Tot Depth Loggd 
 TFF .                      No:  Trip for Fail 
 TQAA.f-kp               19.00:  Torque Abs Avg 
 TQAN.f-kp               18.00:  Torque Abs Min 
 TQAX.f-kp               21.00:  Torque Abs Max 
 TRRT.°/30m               0.45:  Turn Rotating 
 MRT .                    HCIM:  Maximum Recorded Temperature 
 TTMX.degC               88.24:  Max Tool Temp 
 VS01.                90649157:  Virtual Str1 SN 
 VS02.                90652483:  Virtual Str2 SN 
 VS03.                11671987:  Virtual Str3 SN 
 VS04.                90643411:  Virtual Str4 SN 
 VS05.                90652478:  Virtual Str5 SN 
 VS06.                    6111:  Virtual Str6 SN 
 WBMN.klb                 9.50:  WOB Min 
 WITN.        Grigoriy Sarayev:  Customer Rep 
 WITN.          Rufat Huseynov:  Customer Rep 2 
 WOBA.klb                11.00:  WOB Avg 
 WOBX.klb                15.00:  WOB Max 
 YP  .lhf2               28.00:  Yield Point 
~Curve Information Block
#MNEM.UNIT                 API CODE     Curve Description
#---------               -----------    ---------------------------
 TIME.HHMMSS            00 000 000 000:  GT Time & Date
 GTDEPTH.m              00 000 000 000:  GT Depth
 GTPQH.psia             00 000 000 000:  GT HR Quartz Pressure
 GTTQ.degC              00 000 000 000:  GT Quartz Temperature
 GTTN.NONE              00 000 000 000:  GT Test Number
 GTET.sec               00 000 000 000:  GT Elapsed Test Time
 GTTVD.m                00 000 000 000:  GT True Vertical Depth
#Other Information
#
#WARRANTY: Halliburton will use its best efforts to furnish customers with 
#accurate information and interpretations that are part of, and incident to, the services 
#provided.  However, Halliburton cannot and does not warrant the accuracy 
#or correctness of such information and interpretations.  Under no circumstances should any 
#such information or interpretation be relied upon as the sole basis for any drilling, 
#completion, production, or financial decision or any procedure involving any risk to the 
#safety of any drilling venture, drilling rig or its crew or any other third party.  The 
#Customer has full responsibility for all drilling, completion and production operation.  
#Halliburton makes no representations or warranties, either expressed or 
#implied, including, but not limited to, the implied warranties of merchantability or fitness 
#for a particular purpose, with respect to the services rendered.  In no event will 
#Halliburton be liable for failure to obtain any particular results or for 
#any damages, including, but not limited to, indirect, special or consequential damages, 
#resulting from the use of any information or interpretation provided by Halliburton.
#
~A           TIME           GTDEPTH  GTPQH  GTTQ  GTTN   GTET   GTTVD  
# ...
   05:46:51.237.19-Jul-2021 4380.50 6307.72 69.37 13.00  22.61 2608.98
   05:46:51.437.19-Jul-2021 4380.50 6306.87 69.37 13.00  22.81 2608.98
   05:46:51.637.19-Jul-2021 4380.50 6307.55 69.37 13.00  23.01 2608.98
   05:46:51.838.19-Jul-2021 4380.50 6307.55 69.37 13.00  23.21 2608.98
   05:46:52.038.19-Jul-2021 4380.50 6308.87 69.37 13.00  23.41 2608.98
   05:46:52.238.19-Jul-2021 4380.50 6309.73 69.37 13.00  23.61 2608.98
   05:46:52.438.19-Jul-2021 4380.50 6309.42 69.37 13.00  23.81 2608.98
   05:46:52.638.19-Jul-2021 4380.50 6336.41 69.37 13.00  24.01 2608.98
   05:46:52.838.19-Jul-2021 4380.50 6336.41 69.37 13.00  24.21 2608.98
   05:46:53.038.19-Jul-2021 4380.50 6307.85 69.37 13.00  24.41 2608.98
   05:46:53.238.19-Jul-2021 4380.50 6310.25 69.37 13.00  24.61 2608.98
   05:46:53.438.19-Jul-2021 4380.50 6307.70 69.37 13.00  24.81 2608.98
   05:46:53.638.19-Jul-2021 4380.50 6309.20 69.37 13.00  25.01 2608.98
   05:46:53.838.19-Jul-2021 4380.50 6309.20 69.37 13.00  25.21 2608.98
   05:46:54.038.19-Jul-2021 4380.50 6308.50 69.37 13.00  25.41 2608.98
   05:46:54.238.19-Jul-2021 4380.50 6308.39 69.37 13.00  25.61 2608.98
   05:46:54.438.19-Jul-2021 4380.50 6308.48 69.37 13.00  25.81 2608.98
   05:46:54.639.19-Jul-2021 4380.50 6308.64 69.37 13.00  26.01 2608.98
   05:46:54.839.19-Jul-2021 4380.50 6308.64 69.37 13.00  26.21 2608.98
   05:46:55.039.19-Jul-2021 4380.50 6310.03 69.37 13.00  26.41 2608.98
   05:46:55.239.19-Jul-2021 4380.50 6337.52 69.37 13.00  26.61 2608.98
   05:46:55.439.19-Jul-2021 4380.50 6313.11 69.37 13.00  26.81 2608.98
   05:46:55.639.19-Jul-2021 4380.50 6309.74 69.37 13.00  27.01 2608.98
   05:46:55.839.19-Jul-2021 4380.50 6309.74 69.37 13.00  27.21 2608.98
   05:46:56.039.19-Jul-2021 4380.50 6313.28 69.37 13.00  27.41 2608.98
   05:46:56.239.19-Jul-2021 4380.50 6312.19 69.37 13.00  27.61 2608.98
   05:46:56.439.19-Jul-2021 4380.50 6310.91 69.37 13.00  27.81 2608.98
   05:46:56.639.19-Jul-2021 4380.50 6316.06 69.37 13.00  28.01 2608.98
   05:46:56.839.19-Jul-2021 4380.50 6316.06 69.37 13.00  28.21 2608.98
   05:46:57.039.19-Jul-2021 4380.50 6313.27 69.37 13.00  28.41 2608.98
   05:46:57.240.19-Jul-2021 4380.50 6313.12 69.37 13.00  28.61 2608.98
   05:46:57.440.19-Jul-2021 4380.50 6314.99 69.37 13.00  28.81 2608.98
   05:46:57.640.19-Jul-2021 4380.50 6338.42 69.37 13.00  29.01 2608.98
   05:46:57.840.19-Jul-2021 4380.50 6338.42 69.37 13.00  29.21 2608.98
   05:46:58.040.19-Jul-2021 4380.50 6313.62 69.37 13.00  29.41 2608.98
   05:46:58.240.19-Jul-2021 4380.50 6313.42 69.37 13.00  29.61 2608.98
   05:46:58.440.19-Jul-2021 4380.50 6337.24 69.37 13.00  29.81 2608.98
   05:46:58.640.19-Jul-2021 4380.50 6322.20 69.37 13.00  30.01 2608.98
   05:46:58.840.19-Jul-2021 4380.50 6322.20 69.37 13.00  30.21 2608.98
   05:46:59.040.19-Jul-2021 4380.50 6315.97 69.37 13.00  30.41 2608.98
   05:46:59.240.19-Jul-2021 4380.50 6312.54 69.37 13.00  30.61 2608.98
   05:46:59.440.19-Jul-2021 4380.50 6315.53 69.37 13.00  30.81 2608.98
   05:46:59.640.19-Jul-2021 4380.50 6314.73 69.37 13.00  31.01 2608.98
   05:46:59.840.19-Jul-2021 4380.50 6314.73 69.37 13.00  31.21 2608.98
   05:47:00.041.19-Jul-2021 4380.50 6320.94 69.37 13.00  31.41 2608.98
   05:47:00.241.19-Jul-2021 4380.50 6308.44 69.37 13.00  31.61 2608.98
   05:47:00.441.19-Jul-2021 4380.50 6301.04 69.37 13.00  31.81 2608.98
   05:47:00.641.19-Jul-2021 4380.50 6294.39 69.37 13.00  32.01 2608.98
   05:47:00.841.19-Jul-2021 4380.50 6294.39 69.37 13.00  32.21 2608.98
   05:47:01.041.19-Jul-2021 4380.50 6285.57 69.37 13.00  32.41 2608.98
   05:47:01.241.19-Jul-2021 4380.50 6287.43 69.37 13.00  32.61 2608.98
   05:47:01.441.19-Jul-2021 4380.50 6290.23 69.37 13.00  32.81 2608.98
   05:47:01.641.19-Jul-2021 4380.50 6279.16 69.37 13.00  33.01 2608.98
   05:47:01.841.19-Jul-2021 4380.50 6279.16 69.37 13.00  33.21 2608.98
   05:47:02.041.19-Jul-2021 4380.50 6275.48 69.37 13.00  33.41 2608.98
   05:47:02.241.19-Jul-2021 4380.50 6276.71 69.37 13.00  33.61 2608.98
   05:47:02.441.19-Jul-2021 4380.50 6276.19 69.37 13.00  33.81 2608.98
   05:47:02.642.19-Jul-2021 4380.50 6273.54 69.37 13.00  34.01 2608.98
   05:47:02.842.19-Jul-2021 4380.50 6273.54 69.37 13.00  34.21 2608.98
   05:47:03.042.19-Jul-2021 4380.50 6273.54 69.37 13.00  34.41 2608.98
   05:47:03.242.19-Jul-2021 4380.50 6273.49 69.37 13.00  34.61 2608.98
   05:47:03.442.19-Jul-2021 4380.50 6275.34 69.37 13.00  34.81 2608.98
   05:47:03.642.19-Jul-2021 4380.50 6279.72 69.37 13.00  35.01 2608.98
   05:47:03.842.19-Jul-2021 4380.50 6279.72 69.37 13.00  35.21 2608.98
   05:47:04.042.19-Jul-2021 4380.50 6298.69 69.37 13.00  35.41 2608.98
   05:47:04.242.19-Jul-2021 4380.50 6294.33 69.37 13.00  35.61 2608.98
   05:47:04.442.19-Jul-2021 4380.50 6297.79 69.37 13.00  35.81 2608.98
   05:47:04.642.19-Jul-2021 4380.50 6295.84 69.37 13.00  36.01 2608.98
   05:47:04.842.19-Jul-2021 4380.50 6295.84 69.37 13.00  36.21 2608.98
   05:47:05.042.19-Jul-2021 4380.50 6289.58 69.37 13.00  36.41 2608.98
   05:47:05.242.19-Jul-2021 4380.50 6286.69 69.37 13.00  36.61 2608.98
   05:47:05.443.19-Jul-2021 4380.50 6286.15 69.37 13.00  36.81 2608.98
   05:47:05.643.19-Jul-2021 4380.50 6288.39 69.37 13.00  37.01 2608.98
   05:47:05.843.19-Jul-2021 4380.50 6288.39 69.37 13.00  37.21 2608.98
   05:47:06.043.19-Jul-2021 4380.50 6285.79 69.37 13.00  37.41 2608.98
   05:47:06.243.19-Jul-2021 4380.50 6286.13 69.37 13.00  37.61 2608.98
   05:47:06.443.19-Jul-2021 4380.50 6285.55 69.37 13.00  37.81 2608.98
   05:47:06.643.19-Jul-2021 4380.50 6285.87 69.37 13.00  38.01 2608.98
   05:47:06.843.19-Jul-2021 4380.50 6285.87 69.37 13.00  38.21 2608.98
   05:47:07.043.19-Jul-2021 4380.50 6285.46 69.37 13.00  38.41 2608.98
   05:47:07.243.19-Jul-2021 4380.50 6283.92 69.37 13.00  38.61 2608.98
   05:47:07.443.19-Jul-2021 4380.50 6283.59 69.37 13.00  38.81 2608.98
   05:47:07.643.19-Jul-2021 4380.50 6283.33 69.37 13.00  39.01 2608.98
   05:47:07.843.19-Jul-2021 4380.50 6283.33 69.37 13.00  39.21 2608.98
   05:47:08.043.19-Jul-2021 4380.50 6278.90 69.37 13.00  39.41 2608.98
   05:47:08.244.19-Jul-2021 4380.50 5928.10 69.37 13.00  39.61 2608.98
   05:47:08.444.19-Jul-2021 4380.50 5075.87 69.37 13.00  39.81 2608.98
   05:47:08.644.19-Jul-2021 4380.50 4057.62 69.37 13.00  40.01 2608.98
   05:47:08.844.19-Jul-2021 4380.50 4057.62 69.37 13.00  40.21 2608.98
   05:47:09.044.19-Jul-2021 4380.50 2361.88 69.37 13.00  40.41 2608.98
   05:47:09.244.19-Jul-2021 4380.50 1643.12 69.36 13.00  40.61 2608.98
   05:47:09.444.19-Jul-2021 4380.50 1218.57 69.36 13.00  40.82 2608.98
   05:47:09.644.19-Jul-2021 4380.50 1105.43 69.36 13.00  41.02 2608.98
   05:47:09.844.19-Jul-2021 4380.50 1105.43 69.36 13.00  41.22 2608.98
   05:47:10.044.19-Jul-2021 4380.50 1069.22 69.36 13.00  41.42 2608.98
   05:47:10.244.19-Jul-2021 4380.50 1025.97 69.36 13.00  41.62 2608.98
   05:47:10.444.19-Jul-2021 4380.50  987.51 69.35 13.00  41.82 2608.98
   05:47:10.644.19-Jul-2021 4380.50  959.50 69.35 13.00  42.02 2608.98
   05:47:10.845.19-Jul-2021 4380.50  959.50 69.35 13.00  42.22 2608.98
   05:47:11.045.19-Jul-2021 4380.50  933.30 69.34 13.00  42.42 2608.98
   05:47:11.245.19-Jul-2021 4380.50  923.56 69.34 13.00  42.62 2608.98
   05:47:11.445.19-Jul-2021 4380.50  922.27 69.34 13.00  42.82 2608.98
   05:47:11.645.19-Jul-2021 4380.50  904.75 69.34 13.00  43.02 2608.98
   05:47:11.845.19-Jul-2021 4380.50  904.75 69.34 13.00  43.22 2608.98
   05:47:12.045.19-Jul-2021 4380.50  894.25 69.33 13.00  43.42 2608.98
   05:47:12.245.19-Jul-2021 4380.50  864.93 69.33 13.00  43.62 2608.98
   05:47:12.445.19-Jul-2021 4380.50  866.21 69.32 13.00  43.82 2608.98
   05:47:12.645.19-Jul-2021 4380.50  900.31 69.32 13.00  44.02 2608.98
   05:47:12.845.19-Jul-2021 4380.50  900.31 69.32 13.00  44.22 2608.98
   05:47:13.045.19-Jul-2021 4380.50  874.30 69.31 13.00  44.42 2608.98
   05:47:13.245.19-Jul-2021 4380.50  871.70 69.31 13.00  44.62 2608.98
   05:47:13.445.19-Jul-2021 4380.50  875.06 69.31 13.00  44.82 2608.98
   05:47:13.646.19-Jul-2021 4380.50  910.65 69.30 13.00  45.02 2608.98
