~Version Information
 VERS.                  2.0:   CWLS log ASCII Standard -VERSION 2.0
 WRAP.                   NO:   One line per depth step
~Well Information Block
#MNEM.UNIT     VALUE/NAME     DESCRIPTION
#---------     -----------    ---------------------------
 STRT.S             11:46:53 19-Jul-21: START TIME 11:46:53 19-Jul-21
 STOP.S             11:53:47 19-Jul-21: STOP TIME  11:53:47 19-Jul-21
 STEP.S                   0.00: STEP TIME
 NULL.                 -999.25: NULL VALUE
 MDS .        Operator Entered:  MAG DATA SOURCE
 PDAT.          Mean Sea Level:  PERMANENT DATUM
 UNIT.                     N/A:  LOGGING EQUIPMENT ID
 DCON.         Sperry Drilling:  DIRECTNL CONTR
 DOE .                     N/A:  DOE NUMBER
 RIG .              West Azeri:  RIG NAME
 JOBN.        AZ-XX-0906997913:  JOB TICKET NUMB
 WELL.                     C41:  WELL NAME
 MWDS.                    Baku:  MWD SHOP
 SRVC.          Turan Drilling:  CONTRACTOR
 FLD .                     ACG:  FIELD NAME
 CTRY.              Azerbaijan:  COUNTRY NAME
 PROV.                    Baku:  PROVINCE
 STAT.                    Baku:  STATE NAME
 REGN.                   EESSA:  REGION
 BASE.              Azerbaijan:  LOGGING EQUIPMENT BASE LOCATION
 UWI .                     N/A:  UNIQUE WELL IDENTIFIER
 API .                     N/A:  API NUMBER
 COMP.     BP Exploration (Caspian Sea) Ltd.:  COMPANY
 WTYP.                Deviated:  WELL TYPE
 SON .        AZ-XX-0906997913:  JOB NUMBER
 FTOP.          Formation Tops:  FORM TOPS DESC
 ILTD.               Lithology:  INTERP LTH DESC
 SVYD.                  Survey:  SURVEY DESC
 DMOD.             Drill Model:  DRILL MOD DESC
 HPTY.       Minimum Curvature:  HOLE POS TYPE
 NREF.                    Grid:  NORTH REFERENCE
 SPUD.               16-May-21:  SPUD DATE
 DATE.      21.11.28 17-May-21:  END TIME
 STIM.      21.11.28 17-May-21:  START TIME
 DMF .             Drill Floor:  DRILL MEAS FROM
 DFST.                        :  DIST FSL TEXT
 DFWT.                        :  DIST FWL TEXT
 CNTY.                        :  COUNTY
 LOC .                        :  LOCATION
 LMF .             Drill Floor:  LOG MEASURED FROM
 AGAP.m                  43.42:  AIR GAP
 VSNS.m                  -2.16:  VERT SEC N/S
 VSEW.m                  -6.24:  VERT SEC E/W
 APD .m                  43.42:  DEPTH ABOVE PD
 WDMS.m                 118.27:  WD ELEV
 EGL .m                   0.00:  GROUND ELEVATION
 EPD .m                   0.00:  ELEVATION
 AZTC.deg                 6.29:  AZM TOTAL CORR
 GRDC.deg                 0.18:  GRID CORRECTION
 MDEC.deg                 6.47:  MAGNETIC DECL
 MDIP.deg                59.54:  MAGNETIC DIP
 MFLD.nT              50337.00:  MAGNETIC FIELD
 GVFD.g                   1.00:  GRAVITY FIELD
 VSDR.deg               226.99:  VERT SEC DIRECT
 TDD .m                   0.00:  TOTAL DEPTH (DRILLER)
 SDEP.m                 448.00:  START DEPTH
 DFSL.m                   0.00:  DISTANCE FSL
 DFWL.m                   0.00:  DISTANCE FWL
 UTMY.m             4435799.96:  UTM Y
 UTMX.m              526265.35:  UTM X
 WHEW.m                  -6.24:  WELL HEAD E/W
 WHNS.m                  -2.16:  WELL HEAD N/S
 LONG.deg                51.31:  LONGITUDE
 LATI.deg                40.06:  LATITUDE
 TVDS.m                  43.42:  TVDSS CORRECTN
 EKB .m                  43.42:  KB ELEVATION
 EDF .m                  43.42:  DF ELEVATION
 TDL .m                 288.00:  TOTAL DEPTH (LOGGER)
 MAGU.                 1851863:  MAGUTM CHECKSUM
 VSC .                       0:  VS TO CLOSURE
~Parameter Information Block
#MNEM.UNIT       Value        Description
#---------     -----------    ---------------------------
 AV  .mps                 0.40:  Ann Velocity 
 AVMX.mps                 0.63:  Max Ann Veloc 
 AZIF.deg               158.76:  Azm, Final 
 BHAT.        Rotary Steerable:  BHA Type 
 BROT.°/30m               0.68:  Build Rotating 
 BS  .in                  8.50:  Bit Size 
 BSZ .in                  8.50:  Bit Size 
 BTPL.psig              712.00:  Bit Press Loss 
 CABU.                      No:  Customer Abuse 
 COMM.                     œ_R:  Run Comments 1 
 TCS .hr                 90.66:  Time Ciculation Ended 
 CV  .mps                 2.02:  Crit Velocity 
 CVMX.mps                 2.14:  Max Crit Veloc 
 DD1 .            Aziz Aliyevu:  Direct Drillr 1 
 DD2 .             Samir Abbas:  Direct Drillr 2 
 DD3 .           Teymur Aliyev:  Direct Drillr 3 
 DDSV.                 iCruise:  DD Service 
 DEFF.%                  85.10:  % Det Eff 
 DLRX.°/30m               1.05:  Dogleg Rot Max 
 DLSO.°/30m               1.01:  Dogleg Oriented 
 DLSX.°/30m               1.05:  Dogleg Str Max 
 DRET.      07.45.00 18-Jul-21:  Drill End Time 
 DRST.      15.00.00 16-Jul-21:  Drill Start Tim 
 DTIM.hr                 23.46:  Time Drilling 
 EDEP.m                4603.00:  End Depth 
 ENG1.       Seymur Iskandarov:  Engineer 1 
 ENG2.         Yevgeniy Ulikov:  Engineer 2 
 ENG3.         Bahruz Mehdiyev:  Engineer 3 
 ENG4.         Elchin Mammadov:  Engineer 4 
 ETIM.      14.00.00 23-Jul-21:  End Time 
 FLOI.gpm               500.00:  Flow In 
 FLON.gpm               450.00:  Flow In Min 
 FLOS.cptm                0.00:  Fluid Loss 
 FLOX.gpm               560.00:  Flow In Max 
 DFT .        Mineral Oil Base:  Mud Type 
 FTRO.       Formation Presure:  FTWD Run Obj 
 HFLO.                      No:  High Flow 
 HPRE.                      No:  High Pressure 
 HTEM.                      No:  High Temp 
 HYDO.m                   1.80:  Hydro Offset 
 IFIN.deg                40.22:  Inc, Final 
 IMAX.deg                40.54:  Inc Max 
 IMIN.deg                39.44:  Inc Min 
 IMND.m                4361.17:  Inc Min Depth 
 IMXD.m                4417.92:  Inc Max Depth 
 JARR.                      No:  Jarring 
 LETM.      07.45.00 18-Jul-21:  Log End Time 
 LOST.hr                    16:  Lost Rig Time 
 LSTM.      15.00.00 16-Jul-21:  Log Start Time 
 MDCL.ppm             36500.00:  Mud Chlorides 
 MDES.     Inversion Oil/Synthetic:  Mud Desc 
 DFD .sg                  1.42:  Mud Density 
 MDMN.sg                  1.42:  Dens Mud Min 
 MDMX.sg                  1.43:  Dens Mud Max 
 MOIL.                      56:  Run Mud Oil % 
 MOWR.                   71:29:  Run Mud OWR 
 MSND.                     0.5:  Run Mud Sand % 
 MSOL.                      21:  Run Mud Solids% 
 DFV .spqt               78.00:  Mud Viscosity 
 MWOD.in                  6.75:  MWD Tool OD 
 MWSI.                     Yes:  Serv Intrp, MWD 
 OTIM.hr                200.73:  Time Operating 
 PCON.           Look Like New:  Pad Condition 
 PMAX.psia            11069.93:  Press Op, Max 
 PV  .cP                 32.00:  Mud PV 
 RUN .                     700:  Run Number 
 ROPA.m/hr               10.00:  ROP Avg 
 ROPN.m/hr                9.00:  ROP Min 
 ROPX.m/hr               16.00:  ROP Max 
 RPMA.rpm               116.00:  RPM Surface Avg 
 RPMN.rpm                80.00:  RPM Surface Min 
 RPMX.rpm               120.00:  RPM Surface Max 
 RRUN.                    L605:  Rig Run Number 
 RTIM.hr                 45.00:  Time Reaming 
 SAZI.deg               159.86:  Azm, Start 
 SDEP.m                4315.00:  Start Depth 
 SIDD.                      No:  Serv Intrp, DD 
 SINC.deg                39.86:  Inc, Start 
 SPPA.psig             3300.00:  SPP Avg 
 SPPN.psig             3040.00:  SPP Min 
 SPPX.psig             3645.00:  SPP Max 
 STIM.      01.00.00 15-Jul-21:  Start Time 
 SVCS.                 DD, MWD:  Services 
 SVER.                    9.20:  Sperry Version 
 TDAT.m                 288.00:  Tot Depth Attmp 
 TDDF.                      No:  Trip for DD 
 TDLG.m                 288.00:  Tot Depth Loggd 
 TFF .                      No:  Trip for Fail 
 TQAA.f-kp               19.00:  Torque Abs Avg 
 TQAN.f-kp               18.00:  Torque Abs Min 
 TQAX.f-kp               21.00:  Torque Abs Max 
 TRRT.°/30m               0.45:  Turn Rotating 
 MRT .                    HCIM:  Maximum Recorded Temperature 
 TTMX.degC               88.24:  Max Tool Temp 
 VS01.                90649157:  Virtual Str1 SN 
 VS02.                90652483:  Virtual Str2 SN 
 VS03.                11671987:  Virtual Str3 SN 
 VS04.                90643411:  Virtual Str4 SN 
 VS05.                90652478:  Virtual Str5 SN 
 VS06.                    6111:  Virtual Str6 SN 
 WBMN.klb                 9.50:  WOB Min 
 WITN.        Grigoriy Sarayev:  Customer Rep 
 WITN.          Rufat Huseynov:  Customer Rep 2 
 WOBA.klb                11.00:  WOB Avg 
 WOBX.klb                15.00:  WOB Max 
 YP  .lhf2               28.00:  Yield Point 
~Curve Information Block
#MNEM.UNIT                 API CODE     Curve Description
#---------               -----------    ---------------------------
 TIME.HHMMSS            00 000 000 000:  GT Time & Date
 GTDEPTH.m              00 000 000 000:  GT Depth
 GTPQH.psia             00 000 000 000:  GT HR Quartz Pressure
 GTTQ.degC              00 000 000 000:  GT Quartz Temperature
 GTTN.NONE              00 000 000 000:  GT Test Number
 GTET.sec               00 000 000 000:  GT Elapsed Test Time
 GTTVD.m                00 000 000 000:  GT True Vertical Depth
#Other Information
#
#WARRANTY: Halliburton will use its best efforts to furnish customers with 
#accurate information and interpretations that are part of, and incident to, the services 
#provided.  However, Halliburton cannot and does not warrant the accuracy 
#or correctness of such information and interpretations.  Under no circumstances should any 
#such information or interpretation be relied upon as the sole basis for any drilling, 
#completion, production, or financial decision or any procedure involving any risk to the 
#safety of any drilling venture, drilling rig or its crew or any other third party.  The 
#Customer has full responsibility for all drilling, completion and production operation.  
#Halliburton makes no representations or warranties, either expressed or 
#implied, including, but not limited to, the implied warranties of merchantability or fitness 
#for a particular purpose, with respect to the services rendered.  In no event will 
#Halliburton be liable for failure to obtain any particular results or for 
#any damages, including, but not limited to, indirect, special or consequential damages, 
#resulting from the use of any information or interpretation provided by Halliburton.
#
~A           TIME           GTDEPTH  GTPQH  GTTQ  GTTN   GTET   GTTVD  
# ...
   11:47:38.808.19-Jul-2021 4516.00 3582.00 70.83 25.00  45.22 2712.47
   11:47:39.008.19-Jul-2021 4516.00 3581.70 70.83 25.00  45.42 2712.47
   11:47:39.208.19-Jul-2021 4516.00 3581.95 70.83 25.00  45.62 2712.47
   11:47:39.408.19-Jul-2021 4516.00 3585.00 70.83 25.00  45.82 2712.47
   11:47:39.608.19-Jul-2021 4516.00 3590.60 70.83 25.00  46.02 2712.47
   11:47:39.809.19-Jul-2021 4516.00 3590.60 70.83 25.00  46.22 2712.47
   11:47:40.009.19-Jul-2021 4516.00 3590.65 70.83 25.00  46.42 2712.47
   11:47:40.209.19-Jul-2021 4516.00 3590.75 70.83 25.00  46.62 2712.47
   11:47:40.409.19-Jul-2021 4516.00 3590.69 70.83 25.00  46.82 2712.47
   11:47:40.609.19-Jul-2021 4516.00 3590.68 70.82 25.00  47.02 2712.47
   11:47:40.809.19-Jul-2021 4516.00 3590.68 70.82 25.00  47.22 2712.47
   11:47:41.009.19-Jul-2021 4516.00 3590.79 70.82 25.00  47.42 2712.47
   11:47:41.209.19-Jul-2021 4516.00 3590.83 70.82 25.00  47.62 2712.47
   11:47:41.409.19-Jul-2021 4516.00 3590.82 70.82 25.00  47.82 2712.47
   11:47:41.609.19-Jul-2021 4516.00 3590.80 70.82 25.00  48.02 2712.47
   11:47:41.809.19-Jul-2021 4516.00 3590.80 70.82 25.00  48.22 2712.47
   11:47:42.009.19-Jul-2021 4516.00 3590.86 70.82 25.00  48.42 2712.47
   11:47:42.209.19-Jul-2021 4516.00 3590.92 70.82 25.00  48.62 2712.47
   11:47:42.409.19-Jul-2021 4516.00 3590.93 70.82 25.00  48.82 2712.47
   11:47:42.610.19-Jul-2021 4516.00 3590.97 70.82 25.00  49.02 2712.47
   11:47:42.810.19-Jul-2021 4516.00 3590.97 70.82 25.00  49.22 2712.47
   11:47:43.010.19-Jul-2021 4516.00 3591.00 70.82 25.00  49.42 2712.47
   11:47:43.210.19-Jul-2021 4516.00 3591.01 70.82 25.00  49.62 2712.47
   11:47:43.410.19-Jul-2021 4516.00 3591.01 70.82 25.00  49.82 2712.47
   11:47:43.610.19-Jul-2021 4516.00 3591.03 70.82 25.00  50.02 2712.47
   11:47:43.810.19-Jul-2021 4516.00 3591.03 70.82 25.00  50.22 2712.47
   11:47:44.010.19-Jul-2021 4516.00 3591.04 70.82 25.00  50.42 2712.47
   11:47:44.210.19-Jul-2021 4516.00 3591.01 70.82 25.00  50.62 2712.47
   11:47:44.410.19-Jul-2021 4516.00 3590.96 70.82 25.00  50.82 2712.47
   11:47:44.610.19-Jul-2021 4516.00 3590.99 70.82 25.00  51.02 2712.47
   11:47:44.810.19-Jul-2021 4516.00 3590.99 70.82 25.00  51.22 2712.47
   11:47:45.010.19-Jul-2021 4516.00 3591.05 70.82 25.00  51.42 2712.47
   11:47:45.211.19-Jul-2021 4516.00 3591.07 70.82 25.00  51.62 2712.47
   11:47:45.411.19-Jul-2021 4516.00 3591.08 70.82 25.00  51.82 2712.47
   11:47:45.611.19-Jul-2021 4516.00 3591.10 70.82 25.00  52.02 2712.47
   11:47:45.811.19-Jul-2021 4516.00 3591.10 70.82 25.00  52.22 2712.47
   11:47:46.011.19-Jul-2021 4516.00 3591.11 70.82 25.00  52.42 2712.47
   11:47:46.211.19-Jul-2021 4516.00 3591.12 70.82 25.00  52.62 2712.47
   11:47:46.411.19-Jul-2021 4516.00 3591.13 70.82 25.00  52.82 2712.47
   11:47:46.611.19-Jul-2021 4516.00 3591.13 70.82 25.00  53.02 2712.47
   11:47:46.811.19-Jul-2021 4516.00 3591.13 70.82 25.00  53.22 2712.47
   11:47:47.011.19-Jul-2021 4516.00 3591.03 70.82 25.00  53.42 2712.47
   11:47:47.211.19-Jul-2021 4516.00 3591.12 70.82 25.00  53.62 2712.47
   11:47:47.411.19-Jul-2021 4516.00 3590.98 70.82 25.00  53.82 2712.47
   11:47:47.611.19-Jul-2021 4516.00 3591.03 70.82 25.00  54.02 2712.47
   11:47:47.811.19-Jul-2021 4516.00 3591.03 70.82 25.00  54.22 2712.47
   11:47:48.012.19-Jul-2021 4516.00 3591.12 70.82 25.00  54.42 2712.47
   11:47:48.212.19-Jul-2021 4516.00 3591.15 70.82 25.00  54.62 2712.47
   11:47:48.412.19-Jul-2021 4516.00 3591.07 70.82 25.00  54.82 2712.47
   11:47:48.612.19-Jul-2021 4516.00 3591.09 70.82 25.00  55.02 2712.47
   11:47:48.812.19-Jul-2021 4516.00 3591.09 70.82 25.00  55.22 2712.47
   11:47:49.012.19-Jul-2021 4516.00 3591.12 70.82 25.00  55.42 2712.47
   11:47:49.212.19-Jul-2021 4516.00 3591.17 70.82 25.00  55.62 2712.47
   11:47:49.412.19-Jul-2021 4516.00 3591.22 70.82 25.00  55.82 2712.47
   11:47:49.612.19-Jul-2021 4516.00 3591.33 70.82 25.00  56.02 2712.47
   11:47:49.812.19-Jul-2021 4516.00 3591.33 70.82 25.00  56.22 2712.47
   11:47:50.012.19-Jul-2021 4516.00 3591.14 70.82 25.00  56.42 2712.47
   11:47:50.212.19-Jul-2021 4516.00 3591.18 70.82 25.00  56.62 2712.47
   11:47:50.412.19-Jul-2021 4516.00 3591.13 70.82 25.00  56.82 2712.47
   11:47:50.612.19-Jul-2021 4516.00 3591.15 70.82 25.00  57.02 2712.47
   11:47:50.813.19-Jul-2021 4516.00 3591.15 70.82 25.00  57.22 2712.47
   11:47:51.013.19-Jul-2021 4516.00 3591.18 70.82 25.00  57.42 2712.47
   11:47:51.213.19-Jul-2021 4516.00 3591.21 70.82 25.00  57.62 2712.47
   11:47:51.413.19-Jul-2021 4516.00 3591.24 70.82 25.00  57.82 2712.47
   11:47:51.613.19-Jul-2021 4516.00 3591.27 70.82 25.00  58.02 2712.47
   11:47:51.813.19-Jul-2021 4516.00 3591.27 70.82 25.00  58.22 2712.47
   11:47:52.013.19-Jul-2021 4516.00 3591.28 70.82 25.00  58.42 2712.47
   11:47:52.213.19-Jul-2021 4516.00 3591.30 70.82 25.00  58.62 2712.47
   11:47:52.413.19-Jul-2021 4516.00 3591.30 70.82 25.00  58.82 2712.47
   11:47:52.613.19-Jul-2021 4516.00 3591.32 70.82 25.00  59.02 2712.47
   11:47:52.813.19-Jul-2021 4516.00 3591.32 70.82 25.00  59.22 2712.47
   11:47:53.013.19-Jul-2021 4516.00 3591.33 70.82 25.00  59.42 2712.47
   11:47:53.213.19-Jul-2021 4516.00 3591.33 70.82 25.00  59.62 2712.47
   11:47:53.414.19-Jul-2021 4516.00 3591.19 70.82 25.00  59.82 2712.47
   11:47:53.614.19-Jul-2021 4516.00 3591.19 70.82 25.00  60.02 2712.47
   11:47:53.814.19-Jul-2021 4516.00 3591.19 70.82 25.00  60.22 2712.47
   11:47:54.014.19-Jul-2021 4516.00 3591.28 70.82 25.00  60.42 2712.47
   11:47:54.214.19-Jul-2021 4516.00 3591.30 70.82 25.00  60.62 2712.47
   11:47:54.414.19-Jul-2021 4516.00 3591.33 70.82 25.00  60.82 2712.47
   11:47:54.614.19-Jul-2021 4516.00 3591.35 70.82 25.00  61.02 2712.47
   11:47:54.814.19-Jul-2021 4516.00 3591.35 70.82 25.00  61.22 2712.47
   11:47:55.014.19-Jul-2021 4516.00 3591.36 70.82 25.00  61.42 2712.47
   11:47:55.214.19-Jul-2021 4516.00 3591.37 70.82 25.00  61.62 2712.47
   11:47:55.414.19-Jul-2021 4516.00 3591.38 70.82 25.00  61.82 2712.47
   11:47:55.614.19-Jul-2021 4516.00 3591.39 70.82 25.00  62.02 2712.47
   11:47:55.814.19-Jul-2021 4516.00 3591.39 70.82 25.00  62.22 2712.47
   11:47:56.014.19-Jul-2021 4516.00 3591.29 70.82 25.00  62.42 2712.47
   11:47:56.215.19-Jul-2021 4516.00 3591.28 70.82 25.00  62.62 2712.47
   11:47:56.415.19-Jul-2021 4516.00 3591.28 70.82 25.00  62.82 2712.47
   11:47:56.615.19-Jul-2021 4516.00 3591.26 70.82 25.00  63.02 2712.47
   11:47:56.815.19-Jul-2021 4516.00 3591.26 70.82 25.00  63.22 2712.47
   11:47:57.015.19-Jul-2021 4516.00 3592.68 70.82 25.00  63.42 2712.47
   11:47:57.215.19-Jul-2021 4516.00 3592.22 70.82 25.00  63.62 2712.47
   11:47:57.415.19-Jul-2021 4516.00 3591.15 70.82 25.00  63.82 2712.47
   11:47:57.615.19-Jul-2021 4516.00 3591.23 70.82 25.00  64.02 2712.47
   11:47:57.815.19-Jul-2021 4516.00 3591.23 70.82 25.00  64.22 2712.47
   11:47:58.015.19-Jul-2021 4516.00 3591.19 70.82 25.00  64.42 2712.47
   11:47:58.215.19-Jul-2021 4516.00 3591.18 70.82 25.00  64.62 2712.47
   11:47:58.415.19-Jul-2021 4516.00 3591.19 70.82 25.00  64.82 2712.47
   11:47:58.615.19-Jul-2021 4516.00 3591.26 70.82 25.00  65.02 2712.47
   11:47:58.816.19-Jul-2021 4516.00 3591.26 70.82 25.00  65.22 2712.47
   11:47:59.016.19-Jul-2021 4516.00 3591.21 70.82 25.00  65.42 2712.47
   11:47:59.216.19-Jul-2021 4516.00 3591.21 70.82 25.00  65.62 2712.47
   11:47:59.416.19-Jul-2021 4516.00 3591.24 70.82 25.00  65.82 2712.47
   11:47:59.616.19-Jul-2021 4516.00 3591.26 70.82 25.00  66.02 2712.47
   11:47:59.816.19-Jul-2021 4516.00 3591.26 70.82 25.00  66.22 2712.47
   11:48:00.016.19-Jul-2021 4516.00 3591.27 70.82 25.00  66.42 2712.47
   11:48:00.216.19-Jul-2021 4516.00 3591.30 70.82 25.00  66.62 2712.47
   11:48:00.416.19-Jul-2021 4516.00 3591.30 70.82 25.00  66.82 2712.47
   11:48:00.616.19-Jul-2021 4516.00 3591.30 70.82 25.00  67.02 2712.47
   11:48:00.816.19-Jul-2021 4516.00 3591.30 70.82 25.00  67.22 2712.47
   11:48:01.016.19-Jul-2021 4516.00 3591.33 70.82 25.00  67.42 2712.47
   11:48:01.216.19-Jul-2021 4516.00 3591.34 70.82 25.00  67.62 2712.47
