~Version Information
 VERS.                  2.0:   CWLS log ASCII Standard -VERSION 2.0
 WRAP.                   NO:   One line per depth step
~Well Information Block
#MNEM.UNIT     VALUE/NAME     DESCRIPTION
#---------     -----------    ---------------------------
 STRT.S             04:43:18 19-Jul-21: START TIME 04:43:18 19-Jul-21
 STOP.S             04:49:54 19-Jul-21: STOP TIME  04:49:54 19-Jul-21
 STEP.S                   0.00: STEP TIME
 NULL.                 -999.25: NULL VALUE
 MDS .        Operator Entered:  MAG DATA SOURCE
 PDAT.          Mean Sea Level:  PERMANENT DATUM
 UNIT.                     N/A:  LOGGING EQUIPMENT ID
 DCON.         Sperry Drilling:  DIRECTNL CONTR
 DOE .                     N/A:  DOE NUMBER
 RIG .              West Azeri:  RIG NAME
 JOBN.        AZ-XX-0906997913:  JOB TICKET NUMB
 WELL.                     C41:  WELL NAME
 MWDS.                    Baku:  MWD SHOP
 SRVC.          Turan Drilling:  CONTRACTOR
 FLD .                     ACG:  FIELD NAME
 CTRY.              Azerbaijan:  COUNTRY NAME
 PROV.                    Baku:  PROVINCE
 STAT.                    Baku:  STATE NAME
 REGN.                   EESSA:  REGION
 BASE.              Azerbaijan:  LOGGING EQUIPMENT BASE LOCATION
 UWI .                     N/A:  UNIQUE WELL IDENTIFIER
 API .                     N/A:  API NUMBER
 COMP.     BP Exploration (Caspian Sea) Ltd.:  COMPANY
 WTYP.                Deviated:  WELL TYPE
 SON .        AZ-XX-0906997913:  JOB NUMBER
 FTOP.          Formation Tops:  FORM TOPS DESC
 ILTD.               Lithology:  INTERP LTH DESC
 SVYD.                  Survey:  SURVEY DESC
 DMOD.             Drill Model:  DRILL MOD DESC
 HPTY.       Minimum Curvature:  HOLE POS TYPE
 NREF.                    Grid:  NORTH REFERENCE
 SPUD.               16-May-21:  SPUD DATE
 DATE.      21.11.28 17-May-21:  END TIME
 STIM.      21.11.28 17-May-21:  START TIME
 DMF .             Drill Floor:  DRILL MEAS FROM
 DFST.                        :  DIST FSL TEXT
 DFWT.                        :  DIST FWL TEXT
 CNTY.                        :  COUNTY
 LOC .                        :  LOCATION
 LMF .             Drill Floor:  LOG MEASURED FROM
 AGAP.m                  43.42:  AIR GAP
 VSNS.m                  -2.16:  VERT SEC N/S
 VSEW.m                  -6.24:  VERT SEC E/W
 APD .m                  43.42:  DEPTH ABOVE PD
 WDMS.m                 118.27:  WD ELEV
 EGL .m                   0.00:  GROUND ELEVATION
 EPD .m                   0.00:  ELEVATION
 AZTC.deg                 6.29:  AZM TOTAL CORR
 GRDC.deg                 0.18:  GRID CORRECTION
 MDEC.deg                 6.47:  MAGNETIC DECL
 MDIP.deg                59.54:  MAGNETIC DIP
 MFLD.nT              50337.00:  MAGNETIC FIELD
 GVFD.g                   1.00:  GRAVITY FIELD
 VSDR.deg               226.99:  VERT SEC DIRECT
 TDD .m                   0.00:  TOTAL DEPTH (DRILLER)
 SDEP.m                 448.00:  START DEPTH
 DFSL.m                   0.00:  DISTANCE FSL
 DFWL.m                   0.00:  DISTANCE FWL
 UTMY.m             4435799.96:  UTM Y
 UTMX.m              526265.35:  UTM X
 WHEW.m                  -6.24:  WELL HEAD E/W
 WHNS.m                  -2.16:  WELL HEAD N/S
 LONG.deg                51.31:  LONGITUDE
 LATI.deg                40.06:  LATITUDE
 TVDS.m                  43.42:  TVDSS CORRECTN
 EKB .m                  43.42:  KB ELEVATION
 EDF .m                  43.42:  DF ELEVATION
 TDL .m                 288.00:  TOTAL DEPTH (LOGGER)
 MAGU.                 1851863:  MAGUTM CHECKSUM
 VSC .                       0:  VS TO CLOSURE
~Parameter Information Block
#MNEM.UNIT       Value        Description
#---------     -----------    ---------------------------
 AV  .mps                 0.40:  Ann Velocity 
 AVMX.mps                 0.63:  Max Ann Veloc 
 AZIF.deg               158.76:  Azm, Final 
 BHAT.        Rotary Steerable:  BHA Type 
 BROT.°/30m               0.68:  Build Rotating 
 BS  .in                  8.50:  Bit Size 
 BSZ .in                  8.50:  Bit Size 
 BTPL.psig              712.00:  Bit Press Loss 
 CABU.                      No:  Customer Abuse 
 COMM.                     ”™f:  Run Comments 1 
 TCS .hr                 90.66:  Time Ciculation Ended 
 CV  .mps                 2.02:  Crit Velocity 
 CVMX.mps                 2.14:  Max Crit Veloc 
 DD1 .            Aziz Aliyevu:  Direct Drillr 1 
 DD2 .             Samir Abbas:  Direct Drillr 2 
 DD3 .           Teymur Aliyev:  Direct Drillr 3 
 DDSV.                 iCruise:  DD Service 
 DEFF.%                  85.10:  % Det Eff 
 DLRX.°/30m               1.05:  Dogleg Rot Max 
 DLSO.°/30m               1.01:  Dogleg Oriented 
 DLSX.°/30m               1.05:  Dogleg Str Max 
 DRET.      07.45.00 18-Jul-21:  Drill End Time 
 DRST.      15.00.00 16-Jul-21:  Drill Start Tim 
 DTIM.hr                 23.46:  Time Drilling 
 EDEP.m                4603.00:  End Depth 
 ENG1.       Seymur Iskandarov:  Engineer 1 
 ENG2.         Yevgeniy Ulikov:  Engineer 2 
 ENG3.         Bahruz Mehdiyev:  Engineer 3 
 ENG4.         Elchin Mammadov:  Engineer 4 
 ETIM.      14.00.00 23-Jul-21:  End Time 
 FLOI.gpm               500.00:  Flow In 
 FLON.gpm               450.00:  Flow In Min 
 FLOS.cptm                0.00:  Fluid Loss 
 FLOX.gpm               560.00:  Flow In Max 
 DFT .        Mineral Oil Base:  Mud Type 
 FTRO.       Formation Presure:  FTWD Run Obj 
 HFLO.                      No:  High Flow 
 HPRE.                      No:  High Pressure 
 HTEM.                      No:  High Temp 
 HYDO.m                   1.80:  Hydro Offset 
 IFIN.deg                40.22:  Inc, Final 
 IMAX.deg                40.54:  Inc Max 
 IMIN.deg                39.44:  Inc Min 
 IMND.m                4361.17:  Inc Min Depth 
 IMXD.m                4417.92:  Inc Max Depth 
 JARR.                      No:  Jarring 
 LETM.      07.45.00 18-Jul-21:  Log End Time 
 LOST.hr                    16:  Lost Rig Time 
 LSTM.      15.00.00 16-Jul-21:  Log Start Time 
 MDCL.ppm             36500.00:  Mud Chlorides 
 MDES.     Inversion Oil/Synthetic:  Mud Desc 
 DFD .sg                  1.42:  Mud Density 
 MDMN.sg                  1.42:  Dens Mud Min 
 MDMX.sg                  1.43:  Dens Mud Max 
 MOIL.                      56:  Run Mud Oil % 
 MOWR.                   71:29:  Run Mud OWR 
 MSND.                     0.5:  Run Mud Sand % 
 MSOL.                      21:  Run Mud Solids% 
 DFV .spqt               78.00:  Mud Viscosity 
 MWOD.in                  6.75:  MWD Tool OD 
 MWSI.                     Yes:  Serv Intrp, MWD 
 OTIM.hr                200.73:  Time Operating 
 PCON.           Look Like New:  Pad Condition 
 PMAX.psia            11069.93:  Press Op, Max 
 PV  .cP                 32.00:  Mud PV 
 RUN .                     700:  Run Number 
 ROPA.m/hr               10.00:  ROP Avg 
 ROPN.m/hr                9.00:  ROP Min 
 ROPX.m/hr               16.00:  ROP Max 
 RPMA.rpm               116.00:  RPM Surface Avg 
 RPMN.rpm                80.00:  RPM Surface Min 
 RPMX.rpm               120.00:  RPM Surface Max 
 RRUN.                    L605:  Rig Run Number 
 RTIM.hr                 45.00:  Time Reaming 
 SAZI.deg               159.86:  Azm, Start 
 SDEP.m                4315.00:  Start Depth 
 SIDD.                      No:  Serv Intrp, DD 
 SINC.deg                39.86:  Inc, Start 
 SPPA.psig             3300.00:  SPP Avg 
 SPPN.psig             3040.00:  SPP Min 
 SPPX.psig             3645.00:  SPP Max 
 STIM.      01.00.00 15-Jul-21:  Start Time 
 SVCS.                 DD, MWD:  Services 
 SVER.                    9.20:  Sperry Version 
 TDAT.m                 288.00:  Tot Depth Attmp 
 TDDF.                      No:  Trip for DD 
 TDLG.m                 288.00:  Tot Depth Loggd 
 TFF .                      No:  Trip for Fail 
 TQAA.f-kp               19.00:  Torque Abs Avg 
 TQAN.f-kp               18.00:  Torque Abs Min 
 TQAX.f-kp               21.00:  Torque Abs Max 
 TRRT.°/30m               0.45:  Turn Rotating 
 MRT .                    HCIM:  Maximum Recorded Temperature 
 TTMX.degC               88.24:  Max Tool Temp 
 VS01.                90649157:  Virtual Str1 SN 
 VS02.                90652483:  Virtual Str2 SN 
 VS03.                11671987:  Virtual Str3 SN 
 VS04.                90643411:  Virtual Str4 SN 
 VS05.                90652478:  Virtual Str5 SN 
 VS06.                    6111:  Virtual Str6 SN 
 WBMN.klb                 9.50:  WOB Min 
 WITN.        Grigoriy Sarayev:  Customer Rep 
 WITN.          Rufat Huseynov:  Customer Rep 2 
 WOBA.klb                11.00:  WOB Avg 
 WOBX.klb                15.00:  WOB Max 
 YP  .lhf2               28.00:  Yield Point 
~Curve Information Block
#MNEM.UNIT                 API CODE     Curve Description
#---------               -----------    ---------------------------
 TIME.HHMMSS            00 000 000 000:  GT Time & Date
 GTDEPTH.m              00 000 000 000:  GT Depth
 GTPQH.psia             00 000 000 000:  GT HR Quartz Pressure
 GTTQ.degC              00 000 000 000:  GT Quartz Temperature
 GTTN.NONE              00 000 000 000:  GT Test Number
 GTET.sec               00 000 000 000:  GT Elapsed Test Time
 GTTVD.m                00 000 000 000:  GT True Vertical Depth
#Other Information
#
#WARRANTY: Halliburton will use its best efforts to furnish customers with 
#accurate information and interpretations that are part of, and incident to, the services 
#provided.  However, Halliburton cannot and does not warrant the accuracy 
#or correctness of such information and interpretations.  Under no circumstances should any 
#such information or interpretation be relied upon as the sole basis for any drilling, 
#completion, production, or financial decision or any procedure involving any risk to the 
#safety of any drilling venture, drilling rig or its crew or any other third party.  The 
#Customer has full responsibility for all drilling, completion and production operation.  
#Halliburton makes no representations or warranties, either expressed or 
#implied, including, but not limited to, the implied warranties of merchantability or fitness 
#for a particular purpose, with respect to the services rendered.  In no event will 
#Halliburton be liable for failure to obtain any particular results or for 
#any damages, including, but not limited to, indirect, special or consequential damages, 
#resulting from the use of any information or interpretation provided by Halliburton.
#
~A           TIME           GTDEPTH  GTPQH  GTTQ  GTTN   GTET   GTTVD  
# ...
   04:48:34.750.19-Jul-2021 4355.50  804.98 68.72 11.00 316.52 2589.71
   04:48:34.950.19-Jul-2021 4355.50  805.11 68.72 11.00 316.72 2589.71
   04:48:35.150.19-Jul-2021 4355.50  806.38 68.72 11.00 316.92 2589.71
   04:48:35.350.19-Jul-2021 4355.50  807.13 68.72 11.00 317.12 2589.71
   04:48:35.550.19-Jul-2021 4355.50  807.13 68.72 11.00 317.32 2589.71
   04:48:35.750.19-Jul-2021 4355.50  808.63 68.72 11.00 317.52 2589.71
   04:48:35.950.19-Jul-2021 4355.50  809.37 68.72 11.00 317.72 2589.71
   04:48:36.150.19-Jul-2021 4355.50  809.26 68.72 11.00 317.92 2589.71
   04:48:36.350.19-Jul-2021 4355.50  810.10 68.72 11.00 318.12 2589.71
   04:48:36.551.19-Jul-2021 4355.50  810.10 68.72 11.00 318.32 2589.71
   04:48:36.751.19-Jul-2021 4355.50  812.37 68.72 11.00 318.52 2589.71
   04:48:36.951.19-Jul-2021 4355.50  812.75 68.72 11.00 318.72 2589.71
   04:48:37.151.19-Jul-2021 4355.50  812.36 68.72 11.00 318.92 2589.71
   04:48:37.351.19-Jul-2021 4355.50  813.87 68.72 11.00 319.12 2589.71
   04:48:37.551.19-Jul-2021 4355.50  813.87 68.72 11.00 319.32 2589.71
   04:48:37.751.19-Jul-2021 4355.50  815.72 68.72 11.00 319.52 2589.71
   04:48:37.951.19-Jul-2021 4355.50  816.17 68.72 11.00 319.72 2589.71
   04:48:38.151.19-Jul-2021 4355.50  817.10 68.72 11.00 319.92 2589.71
   04:48:38.351.19-Jul-2021 4355.50  817.85 68.72 11.00 320.12 2589.71
   04:48:38.551.19-Jul-2021 4355.50  817.85 68.72 11.00 320.32 2589.71
   04:48:38.751.19-Jul-2021 4355.50  819.49 68.72 11.00 320.52 2589.71
   04:48:38.951.19-Jul-2021 4355.50  820.15 68.72 11.00 320.72 2589.71
   04:48:39.151.19-Jul-2021 4355.50  820.68 68.72 11.00 320.92 2589.71
   04:48:39.352.19-Jul-2021 4355.50  821.51 68.72 11.00 321.12 2589.71
   04:48:39.552.19-Jul-2021 4355.50  821.51 68.72 11.00 321.32 2589.71
   04:48:39.752.19-Jul-2021 4355.50  822.91 68.72 11.00 321.52 2589.71
   04:48:39.952.19-Jul-2021 4355.50  822.16 68.72 11.00 321.72 2589.71
   04:48:40.152.19-Jul-2021 4355.50  823.80 68.72 11.00 321.92 2589.71
   04:48:40.352.19-Jul-2021 4355.50  824.14 68.72 11.00 322.12 2589.71
   04:48:40.552.19-Jul-2021 4355.50  824.14 68.72 11.00 322.32 2589.71
   04:48:40.752.19-Jul-2021 4355.50  825.87 68.73 11.00 322.52 2589.71
   04:48:40.952.19-Jul-2021 4355.50  826.77 68.73 11.00 322.72 2589.71
   04:48:41.152.19-Jul-2021 4355.50  827.59 68.73 11.00 322.92 2589.71
   04:48:41.352.19-Jul-2021 4355.50  828.36 68.73 11.00 323.12 2589.71
   04:48:41.552.19-Jul-2021 4355.50  828.36 68.73 11.00 323.32 2589.71
   04:48:41.752.19-Jul-2021 4355.50  829.84 68.73 11.00 323.52 2589.71
   04:48:41.953.19-Jul-2021 4355.50  830.60 68.73 11.00 323.72 2589.71
   04:48:42.153.19-Jul-2021 4355.50  831.14 68.73 11.00 323.92 2589.71
   04:48:42.353.19-Jul-2021 4355.50  831.08 68.73 11.00 324.12 2589.71
   04:48:42.553.19-Jul-2021 4355.50  831.08 68.73 11.00 324.32 2589.71
   04:48:42.753.19-Jul-2021 4355.50  832.39 68.73 11.00 324.52 2589.71
   04:48:42.953.19-Jul-2021 4355.50  832.63 68.73 11.00 324.72 2589.71
   04:48:43.153.19-Jul-2021 4355.50  833.33 68.73 11.00 324.92 2589.71
   04:48:43.353.19-Jul-2021 4355.50  834.16 68.73 11.00 325.12 2589.71
   04:48:43.553.19-Jul-2021 4355.50  834.16 68.73 11.00 325.32 2589.71
   04:48:43.753.19-Jul-2021 4355.50  834.55 68.73 11.00 325.52 2589.71
   04:48:43.953.19-Jul-2021 4355.50  836.92 68.73 11.00 325.72 2589.71
   04:48:44.153.19-Jul-2021 4355.50  837.97 68.73 11.00 325.92 2589.71
   04:48:44.353.19-Jul-2021 4355.50  837.04 68.73 11.00 326.12 2589.71
   04:48:44.553.19-Jul-2021 4355.50  837.04 68.73 11.00 326.32 2589.71
   04:48:44.754.19-Jul-2021 4355.50  840.16 68.73 11.00 326.52 2589.71
   04:48:44.954.19-Jul-2021 4355.50  841.98 68.73 11.00 326.72 2589.71
   04:48:45.154.19-Jul-2021 4355.50  842.48 68.73 11.00 326.92 2589.71
   04:48:45.354.19-Jul-2021 4355.50  842.34 68.73 11.00 327.12 2589.71
   04:48:45.554.19-Jul-2021 4355.50  842.34 68.73 11.00 327.32 2589.71
   04:48:45.754.19-Jul-2021 4355.50  844.74 68.73 11.00 327.52 2589.71
   04:48:45.954.19-Jul-2021 4355.50  845.96 68.73 11.00 327.72 2589.71
   04:48:46.154.19-Jul-2021 4355.50  846.82 68.73 11.00 327.92 2589.71
   04:48:46.354.19-Jul-2021 4355.50  847.76 68.73 11.00 328.12 2589.71
   04:48:46.554.19-Jul-2021 4355.50  847.76 68.73 11.00 328.32 2589.71
   04:48:46.754.19-Jul-2021 4355.50  849.44 68.73 11.00 328.52 2589.71
   04:48:46.954.19-Jul-2021 4355.50  850.34 68.73 11.00 328.72 2589.71
   04:48:47.154.19-Jul-2021 4355.50  851.09 68.73 11.00 328.92 2589.71
   04:48:47.355.19-Jul-2021 4355.50  851.87 68.73 11.00 329.12 2589.71
   04:48:47.555.19-Jul-2021 4355.50  851.87 68.73 11.00 329.32 2589.71
   04:48:47.755.19-Jul-2021 4355.50  853.45 68.73 11.00 329.52 2589.71
   04:48:47.955.19-Jul-2021 4355.50  854.06 68.73 11.00 329.72 2589.71
   04:48:48.155.19-Jul-2021 4355.50  853.69 68.73 11.00 329.92 2589.71
   04:48:48.355.19-Jul-2021 4355.50  855.01 68.73 11.00 330.12 2589.71
   04:48:48.555.19-Jul-2021 4355.50  855.01 68.73 11.00 330.32 2589.71
   04:48:48.755.19-Jul-2021 4355.50  856.73 68.73 11.00 330.52 2589.71
   04:48:48.955.19-Jul-2021 4355.50  857.24 68.73 11.00 330.72 2589.71
   04:48:49.155.19-Jul-2021 4355.50  858.00 68.73 11.00 330.92 2589.71
   04:48:49.355.19-Jul-2021 4355.50  858.84 68.73 11.00 331.12 2589.71
   04:48:49.555.19-Jul-2021 4355.50  858.84 68.73 11.00 331.32 2589.71
   04:48:49.755.19-Jul-2021 4355.50  860.34 68.73 11.00 331.52 2589.71
   04:48:49.955.19-Jul-2021 4355.50  861.09 68.73 11.00 331.72 2589.71
   04:48:50.156.19-Jul-2021 4355.50  861.92 68.73 11.00 331.92 2589.71
   04:48:50.356.19-Jul-2021 4355.50  862.57 68.73 11.00 332.12 2589.71
   04:48:50.556.19-Jul-2021 4355.50  862.57 68.73 11.00 332.32 2589.71
   04:48:50.756.19-Jul-2021 4355.50  862.54 68.73 11.00 332.52 2589.71
   04:48:50.956.19-Jul-2021 4355.50  863.67 68.73 11.00 332.72 2589.71
   04:48:51.156.19-Jul-2021 4355.50  863.69 68.73 11.00 332.92 2589.71
   04:48:51.356.19-Jul-2021 4355.50  865.49 68.73 11.00 333.12 2589.71
   04:48:51.556.19-Jul-2021 4355.50  865.49 68.73 11.00 333.32 2589.71
   04:48:51.756.19-Jul-2021 4355.50  867.03 68.73 11.00 333.52 2589.71
   04:48:51.956.19-Jul-2021 4355.50  866.68 68.73 11.00 333.72 2589.71
   04:48:52.156.19-Jul-2021 4355.50  868.10 68.73 11.00 333.92 2589.71
   04:48:52.356.19-Jul-2021 4355.50  869.18 68.73 11.00 334.12 2589.71
   04:48:52.556.19-Jul-2021 4355.50  869.18 68.73 11.00 334.32 2589.71
   04:48:52.756.19-Jul-2021 4355.50  869.57 68.73 11.00 334.52 2589.71
   04:48:52.957.19-Jul-2021 4355.50  871.07 68.73 11.00 334.72 2589.71
   04:48:53.157.19-Jul-2021 4355.50  872.41 68.73 11.00 334.92 2589.71
   04:48:53.357.19-Jul-2021 4355.50  873.84 68.73 11.00 335.12 2589.71
   04:48:53.557.19-Jul-2021 4355.50  873.84 68.73 11.00 335.32 2589.71
   04:48:53.757.19-Jul-2021 4355.50  874.43 68.73 11.00 335.52 2589.71
   04:48:53.957.19-Jul-2021 4355.50  875.68 68.73 11.00 335.72 2589.71
   04:48:54.157.19-Jul-2021 4355.50  877.21 68.73 11.00 335.92 2589.71
   04:48:54.357.19-Jul-2021 4355.50  877.74 68.73 11.00 336.12 2589.71
   04:48:54.557.19-Jul-2021 4355.50  877.74 68.73 11.00 336.32 2589.71
   04:48:54.757.19-Jul-2021 4355.50  879.36 68.73 11.00 336.52 2589.71
   04:48:54.957.19-Jul-2021 4355.50  880.25 68.73 11.00 336.72 2589.71
   04:48:55.157.19-Jul-2021 4355.50  880.99 68.73 11.00 336.92 2589.71
   04:48:55.357.19-Jul-2021 4355.50  881.74 68.73 11.00 337.12 2589.71
   04:48:55.558.19-Jul-2021 4355.50  881.74 68.73 11.00 337.32 2589.71
   04:48:55.758.19-Jul-2021 4355.50  883.15 68.73 11.00 337.52 2589.71
   04:48:55.958.19-Jul-2021 4355.50  883.88 68.73 11.00 337.72 2589.71
   04:48:56.158.19-Jul-2021 4355.50  884.69 68.73 11.00 337.92 2589.71
   04:48:56.358.19-Jul-2021 4355.50  884.14 68.73 11.00 338.12 2589.71
   04:48:56.558.19-Jul-2021 4355.50  884.14 68.73 11.00 338.32 2589.71
   04:48:56.758.19-Jul-2021 4355.50  885.93 68.73 11.00 338.52 2589.71
   04:48:56.958.19-Jul-2021 4355.50  887.38 68.73 11.00 338.72 2589.71
   04:48:57.158.19-Jul-2021 4355.50  887.92 68.73 11.00 338.92 2589.71
