~Version Information
 VERS.                  2.0:   CWLS log ASCII Standard -VERSION 2.0
 WRAP.                   NO:   One line per depth step
~Well Information Block
#MNEM.UNIT     VALUE/NAME     DESCRIPTION
#---------     -----------    ---------------------------
 STRT.S             13:07:56 19-Jul-21: START TIME 13:07:56 19-Jul-21
 STOP.S             13:14:51 19-Jul-21: STOP TIME  13:14:51 19-Jul-21
 STEP.S                   0.00: STEP TIME
 NULL.                 -999.25: NULL VALUE
 MDS .        Operator Entered:  MAG DATA SOURCE
 PDAT.          Mean Sea Level:  PERMANENT DATUM
 UNIT.                     N/A:  LOGGING EQUIPMENT ID
 DCON.         Sperry Drilling:  DIRECTNL CONTR
 DOE .                     N/A:  DOE NUMBER
 RIG .              West Azeri:  RIG NAME
 JOBN.        AZ-XX-0906997913:  JOB TICKET NUMB
 WELL.                     C41:  WELL NAME
 MWDS.                    Baku:  MWD SHOP
 SRVC.          Turan Drilling:  CONTRACTOR
 FLD .                     ACG:  FIELD NAME
 CTRY.              Azerbaijan:  COUNTRY NAME
 PROV.                    Baku:  PROVINCE
 STAT.                    Baku:  STATE NAME
 REGN.                   EESSA:  REGION
 BASE.              Azerbaijan:  LOGGING EQUIPMENT BASE LOCATION
 UWI .                     N/A:  UNIQUE WELL IDENTIFIER
 API .                     N/A:  API NUMBER
 COMP.     BP Exploration (Caspian Sea) Ltd.:  COMPANY
 WTYP.                Deviated:  WELL TYPE
 SON .        AZ-XX-0906997913:  JOB NUMBER
 FTOP.          Formation Tops:  FORM TOPS DESC
 ILTD.               Lithology:  INTERP LTH DESC
 SVYD.                  Survey:  SURVEY DESC
 DMOD.             Drill Model:  DRILL MOD DESC
 HPTY.       Minimum Curvature:  HOLE POS TYPE
 NREF.                    Grid:  NORTH REFERENCE
 SPUD.               16-May-21:  SPUD DATE
 DATE.      21.11.28 17-May-21:  END TIME
 STIM.      21.11.28 17-May-21:  START TIME
 DMF .             Drill Floor:  DRILL MEAS FROM
 DFST.                        :  DIST FSL TEXT
 DFWT.                        :  DIST FWL TEXT
 CNTY.                        :  COUNTY
 LOC .                        :  LOCATION
 LMF .             Drill Floor:  LOG MEASURED FROM
 AGAP.m                  43.42:  AIR GAP
 VSNS.m                  -2.16:  VERT SEC N/S
 VSEW.m                  -6.24:  VERT SEC E/W
 APD .m                  43.42:  DEPTH ABOVE PD
 WDMS.m                 118.27:  WD ELEV
 EGL .m                   0.00:  GROUND ELEVATION
 EPD .m                   0.00:  ELEVATION
 AZTC.deg                 6.29:  AZM TOTAL CORR
 GRDC.deg                 0.18:  GRID CORRECTION
 MDEC.deg                 6.47:  MAGNETIC DECL
 MDIP.deg                59.54:  MAGNETIC DIP
 MFLD.nT              50337.00:  MAGNETIC FIELD
 GVFD.g                   1.00:  GRAVITY FIELD
 VSDR.deg               226.99:  VERT SEC DIRECT
 TDD .m                   0.00:  TOTAL DEPTH (DRILLER)
 SDEP.m                 448.00:  START DEPTH
 DFSL.m                   0.00:  DISTANCE FSL
 DFWL.m                   0.00:  DISTANCE FWL
 UTMY.m             4435799.96:  UTM Y
 UTMX.m              526265.35:  UTM X
 WHEW.m                  -6.24:  WELL HEAD E/W
 WHNS.m                  -2.16:  WELL HEAD N/S
 LONG.deg                51.31:  LONGITUDE
 LATI.deg                40.06:  LATITUDE
 TVDS.m                  43.42:  TVDSS CORRECTN
 EKB .m                  43.42:  KB ELEVATION
 EDF .m                  43.42:  DF ELEVATION
 TDL .m                 288.00:  TOTAL DEPTH (LOGGER)
 MAGU.                 1851863:  MAGUTM CHECKSUM
 VSC .                       0:  VS TO CLOSURE
~Parameter Information Block
#MNEM.UNIT       Value        Description
#---------     -----------    ---------------------------
 AV  .mps                 0.40:  Ann Velocity 
 AVMX.mps                 0.63:  Max Ann Veloc 
 AZIF.deg               158.76:  Azm, Final 
 BHAT.        Rotary Steerable:  BHA Type 
 BROT.°/30m               0.68:  Build Rotating 
 BS  .in                  8.50:  Bit Size 
 BSZ .in                  8.50:  Bit Size 
 BTPL.psig              712.00:  Bit Press Loss 
 CABU.                      No:  Customer Abuse 
 COMM.                     „e:  Run Comments 1 
 TCS .hr                 90.66:  Time Ciculation Ended 
 CV  .mps                 2.02:  Crit Velocity 
 CVMX.mps                 2.14:  Max Crit Veloc 
 DD1 .            Aziz Aliyevu:  Direct Drillr 1 
 DD2 .             Samir Abbas:  Direct Drillr 2 
 DD3 .           Teymur Aliyev:  Direct Drillr 3 
 DDSV.                 iCruise:  DD Service 
 DEFF.%                  85.10:  % Det Eff 
 DLRX.°/30m               1.05:  Dogleg Rot Max 
 DLSO.°/30m               1.01:  Dogleg Oriented 
 DLSX.°/30m               1.05:  Dogleg Str Max 
 DRET.      07.45.00 18-Jul-21:  Drill End Time 
 DRST.      15.00.00 16-Jul-21:  Drill Start Tim 
 DTIM.hr                 23.46:  Time Drilling 
 EDEP.m                4603.00:  End Depth 
 ENG1.       Seymur Iskandarov:  Engineer 1 
 ENG2.         Yevgeniy Ulikov:  Engineer 2 
 ENG3.         Bahruz Mehdiyev:  Engineer 3 
 ENG4.         Elchin Mammadov:  Engineer 4 
 ETIM.      14.00.00 23-Jul-21:  End Time 
 FLOI.gpm               500.00:  Flow In 
 FLON.gpm               450.00:  Flow In Min 
 FLOS.cptm                0.00:  Fluid Loss 
 FLOX.gpm               560.00:  Flow In Max 
 DFT .        Mineral Oil Base:  Mud Type 
 FTRO.       Formation Presure:  FTWD Run Obj 
 HFLO.                      No:  High Flow 
 HPRE.                      No:  High Pressure 
 HTEM.                      No:  High Temp 
 HYDO.m                   1.80:  Hydro Offset 
 IFIN.deg                40.22:  Inc, Final 
 IMAX.deg                40.54:  Inc Max 
 IMIN.deg                39.44:  Inc Min 
 IMND.m                4361.17:  Inc Min Depth 
 IMXD.m                4417.92:  Inc Max Depth 
 JARR.                      No:  Jarring 
 LETM.      07.45.00 18-Jul-21:  Log End Time 
 LOST.hr                    16:  Lost Rig Time 
 LSTM.      15.00.00 16-Jul-21:  Log Start Time 
 MDCL.ppm             36500.00:  Mud Chlorides 
 MDES.     Inversion Oil/Synthetic:  Mud Desc 
 DFD .sg                  1.42:  Mud Density 
 MDMN.sg                  1.42:  Dens Mud Min 
 MDMX.sg                  1.43:  Dens Mud Max 
 MOIL.                      56:  Run Mud Oil % 
 MOWR.                   71:29:  Run Mud OWR 
 MSND.                     0.5:  Run Mud Sand % 
 MSOL.                      21:  Run Mud Solids% 
 DFV .spqt               78.00:  Mud Viscosity 
 MWOD.in                  6.75:  MWD Tool OD 
 MWSI.                     Yes:  Serv Intrp, MWD 
 OTIM.hr                200.73:  Time Operating 
 PCON.           Look Like New:  Pad Condition 
 PMAX.psia            11069.93:  Press Op, Max 
 PV  .cP                 32.00:  Mud PV 
 RUN .                     700:  Run Number 
 ROPA.m/hr               10.00:  ROP Avg 
 ROPN.m/hr                9.00:  ROP Min 
 ROPX.m/hr               16.00:  ROP Max 
 RPMA.rpm               116.00:  RPM Surface Avg 
 RPMN.rpm                80.00:  RPM Surface Min 
 RPMX.rpm               120.00:  RPM Surface Max 
 RRUN.                    L605:  Rig Run Number 
 RTIM.hr                 45.00:  Time Reaming 
 SAZI.deg               159.86:  Azm, Start 
 SDEP.m                4315.00:  Start Depth 
 SIDD.                      No:  Serv Intrp, DD 
 SINC.deg                39.86:  Inc, Start 
 SPPA.psig             3300.00:  SPP Avg 
 SPPN.psig             3040.00:  SPP Min 
 SPPX.psig             3645.00:  SPP Max 
 STIM.      01.00.00 15-Jul-21:  Start Time 
 SVCS.                 DD, MWD:  Services 
 SVER.                    9.20:  Sperry Version 
 TDAT.m                 288.00:  Tot Depth Attmp 
 TDDF.                      No:  Trip for DD 
 TDLG.m                 288.00:  Tot Depth Loggd 
 TFF .                      No:  Trip for Fail 
 TQAA.f-kp               19.00:  Torque Abs Avg 
 TQAN.f-kp               18.00:  Torque Abs Min 
 TQAX.f-kp               21.00:  Torque Abs Max 
 TRRT.°/30m               0.45:  Turn Rotating 
 MRT .                    HCIM:  Maximum Recorded Temperature 
 TTMX.degC               88.24:  Max Tool Temp 
 VS01.                90649157:  Virtual Str1 SN 
 VS02.                90652483:  Virtual Str2 SN 
 VS03.                11671987:  Virtual Str3 SN 
 VS04.                90643411:  Virtual Str4 SN 
 VS05.                90652478:  Virtual Str5 SN 
 VS06.                    6111:  Virtual Str6 SN 
 WBMN.klb                 9.50:  WOB Min 
 WITN.        Grigoriy Sarayev:  Customer Rep 
 WITN.          Rufat Huseynov:  Customer Rep 2 
 WOBA.klb                11.00:  WOB Avg 
 WOBX.klb                15.00:  WOB Max 
 YP  .lhf2               28.00:  Yield Point 
~Curve Information Block
#MNEM.UNIT                 API CODE     Curve Description
#---------               -----------    ---------------------------
 TIME.HHMMSS            00 000 000 000:  GT Time & Date
 GTDEPTH.m              00 000 000 000:  GT Depth
 GTPQH.psia             00 000 000 000:  GT HR Quartz Pressure
 GTTQ.degC              00 000 000 000:  GT Quartz Temperature
 GTTN.NONE              00 000 000 000:  GT Test Number
 GTET.sec               00 000 000 000:  GT Elapsed Test Time
 GTTVD.m                00 000 000 000:  GT True Vertical Depth
#Other Information
#
#WARRANTY: Halliburton will use its best efforts to furnish customers with 
#accurate information and interpretations that are part of, and incident to, the services 
#provided.  However, Halliburton cannot and does not warrant the accuracy 
#or correctness of such information and interpretations.  Under no circumstances should any 
#such information or interpretation be relied upon as the sole basis for any drilling, 
#completion, production, or financial decision or any procedure involving any risk to the 
#safety of any drilling venture, drilling rig or its crew or any other third party.  The 
#Customer has full responsibility for all drilling, completion and production operation.  
#Halliburton makes no representations or warranties, either expressed or 
#implied, including, but not limited to, the implied warranties of merchantability or fitness 
#for a particular purpose, with respect to the services rendered.  In no event will 
#Halliburton be liable for failure to obtain any particular results or for 
#any damages, including, but not limited to, indirect, special or consequential damages, 
#resulting from the use of any information or interpretation provided by Halliburton.
#
~A           TIME           GTDEPTH  GTPQH  GTTQ  GTTN   GTET   GTTVD  
# ...
   13:08:18.990.19-Jul-2021 4553.00 6622.54 71.12 28.00  22.61 2740.81
   13:08:19.190.19-Jul-2021 4553.00 6635.74 71.12 28.00  22.81 2740.81
   13:08:19.391.19-Jul-2021 4553.00 6623.73 71.12 28.00  23.01 2740.81
   13:08:19.591.19-Jul-2021 4553.00 6623.73 71.12 28.00  23.21 2740.81
   13:08:19.791.19-Jul-2021 4553.00 6620.43 71.12 28.00  23.41 2740.81
   13:08:19.991.19-Jul-2021 4553.00 6616.45 71.12 28.00  23.61 2740.81
   13:08:20.191.19-Jul-2021 4553.00 6635.74 71.12 28.00  23.81 2740.81
   13:08:20.391.19-Jul-2021 4553.00 6624.97 71.12 28.00  24.01 2740.81
   13:08:20.591.19-Jul-2021 4553.00 6624.97 71.12 28.00  24.21 2740.81
   13:08:20.791.19-Jul-2021 4553.00 6622.71 71.12 28.00  24.41 2740.81
   13:08:20.991.19-Jul-2021 4553.00 6632.34 71.12 28.00  24.61 2740.81
   13:08:21.191.19-Jul-2021 4553.00 6625.11 71.12 28.00  24.81 2740.81
   13:08:21.391.19-Jul-2021 4553.00 6616.49 71.12 28.00  25.01 2740.81
   13:08:21.591.19-Jul-2021 4553.00 6616.49 71.12 28.00  25.21 2740.81
   13:08:21.791.19-Jul-2021 4553.00 6624.16 71.12 28.00  25.41 2740.81
   13:08:21.991.19-Jul-2021 4553.00 6617.98 71.12 28.00  25.61 2740.81
   13:08:22.192.19-Jul-2021 4553.00 6618.72 71.12 28.00  25.81 2740.81
   13:08:22.392.19-Jul-2021 4553.00 6620.20 71.12 28.00  26.01 2740.81
   13:08:22.592.19-Jul-2021 4553.00 6620.20 71.12 28.00  26.21 2740.81
   13:08:22.792.19-Jul-2021 4553.00 6619.70 71.12 28.00  26.41 2740.81
   13:08:22.992.19-Jul-2021 4553.00 6620.01 71.12 28.00  26.61 2740.81
   13:08:23.192.19-Jul-2021 4553.00 6622.13 71.12 28.00  26.81 2740.81
   13:08:23.392.19-Jul-2021 4553.00 6623.10 71.12 28.00  27.01 2740.81
   13:08:23.592.19-Jul-2021 4553.00 6623.10 71.12 28.00  27.21 2740.81
   13:08:23.792.19-Jul-2021 4553.00 6628.12 71.12 28.00  27.41 2740.81
   13:08:23.992.19-Jul-2021 4553.00 6637.81 71.12 28.00  27.61 2740.81
   13:08:24.192.19-Jul-2021 4553.00 6622.73 71.12 28.00  27.81 2740.81
   13:08:24.392.19-Jul-2021 4553.00 6624.85 71.12 28.00  28.01 2740.81
   13:08:24.592.19-Jul-2021 4553.00 6624.85 71.12 28.00  28.21 2740.81
   13:08:24.792.19-Jul-2021 4553.00 6621.48 71.12 28.00  28.41 2740.81
   13:08:24.993.19-Jul-2021 4553.00 6621.32 71.12 28.00  28.61 2740.81
   13:08:25.193.19-Jul-2021 4553.00 6622.28 71.12 28.00  28.81 2740.81
   13:08:25.393.19-Jul-2021 4553.00 6622.19 71.12 28.00  29.01 2740.81
   13:08:25.593.19-Jul-2021 4553.00 6622.19 71.12 28.00  29.21 2740.81
   13:08:25.793.19-Jul-2021 4553.00 6621.88 71.12 28.00  29.41 2740.81
   13:08:25.993.19-Jul-2021 4553.00 6622.91 71.12 28.00  29.61 2740.81
   13:08:26.193.19-Jul-2021 4553.00 6622.17 71.12 28.00  29.81 2740.81
   13:08:26.393.19-Jul-2021 4553.00 6619.51 71.12 28.00  30.01 2740.81
   13:08:26.593.19-Jul-2021 4553.00 6619.51 71.12 28.00  30.21 2740.81
   13:08:26.793.19-Jul-2021 4553.00 6629.46 71.11 28.00  30.41 2740.81
   13:08:26.993.19-Jul-2021 4553.00 6573.65 71.11 28.00  30.61 2740.81
   13:08:27.193.19-Jul-2021 4553.00 6528.71 71.11 28.00  30.81 2740.81
   13:08:27.393.19-Jul-2021 4553.00 6508.33 71.11 28.00  31.01 2740.81
   13:08:27.594.19-Jul-2021 4553.00 6508.33 71.11 28.00  31.21 2740.81
   13:08:27.794.19-Jul-2021 4553.00 6486.22 71.11 28.00  31.41 2740.81
   13:08:27.994.19-Jul-2021 4553.00 6477.63 71.11 28.00  31.61 2740.81
   13:08:28.194.19-Jul-2021 4553.00 6451.49 71.11 28.00  31.81 2740.81
   13:08:28.394.19-Jul-2021 4553.00 6415.65 71.11 28.00  32.01 2740.81
   13:08:28.594.19-Jul-2021 4553.00 6415.65 71.11 28.00  32.21 2740.81
   13:08:28.794.19-Jul-2021 4553.00 6358.17 71.11 28.00  32.41 2740.81
   13:08:28.994.19-Jul-2021 4553.00 6345.72 71.11 28.00  32.61 2740.81
   13:08:29.194.19-Jul-2021 4553.00 6342.66 71.11 28.00  32.81 2740.81
   13:08:29.394.19-Jul-2021 4553.00 6334.76 71.11 28.00  33.01 2740.81
   13:08:29.594.19-Jul-2021 4553.00 6334.76 71.11 28.00  33.21 2740.81
   13:08:29.794.19-Jul-2021 4553.00 6325.14 71.11 28.00  33.41 2740.81
   13:08:29.994.19-Jul-2021 4553.00 6322.37 71.11 28.00  33.61 2740.81
   13:08:30.194.19-Jul-2021 4553.00 6318.22 71.11 28.00  33.81 2740.81
   13:08:30.395.19-Jul-2021 4553.00 6317.23 71.11 28.00  34.01 2740.81
   13:08:30.595.19-Jul-2021 4553.00 6317.23 71.11 28.00  34.21 2740.81
   13:08:30.795.19-Jul-2021 4553.00 6315.65 71.11 28.00  34.41 2740.81
   13:08:30.995.19-Jul-2021 4553.00 6315.11 71.11 28.00  34.61 2740.81
   13:08:31.195.19-Jul-2021 4553.00 6314.90 71.11 28.00  34.81 2740.81
   13:08:31.395.19-Jul-2021 4553.00 6314.71 71.11 28.00  35.01 2740.81
   13:08:31.595.19-Jul-2021 4553.00 6314.71 71.11 28.00  35.21 2740.81
   13:08:31.795.19-Jul-2021 4553.00 6314.49 71.11 28.00  35.41 2740.81
   13:08:31.995.19-Jul-2021 4553.00 6314.55 71.11 28.00  35.61 2740.81
   13:08:32.195.19-Jul-2021 4553.00 6314.56 71.11 28.00  35.81 2740.81
   13:08:32.395.19-Jul-2021 4553.00 6314.26 71.11 28.00  36.01 2740.81
   13:08:32.595.19-Jul-2021 4553.00 6314.26 71.11 28.00  36.21 2740.81
   13:08:32.795.19-Jul-2021 4553.00 6311.35 71.11 28.00  36.41 2740.81
   13:08:32.996.19-Jul-2021 4553.00 6310.06 71.11 28.00  36.61 2740.81
   13:08:33.196.19-Jul-2021 4553.00 6310.21 71.11 28.00  36.81 2740.81
   13:08:33.396.19-Jul-2021 4553.00 6310.11 71.11 28.00  37.01 2740.81
   13:08:33.596.19-Jul-2021 4553.00 6310.11 71.11 28.00  37.21 2740.81
   13:08:33.796.19-Jul-2021 4553.00 4645.59 71.11 28.00  37.41 2740.81
   13:08:33.996.19-Jul-2021 4553.00 3737.87 71.11 28.00  37.61 2740.81
   13:08:34.196.19-Jul-2021 4553.00 3501.98 71.11 28.00  37.81 2740.81
   13:08:34.396.19-Jul-2021 4553.00 3514.37 71.11 28.00  38.01 2740.81
   13:08:34.596.19-Jul-2021 4553.00 3514.37 71.11 28.00  38.21 2740.81
   13:08:34.796.19-Jul-2021 4553.00 3511.67 71.11 28.00  38.41 2740.81
   13:08:34.996.19-Jul-2021 4553.00 3513.84 71.10 28.00  38.61 2740.81
   13:08:35.196.19-Jul-2021 4553.00 3515.56 71.10 28.00  38.81 2740.81
   13:08:35.396.19-Jul-2021 4553.00 3513.00 71.10 28.00  39.01 2740.81
   13:08:35.596.19-Jul-2021 4553.00 3513.00 71.10 28.00  39.21 2740.81
   13:08:35.797.19-Jul-2021 4553.00 3512.12 71.10 28.00  39.41 2740.81
   13:08:35.997.19-Jul-2021 4553.00 3513.43 71.10 28.00  39.61 2740.81
   13:08:36.197.19-Jul-2021 4553.00 3515.95 71.09 28.00  39.81 2740.81
   13:08:36.397.19-Jul-2021 4553.00 3513.03 71.09 28.00  40.01 2740.81
   13:08:36.597.19-Jul-2021 4553.00 3513.03 71.09 28.00  40.21 2740.81
   13:08:36.797.19-Jul-2021 4553.00 3512.63 71.09 28.00  40.41 2740.81
   13:08:36.997.19-Jul-2021 4553.00 3514.81 71.09 28.00  40.61 2740.81
   13:08:37.197.19-Jul-2021 4553.00 3512.81 71.09 28.00  40.82 2740.81
   13:08:37.397.19-Jul-2021 4553.00 3511.10 71.08 28.00  41.02 2740.81
   13:08:37.597.19-Jul-2021 4553.00 3511.10 71.08 28.00  41.22 2740.81
   13:08:37.797.19-Jul-2021 4553.00 3511.86 71.08 28.00  41.42 2740.81
   13:08:37.997.19-Jul-2021 4553.00 3510.96 71.08 28.00  41.62 2740.81
   13:08:38.197.19-Jul-2021 4553.00 3510.68 71.08 28.00  41.82 2740.81
   13:08:38.398.19-Jul-2021 4553.00 3513.20 71.07 28.00  42.02 2740.81
   13:08:38.598.19-Jul-2021 4553.00 3513.20 71.07 28.00  42.22 2740.81
   13:08:38.798.19-Jul-2021 4553.00 3509.11 71.07 28.00  42.42 2740.81
   13:08:38.998.19-Jul-2021 4553.00 3509.96 71.07 28.00  42.62 2740.81
   13:08:39.198.19-Jul-2021 4553.00 3510.01 71.07 28.00  42.82 2740.81
   13:08:39.398.19-Jul-2021 4553.00 3509.84 71.07 28.00  43.02 2740.81
   13:08:39.598.19-Jul-2021 4553.00 3509.84 71.07 28.00  43.22 2740.81
   13:08:39.798.19-Jul-2021 4553.00 3512.28 71.06 28.00  43.42 2740.81
   13:08:39.998.19-Jul-2021 4553.00 3510.28 71.06 28.00  43.62 2740.81
   13:08:40.198.19-Jul-2021 4553.00 3510.66 71.06 28.00  43.82 2740.81
   13:08:40.398.19-Jul-2021 4553.00 3510.00 71.06 28.00  44.02 2740.81
   13:08:40.598.19-Jul-2021 4553.00 3510.00 71.06 28.00  44.22 2740.81
   13:08:40.798.19-Jul-2021 4553.00 3510.97 71.06 28.00  44.42 2740.81
   13:08:40.998.19-Jul-2021 4553.00 3508.94 71.06 28.00  44.62 2740.81
   13:08:41.199.19-Jul-2021 4553.00 3509.62 71.06 28.00  44.82 2740.81
   13:08:41.399.19-Jul-2021 4553.00 3509.94 71.05 28.00  45.02 2740.81
