~Version Information
 VERS.                  2.0:   CWLS log ASCII Standard -VERSION 2.0
 WRAP.                   NO:   One line per depth step
~Well Information Block
#MNEM.UNIT     VALUE/NAME     DESCRIPTION
#---------     -----------    ---------------------------
 STRT.S             05:02:49 19-Jul-21: START TIME 05:02:49 19-Jul-21
 STOP.S             05:09:40 19-Jul-21: STOP TIME  05:09:40 19-Jul-21
 STEP.S                   0.00: STEP TIME
 NULL.                 -999.25: NULL VALUE
 MDS .        Operator Entered:  MAG DATA SOURCE
 PDAT.          Mean Sea Level:  PERMANENT DATUM
 UNIT.                     N/A:  LOGGING EQUIPMENT ID
 DCON.         Sperry Drilling:  DIRECTNL CONTR
 DOE .                     N/A:  DOE NUMBER
 RIG .              West Azeri:  RIG NAME
 JOBN.        AZ-XX-0906997913:  JOB TICKET NUMB
 WELL.                     C41:  WELL NAME
 MWDS.                    Baku:  MWD SHOP
 SRVC.          Turan Drilling:  CONTRACTOR
 FLD .                     ACG:  FIELD NAME
 CTRY.              Azerbaijan:  COUNTRY NAME
 PROV.                    Baku:  PROVINCE
 STAT.                    Baku:  STATE NAME
 REGN.                   EESSA:  REGION
 BASE.              Azerbaijan:  LOGGING EQUIPMENT BASE LOCATION
 UWI .                     N/A:  UNIQUE WELL IDENTIFIER
 API .                     N/A:  API NUMBER
 COMP.     BP Exploration (Caspian Sea) Ltd.:  COMPANY
 WTYP.                Deviated:  WELL TYPE
 SON .        AZ-XX-0906997913:  JOB NUMBER
 FTOP.          Formation Tops:  FORM TOPS DESC
 ILTD.               Lithology:  INTERP LTH DESC
 SVYD.                  Survey:  SURVEY DESC
 DMOD.             Drill Model:  DRILL MOD DESC
 HPTY.       Minimum Curvature:  HOLE POS TYPE
 NREF.                    Grid:  NORTH REFERENCE
 SPUD.               16-May-21:  SPUD DATE
 DATE.      21.11.28 17-May-21:  END TIME
 STIM.      21.11.28 17-May-21:  START TIME
 DMF .             Drill Floor:  DRILL MEAS FROM
 DFST.                        :  DIST FSL TEXT
 DFWT.                        :  DIST FWL TEXT
 CNTY.                        :  COUNTY
 LOC .                        :  LOCATION
 LMF .             Drill Floor:  LOG MEASURED FROM
 AGAP.m                  43.42:  AIR GAP
 VSNS.m                  -2.16:  VERT SEC N/S
 VSEW.m                  -6.24:  VERT SEC E/W
 APD .m                  43.42:  DEPTH ABOVE PD
 WDMS.m                 118.27:  WD ELEV
 EGL .m                   0.00:  GROUND ELEVATION
 EPD .m                   0.00:  ELEVATION
 AZTC.deg                 6.29:  AZM TOTAL CORR
 GRDC.deg                 0.18:  GRID CORRECTION
 MDEC.deg                 6.47:  MAGNETIC DECL
 MDIP.deg                59.54:  MAGNETIC DIP
 MFLD.nT              50337.00:  MAGNETIC FIELD
 GVFD.g                   1.00:  GRAVITY FIELD
 VSDR.deg               226.99:  VERT SEC DIRECT
 TDD .m                   0.00:  TOTAL DEPTH (DRILLER)
 SDEP.m                 448.00:  START DEPTH
 DFSL.m                   0.00:  DISTANCE FSL
 DFWL.m                   0.00:  DISTANCE FWL
 UTMY.m             4435799.96:  UTM Y
 UTMX.m              526265.35:  UTM X
 WHEW.m                  -6.24:  WELL HEAD E/W
 WHNS.m                  -2.16:  WELL HEAD N/S
 LONG.deg                51.31:  LONGITUDE
 LATI.deg                40.06:  LATITUDE
 TVDS.m                  43.42:  TVDSS CORRECTN
 EKB .m                  43.42:  KB ELEVATION
 EDF .m                  43.42:  DF ELEVATION
 TDL .m                 288.00:  TOTAL DEPTH (LOGGER)
 MAGU.                 1851863:  MAGUTM CHECKSUM
 VSC .                       0:  VS TO CLOSURE
~Parameter Information Block
#MNEM.UNIT       Value        Description
#---------     -----------    ---------------------------
 AV  .mps                 0.40:  Ann Velocity 
 AVMX.mps                 0.63:  Max Ann Veloc 
 AZIF.deg               158.76:  Azm, Final 
 BHAT.        Rotary Steerable:  BHA Type 
 BROT.°/30m               0.68:  Build Rotating 
 BS  .in                  8.50:  Bit Size 
 BSZ .in                  8.50:  Bit Size 
 BTPL.psig              712.00:  Bit Press Loss 
 CABU.                      No:  Customer Abuse 
 COMM.                     'i:  Run Comments 1 
 TCS .hr                 90.66:  Time Ciculation Ended 
 CV  .mps                 2.02:  Crit Velocity 
 CVMX.mps                 2.14:  Max Crit Veloc 
 DD1 .            Aziz Aliyevu:  Direct Drillr 1 
 DD2 .             Samir Abbas:  Direct Drillr 2 
 DD3 .           Teymur Aliyev:  Direct Drillr 3 
 DDSV.                 iCruise:  DD Service 
 DEFF.%                  85.10:  % Det Eff 
 DLRX.°/30m               1.05:  Dogleg Rot Max 
 DLSO.°/30m               1.01:  Dogleg Oriented 
 DLSX.°/30m               1.05:  Dogleg Str Max 
 DRET.      07.45.00 18-Jul-21:  Drill End Time 
 DRST.      15.00.00 16-Jul-21:  Drill Start Tim 
 DTIM.hr                 23.46:  Time Drilling 
 EDEP.m                4603.00:  End Depth 
 ENG1.       Seymur Iskandarov:  Engineer 1 
 ENG2.         Yevgeniy Ulikov:  Engineer 2 
 ENG3.         Bahruz Mehdiyev:  Engineer 3 
 ENG4.         Elchin Mammadov:  Engineer 4 
 ETIM.      14.00.00 23-Jul-21:  End Time 
 FLOI.gpm               500.00:  Flow In 
 FLON.gpm               450.00:  Flow In Min 
 FLOS.cptm                0.00:  Fluid Loss 
 FLOX.gpm               560.00:  Flow In Max 
 DFT .        Mineral Oil Base:  Mud Type 
 FTRO.       Formation Presure:  FTWD Run Obj 
 HFLO.                      No:  High Flow 
 HPRE.                      No:  High Pressure 
 HTEM.                      No:  High Temp 
 HYDO.m                   1.80:  Hydro Offset 
 IFIN.deg                40.22:  Inc, Final 
 IMAX.deg                40.54:  Inc Max 
 IMIN.deg                39.44:  Inc Min 
 IMND.m                4361.17:  Inc Min Depth 
 IMXD.m                4417.92:  Inc Max Depth 
 JARR.                      No:  Jarring 
 LETM.      07.45.00 18-Jul-21:  Log End Time 
 LOST.hr                    16:  Lost Rig Time 
 LSTM.      15.00.00 16-Jul-21:  Log Start Time 
 MDCL.ppm             36500.00:  Mud Chlorides 
 MDES.     Inversion Oil/Synthetic:  Mud Desc 
 DFD .sg                  1.42:  Mud Density 
 MDMN.sg                  1.42:  Dens Mud Min 
 MDMX.sg                  1.43:  Dens Mud Max 
 MOIL.                      56:  Run Mud Oil % 
 MOWR.                   71:29:  Run Mud OWR 
 MSND.                     0.5:  Run Mud Sand % 
 MSOL.                      21:  Run Mud Solids% 
 DFV .spqt               78.00:  Mud Viscosity 
 MWOD.in                  6.75:  MWD Tool OD 
 MWSI.                     Yes:  Serv Intrp, MWD 
 OTIM.hr                200.73:  Time Operating 
 PCON.           Look Like New:  Pad Condition 
 PMAX.psia            11069.93:  Press Op, Max 
 PV  .cP                 32.00:  Mud PV 
 RUN .                     700:  Run Number 
 ROPA.m/hr               10.00:  ROP Avg 
 ROPN.m/hr                9.00:  ROP Min 
 ROPX.m/hr               16.00:  ROP Max 
 RPMA.rpm               116.00:  RPM Surface Avg 
 RPMN.rpm                80.00:  RPM Surface Min 
 RPMX.rpm               120.00:  RPM Surface Max 
 RRUN.                    L605:  Rig Run Number 
 RTIM.hr                 45.00:  Time Reaming 
 SAZI.deg               159.86:  Azm, Start 
 SDEP.m                4315.00:  Start Depth 
 SIDD.                      No:  Serv Intrp, DD 
 SINC.deg                39.86:  Inc, Start 
 SPPA.psig             3300.00:  SPP Avg 
 SPPN.psig             3040.00:  SPP Min 
 SPPX.psig             3645.00:  SPP Max 
 STIM.      01.00.00 15-Jul-21:  Start Time 
 SVCS.                 DD, MWD:  Services 
 SVER.                    9.20:  Sperry Version 
 TDAT.m                 288.00:  Tot Depth Attmp 
 TDDF.                      No:  Trip for DD 
 TDLG.m                 288.00:  Tot Depth Loggd 
 TFF .                      No:  Trip for Fail 
 TQAA.f-kp               19.00:  Torque Abs Avg 
 TQAN.f-kp               18.00:  Torque Abs Min 
 TQAX.f-kp               21.00:  Torque Abs Max 
 TRRT.°/30m               0.45:  Turn Rotating 
 MRT .                    HCIM:  Maximum Recorded Temperature 
 TTMX.degC               88.24:  Max Tool Temp 
 VS01.                90649157:  Virtual Str1 SN 
 VS02.                90652483:  Virtual Str2 SN 
 VS03.                11671987:  Virtual Str3 SN 
 VS04.                90643411:  Virtual Str4 SN 
 VS05.                90652478:  Virtual Str5 SN 
 VS06.                    6111:  Virtual Str6 SN 
 WBMN.klb                 9.50:  WOB Min 
 WITN.        Grigoriy Sarayev:  Customer Rep 
 WITN.          Rufat Huseynov:  Customer Rep 2 
 WOBA.klb                11.00:  WOB Avg 
 WOBX.klb                15.00:  WOB Max 
 YP  .lhf2               28.00:  Yield Point 
~Curve Information Block
#MNEM.UNIT                 API CODE     Curve Description
#---------               -----------    ---------------------------
 TIME.HHMMSS            00 000 000 000:  GT Time & Date
 GTDEPTH.m              00 000 000 000:  GT Depth
 GTPQH.psia             00 000 000 000:  GT HR Quartz Pressure
 GTTQ.degC              00 000 000 000:  GT Quartz Temperature
 GTTN.NONE              00 000 000 000:  GT Test Number
 GTET.sec               00 000 000 000:  GT Elapsed Test Time
 GTTVD.m                00 000 000 000:  GT True Vertical Depth
#Other Information
#
#WARRANTY: Halliburton will use its best efforts to furnish customers with 
#accurate information and interpretations that are part of, and incident to, the services 
#provided.  However, Halliburton cannot and does not warrant the accuracy 
#or correctness of such information and interpretations.  Under no circumstances should any 
#such information or interpretation be relied upon as the sole basis for any drilling, 
#completion, production, or financial decision or any procedure involving any risk to the 
#safety of any drilling venture, drilling rig or its crew or any other third party.  The 
#Customer has full responsibility for all drilling, completion and production operation.  
#Halliburton makes no representations or warranties, either expressed or 
#implied, including, but not limited to, the implied warranties of merchantability or fitness 
#for a particular purpose, with respect to the services rendered.  In no event will 
#Halliburton be liable for failure to obtain any particular results or for 
#any damages, including, but not limited to, indirect, special or consequential damages, 
#resulting from the use of any information or interpretation provided by Halliburton.
#
~A           TIME           GTDEPTH  GTPQH  GTTQ  GTTN   GTET   GTTVD  
# ...
   05:06:35.748.19-Jul-2021 4356.00 4166.80 68.82 12.00 226.08 2590.09
   05:06:35.948.19-Jul-2021 4356.00 4166.80 68.82 12.00 226.28 2590.09
   05:06:36.148.19-Jul-2021 4356.00 4167.53 68.82 12.00 226.48 2590.09
   05:06:36.348.19-Jul-2021 4356.00 4167.89 68.82 12.00 226.68 2590.09
   05:06:36.548.19-Jul-2021 4356.00 4168.05 68.82 12.00 226.88 2590.09
   05:06:36.748.19-Jul-2021 4356.00 4168.11 68.82 12.00 227.08 2590.09
   05:06:36.948.19-Jul-2021 4356.00 4168.11 68.82 12.00 227.28 2590.09
   05:06:37.148.19-Jul-2021 4356.00 4166.34 68.82 12.00 227.48 2590.09
   05:06:37.348.19-Jul-2021 4356.00 4165.82 68.82 12.00 227.68 2590.09
   05:06:37.549.19-Jul-2021 4356.00 4165.61 68.82 12.00 227.88 2590.09
   05:06:37.749.19-Jul-2021 4356.00 4164.19 68.82 12.00 228.08 2590.09
   05:06:37.949.19-Jul-2021 4356.00 4164.19 68.82 12.00 228.28 2590.09
   05:06:38.149.19-Jul-2021 4356.00 4162.81 68.82 12.00 228.48 2590.09
   05:06:38.349.19-Jul-2021 4356.00 4163.06 68.82 12.00 228.68 2590.09
   05:06:38.549.19-Jul-2021 4356.00 4163.73 68.82 12.00 228.88 2590.09
   05:06:38.749.19-Jul-2021 4356.00 4163.80 68.82 12.00 229.08 2590.09
   05:06:38.949.19-Jul-2021 4356.00 4163.80 68.82 12.00 229.28 2590.09
   05:06:39.149.19-Jul-2021 4356.00 4163.03 68.82 12.00 229.48 2590.09
   05:06:39.349.19-Jul-2021 4356.00 4163.69 68.82 12.00 229.68 2590.09
   05:06:39.549.19-Jul-2021 4356.00 4164.66 68.82 12.00 229.88 2590.09
   05:06:39.749.19-Jul-2021 4356.00 4163.26 68.82 12.00 230.08 2590.09
   05:06:39.949.19-Jul-2021 4356.00 4163.26 68.82 12.00 230.28 2590.09
   05:06:40.150.19-Jul-2021 4356.00 4163.53 68.82 12.00 230.48 2590.09
   05:06:40.350.19-Jul-2021 4356.00 4164.56 68.82 12.00 230.68 2590.09
   05:06:40.550.19-Jul-2021 4356.00 4164.67 68.82 12.00 230.89 2590.09
   05:06:40.750.19-Jul-2021 4356.00 4165.28 68.82 12.00 231.09 2590.09
   05:06:40.950.19-Jul-2021 4356.00 4165.28 68.82 12.00 231.29 2590.09
   05:06:41.150.19-Jul-2021 4356.00 4166.33 68.82 12.00 231.49 2590.09
   05:06:41.350.19-Jul-2021 4356.00 4166.80 68.82 12.00 231.69 2590.09
   05:06:41.550.19-Jul-2021 4356.00 4167.20 68.82 12.00 231.89 2590.09
   05:06:41.750.19-Jul-2021 4356.00 4167.65 68.82 12.00 232.09 2590.09
   05:06:41.950.19-Jul-2021 4356.00 4167.65 68.82 12.00 232.29 2590.09
   05:06:42.150.19-Jul-2021 4356.00 4168.32 68.82 12.00 232.49 2590.09
   05:06:42.350.19-Jul-2021 4356.00 4168.43 68.82 12.00 232.69 2590.09
   05:06:42.550.19-Jul-2021 4356.00 4167.22 68.82 12.00 232.89 2590.09
   05:06:42.750.19-Jul-2021 4356.00 4165.40 68.82 12.00 233.09 2590.09
   05:06:42.951.19-Jul-2021 4356.00 4165.40 68.82 12.00 233.29 2590.09
   05:06:43.151.19-Jul-2021 4356.00 4166.67 68.82 12.00 233.49 2590.09
   05:06:43.351.19-Jul-2021 4356.00 4166.61 68.82 12.00 233.69 2590.09
   05:06:43.551.19-Jul-2021 4356.00 4167.06 68.82 12.00 233.89 2590.09
   05:06:43.751.19-Jul-2021 4356.00 4167.43 68.82 12.00 234.09 2590.09
   05:06:43.951.19-Jul-2021 4356.00 4167.43 68.82 12.00 234.29 2590.09
   05:06:44.151.19-Jul-2021 4356.00 4168.08 68.82 12.00 234.49 2590.09
   05:06:44.351.19-Jul-2021 4356.00 4168.39 68.82 12.00 234.69 2590.09
   05:06:44.551.19-Jul-2021 4356.00 4168.77 68.82 12.00 234.89 2590.09
   05:06:44.751.19-Jul-2021 4356.00 4168.99 68.82 12.00 235.09 2590.09
   05:06:44.951.19-Jul-2021 4356.00 4168.99 68.82 12.00 235.29 2590.09
   05:06:45.151.19-Jul-2021 4356.00 4168.30 68.82 12.00 235.49 2590.09
   05:06:45.351.19-Jul-2021 4356.00 4166.89 68.82 12.00 235.69 2590.09
   05:06:45.552.19-Jul-2021 4356.00 4167.12 68.82 12.00 235.89 2590.09
   05:06:45.752.19-Jul-2021 4356.00 4165.67 68.82 12.00 236.09 2590.09
   05:06:45.952.19-Jul-2021 4356.00 4165.67 68.82 12.00 236.29 2590.09
   05:06:46.152.19-Jul-2021 4356.00 4163.73 68.82 12.00 236.49 2590.09
   05:06:46.352.19-Jul-2021 4356.00 4162.42 68.82 12.00 236.69 2590.09
   05:06:46.552.19-Jul-2021 4356.00 4161.51 68.82 12.00 236.89 2590.09
   05:06:46.752.19-Jul-2021 4356.00 4162.60 68.82 12.00 237.09 2590.09
   05:06:46.952.19-Jul-2021 4356.00 4162.60 68.82 12.00 237.29 2590.09
   05:06:47.152.19-Jul-2021 4356.00 4162.00 68.82 12.00 237.49 2590.09
   05:06:47.352.19-Jul-2021 4356.00 4162.32 68.82 12.00 237.69 2590.09
   05:06:47.552.19-Jul-2021 4356.00 4162.69 68.82 12.00 237.89 2590.09
   05:06:47.752.19-Jul-2021 4356.00 4163.90 68.82 12.00 238.09 2590.09
   05:06:47.952.19-Jul-2021 4356.00 4163.90 68.82 12.00 238.29 2590.09
   05:06:48.152.19-Jul-2021 4356.00 4164.76 68.82 12.00 238.49 2590.09
   05:06:48.353.19-Jul-2021 4356.00 4163.28 68.82 12.00 238.69 2590.09
   05:06:48.553.19-Jul-2021 4356.00 4163.35 68.82 12.00 238.89 2590.09
   05:06:48.753.19-Jul-2021 4356.00 4163.98 68.82 12.00 239.09 2590.09
   05:06:48.953.19-Jul-2021 4356.00 4163.98 68.82 12.00 239.29 2590.09
   05:06:49.153.19-Jul-2021 4356.00 4165.25 68.82 12.00 239.49 2590.09
   05:06:49.353.19-Jul-2021 4356.00 4165.94 68.82 12.00 239.69 2590.09
   05:06:49.553.19-Jul-2021 4356.00 4166.46 68.82 12.00 239.89 2590.09
   05:06:49.753.19-Jul-2021 4356.00 4167.05 68.82 12.00 240.09 2590.09
   05:06:49.953.19-Jul-2021 4356.00 4167.05 68.82 12.00 240.29 2590.09
   05:06:50.153.19-Jul-2021 4356.00 4168.09 68.82 12.00 240.49 2590.09
   05:06:50.353.19-Jul-2021 4356.00 4168.47 68.82 12.00 240.69 2590.09
   05:06:50.553.19-Jul-2021 4356.00 4168.77 68.82 12.00 240.89 2590.09
   05:06:50.753.19-Jul-2021 4356.00 4168.78 68.82 12.00 241.09 2590.09
   05:06:50.953.19-Jul-2021 4356.00 4168.78 68.82 12.00 241.29 2590.09
   05:06:51.154.19-Jul-2021 4356.00 4168.44 68.82 12.00 241.49 2590.09
   05:06:51.354.19-Jul-2021 4356.00 4168.11 68.82 12.00 241.69 2590.09
   05:06:51.554.19-Jul-2021 4356.00 4168.74 68.82 12.00 241.89 2590.09
   05:06:51.754.19-Jul-2021 4356.00 4168.75 68.82 12.00 242.09 2590.09
   05:06:51.954.19-Jul-2021 4356.00 4168.75 68.82 12.00 242.29 2590.09
   05:06:52.154.19-Jul-2021 4356.00 4169.39 68.82 12.00 242.49 2590.09
   05:06:52.354.19-Jul-2021 4356.00 4169.48 68.82 12.00 242.69 2590.09
   05:06:52.554.19-Jul-2021 4356.00 4169.74 68.82 12.00 242.89 2590.09
   05:06:52.754.19-Jul-2021 4356.00 4169.98 68.82 12.00 243.09 2590.09
   05:06:52.954.19-Jul-2021 4356.00 4169.98 68.82 12.00 243.29 2590.09
   05:06:53.154.19-Jul-2021 4356.00 4170.41 68.82 12.00 243.49 2590.09
   05:06:53.354.19-Jul-2021 4356.00 4170.52 68.82 12.00 243.69 2590.09
   05:06:53.554.19-Jul-2021 4356.00 4170.04 68.82 12.00 243.89 2590.09
   05:06:53.755.19-Jul-2021 4356.00 4169.51 68.82 12.00 244.09 2590.09
   05:06:53.955.19-Jul-2021 4356.00 4169.51 68.82 12.00 244.29 2590.09
   05:06:54.155.19-Jul-2021 4356.00 4168.19 68.82 12.00 244.49 2590.09
   05:06:54.355.19-Jul-2021 4356.00 4166.06 68.82 12.00 244.69 2590.09
   05:06:54.555.19-Jul-2021 4356.00 4165.49 68.82 12.00 244.89 2590.09
   05:06:54.755.19-Jul-2021 4356.00 4163.59 68.82 12.00 245.09 2590.09
   05:06:54.955.19-Jul-2021 4356.00 4163.59 68.82 12.00 245.29 2590.09
   05:06:55.155.19-Jul-2021 4356.00 4162.98 68.82 12.00 245.49 2590.09
   05:06:55.355.19-Jul-2021 4356.00 4163.85 68.82 12.00 245.69 2590.09
   05:06:55.555.19-Jul-2021 4356.00 4164.06 68.82 12.00 245.89 2590.09
   05:06:55.755.19-Jul-2021 4356.00 4162.48 68.82 12.00 246.09 2590.09
   05:06:55.955.19-Jul-2021 4356.00 4162.48 68.82 12.00 246.29 2590.09
   05:06:56.155.19-Jul-2021 4356.00 4163.60 68.82 12.00 246.49 2590.09
   05:06:56.355.19-Jul-2021 4356.00 4164.74 68.82 12.00 246.69 2590.09
   05:06:56.556.19-Jul-2021 4356.00 4163.59 68.82 12.00 246.89 2590.09
   05:06:56.756.19-Jul-2021 4356.00 4163.69 68.82 12.00 247.09 2590.09
   05:06:56.956.19-Jul-2021 4356.00 4163.69 68.82 12.00 247.29 2590.09
   05:06:57.156.19-Jul-2021 4356.00 4165.00 68.82 12.00 247.49 2590.09
   05:06:57.356.19-Jul-2021 4356.00 4165.15 68.82 12.00 247.69 2590.09
   05:06:57.556.19-Jul-2021 4356.00 4165.93 68.82 12.00 247.89 2590.09
   05:06:57.756.19-Jul-2021 4356.00 4166.57 68.82 12.00 248.09 2590.09
   05:06:57.956.19-Jul-2021 4356.00 4166.57 68.82 12.00 248.29 2590.09
   05:06:58.156.19-Jul-2021 4356.00 4167.63 68.82 12.00 248.49 2590.09
