~Version Information
 VERS.                  2.0:   CWLS log ASCII Standard -VERSION 2.0
 WRAP.                   NO:   One line per depth step
~Well Information Block
#MNEM.UNIT     VALUE/NAME     DESCRIPTION
#---------     -----------    ---------------------------
 STRT.S             08:47:00 19-Jul-21: START TIME 08:47:00 19-Jul-21
 STOP.S             08:53:54 19-Jul-21: STOP TIME  08:53:54 19-Jul-21
 STEP.S                   0.00: STEP TIME
 NULL.                 -999.25: NULL VALUE
 MDS .        Operator Entered:  MAG DATA SOURCE
 PDAT.          Mean Sea Level:  PERMANENT DATUM
 UNIT.                     N/A:  LOGGING EQUIPMENT ID
 DCON.         Sperry Drilling:  DIRECTNL CONTR
 DOE .                     N/A:  DOE NUMBER
 RIG .              West Azeri:  RIG NAME
 JOBN.        AZ-XX-0906997913:  JOB TICKET NUMB
 WELL.                     C41:  WELL NAME
 MWDS.                    Baku:  MWD SHOP
 SRVC.          Turan Drilling:  CONTRACTOR
 FLD .                     ACG:  FIELD NAME
 CTRY.              Azerbaijan:  COUNTRY NAME
 PROV.                    Baku:  PROVINCE
 STAT.                    Baku:  STATE NAME
 REGN.                   EESSA:  REGION
 BASE.              Azerbaijan:  LOGGING EQUIPMENT BASE LOCATION
 UWI .                     N/A:  UNIQUE WELL IDENTIFIER
 API .                     N/A:  API NUMBER
 COMP.     BP Exploration (Caspian Sea) Ltd.:  COMPANY
 WTYP.                Deviated:  WELL TYPE
 SON .        AZ-XX-0906997913:  JOB NUMBER
 FTOP.          Formation Tops:  FORM TOPS DESC
 ILTD.               Lithology:  INTERP LTH DESC
 SVYD.                  Survey:  SURVEY DESC
 DMOD.             Drill Model:  DRILL MOD DESC
 HPTY.       Minimum Curvature:  HOLE POS TYPE
 NREF.                    Grid:  NORTH REFERENCE
 SPUD.               16-May-21:  SPUD DATE
 DATE.      21.11.28 17-May-21:  END TIME
 STIM.      21.11.28 17-May-21:  START TIME
 DMF .             Drill Floor:  DRILL MEAS FROM
 DFST.                        :  DIST FSL TEXT
 DFWT.                        :  DIST FWL TEXT
 CNTY.                        :  COUNTY
 LOC .                        :  LOCATION
 LMF .             Drill Floor:  LOG MEASURED FROM
 AGAP.m                  43.42:  AIR GAP
 VSNS.m                  -2.16:  VERT SEC N/S
 VSEW.m                  -6.24:  VERT SEC E/W
 APD .m                  43.42:  DEPTH ABOVE PD
 WDMS.m                 118.27:  WD ELEV
 EGL .m                   0.00:  GROUND ELEVATION
 EPD .m                   0.00:  ELEVATION
 AZTC.deg                 6.29:  AZM TOTAL CORR
 GRDC.deg                 0.18:  GRID CORRECTION
 MDEC.deg                 6.47:  MAGNETIC DECL
 MDIP.deg                59.54:  MAGNETIC DIP
 MFLD.nT              50337.00:  MAGNETIC FIELD
 GVFD.g                   1.00:  GRAVITY FIELD
 VSDR.deg               226.99:  VERT SEC DIRECT
 TDD .m                   0.00:  TOTAL DEPTH (DRILLER)
 SDEP.m                 448.00:  START DEPTH
 DFSL.m                   0.00:  DISTANCE FSL
 DFWL.m                   0.00:  DISTANCE FWL
 UTMY.m             4435799.96:  UTM Y
 UTMX.m              526265.35:  UTM X
 WHEW.m                  -6.24:  WELL HEAD E/W
 WHNS.m                  -2.16:  WELL HEAD N/S
 LONG.deg                51.31:  LONGITUDE
 LATI.deg                40.06:  LATITUDE
 TVDS.m                  43.42:  TVDSS CORRECTN
 EKB .m                  43.42:  KB ELEVATION
 EDF .m                  43.42:  DF ELEVATION
 TDL .m                 288.00:  TOTAL DEPTH (LOGGER)
 MAGU.                 1851863:  MAGUTM CHECKSUM
 VSC .                       0:  VS TO CLOSURE
~Parameter Information Block
#MNEM.UNIT       Value        Description
#---------     -----------    ---------------------------
 AV  .mps                 0.40:  Ann Velocity 
 AVMX.mps                 0.63:  Max Ann Veloc 
 AZIF.deg               158.76:  Azm, Final 
 BHAT.        Rotary Steerable:  BHA Type 
 BROT.°/30m               0.68:  Build Rotating 
 BS  .in                  8.50:  Bit Size 
 BSZ .in                  8.50:  Bit Size 
 BTPL.psig              712.00:  Bit Press Loss 
 CABU.                      No:  Customer Abuse 
 COMM.                     Œ]Y:  Run Comments 1 
 TCS .hr                 90.66:  Time Ciculation Ended 
 CV  .mps                 2.02:  Crit Velocity 
 CVMX.mps                 2.14:  Max Crit Veloc 
 DD1 .            Aziz Aliyevu:  Direct Drillr 1 
 DD2 .             Samir Abbas:  Direct Drillr 2 
 DD3 .           Teymur Aliyev:  Direct Drillr 3 
 DDSV.                 iCruise:  DD Service 
 DEFF.%                  85.10:  % Det Eff 
 DLRX.°/30m               1.05:  Dogleg Rot Max 
 DLSO.°/30m               1.01:  Dogleg Oriented 
 DLSX.°/30m               1.05:  Dogleg Str Max 
 DRET.      07.45.00 18-Jul-21:  Drill End Time 
 DRST.      15.00.00 16-Jul-21:  Drill Start Tim 
 DTIM.hr                 23.46:  Time Drilling 
 EDEP.m                4603.00:  End Depth 
 ENG1.       Seymur Iskandarov:  Engineer 1 
 ENG2.         Yevgeniy Ulikov:  Engineer 2 
 ENG3.         Bahruz Mehdiyev:  Engineer 3 
 ENG4.         Elchin Mammadov:  Engineer 4 
 ETIM.      14.00.00 23-Jul-21:  End Time 
 FLOI.gpm               500.00:  Flow In 
 FLON.gpm               450.00:  Flow In Min 
 FLOS.cptm                0.00:  Fluid Loss 
 FLOX.gpm               560.00:  Flow In Max 
 DFT .        Mineral Oil Base:  Mud Type 
 FTRO.       Formation Presure:  FTWD Run Obj 
 HFLO.                      No:  High Flow 
 HPRE.                      No:  High Pressure 
 HTEM.                      No:  High Temp 
 HYDO.m                   1.80:  Hydro Offset 
 IFIN.deg                40.22:  Inc, Final 
 IMAX.deg                40.54:  Inc Max 
 IMIN.deg                39.44:  Inc Min 
 IMND.m                4361.17:  Inc Min Depth 
 IMXD.m                4417.92:  Inc Max Depth 
 JARR.                      No:  Jarring 
 LETM.      07.45.00 18-Jul-21:  Log End Time 
 LOST.hr                    16:  Lost Rig Time 
 LSTM.      15.00.00 16-Jul-21:  Log Start Time 
 MDCL.ppm             36500.00:  Mud Chlorides 
 MDES.     Inversion Oil/Synthetic:  Mud Desc 
 DFD .sg                  1.42:  Mud Density 
 MDMN.sg                  1.42:  Dens Mud Min 
 MDMX.sg                  1.43:  Dens Mud Max 
 MOIL.                      56:  Run Mud Oil % 
 MOWR.                   71:29:  Run Mud OWR 
 MSND.                     0.5:  Run Mud Sand % 
 MSOL.                      21:  Run Mud Solids% 
 DFV .spqt               78.00:  Mud Viscosity 
 MWOD.in                  6.75:  MWD Tool OD 
 MWSI.                     Yes:  Serv Intrp, MWD 
 OTIM.hr                200.73:  Time Operating 
 PCON.           Look Like New:  Pad Condition 
 PMAX.psia            11069.93:  Press Op, Max 
 PV  .cP                 32.00:  Mud PV 
 RUN .                     700:  Run Number 
 ROPA.m/hr               10.00:  ROP Avg 
 ROPN.m/hr                9.00:  ROP Min 
 ROPX.m/hr               16.00:  ROP Max 
 RPMA.rpm               116.00:  RPM Surface Avg 
 RPMN.rpm                80.00:  RPM Surface Min 
 RPMX.rpm               120.00:  RPM Surface Max 
 RRUN.                    L605:  Rig Run Number 
 RTIM.hr                 45.00:  Time Reaming 
 SAZI.deg               159.86:  Azm, Start 
 SDEP.m                4315.00:  Start Depth 
 SIDD.                      No:  Serv Intrp, DD 
 SINC.deg                39.86:  Inc, Start 
 SPPA.psig             3300.00:  SPP Avg 
 SPPN.psig             3040.00:  SPP Min 
 SPPX.psig             3645.00:  SPP Max 
 STIM.      01.00.00 15-Jul-21:  Start Time 
 SVCS.                 DD, MWD:  Services 
 SVER.                    9.20:  Sperry Version 
 TDAT.m                 288.00:  Tot Depth Attmp 
 TDDF.                      No:  Trip for DD 
 TDLG.m                 288.00:  Tot Depth Loggd 
 TFF .                      No:  Trip for Fail 
 TQAA.f-kp               19.00:  Torque Abs Avg 
 TQAN.f-kp               18.00:  Torque Abs Min 
 TQAX.f-kp               21.00:  Torque Abs Max 
 TRRT.°/30m               0.45:  Turn Rotating 
 MRT .                    HCIM:  Maximum Recorded Temperature 
 TTMX.degC               88.24:  Max Tool Temp 
 VS01.                90649157:  Virtual Str1 SN 
 VS02.                90652483:  Virtual Str2 SN 
 VS03.                11671987:  Virtual Str3 SN 
 VS04.                90643411:  Virtual Str4 SN 
 VS05.                90652478:  Virtual Str5 SN 
 VS06.                    6111:  Virtual Str6 SN 
 WBMN.klb                 9.50:  WOB Min 
 WITN.        Grigoriy Sarayev:  Customer Rep 
 WITN.          Rufat Huseynov:  Customer Rep 2 
 WOBA.klb                11.00:  WOB Avg 
 WOBX.klb                15.00:  WOB Max 
 YP  .lhf2               28.00:  Yield Point 
~Curve Information Block
#MNEM.UNIT                 API CODE     Curve Description
#---------               -----------    ---------------------------
 TIME.HHMMSS            00 000 000 000:  GT Time & Date
 GTDEPTH.m              00 000 000 000:  GT Depth
 GTPQH.psia             00 000 000 000:  GT HR Quartz Pressure
 GTTQ.degC              00 000 000 000:  GT Quartz Temperature
 GTTN.NONE              00 000 000 000:  GT Test Number
 GTET.sec               00 000 000 000:  GT Elapsed Test Time
 GTTVD.m                00 000 000 000:  GT True Vertical Depth
#Other Information
#
#WARRANTY: Halliburton will use its best efforts to furnish customers with 
#accurate information and interpretations that are part of, and incident to, the services 
#provided.  However, Halliburton cannot and does not warrant the accuracy 
#or correctness of such information and interpretations.  Under no circumstances should any 
#such information or interpretation be relied upon as the sole basis for any drilling, 
#completion, production, or financial decision or any procedure involving any risk to the 
#safety of any drilling venture, drilling rig or its crew or any other third party.  The 
#Customer has full responsibility for all drilling, completion and production operation.  
#Halliburton makes no representations or warranties, either expressed or 
#implied, including, but not limited to, the implied warranties of merchantability or fitness 
#for a particular purpose, with respect to the services rendered.  In no event will 
#Halliburton be liable for failure to obtain any particular results or for 
#any damages, including, but not limited to, indirect, special or consequential damages, 
#resulting from the use of any information or interpretation provided by Halliburton.
#
~A           TIME           GTDEPTH  GTPQH  GTTQ  GTTN   GTET   GTTVD  
# ...
   08:53:02.351.19-Jul-2021 4435.50 6448.56 70.31 19.00 361.73 2650.97
   08:53:02.551.19-Jul-2021 4435.50 6466.43 70.31 19.00 361.93 2650.97
   08:53:02.751.19-Jul-2021 4435.50 6451.34 70.31 19.00 362.13 2650.97
   08:53:02.951.19-Jul-2021 4435.50 6451.34 70.31 19.00 362.33 2650.97
   08:53:03.151.19-Jul-2021 4435.50 6455.92 70.31 19.00 362.53 2650.97
   08:53:03.351.19-Jul-2021 4435.50 6451.91 70.32 19.00 362.73 2650.97
   08:53:03.551.19-Jul-2021 4435.50 6451.55 70.32 19.00 362.93 2650.97
   08:53:03.751.19-Jul-2021 4435.50 6451.64 70.32 19.00 363.13 2650.97
   08:53:03.951.19-Jul-2021 4435.50 6451.64 70.32 19.00 363.33 2650.97
   08:53:04.151.19-Jul-2021 4435.50 6451.96 70.32 19.00 363.53 2650.97
   08:53:04.351.19-Jul-2021 4435.50 6452.37 70.32 19.00 363.73 2650.97
   08:53:04.551.19-Jul-2021 4435.50 6451.03 70.33 19.00 363.93 2650.97
   08:53:04.752.19-Jul-2021 4435.50 6450.81 70.33 19.00 364.13 2650.97
   08:53:04.952.19-Jul-2021 4435.50 6450.81 70.33 19.00 364.33 2650.97
   08:53:05.152.19-Jul-2021 4435.50 6463.33 70.33 19.00 364.53 2650.97
   08:53:05.352.19-Jul-2021 4435.50 6455.29 70.33 19.00 364.73 2650.97
   08:53:05.552.19-Jul-2021 4435.50 6462.92 70.33 19.00 364.93 2650.97
   08:53:05.752.19-Jul-2021 4435.50 6461.14 70.33 19.00 365.13 2650.97
   08:53:05.952.19-Jul-2021 4435.50 6461.14 70.33 19.00 365.33 2650.97
   08:53:06.152.19-Jul-2021 4435.50 6451.11 70.34 19.00 365.53 2650.97
   08:53:06.352.19-Jul-2021 4435.50 6454.91 70.34 19.00 365.73 2650.97
   08:53:06.552.19-Jul-2021 4435.50 6454.98 70.34 19.00 365.93 2650.97
   08:53:06.752.19-Jul-2021 4435.50 6464.48 70.34 19.00 366.13 2650.97
   08:53:06.952.19-Jul-2021 4435.50 6464.48 70.34 19.00 366.33 2650.97
   08:53:07.152.19-Jul-2021 4435.50 6454.65 70.34 19.00 366.53 2650.97
   08:53:07.352.19-Jul-2021 4435.50 6456.71 70.34 19.00 366.74 2650.97
   08:53:07.553.19-Jul-2021 4435.50 6454.07 70.34 19.00 366.94 2650.97
   08:53:07.753.19-Jul-2021 4435.50 6471.86 70.34 19.00 367.14 2650.97
   08:53:07.953.19-Jul-2021 4435.50 6471.86 70.34 19.00 367.34 2650.97
   08:53:08.153.19-Jul-2021 4435.50 6458.94 70.34 19.00 367.54 2650.97
   08:53:08.353.19-Jul-2021 4435.50 6456.75 70.35 19.00 367.74 2650.97
   08:53:08.553.19-Jul-2021 4435.50 6472.16 70.35 19.00 367.94 2650.97
   08:53:08.753.19-Jul-2021 4435.50 6451.55 70.35 19.00 368.14 2650.97
   08:53:08.953.19-Jul-2021 4435.50 6451.55 70.35 19.00 368.34 2650.97
   08:53:09.153.19-Jul-2021 4435.50 6458.43 70.35 19.00 368.54 2650.97
   08:53:09.353.19-Jul-2021 4435.50 6453.18 70.35 19.00 368.74 2650.97
   08:53:09.553.19-Jul-2021 4435.50 6457.09 70.35 19.00 368.94 2650.97
   08:53:09.753.19-Jul-2021 4435.50 6454.41 70.35 19.00 369.14 2650.97
   08:53:09.953.19-Jul-2021 4435.50 6454.41 70.35 19.00 369.34 2650.97
   08:53:10.153.19-Jul-2021 4435.50 6453.14 70.35 19.00 369.54 2650.97
   08:53:10.354.19-Jul-2021 4435.50 6453.42 70.35 19.00 369.74 2650.97
   08:53:10.554.19-Jul-2021 4435.50 6453.22 70.35 19.00 369.94 2650.97
   08:53:10.754.19-Jul-2021 4435.50 6452.67 70.35 19.00 370.14 2650.97
   08:53:10.954.19-Jul-2021 4435.50 6452.67 70.35 19.00 370.34 2650.97
   08:53:11.154.19-Jul-2021 4435.50 6450.00 70.35 19.00 370.54 2650.97
   08:53:11.354.19-Jul-2021 4435.50 6468.91 70.35 19.00 370.74 2650.97
   08:53:11.554.19-Jul-2021 4435.50 6448.61 70.35 19.00 370.94 2650.97
   08:53:11.754.19-Jul-2021 4435.50 6459.85 70.35 19.00 371.14 2650.97
   08:53:11.954.19-Jul-2021 4435.50 6459.85 70.35 19.00 371.34 2650.97
   08:53:12.154.19-Jul-2021 4435.50 6452.31 70.35 19.00 371.54 2650.97
   08:53:12.354.19-Jul-2021 4435.50 6455.87 70.35 19.00 371.74 2650.97
   08:53:12.554.19-Jul-2021 4435.50 6453.50 70.35 19.00 371.94 2650.97
   08:53:12.754.19-Jul-2021 4435.50 6452.27 70.36 19.00 372.14 2650.97
   08:53:12.955.19-Jul-2021 4435.50 6452.27 70.36 19.00 372.34 2650.97
   08:53:13.155.19-Jul-2021 4435.50 6453.41 70.36 19.00 372.54 2650.97
   08:53:13.355.19-Jul-2021 4435.50 6452.72 70.36 19.00 372.74 2650.97
   08:53:13.555.19-Jul-2021 4435.50 6452.65 70.36 19.00 372.94 2650.97
   08:53:13.755.19-Jul-2021 4435.50 6451.44 70.36 19.00 373.14 2650.97
   08:53:13.955.19-Jul-2021 4435.50 6451.44 70.36 19.00 373.34 2650.97
   08:53:14.155.19-Jul-2021 4435.50 6454.49 70.36 19.00 373.54 2650.97
   08:53:14.355.19-Jul-2021 4435.50 6456.44 70.36 19.00 373.74 2650.97
   08:53:14.555.19-Jul-2021 4435.50 6472.30 70.36 19.00 373.94 2650.97
   08:53:14.755.19-Jul-2021 4435.50 6451.25 70.36 19.00 374.14 2650.97
   08:53:14.955.19-Jul-2021 4435.50 6451.25 70.36 19.00 374.34 2650.97
   08:53:15.155.19-Jul-2021 4435.50 6452.82 70.36 19.00 374.54 2650.97
   08:53:15.355.19-Jul-2021 4435.50 6468.36 70.36 19.00 374.74 2650.97
   08:53:15.555.19-Jul-2021 4435.50 6456.50 70.36 19.00 374.94 2650.97
   08:53:15.756.19-Jul-2021 4435.50 6457.43 70.36 19.00 375.14 2650.97
   08:53:15.956.19-Jul-2021 4435.50 6457.43 70.36 19.00 375.34 2650.97
   08:53:16.156.19-Jul-2021 4435.50 6458.03 70.36 19.00 375.54 2650.97
   08:53:16.356.19-Jul-2021 4435.50 6460.29 70.36 19.00 375.74 2650.97
   08:53:16.556.19-Jul-2021 4435.50 6456.27 70.36 19.00 375.94 2650.97
   08:53:16.756.19-Jul-2021 4435.50 6474.68 70.36 19.00 376.14 2650.97
   08:53:16.956.19-Jul-2021 4435.50 6474.68 70.36 19.00 376.34 2650.97
   08:53:17.156.19-Jul-2021 4435.50 6458.66 70.36 19.00 376.54 2650.97
   08:53:17.356.19-Jul-2021 4435.50 6459.87 70.36 19.00 376.74 2650.97
   08:53:17.556.19-Jul-2021 4435.50 6455.93 70.36 19.00 376.94 2650.97
   08:53:17.756.19-Jul-2021 4435.50 6454.42 70.36 19.00 377.14 2650.97
   08:53:17.956.19-Jul-2021 4435.50 6454.42 70.36 19.00 377.34 2650.97
   08:53:18.156.19-Jul-2021 4435.50 6453.68 70.36 19.00 377.54 2650.97
   08:53:18.357.19-Jul-2021 4435.50 6453.71 70.36 19.00 377.74 2650.97
   08:53:18.557.19-Jul-2021 4435.50 6453.35 70.36 19.00 377.94 2650.97
   08:53:18.757.19-Jul-2021 4435.50 6452.60 70.36 19.00 378.14 2650.97
   08:53:18.957.19-Jul-2021 4435.50 6452.60 70.36 19.00 378.34 2650.97
   08:53:19.157.19-Jul-2021 4435.50 6452.30 70.36 19.00 378.54 2650.97
   08:53:19.357.19-Jul-2021 4435.50 6452.93 70.36 19.00 378.74 2650.97
   08:53:19.557.19-Jul-2021 4435.50 6474.43 70.36 19.00 378.94 2650.97
   08:53:19.757.19-Jul-2021 4435.50 6447.88 70.36 19.00 379.14 2650.97
   08:53:19.957.19-Jul-2021 4435.50 6447.88 70.36 19.00 379.34 2650.97
   08:53:20.157.19-Jul-2021 4435.50 6456.42 70.36 19.00 379.54 2650.97
   08:53:20.357.19-Jul-2021 4435.50 6450.37 70.36 19.00 379.74 2650.97
   08:53:20.557.19-Jul-2021 4435.50 6454.82 70.36 19.00 379.94 2650.97
   08:53:20.757.19-Jul-2021 4435.50 6453.12 70.36 19.00 380.14 2650.97
   08:53:20.957.19-Jul-2021 4435.50 6453.12 70.36 19.00 380.34 2650.97
   08:53:21.158.19-Jul-2021 4435.50 6452.41 70.36 19.00 380.54 2650.97
   08:53:21.358.19-Jul-2021 4435.50 6452.42 70.36 19.00 380.74 2650.97
   08:53:21.558.19-Jul-2021 4435.50 6452.07 70.36 19.00 380.94 2650.97
   08:53:21.758.19-Jul-2021 4435.50 6451.28 70.36 19.00 381.14 2650.97
   08:53:21.958.19-Jul-2021 4435.50 6451.28 70.36 19.00 381.34 2650.97
   08:53:22.158.19-Jul-2021 4435.50 6470.33 70.36 19.00 381.54 2650.97
   08:53:22.358.19-Jul-2021 4435.50 6447.97 70.35 19.00 381.74 2650.97
   08:53:22.558.19-Jul-2021 4435.50 6459.86 70.35 19.00 381.94 2650.97
   08:53:22.758.19-Jul-2021 4435.50 6475.61 70.35 19.00 382.14 2650.97
   08:53:22.958.19-Jul-2021 4435.50 6475.61 70.35 19.00 382.34 2650.97
   08:53:23.158.19-Jul-2021 4435.50 6461.78 70.35 19.00 382.54 2650.97
   08:53:23.358.19-Jul-2021 4435.50 6468.75 70.35 19.00 382.74 2650.97
   08:53:23.558.19-Jul-2021 4435.50 6455.39 70.35 19.00 382.94 2650.97
   08:53:23.758.19-Jul-2021 4435.50 6461.55 70.35 19.00 383.14 2650.97
   08:53:23.959.19-Jul-2021 4435.50 6461.55 70.35 19.00 383.34 2650.97
   08:53:24.159.19-Jul-2021 4435.50 6474.43 70.35 19.00 383.54 2650.97
   08:53:24.359.19-Jul-2021 4435.50 6453.86 70.35 19.00 383.74 2650.97
   08:53:24.559.19-Jul-2021 4435.50 6462.57 70.35 19.00 383.94 2650.97
   08:53:24.759.19-Jul-2021 4435.50 6456.70 70.35 19.00 384.14 2650.97
