~Version Information
 VERS.                  2.0:   CWLS log ASCII Standard -VERSION 2.0
 WRAP.                   NO:   One line per depth step
~Well Information Block
#MNEM.UNIT     VALUE/NAME     DESCRIPTION
#---------     -----------    ---------------------------
 STRT.S             17:59:38 18-Jul-21: START TIME 17:59:38 18-Jul-21
 STOP.S             18:06:07 18-Jul-21: STOP TIME  18:06:07 18-Jul-21
 STEP.S                   0.00: STEP TIME
 NULL.                 -999.25: NULL VALUE
 MDS .        Operator Entered:  MAG DATA SOURCE
 PDAT.          Mean Sea Level:  PERMANENT DATUM
 UNIT.                     N/A:  LOGGING EQUIPMENT ID
 DCON.         Sperry Drilling:  DIRECTNL CONTR
 DOE .                     N/A:  DOE NUMBER
 RIG .              West Azeri:  RIG NAME
 JOBN.        AZ-XX-0906997913:  JOB TICKET NUMB
 WELL.                     C41:  WELL NAME
 MWDS.                    Baku:  MWD SHOP
 SRVC.          Turan Drilling:  CONTRACTOR
 FLD .                     ACG:  FIELD NAME
 CTRY.              Azerbaijan:  COUNTRY NAME
 PROV.                    Baku:  PROVINCE
 STAT.                    Baku:  STATE NAME
 REGN.                   EESSA:  REGION
 BASE.              Azerbaijan:  LOGGING EQUIPMENT BASE LOCATION
 UWI .                     N/A:  UNIQUE WELL IDENTIFIER
 API .                     N/A:  API NUMBER
 COMP.     BP Exploration (Caspian Sea) Ltd.:  COMPANY
 WTYP.                Deviated:  WELL TYPE
 SON .        AZ-XX-0906997913:  JOB NUMBER
 FTOP.          Formation Tops:  FORM TOPS DESC
 ILTD.               Lithology:  INTERP LTH DESC
 SVYD.                  Survey:  SURVEY DESC
 DMOD.             Drill Model:  DRILL MOD DESC
 HPTY.       Minimum Curvature:  HOLE POS TYPE
 NREF.                    Grid:  NORTH REFERENCE
 SPUD.               16-May-21:  SPUD DATE
 DATE.      21.11.28 17-May-21:  END TIME
 STIM.      21.11.28 17-May-21:  START TIME
 DMF .             Drill Floor:  DRILL MEAS FROM
 DFST.                        :  DIST FSL TEXT
 DFWT.                        :  DIST FWL TEXT
 CNTY.                        :  COUNTY
 LOC .                        :  LOCATION
 LMF .             Drill Floor:  LOG MEASURED FROM
 AGAP.m                  43.42:  AIR GAP
 VSNS.m                  -2.16:  VERT SEC N/S
 VSEW.m                  -6.24:  VERT SEC E/W
 APD .m                  43.42:  DEPTH ABOVE PD
 WDMS.m                 118.27:  WD ELEV
 EGL .m                   0.00:  GROUND ELEVATION
 EPD .m                   0.00:  ELEVATION
 AZTC.deg                 6.29:  AZM TOTAL CORR
 GRDC.deg                 0.18:  GRID CORRECTION
 MDEC.deg                 6.47:  MAGNETIC DECL
 MDIP.deg                59.54:  MAGNETIC DIP
 MFLD.nT              50337.00:  MAGNETIC FIELD
 GVFD.g                   1.00:  GRAVITY FIELD
 VSDR.deg               226.99:  VERT SEC DIRECT
 TDD .m                   0.00:  TOTAL DEPTH (DRILLER)
 SDEP.m                 448.00:  START DEPTH
 DFSL.m                   0.00:  DISTANCE FSL
 DFWL.m                   0.00:  DISTANCE FWL
 UTMY.m             4435799.96:  UTM Y
 UTMX.m              526265.35:  UTM X
 WHEW.m                  -6.24:  WELL HEAD E/W
 WHNS.m                  -2.16:  WELL HEAD N/S
 LONG.deg                51.31:  LONGITUDE
 LATI.deg                40.06:  LATITUDE
 TVDS.m                  43.42:  TVDSS CORRECTN
 EKB .m                  43.42:  KB ELEVATION
 EDF .m                  43.42:  DF ELEVATION
 TDL .m                 288.00:  TOTAL DEPTH (LOGGER)
 MAGU.                 1851863:  MAGUTM CHECKSUM
 VSC .                       0:  VS TO CLOSURE
~Parameter Information Block
#MNEM.UNIT       Value        Description
#---------     -----------    ---------------------------
 AV  .mps                 0.40:  Ann Velocity 
 AVMX.mps                 0.63:  Max Ann Veloc 
 AZIF.deg               158.76:  Azm, Final 
 BHAT.        Rotary Steerable:  BHA Type 
 BROT.°/30m               0.68:  Build Rotating 
 BS  .in                  8.50:  Bit Size 
 BSZ .in                  8.50:  Bit Size 
 BTPL.psig              712.00:  Bit Press Loss 
 CABU.                      No:  Customer Abuse 
 COMM.                     Ä"ƒ:  Run Comments 1 
 TCS .hr                 90.66:  Time Ciculation Ended 
 CV  .mps                 2.02:  Crit Velocity 
 CVMX.mps                 2.14:  Max Crit Veloc 
 DD1 .            Aziz Aliyevu:  Direct Drillr 1 
 DD2 .             Samir Abbas:  Direct Drillr 2 
 DD3 .           Teymur Aliyev:  Direct Drillr 3 
 DDSV.                 iCruise:  DD Service 
 DEFF.%                  85.10:  % Det Eff 
 DLRX.°/30m               1.05:  Dogleg Rot Max 
 DLSO.°/30m               1.01:  Dogleg Oriented 
 DLSX.°/30m               1.05:  Dogleg Str Max 
 DRET.      07.45.00 18-Jul-21:  Drill End Time 
 DRST.      15.00.00 16-Jul-21:  Drill Start Tim 
 DTIM.hr                 23.46:  Time Drilling 
 EDEP.m                4603.00:  End Depth 
 ENG1.       Seymur Iskandarov:  Engineer 1 
 ENG2.         Yevgeniy Ulikov:  Engineer 2 
 ENG3.         Bahruz Mehdiyev:  Engineer 3 
 ENG4.         Elchin Mammadov:  Engineer 4 
 ETIM.      14.00.00 23-Jul-21:  End Time 
 FLOI.gpm               500.00:  Flow In 
 FLON.gpm               450.00:  Flow In Min 
 FLOS.cptm                0.00:  Fluid Loss 
 FLOX.gpm               560.00:  Flow In Max 
 DFT .        Mineral Oil Base:  Mud Type 
 FTRO.       Formation Presure:  FTWD Run Obj 
 HFLO.                      No:  High Flow 
 HPRE.                      No:  High Pressure 
 HTEM.                      No:  High Temp 
 HYDO.m                   1.80:  Hydro Offset 
 IFIN.deg                40.22:  Inc, Final 
 IMAX.deg                40.54:  Inc Max 
 IMIN.deg                39.44:  Inc Min 
 IMND.m                4361.17:  Inc Min Depth 
 IMXD.m                4417.92:  Inc Max Depth 
 JARR.                      No:  Jarring 
 LETM.      07.45.00 18-Jul-21:  Log End Time 
 LOST.hr                    16:  Lost Rig Time 
 LSTM.      15.00.00 16-Jul-21:  Log Start Time 
 MDCL.ppm             36500.00:  Mud Chlorides 
 MDES.     Inversion Oil/Synthetic:  Mud Desc 
 DFD .sg                  1.42:  Mud Density 
 MDMN.sg                  1.42:  Dens Mud Min 
 MDMX.sg                  1.43:  Dens Mud Max 
 MOIL.                      56:  Run Mud Oil % 
 MOWR.                   71:29:  Run Mud OWR 
 MSND.                     0.5:  Run Mud Sand % 
 MSOL.                      21:  Run Mud Solids% 
 DFV .spqt               78.00:  Mud Viscosity 
 MWOD.in                  6.75:  MWD Tool OD 
 MWSI.                     Yes:  Serv Intrp, MWD 
 OTIM.hr                200.73:  Time Operating 
 PCON.           Look Like New:  Pad Condition 
 PMAX.psia            11069.93:  Press Op, Max 
 PV  .cP                 32.00:  Mud PV 
 RUN .                     700:  Run Number 
 ROPA.m/hr               10.00:  ROP Avg 
 ROPN.m/hr                9.00:  ROP Min 
 ROPX.m/hr               16.00:  ROP Max 
 RPMA.rpm               116.00:  RPM Surface Avg 
 RPMN.rpm                80.00:  RPM Surface Min 
 RPMX.rpm               120.00:  RPM Surface Max 
 RRUN.                    L605:  Rig Run Number 
 RTIM.hr                 45.00:  Time Reaming 
 SAZI.deg               159.86:  Azm, Start 
 SDEP.m                4315.00:  Start Depth 
 SIDD.                      No:  Serv Intrp, DD 
 SINC.deg                39.86:  Inc, Start 
 SPPA.psig             3300.00:  SPP Avg 
 SPPN.psig             3040.00:  SPP Min 
 SPPX.psig             3645.00:  SPP Max 
 STIM.      01.00.00 15-Jul-21:  Start Time 
 SVCS.                 DD, MWD:  Services 
 SVER.                    9.20:  Sperry Version 
 TDAT.m                 288.00:  Tot Depth Attmp 
 TDDF.                      No:  Trip for DD 
 TDLG.m                 288.00:  Tot Depth Loggd 
 TFF .                      No:  Trip for Fail 
 TQAA.f-kp               19.00:  Torque Abs Avg 
 TQAN.f-kp               18.00:  Torque Abs Min 
 TQAX.f-kp               21.00:  Torque Abs Max 
 TRRT.°/30m               0.45:  Turn Rotating 
 MRT .                    HCIM:  Maximum Recorded Temperature 
 TTMX.degC               88.24:  Max Tool Temp 
 VS01.                90649157:  Virtual Str1 SN 
 VS02.                90652483:  Virtual Str2 SN 
 VS03.                11671987:  Virtual Str3 SN 
 VS04.                90643411:  Virtual Str4 SN 
 VS05.                90652478:  Virtual Str5 SN 
 VS06.                    6111:  Virtual Str6 SN 
 WBMN.klb                 9.50:  WOB Min 
 WITN.        Grigoriy Sarayev:  Customer Rep 
 WITN.          Rufat Huseynov:  Customer Rep 2 
 WOBA.klb                11.00:  WOB Avg 
 WOBX.klb                15.00:  WOB Max 
 YP  .lhf2               28.00:  Yield Point 
~Curve Information Block
#MNEM.UNIT                 API CODE     Curve Description
#---------               -----------    ---------------------------
 TIME.HHMMSS            00 000 000 000:  GT Time & Date
 GTDEPTH.m              00 000 000 000:  GT Depth
 GTPQH.psia             00 000 000 000:  GT HR Quartz Pressure
 GTTQ.degC              00 000 000 000:  GT Quartz Temperature
 GTTN.NONE              00 000 000 000:  GT Test Number
 GTET.sec               00 000 000 000:  GT Elapsed Test Time
 GTTVD.m                00 000 000 000:  GT True Vertical Depth
#Other Information
#
#WARRANTY: Halliburton will use its best efforts to furnish customers with 
#accurate information and interpretations that are part of, and incident to, the services 
#provided.  However, Halliburton cannot and does not warrant the accuracy 
#or correctness of such information and interpretations.  Under no circumstances should any 
#such information or interpretation be relied upon as the sole basis for any drilling, 
#completion, production, or financial decision or any procedure involving any risk to the 
#safety of any drilling venture, drilling rig or its crew or any other third party.  The 
#Customer has full responsibility for all drilling, completion and production operation.  
#Halliburton makes no representations or warranties, either expressed or 
#implied, including, but not limited to, the implied warranties of merchantability or fitness 
#for a particular purpose, with respect to the services rendered.  In no event will 
#Halliburton be liable for failure to obtain any particular results or for 
#any damages, including, but not limited to, indirect, special or consequential damages, 
#resulting from the use of any information or interpretation provided by Halliburton.
#
~A           TIME           GTDEPTH  GTPQH  GTTQ  GTTN  GTET   GTTVD  
# ...
   18:03:05.089.18-Jul-2021 4487.50 5850.99 73.22 7.00 207.08 2690.71
   18:03:05.289.18-Jul-2021 4487.50 5850.99 73.22 7.00 207.28 2690.71
   18:03:05.489.18-Jul-2021 4487.50 5849.03 73.22 7.00 207.48 2690.71
   18:03:05.689.18-Jul-2021 4487.50 5851.16 73.22 7.00 207.68 2690.71
   18:03:05.890.18-Jul-2021 4487.50 5850.59 73.22 7.00 207.88 2690.71
   18:03:06.090.18-Jul-2021 4487.50 5850.81 73.22 7.00 208.08 2690.71
   18:03:06.290.18-Jul-2021 4487.50 5850.81 73.22 7.00 208.28 2690.71
   18:03:06.490.18-Jul-2021 4487.50 5849.45 73.22 7.00 208.48 2690.71
   18:03:06.690.18-Jul-2021 4487.50 5850.12 73.22 7.00 208.68 2690.71
   18:03:06.890.18-Jul-2021 4487.50 5850.38 73.22 7.00 208.88 2690.71
   18:03:07.090.18-Jul-2021 4487.50 5850.92 73.22 7.00 209.08 2690.71
   18:03:07.290.18-Jul-2021 4487.50 5850.92 73.22 7.00 209.28 2690.71
   18:03:07.490.18-Jul-2021 4487.50 5850.46 73.22 7.00 209.48 2690.71
   18:03:07.690.18-Jul-2021 4487.50 5850.47 73.22 7.00 209.68 2690.71
   18:03:07.890.18-Jul-2021 4487.50 5850.47 73.22 7.00 209.88 2690.71
   18:03:08.090.18-Jul-2021 4487.50 5850.33 73.22 7.00 210.08 2690.71
   18:03:08.290.18-Jul-2021 4487.50 5850.33 73.22 7.00 210.28 2690.71
   18:03:08.490.18-Jul-2021 4487.50 5850.37 73.22 7.00 210.48 2690.71
   18:03:08.691.18-Jul-2021 4487.50 5850.15 73.22 7.00 210.68 2690.71
   18:03:08.891.18-Jul-2021 4487.50 5850.13 73.22 7.00 210.88 2690.71
   18:03:09.091.18-Jul-2021 4487.50 5850.22 73.22 7.00 211.08 2690.71
   18:03:09.291.18-Jul-2021 4487.50 5850.22 73.22 7.00 211.28 2690.71
   18:03:09.491.18-Jul-2021 4487.50 5849.84 73.22 7.00 211.48 2690.71
   18:03:09.691.18-Jul-2021 4487.50 5849.97 73.22 7.00 211.68 2690.71
   18:03:09.891.18-Jul-2021 4487.50 5850.44 73.22 7.00 211.88 2690.71
   18:03:10.091.18-Jul-2021 4487.50 5850.09 73.22 7.00 212.08 2690.71
   18:03:10.291.18-Jul-2021 4487.50 5850.09 73.22 7.00 212.28 2690.71
   18:03:10.491.18-Jul-2021 4487.50 5850.01 73.22 7.00 212.48 2690.71
   18:03:10.691.18-Jul-2021 4487.50 5850.02 73.22 7.00 212.68 2690.71
   18:03:10.891.18-Jul-2021 4487.50 5850.08 73.22 7.00 212.88 2690.71
   18:03:11.091.18-Jul-2021 4487.50 5850.02 73.22 7.00 213.08 2690.71
   18:03:11.292.18-Jul-2021 4487.50 5850.02 73.22 7.00 213.28 2690.71
   18:03:11.492.18-Jul-2021 4487.50 5849.89 73.22 7.00 213.48 2690.71
   18:03:11.692.18-Jul-2021 4487.50 5849.91 73.22 7.00 213.68 2690.71
   18:03:11.892.18-Jul-2021 4487.50 5848.50 73.22 7.00 213.88 2690.71
   18:03:12.092.18-Jul-2021 4487.50 5849.38 73.22 7.00 214.08 2690.71
   18:03:12.292.18-Jul-2021 4487.50 5849.38 73.22 7.00 214.28 2690.71
   18:03:12.492.18-Jul-2021 4487.50 5849.98 73.22 7.00 214.48 2690.71
   18:03:12.692.18-Jul-2021 4487.50 5850.44 73.22 7.00 214.68 2690.71
   18:03:12.892.18-Jul-2021 4487.50 5849.87 73.22 7.00 214.88 2690.71
   18:03:13.092.18-Jul-2021 4487.50 5850.18 73.22 7.00 215.08 2690.71
   18:03:13.292.18-Jul-2021 4487.50 5850.18 73.22 7.00 215.28 2690.71
   18:03:13.492.18-Jul-2021 4487.50 5848.93 73.22 7.00 215.48 2690.71
   18:03:13.692.18-Jul-2021 4487.50 5849.68 73.22 7.00 215.68 2690.71
   18:03:13.892.18-Jul-2021 4487.50 5849.78 73.22 7.00 215.88 2690.71
   18:03:14.093.18-Jul-2021 4487.50 5850.11 73.22 7.00 216.08 2690.71
   18:03:14.293.18-Jul-2021 4487.50 5850.11 73.22 7.00 216.28 2690.71
   18:03:14.493.18-Jul-2021 4487.50 5848.79 73.22 7.00 216.48 2690.71
   18:03:14.693.18-Jul-2021 4487.50 5849.58 73.22 7.00 216.68 2690.71
   18:03:14.893.18-Jul-2021 4487.50 5849.43 73.22 7.00 216.88 2690.71
   18:03:15.093.18-Jul-2021 4487.50 5849.84 73.22 7.00 217.08 2690.71
   18:03:15.293.18-Jul-2021 4487.50 5849.84 73.22 7.00 217.28 2690.71
   18:03:15.493.18-Jul-2021 4487.50 5849.44 73.22 7.00 217.48 2690.71
   18:03:15.693.18-Jul-2021 4487.50 5849.85 73.22 7.00 217.68 2690.71
   18:03:15.893.18-Jul-2021 4487.50 5849.60 73.22 7.00 217.88 2690.71
   18:03:16.093.18-Jul-2021 4487.50 5849.49 73.22 7.00 218.08 2690.71
   18:03:16.293.18-Jul-2021 4487.50 5849.49 73.22 7.00 218.28 2690.71
   18:03:16.493.18-Jul-2021 4487.50 5849.47 73.22 7.00 218.48 2690.71
   18:03:16.693.18-Jul-2021 4487.50 5849.51 73.22 7.00 218.68 2690.71
   18:03:16.894.18-Jul-2021 4487.50 5849.50 73.22 7.00 218.88 2690.71
   18:03:17.094.18-Jul-2021 4487.50 5849.53 73.22 7.00 219.08 2690.71
   18:03:17.294.18-Jul-2021 4487.50 5849.53 73.22 7.00 219.28 2690.71
   18:03:17.494.18-Jul-2021 4487.50 5849.58 73.22 7.00 219.48 2690.71
   18:03:17.694.18-Jul-2021 4487.50 5849.38 73.22 7.00 219.68 2690.71
   18:03:17.894.18-Jul-2021 4487.50 5849.31 73.22 7.00 219.88 2690.71
   18:03:18.094.18-Jul-2021 4487.50 5848.12 73.22 7.00 220.08 2690.71
   18:03:18.294.18-Jul-2021 4487.50 5848.12 73.22 7.00 220.28 2690.71
   18:03:18.494.18-Jul-2021 4487.50 5849.80 73.22 7.00 220.48 2690.71
   18:03:18.694.18-Jul-2021 4487.50 5849.58 73.22 7.00 220.68 2690.71
   18:03:18.894.18-Jul-2021 4487.50 5849.44 73.22 7.00 220.88 2690.71
   18:03:19.094.18-Jul-2021 4487.50 5849.45 73.22 7.00 221.08 2690.71
   18:03:19.294.18-Jul-2021 4487.50 5849.45 73.22 7.00 221.28 2690.71
   18:03:19.495.18-Jul-2021 4487.50 5849.29 73.22 7.00 221.48 2690.71
   18:03:19.695.18-Jul-2021 4487.50 5849.26 73.22 7.00 221.68 2690.71
   18:03:19.895.18-Jul-2021 4487.50 5849.26 73.22 7.00 221.88 2690.71
   18:03:20.095.18-Jul-2021 4487.50 5849.27 73.22 7.00 222.08 2690.71
   18:03:20.295.18-Jul-2021 4487.50 5849.27 73.22 7.00 222.28 2690.71
   18:03:20.495.18-Jul-2021 4487.50 5849.08 73.22 7.00 222.48 2690.71
   18:03:20.695.18-Jul-2021 4487.50 5849.11 73.22 7.00 222.68 2690.71
   18:03:20.895.18-Jul-2021 4487.50 5847.49 73.22 7.00 222.88 2690.71
   18:03:21.095.18-Jul-2021 4487.50 5848.74 73.22 7.00 223.08 2690.71
   18:03:21.295.18-Jul-2021 4487.50 5848.74 73.22 7.00 223.28 2690.71
   18:03:21.495.18-Jul-2021 4487.50 5848.82 73.22 7.00 223.48 2690.71
   18:03:21.695.18-Jul-2021 4487.50 5849.04 73.22 7.00 223.68 2690.71
   18:03:21.895.18-Jul-2021 4487.50 5849.00 73.22 7.00 223.88 2690.71
   18:03:22.095.18-Jul-2021 4487.50 5848.69 73.22 7.00 224.08 2690.71
   18:03:22.296.18-Jul-2021 4487.50 5848.69 73.22 7.00 224.28 2690.71
   18:03:22.496.18-Jul-2021 4487.50 5848.39 73.22 7.00 224.48 2690.71
   18:03:22.696.18-Jul-2021 4487.50 5848.92 73.22 7.00 224.68 2690.71
   18:03:22.896.18-Jul-2021 4487.50 5848.57 73.22 7.00 224.88 2690.71
   18:03:23.096.18-Jul-2021 4487.50 5848.27 73.22 7.00 225.08 2690.71
   18:03:23.296.18-Jul-2021 4487.50 5848.27 73.22 7.00 225.28 2690.71
   18:03:23.496.18-Jul-2021 4487.50 5848.10 73.22 7.00 225.48 2690.71
   18:03:23.696.18-Jul-2021 4487.50 5848.49 73.22 7.00 225.68 2690.71
   18:03:23.896.18-Jul-2021 4487.50 5848.15 73.22 7.00 225.88 2690.71
   18:03:24.096.18-Jul-2021 4487.50 5848.01 73.22 7.00 226.08 2690.71
   18:03:24.296.18-Jul-2021 4487.50 5848.01 73.22 7.00 226.28 2690.71
   18:03:24.496.18-Jul-2021 4487.50 5848.25 73.22 7.00 226.48 2690.71
   18:03:24.696.18-Jul-2021 4487.50 5848.00 73.22 7.00 226.68 2690.71
   18:03:24.897.18-Jul-2021 4487.50 5848.38 73.22 7.00 226.88 2690.71
   18:03:25.097.18-Jul-2021 4487.50 5848.14 73.22 7.00 227.08 2690.71
   18:03:25.297.18-Jul-2021 4487.50 5848.14 73.22 7.00 227.28 2690.71
   18:03:25.497.18-Jul-2021 4487.50 5848.19 73.22 7.00 227.48 2690.71
   18:03:25.697.18-Jul-2021 4487.50 5848.12 73.22 7.00 227.68 2690.71
   18:03:25.897.18-Jul-2021 4487.50 5848.10 73.22 7.00 227.88 2690.71
   18:03:26.097.18-Jul-2021 4487.50 5848.19 73.22 7.00 228.08 2690.71
   18:03:26.297.18-Jul-2021 4487.50 5848.19 73.22 7.00 228.28 2690.71
   18:03:26.497.18-Jul-2021 4487.50 5848.08 73.22 7.00 228.48 2690.71
   18:03:26.697.18-Jul-2021 4487.50 5847.91 73.22 7.00 228.68 2690.71
   18:03:26.897.18-Jul-2021 4487.50 5847.88 73.22 7.00 228.88 2690.71
   18:03:27.097.18-Jul-2021 4487.50 5846.65 73.22 7.00 229.08 2690.71
   18:03:27.297.18-Jul-2021 4487.50 5846.65 73.22 7.00 229.28 2690.71
   18:03:27.497.18-Jul-2021 4487.50 5847.91 73.22 7.00 229.48 2690.71
   18:03:27.698.18-Jul-2021 4487.50 5848.37 73.22 7.00 229.68 2690.71
   18:03:27.898.18-Jul-2021 4487.50 5848.02 73.22 7.00 229.88 2690.71
