~Version Information
 VERS.                  2.0:   CWLS log ASCII Standard -VERSION 2.0
 WRAP.                   NO:   One line per depth step
~Well Information Block
#MNEM.UNIT     VALUE/NAME     DESCRIPTION
#---------     -----------    ---------------------------
 STRT.S             05:46:28 19-Jul-21: START TIME 05:46:28 19-Jul-21
 STOP.S             05:53:09 19-Jul-21: STOP TIME  05:53:09 19-Jul-21
 STEP.S                   0.00: STEP TIME
 NULL.                 -999.25: NULL VALUE
 MDS .        Operator Entered:  MAG DATA SOURCE
 PDAT.          Mean Sea Level:  PERMANENT DATUM
 UNIT.                     N/A:  LOGGING EQUIPMENT ID
 DCON.         Sperry Drilling:  DIRECTNL CONTR
 DOE .                     N/A:  DOE NUMBER
 RIG .              West Azeri:  RIG NAME
 JOBN.        AZ-XX-0906997913:  JOB TICKET NUMB
 WELL.                     C41:  WELL NAME
 MWDS.                    Baku:  MWD SHOP
 SRVC.          Turan Drilling:  CONTRACTOR
 FLD .                     ACG:  FIELD NAME
 CTRY.              Azerbaijan:  COUNTRY NAME
 PROV.                    Baku:  PROVINCE
 STAT.                    Baku:  STATE NAME
 REGN.                   EESSA:  REGION
 BASE.              Azerbaijan:  LOGGING EQUIPMENT BASE LOCATION
 UWI .                     N/A:  UNIQUE WELL IDENTIFIER
 API .                     N/A:  API NUMBER
 COMP.     BP Exploration (Caspian Sea) Ltd.:  COMPANY
 WTYP.                Deviated:  WELL TYPE
 SON .        AZ-XX-0906997913:  JOB NUMBER
 FTOP.          Formation Tops:  FORM TOPS DESC
 ILTD.               Lithology:  INTERP LTH DESC
 SVYD.                  Survey:  SURVEY DESC
 DMOD.             Drill Model:  DRILL MOD DESC
 HPTY.       Minimum Curvature:  HOLE POS TYPE
 NREF.                    Grid:  NORTH REFERENCE
 SPUD.               16-May-21:  SPUD DATE
 DATE.      21.11.28 17-May-21:  END TIME
 STIM.      21.11.28 17-May-21:  START TIME
 DMF .             Drill Floor:  DRILL MEAS FROM
 DFST.                        :  DIST FSL TEXT
 DFWT.                        :  DIST FWL TEXT
 CNTY.                        :  COUNTY
 LOC .                        :  LOCATION
 LMF .             Drill Floor:  LOG MEASURED FROM
 AGAP.m                  43.42:  AIR GAP
 VSNS.m                  -2.16:  VERT SEC N/S
 VSEW.m                  -6.24:  VERT SEC E/W
 APD .m                  43.42:  DEPTH ABOVE PD
 WDMS.m                 118.27:  WD ELEV
 EGL .m                   0.00:  GROUND ELEVATION
 EPD .m                   0.00:  ELEVATION
 AZTC.deg                 6.29:  AZM TOTAL CORR
 GRDC.deg                 0.18:  GRID CORRECTION
 MDEC.deg                 6.47:  MAGNETIC DECL
 MDIP.deg                59.54:  MAGNETIC DIP
 MFLD.nT              50337.00:  MAGNETIC FIELD
 GVFD.g                   1.00:  GRAVITY FIELD
 VSDR.deg               226.99:  VERT SEC DIRECT
 TDD .m                   0.00:  TOTAL DEPTH (DRILLER)
 SDEP.m                 448.00:  START DEPTH
 DFSL.m                   0.00:  DISTANCE FSL
 DFWL.m                   0.00:  DISTANCE FWL
 UTMY.m             4435799.96:  UTM Y
 UTMX.m              526265.35:  UTM X
 WHEW.m                  -6.24:  WELL HEAD E/W
 WHNS.m                  -2.16:  WELL HEAD N/S
 LONG.deg                51.31:  LONGITUDE
 LATI.deg                40.06:  LATITUDE
 TVDS.m                  43.42:  TVDSS CORRECTN
 EKB .m                  43.42:  KB ELEVATION
 EDF .m                  43.42:  DF ELEVATION
 TDL .m                 288.00:  TOTAL DEPTH (LOGGER)
 MAGU.                 1851863:  MAGUTM CHECKSUM
 VSC .                       0:  VS TO CLOSURE
~Parameter Information Block
#MNEM.UNIT       Value        Description
#---------     -----------    ---------------------------
 AV  .mps                 0.40:  Ann Velocity 
 AVMX.mps                 0.63:  Max Ann Veloc 
 AZIF.deg               158.76:  Azm, Final 
 BHAT.        Rotary Steerable:  BHA Type 
 BROT.°/30m               0.68:  Build Rotating 
 BS  .in                  8.50:  Bit Size 
 BSZ .in                  8.50:  Bit Size 
 BTPL.psig              712.00:  Bit Press Loss 
 CABU.                      No:  Customer Abuse 
 COMM.                     l%v:  Run Comments 1 
 TCS .hr                 90.66:  Time Ciculation Ended 
 CV  .mps                 2.02:  Crit Velocity 
 CVMX.mps                 2.14:  Max Crit Veloc 
 DD1 .            Aziz Aliyevu:  Direct Drillr 1 
 DD2 .             Samir Abbas:  Direct Drillr 2 
 DD3 .           Teymur Aliyev:  Direct Drillr 3 
 DDSV.                 iCruise:  DD Service 
 DEFF.%                  85.10:  % Det Eff 
 DLRX.°/30m               1.05:  Dogleg Rot Max 
 DLSO.°/30m               1.01:  Dogleg Oriented 
 DLSX.°/30m               1.05:  Dogleg Str Max 
 DRET.      07.45.00 18-Jul-21:  Drill End Time 
 DRST.      15.00.00 16-Jul-21:  Drill Start Tim 
 DTIM.hr                 23.46:  Time Drilling 
 EDEP.m                4603.00:  End Depth 
 ENG1.       Seymur Iskandarov:  Engineer 1 
 ENG2.         Yevgeniy Ulikov:  Engineer 2 
 ENG3.         Bahruz Mehdiyev:  Engineer 3 
 ENG4.         Elchin Mammadov:  Engineer 4 
 ETIM.      14.00.00 23-Jul-21:  End Time 
 FLOI.gpm               500.00:  Flow In 
 FLON.gpm               450.00:  Flow In Min 
 FLOS.cptm                0.00:  Fluid Loss 
 FLOX.gpm               560.00:  Flow In Max 
 DFT .        Mineral Oil Base:  Mud Type 
 FTRO.       Formation Presure:  FTWD Run Obj 
 HFLO.                      No:  High Flow 
 HPRE.                      No:  High Pressure 
 HTEM.                      No:  High Temp 
 HYDO.m                   1.80:  Hydro Offset 
 IFIN.deg                40.22:  Inc, Final 
 IMAX.deg                40.54:  Inc Max 
 IMIN.deg                39.44:  Inc Min 
 IMND.m                4361.17:  Inc Min Depth 
 IMXD.m                4417.92:  Inc Max Depth 
 JARR.                      No:  Jarring 
 LETM.      07.45.00 18-Jul-21:  Log End Time 
 LOST.hr                    16:  Lost Rig Time 
 LSTM.      15.00.00 16-Jul-21:  Log Start Time 
 MDCL.ppm             36500.00:  Mud Chlorides 
 MDES.     Inversion Oil/Synthetic:  Mud Desc 
 DFD .sg                  1.42:  Mud Density 
 MDMN.sg                  1.42:  Dens Mud Min 
 MDMX.sg                  1.43:  Dens Mud Max 
 MOIL.                      56:  Run Mud Oil % 
 MOWR.                   71:29:  Run Mud OWR 
 MSND.                     0.5:  Run Mud Sand % 
 MSOL.                      21:  Run Mud Solids% 
 DFV .spqt               78.00:  Mud Viscosity 
 MWOD.in                  6.75:  MWD Tool OD 
 MWSI.                     Yes:  Serv Intrp, MWD 
 OTIM.hr                200.73:  Time Operating 
 PCON.           Look Like New:  Pad Condition 
 PMAX.psia            11069.93:  Press Op, Max 
 PV  .cP                 32.00:  Mud PV 
 RUN .                     700:  Run Number 
 ROPA.m/hr               10.00:  ROP Avg 
 ROPN.m/hr                9.00:  ROP Min 
 ROPX.m/hr               16.00:  ROP Max 
 RPMA.rpm               116.00:  RPM Surface Avg 
 RPMN.rpm                80.00:  RPM Surface Min 
 RPMX.rpm               120.00:  RPM Surface Max 
 RRUN.                    L605:  Rig Run Number 
 RTIM.hr                 45.00:  Time Reaming 
 SAZI.deg               159.86:  Azm, Start 
 SDEP.m                4315.00:  Start Depth 
 SIDD.                      No:  Serv Intrp, DD 
 SINC.deg                39.86:  Inc, Start 
 SPPA.psig             3300.00:  SPP Avg 
 SPPN.psig             3040.00:  SPP Min 
 SPPX.psig             3645.00:  SPP Max 
 STIM.      01.00.00 15-Jul-21:  Start Time 
 SVCS.                 DD, MWD:  Services 
 SVER.                    9.20:  Sperry Version 
 TDAT.m                 288.00:  Tot Depth Attmp 
 TDDF.                      No:  Trip for DD 
 TDLG.m                 288.00:  Tot Depth Loggd 
 TFF .                      No:  Trip for Fail 
 TQAA.f-kp               19.00:  Torque Abs Avg 
 TQAN.f-kp               18.00:  Torque Abs Min 
 TQAX.f-kp               21.00:  Torque Abs Max 
 TRRT.°/30m               0.45:  Turn Rotating 
 MRT .                    HCIM:  Maximum Recorded Temperature 
 TTMX.degC               88.24:  Max Tool Temp 
 VS01.                90649157:  Virtual Str1 SN 
 VS02.                90652483:  Virtual Str2 SN 
 VS03.                11671987:  Virtual Str3 SN 
 VS04.                90643411:  Virtual Str4 SN 
 VS05.                90652478:  Virtual Str5 SN 
 VS06.                    6111:  Virtual Str6 SN 
 WBMN.klb                 9.50:  WOB Min 
 WITN.        Grigoriy Sarayev:  Customer Rep 
 WITN.          Rufat Huseynov:  Customer Rep 2 
 WOBA.klb                11.00:  WOB Avg 
 WOBX.klb                15.00:  WOB Max 
 YP  .lhf2               28.00:  Yield Point 
~Curve Information Block
#MNEM.UNIT                 API CODE     Curve Description
#---------               -----------    ---------------------------
 TIME.HHMMSS            00 000 000 000:  GT Time & Date
 GTDEPTH.m              00 000 000 000:  GT Depth
 GTPQH.psia             00 000 000 000:  GT HR Quartz Pressure
 GTTQ.degC              00 000 000 000:  GT Quartz Temperature
 GTTN.NONE              00 000 000 000:  GT Test Number
 GTET.sec               00 000 000 000:  GT Elapsed Test Time
 GTTVD.m                00 000 000 000:  GT True Vertical Depth
#Other Information
#
#WARRANTY: Halliburton will use its best efforts to furnish customers with 
#accurate information and interpretations that are part of, and incident to, the services 
#provided.  However, Halliburton cannot and does not warrant the accuracy 
#or correctness of such information and interpretations.  Under no circumstances should any 
#such information or interpretation be relied upon as the sole basis for any drilling, 
#completion, production, or financial decision or any procedure involving any risk to the 
#safety of any drilling venture, drilling rig or its crew or any other third party.  The 
#Customer has full responsibility for all drilling, completion and production operation.  
#Halliburton makes no representations or warranties, either expressed or 
#implied, including, but not limited to, the implied warranties of merchantability or fitness 
#for a particular purpose, with respect to the services rendered.  In no event will 
#Halliburton be liable for failure to obtain any particular results or for 
#any damages, including, but not limited to, indirect, special or consequential damages, 
#resulting from the use of any information or interpretation provided by Halliburton.
#
~A           TIME           GTDEPTH  GTPQH  GTTQ  GTTN   GTET   GTTVD  
# ...
   05:48:44.279.19-Jul-2021 4380.50 4202.62 69.34 13.00 135.65 2608.98
   05:48:44.479.19-Jul-2021 4380.50 4202.92 69.34 13.00 135.85 2608.98
   05:48:44.679.19-Jul-2021 4380.50 4203.23 69.34 13.00 136.05 2608.98
   05:48:44.879.19-Jul-2021 4380.50 4203.23 69.34 13.00 136.25 2608.98
   05:48:45.079.19-Jul-2021 4380.50 4203.35 69.34 13.00 136.45 2608.98
   05:48:45.279.19-Jul-2021 4380.50 4203.58 69.34 13.00 136.65 2608.98
   05:48:45.479.19-Jul-2021 4380.50 4203.79 69.34 13.00 136.85 2608.98
   05:48:45.679.19-Jul-2021 4380.50 4203.88 69.34 13.00 137.05 2608.98
   05:48:45.880.19-Jul-2021 4380.50 4203.88 69.34 13.00 137.25 2608.98
   05:48:46.080.19-Jul-2021 4380.50 4204.24 69.34 13.00 137.45 2608.98
   05:48:46.280.19-Jul-2021 4380.50 4204.33 69.34 13.00 137.65 2608.98
   05:48:46.480.19-Jul-2021 4380.50 4204.43 69.34 13.00 137.85 2608.98
   05:48:46.680.19-Jul-2021 4380.50 4203.92 69.34 13.00 138.05 2608.98
   05:48:46.880.19-Jul-2021 4380.50 4203.92 69.34 13.00 138.25 2608.98
   05:48:47.080.19-Jul-2021 4380.50 4203.41 69.34 13.00 138.45 2608.98
   05:48:47.280.19-Jul-2021 4380.50 4202.46 69.34 13.00 138.65 2608.98
   05:48:47.480.19-Jul-2021 4380.50 4202.33 69.34 13.00 138.85 2608.98
   05:48:47.680.19-Jul-2021 4380.50 4201.98 69.34 13.00 139.05 2608.98
   05:48:47.880.19-Jul-2021 4380.50 4201.98 69.34 13.00 139.25 2608.98
   05:48:48.080.19-Jul-2021 4380.50 4200.29 69.34 13.00 139.45 2608.98
   05:48:48.280.19-Jul-2021 4380.50 4201.76 69.34 13.00 139.65 2608.98
   05:48:48.480.19-Jul-2021 4380.50 4201.56 69.34 13.00 139.85 2608.98
   05:48:48.681.19-Jul-2021 4380.50 4202.03 69.34 13.00 140.05 2608.98
   05:48:48.881.19-Jul-2021 4380.50 4202.03 69.34 13.00 140.25 2608.98
   05:48:49.081.19-Jul-2021 4380.50 4200.84 69.34 13.00 140.45 2608.98
   05:48:49.281.19-Jul-2021 4380.50 4201.24 69.34 13.00 140.65 2608.98
   05:48:49.481.19-Jul-2021 4380.50 4201.94 69.34 13.00 140.85 2608.98
   05:48:49.681.19-Jul-2021 4380.50 4199.67 69.34 13.00 141.05 2608.98
   05:48:49.881.19-Jul-2021 4380.50 4199.67 69.34 13.00 141.25 2608.98
   05:48:50.081.19-Jul-2021 4380.50 4200.77 69.34 13.00 141.45 2608.98
   05:48:50.281.19-Jul-2021 4380.50 4201.80 69.34 13.00 141.65 2608.98
   05:48:50.481.19-Jul-2021 4380.50 4201.84 69.34 13.00 141.85 2608.98
   05:48:50.681.19-Jul-2021 4380.50 4202.30 69.34 13.00 142.05 2608.98
   05:48:50.881.19-Jul-2021 4380.50 4202.30 69.34 13.00 142.25 2608.98
   05:48:51.081.19-Jul-2021 4380.50 4203.02 69.34 13.00 142.45 2608.98
   05:48:51.282.19-Jul-2021 4380.50 4203.31 69.34 13.00 142.65 2608.98
   05:48:51.482.19-Jul-2021 4380.50 4203.62 69.34 13.00 142.85 2608.98
   05:48:51.682.19-Jul-2021 4380.50 4203.60 69.34 13.00 143.05 2608.98
   05:48:51.882.19-Jul-2021 4380.50 4203.60 69.34 13.00 143.25 2608.98
   05:48:52.082.19-Jul-2021 4380.50 4203.56 69.34 13.00 143.45 2608.98
   05:48:52.282.19-Jul-2021 4380.50 4203.52 69.34 13.00 143.65 2608.98
   05:48:52.482.19-Jul-2021 4380.50 4199.47 69.34 13.00 143.85 2608.98
   05:48:52.682.19-Jul-2021 4380.50 4199.91 69.34 13.00 144.05 2608.98
   05:48:52.882.19-Jul-2021 4380.50 4199.91 69.34 13.00 144.25 2608.98
   05:48:53.082.19-Jul-2021 4380.50 4201.22 69.34 13.00 144.45 2608.98
   05:48:53.282.19-Jul-2021 4380.50 4201.38 69.34 13.00 144.65 2608.98
   05:48:53.482.19-Jul-2021 4380.50 4201.93 69.34 13.00 144.85 2608.98
   05:48:53.682.19-Jul-2021 4380.50 4202.39 69.34 13.00 145.05 2608.98
   05:48:53.882.19-Jul-2021 4380.50 4202.39 69.34 13.00 145.25 2608.98
   05:48:54.083.19-Jul-2021 4380.50 4203.24 69.34 13.00 145.45 2608.98
   05:48:54.283.19-Jul-2021 4380.50 4203.54 69.34 13.00 145.65 2608.98
   05:48:54.483.19-Jul-2021 4380.50 4203.99 69.34 13.00 145.85 2608.98
   05:48:54.683.19-Jul-2021 4380.50 4204.41 69.34 13.00 146.05 2608.98
   05:48:54.883.19-Jul-2021 4380.50 4204.41 69.34 13.00 146.25 2608.98
   05:48:55.083.19-Jul-2021 4380.50 3369.87 69.34 13.00 146.45 2608.98
   05:48:55.283.19-Jul-2021 4380.50 2670.53 69.34 13.00 146.65 2608.98
   05:48:55.483.19-Jul-2021 4380.50 2128.49 69.34 13.00 146.85 2608.98
   05:48:55.683.19-Jul-2021 4380.50 1857.86 69.34 13.00 147.05 2608.98
   05:48:55.883.19-Jul-2021 4380.50 1857.86 69.34 13.00 147.25 2608.98
   05:48:56.083.19-Jul-2021 4380.50 1402.98 69.33 13.00 147.45 2608.98
   05:48:56.283.19-Jul-2021 4380.50 1219.23 69.33 13.00 147.65 2608.98
   05:48:56.483.19-Jul-2021 4380.50 1102.28 69.33 13.00 147.85 2608.98
   05:48:56.683.19-Jul-2021 4380.50  958.29 69.33 13.00 148.05 2608.98
   05:48:56.884.19-Jul-2021 4380.50  958.29 69.33 13.00 148.25 2608.98
   05:48:57.084.19-Jul-2021 4380.50  851.59 69.33 13.00 148.45 2608.98
   05:48:57.284.19-Jul-2021 4380.50  851.33 69.33 13.00 148.65 2608.98
   05:48:57.484.19-Jul-2021 4380.50  851.03 69.33 13.00 148.85 2608.98
   05:48:57.684.19-Jul-2021 4380.50  832.86 69.32 13.00 149.05 2608.98
   05:48:57.884.19-Jul-2021 4380.50  832.86 69.32 13.00 149.25 2608.98
   05:48:58.084.19-Jul-2021 4380.50  825.37 69.32 13.00 149.46 2608.98
   05:48:58.284.19-Jul-2021 4380.50  816.98 69.32 13.00 149.66 2608.98
   05:48:58.484.19-Jul-2021 4380.50  810.42 69.32 13.00 149.86 2608.98
   05:48:58.684.19-Jul-2021 4380.50  806.64 69.31 13.00 150.06 2608.98
   05:48:58.884.19-Jul-2021 4380.50  806.64 69.31 13.00 150.26 2608.98
   05:48:59.084.19-Jul-2021 4380.50  798.46 69.31 13.00 150.46 2608.98
   05:48:59.284.19-Jul-2021 4380.50  796.28 69.31 13.00 150.66 2608.98
   05:48:59.485.19-Jul-2021 4380.50  801.30 69.31 13.00 150.86 2608.98
   05:48:59.685.19-Jul-2021 4380.50  799.84 69.30 13.00 151.06 2608.98
   05:48:59.885.19-Jul-2021 4380.50  799.84 69.30 13.00 151.26 2608.98
   05:49:00.085.19-Jul-2021 4380.50  799.36 69.30 13.00 151.46 2608.98
   05:49:00.285.19-Jul-2021 4380.50  800.57 69.30 13.00 151.66 2608.98
   05:49:00.485.19-Jul-2021 4380.50  801.65 69.30 13.00 151.86 2608.98
   05:49:00.685.19-Jul-2021 4380.50  822.35 69.29 13.00 152.06 2608.98
   05:49:00.885.19-Jul-2021 4380.50  822.35 69.29 13.00 152.26 2608.98
   05:49:01.085.19-Jul-2021 4380.50  796.21 69.29 13.00 152.46 2608.98
   05:49:01.285.19-Jul-2021 4380.50  795.27 69.29 13.00 152.66 2608.98
   05:49:01.485.19-Jul-2021 4380.50  791.58 69.29 13.00 152.86 2608.98
   05:49:01.685.19-Jul-2021 4380.50  790.95 69.29 13.00 153.06 2608.98
   05:49:01.885.19-Jul-2021 4380.50  790.95 69.29 13.00 153.26 2608.98
   05:49:02.085.19-Jul-2021 4380.50  794.09 69.28 13.00 153.46 2608.98
   05:49:02.286.19-Jul-2021 4380.50  792.64 69.28 13.00 153.66 2608.98
   05:49:02.486.19-Jul-2021 4380.50  794.57 69.28 13.00 153.86 2608.98
   05:49:02.686.19-Jul-2021 4380.50  794.02 69.28 13.00 154.06 2608.98
   05:49:02.886.19-Jul-2021 4380.50  794.02 69.28 13.00 154.26 2608.98
   05:49:03.086.19-Jul-2021 4380.50  796.85 69.27 13.00 154.46 2608.98
   05:49:03.286.19-Jul-2021 4380.50  817.94 69.27 13.00 154.66 2608.98
   05:49:03.486.19-Jul-2021 4380.50  798.34 69.27 13.00 154.86 2608.98
   05:49:03.686.19-Jul-2021 4380.50  802.19 69.27 13.00 155.06 2608.98
   05:49:03.886.19-Jul-2021 4380.50  802.19 69.27 13.00 155.26 2608.98
   05:49:04.086.19-Jul-2021 4380.50  795.68 69.27 13.00 155.46 2608.98
   05:49:04.286.19-Jul-2021 4380.50  794.46 69.27 13.00 155.66 2608.98
   05:49:04.486.19-Jul-2021 4380.50  813.31 69.27 13.00 155.86 2608.98
   05:49:04.686.19-Jul-2021 4380.50  817.10 69.27 13.00 156.06 2608.98
   05:49:04.887.19-Jul-2021 4380.50  817.10 69.27 13.00 156.26 2608.98
   05:49:05.087.19-Jul-2021 4380.50  859.25 69.26 13.00 156.46 2608.98
   05:49:05.287.19-Jul-2021 4380.50  955.59 69.26 13.00 156.66 2608.98
   05:49:05.487.19-Jul-2021 4380.50 1056.66 69.26 13.00 156.86 2608.98
   05:49:05.687.19-Jul-2021 4380.50 1153.56 69.26 13.00 157.06 2608.98
   05:49:05.887.19-Jul-2021 4380.50 1153.56 69.26 13.00 157.26 2608.98
   05:49:06.087.19-Jul-2021 4380.50 1330.84 69.26 13.00 157.46 2608.98
   05:49:06.287.19-Jul-2021 4380.50 1413.33 69.26 13.00 157.66 2608.98
   05:49:06.487.19-Jul-2021 4380.50 1493.21 69.26 13.00 157.86 2608.98
   05:49:06.687.19-Jul-2021 4380.50 1570.77 69.26 13.00 158.06 2608.98
