~Version Information
 VERS.                  2.0:   CWLS log ASCII Standard -VERSION 2.0
 WRAP.                   NO:   One line per depth step
~Well Information Block
#MNEM.UNIT     VALUE/NAME     DESCRIPTION
#---------     -----------    ---------------------------
 STRT.S             14:22:27 18-Jul-21: START TIME 14:22:27 18-Jul-21
 STOP.S             14:29:00 18-Jul-21: STOP TIME  14:29:00 18-Jul-21
 STEP.S                   0.00: STEP TIME
 NULL.                 -999.25: NULL VALUE
 MDS .        Operator Entered:  MAG DATA SOURCE
 PDAT.          Mean Sea Level:  PERMANENT DATUM
 UNIT.                     N/A:  LOGGING EQUIPMENT ID
 DCON.         Sperry Drilling:  DIRECTNL CONTR
 DOE .                     N/A:  DOE NUMBER
 RIG .              West Azeri:  RIG NAME
 JOBN.        AZ-XX-0906997913:  JOB TICKET NUMB
 WELL.                     C41:  WELL NAME
 MWDS.                    Baku:  MWD SHOP
 SRVC.          Turan Drilling:  CONTRACTOR
 FLD .                     ACG:  FIELD NAME
 CTRY.              Azerbaijan:  COUNTRY NAME
 PROV.                    Baku:  PROVINCE
 STAT.                    Baku:  STATE NAME
 REGN.                   EESSA:  REGION
 BASE.              Azerbaijan:  LOGGING EQUIPMENT BASE LOCATION
 UWI .                     N/A:  UNIQUE WELL IDENTIFIER
 API .                     N/A:  API NUMBER
 COMP.     BP Exploration (Caspian Sea) Ltd.:  COMPANY
 WTYP.                Deviated:  WELL TYPE
 SON .        AZ-XX-0906997913:  JOB NUMBER
 FTOP.          Formation Tops:  FORM TOPS DESC
 ILTD.               Lithology:  INTERP LTH DESC
 SVYD.                  Survey:  SURVEY DESC
 DMOD.             Drill Model:  DRILL MOD DESC
 HPTY.       Minimum Curvature:  HOLE POS TYPE
 NREF.                    Grid:  NORTH REFERENCE
 SPUD.               16-May-21:  SPUD DATE
 DATE.      21.11.28 17-May-21:  END TIME
 STIM.      21.11.28 17-May-21:  START TIME
 DMF .             Drill Floor:  DRILL MEAS FROM
 DFST.                        :  DIST FSL TEXT
 DFWT.                        :  DIST FWL TEXT
 CNTY.                        :  COUNTY
 LOC .                        :  LOCATION
 LMF .             Drill Floor:  LOG MEASURED FROM
 AGAP.m                  43.42:  AIR GAP
 VSNS.m                  -2.16:  VERT SEC N/S
 VSEW.m                  -6.24:  VERT SEC E/W
 APD .m                  43.42:  DEPTH ABOVE PD
 WDMS.m                 118.27:  WD ELEV
 EGL .m                   0.00:  GROUND ELEVATION
 EPD .m                   0.00:  ELEVATION
 AZTC.deg                 6.29:  AZM TOTAL CORR
 GRDC.deg                 0.18:  GRID CORRECTION
 MDEC.deg                 6.47:  MAGNETIC DECL
 MDIP.deg                59.54:  MAGNETIC DIP
 MFLD.nT              50337.00:  MAGNETIC FIELD
 GVFD.g                   1.00:  GRAVITY FIELD
 VSDR.deg               226.99:  VERT SEC DIRECT
 TDD .m                   0.00:  TOTAL DEPTH (DRILLER)
 SDEP.m                 448.00:  START DEPTH
 DFSL.m                   0.00:  DISTANCE FSL
 DFWL.m                   0.00:  DISTANCE FWL
 UTMY.m             4435799.96:  UTM Y
 UTMX.m              526265.35:  UTM X
 WHEW.m                  -6.24:  WELL HEAD E/W
 WHNS.m                  -2.16:  WELL HEAD N/S
 LONG.deg                51.31:  LONGITUDE
 LATI.deg                40.06:  LATITUDE
 TVDS.m                  43.42:  TVDSS CORRECTN
 EKB .m                  43.42:  KB ELEVATION
 EDF .m                  43.42:  DF ELEVATION
 TDL .m                 288.00:  TOTAL DEPTH (LOGGER)
 MAGU.                 1851863:  MAGUTM CHECKSUM
 VSC .                       0:  VS TO CLOSURE
~Parameter Information Block
#MNEM.UNIT       Value        Description
#---------     -----------    ---------------------------
 AV  .mps                 0.40:  Ann Velocity 
 AVMX.mps                 0.63:  Max Ann Veloc 
 AZIF.deg               158.76:  Azm, Final 
 BHAT.        Rotary Steerable:  BHA Type 
 BROT.°/30m               0.68:  Build Rotating 
 BS  .in                  8.50:  Bit Size 
 BSZ .in                  8.50:  Bit Size 
 BTPL.psig              712.00:  Bit Press Loss 
 CABU.                      No:  Customer Abuse 
 COMM.                     |«g:  Run Comments 1 
 TCS .hr                 90.66:  Time Ciculation Ended 
 CV  .mps                 2.02:  Crit Velocity 
 CVMX.mps                 2.14:  Max Crit Veloc 
 DD1 .            Aziz Aliyevu:  Direct Drillr 1 
 DD2 .             Samir Abbas:  Direct Drillr 2 
 DD3 .           Teymur Aliyev:  Direct Drillr 3 
 DDSV.                 iCruise:  DD Service 
 DEFF.%                  85.10:  % Det Eff 
 DLRX.°/30m               1.05:  Dogleg Rot Max 
 DLSO.°/30m               1.01:  Dogleg Oriented 
 DLSX.°/30m               1.05:  Dogleg Str Max 
 DRET.      07.45.00 18-Jul-21:  Drill End Time 
 DRST.      15.00.00 16-Jul-21:  Drill Start Tim 
 DTIM.hr                 23.46:  Time Drilling 
 EDEP.m                4603.00:  End Depth 
 ENG1.       Seymur Iskandarov:  Engineer 1 
 ENG2.         Yevgeniy Ulikov:  Engineer 2 
 ENG3.         Bahruz Mehdiyev:  Engineer 3 
 ENG4.         Elchin Mammadov:  Engineer 4 
 ETIM.      14.00.00 23-Jul-21:  End Time 
 FLOI.gpm               500.00:  Flow In 
 FLON.gpm               450.00:  Flow In Min 
 FLOS.cptm                0.00:  Fluid Loss 
 FLOX.gpm               560.00:  Flow In Max 
 DFT .        Mineral Oil Base:  Mud Type 
 FTRO.       Formation Presure:  FTWD Run Obj 
 HFLO.                      No:  High Flow 
 HPRE.                      No:  High Pressure 
 HTEM.                      No:  High Temp 
 HYDO.m                   1.80:  Hydro Offset 
 IFIN.deg                40.22:  Inc, Final 
 IMAX.deg                40.54:  Inc Max 
 IMIN.deg                39.44:  Inc Min 
 IMND.m                4361.17:  Inc Min Depth 
 IMXD.m                4417.92:  Inc Max Depth 
 JARR.                      No:  Jarring 
 LETM.      07.45.00 18-Jul-21:  Log End Time 
 LOST.hr                    16:  Lost Rig Time 
 LSTM.      15.00.00 16-Jul-21:  Log Start Time 
 MDCL.ppm             36500.00:  Mud Chlorides 
 MDES.     Inversion Oil/Synthetic:  Mud Desc 
 DFD .sg                  1.42:  Mud Density 
 MDMN.sg                  1.42:  Dens Mud Min 
 MDMX.sg                  1.43:  Dens Mud Max 
 MOIL.                      56:  Run Mud Oil % 
 MOWR.                   71:29:  Run Mud OWR 
 MSND.                     0.5:  Run Mud Sand % 
 MSOL.                      21:  Run Mud Solids% 
 DFV .spqt               78.00:  Mud Viscosity 
 MWOD.in                  6.75:  MWD Tool OD 
 MWSI.                     Yes:  Serv Intrp, MWD 
 OTIM.hr                200.73:  Time Operating 
 PCON.           Look Like New:  Pad Condition 
 PMAX.psia            11069.93:  Press Op, Max 
 PV  .cP                 32.00:  Mud PV 
 RUN .                     700:  Run Number 
 ROPA.m/hr               10.00:  ROP Avg 
 ROPN.m/hr                9.00:  ROP Min 
 ROPX.m/hr               16.00:  ROP Max 
 RPMA.rpm               116.00:  RPM Surface Avg 
 RPMN.rpm                80.00:  RPM Surface Min 
 RPMX.rpm               120.00:  RPM Surface Max 
 RRUN.                    L605:  Rig Run Number 
 RTIM.hr                 45.00:  Time Reaming 
 SAZI.deg               159.86:  Azm, Start 
 SDEP.m                4315.00:  Start Depth 
 SIDD.                      No:  Serv Intrp, DD 
 SINC.deg                39.86:  Inc, Start 
 SPPA.psig             3300.00:  SPP Avg 
 SPPN.psig             3040.00:  SPP Min 
 SPPX.psig             3645.00:  SPP Max 
 STIM.      01.00.00 15-Jul-21:  Start Time 
 SVCS.                 DD, MWD:  Services 
 SVER.                    9.20:  Sperry Version 
 TDAT.m                 288.00:  Tot Depth Attmp 
 TDDF.                      No:  Trip for DD 
 TDLG.m                 288.00:  Tot Depth Loggd 
 TFF .                      No:  Trip for Fail 
 TQAA.f-kp               19.00:  Torque Abs Avg 
 TQAN.f-kp               18.00:  Torque Abs Min 
 TQAX.f-kp               21.00:  Torque Abs Max 
 TRRT.°/30m               0.45:  Turn Rotating 
 MRT .                    HCIM:  Maximum Recorded Temperature 
 TTMX.degC               88.24:  Max Tool Temp 
 VS01.                90649157:  Virtual Str1 SN 
 VS02.                90652483:  Virtual Str2 SN 
 VS03.                11671987:  Virtual Str3 SN 
 VS04.                90643411:  Virtual Str4 SN 
 VS05.                90652478:  Virtual Str5 SN 
 VS06.                    6111:  Virtual Str6 SN 
 WBMN.klb                 9.50:  WOB Min 
 WITN.        Grigoriy Sarayev:  Customer Rep 
 WITN.          Rufat Huseynov:  Customer Rep 2 
 WOBA.klb                11.00:  WOB Avg 
 WOBX.klb                15.00:  WOB Max 
 YP  .lhf2               28.00:  Yield Point 
~Curve Information Block
#MNEM.UNIT                 API CODE     Curve Description
#---------               -----------    ---------------------------
 TIME.HHMMSS            00 000 000 000:  GT Time & Date
 GTDEPTH.m              00 000 000 000:  GT Depth
 GTPQH.psia             00 000 000 000:  GT HR Quartz Pressure
 GTTQ.degC              00 000 000 000:  GT Quartz Temperature
 GTTN.NONE              00 000 000 000:  GT Test Number
 GTET.sec               00 000 000 000:  GT Elapsed Test Time
 GTTVD.m                00 000 000 000:  GT True Vertical Depth
#Other Information
#
#WARRANTY: Halliburton will use its best efforts to furnish customers with 
#accurate information and interpretations that are part of, and incident to, the services 
#provided.  However, Halliburton cannot and does not warrant the accuracy 
#or correctness of such information and interpretations.  Under no circumstances should any 
#such information or interpretation be relied upon as the sole basis for any drilling, 
#completion, production, or financial decision or any procedure involving any risk to the 
#safety of any drilling venture, drilling rig or its crew or any other third party.  The 
#Customer has full responsibility for all drilling, completion and production operation.  
#Halliburton makes no representations or warranties, either expressed or 
#implied, including, but not limited to, the implied warranties of merchantability or fitness 
#for a particular purpose, with respect to the services rendered.  In no event will 
#Halliburton be liable for failure to obtain any particular results or for 
#any damages, including, but not limited to, indirect, special or consequential damages, 
#resulting from the use of any information or interpretation provided by Halliburton.
#
~A           TIME           GTDEPTH  GTPQH  GTTQ  GTTN  GTET   GTTVD  
# ...
   14:26:40.308.18-Jul-2021 4558.50 6650.14 75.32 4.00 253.09 2745.02
   14:26:40.508.18-Jul-2021 4558.50 6650.14 75.32 4.00 253.29 2745.02
   14:26:40.708.18-Jul-2021 4558.50 6650.98 75.32 4.00 253.49 2745.02
   14:26:40.908.18-Jul-2021 4558.50 6650.50 75.32 4.00 253.69 2745.02
   14:26:41.108.18-Jul-2021 4558.50 6650.31 75.32 4.00 253.89 2745.02
   14:26:41.308.18-Jul-2021 4558.50 6650.40 75.32 4.00 254.09 2745.02
   14:26:41.509.18-Jul-2021 4558.50 6650.40 75.32 4.00 254.29 2745.02
   14:26:41.709.18-Jul-2021 4558.50 6650.24 75.32 4.00 254.49 2745.02
   14:26:41.909.18-Jul-2021 4558.50 6650.15 75.32 4.00 254.69 2745.02
   14:26:42.109.18-Jul-2021 4558.50 6650.21 75.32 4.00 254.89 2745.02
   14:26:42.309.18-Jul-2021 4558.50 6649.20 75.32 4.00 255.09 2745.02
   14:26:42.509.18-Jul-2021 4558.50 6649.20 75.32 4.00 255.29 2745.02
   14:26:42.709.18-Jul-2021 4558.50 6650.59 75.32 4.00 255.49 2745.02
   14:26:42.909.18-Jul-2021 4558.50 6652.25 75.32 4.00 255.69 2745.02
   14:26:43.109.18-Jul-2021 4558.50 6650.32 75.32 4.00 255.89 2745.02
   14:26:43.309.18-Jul-2021 4558.50 6649.50 75.32 4.00 256.09 2745.02
   14:26:43.509.18-Jul-2021 4558.50 6649.50 75.32 4.00 256.29 2745.02
   14:26:43.709.18-Jul-2021 4558.50 6649.64 75.32 4.00 256.49 2745.02
   14:26:43.909.18-Jul-2021 4558.50 6648.86 75.32 4.00 256.69 2745.02
   14:26:44.109.18-Jul-2021 4558.50 6648.87 75.32 4.00 256.89 2745.02
   14:26:44.310.18-Jul-2021 4558.50 6649.22 75.32 4.00 257.09 2745.02
   14:26:44.510.18-Jul-2021 4558.50 6649.22 75.32 4.00 257.29 2745.02
   14:26:44.710.18-Jul-2021 4558.50 6649.25 75.32 4.00 257.49 2745.02
   14:26:44.910.18-Jul-2021 4558.50 6648.74 75.32 4.00 257.69 2745.02
   14:26:45.110.18-Jul-2021 4558.50 6648.91 75.32 4.00 257.89 2745.02
   14:26:45.310.18-Jul-2021 4558.50 6647.97 75.32 4.00 258.10 2745.02
   14:26:45.510.18-Jul-2021 4558.50 6647.97 75.32 4.00 258.30 2745.02
   14:26:45.710.18-Jul-2021 4558.50 6649.28 75.32 4.00 258.50 2745.02
   14:26:45.910.18-Jul-2021 4558.50 6649.44 75.32 4.00 258.70 2745.02
   14:26:46.110.18-Jul-2021 4558.50 6654.32 75.32 4.00 258.90 2745.02
   14:26:46.310.18-Jul-2021 4558.50 6649.88 75.32 4.00 259.10 2745.02
   14:26:46.510.18-Jul-2021 4558.50 6649.88 75.32 4.00 259.30 2745.02
   14:26:46.710.18-Jul-2021 4558.50 6649.79 75.32 4.00 259.50 2745.02
   14:26:46.911.18-Jul-2021 4558.50 6648.92 75.32 4.00 259.70 2745.02
   14:26:47.111.18-Jul-2021 4558.50 6651.92 75.32 4.00 259.90 2745.02
   14:26:47.311.18-Jul-2021 4558.50 6651.91 75.32 4.00 260.10 2745.02
   14:26:47.511.18-Jul-2021 4558.50 6651.91 75.32 4.00 260.30 2745.02
   14:26:47.711.18-Jul-2021 4558.50 6649.48 75.32 4.00 260.50 2745.02
   14:26:47.911.18-Jul-2021 4558.50 6649.25 75.32 4.00 260.70 2745.02
   14:26:48.111.18-Jul-2021 4558.50 6650.97 75.32 4.00 260.90 2745.02
   14:26:48.311.18-Jul-2021 4558.50 6653.43 75.32 4.00 261.10 2745.02
   14:26:48.511.18-Jul-2021 4558.50 6653.43 75.32 4.00 261.30 2745.02
   14:26:48.711.18-Jul-2021 4558.50 6650.11 75.32 4.00 261.50 2745.02
   14:26:48.911.18-Jul-2021 4558.50 6650.16 75.32 4.00 261.70 2745.02
   14:26:49.111.18-Jul-2021 4558.50 6650.42 75.32 4.00 261.90 2745.02
   14:26:49.311.18-Jul-2021 4558.50 6653.51 75.32 4.00 262.10 2745.02
   14:26:49.511.18-Jul-2021 4558.50 6653.51 75.32 4.00 262.30 2745.02
   14:26:49.712.18-Jul-2021 4558.50 6650.88 75.32 4.00 262.50 2745.02
   14:26:49.912.18-Jul-2021 4558.50 6652.46 75.32 4.00 262.70 2745.02
   14:26:50.112.18-Jul-2021 4558.50 6651.72 75.32 4.00 262.90 2745.02
   14:26:50.312.18-Jul-2021 4558.50 6651.46 75.32 4.00 263.10 2745.02
   14:26:50.512.18-Jul-2021 4558.50 6651.46 75.32 4.00 263.30 2745.02
   14:26:50.712.18-Jul-2021 4558.50 6651.31 75.32 4.00 263.50 2745.02
   14:26:50.912.18-Jul-2021 4558.50 6651.00 75.32 4.00 263.70 2745.02
   14:26:51.112.18-Jul-2021 4558.50 6651.10 75.32 4.00 263.90 2745.02
   14:26:51.312.18-Jul-2021 4558.50 6651.05 75.32 4.00 264.10 2745.02
   14:26:51.512.18-Jul-2021 4558.50 6651.05 75.32 4.00 264.30 2745.02
   14:26:51.712.18-Jul-2021 4558.50 6650.08 75.32 4.00 264.50 2745.02
   14:26:51.912.18-Jul-2021 4558.50 6650.43 75.32 4.00 264.70 2745.02
   14:26:52.112.18-Jul-2021 4558.50 6652.86 75.32 4.00 264.90 2745.02
   14:26:52.313.18-Jul-2021 4558.50 6652.80 75.32 4.00 265.10 2745.02
   14:26:52.513.18-Jul-2021 4558.50 6652.80 75.32 4.00 265.30 2745.02
   14:26:52.713.18-Jul-2021 4558.50 6651.82 75.32 4.00 265.50 2745.02
   14:26:52.913.18-Jul-2021 4558.50 6651.06 75.32 4.00 265.70 2745.02
   14:26:53.113.18-Jul-2021 4558.50 6650.20 75.32 4.00 265.90 2745.02
   14:26:53.313.18-Jul-2021 4558.50 6650.23 75.32 4.00 266.10 2745.02
   14:26:53.513.18-Jul-2021 4558.50 6650.23 75.32 4.00 266.30 2745.02
   14:26:53.713.18-Jul-2021 4558.50 6650.33 75.32 4.00 266.50 2745.02
   14:26:53.913.18-Jul-2021 4558.50 6650.77 75.32 4.00 266.70 2745.02
   14:26:54.113.18-Jul-2021 4558.50 6650.35 75.32 4.00 266.90 2745.02
   14:26:54.313.18-Jul-2021 4558.50 6649.63 75.32 4.00 267.10 2745.02
   14:26:54.513.18-Jul-2021 4558.50 6649.63 75.32 4.00 267.30 2745.02
   14:26:54.713.18-Jul-2021 4558.50 6650.52 75.32 4.00 267.50 2745.02
   14:26:54.913.18-Jul-2021 4558.50 6651.60 75.32 4.00 267.70 2745.02
   14:26:55.114.18-Jul-2021 4558.50 6649.02 75.32 4.00 267.90 2745.02
   14:26:55.314.18-Jul-2021 4558.50 6653.15 75.32 4.00 268.10 2745.02
   14:26:55.514.18-Jul-2021 4558.50 6653.15 75.32 4.00 268.30 2745.02
   14:26:55.714.18-Jul-2021 4558.50 6649.42 75.32 4.00 268.50 2745.02
   14:26:55.914.18-Jul-2021 4558.50 6649.85 75.32 4.00 268.70 2745.02
   14:26:56.114.18-Jul-2021 4558.50 6649.60 75.32 4.00 268.90 2745.02
   14:26:56.314.18-Jul-2021 4558.50 6650.44 75.32 4.00 269.10 2745.02
   14:26:56.514.18-Jul-2021 4558.50 6650.44 75.32 4.00 269.30 2745.02
   14:26:56.714.18-Jul-2021 4558.50 6651.04 75.32 4.00 269.50 2745.02
   14:26:56.914.18-Jul-2021 4558.50 6648.63 75.32 4.00 269.70 2745.02
   14:26:57.114.18-Jul-2021 4558.50 6649.97 75.32 4.00 269.90 2745.02
   14:26:57.314.18-Jul-2021 4558.50 6649.48 75.32 4.00 270.10 2745.02
   14:26:57.514.18-Jul-2021 4558.50 6649.48 75.32 4.00 270.30 2745.02
   14:26:57.715.18-Jul-2021 4558.50 6650.74 75.32 4.00 270.50 2745.02
   14:26:57.915.18-Jul-2021 4558.50 6649.70 75.32 4.00 270.70 2745.02
   14:26:58.115.18-Jul-2021 4558.50 6649.81 75.32 4.00 270.90 2745.02
   14:26:58.315.18-Jul-2021 4558.50 6650.23 75.32 4.00 271.10 2745.02
   14:26:58.515.18-Jul-2021 4558.50 6650.23 75.32 4.00 271.30 2745.02
   14:26:58.715.18-Jul-2021 4558.50 6650.54 75.32 4.00 271.50 2745.02
   14:26:58.915.18-Jul-2021 4558.50 6650.50 75.32 4.00 271.70 2745.02
   14:26:59.115.18-Jul-2021 4558.50 6650.96 75.32 4.00 271.90 2745.02
   14:26:59.315.18-Jul-2021 4558.50 6649.92 75.32 4.00 272.10 2745.02
   14:26:59.515.18-Jul-2021 4558.50 6649.92 75.32 4.00 272.30 2745.02
   14:26:59.715.18-Jul-2021 4558.50 6650.09 75.32 4.00 272.50 2745.02
   14:26:59.915.18-Jul-2021 4558.50 6649.78 75.32 4.00 272.70 2745.02
   14:27:00.115.18-Jul-2021 4558.50 6649.78 75.32 4.00 272.90 2745.02
   14:27:00.315.18-Jul-2021 4558.50 6649.55 75.32 4.00 273.10 2745.02
   14:27:00.516.18-Jul-2021 4558.50 6649.55 75.32 4.00 273.30 2745.02
   14:27:00.716.18-Jul-2021 4558.50 6649.02 75.32 4.00 273.50 2745.02
   14:27:00.916.18-Jul-2021 4558.50 6648.95 75.32 4.00 273.70 2745.02
   14:27:01.116.18-Jul-2021 4558.50 6648.82 75.32 4.00 273.90 2745.02
   14:27:01.316.18-Jul-2021 4558.50 6653.04 75.32 4.00 274.10 2745.02
   14:27:01.516.18-Jul-2021 4558.50 6653.04 75.32 4.00 274.30 2745.02
   14:27:01.716.18-Jul-2021 4558.50 6649.14 75.32 4.00 274.50 2745.02
   14:27:01.916.18-Jul-2021 4558.50 6649.80 75.32 4.00 274.70 2745.02
   14:27:02.116.18-Jul-2021 4558.50 6649.31 75.32 4.00 274.90 2745.02
   14:27:02.316.18-Jul-2021 4558.50 6648.86 75.32 4.00 275.10 2745.02
   14:27:02.516.18-Jul-2021 4558.50 6648.86 75.32 4.00 275.30 2745.02
   14:27:02.716.18-Jul-2021 4558.50 6648.92 75.32 4.00 275.50 2745.02
   14:27:02.916.18-Jul-2021 4558.50 6648.50 75.32 4.00 275.70 2745.02
   14:27:03.116.18-Jul-2021 4558.50 6649.01 75.32 4.00 275.90 2745.02
