~Version Information
 VERS.                  2.0:   CWLS log ASCII Standard -VERSION 2.0
 WRAP.                   NO:   One line per depth step
~Well Information Block
#MNEM.UNIT     VALUE/NAME     DESCRIPTION
#---------     -----------    ---------------------------
 STRT.S             04:43:18 19-Jul-21: START TIME 04:43:18 19-Jul-21
 STOP.S             04:49:54 19-Jul-21: STOP TIME  04:49:54 19-Jul-21
 STEP.S                   0.00: STEP TIME
 NULL.                 -999.25: NULL VALUE
 MDS .        Operator Entered:  MAG DATA SOURCE
 PDAT.          Mean Sea Level:  PERMANENT DATUM
 UNIT.                     N/A:  LOGGING EQUIPMENT ID
 DCON.         Sperry Drilling:  DIRECTNL CONTR
 DOE .                     N/A:  DOE NUMBER
 RIG .              West Azeri:  RIG NAME
 JOBN.        AZ-XX-0906997913:  JOB TICKET NUMB
 WELL.                     C41:  WELL NAME
 MWDS.                    Baku:  MWD SHOP
 SRVC.          Turan Drilling:  CONTRACTOR
 FLD .                     ACG:  FIELD NAME
 CTRY.              Azerbaijan:  COUNTRY NAME
 PROV.                    Baku:  PROVINCE
 STAT.                    Baku:  STATE NAME
 REGN.                   EESSA:  REGION
 BASE.              Azerbaijan:  LOGGING EQUIPMENT BASE LOCATION
 UWI .                     N/A:  UNIQUE WELL IDENTIFIER
 API .                     N/A:  API NUMBER
 COMP.     BP Exploration (Caspian Sea) Ltd.:  COMPANY
 WTYP.                Deviated:  WELL TYPE
 SON .        AZ-XX-0906997913:  JOB NUMBER
 FTOP.          Formation Tops:  FORM TOPS DESC
 ILTD.               Lithology:  INTERP LTH DESC
 SVYD.                  Survey:  SURVEY DESC
 DMOD.             Drill Model:  DRILL MOD DESC
 HPTY.       Minimum Curvature:  HOLE POS TYPE
 NREF.                    Grid:  NORTH REFERENCE
 SPUD.               16-May-21:  SPUD DATE
 DATE.      21.11.28 17-May-21:  END TIME
 STIM.      21.11.28 17-May-21:  START TIME
 DMF .             Drill Floor:  DRILL MEAS FROM
 DFST.                        :  DIST FSL TEXT
 DFWT.                        :  DIST FWL TEXT
 CNTY.                        :  COUNTY
 LOC .                        :  LOCATION
 LMF .             Drill Floor:  LOG MEASURED FROM
 AGAP.m                  43.42:  AIR GAP
 VSNS.m                  -2.16:  VERT SEC N/S
 VSEW.m                  -6.24:  VERT SEC E/W
 APD .m                  43.42:  DEPTH ABOVE PD
 WDMS.m                 118.27:  WD ELEV
 EGL .m                   0.00:  GROUND ELEVATION
 EPD .m                   0.00:  ELEVATION
 AZTC.deg                 6.29:  AZM TOTAL CORR
 GRDC.deg                 0.18:  GRID CORRECTION
 MDEC.deg                 6.47:  MAGNETIC DECL
 MDIP.deg                59.54:  MAGNETIC DIP
 MFLD.nT              50337.00:  MAGNETIC FIELD
 GVFD.g                   1.00:  GRAVITY FIELD
 VSDR.deg               226.99:  VERT SEC DIRECT
 TDD .m                   0.00:  TOTAL DEPTH (DRILLER)
 SDEP.m                 448.00:  START DEPTH
 DFSL.m                   0.00:  DISTANCE FSL
 DFWL.m                   0.00:  DISTANCE FWL
 UTMY.m             4435799.96:  UTM Y
 UTMX.m              526265.35:  UTM X
 WHEW.m                  -6.24:  WELL HEAD E/W
 WHNS.m                  -2.16:  WELL HEAD N/S
 LONG.deg                51.31:  LONGITUDE
 LATI.deg                40.06:  LATITUDE
 TVDS.m                  43.42:  TVDSS CORRECTN
 EKB .m                  43.42:  KB ELEVATION
 EDF .m                  43.42:  DF ELEVATION
 TDL .m                 288.00:  TOTAL DEPTH (LOGGER)
 MAGU.                 1851863:  MAGUTM CHECKSUM
 VSC .                       0:  VS TO CLOSURE
~Parameter Information Block
#MNEM.UNIT       Value        Description
#---------     -----------    ---------------------------
 AV  .mps                 0.40:  Ann Velocity 
 AVMX.mps                 0.63:  Max Ann Veloc 
 AZIF.deg               158.76:  Azm, Final 
 BHAT.        Rotary Steerable:  BHA Type 
 BROT.°/30m               0.68:  Build Rotating 
 BS  .in                  8.50:  Bit Size 
 BSZ .in                  8.50:  Bit Size 
 BTPL.psig              712.00:  Bit Press Loss 
 CABU.                      No:  Customer Abuse 
 COMM.                     ”™f:  Run Comments 1 
 TCS .hr                 90.66:  Time Ciculation Ended 
 CV  .mps                 2.02:  Crit Velocity 
 CVMX.mps                 2.14:  Max Crit Veloc 
 DD1 .            Aziz Aliyevu:  Direct Drillr 1 
 DD2 .             Samir Abbas:  Direct Drillr 2 
 DD3 .           Teymur Aliyev:  Direct Drillr 3 
 DDSV.                 iCruise:  DD Service 
 DEFF.%                  85.10:  % Det Eff 
 DLRX.°/30m               1.05:  Dogleg Rot Max 
 DLSO.°/30m               1.01:  Dogleg Oriented 
 DLSX.°/30m               1.05:  Dogleg Str Max 
 DRET.      07.45.00 18-Jul-21:  Drill End Time 
 DRST.      15.00.00 16-Jul-21:  Drill Start Tim 
 DTIM.hr                 23.46:  Time Drilling 
 EDEP.m                4603.00:  End Depth 
 ENG1.       Seymur Iskandarov:  Engineer 1 
 ENG2.         Yevgeniy Ulikov:  Engineer 2 
 ENG3.         Bahruz Mehdiyev:  Engineer 3 
 ENG4.         Elchin Mammadov:  Engineer 4 
 ETIM.      14.00.00 23-Jul-21:  End Time 
 FLOI.gpm               500.00:  Flow In 
 FLON.gpm               450.00:  Flow In Min 
 FLOS.cptm                0.00:  Fluid Loss 
 FLOX.gpm               560.00:  Flow In Max 
 DFT .        Mineral Oil Base:  Mud Type 
 FTRO.       Formation Presure:  FTWD Run Obj 
 HFLO.                      No:  High Flow 
 HPRE.                      No:  High Pressure 
 HTEM.                      No:  High Temp 
 HYDO.m                   1.80:  Hydro Offset 
 IFIN.deg                40.22:  Inc, Final 
 IMAX.deg                40.54:  Inc Max 
 IMIN.deg                39.44:  Inc Min 
 IMND.m                4361.17:  Inc Min Depth 
 IMXD.m                4417.92:  Inc Max Depth 
 JARR.                      No:  Jarring 
 LETM.      07.45.00 18-Jul-21:  Log End Time 
 LOST.hr                    16:  Lost Rig Time 
 LSTM.      15.00.00 16-Jul-21:  Log Start Time 
 MDCL.ppm             36500.00:  Mud Chlorides 
 MDES.     Inversion Oil/Synthetic:  Mud Desc 
 DFD .sg                  1.42:  Mud Density 
 MDMN.sg                  1.42:  Dens Mud Min 
 MDMX.sg                  1.43:  Dens Mud Max 
 MOIL.                      56:  Run Mud Oil % 
 MOWR.                   71:29:  Run Mud OWR 
 MSND.                     0.5:  Run Mud Sand % 
 MSOL.                      21:  Run Mud Solids% 
 DFV .spqt               78.00:  Mud Viscosity 
 MWOD.in                  6.75:  MWD Tool OD 
 MWSI.                     Yes:  Serv Intrp, MWD 
 OTIM.hr                200.73:  Time Operating 
 PCON.           Look Like New:  Pad Condition 
 PMAX.psia            11069.93:  Press Op, Max 
 PV  .cP                 32.00:  Mud PV 
 RUN .                     700:  Run Number 
 ROPA.m/hr               10.00:  ROP Avg 
 ROPN.m/hr                9.00:  ROP Min 
 ROPX.m/hr               16.00:  ROP Max 
 RPMA.rpm               116.00:  RPM Surface Avg 
 RPMN.rpm                80.00:  RPM Surface Min 
 RPMX.rpm               120.00:  RPM Surface Max 
 RRUN.                    L605:  Rig Run Number 
 RTIM.hr                 45.00:  Time Reaming 
 SAZI.deg               159.86:  Azm, Start 
 SDEP.m                4315.00:  Start Depth 
 SIDD.                      No:  Serv Intrp, DD 
 SINC.deg                39.86:  Inc, Start 
 SPPA.psig             3300.00:  SPP Avg 
 SPPN.psig             3040.00:  SPP Min 
 SPPX.psig             3645.00:  SPP Max 
 STIM.      01.00.00 15-Jul-21:  Start Time 
 SVCS.                 DD, MWD:  Services 
 SVER.                    9.20:  Sperry Version 
 TDAT.m                 288.00:  Tot Depth Attmp 
 TDDF.                      No:  Trip for DD 
 TDLG.m                 288.00:  Tot Depth Loggd 
 TFF .                      No:  Trip for Fail 
 TQAA.f-kp               19.00:  Torque Abs Avg 
 TQAN.f-kp               18.00:  Torque Abs Min 
 TQAX.f-kp               21.00:  Torque Abs Max 
 TRRT.°/30m               0.45:  Turn Rotating 
 MRT .                    HCIM:  Maximum Recorded Temperature 
 TTMX.degC               88.24:  Max Tool Temp 
 VS01.                90649157:  Virtual Str1 SN 
 VS02.                90652483:  Virtual Str2 SN 
 VS03.                11671987:  Virtual Str3 SN 
 VS04.                90643411:  Virtual Str4 SN 
 VS05.                90652478:  Virtual Str5 SN 
 VS06.                    6111:  Virtual Str6 SN 
 WBMN.klb                 9.50:  WOB Min 
 WITN.        Grigoriy Sarayev:  Customer Rep 
 WITN.          Rufat Huseynov:  Customer Rep 2 
 WOBA.klb                11.00:  WOB Avg 
 WOBX.klb                15.00:  WOB Max 
 YP  .lhf2               28.00:  Yield Point 
~Curve Information Block
#MNEM.UNIT                 API CODE     Curve Description
#---------               -----------    ---------------------------
 TIME.HHMMSS            00 000 000 000:  GT Time & Date
 GTDEPTH.m              00 000 000 000:  GT Depth
 GTPQH.psia             00 000 000 000:  GT HR Quartz Pressure
 GTTQ.degC              00 000 000 000:  GT Quartz Temperature
 GTTN.NONE              00 000 000 000:  GT Test Number
 GTET.sec               00 000 000 000:  GT Elapsed Test Time
 GTTVD.m                00 000 000 000:  GT True Vertical Depth
#Other Information
#
#WARRANTY: Halliburton will use its best efforts to furnish customers with 
#accurate information and interpretations that are part of, and incident to, the services 
#provided.  However, Halliburton cannot and does not warrant the accuracy 
#or correctness of such information and interpretations.  Under no circumstances should any 
#such information or interpretation be relied upon as the sole basis for any drilling, 
#completion, production, or financial decision or any procedure involving any risk to the 
#safety of any drilling venture, drilling rig or its crew or any other third party.  The 
#Customer has full responsibility for all drilling, completion and production operation.  
#Halliburton makes no representations or warranties, either expressed or 
#implied, including, but not limited to, the implied warranties of merchantability or fitness 
#for a particular purpose, with respect to the services rendered.  In no event will 
#Halliburton be liable for failure to obtain any particular results or for 
#any damages, including, but not limited to, indirect, special or consequential damages, 
#resulting from the use of any information or interpretation provided by Halliburton.
#
~A           TIME           GTDEPTH  GTPQH  GTTQ  GTTN   GTET   GTTVD  
# ...
   04:47:04.317.19-Jul-2021 4355.50 1013.63 68.69 11.00 226.08 2589.71
   04:47:04.517.19-Jul-2021 4355.50 1013.63 68.69 11.00 226.28 2589.71
   04:47:04.717.19-Jul-2021 4355.50 1014.90 68.69 11.00 226.48 2589.71
   04:47:04.917.19-Jul-2021 4355.50 1015.83 68.69 11.00 226.68 2589.71
   04:47:05.117.19-Jul-2021 4355.50 1016.99 68.69 11.00 226.88 2589.71
   04:47:05.317.19-Jul-2021 4355.50 1018.50 68.69 11.00 227.08 2589.71
   04:47:05.517.19-Jul-2021 4355.50 1018.50 68.69 11.00 227.28 2589.71
   04:47:05.717.19-Jul-2021 4355.50 1019.86 68.69 11.00 227.48 2589.71
   04:47:05.917.19-Jul-2021 4355.50 1020.62 68.69 11.00 227.68 2589.71
   04:47:06.117.19-Jul-2021 4355.50 1021.39 68.69 11.00 227.88 2589.71
   04:47:06.317.19-Jul-2021 4355.50 1022.19 68.69 11.00 228.08 2589.71
   04:47:06.517.19-Jul-2021 4355.50 1022.19 68.69 11.00 228.28 2589.71
   04:47:06.717.19-Jul-2021 4355.50 1023.76 68.69 11.00 228.48 2589.71
   04:47:06.918.19-Jul-2021 4355.50 1024.36 68.69 11.00 228.68 2589.71
   04:47:07.118.19-Jul-2021 4355.50 1024.97 68.69 11.00 228.88 2589.71
   04:47:07.318.19-Jul-2021 4355.50 1025.78 68.69 11.00 229.08 2589.71
   04:47:07.518.19-Jul-2021 4355.50 1025.78 68.69 11.00 229.28 2589.71
   04:47:07.718.19-Jul-2021 4355.50 1026.38 68.69 11.00 229.48 2589.71
   04:47:07.918.19-Jul-2021 4355.50 1027.46 68.69 11.00 229.68 2589.71
   04:47:08.118.19-Jul-2021 4355.50 1028.83 68.69 11.00 229.88 2589.71
   04:47:08.318.19-Jul-2021 4355.50 1029.13 68.69 11.00 230.08 2589.71
   04:47:08.518.19-Jul-2021 4355.50 1029.13 68.69 11.00 230.28 2589.71
   04:47:08.718.19-Jul-2021 4355.50 1030.59 68.69 11.00 230.48 2589.71
   04:47:08.918.19-Jul-2021 4355.50 1031.37 68.69 11.00 230.68 2589.71
   04:47:09.118.19-Jul-2021 4355.50 1032.18 68.69 11.00 230.89 2589.71
   04:47:09.318.19-Jul-2021 4355.50 1032.83 68.69 11.00 231.09 2589.71
   04:47:09.518.19-Jul-2021 4355.50 1032.83 68.69 11.00 231.29 2589.71
   04:47:09.719.19-Jul-2021 4355.50 1034.23 68.69 11.00 231.49 2589.71
   04:47:09.919.19-Jul-2021 4355.50 1033.93 68.70 11.00 231.69 2589.71
   04:47:10.119.19-Jul-2021 4355.50 1034.85 68.70 11.00 231.89 2589.71
   04:47:10.319.19-Jul-2021 4355.50 1035.80 68.70 11.00 232.09 2589.71
   04:47:10.519.19-Jul-2021 4355.50 1035.80 68.70 11.00 232.29 2589.71
   04:47:10.719.19-Jul-2021 4355.50 1037.65 68.70 11.00 232.49 2589.71
   04:47:10.919.19-Jul-2021 4355.50 1038.44 68.70 11.00 232.69 2589.71
   04:47:11.119.19-Jul-2021 4355.50 1040.05 68.70 11.00 232.89 2589.71
   04:47:11.319.19-Jul-2021 4355.50 1040.38 68.70 11.00 233.09 2589.71
   04:47:11.519.19-Jul-2021 4355.50 1040.38 68.70 11.00 233.29 2589.71
   04:47:11.719.19-Jul-2021 4355.50 1042.16 68.70 11.00 233.49 2589.71
   04:47:11.919.19-Jul-2021 4355.50 1042.90 68.70 11.00 233.69 2589.71
   04:47:12.119.19-Jul-2021 4355.50 1043.96 68.70 11.00 233.89 2589.71
   04:47:12.320.19-Jul-2021 4355.50 1044.73 68.70 11.00 234.09 2589.71
   04:47:12.520.19-Jul-2021 4355.50 1044.73 68.70 11.00 234.29 2589.71
   04:47:12.720.19-Jul-2021 4355.50 1046.19 68.70 11.00 234.49 2589.71
   04:47:12.920.19-Jul-2021 4355.50 1046.97 68.70 11.00 234.69 2589.71
   04:47:13.120.19-Jul-2021 4355.50 1048.56 68.70 11.00 234.89 2589.71
   04:47:13.320.19-Jul-2021 4355.50 1049.00 68.70 11.00 235.09 2589.71
   04:47:13.520.19-Jul-2021 4355.50 1049.00 68.70 11.00 235.29 2589.71
   04:47:13.720.19-Jul-2021 4355.50 1050.24 68.70 11.00 235.49 2589.71
   04:47:13.920.19-Jul-2021 4355.50 1051.54 68.70 11.00 235.69 2589.71
   04:47:14.120.19-Jul-2021 4355.50 1053.12 68.70 11.00 235.89 2589.71
   04:47:14.320.19-Jul-2021 4355.50 1053.62 68.70 11.00 236.09 2589.71
   04:47:14.520.19-Jul-2021 4355.50 1053.62 68.70 11.00 236.29 2589.71
   04:47:14.720.19-Jul-2021 4355.50 1055.19 68.70 11.00 236.49 2589.71
   04:47:14.920.19-Jul-2021 4355.50 1055.97 68.70 11.00 236.69 2589.71
   04:47:15.121.19-Jul-2021 4355.50 1056.85 68.70 11.00 236.89 2589.71
   04:47:15.321.19-Jul-2021 4355.50 1057.63 68.70 11.00 237.09 2589.71
   04:47:15.521.19-Jul-2021 4355.50 1057.63 68.70 11.00 237.29 2589.71
   04:47:15.721.19-Jul-2021 4355.50 1058.87 68.70 11.00 237.49 2589.71
   04:47:15.921.19-Jul-2021 4355.50 1059.64 68.70 11.00 237.69 2589.71
   04:47:16.121.19-Jul-2021 4355.50 1060.27 68.70 11.00 237.89 2589.71
   04:47:16.321.19-Jul-2021 4355.50 1060.30 68.70 11.00 238.09 2589.71
   04:47:16.521.19-Jul-2021 4355.50 1060.30 68.70 11.00 238.29 2589.71
   04:47:16.721.19-Jul-2021 4355.50 1062.29 68.70 11.00 238.49 2589.71
   04:47:16.921.19-Jul-2021 4355.50 1063.60 68.70 11.00 238.69 2589.71
   04:47:17.121.19-Jul-2021 4355.50 1064.02 68.70 11.00 238.89 2589.71
   04:47:17.321.19-Jul-2021 4355.50 1064.87 68.70 11.00 239.09 2589.71
   04:47:17.521.19-Jul-2021 4355.50 1064.87 68.70 11.00 239.29 2589.71
   04:47:17.721.19-Jul-2021 4355.50 1066.37 68.70 11.00 239.49 2589.71
   04:47:17.922.19-Jul-2021 4355.50 1066.98 68.70 11.00 239.69 2589.71
   04:47:18.122.19-Jul-2021 4355.50 1067.68 68.70 11.00 239.89 2589.71
   04:47:18.322.19-Jul-2021 4355.50 1068.39 68.70 11.00 240.09 2589.71
   04:47:18.522.19-Jul-2021 4355.50 1068.39 68.70 11.00 240.29 2589.71
   04:47:18.722.19-Jul-2021 4355.50 1068.73 68.70 11.00 240.49 2589.71
   04:47:18.922.19-Jul-2021 4355.50 1070.08 68.70 11.00 240.69 2589.71
   04:47:19.122.19-Jul-2021 4355.50 1070.97 68.70 11.00 240.89 2589.71
   04:47:19.322.19-Jul-2021 4355.50 1071.29 68.70 11.00 241.09 2589.71
   04:47:19.522.19-Jul-2021 4355.50 1071.29 68.70 11.00 241.29 2589.71
   04:47:19.722.19-Jul-2021 4355.50 1073.77 68.70 11.00 241.49 2589.71
   04:47:19.922.19-Jul-2021 4355.50 1075.06 68.70 11.00 241.69 2589.71
   04:47:20.122.19-Jul-2021 4355.50 1075.85 68.70 11.00 241.89 2589.71
   04:47:20.322.19-Jul-2021 4355.50 1077.49 68.70 11.00 242.09 2589.71
   04:47:20.523.19-Jul-2021 4355.50 1077.49 68.70 11.00 242.29 2589.71
   04:47:20.723.19-Jul-2021 4355.50 1079.69 68.70 11.00 242.49 2589.71
   04:47:20.923.19-Jul-2021 4355.50 1080.99 68.70 11.00 242.69 2589.71
   04:47:21.123.19-Jul-2021 4355.50 1082.81 68.70 11.00 242.89 2589.71
   04:47:21.323.19-Jul-2021 4355.50 1083.62 68.70 11.00 243.09 2589.71
   04:47:21.523.19-Jul-2021 4355.50 1083.62 68.70 11.00 243.29 2589.71
   04:47:21.723.19-Jul-2021 4355.50 1085.32 68.70 11.00 243.49 2589.71
   04:47:21.923.19-Jul-2021 4355.50 1087.02 68.70 11.00 243.69 2589.71
   04:47:22.123.19-Jul-2021 4355.50 1088.74 68.70 11.00 243.89 2589.71
   04:47:22.323.19-Jul-2021 4355.50 1089.38 68.70 11.00 244.09 2589.71
   04:47:22.523.19-Jul-2021 4355.50 1089.38 68.70 11.00 244.29 2589.71
   04:47:22.723.19-Jul-2021 4355.50 1091.41 68.70 11.00 244.49 2589.71
   04:47:22.923.19-Jul-2021 4355.50 1092.33 68.70 11.00 244.69 2589.71
   04:47:23.123.19-Jul-2021 4355.50 1093.17 68.70 11.00 244.89 2589.71
   04:47:23.324.19-Jul-2021 4355.50 1093.98 68.70 11.00 245.09 2589.71
   04:47:23.524.19-Jul-2021 4355.50 1093.98 68.70 11.00 245.29 2589.71
   04:47:23.724.19-Jul-2021 4355.50 1095.52 68.70 11.00 245.49 2589.71
   04:47:23.924.19-Jul-2021 4355.50 1096.38 68.70 11.00 245.69 2589.71
   04:47:24.124.19-Jul-2021 4355.50 1096.36 68.70 11.00 245.89 2589.71
   04:47:24.324.19-Jul-2021 4355.50 1097.25 68.70 11.00 246.09 2589.71
   04:47:24.524.19-Jul-2021 4355.50 1097.25 68.70 11.00 246.29 2589.71
   04:47:24.724.19-Jul-2021 4355.50 1099.36 68.70 11.00 246.49 2589.71
   04:47:24.924.19-Jul-2021 4355.50 1100.16 68.70 11.00 246.69 2589.71
   04:47:25.124.19-Jul-2021 4355.50 1100.99 68.70 11.00 246.89 2589.71
   04:47:25.324.19-Jul-2021 4355.50 1101.87 68.70 11.00 247.09 2589.71
   04:47:25.524.19-Jul-2021 4355.50 1101.87 68.70 11.00 247.29 2589.71
   04:47:25.724.19-Jul-2021 4355.50 1103.41 68.70 11.00 247.49 2589.71
   04:47:25.925.19-Jul-2021 4355.50 1104.17 68.70 11.00 247.69 2589.71
   04:47:26.125.19-Jul-2021 4355.50 1104.94 68.70 11.00 247.89 2589.71
   04:47:26.325.19-Jul-2021 4355.50 1105.65 68.70 11.00 248.09 2589.71
   04:47:26.525.19-Jul-2021 4355.50 1105.65 68.70 11.00 248.29 2589.71
   04:47:26.725.19-Jul-2021 4355.50 1105.92 68.70 11.00 248.49 2589.71
